[{"poiid":"B2094654DA6FA7FE419B","title":"上海宝莱纳餐厅滨江店","lon":"121.49861","lat":"31.23409","category":"94","category_name":"西餐厅","address":"浦东新区滨江大道2967号滨江风光亭"},{"poiid":"B2094654DA6FA7FF4699","title":"海龙海鲜舫","lon":"121.50199","lat":"31.23107","category":"72","category_name":"广东菜","address":"浦东新区东昌路1号(近富城路拾步街)"},{"poiid":"B2094757D469A1F54993","title":"星巴克 滨江店 Starbucks Cafe","lon":"121.49833629105","lat":"31.235145384788","category":"260","category_name":"其他","address":"浦东新区滨江大道富都段滨江公园内(富城路名商路)"},{"poiid":"B209475CD564A7F84292","title":"上海滩新天地店","lon":"121.47463","lat":"31.22164","category":"119","category_name":"商场","address":"\"太仓路181弄新天地北里15号\r\n\""},{"poiid":"B209475CD564A7F84392","title":"上海滩浦东香格里拉店","lon":"121.50058","lat":"31.23634","category":"119","category_name":"商场","address":"浦东富成路33号香格里拉酒店内大堂层"},{"poiid":"B2094757D06FA6FC429D","title":"外滩新十六铺","lon":"121.498305","lat":"31.227433","category":"234","category_name":"海滨浴场","address":"上海中山东二路531号"},{"poiid":"B2094757D06FA1FD489D","title":"天水恋意大利餐厅","lon":"121.49832","lat":"31.23456","category":"94","category_name":"西餐厅","address":"浦东新区滨江大道富都段滨江花园内(近富城路)"},{"poiid":"B2094757D06EAAFA489F","title":"上海外滩英迪格酒店 (Hotel Indigo)","lon":"121.499735","lat":"31.226432","category":"217","category_name":"旅馆招待所","address":"黄浦区中山东二路585号(近东门路)"},{"poiid":"B2094757D06FA7F54892","title":"外滩轮渡","lon":"121.49613189","lat":"31.232406616","category":"260","category_name":"其他","address":"上海外滩"},{"poiid":"B2094757D06FA1F94792","title":"香港名都","lon":"121.496","lat":"31.228","category":"119","category_name":"商场","address":"黄浦区河南南路489号(近复兴东路)"},{"poiid":"B2094757D568A6FE449D","title":"松鹤楼(外滩店)","lon":"121.49712782","lat":"31.22868273","category":"76","category_name":"上海菜","address":"黄浦区中山东二路505号(近外马路)"},{"poiid":"B2094757D06FA0FE479A","title":"汤臣一品","lon":"121.50127","lat":"31.233383","category":"47","category_name":"住宅区","address":"朝阳区东四环慈云寺桥东北角,向东400米路南"},{"poiid":"B2094757D06FA1F5479D","title":"震旦国际大楼","lon":"121.499293","lat":"31.234784","category":"46","category_name":"楼宇","address":"上海浦东新区富城路99号"},{"poiid":"B2094757D06FA4FF4298","title":"Zeal","lon":"121.494104619","lat":"31.230399184","category":"260","category_name":"其他","address":"黄浦区中山东二路22号6楼(近金陵东路)"},{"poiid":"B2094757D06FA2F9439E","title":"香格里拉怡咖啡","lon":"121.4992","lat":"31.2349","category":"268","category_name":"自助","address":"浦东新区富城路33号香格里拉大酒店紫金楼2楼(近名商路)"},{"poiid":"B2094654DB64ABF9439A","title":"震旦艺术博物馆","lon":"121.49929","lat":"31.23478","category":"182","category_name":"博物馆","address":"富城路99号震旦国际大楼1层"},{"poiid":"B2094757D16AA3FA449F","title":"紅磡體育館","lon":"121.50024373","lat":"31.234377388","category":"500","category_name":"未知分类","address":"香港尖沙咀東紅磡體育館"},{"poiid":"B2094757D06FA1F8419B","title":"一点红","lon":"121.49738","lat":"31.23469","category":"94","category_name":"西餐厅","address":"浦东新区陆家嘴西路168号正大广场1楼(近东方明珠)"},{"poiid":"B2094750D26EA2FB419E","title":"El Willy","lon":"121.493644","lat":"31.231233","category":"94","category_name":"西餐厅","address":"黄浦区中山东二路22号5楼(近新永安路)"},{"poiid":"B2094757D06FA6F8429D","title":"古城公园","lon":"121.493892508","lat":"31.2285424773","category":"196","category_name":"公园","address":"黄浦区人民路333号(近福佑路)"},{"poiid":"B2094757D16FA0FF4092","title":"小南国(十六铺店)","lon":"121.500050938","lat":"31.2274259403","category":"76","category_name":"上海菜","address":"黄浦区中山东二路565号A楼(近东门路)"},{"poiid":"B2094757D06FA6FC4993","title":"晶浦会","lon":"121.49999","lat":"31.23362","category":"72","category_name":"广东菜","address":"上海浦东新区花园石桥路33号花旗集团大厦4楼(近富城路)  "},{"poiid":"B2094750DA64A1F5409F","title":"王品台塑牛排(正大广场店)","lon":"121.496726","lat":"31.234537","category":"248","category_name":"生活娱乐","address":"浦东新区陆家嘴西路168号正大广场8楼(近东方明珠)"},{"poiid":"B2094757D165A7F54999","title":"花旗银行大厦","lon":"121.500979701","lat":"31.2332134973","category":"46","category_name":"楼宇","address":"上海浦东新区花园石桥路33号"},{"poiid":"B2094654DA6FA7FE409D","title":"STARBUCKS COFFEE(富城路)","lon":"121.49745","lat":"31.23502","category":"65","category_name":"咖啡厅","address":""},{"poiid":"B2094757D069A6FE449C","title":"十六铺码头边","lon":"121.49703768","lat":"31.228610509","category":"500","category_name":"未知分类","address":"上海市,上海中山东二路"},{"poiid":"B2094757D468A4FE489A","title":"Horizen","lon":"121.492901","lat":"31.231715","category":"247","category_name":"餐饮美食","address":"金陵东路1号近中山东二路"},{"poiid":"B2094757D06AA2FD4298","title":"龙皇酒家","lon":"121.49882273","lat":"31.227382239","category":"72","category_name":"广东菜","address":"黄浦区中山东二路535号十六铺B栋楼(外马路中山东二路)"},{"poiid":"B2094757D068A5F9429C","title":"福佑商厦","lon":"121.498","lat":"31.2336","category":"119","category_name":"商场","address":"黄浦区福佑路225号(近旧校场路)"},{"poiid":"B2094750D26EA7F44892","title":"YAWARAGI ON THE BUND","lon":"121.494522","lat":"31.232086","category":"95","category_name":"日本料理","address":"黄浦区中山东二路22号3楼(近新永安路)"},{"poiid":"B2094750D26FABF44592","title":"Bocca","lon":"121.4960508","lat":"31.2293856","category":"98","category_name":"意式菜品餐厅","address":"黄浦区中山东二路22号5楼(近新永安路)"},{"poiid":"B2094757D468ABF54699","title":"星巴克 花旗大厦店 Starbucks Cafe","lon":"121.500050054","lat":"31.234238793","category":"65","category_name":"咖啡厅","address":"浦东新区花园石桥路33号花旗集团大厦1楼(近富城路)"},{"poiid":"B2094757D068A6FF489B","title":"金陵东路渡口","lon":"121.493181968","lat":"31.2321444779","category":"35","category_name":"长途汽车站","address":"上海中山东二路121号(金陵东路口)"},{"poiid":"B2094757D06FA7FD4592","title":"网鱼网咖(张杨店)","lon":"121.49722426","lat":"31.229141715","category":"173","category_name":"游戏厅","address":"浦东新区张杨路640号3楼A座(近第一八佰伴)"},{"poiid":"B2094655D26CA4F44392","title":"滨江大道(八号门)","lon":"121.49874","lat":"31.23482","category":"116","category_name":"特色商业街","address":""},{"poiid":"B2094757D068AAF44399","title":"士林华苑","lon":"121.497","lat":"31.2262","category":"47","category_name":"住宅区","address":"上海黄浦区河南南路555弄"},{"poiid":"B209475CD76BA0F9469E","title":"大蔬无界 外滩22号馆","lon":"121.493989","lat":"31.230711","category":"111","category_name":"休闲餐饮场所","address":"上海市黄浦区中山东二路外滩22号4楼"},{"poiid":"B2094655D36DA6FF4493","title":"金陵东路","lon":"121.49318","lat":"31.23215","category":"38","category_name":"公交车站","address":"上海黄浦区金陵东路"},{"poiid":"B2094750D268A7F8449E","title":"滨江一号","lon":"121.501441","lat":"31.231658","category":"247","category_name":"餐饮美食","address":"浦东新区滨江一号滨江富城路拾步街由隆花园(近石桥路)"},{"poiid":"B2094757D069A2F8419D","title":"黄浦江游览","lon":"121.49412","lat":"31.23077","category":"260","category_name":"其他","address":"黄浦区中山东二路531号(近新开河)查看地图"},{"poiid":"B2094757D66AAAFB439C","title":"江畔Quay","lon":"121.496346","lat":"31.229182","category":"94","category_name":"西餐厅","address":"黄浦区中山东二路585号外滩英迪格酒店6楼"},{"poiid":"B2094654DA6EA5FA419E","title":"新外滩商厦","lon":"121.49335","lat":"31.23127","category":"46","category_name":"楼宇","address":"黄浦区中山东二路15号(龙潭路中山东二路)"},{"poiid":"B2094757D06BA2FA4499","title":"新开河","lon":"121.495265841","lat":"31.2296010434","category":"38","category_name":"公交车站","address":"上海外滩"},{"poiid":"B2094750D46BABF94593","title":"小南国","lon":"121.496276","lat":"31.234474","category":"247","category_name":"餐饮美食","address":null},{"poiid":"B2094757D569A2FE4693","title":"新外滩15号","lon":"121.4933389","lat":"31.23143889","category":"47","category_name":"住宅区","address":"黄浦区中山东二路15号"},{"poiid":"B2094654DA6EA4FC439C","title":"福源商厦","lon":"121.496","lat":"31.2327","category":"46","category_name":"楼宇","address":"黄浦区福佑路338号(近丽水路)"},{"poiid":"B2094757D068ABFD4392","title":"桂花楼","lon":"121.49925","lat":"31.23503","category":"76","category_name":"上海菜","address":"浦东新区富城路33号香格里拉大酒店浦江楼1楼(近名商路)"},{"poiid":"B2094757D064ABF94193","title":"THE RITZ CARLTON HOTEL PUDONG","lon":"121.49812147","lat":"31.23062966","category":"500","category_name":"未知分类","address":"上海浦东陆家嘴世纪大道8号上海国金中心"},{"poiid":"B2094757D16DA5FB459D","title":"MJ  club","lon":"121.499573738","lat":"31.2269042292","category":"500","category_name":"未知分类","address":"上海市黄浦区中山南二路501号"},{"poiid":"B2094757D06AA0FD429D","title":"滩万 Nadaman","lon":"121.49900980442","lat":"31.23552245249","category":"95","category_name":"日本料理","address":"浦东新区富城路33号香格里拉大酒店紫金楼2楼(近名商路)"},{"poiid":"B2094654DA6FA7FE419B","title":"上海宝莱纳餐厅滨江店","lon":"121.49861","lat":"31.23409","category":"94","category_name":"西餐厅","address":"浦东新区滨江大道2967号滨江风光亭"},{"poiid":"B2094654DA6FA7FF4699","title":"海龙海鲜舫","lon":"121.50199","lat":"31.23107","category":"72","category_name":"广东菜","address":"浦东新区东昌路1号(近富城路拾步街)"},{"poiid":"B2094757D469A1F54993","title":"星巴克 滨江店 Starbucks Cafe","lon":"121.49833629105","lat":"31.235145384788","category":"260","category_name":"其他","address":"浦东新区滨江大道富都段滨江公园内(富城路名商路)"},{"poiid":"B209475CD564A7F84292","title":"上海滩新天地店","lon":"121.47463","lat":"31.22164","category":"119","category_name":"商场","address":"\"太仓路181弄新天地北里15号\r\n\""},{"poiid":"B209475CD564A7F84392","title":"上海滩浦东香格里拉店","lon":"121.50058","lat":"31.23634","category":"119","category_name":"商场","address":"浦东富成路33号香格里拉酒店内大堂层"},{"poiid":"B2094757D06FA6FC429D","title":"外滩新十六铺","lon":"121.498305","lat":"31.227433","category":"234","category_name":"海滨浴场","address":"上海中山东二路531号"},{"poiid":"B2094757D06FA1FD489D","title":"天水恋意大利餐厅","lon":"121.49832","lat":"31.23456","category":"94","category_name":"西餐厅","address":"浦东新区滨江大道富都段滨江花园内(近富城路)"},{"poiid":"B2094757D06EAAFA489F","title":"上海外滩英迪格酒店 (Hotel Indigo)","lon":"121.499735","lat":"31.226432","category":"217","category_name":"旅馆招待所","address":"黄浦区中山东二路585号(近东门路)"},{"poiid":"B2094757D06FA7F54892","title":"外滩轮渡","lon":"121.49613189","lat":"31.232406616","category":"260","category_name":"其他","address":"上海外滩"},{"poiid":"B2094757D06FA1F94792","title":"香港名都","lon":"121.496","lat":"31.228","category":"119","category_name":"商场","address":"黄浦区河南南路489号(近复兴东路)"},{"poiid":"B2094757D568A6FE449D","title":"松鹤楼(外滩店)","lon":"121.49712782","lat":"31.22868273","category":"76","category_name":"上海菜","address":"黄浦区中山东二路505号(近外马路)"},{"poiid":"B2094757D06FA0FE479A","title":"汤臣一品","lon":"121.50127","lat":"31.233383","category":"47","category_name":"住宅区","address":"朝阳区东四环慈云寺桥东北角,向东400米路南"},{"poiid":"B2094757D06FA1F5479D","title":"震旦国际大楼","lon":"121.499293","lat":"31.234784","category":"46","category_name":"楼宇","address":"上海浦东新区富城路99号"},{"poiid":"B2094757D06FA4FF4298","title":"Zeal","lon":"121.494104619","lat":"31.230399184","category":"260","category_name":"其他","address":"黄浦区中山东二路22号6楼(近金陵东路)"},{"poiid":"B2094757D06FA2F9439E","title":"香格里拉怡咖啡","lon":"121.4992","lat":"31.2349","category":"268","category_name":"自助","address":"浦东新区富城路33号香格里拉大酒店紫金楼2楼(近名商路)"},{"poiid":"B2094654DB64ABF9439A","title":"震旦艺术博物馆","lon":"121.49929","lat":"31.23478","category":"182","category_name":"博物馆","address":"富城路99号震旦国际大楼1层"},{"poiid":"B2094757D16AA3FA449F","title":"紅磡體育館","lon":"121.50024373","lat":"31.234377388","category":"500","category_name":"未知分类","address":"香港尖沙咀東紅磡體育館"},{"poiid":"B2094757D06FA1F8419B","title":"一点红","lon":"121.49738","lat":"31.23469","category":"94","category_name":"西餐厅","address":"浦东新区陆家嘴西路168号正大广场1楼(近东方明珠)"},{"poiid":"B2094750D26EA2FB419E","title":"El Willy","lon":"121.493644","lat":"31.231233","category":"94","category_name":"西餐厅","address":"黄浦区中山东二路22号5楼(近新永安路)"},{"poiid":"B2094757D06FA6F8429D","title":"古城公园","lon":"121.493892508","lat":"31.2285424773","category":"196","category_name":"公园","address":"黄浦区人民路333号(近福佑路)"},{"poiid":"B2094757D16FA0FF4092","title":"小南国(十六铺店)","lon":"121.500050938","lat":"31.2274259403","category":"76","category_name":"上海菜","address":"黄浦区中山东二路565号A楼(近东门路)"},{"poiid":"B2094757D06FA6FC4993","title":"晶浦会","lon":"121.49999","lat":"31.23362","category":"72","category_name":"广东菜","address":"上海浦东新区花园石桥路33号花旗集团大厦4楼(近富城路)  "},{"poiid":"B2094750DA64A1F5409F","title":"王品台塑牛排(正大广场店)","lon":"121.496726","lat":"31.234537","category":"248","category_name":"生活娱乐","address":"浦东新区陆家嘴西路168号正大广场8楼(近东方明珠)"},{"poiid":"B2094757D165A7F54999","title":"花旗银行大厦","lon":"121.500979701","lat":"31.2332134973","category":"46","category_name":"楼宇","address":"上海浦东新区花园石桥路33号"},{"poiid":"B2094654DA6FA7FE409D","title":"STARBUCKS COFFEE(富城路)","lon":"121.49745","lat":"31.23502","category":"65","category_name":"咖啡厅","address":""},{"poiid":"B2094757D069A6FE449C","title":"十六铺码头边","lon":"121.49703768","lat":"31.228610509","category":"500","category_name":"未知分类","address":"上海市,上海中山东二路"},{"poiid":"B2094757D468A4FE489A","title":"Horizen","lon":"121.492901","lat":"31.231715","category":"247","category_name":"餐饮美食","address":"金陵东路1号近中山东二路"},{"poiid":"B2094757D06AA2FD4298","title":"龙皇酒家","lon":"121.49882273","lat":"31.227382239","category":"72","category_name":"广东菜","address":"黄浦区中山东二路535号十六铺B栋楼(外马路中山东二路)"},{"poiid":"B2094757D068A5F9429C","title":"福佑商厦","lon":"121.498","lat":"31.2336","category":"119","category_name":"商场","address":"黄浦区福佑路225号(近旧校场路)"},{"poiid":"B2094750D26EA7F44892","title":"YAWARAGI ON THE BUND","lon":"121.494522","lat":"31.232086","category":"95","category_name":"日本料理","address":"黄浦区中山东二路22号3楼(近新永安路)"},{"poiid":"B2094750D26FABF44592","title":"Bocca","lon":"121.4960508","lat":"31.2293856","category":"98","category_name":"意式菜品餐厅","address":"黄浦区中山东二路22号5楼(近新永安路)"},{"poiid":"B2094757D468ABF54699","title":"星巴克 花旗大厦店 Starbucks Cafe","lon":"121.500050054","lat":"31.234238793","category":"65","category_name":"咖啡厅","address":"浦东新区花园石桥路33号花旗集团大厦1楼(近富城路)"},{"poiid":"B2094757D068A6FF489B","title":"金陵东路渡口","lon":"121.493181968","lat":"31.2321444779","category":"35","category_name":"长途汽车站","address":"上海中山东二路121号(金陵东路口)"},{"poiid":"B2094757D06FA7FD4592","title":"网鱼网咖(张杨店)","lon":"121.49722426","lat":"31.229141715","category":"173","category_name":"游戏厅","address":"浦东新区张杨路640号3楼A座(近第一八佰伴)"},{"poiid":"B2094655D26CA4F44392","title":"滨江大道(八号门)","lon":"121.49874","lat":"31.23482","category":"116","category_name":"特色商业街","address":""},{"poiid":"B2094757D068AAF44399","title":"士林华苑","lon":"121.497","lat":"31.2262","category":"47","category_name":"住宅区","address":"上海黄浦区河南南路555弄"},{"poiid":"B209475CD76BA0F9469E","title":"大蔬无界 外滩22号馆","lon":"121.493989","lat":"31.230711","category":"111","category_name":"休闲餐饮场所","address":"上海市黄浦区中山东二路外滩22号4楼"},{"poiid":"B2094655D36DA6FF4493","title":"金陵东路","lon":"121.49318","lat":"31.23215","category":"38","category_name":"公交车站","address":"上海黄浦区金陵东路"},{"poiid":"B2094750D268A7F8449E","title":"滨江一号","lon":"121.501441","lat":"31.231658","category":"247","category_name":"餐饮美食","address":"浦东新区滨江一号滨江富城路拾步街由隆花园(近石桥路)"},{"poiid":"B2094757D069A2F8419D","title":"黄浦江游览","lon":"121.49412","lat":"31.23077","category":"260","category_name":"其他","address":"黄浦区中山东二路531号(近新开河)查看地图"},{"poiid":"B2094757D66AAAFB439C","title":"江畔Quay","lon":"121.496346","lat":"31.229182","category":"94","category_name":"西餐厅","address":"黄浦区中山东二路585号外滩英迪格酒店6楼"},{"poiid":"B2094654DA6EA5FA419E","title":"新外滩商厦","lon":"121.49335","lat":"31.23127","category":"46","category_name":"楼宇","address":"黄浦区中山东二路15号(龙潭路中山东二路)"},{"poiid":"B2094757D06BA2FA4499","title":"新开河","lon":"121.495265841","lat":"31.2296010434","category":"38","category_name":"公交车站","address":"上海外滩"},{"poiid":"B2094750D46BABF94593","title":"小南国","lon":"121.496276","lat":"31.234474","category":"247","category_name":"餐饮美食","address":null},{"poiid":"B2094757D569A2FE4693","title":"新外滩15号","lon":"121.4933389","lat":"31.23143889","category":"47","category_name":"住宅区","address":"黄浦区中山东二路15号"},{"poiid":"B2094654DA6EA4FC439C","title":"福源商厦","lon":"121.496","lat":"31.2327","category":"46","category_name":"楼宇","address":"黄浦区福佑路338号(近丽水路)"},{"poiid":"B2094757D068ABFD4392","title":"桂花楼","lon":"121.49925","lat":"31.23503","category":"76","category_name":"上海菜","address":"浦东新区富城路33号香格里拉大酒店浦江楼1楼(近名商路)"},{"poiid":"B2094757D064ABF94193","title":"THE RITZ CARLTON HOTEL PUDONG","lon":"121.49812147","lat":"31.23062966","category":"500","category_name":"未知分类","address":"上海浦东陆家嘴世纪大道8号上海国金中心"},{"poiid":"B2094757D16DA5FB459D","title":"MJ  club","lon":"121.499573738","lat":"31.2269042292","category":"500","category_name":"未知分类","address":"上海市黄浦区中山南二路501号"},{"poiid":"B2094757D06AA0FD429D","title":"滩万 Nadaman","lon":"121.49900980442","lat":"31.23552245249","category":"95","category_name":"日本料理","address":"浦东新区富城路33号香格里拉大酒店紫金楼2楼(近名商路)"},{"poiid":"B2094654DA6FA7FE419B","title":"上海宝莱纳餐厅滨江店","lon":"121.49861","lat":"31.23409","category":"94","category_name":"西餐厅","address":"浦东新区滨江大道2967号滨江风光亭"},{"poiid":"B2094654DA6FA7FF4699","title":"海龙海鲜舫","lon":"121.50199","lat":"31.23107","category":"72","category_name":"广东菜","address":"浦东新区东昌路1号(近富城路拾步街)"},{"poiid":"B2094757D469A1F54993","title":"星巴克 滨江店 Starbucks Cafe","lon":"121.49833629105","lat":"31.235145384788","category":"260","category_name":"其他","address":"浦东新区滨江大道富都段滨江公园内(富城路名商路)"},{"poiid":"B209475CD564A7F84292","title":"上海滩新天地店","lon":"121.47463","lat":"31.22164","category":"119","category_name":"商场","address":"\"太仓路181弄新天地北里15号\r\n\""},{"poiid":"B209475CD564A7F84392","title":"上海滩浦东香格里拉店","lon":"121.50058","lat":"31.23634","category":"119","category_name":"商场","address":"浦东富成路33号香格里拉酒店内大堂层"},{"poiid":"B2094757D06FA6FC429D","title":"外滩新十六铺","lon":"121.498305","lat":"31.227433","category":"234","category_name":"海滨浴场","address":"上海中山东二路531号"},{"poiid":"B2094757D06FA1FD489D","title":"天水恋意大利餐厅","lon":"121.49832","lat":"31.23456","category":"94","category_name":"西餐厅","address":"浦东新区滨江大道富都段滨江花园内(近富城路)"},{"poiid":"B2094757D06EAAFA489F","title":"上海外滩英迪格酒店 (Hotel Indigo)","lon":"121.499735","lat":"31.226432","category":"217","category_name":"旅馆招待所","address":"黄浦区中山东二路585号(近东门路)"},{"poiid":"B2094757D06FA7F54892","title":"外滩轮渡","lon":"121.49613189","lat":"31.232406616","category":"260","category_name":"其他","address":"上海外滩"},{"poiid":"B2094757D06FA1F94792","title":"香港名都","lon":"121.496","lat":"31.228","category":"119","category_name":"商场","address":"黄浦区河南南路489号(近复兴东路)"},{"poiid":"B2094757D568A6FE449D","title":"松鹤楼(外滩店)","lon":"121.49712782","lat":"31.22868273","category":"76","category_name":"上海菜","address":"黄浦区中山东二路505号(近外马路)"},{"poiid":"B2094757D06FA0FE479A","title":"汤臣一品","lon":"121.50127","lat":"31.233383","category":"47","category_name":"住宅区","address":"朝阳区东四环慈云寺桥东北角,向东400米路南"},{"poiid":"B2094757D06FA1F5479D","title":"震旦国际大楼","lon":"121.499293","lat":"31.234784","category":"46","category_name":"楼宇","address":"上海浦东新区富城路99号"},{"poiid":"B2094757D06FA4FF4298","title":"Zeal","lon":"121.494104619","lat":"31.230399184","category":"260","category_name":"其他","address":"黄浦区中山东二路22号6楼(近金陵东路)"},{"poiid":"B2094757D06FA2F9439E","title":"香格里拉怡咖啡","lon":"121.4992","lat":"31.2349","category":"268","category_name":"自助","address":"浦东新区富城路33号香格里拉大酒店紫金楼2楼(近名商路)"},{"poiid":"B2094654DB64ABF9439A","title":"震旦艺术博物馆","lon":"121.49929","lat":"31.23478","category":"182","category_name":"博物馆","address":"富城路99号震旦国际大楼1层"},{"poiid":"B2094757D16AA3FA449F","title":"紅磡體育館","lon":"121.50024373","lat":"31.234377388","category":"500","category_name":"未知分类","address":"香港尖沙咀東紅磡體育館"},{"poiid":"B2094757D06FA1F8419B","title":"一点红","lon":"121.49738","lat":"31.23469","category":"94","category_name":"西餐厅","address":"浦东新区陆家嘴西路168号正大广场1楼(近东方明珠)"},{"poiid":"B2094750D26EA2FB419E","title":"El Willy","lon":"121.493644","lat":"31.231233","category":"94","category_name":"西餐厅","address":"黄浦区中山东二路22号5楼(近新永安路)"},{"poiid":"B2094757D06FA6F8429D","title":"古城公园","lon":"121.493892508","lat":"31.2285424773","category":"196","category_name":"公园","address":"黄浦区人民路333号(近福佑路)"},{"poiid":"B2094757D16FA0FF4092","title":"小南国(十六铺店)","lon":"121.500050938","lat":"31.2274259403","category":"76","category_name":"上海菜","address":"黄浦区中山东二路565号A楼(近东门路)"},{"poiid":"B2094757D06FA6FC4993","title":"晶浦会","lon":"121.49999","lat":"31.23362","category":"72","category_name":"广东菜","address":"上海浦东新区花园石桥路33号花旗集团大厦4楼(近富城路)  "},{"poiid":"B2094750DA64A1F5409F","title":"王品台塑牛排(正大广场店)","lon":"121.496726","lat":"31.234537","category":"248","category_name":"生活娱乐","address":"浦东新区陆家嘴西路168号正大广场8楼(近东方明珠)"},{"poiid":"B2094757D165A7F54999","title":"花旗银行大厦","lon":"121.500979701","lat":"31.2332134973","category":"46","category_name":"楼宇","address":"上海浦东新区花园石桥路33号"},{"poiid":"B2094654DA6FA7FE409D","title":"STARBUCKS COFFEE(富城路)","lon":"121.49745","lat":"31.23502","category":"65","category_name":"咖啡厅","address":""},{"poiid":"B2094757D069A6FE449C","title":"十六铺码头边","lon":"121.49703768","lat":"31.228610509","category":"500","category_name":"未知分类","address":"上海市,上海中山东二路"},{"poiid":"B2094757D468A4FE489A","title":"Horizen","lon":"121.492901","lat":"31.231715","category":"247","category_name":"餐饮美食","address":"金陵东路1号近中山东二路"},{"poiid":"B2094757D06AA2FD4298","title":"龙皇酒家","lon":"121.49882273","lat":"31.227382239","category":"72","category_name":"广东菜","address":"黄浦区中山东二路535号十六铺B栋楼(外马路中山东二路)"},{"poiid":"B2094757D068A5F9429C","title":"福佑商厦","lon":"121.498","lat":"31.2336","category":"119","category_name":"商场","address":"黄浦区福佑路225号(近旧校场路)"},{"poiid":"B2094750D26EA7F44892","title":"YAWARAGI ON THE BUND","lon":"121.494522","lat":"31.232086","category":"95","category_name":"日本料理","address":"黄浦区中山东二路22号3楼(近新永安路)"},{"poiid":"B2094750D26FABF44592","title":"Bocca","lon":"121.4960508","lat":"31.2293856","category":"98","category_name":"意式菜品餐厅","address":"黄浦区中山东二路22号5楼(近新永安路)"},{"poiid":"B2094757D468ABF54699","title":"星巴克 花旗大厦店 Starbucks Cafe","lon":"121.500050054","lat":"31.234238793","category":"65","category_name":"咖啡厅","address":"浦东新区花园石桥路33号花旗集团大厦1楼(近富城路)"},{"poiid":"B2094757D068A6FF489B","title":"金陵东路渡口","lon":"121.493181968","lat":"31.2321444779","category":"35","category_name":"长途汽车站","address":"上海中山东二路121号(金陵东路口)"},{"poiid":"B2094757D06FA7FD4592","title":"网鱼网咖(张杨店)","lon":"121.49722426","lat":"31.229141715","category":"173","category_name":"游戏厅","address":"浦东新区张杨路640号3楼A座(近第一八佰伴)"},{"poiid":"B2094655D26CA4F44392","title":"滨江大道(八号门)","lon":"121.49874","lat":"31.23482","category":"116","category_name":"特色商业街","address":""},{"poiid":"B2094757D068AAF44399","title":"士林华苑","lon":"121.497","lat":"31.2262","category":"47","category_name":"住宅区","address":"上海黄浦区河南南路555弄"},{"poiid":"B209475CD76BA0F9469E","title":"大蔬无界 外滩22号馆","lon":"121.493989","lat":"31.230711","category":"111","category_name":"休闲餐饮场所","address":"上海市黄浦区中山东二路外滩22号4楼"},{"poiid":"B2094655D36DA6FF4493","title":"金陵东路","lon":"121.49318","lat":"31.23215","category":"38","category_name":"公交车站","address":"上海黄浦区金陵东路"},{"poiid":"B2094750D268A7F8449E","title":"滨江一号","lon":"121.501441","lat":"31.231658","category":"247","category_name":"餐饮美食","address":"浦东新区滨江一号滨江富城路拾步街由隆花园(近石桥路)"},{"poiid":"B2094757D069A2F8419D","title":"黄浦江游览","lon":"121.49412","lat":"31.23077","category":"260","category_name":"其他","address":"黄浦区中山东二路531号(近新开河)查看地图"},{"poiid":"B2094757D66AAAFB439C","title":"江畔Quay","lon":"121.496346","lat":"31.229182","category":"94","category_name":"西餐厅","address":"黄浦区中山东二路585号外滩英迪格酒店6楼"},{"poiid":"B2094654DA6EA5FA419E","title":"新外滩商厦","lon":"121.49335","lat":"31.23127","category":"46","category_name":"楼宇","address":"黄浦区中山东二路15号(龙潭路中山东二路)"},{"poiid":"B2094757D06BA2FA4499","title":"新开河","lon":"121.495265841","lat":"31.2296010434","category":"38","category_name":"公交车站","address":"上海外滩"},{"poiid":"B2094750D46BABF94593","title":"小南国","lon":"121.496276","lat":"31.234474","category":"247","category_name":"餐饮美食","address":null},{"poiid":"B2094757D569A2FE4693","title":"新外滩15号","lon":"121.4933389","lat":"31.23143889","category":"47","category_name":"住宅区","address":"黄浦区中山东二路15号"},{"poiid":"B2094654DA6EA4FC439C","title":"福源商厦","lon":"121.496","lat":"31.2327","category":"46","category_name":"楼宇","address":"黄浦区福佑路338号(近丽水路)"},{"poiid":"B2094757D068ABFD4392","title":"桂花楼","lon":"121.49925","lat":"31.23503","category":"76","category_name":"上海菜","address":"浦东新区富城路33号香格里拉大酒店浦江楼1楼(近名商路)"},{"poiid":"B2094757D064ABF94193","title":"THE RITZ CARLTON HOTEL PUDONG","lon":"121.49812147","lat":"31.23062966","category":"500","category_name":"未知分类","address":"上海浦东陆家嘴世纪大道8号上海国金中心"},{"poiid":"B2094757D16DA5FB459D","title":"MJ  club","lon":"121.499573738","lat":"31.2269042292","category":"500","category_name":"未知分类","address":"上海市黄浦区中山南二路501号"},{"poiid":"B2094757D06AA0FD429D","title":"滩万 Nadaman","lon":"121.49900980442","lat":"31.23552245249","category":"95","category_name":"日本料理","address":"浦东新区富城路33号香格里拉大酒店紫金楼2楼(近名商路)"},{"poiid":"B2094654DA6FA7FE419B","title":"上海宝莱纳餐厅滨江店","lon":"121.49861","lat":"31.23409","category":"94","category_name":"西餐厅","address":"浦东新区滨江大道2967号滨江风光亭"},{"poiid":"B2094654DA6FA7FF4699","title":"海龙海鲜舫","lon":"121.50199","lat":"31.23107","category":"72","category_name":"广东菜","address":"浦东新区东昌路1号(近富城路拾步街)"},{"poiid":"B2094757D469A1F54993","title":"星巴克 滨江店 Starbucks Cafe","lon":"121.49833629105","lat":"31.235145384788","category":"260","category_name":"其他","address":"浦东新区滨江大道富都段滨江公园内(富城路名商路)"},{"poiid":"B209475CD564A7F84292","title":"上海滩新天地店","lon":"121.47463","lat":"31.22164","category":"119","category_name":"商场","address":"\"太仓路181弄新天地北里15号\r\n\""},{"poiid":"B209475CD564A7F84392","title":"上海滩浦东香格里拉店","lon":"121.50058","lat":"31.23634","category":"119","category_name":"商场","address":"浦东富成路33号香格里拉酒店内大堂层"},{"poiid":"B2094757D06FA6FC429D","title":"外滩新十六铺","lon":"121.498305","lat":"31.227433","category":"234","category_name":"海滨浴场","address":"上海中山东二路531号"},{"poiid":"B2094757D06FA1FD489D","title":"天水恋意大利餐厅","lon":"121.49832","lat":"31.23456","category":"94","category_name":"西餐厅","address":"浦东新区滨江大道富都段滨江花园内(近富城路)"},{"poiid":"B2094757D06EAAFA489F","title":"上海外滩英迪格酒店 (Hotel Indigo)","lon":"121.499735","lat":"31.226432","category":"217","category_name":"旅馆招待所","address":"黄浦区中山东二路585号(近东门路)"},{"poiid":"B2094757D06FA7F54892","title":"外滩轮渡","lon":"121.49613189","lat":"31.232406616","category":"260","category_name":"其他","address":"上海外滩"},{"poiid":"B2094757D06FA1F94792","title":"香港名都","lon":"121.496","lat":"31.228","category":"119","category_name":"商场","address":"黄浦区河南南路489号(近复兴东路)"},{"poiid":"B2094757D568A6FE449D","title":"松鹤楼(外滩店)","lon":"121.49712782","lat":"31.22868273","category":"76","category_name":"上海菜","address":"黄浦区中山东二路505号(近外马路)"},{"poiid":"B2094757D06FA0FE479A","title":"汤臣一品","lon":"121.50127","lat":"31.233383","category":"47","category_name":"住宅区","address":"朝阳区东四环慈云寺桥东北角,向东400米路南"},{"poiid":"B2094757D06FA1F5479D","title":"震旦国际大楼","lon":"121.499293","lat":"31.234784","category":"46","category_name":"楼宇","address":"上海浦东新区富城路99号"},{"poiid":"B2094757D06FA4FF4298","title":"Zeal","lon":"121.494104619","lat":"31.230399184","category":"260","category_name":"其他","address":"黄浦区中山东二路22号6楼(近金陵东路)"},{"poiid":"B2094757D06FA2F9439E","title":"香格里拉怡咖啡","lon":"121.4992","lat":"31.2349","category":"268","category_name":"自助","address":"浦东新区富城路33号香格里拉大酒店紫金楼2楼(近名商路)"},{"poiid":"B2094654DB64ABF9439A","title":"震旦艺术博物馆","lon":"121.49929","lat":"31.23478","category":"182","category_name":"博物馆","address":"富城路99号震旦国际大楼1层"},{"poiid":"B2094757D16AA3FA449F","title":"紅磡體育館","lon":"121.50024373","lat":"31.234377388","category":"500","category_name":"未知分类","address":"香港尖沙咀東紅磡體育館"},{"poiid":"B2094757D06FA1F8419B","title":"一点红","lon":"121.49738","lat":"31.23469","category":"94","category_name":"西餐厅","address":"浦东新区陆家嘴西路168号正大广场1楼(近东方明珠)"},{"poiid":"B2094750D26EA2FB419E","title":"El Willy","lon":"121.493644","lat":"31.231233","category":"94","category_name":"西餐厅","address":"黄浦区中山东二路22号5楼(近新永安路)"},{"poiid":"B2094757D06FA6F8429D","title":"古城公园","lon":"121.493892508","lat":"31.2285424773","category":"196","category_name":"公园","address":"黄浦区人民路333号(近福佑路)"},{"poiid":"B2094757D16FA0FF4092","title":"小南国(十六铺店)","lon":"121.500050938","lat":"31.2274259403","category":"76","category_name":"上海菜","address":"黄浦区中山东二路565号A楼(近东门路)"},{"poiid":"B2094757D06FA6FC4993","title":"晶浦会","lon":"121.49999","lat":"31.23362","category":"72","category_name":"广东菜","address":"上海浦东新区花园石桥路33号花旗集团大厦4楼(近富城路)  "},{"poiid":"B2094750DA64A1F5409F","title":"王品台塑牛排(正大广场店)","lon":"121.496726","lat":"31.234537","category":"248","category_name":"生活娱乐","address":"浦东新区陆家嘴西路168号正大广场8楼(近东方明珠)"},{"poiid":"B2094757D165A7F54999","title":"花旗银行大厦","lon":"121.500979701","lat":"31.2332134973","category":"46","category_name":"楼宇","address":"上海浦东新区花园石桥路33号"},{"poiid":"B2094654DA6FA7FE409D","title":"STARBUCKS COFFEE(富城路)","lon":"121.49745","lat":"31.23502","category":"65","category_name":"咖啡厅","address":""},{"poiid":"B2094757D069A6FE449C","title":"十六铺码头边","lon":"121.49703768","lat":"31.228610509","category":"500","category_name":"未知分类","address":"上海市,上海中山东二路"},{"poiid":"B2094757D468A4FE489A","title":"Horizen","lon":"121.492901","lat":"31.231715","category":"247","category_name":"餐饮美食","address":"金陵东路1号近中山东二路"},{"poiid":"B2094757D06AA2FD4298","title":"龙皇酒家","lon":"121.49882273","lat":"31.227382239","category":"72","category_name":"广东菜","address":"黄浦区中山东二路535号十六铺B栋楼(外马路中山东二路)"},{"poiid":"B2094757D068A5F9429C","title":"福佑商厦","lon":"121.498","lat":"31.2336","category":"119","category_name":"商场","address":"黄浦区福佑路225号(近旧校场路)"},{"poiid":"B2094750D26EA7F44892","title":"YAWARAGI ON THE BUND","lon":"121.494522","lat":"31.232086","category":"95","category_name":"日本料理","address":"黄浦区中山东二路22号3楼(近新永安路)"},{"poiid":"B2094750D26FABF44592","title":"Bocca","lon":"121.4960508","lat":"31.2293856","category":"98","category_name":"意式菜品餐厅","address":"黄浦区中山东二路22号5楼(近新永安路)"},{"poiid":"B2094757D468ABF54699","title":"星巴克 花旗大厦店 Starbucks Cafe","lon":"121.500050054","lat":"31.234238793","category":"65","category_name":"咖啡厅","address":"浦东新区花园石桥路33号花旗集团大厦1楼(近富城路)"},{"poiid":"B2094757D068A6FF489B","title":"金陵东路渡口","lon":"121.493181968","lat":"31.2321444779","category":"35","category_name":"长途汽车站","address":"上海中山东二路121号(金陵东路口)"},{"poiid":"B2094757D06FA7FD4592","title":"网鱼网咖(张杨店)","lon":"121.49722426","lat":"31.229141715","category":"173","category_name":"游戏厅","address":"浦东新区张杨路640号3楼A座(近第一八佰伴)"},{"poiid":"B2094655D26CA4F44392","title":"滨江大道(八号门)","lon":"121.49874","lat":"31.23482","category":"116","category_name":"特色商业街","address":""},{"poiid":"B2094757D068AAF44399","title":"士林华苑","lon":"121.497","lat":"31.2262","category":"47","category_name":"住宅区","address":"上海黄浦区河南南路555弄"},{"poiid":"B209475CD76BA0F9469E","title":"大蔬无界 外滩22号馆","lon":"121.493989","lat":"31.230711","category":"111","category_name":"休闲餐饮场所","address":"上海市黄浦区中山东二路外滩22号4楼"},{"poiid":"B2094655D36DA6FF4493","title":"金陵东路","lon":"121.49318","lat":"31.23215","category":"38","category_name":"公交车站","address":"上海黄浦区金陵东路"},{"poiid":"B2094750D268A7F8449E","title":"滨江一号","lon":"121.501441","lat":"31.231658","category":"247","category_name":"餐饮美食","address":"浦东新区滨江一号滨江富城路拾步街由隆花园(近石桥路)"},{"poiid":"B2094757D069A2F8419D","title":"黄浦江游览","lon":"121.49412","lat":"31.23077","category":"260","category_name":"其他","address":"黄浦区中山东二路531号(近新开河)查看地图"},{"poiid":"B2094757D66AAAFB439C","title":"江畔Quay","lon":"121.496346","lat":"31.229182","category":"94","category_name":"西餐厅","address":"黄浦区中山东二路585号外滩英迪格酒店6楼"},{"poiid":"B2094654DA6EA5FA419E","title":"新外滩商厦","lon":"121.49335","lat":"31.23127","category":"46","category_name":"楼宇","address":"黄浦区中山东二路15号(龙潭路中山东二路)"},{"poiid":"B2094757D06BA2FA4499","title":"新开河","lon":"121.495265841","lat":"31.2296010434","category":"38","category_name":"公交车站","address":"上海外滩"},{"poiid":"B2094750D46BABF94593","title":"小南国","lon":"121.496276","lat":"31.234474","category":"247","category_name":"餐饮美食","address":null},{"poiid":"B2094757D569A2FE4693","title":"新外滩15号","lon":"121.4933389","lat":"31.23143889","category":"47","category_name":"住宅区","address":"黄浦区中山东二路15号"},{"poiid":"B2094654DA6EA4FC439C","title":"福源商厦","lon":"121.496","lat":"31.2327","category":"46","category_name":"楼宇","address":"黄浦区福佑路338号(近丽水路)"},{"poiid":"B2094757D068ABFD4392","title":"桂花楼","lon":"121.49925","lat":"31.23503","category":"76","category_name":"上海菜","address":"浦东新区富城路33号香格里拉大酒店浦江楼1楼(近名商路)"},{"poiid":"B2094757D064ABF94193","title":"THE RITZ CARLTON HOTEL PUDONG","lon":"121.49812147","lat":"31.23062966","category":"500","category_name":"未知分类","address":"上海浦东陆家嘴世纪大道8号上海国金中心"},{"poiid":"B2094757D16DA5FB459D","title":"MJ  club","lon":"121.499573738","lat":"31.2269042292","category":"500","category_name":"未知分类","address":"上海市黄浦区中山南二路501号"},{"poiid":"B2094757D06AA0FD429D","title":"滩万 Nadaman","lon":"121.49900980442","lat":"31.23552245249","category":"95","category_name":"日本料理","address":"浦东新区富城路33号香格里拉大酒店紫金楼2楼(近名商路)"},{"poiid":"B2094654DA6FA7FE419B","title":"上海宝莱纳餐厅滨江店","lon":"121.49861","lat":"31.23409","category":"94","category_name":"西餐厅","address":"浦东新区滨江大道2967号滨江风光亭"},{"poiid":"B2094654DA6FA7FF4699","title":"海龙海鲜舫","lon":"121.50199","lat":"31.23107","category":"72","category_name":"广东菜","address":"浦东新区东昌路1号(近富城路拾步街)"},{"poiid":"B2094757D469A1F54993","title":"星巴克 滨江店 Starbucks Cafe","lon":"121.49833629105","lat":"31.235145384788","category":"260","category_name":"其他","address":"浦东新区滨江大道富都段滨江公园内(富城路名商路)"},{"poiid":"B209475CD564A7F84292","title":"上海滩新天地店","lon":"121.47463","lat":"31.22164","category":"119","category_name":"商场","address":"\"太仓路181弄新天地北里15号\r\n\""},{"poiid":"B209475CD564A7F84392","title":"上海滩浦东香格里拉店","lon":"121.50058","lat":"31.23634","category":"119","category_name":"商场","address":"浦东富成路33号香格里拉酒店内大堂层"},{"poiid":"B2094757D06FA6FC429D","title":"外滩新十六铺","lon":"121.498305","lat":"31.227433","category":"234","category_name":"海滨浴场","address":"上海中山东二路531号"},{"poiid":"B2094757D06FA1FD489D","title":"天水恋意大利餐厅","lon":"121.49832","lat":"31.23456","category":"94","category_name":"西餐厅","address":"浦东新区滨江大道富都段滨江花园内(近富城路)"},{"poiid":"B2094757D06EAAFA489F","title":"上海外滩英迪格酒店 (Hotel Indigo)","lon":"121.499735","lat":"31.226432","category":"217","category_name":"旅馆招待所","address":"黄浦区中山东二路585号(近东门路)"},{"poiid":"B2094757D06FA7F54892","title":"外滩轮渡","lon":"121.49613189","lat":"31.232406616","category":"260","category_name":"其他","address":"上海外滩"},{"poiid":"B2094757D06FA1F94792","title":"香港名都","lon":"121.496","lat":"31.228","category":"119","category_name":"商场","address":"黄浦区河南南路489号(近复兴东路)"},{"poiid":"B2094757D568A6FE449D","title":"松鹤楼(外滩店)","lon":"121.49712782","lat":"31.22868273","category":"76","category_name":"上海菜","address":"黄浦区中山东二路505号(近外马路)"},{"poiid":"B2094757D06FA0FE479A","title":"汤臣一品","lon":"121.50127","lat":"31.233383","category":"47","category_name":"住宅区","address":"朝阳区东四环慈云寺桥东北角,向东400米路南"},{"poiid":"B2094757D06FA1F5479D","title":"震旦国际大楼","lon":"121.499293","lat":"31.234784","category":"46","category_name":"楼宇","address":"上海浦东新区富城路99号"},{"poiid":"B2094757D06FA4FF4298","title":"Zeal","lon":"121.494104619","lat":"31.230399184","category":"260","category_name":"其他","address":"黄浦区中山东二路22号6楼(近金陵东路)"},{"poiid":"B2094757D06FA2F9439E","title":"香格里拉怡咖啡","lon":"121.4992","lat":"31.2349","category":"268","category_name":"自助","address":"浦东新区富城路33号香格里拉大酒店紫金楼2楼(近名商路)"},{"poiid":"B2094654DB64ABF9439A","title":"震旦艺术博物馆","lon":"121.49929","lat":"31.23478","category":"182","category_name":"博物馆","address":"富城路99号震旦国际大楼1层"},{"poiid":"B2094757D16AA3FA449F","title":"紅磡體育館","lon":"121.50024373","lat":"31.234377388","category":"500","category_name":"未知分类","address":"香港尖沙咀東紅磡體育館"},{"poiid":"B2094757D06FA1F8419B","title":"一点红","lon":"121.49738","lat":"31.23469","category":"94","category_name":"西餐厅","address":"浦东新区陆家嘴西路168号正大广场1楼(近东方明珠)"},{"poiid":"B2094750D26EA2FB419E","title":"El Willy","lon":"121.493644","lat":"31.231233","category":"94","category_name":"西餐厅","address":"黄浦区中山东二路22号5楼(近新永安路)"},{"poiid":"B2094757D06FA6F8429D","title":"古城公园","lon":"121.493892508","lat":"31.2285424773","category":"196","category_name":"公园","address":"黄浦区人民路333号(近福佑路)"},{"poiid":"B2094757D16FA0FF4092","title":"小南国(十六铺店)","lon":"121.500050938","lat":"31.2274259403","category":"76","category_name":"上海菜","address":"黄浦区中山东二路565号A楼(近东门路)"},{"poiid":"B2094757D06FA6FC4993","title":"晶浦会","lon":"121.49999","lat":"31.23362","category":"72","category_name":"广东菜","address":"上海浦东新区花园石桥路33号花旗集团大厦4楼(近富城路)  "},{"poiid":"B2094750DA64A1F5409F","title":"王品台塑牛排(正大广场店)","lon":"121.496726","lat":"31.234537","category":"248","category_name":"生活娱乐","address":"浦东新区陆家嘴西路168号正大广场8楼(近东方明珠)"},{"poiid":"B2094757D165A7F54999","title":"花旗银行大厦","lon":"121.500979701","lat":"31.2332134973","category":"46","category_name":"楼宇","address":"上海浦东新区花园石桥路33号"},{"poiid":"B2094654DA6FA7FE409D","title":"STARBUCKS COFFEE(富城路)","lon":"121.49745","lat":"31.23502","category":"65","category_name":"咖啡厅","address":""},{"poiid":"B2094757D069A6FE449C","title":"十六铺码头边","lon":"121.49703768","lat":"31.228610509","category":"500","category_name":"未知分类","address":"上海市,上海中山东二路"},{"poiid":"B2094757D468A4FE489A","title":"Horizen","lon":"121.492901","lat":"31.231715","category":"247","category_name":"餐饮美食","address":"金陵东路1号近中山东二路"},{"poiid":"B2094757D06AA2FD4298","title":"龙皇酒家","lon":"121.49882273","lat":"31.227382239","category":"72","category_name":"广东菜","address":"黄浦区中山东二路535号十六铺B栋楼(外马路中山东二路)"},{"poiid":"B2094757D068A5F9429C","title":"福佑商厦","lon":"121.498","lat":"31.2336","category":"119","category_name":"商场","address":"黄浦区福佑路225号(近旧校场路)"},{"poiid":"B2094750D26EA7F44892","title":"YAWARAGI ON THE BUND","lon":"121.494522","lat":"31.232086","category":"95","category_name":"日本料理","address":"黄浦区中山东二路22号3楼(近新永安路)"},{"poiid":"B2094750D26FABF44592","title":"Bocca","lon":"121.4960508","lat":"31.2293856","category":"98","category_name":"意式菜品餐厅","address":"黄浦区中山东二路22号5楼(近新永安路)"},{"poiid":"B2094757D468ABF54699","title":"星巴克 花旗大厦店 Starbucks Cafe","lon":"121.500050054","lat":"31.234238793","category":"65","category_name":"咖啡厅","address":"浦东新区花园石桥路33号花旗集团大厦1楼(近富城路)"},{"poiid":"B2094757D068A6FF489B","title":"金陵东路渡口","lon":"121.493181968","lat":"31.2321444779","category":"35","category_name":"长途汽车站","address":"上海中山东二路121号(金陵东路口)"},{"poiid":"B2094757D06FA7FD4592","title":"网鱼网咖(张杨店)","lon":"121.49722426","lat":"31.229141715","category":"173","category_name":"游戏厅","address":"浦东新区张杨路640号3楼A座(近第一八佰伴)"},{"poiid":"B2094655D26CA4F44392","title":"滨江大道(八号门)","lon":"121.49874","lat":"31.23482","category":"116","category_name":"特色商业街","address":""},{"poiid":"B2094757D068AAF44399","title":"士林华苑","lon":"121.497","lat":"31.2262","category":"47","category_name":"住宅区","address":"上海黄浦区河南南路555弄"},{"poiid":"B209475CD76BA0F9469E","title":"大蔬无界 外滩22号馆","lon":"121.493989","lat":"31.230711","category":"111","category_name":"休闲餐饮场所","address":"上海市黄浦区中山东二路外滩22号4楼"},{"poiid":"B2094655D36DA6FF4493","title":"金陵东路","lon":"121.49318","lat":"31.23215","category":"38","category_name":"公交车站","address":"上海黄浦区金陵东路"},{"poiid":"B2094750D268A7F8449E","title":"滨江一号","lon":"121.501441","lat":"31.231658","category":"247","category_name":"餐饮美食","address":"浦东新区滨江一号滨江富城路拾步街由隆花园(近石桥路)"},{"poiid":"B2094757D069A2F8419D","title":"黄浦江游览","lon":"121.49412","lat":"31.23077","category":"260","category_name":"其他","address":"黄浦区中山东二路531号(近新开河)查看地图"},{"poiid":"B2094757D66AAAFB439C","title":"江畔Quay","lon":"121.496346","lat":"31.229182","category":"94","category_name":"西餐厅","address":"黄浦区中山东二路585号外滩英迪格酒店6楼"},{"poiid":"B2094654DA6EA5FA419E","title":"新外滩商厦","lon":"121.49335","lat":"31.23127","category":"46","category_name":"楼宇","address":"黄浦区中山东二路15号(龙潭路中山东二路)"},{"poiid":"B2094757D06BA2FA4499","title":"新开河","lon":"121.495265841","lat":"31.2296010434","category":"38","category_name":"公交车站","address":"上海外滩"},{"poiid":"B2094750D46BABF94593","title":"小南国","lon":"121.496276","lat":"31.234474","category":"247","category_name":"餐饮美食","address":null},{"poiid":"B2094757D569A2FE4693","title":"新外滩15号","lon":"121.4933389","lat":"31.23143889","category":"47","category_name":"住宅区","address":"黄浦区中山东二路15号"},{"poiid":"B2094654DA6EA4FC439C","title":"福源商厦","lon":"121.496","lat":"31.2327","category":"46","category_name":"楼宇","address":"黄浦区福佑路338号(近丽水路)"},{"poiid":"B2094757D068ABFD4392","title":"桂花楼","lon":"121.49925","lat":"31.23503","category":"76","category_name":"上海菜","address":"浦东新区富城路33号香格里拉大酒店浦江楼1楼(近名商路)"},{"poiid":"B2094757D064ABF94193","title":"THE RITZ CARLTON HOTEL PUDONG","lon":"121.49812147","lat":"31.23062966","category":"500","category_name":"未知分类","address":"上海浦东陆家嘴世纪大道8号上海国金中心"},{"poiid":"B2094757D16DA5FB459D","title":"MJ  club","lon":"121.499573738","lat":"31.2269042292","category":"500","category_name":"未知分类","address":"上海市黄浦区中山南二路501号"},{"poiid":"B2094757D06AA0FD429D","title":"滩万 Nadaman","lon":"121.49900980442","lat":"31.23552245249","category":"95","category_name":"日本料理","address":"浦东新区富城路33号香格里拉大酒店紫金楼2楼(近名商路)"}]