[{"poiid":"B2094750D56EABFE409B","title":"谧蜜甜品","lon":"121.460067","lat":"31.311693","category":"67","category_name":"甜品店","address":"闸北区阳曲路313号(近临汾路)"},{"poiid":"B2094757D068AAFB499F","title":"小肥羊(阳曲点)","lon":"121.460117103","lat":"31.3129823122","category":"86","category_name":"火锅店","address":"闸北区阳曲路475号1楼(近汾西路)"},{"poiid":"B2094655D26FA7FD4398","title":"临汾名城","lon":"121.46566","lat":"31.31241","category":"47","category_name":"住宅区","address":"上海闸北区汾西路87-88弄"},{"poiid":"B2094757D06FA4F84299","title":"老丰阁(阳曲店)","lon":"121.46045","lat":"31.31332","category":"76","category_name":"上海菜","address":"闸北区阳曲路456号(近汾西路)"},{"poiid":"B2094757D06FA6FD4292","title":"新洛鼎大酒店","lon":"121.45998","lat":"31.31351","category":"76","category_name":"上海菜","address":"闸北区汾西路360号(近阳曲路)"},{"poiid":"B2094757D06FABF8439C","title":"陌生人火锅餐厅(阳曲店)","lon":"121.45968","lat":"31.31351","category":"86","category_name":"火锅店","address":"闸北区汾西路377号(近阳曲路)"},{"poiid":"B2094757D068A2FF499F","title":"闸北区青少年活动中心","lon":"121.4598221","lat":"31.31145528","category":"500","category_name":"未知分类","address":"闸北区阳曲路330号(临汾路阳曲路)"},{"poiid":"B2094757D068A3FF4192","title":"康悦亚洲花园","lon":"121.466","lat":"31.309649","category":"47","category_name":"住宅区","address":"上海市闸北区临汾路99弄"},{"poiid":"B2094757D068A3F94093","title":"老盛昌苏州汤包馆(临汾店)","lon":"121.4579651","lat":"31.311143273","category":"68","category_name":"快餐厅","address":"闸北区临汾路408号"},{"poiid":"B2094655D36DA0F9479A","title":"阳曲路临汾路","lon":"121.45995","lat":"31.31042","category":"38","category_name":"公交车站","address":""},{"poiid":"B2094757D068A3FD4898","title":"汤豪仕汤馆（彭浦店）","lon":"121.45977783","lat":"31.30814743","category":"76","category_name":"上海菜","address":"闸北区阳曲路145号(近闻喜路)"},{"poiid":"B2094757D06AAAFE439C","title":"岭南中学","lon":"121.4600061","lat":"31.313138315","category":"55","category_name":"中学","address":"上海市闸北区阳曲路"},{"poiid":"B2094750DA6CA6F8419A","title":"唛享KTV","lon":"121.459884","lat":"31.314113","category":"170","category_name":"KTV","address":"闸北区阳曲路475号2-3楼(近汾西路)"},{"poiid":"B2094654D465ABF94893","title":"阳曲小区","lon":"121.46169","lat":"31.312433","category":"47","category_name":"住宅区","address":"临汾路300弄"},{"poiid":"B2094750D664A2FC489E","title":"王家大苑老北京热气羊肉涮锅(临汾路店)","lon":"121.459","lat":"31.3111","category":"86","category_name":"火锅店","address":"闸北区临汾路406号(近阳曲路)"},{"poiid":"B2094757DA64A4FA4998","title":"东亚九博健身会所","lon":"121.4621203511883","lat":"31.31087494968302","category":"500","category_name":"未知分类","address":"闸北区江杨南路158号(近场中路)"},{"poiid":"B2094751D46AA6F54592","title":"马大爷猪肚鸡","lon":"121.46009","lat":"31.3149","category":"86","category_name":"火锅店","address":"闸北区阳曲路586号(近汾西路)"},{"poiid":"B2094757D068ABFB4198","title":"蜀国川菜 闸北店","lon":"121.45971015386","lat":"31.310903051648","category":"71","category_name":"四川菜","address":"闸北区临汾路358号(近阳曲路)"},{"poiid":"B2094654D465ABF9499A","title":"恒安小区","lon":"121.4616","lat":"31.30997","category":"47","category_name":"住宅区","address":"临汾路299弄1-6号"},{"poiid":"B2094757D06BABFB419C","title":"中共上海市闸北区委员会党校","lon":"121.462116","lat":"31.307959","category":"500","category_name":"未知分类","address":"上海阳泉路77号"},{"poiid":"B2094753D76AABFE479A","title":"医院","lon":"121.462097","lat":"31.313249","category":"162","category_name":"医院","address":"上海市 临汾路444"},{"poiid":"B2094757D068A1FC489C","title":"都可茶饮 临汾路店 CoCo","lon":"121.46182","lat":"31.30839","category":"113","category_name":"冷饮店","address":"闸北区临汾路626-1号(岭南路口)"},{"poiid":"B2094757D66CA1F8409B","title":"五角场商业区","lon":"121.461881103","lat":"31.3116522844","category":"252","category_name":"楼宇机构","address":"上海淞沪路"},{"poiid":"B2094757D068A5FF469A","title":"避风塘茶楼(临汾路店)","lon":"121.45876","lat":"31.31084","category":"247","category_name":"餐饮美食","address":"上海闸北区临汾路410号(近安业路)  "},{"poiid":"B2094654D465ABF8499D","title":"星城花苑","lon":"121.45789","lat":"31.312393","category":"47","category_name":"住宅区","address":"临汾路380弄1-9号"},{"poiid":"B2094655D36CA1F94999","title":"临汾路阳泉路","lon":"121.46228","lat":"31.31081","category":"38","category_name":"公交车站","address":""},{"poiid":"B2094757D16DA7FD4798","title":"老城隍庙小吃","lon":"121.4604","lat":"31.31062","category":"68","category_name":"快餐厅","address":"闸北区阳曲路291号(近临汾路)"},{"poiid":"B209475CD668A4FE4793","title":"蜜谧甜品","lon":"121.461486","lat":"31.311948","category":"247","category_name":"餐饮美食","address":"上海市 安业路"},{"poiid":"B2094753D56DA1FC4098","title":"环球港","lon":"121.463287","lat":"31.309131","category":"500","category_name":"未知分类","address":"上海市 金沙江路"},{"poiid":"B2094654D465ABFA4598","title":"上岛咖啡(阳曲路)","lon":"121.46018","lat":"31.31374","category":"260","category_name":"其他","address":"闸北区阳曲路432号(近汾西路)"},{"poiid":"B2094757D664A2F4479F","title":"永顺和苏州汤包馆 临汾路店","lon":"121.46008","lat":"31.31089","category":"68","category_name":"快餐厅","address":"闸北区临汾路328号(近阳曲路)"},{"poiid":"B2094757D16DA6FD4792","title":"临汾路300弄","lon":"121.4617811","lat":"31.311234275","category":"47","category_name":"住宅区","address":"上海市闸北区临汾路"},{"poiid":"B2094655D26AA2FF449F","title":"克莉丝汀 闻喜二店","lon":"121.459161054","lat":"31.308232793","category":"112","category_name":"糕饼店","address":"闸北区闻喜路350号(近阳曲路)"},{"poiid":"B2094757D16EAAFE499F","title":"中共闸北区委党校","lon":"121.4604521","lat":"31.310424258","category":"500","category_name":"未知分类","address":"闸北区阳泉路77号(近闻喜路)"},{"poiid":"B2094655D26BA2FD419E","title":"闻喜路阳曲路","lon":"121.45891","lat":"31.30839","category":"38","category_name":"公交车站","address":""},{"poiid":"B2094757D46EAAF54698","title":"紫燕百味鸡 阳曲路店","lon":"121.4598206","lat":"31.3114189","category":"68","category_name":"快餐厅","address":"闸北区阳曲路(近临汾路)"},{"poiid":"B2094750D768A6FD4292","title":"老北京火锅","lon":"121.46","lat":"31.3134","category":"86","category_name":"火锅店","address":"闸北区阳曲路446号(汾西路口)"},{"poiid":"B2094654D465ABF94992","title":"哈哈宠物","lon":"121.46239","lat":"31.31099","category":"129","category_name":"宠物用品店","address":"闸北区临汾路256号(近阳泉路)"},{"poiid":"B2094654D465ABFA409C","title":"中国建设银行上海彭浦支行","lon":"121.46184","lat":"31.311","category":"150","category_name":"银行","address":"闸北区临汾路272号(临汾路阳泉路)"},{"poiid":"B2094753DA6AA1FE409E","title":"谧蜜甜品","lon":"121.461715","lat":"31.312648","category":"247","category_name":"餐饮美食","address":"上海市 安业路153号"},{"poiid":"B2094654D465ABFA4193","title":"闸北区青少年活动中心科技馆","lon":"121.46047","lat":"31.31197","category":"186","category_name":"科技馆","address":"阳曲路350弄1"},{"poiid":"B2094654D465ABF8499F","title":"新亚大包 汾西店","lon":"121.45739968559","lat":"31.313230860235","category":"68","category_name":"快餐厅","address":"闸北区汾西路377号(近阳曲路)"},{"poiid":"B2094654DB64A7F4419F","title":"上海市闸北区临汾地段医院","lon":"121.45849","lat":"31.31067","category":"162","category_name":"医院","address":"闸北区临汾路385号"},{"poiid":"B2094757D16EA0F4489B","title":"彭浦新村幼儿园〔东园〕","lon":"121.464145303","lat":"31.3095087396","category":"500","category_name":"未知分类","address":"上海江杨南路466弄"},{"poiid":"B2094654D465ABF94792","title":"上海市闸北区阳曲路小学","lon":"121.46043","lat":"31.30899","category":"56","category_name":"小学","address":"闸北区阳曲路190号(近闻喜路)"},{"poiid":"B2094654D465ABFA449E","title":"汾西小区","lon":"121.46291","lat":"31.314842","category":"47","category_name":"住宅区","address":"汾西路260弄1-66号"},{"poiid":"B2094757D568A5FC4898","title":"金陵老鸭粉丝汤临汾路店","lon":"121.45935","lat":"31.31093694","category":"68","category_name":"快餐厅","address":"闸北区临汾路362号(近阳曲路)"},{"poiid":"B2094757D064A2FD419C","title":"临汾社区文化活动中心健身房","lon":"121.460525071","lat":"31.310696106","category":"148","category_name":"美容美发店","address":"上海闸北区保德路181号二楼"},{"poiid":"B2094654D465ABF94892","title":"农工商超市No.0049","lon":"121.46032","lat":"31.31104","category":"118","category_name":"超级市场","address":"临汾路"},{"poiid":"B2094757D06BA3FA419A","title":"206路终点站","lon":"121.460130567","lat":"31.3096477923","category":"500","category_name":"未知分类","address":"上海临汾路阳泉路"},{"poiid":"B2094750D56EABFE409B","title":"谧蜜甜品","lon":"121.460067","lat":"31.311693","category":"67","category_name":"甜品店","address":"闸北区阳曲路313号(近临汾路)"},{"poiid":"B2094757D068AAFB499F","title":"小肥羊(阳曲点)","lon":"121.460117103","lat":"31.3129823122","category":"86","category_name":"火锅店","address":"闸北区阳曲路475号1楼(近汾西路)"},{"poiid":"B2094655D26FA7FD4398","title":"临汾名城","lon":"121.46566","lat":"31.31241","category":"47","category_name":"住宅区","address":"上海闸北区汾西路87-88弄"},{"poiid":"B2094757D06FA4F84299","title":"老丰阁(阳曲店)","lon":"121.46045","lat":"31.31332","category":"76","category_name":"上海菜","address":"闸北区阳曲路456号(近汾西路)"},{"poiid":"B2094757D06FA6FD4292","title":"新洛鼎大酒店","lon":"121.45998","lat":"31.31351","category":"76","category_name":"上海菜","address":"闸北区汾西路360号(近阳曲路)"},{"poiid":"B2094757D06FABF8439C","title":"陌生人火锅餐厅(阳曲店)","lon":"121.45968","lat":"31.31351","category":"86","category_name":"火锅店","address":"闸北区汾西路377号(近阳曲路)"},{"poiid":"B2094757D068A2FF499F","title":"闸北区青少年活动中心","lon":"121.4598221","lat":"31.31145528","category":"500","category_name":"未知分类","address":"闸北区阳曲路330号(临汾路阳曲路)"},{"poiid":"B2094757D068A3FF4192","title":"康悦亚洲花园","lon":"121.466","lat":"31.309649","category":"47","category_name":"住宅区","address":"上海市闸北区临汾路99弄"},{"poiid":"B2094757D068A3F94093","title":"老盛昌苏州汤包馆(临汾店)","lon":"121.4579651","lat":"31.311143273","category":"68","category_name":"快餐厅","address":"闸北区临汾路408号"},{"poiid":"B2094655D36DA0F9479A","title":"阳曲路临汾路","lon":"121.45995","lat":"31.31042","category":"38","category_name":"公交车站","address":""},{"poiid":"B2094757D068A3FD4898","title":"汤豪仕汤馆（彭浦店）","lon":"121.45977783","lat":"31.30814743","category":"76","category_name":"上海菜","address":"闸北区阳曲路145号(近闻喜路)"},{"poiid":"B2094757D06AAAFE439C","title":"岭南中学","lon":"121.4600061","lat":"31.313138315","category":"55","category_name":"中学","address":"上海市闸北区阳曲路"},{"poiid":"B2094750DA6CA6F8419A","title":"唛享KTV","lon":"121.459884","lat":"31.314113","category":"170","category_name":"KTV","address":"闸北区阳曲路475号2-3楼(近汾西路)"},{"poiid":"B2094654D465ABF94893","title":"阳曲小区","lon":"121.46169","lat":"31.312433","category":"47","category_name":"住宅区","address":"临汾路300弄"},{"poiid":"B2094750D664A2FC489E","title":"王家大苑老北京热气羊肉涮锅(临汾路店)","lon":"121.459","lat":"31.3111","category":"86","category_name":"火锅店","address":"闸北区临汾路406号(近阳曲路)"},{"poiid":"B2094757DA64A4FA4998","title":"东亚九博健身会所","lon":"121.4621203511883","lat":"31.31087494968302","category":"500","category_name":"未知分类","address":"闸北区江杨南路158号(近场中路)"},{"poiid":"B2094751D46AA6F54592","title":"马大爷猪肚鸡","lon":"121.46009","lat":"31.3149","category":"86","category_name":"火锅店","address":"闸北区阳曲路586号(近汾西路)"},{"poiid":"B2094757D068ABFB4198","title":"蜀国川菜 闸北店","lon":"121.45971015386","lat":"31.310903051648","category":"71","category_name":"四川菜","address":"闸北区临汾路358号(近阳曲路)"},{"poiid":"B2094654D465ABF9499A","title":"恒安小区","lon":"121.4616","lat":"31.30997","category":"47","category_name":"住宅区","address":"临汾路299弄1-6号"},{"poiid":"B2094757D06BABFB419C","title":"中共上海市闸北区委员会党校","lon":"121.462116","lat":"31.307959","category":"500","category_name":"未知分类","address":"上海阳泉路77号"},{"poiid":"B2094753D76AABFE479A","title":"医院","lon":"121.462097","lat":"31.313249","category":"162","category_name":"医院","address":"上海市 临汾路444"},{"poiid":"B2094757D068A1FC489C","title":"都可茶饮 临汾路店 CoCo","lon":"121.46182","lat":"31.30839","category":"113","category_name":"冷饮店","address":"闸北区临汾路626-1号(岭南路口)"},{"poiid":"B2094757D66CA1F8409B","title":"五角场商业区","lon":"121.461881103","lat":"31.3116522844","category":"252","category_name":"楼宇机构","address":"上海淞沪路"},{"poiid":"B2094757D068A5FF469A","title":"避风塘茶楼(临汾路店)","lon":"121.45876","lat":"31.31084","category":"247","category_name":"餐饮美食","address":"上海闸北区临汾路410号(近安业路)  "},{"poiid":"B2094654D465ABF8499D","title":"星城花苑","lon":"121.45789","lat":"31.312393","category":"47","category_name":"住宅区","address":"临汾路380弄1-9号"},{"poiid":"B2094655D36CA1F94999","title":"临汾路阳泉路","lon":"121.46228","lat":"31.31081","category":"38","category_name":"公交车站","address":""},{"poiid":"B2094757D16DA7FD4798","title":"老城隍庙小吃","lon":"121.4604","lat":"31.31062","category":"68","category_name":"快餐厅","address":"闸北区阳曲路291号(近临汾路)"},{"poiid":"B209475CD668A4FE4793","title":"蜜谧甜品","lon":"121.461486","lat":"31.311948","category":"247","category_name":"餐饮美食","address":"上海市 安业路"},{"poiid":"B2094753D56DA1FC4098","title":"环球港","lon":"121.463287","lat":"31.309131","category":"500","category_name":"未知分类","address":"上海市 金沙江路"},{"poiid":"B2094654D465ABFA4598","title":"上岛咖啡(阳曲路)","lon":"121.46018","lat":"31.31374","category":"260","category_name":"其他","address":"闸北区阳曲路432号(近汾西路)"},{"poiid":"B2094757D664A2F4479F","title":"永顺和苏州汤包馆 临汾路店","lon":"121.46008","lat":"31.31089","category":"68","category_name":"快餐厅","address":"闸北区临汾路328号(近阳曲路)"},{"poiid":"B2094757D16DA6FD4792","title":"临汾路300弄","lon":"121.4617811","lat":"31.311234275","category":"47","category_name":"住宅区","address":"上海市闸北区临汾路"},{"poiid":"B2094655D26AA2FF449F","title":"克莉丝汀 闻喜二店","lon":"121.459161054","lat":"31.308232793","category":"112","category_name":"糕饼店","address":"闸北区闻喜路350号(近阳曲路)"},{"poiid":"B2094757D16EAAFE499F","title":"中共闸北区委党校","lon":"121.4604521","lat":"31.310424258","category":"500","category_name":"未知分类","address":"闸北区阳泉路77号(近闻喜路)"},{"poiid":"B2094655D26BA2FD419E","title":"闻喜路阳曲路","lon":"121.45891","lat":"31.30839","category":"38","category_name":"公交车站","address":""},{"poiid":"B2094757D46EAAF54698","title":"紫燕百味鸡 阳曲路店","lon":"121.4598206","lat":"31.3114189","category":"68","category_name":"快餐厅","address":"闸北区阳曲路(近临汾路)"},{"poiid":"B2094750D768A6FD4292","title":"老北京火锅","lon":"121.46","lat":"31.3134","category":"86","category_name":"火锅店","address":"闸北区阳曲路446号(汾西路口)"},{"poiid":"B2094654D465ABF94992","title":"哈哈宠物","lon":"121.46239","lat":"31.31099","category":"129","category_name":"宠物用品店","address":"闸北区临汾路256号(近阳泉路)"},{"poiid":"B2094654D465ABFA409C","title":"中国建设银行上海彭浦支行","lon":"121.46184","lat":"31.311","category":"150","category_name":"银行","address":"闸北区临汾路272号(临汾路阳泉路)"},{"poiid":"B2094753DA6AA1FE409E","title":"谧蜜甜品","lon":"121.461715","lat":"31.312648","category":"247","category_name":"餐饮美食","address":"上海市 安业路153号"},{"poiid":"B2094654D465ABFA4193","title":"闸北区青少年活动中心科技馆","lon":"121.46047","lat":"31.31197","category":"186","category_name":"科技馆","address":"阳曲路350弄1"},{"poiid":"B2094654D465ABF8499F","title":"新亚大包 汾西店","lon":"121.45739968559","lat":"31.313230860235","category":"68","category_name":"快餐厅","address":"闸北区汾西路377号(近阳曲路)"},{"poiid":"B2094654DB64A7F4419F","title":"上海市闸北区临汾地段医院","lon":"121.45849","lat":"31.31067","category":"162","category_name":"医院","address":"闸北区临汾路385号"},{"poiid":"B2094757D16EA0F4489B","title":"彭浦新村幼儿园〔东园〕","lon":"121.464145303","lat":"31.3095087396","category":"500","category_name":"未知分类","address":"上海江杨南路466弄"},{"poiid":"B2094654D465ABF94792","title":"上海市闸北区阳曲路小学","lon":"121.46043","lat":"31.30899","category":"56","category_name":"小学","address":"闸北区阳曲路190号(近闻喜路)"},{"poiid":"B2094654D465ABFA449E","title":"汾西小区","lon":"121.46291","lat":"31.314842","category":"47","category_name":"住宅区","address":"汾西路260弄1-66号"},{"poiid":"B2094757D568A5FC4898","title":"金陵老鸭粉丝汤临汾路店","lon":"121.45935","lat":"31.31093694","category":"68","category_name":"快餐厅","address":"闸北区临汾路362号(近阳曲路)"},{"poiid":"B2094757D064A2FD419C","title":"临汾社区文化活动中心健身房","lon":"121.460525071","lat":"31.310696106","category":"148","category_name":"美容美发店","address":"上海闸北区保德路181号二楼"},{"poiid":"B2094654D465ABF94892","title":"农工商超市No.0049","lon":"121.46032","lat":"31.31104","category":"118","category_name":"超级市场","address":"临汾路"},{"poiid":"B2094757D06BA3FA419A","title":"206路终点站","lon":"121.460130567","lat":"31.3096477923","category":"500","category_name":"未知分类","address":"上海临汾路阳泉路"},{"poiid":"B2094750D56EABFE409B","title":"谧蜜甜品","lon":"121.460067","lat":"31.311693","category":"67","category_name":"甜品店","address":"闸北区阳曲路313号(近临汾路)"},{"poiid":"B2094757D068AAFB499F","title":"小肥羊(阳曲点)","lon":"121.460117103","lat":"31.3129823122","category":"86","category_name":"火锅店","address":"闸北区阳曲路475号1楼(近汾西路)"},{"poiid":"B2094655D26FA7FD4398","title":"临汾名城","lon":"121.46566","lat":"31.31241","category":"47","category_name":"住宅区","address":"上海闸北区汾西路87-88弄"},{"poiid":"B2094757D06FA4F84299","title":"老丰阁(阳曲店)","lon":"121.46045","lat":"31.31332","category":"76","category_name":"上海菜","address":"闸北区阳曲路456号(近汾西路)"},{"poiid":"B2094757D06FA6FD4292","title":"新洛鼎大酒店","lon":"121.45998","lat":"31.31351","category":"76","category_name":"上海菜","address":"闸北区汾西路360号(近阳曲路)"},{"poiid":"B2094757D06FABF8439C","title":"陌生人火锅餐厅(阳曲店)","lon":"121.45968","lat":"31.31351","category":"86","category_name":"火锅店","address":"闸北区汾西路377号(近阳曲路)"},{"poiid":"B2094757D068A2FF499F","title":"闸北区青少年活动中心","lon":"121.4598221","lat":"31.31145528","category":"500","category_name":"未知分类","address":"闸北区阳曲路330号(临汾路阳曲路)"},{"poiid":"B2094757D068A3FF4192","title":"康悦亚洲花园","lon":"121.466","lat":"31.309649","category":"47","category_name":"住宅区","address":"上海市闸北区临汾路99弄"},{"poiid":"B2094757D068A3F94093","title":"老盛昌苏州汤包馆(临汾店)","lon":"121.4579651","lat":"31.311143273","category":"68","category_name":"快餐厅","address":"闸北区临汾路408号"},{"poiid":"B2094655D36DA0F9479A","title":"阳曲路临汾路","lon":"121.45995","lat":"31.31042","category":"38","category_name":"公交车站","address":""},{"poiid":"B2094757D068A3FD4898","title":"汤豪仕汤馆（彭浦店）","lon":"121.45977783","lat":"31.30814743","category":"76","category_name":"上海菜","address":"闸北区阳曲路145号(近闻喜路)"},{"poiid":"B2094757D06AAAFE439C","title":"岭南中学","lon":"121.4600061","lat":"31.313138315","category":"55","category_name":"中学","address":"上海市闸北区阳曲路"},{"poiid":"B2094750DA6CA6F8419A","title":"唛享KTV","lon":"121.459884","lat":"31.314113","category":"170","category_name":"KTV","address":"闸北区阳曲路475号2-3楼(近汾西路)"},{"poiid":"B2094654D465ABF94893","title":"阳曲小区","lon":"121.46169","lat":"31.312433","category":"47","category_name":"住宅区","address":"临汾路300弄"},{"poiid":"B2094750D664A2FC489E","title":"王家大苑老北京热气羊肉涮锅(临汾路店)","lon":"121.459","lat":"31.3111","category":"86","category_name":"火锅店","address":"闸北区临汾路406号(近阳曲路)"},{"poiid":"B2094757DA64A4FA4998","title":"东亚九博健身会所","lon":"121.4621203511883","lat":"31.31087494968302","category":"500","category_name":"未知分类","address":"闸北区江杨南路158号(近场中路)"},{"poiid":"B2094751D46AA6F54592","title":"马大爷猪肚鸡","lon":"121.46009","lat":"31.3149","category":"86","category_name":"火锅店","address":"闸北区阳曲路586号(近汾西路)"},{"poiid":"B2094757D068ABFB4198","title":"蜀国川菜 闸北店","lon":"121.45971015386","lat":"31.310903051648","category":"71","category_name":"四川菜","address":"闸北区临汾路358号(近阳曲路)"},{"poiid":"B2094654D465ABF9499A","title":"恒安小区","lon":"121.4616","lat":"31.30997","category":"47","category_name":"住宅区","address":"临汾路299弄1-6号"},{"poiid":"B2094757D06BABFB419C","title":"中共上海市闸北区委员会党校","lon":"121.462116","lat":"31.307959","category":"500","category_name":"未知分类","address":"上海阳泉路77号"},{"poiid":"B2094753D76AABFE479A","title":"医院","lon":"121.462097","lat":"31.313249","category":"162","category_name":"医院","address":"上海市 临汾路444"},{"poiid":"B2094757D068A1FC489C","title":"都可茶饮 临汾路店 CoCo","lon":"121.46182","lat":"31.30839","category":"113","category_name":"冷饮店","address":"闸北区临汾路626-1号(岭南路口)"},{"poiid":"B2094757D66CA1F8409B","title":"五角场商业区","lon":"121.461881103","lat":"31.3116522844","category":"252","category_name":"楼宇机构","address":"上海淞沪路"},{"poiid":"B2094757D068A5FF469A","title":"避风塘茶楼(临汾路店)","lon":"121.45876","lat":"31.31084","category":"247","category_name":"餐饮美食","address":"上海闸北区临汾路410号(近安业路)  "},{"poiid":"B2094654D465ABF8499D","title":"星城花苑","lon":"121.45789","lat":"31.312393","category":"47","category_name":"住宅区","address":"临汾路380弄1-9号"},{"poiid":"B2094655D36CA1F94999","title":"临汾路阳泉路","lon":"121.46228","lat":"31.31081","category":"38","category_name":"公交车站","address":""},{"poiid":"B2094757D16DA7FD4798","title":"老城隍庙小吃","lon":"121.4604","lat":"31.31062","category":"68","category_name":"快餐厅","address":"闸北区阳曲路291号(近临汾路)"},{"poiid":"B209475CD668A4FE4793","title":"蜜谧甜品","lon":"121.461486","lat":"31.311948","category":"247","category_name":"餐饮美食","address":"上海市 安业路"},{"poiid":"B2094753D56DA1FC4098","title":"环球港","lon":"121.463287","lat":"31.309131","category":"500","category_name":"未知分类","address":"上海市 金沙江路"},{"poiid":"B2094654D465ABFA4598","title":"上岛咖啡(阳曲路)","lon":"121.46018","lat":"31.31374","category":"260","category_name":"其他","address":"闸北区阳曲路432号(近汾西路)"},{"poiid":"B2094757D664A2F4479F","title":"永顺和苏州汤包馆 临汾路店","lon":"121.46008","lat":"31.31089","category":"68","category_name":"快餐厅","address":"闸北区临汾路328号(近阳曲路)"},{"poiid":"B2094757D16DA6FD4792","title":"临汾路300弄","lon":"121.4617811","lat":"31.311234275","category":"47","category_name":"住宅区","address":"上海市闸北区临汾路"},{"poiid":"B2094655D26AA2FF449F","title":"克莉丝汀 闻喜二店","lon":"121.459161054","lat":"31.308232793","category":"112","category_name":"糕饼店","address":"闸北区闻喜路350号(近阳曲路)"},{"poiid":"B2094757D16EAAFE499F","title":"中共闸北区委党校","lon":"121.4604521","lat":"31.310424258","category":"500","category_name":"未知分类","address":"闸北区阳泉路77号(近闻喜路)"},{"poiid":"B2094655D26BA2FD419E","title":"闻喜路阳曲路","lon":"121.45891","lat":"31.30839","category":"38","category_name":"公交车站","address":""},{"poiid":"B2094757D46EAAF54698","title":"紫燕百味鸡 阳曲路店","lon":"121.4598206","lat":"31.3114189","category":"68","category_name":"快餐厅","address":"闸北区阳曲路(近临汾路)"},{"poiid":"B2094750D768A6FD4292","title":"老北京火锅","lon":"121.46","lat":"31.3134","category":"86","category_name":"火锅店","address":"闸北区阳曲路446号(汾西路口)"},{"poiid":"B2094654D465ABF94992","title":"哈哈宠物","lon":"121.46239","lat":"31.31099","category":"129","category_name":"宠物用品店","address":"闸北区临汾路256号(近阳泉路)"},{"poiid":"B2094654D465ABFA409C","title":"中国建设银行上海彭浦支行","lon":"121.46184","lat":"31.311","category":"150","category_name":"银行","address":"闸北区临汾路272号(临汾路阳泉路)"},{"poiid":"B2094753DA6AA1FE409E","title":"谧蜜甜品","lon":"121.461715","lat":"31.312648","category":"247","category_name":"餐饮美食","address":"上海市 安业路153号"},{"poiid":"B2094654D465ABFA4193","title":"闸北区青少年活动中心科技馆","lon":"121.46047","lat":"31.31197","category":"186","category_name":"科技馆","address":"阳曲路350弄1"},{"poiid":"B2094654D465ABF8499F","title":"新亚大包 汾西店","lon":"121.45739968559","lat":"31.313230860235","category":"68","category_name":"快餐厅","address":"闸北区汾西路377号(近阳曲路)"},{"poiid":"B2094654DB64A7F4419F","title":"上海市闸北区临汾地段医院","lon":"121.45849","lat":"31.31067","category":"162","category_name":"医院","address":"闸北区临汾路385号"},{"poiid":"B2094757D16EA0F4489B","title":"彭浦新村幼儿园〔东园〕","lon":"121.464145303","lat":"31.3095087396","category":"500","category_name":"未知分类","address":"上海江杨南路466弄"},{"poiid":"B2094654D465ABF94792","title":"上海市闸北区阳曲路小学","lon":"121.46043","lat":"31.30899","category":"56","category_name":"小学","address":"闸北区阳曲路190号(近闻喜路)"},{"poiid":"B2094654D465ABFA449E","title":"汾西小区","lon":"121.46291","lat":"31.314842","category":"47","category_name":"住宅区","address":"汾西路260弄1-66号"},{"poiid":"B2094757D568A5FC4898","title":"金陵老鸭粉丝汤临汾路店","lon":"121.45935","lat":"31.31093694","category":"68","category_name":"快餐厅","address":"闸北区临汾路362号(近阳曲路)"},{"poiid":"B2094757D064A2FD419C","title":"临汾社区文化活动中心健身房","lon":"121.460525071","lat":"31.310696106","category":"148","category_name":"美容美发店","address":"上海闸北区保德路181号二楼"},{"poiid":"B2094654D465ABF94892","title":"农工商超市No.0049","lon":"121.46032","lat":"31.31104","category":"118","category_name":"超级市场","address":"临汾路"},{"poiid":"B2094757D06BA3FA419A","title":"206路终点站","lon":"121.460130567","lat":"31.3096477923","category":"500","category_name":"未知分类","address":"上海临汾路阳泉路"},{"poiid":"B2094750D56EABFE409B","title":"谧蜜甜品","lon":"121.460067","lat":"31.311693","category":"67","category_name":"甜品店","address":"闸北区阳曲路313号(近临汾路)"},{"poiid":"B2094757D068AAFB499F","title":"小肥羊(阳曲点)","lon":"121.460117103","lat":"31.3129823122","category":"86","category_name":"火锅店","address":"闸北区阳曲路475号1楼(近汾西路)"},{"poiid":"B2094655D26FA7FD4398","title":"临汾名城","lon":"121.46566","lat":"31.31241","category":"47","category_name":"住宅区","address":"上海闸北区汾西路87-88弄"},{"poiid":"B2094757D06FA4F84299","title":"老丰阁(阳曲店)","lon":"121.46045","lat":"31.31332","category":"76","category_name":"上海菜","address":"闸北区阳曲路456号(近汾西路)"},{"poiid":"B2094757D06FA6FD4292","title":"新洛鼎大酒店","lon":"121.45998","lat":"31.31351","category":"76","category_name":"上海菜","address":"闸北区汾西路360号(近阳曲路)"},{"poiid":"B2094757D06FABF8439C","title":"陌生人火锅餐厅(阳曲店)","lon":"121.45968","lat":"31.31351","category":"86","category_name":"火锅店","address":"闸北区汾西路377号(近阳曲路)"},{"poiid":"B2094757D068A2FF499F","title":"闸北区青少年活动中心","lon":"121.4598221","lat":"31.31145528","category":"500","category_name":"未知分类","address":"闸北区阳曲路330号(临汾路阳曲路)"},{"poiid":"B2094757D068A3FF4192","title":"康悦亚洲花园","lon":"121.466","lat":"31.309649","category":"47","category_name":"住宅区","address":"上海市闸北区临汾路99弄"},{"poiid":"B2094757D068A3F94093","title":"老盛昌苏州汤包馆(临汾店)","lon":"121.4579651","lat":"31.311143273","category":"68","category_name":"快餐厅","address":"闸北区临汾路408号"},{"poiid":"B2094655D36DA0F9479A","title":"阳曲路临汾路","lon":"121.45995","lat":"31.31042","category":"38","category_name":"公交车站","address":""},{"poiid":"B2094757D068A3FD4898","title":"汤豪仕汤馆（彭浦店）","lon":"121.45977783","lat":"31.30814743","category":"76","category_name":"上海菜","address":"闸北区阳曲路145号(近闻喜路)"},{"poiid":"B2094757D06AAAFE439C","title":"岭南中学","lon":"121.4600061","lat":"31.313138315","category":"55","category_name":"中学","address":"上海市闸北区阳曲路"},{"poiid":"B2094750DA6CA6F8419A","title":"唛享KTV","lon":"121.459884","lat":"31.314113","category":"170","category_name":"KTV","address":"闸北区阳曲路475号2-3楼(近汾西路)"},{"poiid":"B2094654D465ABF94893","title":"阳曲小区","lon":"121.46169","lat":"31.312433","category":"47","category_name":"住宅区","address":"临汾路300弄"},{"poiid":"B2094750D664A2FC489E","title":"王家大苑老北京热气羊肉涮锅(临汾路店)","lon":"121.459","lat":"31.3111","category":"86","category_name":"火锅店","address":"闸北区临汾路406号(近阳曲路)"},{"poiid":"B2094757DA64A4FA4998","title":"东亚九博健身会所","lon":"121.4621203511883","lat":"31.31087494968302","category":"500","category_name":"未知分类","address":"闸北区江杨南路158号(近场中路)"},{"poiid":"B2094751D46AA6F54592","title":"马大爷猪肚鸡","lon":"121.46009","lat":"31.3149","category":"86","category_name":"火锅店","address":"闸北区阳曲路586号(近汾西路)"},{"poiid":"B2094757D068ABFB4198","title":"蜀国川菜 闸北店","lon":"121.45971015386","lat":"31.310903051648","category":"71","category_name":"四川菜","address":"闸北区临汾路358号(近阳曲路)"},{"poiid":"B2094654D465ABF9499A","title":"恒安小区","lon":"121.4616","lat":"31.30997","category":"47","category_name":"住宅区","address":"临汾路299弄1-6号"},{"poiid":"B2094757D06BABFB419C","title":"中共上海市闸北区委员会党校","lon":"121.462116","lat":"31.307959","category":"500","category_name":"未知分类","address":"上海阳泉路77号"},{"poiid":"B2094753D76AABFE479A","title":"医院","lon":"121.462097","lat":"31.313249","category":"162","category_name":"医院","address":"上海市 临汾路444"},{"poiid":"B2094757D068A1FC489C","title":"都可茶饮 临汾路店 CoCo","lon":"121.46182","lat":"31.30839","category":"113","category_name":"冷饮店","address":"闸北区临汾路626-1号(岭南路口)"},{"poiid":"B2094757D66CA1F8409B","title":"五角场商业区","lon":"121.461881103","lat":"31.3116522844","category":"252","category_name":"楼宇机构","address":"上海淞沪路"},{"poiid":"B2094757D068A5FF469A","title":"避风塘茶楼(临汾路店)","lon":"121.45876","lat":"31.31084","category":"247","category_name":"餐饮美食","address":"上海闸北区临汾路410号(近安业路)  "},{"poiid":"B2094654D465ABF8499D","title":"星城花苑","lon":"121.45789","lat":"31.312393","category":"47","category_name":"住宅区","address":"临汾路380弄1-9号"},{"poiid":"B2094655D36CA1F94999","title":"临汾路阳泉路","lon":"121.46228","lat":"31.31081","category":"38","category_name":"公交车站","address":""},{"poiid":"B2094757D16DA7FD4798","title":"老城隍庙小吃","lon":"121.4604","lat":"31.31062","category":"68","category_name":"快餐厅","address":"闸北区阳曲路291号(近临汾路)"},{"poiid":"B209475CD668A4FE4793","title":"蜜谧甜品","lon":"121.461486","lat":"31.311948","category":"247","category_name":"餐饮美食","address":"上海市 安业路"},{"poiid":"B2094753D56DA1FC4098","title":"环球港","lon":"121.463287","lat":"31.309131","category":"500","category_name":"未知分类","address":"上海市 金沙江路"},{"poiid":"B2094654D465ABFA4598","title":"上岛咖啡(阳曲路)","lon":"121.46018","lat":"31.31374","category":"260","category_name":"其他","address":"闸北区阳曲路432号(近汾西路)"},{"poiid":"B2094757D664A2F4479F","title":"永顺和苏州汤包馆 临汾路店","lon":"121.46008","lat":"31.31089","category":"68","category_name":"快餐厅","address":"闸北区临汾路328号(近阳曲路)"},{"poiid":"B2094757D16DA6FD4792","title":"临汾路300弄","lon":"121.4617811","lat":"31.311234275","category":"47","category_name":"住宅区","address":"上海市闸北区临汾路"},{"poiid":"B2094655D26AA2FF449F","title":"克莉丝汀 闻喜二店","lon":"121.459161054","lat":"31.308232793","category":"112","category_name":"糕饼店","address":"闸北区闻喜路350号(近阳曲路)"},{"poiid":"B2094757D16EAAFE499F","title":"中共闸北区委党校","lon":"121.4604521","lat":"31.310424258","category":"500","category_name":"未知分类","address":"闸北区阳泉路77号(近闻喜路)"},{"poiid":"B2094655D26BA2FD419E","title":"闻喜路阳曲路","lon":"121.45891","lat":"31.30839","category":"38","category_name":"公交车站","address":""},{"poiid":"B2094757D46EAAF54698","title":"紫燕百味鸡 阳曲路店","lon":"121.4598206","lat":"31.3114189","category":"68","category_name":"快餐厅","address":"闸北区阳曲路(近临汾路)"},{"poiid":"B2094750D768A6FD4292","title":"老北京火锅","lon":"121.46","lat":"31.3134","category":"86","category_name":"火锅店","address":"闸北区阳曲路446号(汾西路口)"},{"poiid":"B2094654D465ABF94992","title":"哈哈宠物","lon":"121.46239","lat":"31.31099","category":"129","category_name":"宠物用品店","address":"闸北区临汾路256号(近阳泉路)"},{"poiid":"B2094654D465ABFA409C","title":"中国建设银行上海彭浦支行","lon":"121.46184","lat":"31.311","category":"150","category_name":"银行","address":"闸北区临汾路272号(临汾路阳泉路)"},{"poiid":"B2094753DA6AA1FE409E","title":"谧蜜甜品","lon":"121.461715","lat":"31.312648","category":"247","category_name":"餐饮美食","address":"上海市 安业路153号"},{"poiid":"B2094654D465ABFA4193","title":"闸北区青少年活动中心科技馆","lon":"121.46047","lat":"31.31197","category":"186","category_name":"科技馆","address":"阳曲路350弄1"},{"poiid":"B2094654D465ABF8499F","title":"新亚大包 汾西店","lon":"121.45739968559","lat":"31.313230860235","category":"68","category_name":"快餐厅","address":"闸北区汾西路377号(近阳曲路)"},{"poiid":"B2094654DB64A7F4419F","title":"上海市闸北区临汾地段医院","lon":"121.45849","lat":"31.31067","category":"162","category_name":"医院","address":"闸北区临汾路385号"},{"poiid":"B2094757D16EA0F4489B","title":"彭浦新村幼儿园〔东园〕","lon":"121.464145303","lat":"31.3095087396","category":"500","category_name":"未知分类","address":"上海江杨南路466弄"},{"poiid":"B2094654D465ABF94792","title":"上海市闸北区阳曲路小学","lon":"121.46043","lat":"31.30899","category":"56","category_name":"小学","address":"闸北区阳曲路190号(近闻喜路)"},{"poiid":"B2094654D465ABFA449E","title":"汾西小区","lon":"121.46291","lat":"31.314842","category":"47","category_name":"住宅区","address":"汾西路260弄1-66号"},{"poiid":"B2094757D568A5FC4898","title":"金陵老鸭粉丝汤临汾路店","lon":"121.45935","lat":"31.31093694","category":"68","category_name":"快餐厅","address":"闸北区临汾路362号(近阳曲路)"},{"poiid":"B2094757D064A2FD419C","title":"临汾社区文化活动中心健身房","lon":"121.460525071","lat":"31.310696106","category":"148","category_name":"美容美发店","address":"上海闸北区保德路181号二楼"},{"poiid":"B2094654D465ABF94892","title":"农工商超市No.0049","lon":"121.46032","lat":"31.31104","category":"118","category_name":"超级市场","address":"临汾路"},{"poiid":"B2094757D06BA3FA419A","title":"206路终点站","lon":"121.460130567","lat":"31.3096477923","category":"500","category_name":"未知分类","address":"上海临汾路阳泉路"}]