[{"poiid":"B2094757D06FA3FF409A","title":"嘉里中心(Kerry Center)","lon":"121.45018422","lat":"31.224665261","category":"46","category_name":"楼宇","address":"上海静安区南京西路1515号(近铜仁路)"},{"poiid":"B2094655D26DA2FF469E","title":"上海波特曼丽嘉酒店","lon":"121.45178","lat":"31.22705","category":"213","category_name":"五星级宾馆","address":"上海市静安区南京西路1376号（上海商城内）"},{"poiid":"B2094654DB69AAFD429C","title":"新元素 南京西路店 Element Fresh","lon":"121.451302054","lat":"31.226277793","category":"94","category_name":"西餐厅","address":"静安区南京西路1376号上海商城东峰112室(近西康路)"},{"poiid":"B2094753D76FAAFA449C","title":"上海滩国泰旗舰店","lon":"121.466011","lat":"31.216125","category":"249","category_name":"购物服务","address":"淮海中路868号"},{"poiid":"B209475CD564A7F84292","title":"上海滩新天地店","lon":"121.47463","lat":"31.22164","category":"119","category_name":"商场","address":"\"太仓路181弄新天地北里15号\r\n\""},{"poiid":"B209475CD564A7F8439E","title":"上海滩中信泰富店","lon":"121.45602","lat":"31.22851","category":"119","category_name":"商场","address":"\"南京西路1168号中信泰富广场，店铺号221.\r\n\""},{"poiid":"B2094757D069A3FD409B","title":"藏珑泰极(波特曼店)","lon":"121.45152825","lat":"31.225874383","category":"99","category_name":"泰国／越南菜品餐厅","address":"静安区南京西路1376号109室(近西康路)"},{"poiid":"B2094757D06FA3FA4392","title":"Pizza Marzano(上海商城店)","lon":"121.45196993","lat":"31.2264545457","category":"94","category_name":"西餐厅","address":"静安区南京西路1376号上海商城西峰107室(近西康路)"},{"poiid":"B2094655D26DA2FF4398","title":"上海商城剧院","lon":"121.45207","lat":"31.2266","category":"180","category_name":"剧场","address":"静安区南京西路1376号上海商城内(近西康路)"},{"poiid":"B2094757D06FA2FC499F","title":"鼎泰丰(南京西路店)","lon":"121.45234","lat":"31.22636","category":"68","category_name":"快餐厅","address":"静安区南京西路1376号上海商城1楼A104号(近西康路)"},{"poiid":"B2094757D06FA3F9449C","title":"马龙美式酒吧Malone's American Cafe(铜仁路店)","lon":"121.44975866","lat":"31.2263143158","category":"65","category_name":"咖啡厅","address":"静安区铜仁路255号(近南京西路)"},{"poiid":"B2094654DA6CA0FC459E","title":"上海展览中心(7号门)","lon":"121.45173","lat":"31.22581","category":"183","category_name":"展览馆","address":"南京西路1333"},{"poiid":"B2094757D06FA2F4479F","title":"静安体育馆","lon":"121.4516","lat":"31.22764","category":"224","category_name":"综合体育馆","address":"静安区西康路99-1号静安体育馆内"},{"poiid":"B2094654DA6CA0FD469E","title":"中欣大厦","lon":"121.44985","lat":"31.22539","category":"46","category_name":"楼宇","address":"上海市静安区南京西路1468号"},{"poiid":"B2094655D26AA4FC4099","title":"星巴克(波特曼店)","lon":"121.451973","lat":"31.226651","category":"260","category_name":"其他","address":"静安区南京西路1376号上海商城1楼(近西康路)"},{"poiid":"B2094757D06FA0F44693","title":"琳怡","lon":"121.45236","lat":"31.22731","category":"76","category_name":"上海菜","address":"静安区西康路99-1号静安体育馆1楼"},{"poiid":"B2094750D164A2F9459E","title":"上海波特曼丽思卡尔顿酒店","lon":"121.452022790909","lat":"31.2267568519176","category":"213","category_name":"五星级宾馆","address":"静安区南京西路1376号上海商城内(近西康路)"},{"poiid":"B2094757D06FA7F8469B","title":"海之幸(恒隆店)","lon":"121.45181","lat":"31.22766","category":"95","category_name":"日本料理","address":"静安区南阳路123号(近静安体育馆)"},{"poiid":"B2094757D06FA5FA459D","title":"上海展览中心友谊会堂","lon":"121.45210658","lat":"31.226365355","category":"260","category_name":"其他","address":"静安区南京西路1333号(近铜仁路)"},{"poiid":"B2094757D068A3FD4899","title":"The Spot Restaurant &amp; Bar","lon":"121.45023","lat":"31.2264","category":"94","category_name":"西餐厅","address":"静安区铜仁路331号(近北京西路)"},{"poiid":"B2094757D06FAAFC409A","title":"斗香园(越洋广场店)","lon":"121.4525","lat":"31.22636","category":"68","category_name":"快餐厅","address":"静安区南京西路1601号芮欧百货B204号(常德路口)"},{"poiid":"B2094757D06FA0FB4098","title":"云餐厅(南京西路店)","lon":"121.45095","lat":"31.22482","category":"260","category_name":"其他","address":"静安区南京西路1399号(铜仁路口)"},{"poiid":"B2094757D06FA6FD449E","title":"Baker &amp; Spice","lon":"121.45164795","lat":"31.226884497","category":"65","category_name":"咖啡厅","address":"静安区南京西路1376号上海商城118室"},{"poiid":"B2094757D465ABFD4998","title":"堡仕康 Gourmet Cafe","lon":"121.451302054","lat":"31.226277793","category":"65","category_name":"咖啡厅","address":"静安区南京西路1376号上海商城111号商铺(近西康路)"},{"poiid":"B2094654DB65ABFE479D","title":"THE PORTMAN RITZ-CARLTON SHANGHAI","lon":"121.45207","lat":"31.22663","category":"213","category_name":"五星级宾馆","address":"南京西路1376号上海商城"},{"poiid":"B2094655D26CA4FF439E","title":"上海波特曼丽嘉酒店(南二门)","lon":"121.45193","lat":"31.22642","category":"656","category_name":"大门","address":"上海市静安区南京西路1376号（上海商城内）"},{"poiid":"B2094757D06FA4F9449F","title":"永和大王(西康路店)","lon":"121.4515","lat":"31.22782","category":"68","category_name":"快餐厅","address":"上海静安区西康路101-3号(近南阳路)  "},{"poiid":"B2094757D06FAAFF489C","title":"静安体育馆羽毛球场","lon":"121.451642446","lat":"31.2276017464","category":"220","category_name":"运动场所","address":"静安区西康路99-1号静安体育馆内"},{"poiid":"B2094757D16CA2F4429B","title":"Lapisthai","lon":"121.45006958","lat":"31.226010348","category":"500","category_name":"未知分类","address":"上海市静安区南京西路波特曼酒店"},{"poiid":"B2094753D065A0F8449B","title":"平成屋日式料理店(西康路店)","lon":"121.45201","lat":"31.22773","category":"95","category_name":"日本料理","address":"静安区西康路101号(近南京西路)"},{"poiid":"B2094757D069A3FD489E","title":"in house","lon":"121.448973","lat":"31.226372","category":"148","category_name":"美容美发店","address":"上海南京西路1486号东海广场"},{"poiid":"B2094757D068ABFC4998","title":"华侨大厦","lon":"121.45","lat":"31.2263","category":"46","category_name":"楼宇","address":"希尔斯联邦位于沈河北站路117号(北站家乐福东北角)"},{"poiid":"B2094757D16EA5F94693","title":"波特曼","lon":"121.452114","lat":"31.226544","category":"249","category_name":"购物服务","address":"上海商城"},{"poiid":"B2094750D76DA6F5489A","title":"CREPES&CO","lon":"121.452","lat":"31.2269","category":"94","category_name":"西餐厅","address":"静安区南京西路1376号上海商城104室(近恒隆广场)"},{"poiid":"B2094752D76EABF8429E","title":"泰辣","lon":"121.449384","lat":"31.226051","category":"247","category_name":"餐饮美食","address":"愚园东路20号"},{"poiid":"B2094757D06AAAFE4292","title":"贝轩大公馆","lon":"121.450637817","lat":"31.2279224396","category":"500","category_name":"未知分类","address":"静安区南阳路170号(近静安体育馆)"},{"poiid":"B2094655D26DAAFD449D","title":"帕兰朵意大利餐厅 Palladio","lon":"121.451302054","lat":"31.226277793","category":"98","category_name":"意式菜品餐厅","address":"静安区南京西路1376号波特曼大酒店1楼(近西康路)"},{"poiid":"B2094757D569A0FA479D","title":"波特曼丽嘉宴餐厅","lon":"121.4520789","lat":"31.22663611","category":"268","category_name":"自助","address":"静安区南京西路1376号波特曼大酒店1楼(近西康路)"},{"poiid":"B2094757DB68A1FA469F","title":"梅陇镇酒家","lon":"121.452277492211","lat":"31.22734107127845","category":"247","category_name":"餐饮美食","address":"南京西路1038号梅龙镇广场10楼(近江宁路)"},{"poiid":"B2094655D269A4F4439A","title":"城市超市上海商城店","lon":"121.45207","lat":"31.22663","category":"247","category_name":"餐饮美食","address":"静安区南京西路1376号上海商城B1楼(近西康路)"},{"poiid":"B2094757D568A1FC429A","title":"MALONE S AMERICAN CAFE","lon":"121.449813","lat":"31.226417","category":"65","category_name":"咖啡厅","address":"铜仁路255号"},{"poiid":"B2094751D56BA1FC479C","title":"尼康影像天地","lon":"121.450775","lat":"31.225525","category":"248","category_name":"生活娱乐","address":"上海靜安區南京西路1363號"},{"poiid":"B2094655D26EA3F4499B","title":"宴餐厅 Tables","lon":"121.451302054","lat":"31.226277793","category":"257","category_name":"中餐厅","address":"南京西路1376号波特曼丽嘉酒店1楼近西康路"},{"poiid":"B2094655D26DA3FE409E","title":"上海展览中心商务楼","lon":"121.45114","lat":"31.22504","category":"46","category_name":"楼宇","address":""},{"poiid":"B2094654DA6CA7FE439A","title":"宝隆居家酒店","lon":"121.45134","lat":"31.22777","category":"257","category_name":"中餐厅","address":"上海市静安区南阳路125号(近西康路)"},{"poiid":"B2094654DB64A6FC459A","title":"台南担仔面海鲜酒楼 静安店","lon":"121.45102272067","lat":"31.225321561111","category":"72","category_name":"广东菜","address":"静安区南京西路1333号展览中心1-4楼(近陕西北路)"},{"poiid":"B2094757D16FAAFB489C","title":"上海新国际展览中心东大门","lon":"121.451462","lat":"31.225569","category":"500","category_name":"未知分类","address":"上海展览中心3号门"},{"poiid":"B2094655D26DA2F5489F","title":"澳大利亚驻上海总领事馆签证处","lon":"121.45154","lat":"31.22659","category":"252","category_name":"楼宇机构","address":"上海商城东办公楼401"},{"poiid":"B2094655D26DABF94292","title":"上海商城西办公楼","lon":"121.45154","lat":"31.22659","category":"46","category_name":"楼宇","address":""},{"poiid":"B2094757D068A4FE419E","title":"华东医院七号楼","lon":"121.45138913","lat":"31.226215652","category":"162","category_name":"医院","address":"上海静安区延安西路221号华东医院内"},{"poiid":"B2094757D06FA3FF409A","title":"嘉里中心(Kerry Center)","lon":"121.45018422","lat":"31.224665261","category":"46","category_name":"楼宇","address":"上海静安区南京西路1515号(近铜仁路)"},{"poiid":"B2094655D26DA2FF469E","title":"上海波特曼丽嘉酒店","lon":"121.45178","lat":"31.22705","category":"213","category_name":"五星级宾馆","address":"上海市静安区南京西路1376号（上海商城内）"},{"poiid":"B2094654DB69AAFD429C","title":"新元素 南京西路店 Element Fresh","lon":"121.451302054","lat":"31.226277793","category":"94","category_name":"西餐厅","address":"静安区南京西路1376号上海商城东峰112室(近西康路)"},{"poiid":"B2094753D76FAAFA449C","title":"上海滩国泰旗舰店","lon":"121.466011","lat":"31.216125","category":"249","category_name":"购物服务","address":"淮海中路868号"},{"poiid":"B209475CD564A7F84292","title":"上海滩新天地店","lon":"121.47463","lat":"31.22164","category":"119","category_name":"商场","address":"\"太仓路181弄新天地北里15号\r\n\""},{"poiid":"B209475CD564A7F8439E","title":"上海滩中信泰富店","lon":"121.45602","lat":"31.22851","category":"119","category_name":"商场","address":"\"南京西路1168号中信泰富广场，店铺号221.\r\n\""},{"poiid":"B2094757D069A3FD409B","title":"藏珑泰极(波特曼店)","lon":"121.45152825","lat":"31.225874383","category":"99","category_name":"泰国／越南菜品餐厅","address":"静安区南京西路1376号109室(近西康路)"},{"poiid":"B2094757D06FA3FA4392","title":"Pizza Marzano(上海商城店)","lon":"121.45196993","lat":"31.2264545457","category":"94","category_name":"西餐厅","address":"静安区南京西路1376号上海商城西峰107室(近西康路)"},{"poiid":"B2094655D26DA2FF4398","title":"上海商城剧院","lon":"121.45207","lat":"31.2266","category":"180","category_name":"剧场","address":"静安区南京西路1376号上海商城内(近西康路)"},{"poiid":"B2094757D06FA2FC499F","title":"鼎泰丰(南京西路店)","lon":"121.45234","lat":"31.22636","category":"68","category_name":"快餐厅","address":"静安区南京西路1376号上海商城1楼A104号(近西康路)"},{"poiid":"B2094757D06FA3F9449C","title":"马龙美式酒吧Malone's American Cafe(铜仁路店)","lon":"121.44975866","lat":"31.2263143158","category":"65","category_name":"咖啡厅","address":"静安区铜仁路255号(近南京西路)"},{"poiid":"B2094654DA6CA0FC459E","title":"上海展览中心(7号门)","lon":"121.45173","lat":"31.22581","category":"183","category_name":"展览馆","address":"南京西路1333"},{"poiid":"B2094757D06FA2F4479F","title":"静安体育馆","lon":"121.4516","lat":"31.22764","category":"224","category_name":"综合体育馆","address":"静安区西康路99-1号静安体育馆内"},{"poiid":"B2094654DA6CA0FD469E","title":"中欣大厦","lon":"121.44985","lat":"31.22539","category":"46","category_name":"楼宇","address":"上海市静安区南京西路1468号"},{"poiid":"B2094655D26AA4FC4099","title":"星巴克(波特曼店)","lon":"121.451973","lat":"31.226651","category":"260","category_name":"其他","address":"静安区南京西路1376号上海商城1楼(近西康路)"},{"poiid":"B2094757D06FA0F44693","title":"琳怡","lon":"121.45236","lat":"31.22731","category":"76","category_name":"上海菜","address":"静安区西康路99-1号静安体育馆1楼"},{"poiid":"B2094750D164A2F9459E","title":"上海波特曼丽思卡尔顿酒店","lon":"121.452022790909","lat":"31.2267568519176","category":"213","category_name":"五星级宾馆","address":"静安区南京西路1376号上海商城内(近西康路)"},{"poiid":"B2094757D06FA7F8469B","title":"海之幸(恒隆店)","lon":"121.45181","lat":"31.22766","category":"95","category_name":"日本料理","address":"静安区南阳路123号(近静安体育馆)"},{"poiid":"B2094757D06FA5FA459D","title":"上海展览中心友谊会堂","lon":"121.45210658","lat":"31.226365355","category":"260","category_name":"其他","address":"静安区南京西路1333号(近铜仁路)"},{"poiid":"B2094757D068A3FD4899","title":"The Spot Restaurant &amp; Bar","lon":"121.45023","lat":"31.2264","category":"94","category_name":"西餐厅","address":"静安区铜仁路331号(近北京西路)"},{"poiid":"B2094757D06FAAFC409A","title":"斗香园(越洋广场店)","lon":"121.4525","lat":"31.22636","category":"68","category_name":"快餐厅","address":"静安区南京西路1601号芮欧百货B204号(常德路口)"},{"poiid":"B2094757D06FA0FB4098","title":"云餐厅(南京西路店)","lon":"121.45095","lat":"31.22482","category":"260","category_name":"其他","address":"静安区南京西路1399号(铜仁路口)"},{"poiid":"B2094757D06FA6FD449E","title":"Baker &amp; Spice","lon":"121.45164795","lat":"31.226884497","category":"65","category_name":"咖啡厅","address":"静安区南京西路1376号上海商城118室"},{"poiid":"B2094757D465ABFD4998","title":"堡仕康 Gourmet Cafe","lon":"121.451302054","lat":"31.226277793","category":"65","category_name":"咖啡厅","address":"静安区南京西路1376号上海商城111号商铺(近西康路)"},{"poiid":"B2094654DB65ABFE479D","title":"THE PORTMAN RITZ-CARLTON SHANGHAI","lon":"121.45207","lat":"31.22663","category":"213","category_name":"五星级宾馆","address":"南京西路1376号上海商城"},{"poiid":"B2094655D26CA4FF439E","title":"上海波特曼丽嘉酒店(南二门)","lon":"121.45193","lat":"31.22642","category":"656","category_name":"大门","address":"上海市静安区南京西路1376号（上海商城内）"},{"poiid":"B2094757D06FA4F9449F","title":"永和大王(西康路店)","lon":"121.4515","lat":"31.22782","category":"68","category_name":"快餐厅","address":"上海静安区西康路101-3号(近南阳路)  "},{"poiid":"B2094757D06FAAFF489C","title":"静安体育馆羽毛球场","lon":"121.451642446","lat":"31.2276017464","category":"220","category_name":"运动场所","address":"静安区西康路99-1号静安体育馆内"},{"poiid":"B2094757D16CA2F4429B","title":"Lapisthai","lon":"121.45006958","lat":"31.226010348","category":"500","category_name":"未知分类","address":"上海市静安区南京西路波特曼酒店"},{"poiid":"B2094753D065A0F8449B","title":"平成屋日式料理店(西康路店)","lon":"121.45201","lat":"31.22773","category":"95","category_name":"日本料理","address":"静安区西康路101号(近南京西路)"},{"poiid":"B2094757D069A3FD489E","title":"in house","lon":"121.448973","lat":"31.226372","category":"148","category_name":"美容美发店","address":"上海南京西路1486号东海广场"},{"poiid":"B2094757D068ABFC4998","title":"华侨大厦","lon":"121.45","lat":"31.2263","category":"46","category_name":"楼宇","address":"希尔斯联邦位于沈河北站路117号(北站家乐福东北角)"},{"poiid":"B2094757D16EA5F94693","title":"波特曼","lon":"121.452114","lat":"31.226544","category":"249","category_name":"购物服务","address":"上海商城"},{"poiid":"B2094750D76DA6F5489A","title":"CREPES&CO","lon":"121.452","lat":"31.2269","category":"94","category_name":"西餐厅","address":"静安区南京西路1376号上海商城104室(近恒隆广场)"},{"poiid":"B2094752D76EABF8429E","title":"泰辣","lon":"121.449384","lat":"31.226051","category":"247","category_name":"餐饮美食","address":"愚园东路20号"},{"poiid":"B2094757D06AAAFE4292","title":"贝轩大公馆","lon":"121.450637817","lat":"31.2279224396","category":"500","category_name":"未知分类","address":"静安区南阳路170号(近静安体育馆)"},{"poiid":"B2094655D26DAAFD449D","title":"帕兰朵意大利餐厅 Palladio","lon":"121.451302054","lat":"31.226277793","category":"98","category_name":"意式菜品餐厅","address":"静安区南京西路1376号波特曼大酒店1楼(近西康路)"},{"poiid":"B2094757D569A0FA479D","title":"波特曼丽嘉宴餐厅","lon":"121.4520789","lat":"31.22663611","category":"268","category_name":"自助","address":"静安区南京西路1376号波特曼大酒店1楼(近西康路)"},{"poiid":"B2094757DB68A1FA469F","title":"梅陇镇酒家","lon":"121.452277492211","lat":"31.22734107127845","category":"247","category_name":"餐饮美食","address":"南京西路1038号梅龙镇广场10楼(近江宁路)"},{"poiid":"B2094655D269A4F4439A","title":"城市超市上海商城店","lon":"121.45207","lat":"31.22663","category":"247","category_name":"餐饮美食","address":"静安区南京西路1376号上海商城B1楼(近西康路)"},{"poiid":"B2094757D568A1FC429A","title":"MALONE S AMERICAN CAFE","lon":"121.449813","lat":"31.226417","category":"65","category_name":"咖啡厅","address":"铜仁路255号"},{"poiid":"B2094751D56BA1FC479C","title":"尼康影像天地","lon":"121.450775","lat":"31.225525","category":"248","category_name":"生活娱乐","address":"上海靜安區南京西路1363號"},{"poiid":"B2094655D26EA3F4499B","title":"宴餐厅 Tables","lon":"121.451302054","lat":"31.226277793","category":"257","category_name":"中餐厅","address":"南京西路1376号波特曼丽嘉酒店1楼近西康路"},{"poiid":"B2094655D26DA3FE409E","title":"上海展览中心商务楼","lon":"121.45114","lat":"31.22504","category":"46","category_name":"楼宇","address":""},{"poiid":"B2094654DA6CA7FE439A","title":"宝隆居家酒店","lon":"121.45134","lat":"31.22777","category":"257","category_name":"中餐厅","address":"上海市静安区南阳路125号(近西康路)"},{"poiid":"B2094654DB64A6FC459A","title":"台南担仔面海鲜酒楼 静安店","lon":"121.45102272067","lat":"31.225321561111","category":"72","category_name":"广东菜","address":"静安区南京西路1333号展览中心1-4楼(近陕西北路)"},{"poiid":"B2094757D16FAAFB489C","title":"上海新国际展览中心东大门","lon":"121.451462","lat":"31.225569","category":"500","category_name":"未知分类","address":"上海展览中心3号门"},{"poiid":"B2094655D26DA2F5489F","title":"澳大利亚驻上海总领事馆签证处","lon":"121.45154","lat":"31.22659","category":"252","category_name":"楼宇机构","address":"上海商城东办公楼401"},{"poiid":"B2094655D26DABF94292","title":"上海商城西办公楼","lon":"121.45154","lat":"31.22659","category":"46","category_name":"楼宇","address":""},{"poiid":"B2094757D068A4FE419E","title":"华东医院七号楼","lon":"121.45138913","lat":"31.226215652","category":"162","category_name":"医院","address":"上海静安区延安西路221号华东医院内"},{"poiid":"B2094757D06FA3FF409A","title":"嘉里中心(Kerry Center)","lon":"121.45018422","lat":"31.224665261","category":"46","category_name":"楼宇","address":"上海静安区南京西路1515号(近铜仁路)"},{"poiid":"B2094655D26DA2FF469E","title":"上海波特曼丽嘉酒店","lon":"121.45178","lat":"31.22705","category":"213","category_name":"五星级宾馆","address":"上海市静安区南京西路1376号（上海商城内）"},{"poiid":"B2094654DB69AAFD429C","title":"新元素 南京西路店 Element Fresh","lon":"121.451302054","lat":"31.226277793","category":"94","category_name":"西餐厅","address":"静安区南京西路1376号上海商城东峰112室(近西康路)"},{"poiid":"B2094753D76FAAFA449C","title":"上海滩国泰旗舰店","lon":"121.466011","lat":"31.216125","category":"249","category_name":"购物服务","address":"淮海中路868号"},{"poiid":"B209475CD564A7F84292","title":"上海滩新天地店","lon":"121.47463","lat":"31.22164","category":"119","category_name":"商场","address":"\"太仓路181弄新天地北里15号\r\n\""},{"poiid":"B209475CD564A7F8439E","title":"上海滩中信泰富店","lon":"121.45602","lat":"31.22851","category":"119","category_name":"商场","address":"\"南京西路1168号中信泰富广场，店铺号221.\r\n\""},{"poiid":"B2094757D069A3FD409B","title":"藏珑泰极(波特曼店)","lon":"121.45152825","lat":"31.225874383","category":"99","category_name":"泰国／越南菜品餐厅","address":"静安区南京西路1376号109室(近西康路)"},{"poiid":"B2094757D06FA3FA4392","title":"Pizza Marzano(上海商城店)","lon":"121.45196993","lat":"31.2264545457","category":"94","category_name":"西餐厅","address":"静安区南京西路1376号上海商城西峰107室(近西康路)"},{"poiid":"B2094655D26DA2FF4398","title":"上海商城剧院","lon":"121.45207","lat":"31.2266","category":"180","category_name":"剧场","address":"静安区南京西路1376号上海商城内(近西康路)"},{"poiid":"B2094757D06FA2FC499F","title":"鼎泰丰(南京西路店)","lon":"121.45234","lat":"31.22636","category":"68","category_name":"快餐厅","address":"静安区南京西路1376号上海商城1楼A104号(近西康路)"},{"poiid":"B2094757D06FA3F9449C","title":"马龙美式酒吧Malone's American Cafe(铜仁路店)","lon":"121.44975866","lat":"31.2263143158","category":"65","category_name":"咖啡厅","address":"静安区铜仁路255号(近南京西路)"},{"poiid":"B2094654DA6CA0FC459E","title":"上海展览中心(7号门)","lon":"121.45173","lat":"31.22581","category":"183","category_name":"展览馆","address":"南京西路1333"},{"poiid":"B2094757D06FA2F4479F","title":"静安体育馆","lon":"121.4516","lat":"31.22764","category":"224","category_name":"综合体育馆","address":"静安区西康路99-1号静安体育馆内"},{"poiid":"B2094654DA6CA0FD469E","title":"中欣大厦","lon":"121.44985","lat":"31.22539","category":"46","category_name":"楼宇","address":"上海市静安区南京西路1468号"},{"poiid":"B2094655D26AA4FC4099","title":"星巴克(波特曼店)","lon":"121.451973","lat":"31.226651","category":"260","category_name":"其他","address":"静安区南京西路1376号上海商城1楼(近西康路)"},{"poiid":"B2094757D06FA0F44693","title":"琳怡","lon":"121.45236","lat":"31.22731","category":"76","category_name":"上海菜","address":"静安区西康路99-1号静安体育馆1楼"},{"poiid":"B2094750D164A2F9459E","title":"上海波特曼丽思卡尔顿酒店","lon":"121.452022790909","lat":"31.2267568519176","category":"213","category_name":"五星级宾馆","address":"静安区南京西路1376号上海商城内(近西康路)"},{"poiid":"B2094757D06FA7F8469B","title":"海之幸(恒隆店)","lon":"121.45181","lat":"31.22766","category":"95","category_name":"日本料理","address":"静安区南阳路123号(近静安体育馆)"},{"poiid":"B2094757D06FA5FA459D","title":"上海展览中心友谊会堂","lon":"121.45210658","lat":"31.226365355","category":"260","category_name":"其他","address":"静安区南京西路1333号(近铜仁路)"},{"poiid":"B2094757D068A3FD4899","title":"The Spot Restaurant &amp; Bar","lon":"121.45023","lat":"31.2264","category":"94","category_name":"西餐厅","address":"静安区铜仁路331号(近北京西路)"},{"poiid":"B2094757D06FAAFC409A","title":"斗香园(越洋广场店)","lon":"121.4525","lat":"31.22636","category":"68","category_name":"快餐厅","address":"静安区南京西路1601号芮欧百货B204号(常德路口)"},{"poiid":"B2094757D06FA0FB4098","title":"云餐厅(南京西路店)","lon":"121.45095","lat":"31.22482","category":"260","category_name":"其他","address":"静安区南京西路1399号(铜仁路口)"},{"poiid":"B2094757D06FA6FD449E","title":"Baker &amp; Spice","lon":"121.45164795","lat":"31.226884497","category":"65","category_name":"咖啡厅","address":"静安区南京西路1376号上海商城118室"},{"poiid":"B2094757D465ABFD4998","title":"堡仕康 Gourmet Cafe","lon":"121.451302054","lat":"31.226277793","category":"65","category_name":"咖啡厅","address":"静安区南京西路1376号上海商城111号商铺(近西康路)"},{"poiid":"B2094654DB65ABFE479D","title":"THE PORTMAN RITZ-CARLTON SHANGHAI","lon":"121.45207","lat":"31.22663","category":"213","category_name":"五星级宾馆","address":"南京西路1376号上海商城"},{"poiid":"B2094655D26CA4FF439E","title":"上海波特曼丽嘉酒店(南二门)","lon":"121.45193","lat":"31.22642","category":"656","category_name":"大门","address":"上海市静安区南京西路1376号（上海商城内）"},{"poiid":"B2094757D06FA4F9449F","title":"永和大王(西康路店)","lon":"121.4515","lat":"31.22782","category":"68","category_name":"快餐厅","address":"上海静安区西康路101-3号(近南阳路)  "},{"poiid":"B2094757D06FAAFF489C","title":"静安体育馆羽毛球场","lon":"121.451642446","lat":"31.2276017464","category":"220","category_name":"运动场所","address":"静安区西康路99-1号静安体育馆内"},{"poiid":"B2094757D16CA2F4429B","title":"Lapisthai","lon":"121.45006958","lat":"31.226010348","category":"500","category_name":"未知分类","address":"上海市静安区南京西路波特曼酒店"},{"poiid":"B2094753D065A0F8449B","title":"平成屋日式料理店(西康路店)","lon":"121.45201","lat":"31.22773","category":"95","category_name":"日本料理","address":"静安区西康路101号(近南京西路)"},{"poiid":"B2094757D069A3FD489E","title":"in house","lon":"121.448973","lat":"31.226372","category":"148","category_name":"美容美发店","address":"上海南京西路1486号东海广场"},{"poiid":"B2094757D068ABFC4998","title":"华侨大厦","lon":"121.45","lat":"31.2263","category":"46","category_name":"楼宇","address":"希尔斯联邦位于沈河北站路117号(北站家乐福东北角)"},{"poiid":"B2094757D16EA5F94693","title":"波特曼","lon":"121.452114","lat":"31.226544","category":"249","category_name":"购物服务","address":"上海商城"},{"poiid":"B2094750D76DA6F5489A","title":"CREPES&CO","lon":"121.452","lat":"31.2269","category":"94","category_name":"西餐厅","address":"静安区南京西路1376号上海商城104室(近恒隆广场)"},{"poiid":"B2094752D76EABF8429E","title":"泰辣","lon":"121.449384","lat":"31.226051","category":"247","category_name":"餐饮美食","address":"愚园东路20号"},{"poiid":"B2094757D06AAAFE4292","title":"贝轩大公馆","lon":"121.450637817","lat":"31.2279224396","category":"500","category_name":"未知分类","address":"静安区南阳路170号(近静安体育馆)"},{"poiid":"B2094655D26DAAFD449D","title":"帕兰朵意大利餐厅 Palladio","lon":"121.451302054","lat":"31.226277793","category":"98","category_name":"意式菜品餐厅","address":"静安区南京西路1376号波特曼大酒店1楼(近西康路)"},{"poiid":"B2094757D569A0FA479D","title":"波特曼丽嘉宴餐厅","lon":"121.4520789","lat":"31.22663611","category":"268","category_name":"自助","address":"静安区南京西路1376号波特曼大酒店1楼(近西康路)"},{"poiid":"B2094757DB68A1FA469F","title":"梅陇镇酒家","lon":"121.452277492211","lat":"31.22734107127845","category":"247","category_name":"餐饮美食","address":"南京西路1038号梅龙镇广场10楼(近江宁路)"},{"poiid":"B2094655D269A4F4439A","title":"城市超市上海商城店","lon":"121.45207","lat":"31.22663","category":"247","category_name":"餐饮美食","address":"静安区南京西路1376号上海商城B1楼(近西康路)"},{"poiid":"B2094757D568A1FC429A","title":"MALONE S AMERICAN CAFE","lon":"121.449813","lat":"31.226417","category":"65","category_name":"咖啡厅","address":"铜仁路255号"},{"poiid":"B2094751D56BA1FC479C","title":"尼康影像天地","lon":"121.450775","lat":"31.225525","category":"248","category_name":"生活娱乐","address":"上海靜安區南京西路1363號"},{"poiid":"B2094655D26EA3F4499B","title":"宴餐厅 Tables","lon":"121.451302054","lat":"31.226277793","category":"257","category_name":"中餐厅","address":"南京西路1376号波特曼丽嘉酒店1楼近西康路"},{"poiid":"B2094655D26DA3FE409E","title":"上海展览中心商务楼","lon":"121.45114","lat":"31.22504","category":"46","category_name":"楼宇","address":""},{"poiid":"B2094654DA6CA7FE439A","title":"宝隆居家酒店","lon":"121.45134","lat":"31.22777","category":"257","category_name":"中餐厅","address":"上海市静安区南阳路125号(近西康路)"},{"poiid":"B2094654DB64A6FC459A","title":"台南担仔面海鲜酒楼 静安店","lon":"121.45102272067","lat":"31.225321561111","category":"72","category_name":"广东菜","address":"静安区南京西路1333号展览中心1-4楼(近陕西北路)"},{"poiid":"B2094757D16FAAFB489C","title":"上海新国际展览中心东大门","lon":"121.451462","lat":"31.225569","category":"500","category_name":"未知分类","address":"上海展览中心3号门"},{"poiid":"B2094655D26DA2F5489F","title":"澳大利亚驻上海总领事馆签证处","lon":"121.45154","lat":"31.22659","category":"252","category_name":"楼宇机构","address":"上海商城东办公楼401"},{"poiid":"B2094655D26DABF94292","title":"上海商城西办公楼","lon":"121.45154","lat":"31.22659","category":"46","category_name":"楼宇","address":""},{"poiid":"B2094757D068A4FE419E","title":"华东医院七号楼","lon":"121.45138913","lat":"31.226215652","category":"162","category_name":"医院","address":"上海静安区延安西路221号华东医院内"},{"poiid":"B2094757D06FA3FF409A","title":"嘉里中心(Kerry Center)","lon":"121.45018422","lat":"31.224665261","category":"46","category_name":"楼宇","address":"上海静安区南京西路1515号(近铜仁路)"},{"poiid":"B2094655D26DA2FF469E","title":"上海波特曼丽嘉酒店","lon":"121.45178","lat":"31.22705","category":"213","category_name":"五星级宾馆","address":"上海市静安区南京西路1376号（上海商城内）"},{"poiid":"B2094654DB69AAFD429C","title":"新元素 南京西路店 Element Fresh","lon":"121.451302054","lat":"31.226277793","category":"94","category_name":"西餐厅","address":"静安区南京西路1376号上海商城东峰112室(近西康路)"},{"poiid":"B2094753D76FAAFA449C","title":"上海滩国泰旗舰店","lon":"121.466011","lat":"31.216125","category":"249","category_name":"购物服务","address":"淮海中路868号"},{"poiid":"B209475CD564A7F84292","title":"上海滩新天地店","lon":"121.47463","lat":"31.22164","category":"119","category_name":"商场","address":"\"太仓路181弄新天地北里15号\r\n\""},{"poiid":"B209475CD564A7F8439E","title":"上海滩中信泰富店","lon":"121.45602","lat":"31.22851","category":"119","category_name":"商场","address":"\"南京西路1168号中信泰富广场，店铺号221.\r\n\""},{"poiid":"B2094757D069A3FD409B","title":"藏珑泰极(波特曼店)","lon":"121.45152825","lat":"31.225874383","category":"99","category_name":"泰国／越南菜品餐厅","address":"静安区南京西路1376号109室(近西康路)"},{"poiid":"B2094757D06FA3FA4392","title":"Pizza Marzano(上海商城店)","lon":"121.45196993","lat":"31.2264545457","category":"94","category_name":"西餐厅","address":"静安区南京西路1376号上海商城西峰107室(近西康路)"},{"poiid":"B2094655D26DA2FF4398","title":"上海商城剧院","lon":"121.45207","lat":"31.2266","category":"180","category_name":"剧场","address":"静安区南京西路1376号上海商城内(近西康路)"},{"poiid":"B2094757D06FA2FC499F","title":"鼎泰丰(南京西路店)","lon":"121.45234","lat":"31.22636","category":"68","category_name":"快餐厅","address":"静安区南京西路1376号上海商城1楼A104号(近西康路)"},{"poiid":"B2094757D06FA3F9449C","title":"马龙美式酒吧Malone's American Cafe(铜仁路店)","lon":"121.44975866","lat":"31.2263143158","category":"65","category_name":"咖啡厅","address":"静安区铜仁路255号(近南京西路)"},{"poiid":"B2094654DA6CA0FC459E","title":"上海展览中心(7号门)","lon":"121.45173","lat":"31.22581","category":"183","category_name":"展览馆","address":"南京西路1333"},{"poiid":"B2094757D06FA2F4479F","title":"静安体育馆","lon":"121.4516","lat":"31.22764","category":"224","category_name":"综合体育馆","address":"静安区西康路99-1号静安体育馆内"},{"poiid":"B2094654DA6CA0FD469E","title":"中欣大厦","lon":"121.44985","lat":"31.22539","category":"46","category_name":"楼宇","address":"上海市静安区南京西路1468号"},{"poiid":"B2094655D26AA4FC4099","title":"星巴克(波特曼店)","lon":"121.451973","lat":"31.226651","category":"260","category_name":"其他","address":"静安区南京西路1376号上海商城1楼(近西康路)"},{"poiid":"B2094757D06FA0F44693","title":"琳怡","lon":"121.45236","lat":"31.22731","category":"76","category_name":"上海菜","address":"静安区西康路99-1号静安体育馆1楼"},{"poiid":"B2094750D164A2F9459E","title":"上海波特曼丽思卡尔顿酒店","lon":"121.452022790909","lat":"31.2267568519176","category":"213","category_name":"五星级宾馆","address":"静安区南京西路1376号上海商城内(近西康路)"},{"poiid":"B2094757D06FA7F8469B","title":"海之幸(恒隆店)","lon":"121.45181","lat":"31.22766","category":"95","category_name":"日本料理","address":"静安区南阳路123号(近静安体育馆)"},{"poiid":"B2094757D06FA5FA459D","title":"上海展览中心友谊会堂","lon":"121.45210658","lat":"31.226365355","category":"260","category_name":"其他","address":"静安区南京西路1333号(近铜仁路)"},{"poiid":"B2094757D068A3FD4899","title":"The Spot Restaurant &amp; Bar","lon":"121.45023","lat":"31.2264","category":"94","category_name":"西餐厅","address":"静安区铜仁路331号(近北京西路)"},{"poiid":"B2094757D06FAAFC409A","title":"斗香园(越洋广场店)","lon":"121.4525","lat":"31.22636","category":"68","category_name":"快餐厅","address":"静安区南京西路1601号芮欧百货B204号(常德路口)"},{"poiid":"B2094757D06FA0FB4098","title":"云餐厅(南京西路店)","lon":"121.45095","lat":"31.22482","category":"260","category_name":"其他","address":"静安区南京西路1399号(铜仁路口)"},{"poiid":"B2094757D06FA6FD449E","title":"Baker &amp; Spice","lon":"121.45164795","lat":"31.226884497","category":"65","category_name":"咖啡厅","address":"静安区南京西路1376号上海商城118室"},{"poiid":"B2094757D465ABFD4998","title":"堡仕康 Gourmet Cafe","lon":"121.451302054","lat":"31.226277793","category":"65","category_name":"咖啡厅","address":"静安区南京西路1376号上海商城111号商铺(近西康路)"},{"poiid":"B2094654DB65ABFE479D","title":"THE PORTMAN RITZ-CARLTON SHANGHAI","lon":"121.45207","lat":"31.22663","category":"213","category_name":"五星级宾馆","address":"南京西路1376号上海商城"},{"poiid":"B2094655D26CA4FF439E","title":"上海波特曼丽嘉酒店(南二门)","lon":"121.45193","lat":"31.22642","category":"656","category_name":"大门","address":"上海市静安区南京西路1376号（上海商城内）"},{"poiid":"B2094757D06FA4F9449F","title":"永和大王(西康路店)","lon":"121.4515","lat":"31.22782","category":"68","category_name":"快餐厅","address":"上海静安区西康路101-3号(近南阳路)  "},{"poiid":"B2094757D06FAAFF489C","title":"静安体育馆羽毛球场","lon":"121.451642446","lat":"31.2276017464","category":"220","category_name":"运动场所","address":"静安区西康路99-1号静安体育馆内"},{"poiid":"B2094757D16CA2F4429B","title":"Lapisthai","lon":"121.45006958","lat":"31.226010348","category":"500","category_name":"未知分类","address":"上海市静安区南京西路波特曼酒店"},{"poiid":"B2094753D065A0F8449B","title":"平成屋日式料理店(西康路店)","lon":"121.45201","lat":"31.22773","category":"95","category_name":"日本料理","address":"静安区西康路101号(近南京西路)"},{"poiid":"B2094757D069A3FD489E","title":"in house","lon":"121.448973","lat":"31.226372","category":"148","category_name":"美容美发店","address":"上海南京西路1486号东海广场"},{"poiid":"B2094757D068ABFC4998","title":"华侨大厦","lon":"121.45","lat":"31.2263","category":"46","category_name":"楼宇","address":"希尔斯联邦位于沈河北站路117号(北站家乐福东北角)"},{"poiid":"B2094757D16EA5F94693","title":"波特曼","lon":"121.452114","lat":"31.226544","category":"249","category_name":"购物服务","address":"上海商城"},{"poiid":"B2094750D76DA6F5489A","title":"CREPES&CO","lon":"121.452","lat":"31.2269","category":"94","category_name":"西餐厅","address":"静安区南京西路1376号上海商城104室(近恒隆广场)"},{"poiid":"B2094752D76EABF8429E","title":"泰辣","lon":"121.449384","lat":"31.226051","category":"247","category_name":"餐饮美食","address":"愚园东路20号"},{"poiid":"B2094757D06AAAFE4292","title":"贝轩大公馆","lon":"121.450637817","lat":"31.2279224396","category":"500","category_name":"未知分类","address":"静安区南阳路170号(近静安体育馆)"},{"poiid":"B2094655D26DAAFD449D","title":"帕兰朵意大利餐厅 Palladio","lon":"121.451302054","lat":"31.226277793","category":"98","category_name":"意式菜品餐厅","address":"静安区南京西路1376号波特曼大酒店1楼(近西康路)"},{"poiid":"B2094757D569A0FA479D","title":"波特曼丽嘉宴餐厅","lon":"121.4520789","lat":"31.22663611","category":"268","category_name":"自助","address":"静安区南京西路1376号波特曼大酒店1楼(近西康路)"},{"poiid":"B2094757DB68A1FA469F","title":"梅陇镇酒家","lon":"121.452277492211","lat":"31.22734107127845","category":"247","category_name":"餐饮美食","address":"南京西路1038号梅龙镇广场10楼(近江宁路)"},{"poiid":"B2094655D269A4F4439A","title":"城市超市上海商城店","lon":"121.45207","lat":"31.22663","category":"247","category_name":"餐饮美食","address":"静安区南京西路1376号上海商城B1楼(近西康路)"},{"poiid":"B2094757D568A1FC429A","title":"MALONE S AMERICAN CAFE","lon":"121.449813","lat":"31.226417","category":"65","category_name":"咖啡厅","address":"铜仁路255号"},{"poiid":"B2094751D56BA1FC479C","title":"尼康影像天地","lon":"121.450775","lat":"31.225525","category":"248","category_name":"生活娱乐","address":"上海靜安區南京西路1363號"},{"poiid":"B2094655D26EA3F4499B","title":"宴餐厅 Tables","lon":"121.451302054","lat":"31.226277793","category":"257","category_name":"中餐厅","address":"南京西路1376号波特曼丽嘉酒店1楼近西康路"},{"poiid":"B2094655D26DA3FE409E","title":"上海展览中心商务楼","lon":"121.45114","lat":"31.22504","category":"46","category_name":"楼宇","address":""},{"poiid":"B2094654DA6CA7FE439A","title":"宝隆居家酒店","lon":"121.45134","lat":"31.22777","category":"257","category_name":"中餐厅","address":"上海市静安区南阳路125号(近西康路)"},{"poiid":"B2094654DB64A6FC459A","title":"台南担仔面海鲜酒楼 静安店","lon":"121.45102272067","lat":"31.225321561111","category":"72","category_name":"广东菜","address":"静安区南京西路1333号展览中心1-4楼(近陕西北路)"},{"poiid":"B2094757D16FAAFB489C","title":"上海新国际展览中心东大门","lon":"121.451462","lat":"31.225569","category":"500","category_name":"未知分类","address":"上海展览中心3号门"},{"poiid":"B2094655D26DA2F5489F","title":"澳大利亚驻上海总领事馆签证处","lon":"121.45154","lat":"31.22659","category":"252","category_name":"楼宇机构","address":"上海商城东办公楼401"},{"poiid":"B2094655D26DABF94292","title":"上海商城西办公楼","lon":"121.45154","lat":"31.22659","category":"46","category_name":"楼宇","address":""},{"poiid":"B2094757D068A4FE419E","title":"华东医院七号楼","lon":"121.45138913","lat":"31.226215652","category":"162","category_name":"医院","address":"上海静安区延安西路221号华东医院内"},{"poiid":"B2094757D06FA3FF409A","title":"嘉里中心(Kerry Center)","lon":"121.45018422","lat":"31.224665261","category":"46","category_name":"楼宇","address":"上海静安区南京西路1515号(近铜仁路)"},{"poiid":"B2094655D26DA2FF469E","title":"上海波特曼丽嘉酒店","lon":"121.45178","lat":"31.22705","category":"213","category_name":"五星级宾馆","address":"上海市静安区南京西路1376号（上海商城内）"},{"poiid":"B2094654DB69AAFD429C","title":"新元素 南京西路店 Element Fresh","lon":"121.451302054","lat":"31.226277793","category":"94","category_name":"西餐厅","address":"静安区南京西路1376号上海商城东峰112室(近西康路)"},{"poiid":"B2094753D76FAAFA449C","title":"上海滩国泰旗舰店","lon":"121.466011","lat":"31.216125","category":"249","category_name":"购物服务","address":"淮海中路868号"},{"poiid":"B209475CD564A7F84292","title":"上海滩新天地店","lon":"121.47463","lat":"31.22164","category":"119","category_name":"商场","address":"\"太仓路181弄新天地北里15号\r\n\""},{"poiid":"B209475CD564A7F8439E","title":"上海滩中信泰富店","lon":"121.45602","lat":"31.22851","category":"119","category_name":"商场","address":"\"南京西路1168号中信泰富广场，店铺号221.\r\n\""},{"poiid":"B2094757D069A3FD409B","title":"藏珑泰极(波特曼店)","lon":"121.45152825","lat":"31.225874383","category":"99","category_name":"泰国／越南菜品餐厅","address":"静安区南京西路1376号109室(近西康路)"},{"poiid":"B2094757D06FA3FA4392","title":"Pizza Marzano(上海商城店)","lon":"121.45196993","lat":"31.2264545457","category":"94","category_name":"西餐厅","address":"静安区南京西路1376号上海商城西峰107室(近西康路)"},{"poiid":"B2094655D26DA2FF4398","title":"上海商城剧院","lon":"121.45207","lat":"31.2266","category":"180","category_name":"剧场","address":"静安区南京西路1376号上海商城内(近西康路)"},{"poiid":"B2094757D06FA2FC499F","title":"鼎泰丰(南京西路店)","lon":"121.45234","lat":"31.22636","category":"68","category_name":"快餐厅","address":"静安区南京西路1376号上海商城1楼A104号(近西康路)"},{"poiid":"B2094757D06FA3F9449C","title":"马龙美式酒吧Malone's American Cafe(铜仁路店)","lon":"121.44975866","lat":"31.2263143158","category":"65","category_name":"咖啡厅","address":"静安区铜仁路255号(近南京西路)"},{"poiid":"B2094654DA6CA0FC459E","title":"上海展览中心(7号门)","lon":"121.45173","lat":"31.22581","category":"183","category_name":"展览馆","address":"南京西路1333"},{"poiid":"B2094757D06FA2F4479F","title":"静安体育馆","lon":"121.4516","lat":"31.22764","category":"224","category_name":"综合体育馆","address":"静安区西康路99-1号静安体育馆内"},{"poiid":"B2094654DA6CA0FD469E","title":"中欣大厦","lon":"121.44985","lat":"31.22539","category":"46","category_name":"楼宇","address":"上海市静安区南京西路1468号"},{"poiid":"B2094655D26AA4FC4099","title":"星巴克(波特曼店)","lon":"121.451973","lat":"31.226651","category":"260","category_name":"其他","address":"静安区南京西路1376号上海商城1楼(近西康路)"},{"poiid":"B2094757D06FA0F44693","title":"琳怡","lon":"121.45236","lat":"31.22731","category":"76","category_name":"上海菜","address":"静安区西康路99-1号静安体育馆1楼"},{"poiid":"B2094750D164A2F9459E","title":"上海波特曼丽思卡尔顿酒店","lon":"121.452022790909","lat":"31.2267568519176","category":"213","category_name":"五星级宾馆","address":"静安区南京西路1376号上海商城内(近西康路)"},{"poiid":"B2094757D06FA7F8469B","title":"海之幸(恒隆店)","lon":"121.45181","lat":"31.22766","category":"95","category_name":"日本料理","address":"静安区南阳路123号(近静安体育馆)"},{"poiid":"B2094757D06FA5FA459D","title":"上海展览中心友谊会堂","lon":"121.45210658","lat":"31.226365355","category":"260","category_name":"其他","address":"静安区南京西路1333号(近铜仁路)"},{"poiid":"B2094757D068A3FD4899","title":"The Spot Restaurant &amp; Bar","lon":"121.45023","lat":"31.2264","category":"94","category_name":"西餐厅","address":"静安区铜仁路331号(近北京西路)"},{"poiid":"B2094757D06FAAFC409A","title":"斗香园(越洋广场店)","lon":"121.4525","lat":"31.22636","category":"68","category_name":"快餐厅","address":"静安区南京西路1601号芮欧百货B204号(常德路口)"},{"poiid":"B2094757D06FA0FB4098","title":"云餐厅(南京西路店)","lon":"121.45095","lat":"31.22482","category":"260","category_name":"其他","address":"静安区南京西路1399号(铜仁路口)"},{"poiid":"B2094757D06FA6FD449E","title":"Baker &amp; Spice","lon":"121.45164795","lat":"31.226884497","category":"65","category_name":"咖啡厅","address":"静安区南京西路1376号上海商城118室"},{"poiid":"B2094757D465ABFD4998","title":"堡仕康 Gourmet Cafe","lon":"121.451302054","lat":"31.226277793","category":"65","category_name":"咖啡厅","address":"静安区南京西路1376号上海商城111号商铺(近西康路)"},{"poiid":"B2094654DB65ABFE479D","title":"THE PORTMAN RITZ-CARLTON SHANGHAI","lon":"121.45207","lat":"31.22663","category":"213","category_name":"五星级宾馆","address":"南京西路1376号上海商城"},{"poiid":"B2094655D26CA4FF439E","title":"上海波特曼丽嘉酒店(南二门)","lon":"121.45193","lat":"31.22642","category":"656","category_name":"大门","address":"上海市静安区南京西路1376号（上海商城内）"},{"poiid":"B2094757D06FA4F9449F","title":"永和大王(西康路店)","lon":"121.4515","lat":"31.22782","category":"68","category_name":"快餐厅","address":"上海静安区西康路101-3号(近南阳路)  "},{"poiid":"B2094757D06FAAFF489C","title":"静安体育馆羽毛球场","lon":"121.451642446","lat":"31.2276017464","category":"220","category_name":"运动场所","address":"静安区西康路99-1号静安体育馆内"},{"poiid":"B2094757D16CA2F4429B","title":"Lapisthai","lon":"121.45006958","lat":"31.226010348","category":"500","category_name":"未知分类","address":"上海市静安区南京西路波特曼酒店"},{"poiid":"B2094753D065A0F8449B","title":"平成屋日式料理店(西康路店)","lon":"121.45201","lat":"31.22773","category":"95","category_name":"日本料理","address":"静安区西康路101号(近南京西路)"},{"poiid":"B2094757D069A3FD489E","title":"in house","lon":"121.448973","lat":"31.226372","category":"148","category_name":"美容美发店","address":"上海南京西路1486号东海广场"},{"poiid":"B2094757D068ABFC4998","title":"华侨大厦","lon":"121.45","lat":"31.2263","category":"46","category_name":"楼宇","address":"希尔斯联邦位于沈河北站路117号(北站家乐福东北角)"},{"poiid":"B2094757D16EA5F94693","title":"波特曼","lon":"121.452114","lat":"31.226544","category":"249","category_name":"购物服务","address":"上海商城"},{"poiid":"B2094750D76DA6F5489A","title":"CREPES&CO","lon":"121.452","lat":"31.2269","category":"94","category_name":"西餐厅","address":"静安区南京西路1376号上海商城104室(近恒隆广场)"},{"poiid":"B2094752D76EABF8429E","title":"泰辣","lon":"121.449384","lat":"31.226051","category":"247","category_name":"餐饮美食","address":"愚园东路20号"},{"poiid":"B2094757D06AAAFE4292","title":"贝轩大公馆","lon":"121.450637817","lat":"31.2279224396","category":"500","category_name":"未知分类","address":"静安区南阳路170号(近静安体育馆)"},{"poiid":"B2094655D26DAAFD449D","title":"帕兰朵意大利餐厅 Palladio","lon":"121.451302054","lat":"31.226277793","category":"98","category_name":"意式菜品餐厅","address":"静安区南京西路1376号波特曼大酒店1楼(近西康路)"},{"poiid":"B2094757D569A0FA479D","title":"波特曼丽嘉宴餐厅","lon":"121.4520789","lat":"31.22663611","category":"268","category_name":"自助","address":"静安区南京西路1376号波特曼大酒店1楼(近西康路)"},{"poiid":"B2094757DB68A1FA469F","title":"梅陇镇酒家","lon":"121.452277492211","lat":"31.22734107127845","category":"247","category_name":"餐饮美食","address":"南京西路1038号梅龙镇广场10楼(近江宁路)"},{"poiid":"B2094655D269A4F4439A","title":"城市超市上海商城店","lon":"121.45207","lat":"31.22663","category":"247","category_name":"餐饮美食","address":"静安区南京西路1376号上海商城B1楼(近西康路)"},{"poiid":"B2094757D568A1FC429A","title":"MALONE S AMERICAN CAFE","lon":"121.449813","lat":"31.226417","category":"65","category_name":"咖啡厅","address":"铜仁路255号"},{"poiid":"B2094751D56BA1FC479C","title":"尼康影像天地","lon":"121.450775","lat":"31.225525","category":"248","category_name":"生活娱乐","address":"上海靜安區南京西路1363號"},{"poiid":"B2094655D26EA3F4499B","title":"宴餐厅 Tables","lon":"121.451302054","lat":"31.226277793","category":"257","category_name":"中餐厅","address":"南京西路1376号波特曼丽嘉酒店1楼近西康路"},{"poiid":"B2094655D26DA3FE409E","title":"上海展览中心商务楼","lon":"121.45114","lat":"31.22504","category":"46","category_name":"楼宇","address":""},{"poiid":"B2094654DA6CA7FE439A","title":"宝隆居家酒店","lon":"121.45134","lat":"31.22777","category":"257","category_name":"中餐厅","address":"上海市静安区南阳路125号(近西康路)"},{"poiid":"B2094654DB64A6FC459A","title":"台南担仔面海鲜酒楼 静安店","lon":"121.45102272067","lat":"31.225321561111","category":"72","category_name":"广东菜","address":"静安区南京西路1333号展览中心1-4楼(近陕西北路)"},{"poiid":"B2094757D16FAAFB489C","title":"上海新国际展览中心东大门","lon":"121.451462","lat":"31.225569","category":"500","category_name":"未知分类","address":"上海展览中心3号门"},{"poiid":"B2094655D26DA2F5489F","title":"澳大利亚驻上海总领事馆签证处","lon":"121.45154","lat":"31.22659","category":"252","category_name":"楼宇机构","address":"上海商城东办公楼401"},{"poiid":"B2094655D26DABF94292","title":"上海商城西办公楼","lon":"121.45154","lat":"31.22659","category":"46","category_name":"楼宇","address":""},{"poiid":"B2094757D068A4FE419E","title":"华东医院七号楼","lon":"121.45138913","lat":"31.226215652","category":"162","category_name":"医院","address":"上海静安区延安西路221号华东医院内"}]