[{"poiid":"B2094654DB64A7FE4899","title":"上海市机动车驾驶员培训中心","lon":"121.59757","lat":"30.86339","category":"192","category_name":"驾校","address":"近郊奉贤星火公路1052号"},{"poiid":"B2094757D16CA6F4459A","title":"机动车驾驶人科目二第一考试点(星火教练场内)","lon":"121.59624315","lat":"30.858560239","category":"500","category_name":"未知分类","address":"上海奉贤区隋唐河路星火教练场"},{"poiid":"B2094757D568A4F4439F","title":"上海市机动车驾驶员培训第一训练场","lon":"121.6068349","lat":"30.85331148","category":"192","category_name":"驾校","address":"中国上海市奉贤区海中路"},{"poiid":"B2094654DB68A4F4439E","title":"上海市公安局交巡警总队车辆管理所第一考试场","lon":"121.60958","lat":"30.86577","category":"250","category_name":"公园户外","address":""},{"poiid":"B2094757D16AA0F54798","title":"国家无线电监测中心；上海监测站","lon":"121.586334403","lat":"30.8613973598","category":"260","category_name":"其他","address":"上海海兴路1088号"},{"poiid":"B2094654DB68A4F54593","title":"上海星火机动车驾驶员培训有限公司","lon":"121.60685","lat":"30.85331","category":"263","category_name":"公司","address":"明成路1166弄星火开发区"},{"poiid":"B2094757D66CA6F5419A","title":"单边桥练习点(星火教练场)","lon":"121.60868915","lat":"30.850347035","category":"500","category_name":"未知分类","address":"上海市奉贤区隋塘河路星火教练场内"},{"poiid":"B2094757D164A0F5439F","title":"S弯练习点(星火教练场)","lon":"121.60864315","lat":"30.850326034","category":"500","category_name":"未知分类","address":"上海市奉贤区星随塘河路火教练场内"},{"poiid":"B2094757D66EA2FF439E","title":"斜坡停车练习点(星火教练场)","lon":"121.608689153","lat":"30.8503470354","category":"500","category_name":"未知分类","address":"上海市奉贤区隋塘河路星火教练场内"},{"poiid":"B2094757D66DA5F5489E","title":"百米加减档练习点(星火教练场)","lon":"121.60864015","lat":"30.850360035","category":"500","category_name":"未知分类","address":"上海市奉贤区隋塘河路星火教练场内"}]