[{"poiid":"B2094655D36DA1FA429B","title":"浦江华侨城(新浦江城)","lon":"121.50094","lat":"31.10565","category":"47","category_name":"住宅区","address":"浦星路800号"},{"poiid":"B2094654DB69A6F94998","title":"一品漫城","lon":"121.49361","lat":"31.118364","category":"47","category_name":"住宅区","address":"闵行区浦星路568号"},{"poiid":"B2094757D06FABFC4392","title":"浦江镇地铁站","lon":"121.50636409","lat":"31.096332134","category":"36","category_name":"地铁站","address":"上海轨道交通 八号线 轨交浦江镇站 8"},{"poiid":"B2094757D06FA0F5429C","title":"芦恒路地铁站","lon":"121.49860864","lat":"31.117314637","category":"36","category_name":"地铁站","address":"上海轨道交通,八号线,轨交芦恒路站,8"},{"poiid":"B2094757D068A3FA479A","title":"漕河泾出口加工区","lon":"121.5050354","lat":"31.103040695","category":"46","category_name":"楼宇","address":"上海闵行区浦星公路699号"},{"poiid":"B2094757D06FA5FA489C","title":"浦江镇","lon":"121.501756","lat":"31.09062","category":"500","category_name":"未知分类","address":"上海闵行区浦江镇"},{"poiid":"B2094757D068A4FC499B","title":"英业达科技有限公司","lon":"121.50712","lat":"31.104251","category":"263","category_name":"公司","address":"上海浦星公路699号"},{"poiid":"B2094757D064A2FB469C","title":"翡翠别墅","lon":"121.4867094","lat":"31.106044925","category":"47","category_name":"住宅区","address":"上海江桃路"},{"poiid":"B2094654DB69ABFA4193","title":"上海美格菲健身中心(新浦江店)","lon":"121.49965","lat":"31.1053","category":"221","category_name":"健身中心","address":"闵行区江桦路399弄38-39号(近浦申路)"},{"poiid":"B2094654DB6DA3FD429E","title":"上海辉煌骑马场","lon":"121.51454","lat":"31.1188","category":"248","category_name":"生活娱乐","address":""},{"poiid":"B2094757D16FA1FB419A","title":"大姆指广场","lon":"121.503764009","lat":"31.1106193351","category":"500","category_name":"未知分类","address":"上海芳甸路"},{"poiid":"B2094654DB6DA1FE409E","title":"英华达(上海)科技有限公司","lon":"121.51241","lat":"31.10412","category":"263","category_name":"公司","address":"浦星路699号"},{"poiid":"B2094655D36DA2F94092","title":"中心河桥","lon":"121.50169","lat":"31.108","category":"250","category_name":"公园户外","address":""},{"poiid":"B2094655D36CA3FA4798","title":"丹桂轩","lon":"121.49965","lat":"31.11378","category":"257","category_name":"中餐厅","address":"闵行区浦星公路800号新浦江城中意文化广场(近江桦路)"},{"poiid":"B2094655D36CA1FF439F","title":"芦恒路","lon":"121.49979","lat":"31.11324","category":"38","category_name":"公交车站","address":""},{"poiid":"B2094757D568AAF9419E","title":"万科翡翠别墅","lon":"121.495","lat":"31.1125","category":"47","category_name":"住宅区","address":"闵行区江桃路556弄"},{"poiid":"B2094655D36CA1FF439D","title":"芦恒路浦星公路","lon":"121.4976","lat":"31.11608","category":"38","category_name":"公交车站","address":""},{"poiid":"B2094757D569A6F9429F","title":"浦江颐城","lon":"121.49937","lat":"31.100842","category":"47","category_name":"住宅区","address":"闵行浦泉路399弄"},{"poiid":"B2094655D26AA0FA409E","title":"地铁芦恒路站","lon":"121.49864","lat":"31.1173","category":"36","category_name":"地铁站","address":""},{"poiid":"B2094750DB6BA0F8419E","title":"城林美苑","lon":"121.498641","lat":"31.107902","category":"500","category_name":"未知分类","address":"三舒路62弄,33弄"},{"poiid":"B2094655D264A2F44893","title":"英顺达","lon":"121.51241","lat":"31.10411","category":"46","category_name":"楼宇","address":"浦星路699号"},{"poiid":"B2094757D66EAAF84292","title":"中粮万科VMO","lon":"121.490578","lat":"31.107707171","category":"263","category_name":"公司","address":"上海浦江镇浦锦路(近芦恒路)"},{"poiid":"B2094757D069A7FC499B","title":"东方康德家园","lon":"121.51471","lat":"31.125278","category":"500","category_name":"未知分类","address":"上海浦东新区三林镇懿行路971弄"},{"poiid":"B2094757D465A3FA419A","title":"棒垒球高尔夫餐饮会所 BASEBALL&GALF FLELD","lon":"121.497169","lat":"31.117994","category":"76","category_name":"上海菜","address":"浦星公路200号近芦恒路地铁站"},{"poiid":"B2094655D26BA2F4469B","title":"浦星公路恒星","lon":"121.49934","lat":"31.11452","category":"38","category_name":"公交车站","address":""},{"poiid":"B2094654DB69A7FA4398","title":"中国银行漕河泾出口加工区支行","lon":"121.51082","lat":"31.10477","category":"150","category_name":"银行","address":"浦东新区浦星公路789号"},{"poiid":"B2094757D164AAFF419D","title":"保利茉莉公馆","lon":"121.51324","lat":"31.101802","category":"500","category_name":"未知分类","address":"上海市闵行区浦秀路1536号"},{"poiid":"B2094655D26DA0FA4799","title":"英业达集团(杨家宅)","lon":"121.50585","lat":"31.1038","category":"263","category_name":"公司","address":""},{"poiid":"B2094655D26BA2F44798","title":"浦星公路陈行公路","lon":"121.50502","lat":"31.09868","category":"38","category_name":"公交车站","address":""},{"poiid":"B2094655D36DA6FE4298","title":"浦江镇","lon":"121.50636","lat":"31.09631","category":"38","category_name":"公交车站","address":""},{"poiid":"B2094757D16DA7FB459D","title":"上海欢乐谷 疯狂精灵","lon":"121.506923159","lat":"31.1167176178","category":"500","category_name":"未知分类","address":"上海松江区佘山镇林湖路888号"},{"poiid":"B2094757D568A5FC499B","title":"江桦路200弄小区","lon":"121.49637668","lat":"31.1054248","category":"47","category_name":"住宅区","address":"中国上海市闵行区浦申路"},{"poiid":"B2094757D568A5FD419B","title":"江桦路200弄小区(西门)","lon":"121.49565809","lat":"31.10564887","category":"47","category_name":"住宅区","address":"中国上海市闵行区浦申路"},{"poiid":"B2094655D265A1FE4399","title":"红源坊","lon":"121.49582","lat":"31.10512","category":"257","category_name":"中餐厅","address":"闵行区浦申路1889号"},{"poiid":"B2094757D568A5FD479F","title":"协和海富幼儿园","lon":"121.49588786","lat":"31.10538574","category":"57","category_name":"幼儿园","address":"中国上海市闵行区浦申路"},{"poiid":"B2094757D06BA2FB4793","title":"浦江镇三鲁公路","lon":"121.495331","lat":"31.11639236","category":"500","category_name":"未知分类","address":"上海市闵行区三鲁公路"},{"poiid":"B2094757D568A6F54493","title":"联华超市(江桦路)","lon":"121.49639486","lat":"31.1045421","category":"118","category_name":"超级市场","address":"中国上海市闵行区江桦路"},{"poiid":"B2094757D568AAFD449B","title":"Megafit Cafe","lon":"121.49605713","lat":"31.10272678","category":"65","category_name":"咖啡厅","address":"中国上海市闵行区浦申路"},{"poiid":"B2094751D364A4FA479D","title":"德康苑","lon":"121.5087417","lat":"31.118144","category":"252","category_name":"楼宇机构","address":"浦东新区和炯路501弄"},{"poiid":"B2094751D16DABFE479B","title":"上海交通大学医学院附属仁济医院","lon":"121.4924553","lat":"31.0983813","category":"162","category_name":"医院","address":"江月路2000号"},{"poiid":"B2094757D069AAFC4999","title":"美格菲健身","lon":"121.50054168","lat":"31.100242614","category":"500","category_name":"未知分类","address":"上海江桦路399弄"},{"poiid":"B2094757D169A0FF4292","title":"上海辉煌国际马术俱乐部","lon":"121.495535726","lat":"31.1138089712","category":"500","category_name":"未知分类","address":"上海懿德路287号"},{"poiid":"B2094655D26AA0FA4099","title":"地铁浦江镇站","lon":"121.50636","lat":"31.09631","category":"36","category_name":"地铁站","address":""},{"poiid":"B2094751D46AA1FC459A","title":"士韵家园","lon":"121.494688","lat":"31.120273","category":"47","category_name":"住宅区","address":"三彩路59弄"},{"poiid":"B2094757D168AAF8469C","title":"友建村会所","lon":"121.501335","lat":"31.117075","category":"500","category_name":"未知分类","address":"上海三鲁路林恒路"},{"poiid":"B2094752D16AABFE4293","title":"漕河泾浦江科技广场","lon":"121.502335","lat":"31.100123","category":"252","category_name":"楼宇机构","address":"陈行路2388号"},{"poiid":"B2094757D069A5FE4093","title":"浦江易初莲花","lon":"121.500644009","lat":"31.1010470267","category":"500","category_name":"未知分类","address":"上海江月路"},{"poiid":"B2094757D568A0FF479D","title":"东方网点(红旗店)","lon":"121.50284261","lat":"31.11773221","category":"176","category_name":"网吧","address":"中国上海市浦东新区华星路"},{"poiid":"B2094757D569A6F94199","title":"威尼斯水岸","lon":"121.49288222","lat":"31.10202501","category":"47","category_name":"住宅区","address":"中国上海市闵行区浦驰路"},{"poiid":"B2094757D164A6F54698","title":"JWDA","lon":"121.495219009","lat":"31.1038380875","category":"500","category_name":"未知分类","address":"上海浦申路1888号3楼"},{"poiid":"B2094655D36DA1FA429B","title":"浦江华侨城(新浦江城)","lon":"121.50094","lat":"31.10565","category":"47","category_name":"住宅区","address":"浦星路800号"},{"poiid":"B2094654DB69A6F94998","title":"一品漫城","lon":"121.49361","lat":"31.118364","category":"47","category_name":"住宅区","address":"闵行区浦星路568号"},{"poiid":"B2094757D06FABFC4392","title":"浦江镇地铁站","lon":"121.50636409","lat":"31.096332134","category":"36","category_name":"地铁站","address":"上海轨道交通 八号线 轨交浦江镇站 8"},{"poiid":"B2094757D06FA0F5429C","title":"芦恒路地铁站","lon":"121.49860864","lat":"31.117314637","category":"36","category_name":"地铁站","address":"上海轨道交通,八号线,轨交芦恒路站,8"},{"poiid":"B2094757D068A3FA479A","title":"漕河泾出口加工区","lon":"121.5050354","lat":"31.103040695","category":"46","category_name":"楼宇","address":"上海闵行区浦星公路699号"},{"poiid":"B2094757D06FA5FA489C","title":"浦江镇","lon":"121.501756","lat":"31.09062","category":"500","category_name":"未知分类","address":"上海闵行区浦江镇"},{"poiid":"B2094757D068A4FC499B","title":"英业达科技有限公司","lon":"121.50712","lat":"31.104251","category":"263","category_name":"公司","address":"上海浦星公路699号"},{"poiid":"B2094757D064A2FB469C","title":"翡翠别墅","lon":"121.4867094","lat":"31.106044925","category":"47","category_name":"住宅区","address":"上海江桃路"},{"poiid":"B2094654DB69ABFA4193","title":"上海美格菲健身中心(新浦江店)","lon":"121.49965","lat":"31.1053","category":"221","category_name":"健身中心","address":"闵行区江桦路399弄38-39号(近浦申路)"},{"poiid":"B2094654DB6DA3FD429E","title":"上海辉煌骑马场","lon":"121.51454","lat":"31.1188","category":"248","category_name":"生活娱乐","address":""},{"poiid":"B2094757D16FA1FB419A","title":"大姆指广场","lon":"121.503764009","lat":"31.1106193351","category":"500","category_name":"未知分类","address":"上海芳甸路"},{"poiid":"B2094654DB6DA1FE409E","title":"英华达(上海)科技有限公司","lon":"121.51241","lat":"31.10412","category":"263","category_name":"公司","address":"浦星路699号"},{"poiid":"B2094655D36DA2F94092","title":"中心河桥","lon":"121.50169","lat":"31.108","category":"250","category_name":"公园户外","address":""},{"poiid":"B2094655D36CA3FA4798","title":"丹桂轩","lon":"121.49965","lat":"31.11378","category":"257","category_name":"中餐厅","address":"闵行区浦星公路800号新浦江城中意文化广场(近江桦路)"},{"poiid":"B2094655D36CA1FF439F","title":"芦恒路","lon":"121.49979","lat":"31.11324","category":"38","category_name":"公交车站","address":""},{"poiid":"B2094757D568AAF9419E","title":"万科翡翠别墅","lon":"121.495","lat":"31.1125","category":"47","category_name":"住宅区","address":"闵行区江桃路556弄"},{"poiid":"B2094655D36CA1FF439D","title":"芦恒路浦星公路","lon":"121.4976","lat":"31.11608","category":"38","category_name":"公交车站","address":""},{"poiid":"B2094757D569A6F9429F","title":"浦江颐城","lon":"121.49937","lat":"31.100842","category":"47","category_name":"住宅区","address":"闵行浦泉路399弄"},{"poiid":"B2094655D26AA0FA409E","title":"地铁芦恒路站","lon":"121.49864","lat":"31.1173","category":"36","category_name":"地铁站","address":""},{"poiid":"B2094750DB6BA0F8419E","title":"城林美苑","lon":"121.498641","lat":"31.107902","category":"500","category_name":"未知分类","address":"三舒路62弄,33弄"},{"poiid":"B2094655D264A2F44893","title":"英顺达","lon":"121.51241","lat":"31.10411","category":"46","category_name":"楼宇","address":"浦星路699号"},{"poiid":"B2094757D66EAAF84292","title":"中粮万科VMO","lon":"121.490578","lat":"31.107707171","category":"263","category_name":"公司","address":"上海浦江镇浦锦路(近芦恒路)"},{"poiid":"B2094757D069A7FC499B","title":"东方康德家园","lon":"121.51471","lat":"31.125278","category":"500","category_name":"未知分类","address":"上海浦东新区三林镇懿行路971弄"},{"poiid":"B2094757D465A3FA419A","title":"棒垒球高尔夫餐饮会所 BASEBALL&GALF FLELD","lon":"121.497169","lat":"31.117994","category":"76","category_name":"上海菜","address":"浦星公路200号近芦恒路地铁站"},{"poiid":"B2094655D26BA2F4469B","title":"浦星公路恒星","lon":"121.49934","lat":"31.11452","category":"38","category_name":"公交车站","address":""},{"poiid":"B2094654DB69A7FA4398","title":"中国银行漕河泾出口加工区支行","lon":"121.51082","lat":"31.10477","category":"150","category_name":"银行","address":"浦东新区浦星公路789号"},{"poiid":"B2094757D164AAFF419D","title":"保利茉莉公馆","lon":"121.51324","lat":"31.101802","category":"500","category_name":"未知分类","address":"上海市闵行区浦秀路1536号"},{"poiid":"B2094655D26DA0FA4799","title":"英业达集团(杨家宅)","lon":"121.50585","lat":"31.1038","category":"263","category_name":"公司","address":""},{"poiid":"B2094655D26BA2F44798","title":"浦星公路陈行公路","lon":"121.50502","lat":"31.09868","category":"38","category_name":"公交车站","address":""},{"poiid":"B2094655D36DA6FE4298","title":"浦江镇","lon":"121.50636","lat":"31.09631","category":"38","category_name":"公交车站","address":""},{"poiid":"B2094757D16DA7FB459D","title":"上海欢乐谷 疯狂精灵","lon":"121.506923159","lat":"31.1167176178","category":"500","category_name":"未知分类","address":"上海松江区佘山镇林湖路888号"},{"poiid":"B2094757D568A5FC499B","title":"江桦路200弄小区","lon":"121.49637668","lat":"31.1054248","category":"47","category_name":"住宅区","address":"中国上海市闵行区浦申路"},{"poiid":"B2094757D568A5FD419B","title":"江桦路200弄小区(西门)","lon":"121.49565809","lat":"31.10564887","category":"47","category_name":"住宅区","address":"中国上海市闵行区浦申路"},{"poiid":"B2094655D265A1FE4399","title":"红源坊","lon":"121.49582","lat":"31.10512","category":"257","category_name":"中餐厅","address":"闵行区浦申路1889号"},{"poiid":"B2094757D568A5FD479F","title":"协和海富幼儿园","lon":"121.49588786","lat":"31.10538574","category":"57","category_name":"幼儿园","address":"中国上海市闵行区浦申路"},{"poiid":"B2094757D06BA2FB4793","title":"浦江镇三鲁公路","lon":"121.495331","lat":"31.11639236","category":"500","category_name":"未知分类","address":"上海市闵行区三鲁公路"},{"poiid":"B2094757D568A6F54493","title":"联华超市(江桦路)","lon":"121.49639486","lat":"31.1045421","category":"118","category_name":"超级市场","address":"中国上海市闵行区江桦路"},{"poiid":"B2094757D568AAFD449B","title":"Megafit Cafe","lon":"121.49605713","lat":"31.10272678","category":"65","category_name":"咖啡厅","address":"中国上海市闵行区浦申路"},{"poiid":"B2094751D364A4FA479D","title":"德康苑","lon":"121.5087417","lat":"31.118144","category":"252","category_name":"楼宇机构","address":"浦东新区和炯路501弄"},{"poiid":"B2094751D16DABFE479B","title":"上海交通大学医学院附属仁济医院","lon":"121.4924553","lat":"31.0983813","category":"162","category_name":"医院","address":"江月路2000号"},{"poiid":"B2094757D069AAFC4999","title":"美格菲健身","lon":"121.50054168","lat":"31.100242614","category":"500","category_name":"未知分类","address":"上海江桦路399弄"},{"poiid":"B2094757D169A0FF4292","title":"上海辉煌国际马术俱乐部","lon":"121.495535726","lat":"31.1138089712","category":"500","category_name":"未知分类","address":"上海懿德路287号"},{"poiid":"B2094655D26AA0FA4099","title":"地铁浦江镇站","lon":"121.50636","lat":"31.09631","category":"36","category_name":"地铁站","address":""},{"poiid":"B2094751D46AA1FC459A","title":"士韵家园","lon":"121.494688","lat":"31.120273","category":"47","category_name":"住宅区","address":"三彩路59弄"},{"poiid":"B2094757D168AAF8469C","title":"友建村会所","lon":"121.501335","lat":"31.117075","category":"500","category_name":"未知分类","address":"上海三鲁路林恒路"},{"poiid":"B2094752D16AABFE4293","title":"漕河泾浦江科技广场","lon":"121.502335","lat":"31.100123","category":"252","category_name":"楼宇机构","address":"陈行路2388号"},{"poiid":"B2094757D069A5FE4093","title":"浦江易初莲花","lon":"121.500644009","lat":"31.1010470267","category":"500","category_name":"未知分类","address":"上海江月路"},{"poiid":"B2094757D568A0FF479D","title":"东方网点(红旗店)","lon":"121.50284261","lat":"31.11773221","category":"176","category_name":"网吧","address":"中国上海市浦东新区华星路"},{"poiid":"B2094757D569A6F94199","title":"威尼斯水岸","lon":"121.49288222","lat":"31.10202501","category":"47","category_name":"住宅区","address":"中国上海市闵行区浦驰路"},{"poiid":"B2094757D164A6F54698","title":"JWDA","lon":"121.495219009","lat":"31.1038380875","category":"500","category_name":"未知分类","address":"上海浦申路1888号3楼"}]