[{"poiid":"B2094757D468A4FE4092","title":"拉亚汉堡 LAYA BURGER","lon":"121.52212473067107","lat":"31.23234975883006","category":"94","category_name":"西餐厅","address":"浦东新区商城路889号B3栋(近世纪大道)"},{"poiid":"B2094654DA69A0F84792","title":"上海锦江汤臣洲际大酒店","lon":"121.52166","lat":"31.22956","category":"268","category_name":"自助","address":"浦东新区张杨路777号锦江汤臣洲际大酒店3楼(近崂山路)"},{"poiid":"B2094654DA69A4FB429B","title":"华润时代广场","lon":"121.52377732395","lat":"31.232792476512","category":"119","category_name":"商场","address":"浦东新区张杨路500号(近浦东南路)"},{"poiid":"B209475CD564A7F84392","title":"上海滩浦东香格里拉店","lon":"121.50058","lat":"31.23634","category":"119","category_name":"商场","address":"浦东富成路33号香格里拉酒店内大堂层"},{"poiid":"B2094757D06FA1FD409B","title":"和彩日本料理","lon":"121.517798738","lat":"31.2313843247","category":"95","category_name":"日本料理","address":"浦东新区商城路665号1885广场C栋2楼(近南泉北路)"},{"poiid":"B2094654DA69A6FE489B","title":"上海湾","lon":"121.52054884882","lat":"31.23253649044","category":"46","category_name":"楼宇","address":"上海市浦东新区浦东南路1138号"},{"poiid":"B2094757D06FA3FA4492","title":"世纪大道","lon":"121.517408","lat":"31.23203","category":"196","category_name":"公园","address":"上海世纪大道"},{"poiid":"B2094757D06FAAF5459B","title":"俏江南(1885会所店)","lon":"121.51789791","lat":"31.231302387","category":"71","category_name":"四川菜","address":"浦东新区商城路665号A栋(近南泉北路)"},{"poiid":"B2094757D068A1F9459A","title":"世纪大道商城路","lon":"121.52057","lat":"31.231763","category":"500","category_name":"未知分类","address":"上海世纪大道商城路"},{"poiid":"B2094757D06FA3FB419A","title":"麦当劳(乳山路店)","lon":"121.52007","lat":"31.23464","category":"68","category_name":"快餐厅","address":"浦东新区乳山路135号(崂山路乳山路)"},{"poiid":"B2094757D06FA0F5499B","title":"修记烧烤(乳山路店)","lon":"121.51779","lat":"31.23337","category":"68","category_name":"快餐厅","address":"浦东新区乳山路72号(东昌路地铁2号出口)"},{"poiid":"B2094757D56DA0F8449B","title":"太平洋数码三期营业厅","lon":"121.520728","lat":"31.22955","category":"151","category_name":"电讯营业厅","address":"张杨路721号太平洋数码广场三期壹层1050号铺位"},{"poiid":"B2094654DA69ABFB429D","title":"汤臣中心","lon":"121.518409","lat":"31.230626","category":"46","category_name":"楼宇","address":"上海市闵行区莲花南路1500弄"},{"poiid":"B2094655D26DA0FD4792","title":"上海锦江汤臣洲际大酒店(南门)","lon":"121.52152","lat":"31.22906","category":"656","category_name":"大门","address":"上海市浦东新区张扬路777号（近崂山东路）"},{"poiid":"B2094757D068A1FB409B","title":"光大银行上海分行","lon":"121.5204856","lat":"31.2315632","category":"150","category_name":"银行","address":"浦东新区世纪大道1118号光大银行大厦(近张杨路)"},{"poiid":"B2094757D069A3FF479D","title":"隆宇大厦","lon":"121.52001473699","lat":"31.233666810461","category":"46","category_name":"楼宇","address":"格林SOHO位于和平十三纬路云集街10号甲(东北炊具城西侧)"},{"poiid":"B2094757D06FA7FF499E","title":"东方书城(商城路店)","lon":"121.51874876","lat":"31.2305100689","category":"125","category_name":"书店","address":"浦东新区商城路660号乐凯大厦南广场(近南泉北路)"},{"poiid":"B2094654DA69A4F54892","title":"华融大厦","lon":"121.52390571146","lat":"31.232142381721","category":"46","category_name":"楼宇","address":"上海市浦东新区浦东南路1289号"},{"poiid":"B2094654DB6BAAF84298","title":"小城火锅(乳山路)","lon":"121.52062","lat":"31.23511","category":"86","category_name":"火锅店","address":"浦东新区乳山路153号(近东方路)"},{"poiid":"B2094655D26EA0FF489D","title":"锦江汤臣洲际大酒店宴会厅","lon":"121.52165","lat":"31.22955","category":"247","category_name":"餐饮美食","address":"浦东新区张杨路777号锦江汤臣洲际大酒店内(近崂山路)查看地图"},{"poiid":"B2094655D26BAAF9439A","title":"正院上海公馆 Shanghai Grand mansion restaurant","lon":"121.51692152023","lat":"31.231756803853","category":"247","category_name":"餐饮美食","address":"浦东新区商城路665号C栋2-4楼(近南泉北路)"},{"poiid":"B2094757D068A2FE459F","title":"东方路乳山路站","lon":"121.5222747","lat":"31.234984433","category":"260","category_name":"其他","address":"上海公交车站 在东方路上 靠近乳山路"},{"poiid":"B2094655D36CA6FB489C","title":"东方路商城路","lon":"121.5229","lat":"31.23261","category":"38","category_name":"公交车站","address":""},{"poiid":"B2094750D26FA1FF439F","title":"名轩 浦东店 Noble House","lon":"121.52085113525","lat":"31.232624053955","category":"247","category_name":"餐饮美食","address":"浦东新区商城路679号(世纪大道口)"},{"poiid":"B2094757D068A5F84599","title":"盛贺美(商城路店)","lon":"121.52287","lat":"31.2322","category":"95","category_name":"日本料理","address":"浦东新区商城路655号陆家嘴1885文化中心(近南泉北路)"},{"poiid":"B2094751D464A0F4439B","title":"幸福牧场","lon":"121.52024","lat":"31.229897","category":"247","category_name":"餐饮美食","address":"96广场2楼"},{"poiid":"B2094757D069A1F5439D","title":"花见日本料理","lon":"121.52196833","lat":"31.22932628","category":"500","category_name":"未知分类","address":"上海浦东新区张扬路浦东食品城3楼"},{"poiid":"B2094757D068A6F9409B","title":"上品小笼(乳山路店)","lon":"121.51844","lat":"31.23355","category":"68","category_name":"快餐厅","address":"浦东新区乳山路80号(南泉北路崂山路间)"},{"poiid":"B2094757D169A2FE4493","title":"無形陶藝工坊","lon":"121.52165373","lat":"31.231997337","category":"500","category_name":"未知分类","address":"上海市浦东新區商城路887號波特營B2號"},{"poiid":"B2094757D068AAFF489E","title":"永和豆浆(世纪大道店)","lon":"121.5176","lat":"31.23291","category":"68","category_name":"快餐厅","address":"上海浦东新区南泉北路400号(东昌路地铁2号口对面)  "},{"poiid":"B2094654DA69A0F5429E","title":"鼎亭小馆","lon":"121.52075","lat":"31.23292","category":"76","category_name":"上海菜","address":"浦东新区崂山路316号旁(崂山路商城路)"},{"poiid":"B2094654DA69A0F8489B","title":"康骏会馆","lon":"121.52023","lat":"31.22931","category":"149","category_name":"洗浴推拿场所","address":"浦东新区张杨路707号生命人寿大厦2楼(近崂山路)"},{"poiid":"B2094757D06BA0F8429B","title":"东方图门烧烤","lon":"121.52178","lat":"31.23442","category":"257","category_name":"中餐厅","address":"浦东新区乳山路124号(东方路口)"},{"poiid":"B2094654DB6BAAF8419D","title":"罗森","lon":"121.52127","lat":"31.23199","category":"117","category_name":"便民商店/便利店","address":"浦东新区商城路873号(近崂山路)"},{"poiid":"B2094751D56EA5FF439B","title":"波特营创意园","lon":"121.52143753442385","lat":"31.232316198751477","category":"45","category_name":"产业园区","address":"浦东新区商城路889号"},{"poiid":"B2094654DA69A0F44892","title":"宏声商务中心","lon":"121.52302","lat":"31.23292","category":"46","category_name":"楼宇","address":"普陀中山北路2550号"},{"poiid":"B2094757D068A2F94099","title":"三叶眼镜批发市场(浦东店)","lon":"121.51893","lat":"31.23051","category":"132","category_name":"眼镜店","address":"浦东新区商城路660号乐凯大厦东方书城1-2楼(近南泉北路)"},{"poiid":"B2094757D66EA5FD499D","title":"西域风情老回民餐厅","lon":"121.521434","lat":"31.232067","category":"247","category_name":"餐饮美食","address":"上海商城路873号"},{"poiid":"B2094752DB6CA1F94092","title":"网鱼网咖（张扬路店）","lon":"121.520643","lat":"31.231985","category":"248","category_name":"生活娱乐","address":"上海市 世纪大道张扬路"},{"poiid":"B2094757D065A0FC4898","title":"康源居热气涮羊肉","lon":"121.519814738","lat":"31.2348003975","category":"86","category_name":"火锅店","address":"浦东新区乳山路99号(近崂山路)"},{"poiid":"B2094654DA69A0F54293","title":"乳山三村","lon":"121.51926","lat":"31.23323","category":"47","category_name":"住宅区","address":"梅园新村"},{"poiid":"B2094654DB65A5FA4799","title":"上海新亚汤臣洲际大酒店","lon":"121.52185","lat":"31.22988","category":"213","category_name":"五星级宾馆","address":"浦东新区张杨路777号锦江汤臣洲际大酒店内(近崂山路)"},{"poiid":"B2094757D06BAAFB4192","title":"中国银行上海市浦东分行","lon":"121.52230582","lat":"31.229437427","category":"500","category_name":"未知分类","address":"浦东新区张杨路838号(近崂山东路)"},{"poiid":"B2094753D265A5F5419F","title":"陆家嘴","lon":"121.521644","lat":"31.232178","category":"500","category_name":"未知分类","address":"上海市 轨道交通2号线"},{"poiid":"B2094757D064A0F54492","title":"良友大厦","lon":"121.517939","lat":"31.230513","category":"46","category_name":"楼宇","address":"浦东新区商城路618号良友大厦内(近南泉北路)"},{"poiid":"B2094655D268A4F4429D","title":"上海民办浦东交中初级中学","lon":"121.52234","lat":"31.23329","category":"55","category_name":"中学","address":"东方路420"},{"poiid":"B2094654DA69AAFF459C","title":"陈记美食林","lon":"121.5207","lat":"31.23156","category":"82","category_name":"东北菜","address":"浦东新区商城路(近福山路)"},{"poiid":"B209475DD069A0F84492","title":"田子坊","lon":"121.52082","lat":"31.233797","category":"500","category_name":"未知分类","address":"上海市 泰康路"},{"poiid":"B2094750D26FA5FF429F","title":"聚三湘 浦东店","lon":"121.519923054","lat":"31.229261793","category":"77","category_name":"湖南菜","address":"浦东新区张杨路707号生命人寿大厦2楼(近崂山路)"},{"poiid":"B2094655D265A5F5419B","title":"EASTWESTLING","lon":"121.52062","lat":"31.2334","category":"247","category_name":"餐饮美食","address":"崂山路316号旁"},{"poiid":"B2094757D468A4FE4092","title":"拉亚汉堡 LAYA BURGER","lon":"121.52212473067107","lat":"31.23234975883006","category":"94","category_name":"西餐厅","address":"浦东新区商城路889号B3栋(近世纪大道)"},{"poiid":"B2094654DA69A0F84792","title":"上海锦江汤臣洲际大酒店","lon":"121.52166","lat":"31.22956","category":"268","category_name":"自助","address":"浦东新区张杨路777号锦江汤臣洲际大酒店3楼(近崂山路)"},{"poiid":"B2094654DA69A4FB429B","title":"华润时代广场","lon":"121.52377732395","lat":"31.232792476512","category":"119","category_name":"商场","address":"浦东新区张杨路500号(近浦东南路)"},{"poiid":"B209475CD564A7F84392","title":"上海滩浦东香格里拉店","lon":"121.50058","lat":"31.23634","category":"119","category_name":"商场","address":"浦东富成路33号香格里拉酒店内大堂层"},{"poiid":"B2094757D06FA1FD409B","title":"和彩日本料理","lon":"121.517798738","lat":"31.2313843247","category":"95","category_name":"日本料理","address":"浦东新区商城路665号1885广场C栋2楼(近南泉北路)"},{"poiid":"B2094654DA69A6FE489B","title":"上海湾","lon":"121.52054884882","lat":"31.23253649044","category":"46","category_name":"楼宇","address":"上海市浦东新区浦东南路1138号"},{"poiid":"B2094757D06FA3FA4492","title":"世纪大道","lon":"121.517408","lat":"31.23203","category":"196","category_name":"公园","address":"上海世纪大道"},{"poiid":"B2094757D06FAAF5459B","title":"俏江南(1885会所店)","lon":"121.51789791","lat":"31.231302387","category":"71","category_name":"四川菜","address":"浦东新区商城路665号A栋(近南泉北路)"},{"poiid":"B2094757D068A1F9459A","title":"世纪大道商城路","lon":"121.52057","lat":"31.231763","category":"500","category_name":"未知分类","address":"上海世纪大道商城路"},{"poiid":"B2094757D06FA3FB419A","title":"麦当劳(乳山路店)","lon":"121.52007","lat":"31.23464","category":"68","category_name":"快餐厅","address":"浦东新区乳山路135号(崂山路乳山路)"},{"poiid":"B2094757D06FA0F5499B","title":"修记烧烤(乳山路店)","lon":"121.51779","lat":"31.23337","category":"68","category_name":"快餐厅","address":"浦东新区乳山路72号(东昌路地铁2号出口)"},{"poiid":"B2094757D56DA0F8449B","title":"太平洋数码三期营业厅","lon":"121.520728","lat":"31.22955","category":"151","category_name":"电讯营业厅","address":"张杨路721号太平洋数码广场三期壹层1050号铺位"},{"poiid":"B2094654DA69ABFB429D","title":"汤臣中心","lon":"121.518409","lat":"31.230626","category":"46","category_name":"楼宇","address":"上海市闵行区莲花南路1500弄"},{"poiid":"B2094655D26DA0FD4792","title":"上海锦江汤臣洲际大酒店(南门)","lon":"121.52152","lat":"31.22906","category":"656","category_name":"大门","address":"上海市浦东新区张扬路777号（近崂山东路）"},{"poiid":"B2094757D068A1FB409B","title":"光大银行上海分行","lon":"121.5204856","lat":"31.2315632","category":"150","category_name":"银行","address":"浦东新区世纪大道1118号光大银行大厦(近张杨路)"},{"poiid":"B2094757D069A3FF479D","title":"隆宇大厦","lon":"121.52001473699","lat":"31.233666810461","category":"46","category_name":"楼宇","address":"格林SOHO位于和平十三纬路云集街10号甲(东北炊具城西侧)"},{"poiid":"B2094757D06FA7FF499E","title":"东方书城(商城路店)","lon":"121.51874876","lat":"31.2305100689","category":"125","category_name":"书店","address":"浦东新区商城路660号乐凯大厦南广场(近南泉北路)"},{"poiid":"B2094654DA69A4F54892","title":"华融大厦","lon":"121.52390571146","lat":"31.232142381721","category":"46","category_name":"楼宇","address":"上海市浦东新区浦东南路1289号"},{"poiid":"B2094654DB6BAAF84298","title":"小城火锅(乳山路)","lon":"121.52062","lat":"31.23511","category":"86","category_name":"火锅店","address":"浦东新区乳山路153号(近东方路)"},{"poiid":"B2094655D26EA0FF489D","title":"锦江汤臣洲际大酒店宴会厅","lon":"121.52165","lat":"31.22955","category":"247","category_name":"餐饮美食","address":"浦东新区张杨路777号锦江汤臣洲际大酒店内(近崂山路)查看地图"},{"poiid":"B2094655D26BAAF9439A","title":"正院上海公馆 Shanghai Grand mansion restaurant","lon":"121.51692152023","lat":"31.231756803853","category":"247","category_name":"餐饮美食","address":"浦东新区商城路665号C栋2-4楼(近南泉北路)"},{"poiid":"B2094757D068A2FE459F","title":"东方路乳山路站","lon":"121.5222747","lat":"31.234984433","category":"260","category_name":"其他","address":"上海公交车站 在东方路上 靠近乳山路"},{"poiid":"B2094655D36CA6FB489C","title":"东方路商城路","lon":"121.5229","lat":"31.23261","category":"38","category_name":"公交车站","address":""},{"poiid":"B2094750D26FA1FF439F","title":"名轩 浦东店 Noble House","lon":"121.52085113525","lat":"31.232624053955","category":"247","category_name":"餐饮美食","address":"浦东新区商城路679号(世纪大道口)"},{"poiid":"B2094757D068A5F84599","title":"盛贺美(商城路店)","lon":"121.52287","lat":"31.2322","category":"95","category_name":"日本料理","address":"浦东新区商城路655号陆家嘴1885文化中心(近南泉北路)"},{"poiid":"B2094751D464A0F4439B","title":"幸福牧场","lon":"121.52024","lat":"31.229897","category":"247","category_name":"餐饮美食","address":"96广场2楼"},{"poiid":"B2094757D069A1F5439D","title":"花见日本料理","lon":"121.52196833","lat":"31.22932628","category":"500","category_name":"未知分类","address":"上海浦东新区张扬路浦东食品城3楼"},{"poiid":"B2094757D068A6F9409B","title":"上品小笼(乳山路店)","lon":"121.51844","lat":"31.23355","category":"68","category_name":"快餐厅","address":"浦东新区乳山路80号(南泉北路崂山路间)"},{"poiid":"B2094757D169A2FE4493","title":"無形陶藝工坊","lon":"121.52165373","lat":"31.231997337","category":"500","category_name":"未知分类","address":"上海市浦东新區商城路887號波特營B2號"},{"poiid":"B2094757D068AAFF489E","title":"永和豆浆(世纪大道店)","lon":"121.5176","lat":"31.23291","category":"68","category_name":"快餐厅","address":"上海浦东新区南泉北路400号(东昌路地铁2号口对面)  "},{"poiid":"B2094654DA69A0F5429E","title":"鼎亭小馆","lon":"121.52075","lat":"31.23292","category":"76","category_name":"上海菜","address":"浦东新区崂山路316号旁(崂山路商城路)"},{"poiid":"B2094654DA69A0F8489B","title":"康骏会馆","lon":"121.52023","lat":"31.22931","category":"149","category_name":"洗浴推拿场所","address":"浦东新区张杨路707号生命人寿大厦2楼(近崂山路)"},{"poiid":"B2094757D06BA0F8429B","title":"东方图门烧烤","lon":"121.52178","lat":"31.23442","category":"257","category_name":"中餐厅","address":"浦东新区乳山路124号(东方路口)"},{"poiid":"B2094654DB6BAAF8419D","title":"罗森","lon":"121.52127","lat":"31.23199","category":"117","category_name":"便民商店/便利店","address":"浦东新区商城路873号(近崂山路)"},{"poiid":"B2094751D56EA5FF439B","title":"波特营创意园","lon":"121.52143753442385","lat":"31.232316198751477","category":"45","category_name":"产业园区","address":"浦东新区商城路889号"},{"poiid":"B2094654DA69A0F44892","title":"宏声商务中心","lon":"121.52302","lat":"31.23292","category":"46","category_name":"楼宇","address":"普陀中山北路2550号"},{"poiid":"B2094757D068A2F94099","title":"三叶眼镜批发市场(浦东店)","lon":"121.51893","lat":"31.23051","category":"132","category_name":"眼镜店","address":"浦东新区商城路660号乐凯大厦东方书城1-2楼(近南泉北路)"},{"poiid":"B2094757D66EA5FD499D","title":"西域风情老回民餐厅","lon":"121.521434","lat":"31.232067","category":"247","category_name":"餐饮美食","address":"上海商城路873号"},{"poiid":"B2094752DB6CA1F94092","title":"网鱼网咖（张扬路店）","lon":"121.520643","lat":"31.231985","category":"248","category_name":"生活娱乐","address":"上海市 世纪大道张扬路"},{"poiid":"B2094757D065A0FC4898","title":"康源居热气涮羊肉","lon":"121.519814738","lat":"31.2348003975","category":"86","category_name":"火锅店","address":"浦东新区乳山路99号(近崂山路)"},{"poiid":"B2094654DA69A0F54293","title":"乳山三村","lon":"121.51926","lat":"31.23323","category":"47","category_name":"住宅区","address":"梅园新村"},{"poiid":"B2094654DB65A5FA4799","title":"上海新亚汤臣洲际大酒店","lon":"121.52185","lat":"31.22988","category":"213","category_name":"五星级宾馆","address":"浦东新区张杨路777号锦江汤臣洲际大酒店内(近崂山路)"},{"poiid":"B2094757D06BAAFB4192","title":"中国银行上海市浦东分行","lon":"121.52230582","lat":"31.229437427","category":"500","category_name":"未知分类","address":"浦东新区张杨路838号(近崂山东路)"},{"poiid":"B2094753D265A5F5419F","title":"陆家嘴","lon":"121.521644","lat":"31.232178","category":"500","category_name":"未知分类","address":"上海市 轨道交通2号线"},{"poiid":"B2094757D064A0F54492","title":"良友大厦","lon":"121.517939","lat":"31.230513","category":"46","category_name":"楼宇","address":"浦东新区商城路618号良友大厦内(近南泉北路)"},{"poiid":"B2094655D268A4F4429D","title":"上海民办浦东交中初级中学","lon":"121.52234","lat":"31.23329","category":"55","category_name":"中学","address":"东方路420"},{"poiid":"B2094654DA69AAFF459C","title":"陈记美食林","lon":"121.5207","lat":"31.23156","category":"82","category_name":"东北菜","address":"浦东新区商城路(近福山路)"},{"poiid":"B209475DD069A0F84492","title":"田子坊","lon":"121.52082","lat":"31.233797","category":"500","category_name":"未知分类","address":"上海市 泰康路"},{"poiid":"B2094750D26FA5FF429F","title":"聚三湘 浦东店","lon":"121.519923054","lat":"31.229261793","category":"77","category_name":"湖南菜","address":"浦东新区张杨路707号生命人寿大厦2楼(近崂山路)"},{"poiid":"B2094655D265A5F5419B","title":"EASTWESTLING","lon":"121.52062","lat":"31.2334","category":"247","category_name":"餐饮美食","address":"崂山路316号旁"},{"poiid":"B2094757D468A4FE4092","title":"拉亚汉堡 LAYA BURGER","lon":"121.52212473067107","lat":"31.23234975883006","category":"94","category_name":"西餐厅","address":"浦东新区商城路889号B3栋(近世纪大道)"},{"poiid":"B2094654DA69A0F84792","title":"上海锦江汤臣洲际大酒店","lon":"121.52166","lat":"31.22956","category":"268","category_name":"自助","address":"浦东新区张杨路777号锦江汤臣洲际大酒店3楼(近崂山路)"},{"poiid":"B2094654DA69A4FB429B","title":"华润时代广场","lon":"121.52377732395","lat":"31.232792476512","category":"119","category_name":"商场","address":"浦东新区张杨路500号(近浦东南路)"},{"poiid":"B209475CD564A7F84392","title":"上海滩浦东香格里拉店","lon":"121.50058","lat":"31.23634","category":"119","category_name":"商场","address":"浦东富成路33号香格里拉酒店内大堂层"},{"poiid":"B2094757D06FA1FD409B","title":"和彩日本料理","lon":"121.517798738","lat":"31.2313843247","category":"95","category_name":"日本料理","address":"浦东新区商城路665号1885广场C栋2楼(近南泉北路)"},{"poiid":"B2094654DA69A6FE489B","title":"上海湾","lon":"121.52054884882","lat":"31.23253649044","category":"46","category_name":"楼宇","address":"上海市浦东新区浦东南路1138号"},{"poiid":"B2094757D06FA3FA4492","title":"世纪大道","lon":"121.517408","lat":"31.23203","category":"196","category_name":"公园","address":"上海世纪大道"},{"poiid":"B2094757D06FAAF5459B","title":"俏江南(1885会所店)","lon":"121.51789791","lat":"31.231302387","category":"71","category_name":"四川菜","address":"浦东新区商城路665号A栋(近南泉北路)"},{"poiid":"B2094757D068A1F9459A","title":"世纪大道商城路","lon":"121.52057","lat":"31.231763","category":"500","category_name":"未知分类","address":"上海世纪大道商城路"},{"poiid":"B2094757D06FA3FB419A","title":"麦当劳(乳山路店)","lon":"121.52007","lat":"31.23464","category":"68","category_name":"快餐厅","address":"浦东新区乳山路135号(崂山路乳山路)"},{"poiid":"B2094757D06FA0F5499B","title":"修记烧烤(乳山路店)","lon":"121.51779","lat":"31.23337","category":"68","category_name":"快餐厅","address":"浦东新区乳山路72号(东昌路地铁2号出口)"},{"poiid":"B2094757D56DA0F8449B","title":"太平洋数码三期营业厅","lon":"121.520728","lat":"31.22955","category":"151","category_name":"电讯营业厅","address":"张杨路721号太平洋数码广场三期壹层1050号铺位"},{"poiid":"B2094654DA69ABFB429D","title":"汤臣中心","lon":"121.518409","lat":"31.230626","category":"46","category_name":"楼宇","address":"上海市闵行区莲花南路1500弄"},{"poiid":"B2094655D26DA0FD4792","title":"上海锦江汤臣洲际大酒店(南门)","lon":"121.52152","lat":"31.22906","category":"656","category_name":"大门","address":"上海市浦东新区张扬路777号（近崂山东路）"},{"poiid":"B2094757D068A1FB409B","title":"光大银行上海分行","lon":"121.5204856","lat":"31.2315632","category":"150","category_name":"银行","address":"浦东新区世纪大道1118号光大银行大厦(近张杨路)"},{"poiid":"B2094757D069A3FF479D","title":"隆宇大厦","lon":"121.52001473699","lat":"31.233666810461","category":"46","category_name":"楼宇","address":"格林SOHO位于和平十三纬路云集街10号甲(东北炊具城西侧)"},{"poiid":"B2094757D06FA7FF499E","title":"东方书城(商城路店)","lon":"121.51874876","lat":"31.2305100689","category":"125","category_name":"书店","address":"浦东新区商城路660号乐凯大厦南广场(近南泉北路)"},{"poiid":"B2094654DA69A4F54892","title":"华融大厦","lon":"121.52390571146","lat":"31.232142381721","category":"46","category_name":"楼宇","address":"上海市浦东新区浦东南路1289号"},{"poiid":"B2094654DB6BAAF84298","title":"小城火锅(乳山路)","lon":"121.52062","lat":"31.23511","category":"86","category_name":"火锅店","address":"浦东新区乳山路153号(近东方路)"},{"poiid":"B2094655D26EA0FF489D","title":"锦江汤臣洲际大酒店宴会厅","lon":"121.52165","lat":"31.22955","category":"247","category_name":"餐饮美食","address":"浦东新区张杨路777号锦江汤臣洲际大酒店内(近崂山路)查看地图"},{"poiid":"B2094655D26BAAF9439A","title":"正院上海公馆 Shanghai Grand mansion restaurant","lon":"121.51692152023","lat":"31.231756803853","category":"247","category_name":"餐饮美食","address":"浦东新区商城路665号C栋2-4楼(近南泉北路)"},{"poiid":"B2094757D068A2FE459F","title":"东方路乳山路站","lon":"121.5222747","lat":"31.234984433","category":"260","category_name":"其他","address":"上海公交车站 在东方路上 靠近乳山路"},{"poiid":"B2094655D36CA6FB489C","title":"东方路商城路","lon":"121.5229","lat":"31.23261","category":"38","category_name":"公交车站","address":""},{"poiid":"B2094750D26FA1FF439F","title":"名轩 浦东店 Noble House","lon":"121.52085113525","lat":"31.232624053955","category":"247","category_name":"餐饮美食","address":"浦东新区商城路679号(世纪大道口)"},{"poiid":"B2094757D068A5F84599","title":"盛贺美(商城路店)","lon":"121.52287","lat":"31.2322","category":"95","category_name":"日本料理","address":"浦东新区商城路655号陆家嘴1885文化中心(近南泉北路)"},{"poiid":"B2094751D464A0F4439B","title":"幸福牧场","lon":"121.52024","lat":"31.229897","category":"247","category_name":"餐饮美食","address":"96广场2楼"},{"poiid":"B2094757D069A1F5439D","title":"花见日本料理","lon":"121.52196833","lat":"31.22932628","category":"500","category_name":"未知分类","address":"上海浦东新区张扬路浦东食品城3楼"},{"poiid":"B2094757D068A6F9409B","title":"上品小笼(乳山路店)","lon":"121.51844","lat":"31.23355","category":"68","category_name":"快餐厅","address":"浦东新区乳山路80号(南泉北路崂山路间)"},{"poiid":"B2094757D169A2FE4493","title":"無形陶藝工坊","lon":"121.52165373","lat":"31.231997337","category":"500","category_name":"未知分类","address":"上海市浦东新區商城路887號波特營B2號"},{"poiid":"B2094757D068AAFF489E","title":"永和豆浆(世纪大道店)","lon":"121.5176","lat":"31.23291","category":"68","category_name":"快餐厅","address":"上海浦东新区南泉北路400号(东昌路地铁2号口对面)  "},{"poiid":"B2094654DA69A0F5429E","title":"鼎亭小馆","lon":"121.52075","lat":"31.23292","category":"76","category_name":"上海菜","address":"浦东新区崂山路316号旁(崂山路商城路)"},{"poiid":"B2094654DA69A0F8489B","title":"康骏会馆","lon":"121.52023","lat":"31.22931","category":"149","category_name":"洗浴推拿场所","address":"浦东新区张杨路707号生命人寿大厦2楼(近崂山路)"},{"poiid":"B2094757D06BA0F8429B","title":"东方图门烧烤","lon":"121.52178","lat":"31.23442","category":"257","category_name":"中餐厅","address":"浦东新区乳山路124号(东方路口)"},{"poiid":"B2094654DB6BAAF8419D","title":"罗森","lon":"121.52127","lat":"31.23199","category":"117","category_name":"便民商店/便利店","address":"浦东新区商城路873号(近崂山路)"},{"poiid":"B2094751D56EA5FF439B","title":"波特营创意园","lon":"121.52143753442385","lat":"31.232316198751477","category":"45","category_name":"产业园区","address":"浦东新区商城路889号"},{"poiid":"B2094654DA69A0F44892","title":"宏声商务中心","lon":"121.52302","lat":"31.23292","category":"46","category_name":"楼宇","address":"普陀中山北路2550号"},{"poiid":"B2094757D068A2F94099","title":"三叶眼镜批发市场(浦东店)","lon":"121.51893","lat":"31.23051","category":"132","category_name":"眼镜店","address":"浦东新区商城路660号乐凯大厦东方书城1-2楼(近南泉北路)"},{"poiid":"B2094757D66EA5FD499D","title":"西域风情老回民餐厅","lon":"121.521434","lat":"31.232067","category":"247","category_name":"餐饮美食","address":"上海商城路873号"},{"poiid":"B2094752DB6CA1F94092","title":"网鱼网咖（张扬路店）","lon":"121.520643","lat":"31.231985","category":"248","category_name":"生活娱乐","address":"上海市 世纪大道张扬路"},{"poiid":"B2094757D065A0FC4898","title":"康源居热气涮羊肉","lon":"121.519814738","lat":"31.2348003975","category":"86","category_name":"火锅店","address":"浦东新区乳山路99号(近崂山路)"},{"poiid":"B2094654DA69A0F54293","title":"乳山三村","lon":"121.51926","lat":"31.23323","category":"47","category_name":"住宅区","address":"梅园新村"},{"poiid":"B2094654DB65A5FA4799","title":"上海新亚汤臣洲际大酒店","lon":"121.52185","lat":"31.22988","category":"213","category_name":"五星级宾馆","address":"浦东新区张杨路777号锦江汤臣洲际大酒店内(近崂山路)"},{"poiid":"B2094757D06BAAFB4192","title":"中国银行上海市浦东分行","lon":"121.52230582","lat":"31.229437427","category":"500","category_name":"未知分类","address":"浦东新区张杨路838号(近崂山东路)"},{"poiid":"B2094753D265A5F5419F","title":"陆家嘴","lon":"121.521644","lat":"31.232178","category":"500","category_name":"未知分类","address":"上海市 轨道交通2号线"},{"poiid":"B2094757D064A0F54492","title":"良友大厦","lon":"121.517939","lat":"31.230513","category":"46","category_name":"楼宇","address":"浦东新区商城路618号良友大厦内(近南泉北路)"},{"poiid":"B2094655D268A4F4429D","title":"上海民办浦东交中初级中学","lon":"121.52234","lat":"31.23329","category":"55","category_name":"中学","address":"东方路420"},{"poiid":"B2094654DA69AAFF459C","title":"陈记美食林","lon":"121.5207","lat":"31.23156","category":"82","category_name":"东北菜","address":"浦东新区商城路(近福山路)"},{"poiid":"B209475DD069A0F84492","title":"田子坊","lon":"121.52082","lat":"31.233797","category":"500","category_name":"未知分类","address":"上海市 泰康路"},{"poiid":"B2094750D26FA5FF429F","title":"聚三湘 浦东店","lon":"121.519923054","lat":"31.229261793","category":"77","category_name":"湖南菜","address":"浦东新区张杨路707号生命人寿大厦2楼(近崂山路)"},{"poiid":"B2094655D265A5F5419B","title":"EASTWESTLING","lon":"121.52062","lat":"31.2334","category":"247","category_name":"餐饮美食","address":"崂山路316号旁"},{"poiid":"B2094757D468A4FE4092","title":"拉亚汉堡 LAYA BURGER","lon":"121.52212473067107","lat":"31.23234975883006","category":"94","category_name":"西餐厅","address":"浦东新区商城路889号B3栋(近世纪大道)"},{"poiid":"B2094654DA69A0F84792","title":"上海锦江汤臣洲际大酒店","lon":"121.52166","lat":"31.22956","category":"268","category_name":"自助","address":"浦东新区张杨路777号锦江汤臣洲际大酒店3楼(近崂山路)"},{"poiid":"B2094654DA69A4FB429B","title":"华润时代广场","lon":"121.52377732395","lat":"31.232792476512","category":"119","category_name":"商场","address":"浦东新区张杨路500号(近浦东南路)"},{"poiid":"B209475CD564A7F84392","title":"上海滩浦东香格里拉店","lon":"121.50058","lat":"31.23634","category":"119","category_name":"商场","address":"浦东富成路33号香格里拉酒店内大堂层"},{"poiid":"B2094757D06FA1FD409B","title":"和彩日本料理","lon":"121.517798738","lat":"31.2313843247","category":"95","category_name":"日本料理","address":"浦东新区商城路665号1885广场C栋2楼(近南泉北路)"},{"poiid":"B2094654DA69A6FE489B","title":"上海湾","lon":"121.52054884882","lat":"31.23253649044","category":"46","category_name":"楼宇","address":"上海市浦东新区浦东南路1138号"},{"poiid":"B2094757D06FA3FA4492","title":"世纪大道","lon":"121.517408","lat":"31.23203","category":"196","category_name":"公园","address":"上海世纪大道"},{"poiid":"B2094757D06FAAF5459B","title":"俏江南(1885会所店)","lon":"121.51789791","lat":"31.231302387","category":"71","category_name":"四川菜","address":"浦东新区商城路665号A栋(近南泉北路)"},{"poiid":"B2094757D068A1F9459A","title":"世纪大道商城路","lon":"121.52057","lat":"31.231763","category":"500","category_name":"未知分类","address":"上海世纪大道商城路"},{"poiid":"B2094757D06FA3FB419A","title":"麦当劳(乳山路店)","lon":"121.52007","lat":"31.23464","category":"68","category_name":"快餐厅","address":"浦东新区乳山路135号(崂山路乳山路)"},{"poiid":"B2094757D06FA0F5499B","title":"修记烧烤(乳山路店)","lon":"121.51779","lat":"31.23337","category":"68","category_name":"快餐厅","address":"浦东新区乳山路72号(东昌路地铁2号出口)"},{"poiid":"B2094757D56DA0F8449B","title":"太平洋数码三期营业厅","lon":"121.520728","lat":"31.22955","category":"151","category_name":"电讯营业厅","address":"张杨路721号太平洋数码广场三期壹层1050号铺位"},{"poiid":"B2094654DA69ABFB429D","title":"汤臣中心","lon":"121.518409","lat":"31.230626","category":"46","category_name":"楼宇","address":"上海市闵行区莲花南路1500弄"},{"poiid":"B2094655D26DA0FD4792","title":"上海锦江汤臣洲际大酒店(南门)","lon":"121.52152","lat":"31.22906","category":"656","category_name":"大门","address":"上海市浦东新区张扬路777号（近崂山东路）"},{"poiid":"B2094757D068A1FB409B","title":"光大银行上海分行","lon":"121.5204856","lat":"31.2315632","category":"150","category_name":"银行","address":"浦东新区世纪大道1118号光大银行大厦(近张杨路)"},{"poiid":"B2094757D069A3FF479D","title":"隆宇大厦","lon":"121.52001473699","lat":"31.233666810461","category":"46","category_name":"楼宇","address":"格林SOHO位于和平十三纬路云集街10号甲(东北炊具城西侧)"},{"poiid":"B2094757D06FA7FF499E","title":"东方书城(商城路店)","lon":"121.51874876","lat":"31.2305100689","category":"125","category_name":"书店","address":"浦东新区商城路660号乐凯大厦南广场(近南泉北路)"},{"poiid":"B2094654DA69A4F54892","title":"华融大厦","lon":"121.52390571146","lat":"31.232142381721","category":"46","category_name":"楼宇","address":"上海市浦东新区浦东南路1289号"},{"poiid":"B2094654DB6BAAF84298","title":"小城火锅(乳山路)","lon":"121.52062","lat":"31.23511","category":"86","category_name":"火锅店","address":"浦东新区乳山路153号(近东方路)"},{"poiid":"B2094655D26EA0FF489D","title":"锦江汤臣洲际大酒店宴会厅","lon":"121.52165","lat":"31.22955","category":"247","category_name":"餐饮美食","address":"浦东新区张杨路777号锦江汤臣洲际大酒店内(近崂山路)查看地图"},{"poiid":"B2094655D26BAAF9439A","title":"正院上海公馆 Shanghai Grand mansion restaurant","lon":"121.51692152023","lat":"31.231756803853","category":"247","category_name":"餐饮美食","address":"浦东新区商城路665号C栋2-4楼(近南泉北路)"},{"poiid":"B2094757D068A2FE459F","title":"东方路乳山路站","lon":"121.5222747","lat":"31.234984433","category":"260","category_name":"其他","address":"上海公交车站 在东方路上 靠近乳山路"},{"poiid":"B2094655D36CA6FB489C","title":"东方路商城路","lon":"121.5229","lat":"31.23261","category":"38","category_name":"公交车站","address":""},{"poiid":"B2094750D26FA1FF439F","title":"名轩 浦东店 Noble House","lon":"121.52085113525","lat":"31.232624053955","category":"247","category_name":"餐饮美食","address":"浦东新区商城路679号(世纪大道口)"},{"poiid":"B2094757D068A5F84599","title":"盛贺美(商城路店)","lon":"121.52287","lat":"31.2322","category":"95","category_name":"日本料理","address":"浦东新区商城路655号陆家嘴1885文化中心(近南泉北路)"},{"poiid":"B2094751D464A0F4439B","title":"幸福牧场","lon":"121.52024","lat":"31.229897","category":"247","category_name":"餐饮美食","address":"96广场2楼"},{"poiid":"B2094757D069A1F5439D","title":"花见日本料理","lon":"121.52196833","lat":"31.22932628","category":"500","category_name":"未知分类","address":"上海浦东新区张扬路浦东食品城3楼"},{"poiid":"B2094757D068A6F9409B","title":"上品小笼(乳山路店)","lon":"121.51844","lat":"31.23355","category":"68","category_name":"快餐厅","address":"浦东新区乳山路80号(南泉北路崂山路间)"},{"poiid":"B2094757D169A2FE4493","title":"無形陶藝工坊","lon":"121.52165373","lat":"31.231997337","category":"500","category_name":"未知分类","address":"上海市浦东新區商城路887號波特營B2號"},{"poiid":"B2094757D068AAFF489E","title":"永和豆浆(世纪大道店)","lon":"121.5176","lat":"31.23291","category":"68","category_name":"快餐厅","address":"上海浦东新区南泉北路400号(东昌路地铁2号口对面)  "},{"poiid":"B2094654DA69A0F5429E","title":"鼎亭小馆","lon":"121.52075","lat":"31.23292","category":"76","category_name":"上海菜","address":"浦东新区崂山路316号旁(崂山路商城路)"},{"poiid":"B2094654DA69A0F8489B","title":"康骏会馆","lon":"121.52023","lat":"31.22931","category":"149","category_name":"洗浴推拿场所","address":"浦东新区张杨路707号生命人寿大厦2楼(近崂山路)"},{"poiid":"B2094757D06BA0F8429B","title":"东方图门烧烤","lon":"121.52178","lat":"31.23442","category":"257","category_name":"中餐厅","address":"浦东新区乳山路124号(东方路口)"},{"poiid":"B2094654DB6BAAF8419D","title":"罗森","lon":"121.52127","lat":"31.23199","category":"117","category_name":"便民商店/便利店","address":"浦东新区商城路873号(近崂山路)"},{"poiid":"B2094751D56EA5FF439B","title":"波特营创意园","lon":"121.52143753442385","lat":"31.232316198751477","category":"45","category_name":"产业园区","address":"浦东新区商城路889号"},{"poiid":"B2094654DA69A0F44892","title":"宏声商务中心","lon":"121.52302","lat":"31.23292","category":"46","category_name":"楼宇","address":"普陀中山北路2550号"},{"poiid":"B2094757D068A2F94099","title":"三叶眼镜批发市场(浦东店)","lon":"121.51893","lat":"31.23051","category":"132","category_name":"眼镜店","address":"浦东新区商城路660号乐凯大厦东方书城1-2楼(近南泉北路)"},{"poiid":"B2094757D66EA5FD499D","title":"西域风情老回民餐厅","lon":"121.521434","lat":"31.232067","category":"247","category_name":"餐饮美食","address":"上海商城路873号"},{"poiid":"B2094752DB6CA1F94092","title":"网鱼网咖（张扬路店）","lon":"121.520643","lat":"31.231985","category":"248","category_name":"生活娱乐","address":"上海市 世纪大道张扬路"},{"poiid":"B2094757D065A0FC4898","title":"康源居热气涮羊肉","lon":"121.519814738","lat":"31.2348003975","category":"86","category_name":"火锅店","address":"浦东新区乳山路99号(近崂山路)"},{"poiid":"B2094654DA69A0F54293","title":"乳山三村","lon":"121.51926","lat":"31.23323","category":"47","category_name":"住宅区","address":"梅园新村"},{"poiid":"B2094654DB65A5FA4799","title":"上海新亚汤臣洲际大酒店","lon":"121.52185","lat":"31.22988","category":"213","category_name":"五星级宾馆","address":"浦东新区张杨路777号锦江汤臣洲际大酒店内(近崂山路)"},{"poiid":"B2094757D06BAAFB4192","title":"中国银行上海市浦东分行","lon":"121.52230582","lat":"31.229437427","category":"500","category_name":"未知分类","address":"浦东新区张杨路838号(近崂山东路)"},{"poiid":"B2094753D265A5F5419F","title":"陆家嘴","lon":"121.521644","lat":"31.232178","category":"500","category_name":"未知分类","address":"上海市 轨道交通2号线"},{"poiid":"B2094757D064A0F54492","title":"良友大厦","lon":"121.517939","lat":"31.230513","category":"46","category_name":"楼宇","address":"浦东新区商城路618号良友大厦内(近南泉北路)"},{"poiid":"B2094655D268A4F4429D","title":"上海民办浦东交中初级中学","lon":"121.52234","lat":"31.23329","category":"55","category_name":"中学","address":"东方路420"},{"poiid":"B2094654DA69AAFF459C","title":"陈记美食林","lon":"121.5207","lat":"31.23156","category":"82","category_name":"东北菜","address":"浦东新区商城路(近福山路)"},{"poiid":"B209475DD069A0F84492","title":"田子坊","lon":"121.52082","lat":"31.233797","category":"500","category_name":"未知分类","address":"上海市 泰康路"},{"poiid":"B2094750D26FA5FF429F","title":"聚三湘 浦东店","lon":"121.519923054","lat":"31.229261793","category":"77","category_name":"湖南菜","address":"浦东新区张杨路707号生命人寿大厦2楼(近崂山路)"},{"poiid":"B2094655D265A5F5419B","title":"EASTWESTLING","lon":"121.52062","lat":"31.2334","category":"247","category_name":"餐饮美食","address":"崂山路316号旁"},{"poiid":"B2094757D468A4FE4092","title":"拉亚汉堡 LAYA BURGER","lon":"121.52212473067107","lat":"31.23234975883006","category":"94","category_name":"西餐厅","address":"浦东新区商城路889号B3栋(近世纪大道)"},{"poiid":"B2094654DA69A0F84792","title":"上海锦江汤臣洲际大酒店","lon":"121.52166","lat":"31.22956","category":"268","category_name":"自助","address":"浦东新区张杨路777号锦江汤臣洲际大酒店3楼(近崂山路)"},{"poiid":"B2094654DA69A4FB429B","title":"华润时代广场","lon":"121.52377732395","lat":"31.232792476512","category":"119","category_name":"商场","address":"浦东新区张杨路500号(近浦东南路)"},{"poiid":"B209475CD564A7F84392","title":"上海滩浦东香格里拉店","lon":"121.50058","lat":"31.23634","category":"119","category_name":"商场","address":"浦东富成路33号香格里拉酒店内大堂层"},{"poiid":"B2094757D06FA1FD409B","title":"和彩日本料理","lon":"121.517798738","lat":"31.2313843247","category":"95","category_name":"日本料理","address":"浦东新区商城路665号1885广场C栋2楼(近南泉北路)"},{"poiid":"B2094654DA69A6FE489B","title":"上海湾","lon":"121.52054884882","lat":"31.23253649044","category":"46","category_name":"楼宇","address":"上海市浦东新区浦东南路1138号"},{"poiid":"B2094757D06FA3FA4492","title":"世纪大道","lon":"121.517408","lat":"31.23203","category":"196","category_name":"公园","address":"上海世纪大道"},{"poiid":"B2094757D06FAAF5459B","title":"俏江南(1885会所店)","lon":"121.51789791","lat":"31.231302387","category":"71","category_name":"四川菜","address":"浦东新区商城路665号A栋(近南泉北路)"},{"poiid":"B2094757D068A1F9459A","title":"世纪大道商城路","lon":"121.52057","lat":"31.231763","category":"500","category_name":"未知分类","address":"上海世纪大道商城路"},{"poiid":"B2094757D06FA3FB419A","title":"麦当劳(乳山路店)","lon":"121.52007","lat":"31.23464","category":"68","category_name":"快餐厅","address":"浦东新区乳山路135号(崂山路乳山路)"},{"poiid":"B2094757D06FA0F5499B","title":"修记烧烤(乳山路店)","lon":"121.51779","lat":"31.23337","category":"68","category_name":"快餐厅","address":"浦东新区乳山路72号(东昌路地铁2号出口)"},{"poiid":"B2094757D56DA0F8449B","title":"太平洋数码三期营业厅","lon":"121.520728","lat":"31.22955","category":"151","category_name":"电讯营业厅","address":"张杨路721号太平洋数码广场三期壹层1050号铺位"},{"poiid":"B2094654DA69ABFB429D","title":"汤臣中心","lon":"121.518409","lat":"31.230626","category":"46","category_name":"楼宇","address":"上海市闵行区莲花南路1500弄"},{"poiid":"B2094655D26DA0FD4792","title":"上海锦江汤臣洲际大酒店(南门)","lon":"121.52152","lat":"31.22906","category":"656","category_name":"大门","address":"上海市浦东新区张扬路777号（近崂山东路）"},{"poiid":"B2094757D068A1FB409B","title":"光大银行上海分行","lon":"121.5204856","lat":"31.2315632","category":"150","category_name":"银行","address":"浦东新区世纪大道1118号光大银行大厦(近张杨路)"},{"poiid":"B2094757D069A3FF479D","title":"隆宇大厦","lon":"121.52001473699","lat":"31.233666810461","category":"46","category_name":"楼宇","address":"格林SOHO位于和平十三纬路云集街10号甲(东北炊具城西侧)"},{"poiid":"B2094757D06FA7FF499E","title":"东方书城(商城路店)","lon":"121.51874876","lat":"31.2305100689","category":"125","category_name":"书店","address":"浦东新区商城路660号乐凯大厦南广场(近南泉北路)"},{"poiid":"B2094654DA69A4F54892","title":"华融大厦","lon":"121.52390571146","lat":"31.232142381721","category":"46","category_name":"楼宇","address":"上海市浦东新区浦东南路1289号"},{"poiid":"B2094654DB6BAAF84298","title":"小城火锅(乳山路)","lon":"121.52062","lat":"31.23511","category":"86","category_name":"火锅店","address":"浦东新区乳山路153号(近东方路)"},{"poiid":"B2094655D26EA0FF489D","title":"锦江汤臣洲际大酒店宴会厅","lon":"121.52165","lat":"31.22955","category":"247","category_name":"餐饮美食","address":"浦东新区张杨路777号锦江汤臣洲际大酒店内(近崂山路)查看地图"},{"poiid":"B2094655D26BAAF9439A","title":"正院上海公馆 Shanghai Grand mansion restaurant","lon":"121.51692152023","lat":"31.231756803853","category":"247","category_name":"餐饮美食","address":"浦东新区商城路665号C栋2-4楼(近南泉北路)"},{"poiid":"B2094757D068A2FE459F","title":"东方路乳山路站","lon":"121.5222747","lat":"31.234984433","category":"260","category_name":"其他","address":"上海公交车站 在东方路上 靠近乳山路"},{"poiid":"B2094655D36CA6FB489C","title":"东方路商城路","lon":"121.5229","lat":"31.23261","category":"38","category_name":"公交车站","address":""},{"poiid":"B2094750D26FA1FF439F","title":"名轩 浦东店 Noble House","lon":"121.52085113525","lat":"31.232624053955","category":"247","category_name":"餐饮美食","address":"浦东新区商城路679号(世纪大道口)"},{"poiid":"B2094757D068A5F84599","title":"盛贺美(商城路店)","lon":"121.52287","lat":"31.2322","category":"95","category_name":"日本料理","address":"浦东新区商城路655号陆家嘴1885文化中心(近南泉北路)"},{"poiid":"B2094751D464A0F4439B","title":"幸福牧场","lon":"121.52024","lat":"31.229897","category":"247","category_name":"餐饮美食","address":"96广场2楼"},{"poiid":"B2094757D069A1F5439D","title":"花见日本料理","lon":"121.52196833","lat":"31.22932628","category":"500","category_name":"未知分类","address":"上海浦东新区张扬路浦东食品城3楼"},{"poiid":"B2094757D068A6F9409B","title":"上品小笼(乳山路店)","lon":"121.51844","lat":"31.23355","category":"68","category_name":"快餐厅","address":"浦东新区乳山路80号(南泉北路崂山路间)"},{"poiid":"B2094757D169A2FE4493","title":"無形陶藝工坊","lon":"121.52165373","lat":"31.231997337","category":"500","category_name":"未知分类","address":"上海市浦东新區商城路887號波特營B2號"},{"poiid":"B2094757D068AAFF489E","title":"永和豆浆(世纪大道店)","lon":"121.5176","lat":"31.23291","category":"68","category_name":"快餐厅","address":"上海浦东新区南泉北路400号(东昌路地铁2号口对面)  "},{"poiid":"B2094654DA69A0F5429E","title":"鼎亭小馆","lon":"121.52075","lat":"31.23292","category":"76","category_name":"上海菜","address":"浦东新区崂山路316号旁(崂山路商城路)"},{"poiid":"B2094654DA69A0F8489B","title":"康骏会馆","lon":"121.52023","lat":"31.22931","category":"149","category_name":"洗浴推拿场所","address":"浦东新区张杨路707号生命人寿大厦2楼(近崂山路)"},{"poiid":"B2094757D06BA0F8429B","title":"东方图门烧烤","lon":"121.52178","lat":"31.23442","category":"257","category_name":"中餐厅","address":"浦东新区乳山路124号(东方路口)"},{"poiid":"B2094654DB6BAAF8419D","title":"罗森","lon":"121.52127","lat":"31.23199","category":"117","category_name":"便民商店/便利店","address":"浦东新区商城路873号(近崂山路)"},{"poiid":"B2094751D56EA5FF439B","title":"波特营创意园","lon":"121.52143753442385","lat":"31.232316198751477","category":"45","category_name":"产业园区","address":"浦东新区商城路889号"},{"poiid":"B2094654DA69A0F44892","title":"宏声商务中心","lon":"121.52302","lat":"31.23292","category":"46","category_name":"楼宇","address":"普陀中山北路2550号"},{"poiid":"B2094757D068A2F94099","title":"三叶眼镜批发市场(浦东店)","lon":"121.51893","lat":"31.23051","category":"132","category_name":"眼镜店","address":"浦东新区商城路660号乐凯大厦东方书城1-2楼(近南泉北路)"},{"poiid":"B2094757D66EA5FD499D","title":"西域风情老回民餐厅","lon":"121.521434","lat":"31.232067","category":"247","category_name":"餐饮美食","address":"上海商城路873号"},{"poiid":"B2094752DB6CA1F94092","title":"网鱼网咖（张扬路店）","lon":"121.520643","lat":"31.231985","category":"248","category_name":"生活娱乐","address":"上海市 世纪大道张扬路"},{"poiid":"B2094757D065A0FC4898","title":"康源居热气涮羊肉","lon":"121.519814738","lat":"31.2348003975","category":"86","category_name":"火锅店","address":"浦东新区乳山路99号(近崂山路)"},{"poiid":"B2094654DA69A0F54293","title":"乳山三村","lon":"121.51926","lat":"31.23323","category":"47","category_name":"住宅区","address":"梅园新村"},{"poiid":"B2094654DB65A5FA4799","title":"上海新亚汤臣洲际大酒店","lon":"121.52185","lat":"31.22988","category":"213","category_name":"五星级宾馆","address":"浦东新区张杨路777号锦江汤臣洲际大酒店内(近崂山路)"},{"poiid":"B2094757D06BAAFB4192","title":"中国银行上海市浦东分行","lon":"121.52230582","lat":"31.229437427","category":"500","category_name":"未知分类","address":"浦东新区张杨路838号(近崂山东路)"},{"poiid":"B2094753D265A5F5419F","title":"陆家嘴","lon":"121.521644","lat":"31.232178","category":"500","category_name":"未知分类","address":"上海市 轨道交通2号线"},{"poiid":"B2094757D064A0F54492","title":"良友大厦","lon":"121.517939","lat":"31.230513","category":"46","category_name":"楼宇","address":"浦东新区商城路618号良友大厦内(近南泉北路)"},{"poiid":"B2094655D268A4F4429D","title":"上海民办浦东交中初级中学","lon":"121.52234","lat":"31.23329","category":"55","category_name":"中学","address":"东方路420"},{"poiid":"B2094654DA69AAFF459C","title":"陈记美食林","lon":"121.5207","lat":"31.23156","category":"82","category_name":"东北菜","address":"浦东新区商城路(近福山路)"},{"poiid":"B209475DD069A0F84492","title":"田子坊","lon":"121.52082","lat":"31.233797","category":"500","category_name":"未知分类","address":"上海市 泰康路"},{"poiid":"B2094750D26FA5FF429F","title":"聚三湘 浦东店","lon":"121.519923054","lat":"31.229261793","category":"77","category_name":"湖南菜","address":"浦东新区张杨路707号生命人寿大厦2楼(近崂山路)"},{"poiid":"B2094655D265A5F5419B","title":"EASTWESTLING","lon":"121.52062","lat":"31.2334","category":"247","category_name":"餐饮美食","address":"崂山路316号旁"}]