[{"poiid":"B2094654DA6DA7FC439C","title":"龙华寺","lon":"121.45126274222366","lat":"31.17265835484479","category":"244","category_name":"寺庙道观","address":"上海市徐汇区龙华路2853号"},{"poiid":"B2094757D06FA1F84098","title":"绍兴饭店(龙华西路店)","lon":"121.45392","lat":"31.16961","category":"75","category_name":"浙江菜","address":"徐汇区龙华西路1号(近龙华机场大门)"},{"poiid":"B2094757D069A6FB459F","title":"龙腾大道","lon":"121.45933573","lat":"31.175346131","category":"500","category_name":"未知分类","address":"上海龙腾大道"},{"poiid":"B2094654DA6DAAFC4193","title":"中国民用航空学院职业技术学院","lon":"121.45514","lat":"31.17076","category":"54","category_name":"职业技术学校","address":""},{"poiid":"B2094757D16CA6FA479B","title":"徐汇滨江龙腾大道","lon":"121.46242978","lat":"31.171125424","category":"500","category_name":"未知分类","address":"上海龙腾大道丰谷路"},{"poiid":"B2094757D06FA3FD499E","title":"晟豪驾校","lon":"121.45466","lat":"31.16915","category":"68","category_name":"快餐厅","address":"徐汇区龙华西路1号(云锦路口)"},{"poiid":"B2094757D06FA4F8499B","title":"龙华机场","lon":"121.45366","lat":"31.16978","category":"21","category_name":"飞机场","address":"徐汇区龙华西路1号(近龙华机场)"},{"poiid":"B2094757D66DA6FB459A","title":"天华科技信息园","lon":"121.45","lat":"31.1771","category":"500","category_name":"未知分类","address":"上海市徐汇区漕东支路"},{"poiid":"B2094757D068A0FF469B","title":"人道素菜欢喜斋 Jen Dow","lon":"121.4528386878","lat":"31.174444613162","category":"89","category_name":"中式素餐馆","address":"徐汇区龙华路2787号龙华迎宾馆内(近龙华寺)"},{"poiid":"B2094757D06FA4FA4792","title":"花园酒楼 龙华店","lon":"121.4508068482","lat":"31.172764130042","category":"75","category_name":"浙江菜","address":"徐汇区龙华西路109号(龙华寺对面)"},{"poiid":"B2094654DA6DA7FE4292","title":"2577创意大院","lon":"121.45108","lat":"31.17846","category":"45","category_name":"产业园区","address":"徐汇区龙华路2577号(近龙华寺)"},{"poiid":"B2094757D06FABF9439D","title":"上海民航中专","lon":"121.45486666","lat":"31.170237367","category":"253","category_name":"校园生活","address":"上海龙华西路1号"},{"poiid":"B2094757D06FA6FD4293","title":"龙腾大道","lon":"121.46263851","lat":"31.171261612","category":"260","category_name":"其他","address":"上海徐汇滨江亲水区"},{"poiid":"B2094654DA6DA4F9419C","title":"尚海湾豪庭","lon":"121.45771","lat":"31.178894","category":"47","category_name":"住宅区","address":"徐汇区宛平南路1455弄"},{"poiid":"B2094757D06FA1FA4893","title":"盛大花园","lon":"121.45329","lat":"31.179134","category":"47","category_name":"住宅区","address":"上海市徐汇区龙华路2518弄"},{"poiid":"B2094757D068A7FC459C","title":"粤珍轩(龙华店)","lon":"121.45162","lat":"31.17831","category":"72","category_name":"广东菜","address":"徐汇区龙华路2577号创意大院内(近龙华寺)"},{"poiid":"B2094757D069A3FD439F","title":"龙兆苑","lon":"121.453078","lat":"31.177168","category":"47","category_name":"住宅区","address":"上海市浦东新区上南路3500弄"},{"poiid":"B2094655D36CA1F84399","title":"龙华西路","lon":"121.45296","lat":"31.17074","category":"38","category_name":"公交车站","address":""},{"poiid":"B2094654DA6DAAFC419A","title":"华龙新苑小区","lon":"121.45664","lat":"31.17359","category":"47","category_name":"住宅区","address":"上海徐汇区云锦路50弄"},{"poiid":"B2094750D565A2FE4692","title":"上海民航职业技术学院","lon":"121.457061","lat":"31.17053","category":"671","category_name":"高校中心点","address":"上海市徐汇区龙华西路1号"},{"poiid":"B2094757D068A4FC4399","title":"越乡小吃","lon":"121.452414","lat":"31.170483","category":"68","category_name":"快餐厅","address":"徐汇区龙华西路31弄(近龙华西路桥)"},{"poiid":"B2094757D66DA1F4499A","title":"龙华寺斋堂","lon":"121.451551586","lat":"31.1751613546","category":"500","category_name":"未知分类","address":"上海龙华寺内"},{"poiid":"B2094654DA6DAAFC4192","title":"中国交通职业技术学院南校区","lon":"121.45514","lat":"31.17075","category":"54","category_name":"职业技术学校","address":""},{"poiid":"B2094654DA6DABF54493","title":"俞一小区","lon":"121.458","lat":"31.1762","category":"47","category_name":"住宅区","address":"龙华西路31弄"},{"poiid":"B2094757D069ABFA4698","title":"龙华人家","lon":"121.45276","lat":"31.17075","category":"68","category_name":"快餐厅","address":"徐汇区龙华西路31弄7号甲(近龙华西路桥)"},{"poiid":"B2094654DA6DAAFC409E","title":"上海晟豪机动车驾驶员培训有限公司","lon":"121.45805","lat":"31.17028","category":"192","category_name":"驾校","address":"机场东一路1"},{"poiid":"B2094757D068A4FD4592","title":"上海飞机设计研究院","lon":"121.457473516","lat":"31.1714706279","category":"191","category_name":"科研机构","address":"上海云锦路5号"},{"poiid":"B2094654DA6DAAFC4093","title":"新徐汇幼儿园","lon":"121.45671","lat":"31.17332","category":"57","category_name":"幼儿园","address":"徐汇区云锦路80弄10号龙华飞机场内"},{"poiid":"B2094757D069A0FC479C","title":"百匯園","lon":"121.45893307","lat":"31.17263744","category":"500","category_name":"未知分类","address":"上海市卢湾区济南路8号"},{"poiid":"B2094750DA6BA2FA499B","title":"中国商飞民用飞机试飞中心","lon":"121.457092","lat":"31.173355","category":"263","category_name":"公司","address":"云锦路5号"},{"poiid":"B2094654DA6DAAFC409F","title":"民苑小区","lon":"121.45907","lat":"31.17126","category":"47","category_name":"住宅区","address":"上海云锦路201弄"},{"poiid":"B2094750DB6CA5FD4992","title":"中华艺术宫","lon":"121.455485","lat":"31.172717","category":"500","category_name":"未知分类","address":null},{"poiid":"B2094654DA6DAAFC4092","title":"光明乳业石龙配送站","lon":"121.45722","lat":"31.17314","category":"117","category_name":"便民商店/便利店","address":""},{"poiid":"B2094654DB6BA5F5469D","title":"龙华苑","lon":"121.458","lat":"31.1738","category":"47","category_name":"住宅区","address":"龙华机场新村34-61号"},{"poiid":"B2094757D16BA7FF4192","title":"上海交通职业技术学院南校区寝室楼","lon":"121.45696673","lat":"31.172769076","category":"500","category_name":"未知分类","address":"上海市龙华西路1号"},{"poiid":"B2094655D26FA6F84798","title":"7天连锁酒店(徐家汇龙华店)","lon":"121.44962","lat":"31.17182","category":"216","category_name":"经济型连锁酒店","address":"徐汇区龙华路3100号(近龙华西路)"},{"poiid":"B2094757D169AAFC489C","title":"龙华路","lon":"121.45602473","lat":"31.174308109","category":"500","category_name":"未知分类","address":"上海龙兆苑"},{"poiid":"B2094750DA6DA4FC409D","title":"中国民用航空上海民航职业技术学院","lon":"121.455337","lat":"31.170598","category":"253","category_name":"校园生活","address":null},{"poiid":"B2094757D165A7FA4098","title":"威尔造型","lon":"121.457189738","lat":"31.1732790874","category":"148","category_name":"美容美发店","address":"上海云锦路84号"},{"poiid":"B2094654DB6BA4FE4298","title":"重庆鸡公煲 龙华店","lon":"121.44473","lat":"31.16964","category":"71","category_name":"四川菜","address":"徐汇区龙华西路(近龙华路)"},{"poiid":"B2094654DB6BA4FE429D","title":"乐购龙华店","lon":"121.45252","lat":"31.17284","category":"118","category_name":"超级市场","address":"龙华路2888"},{"poiid":"B2094655D26BA7F9449B","title":"龙华文化站电影厅","lon":"121.45315","lat":"31.17482","category":"178","category_name":"电影院","address":"龙华路2796号"},{"poiid":"B2094757D169ABFE409F","title":"上海第四机动车检测站","lon":"121.45682203","lat":"31.171134041","category":"500","category_name":"未知分类","address":"上海云锦路丰谷路口"},{"poiid":"B2094757D06BA4F94292","title":"才富大烤场","lon":"121.452207","lat":"31.172419","category":"247","category_name":"餐饮美食","address":"上海龙华路3096号"},{"poiid":"B2094654DA6DABF5439A","title":"南风烤鸭店","lon":"121.45294","lat":"31.16974","category":"68","category_name":"快餐厅","address":"徐汇区龙恒路24号(近龙华西路)"},{"poiid":"B2094655D26EABFA429B","title":"永琪美容美发(龙华店)","lon":"121.45145","lat":"31.17175","category":"148","category_name":"美容美发店","address":"龙华西路89-1识别"},{"poiid":"B2094654DA6DABF54993","title":"金龙花苑玫瑰园","lon":"121.45657","lat":"31.168856","category":"47","category_name":"住宅区","address":"丰谷路315弄"},{"poiid":"B2094654DA6EA1F9429C","title":"好德No.380","lon":"121.45278","lat":"31.17443","category":"117","category_name":"便民商店/便利店","address":"龙华路2816"},{"poiid":"B2094655D264ABFB499A","title":"快客","lon":"121.45603","lat":"31.17017","category":"117","category_name":"便民商店/便利店","address":"丰谷路191"},{"poiid":"B2094654DA6EA1F94292","title":"快客(龙华路)","lon":"121.45283","lat":"31.17458","category":"117","category_name":"便民商店/便利店","address":"龙华路2806、2810"},{"poiid":"B2094654DA6DA7FC439C","title":"龙华寺","lon":"121.45126274222366","lat":"31.17265835484479","category":"244","category_name":"寺庙道观","address":"上海市徐汇区龙华路2853号"},{"poiid":"B2094757D06FA1F84098","title":"绍兴饭店(龙华西路店)","lon":"121.45392","lat":"31.16961","category":"75","category_name":"浙江菜","address":"徐汇区龙华西路1号(近龙华机场大门)"},{"poiid":"B2094757D069A6FB459F","title":"龙腾大道","lon":"121.45933573","lat":"31.175346131","category":"500","category_name":"未知分类","address":"上海龙腾大道"},{"poiid":"B2094654DA6DAAFC4193","title":"中国民用航空学院职业技术学院","lon":"121.45514","lat":"31.17076","category":"54","category_name":"职业技术学校","address":""},{"poiid":"B2094757D16CA6FA479B","title":"徐汇滨江龙腾大道","lon":"121.46242978","lat":"31.171125424","category":"500","category_name":"未知分类","address":"上海龙腾大道丰谷路"},{"poiid":"B2094757D06FA3FD499E","title":"晟豪驾校","lon":"121.45466","lat":"31.16915","category":"68","category_name":"快餐厅","address":"徐汇区龙华西路1号(云锦路口)"},{"poiid":"B2094757D06FA4F8499B","title":"龙华机场","lon":"121.45366","lat":"31.16978","category":"21","category_name":"飞机场","address":"徐汇区龙华西路1号(近龙华机场)"},{"poiid":"B2094757D66DA6FB459A","title":"天华科技信息园","lon":"121.45","lat":"31.1771","category":"500","category_name":"未知分类","address":"上海市徐汇区漕东支路"},{"poiid":"B2094757D068A0FF469B","title":"人道素菜欢喜斋 Jen Dow","lon":"121.4528386878","lat":"31.174444613162","category":"89","category_name":"中式素餐馆","address":"徐汇区龙华路2787号龙华迎宾馆内(近龙华寺)"},{"poiid":"B2094757D06FA4FA4792","title":"花园酒楼 龙华店","lon":"121.4508068482","lat":"31.172764130042","category":"75","category_name":"浙江菜","address":"徐汇区龙华西路109号(龙华寺对面)"},{"poiid":"B2094654DA6DA7FE4292","title":"2577创意大院","lon":"121.45108","lat":"31.17846","category":"45","category_name":"产业园区","address":"徐汇区龙华路2577号(近龙华寺)"},{"poiid":"B2094757D06FABF9439D","title":"上海民航中专","lon":"121.45486666","lat":"31.170237367","category":"253","category_name":"校园生活","address":"上海龙华西路1号"},{"poiid":"B2094757D06FA6FD4293","title":"龙腾大道","lon":"121.46263851","lat":"31.171261612","category":"260","category_name":"其他","address":"上海徐汇滨江亲水区"},{"poiid":"B2094654DA6DA4F9419C","title":"尚海湾豪庭","lon":"121.45771","lat":"31.178894","category":"47","category_name":"住宅区","address":"徐汇区宛平南路1455弄"},{"poiid":"B2094757D06FA1FA4893","title":"盛大花园","lon":"121.45329","lat":"31.179134","category":"47","category_name":"住宅区","address":"上海市徐汇区龙华路2518弄"},{"poiid":"B2094757D068A7FC459C","title":"粤珍轩(龙华店)","lon":"121.45162","lat":"31.17831","category":"72","category_name":"广东菜","address":"徐汇区龙华路2577号创意大院内(近龙华寺)"},{"poiid":"B2094757D069A3FD439F","title":"龙兆苑","lon":"121.453078","lat":"31.177168","category":"47","category_name":"住宅区","address":"上海市浦东新区上南路3500弄"},{"poiid":"B2094655D36CA1F84399","title":"龙华西路","lon":"121.45296","lat":"31.17074","category":"38","category_name":"公交车站","address":""},{"poiid":"B2094654DA6DAAFC419A","title":"华龙新苑小区","lon":"121.45664","lat":"31.17359","category":"47","category_name":"住宅区","address":"上海徐汇区云锦路50弄"},{"poiid":"B2094750D565A2FE4692","title":"上海民航职业技术学院","lon":"121.457061","lat":"31.17053","category":"671","category_name":"高校中心点","address":"上海市徐汇区龙华西路1号"},{"poiid":"B2094757D068A4FC4399","title":"越乡小吃","lon":"121.452414","lat":"31.170483","category":"68","category_name":"快餐厅","address":"徐汇区龙华西路31弄(近龙华西路桥)"},{"poiid":"B2094757D66DA1F4499A","title":"龙华寺斋堂","lon":"121.451551586","lat":"31.1751613546","category":"500","category_name":"未知分类","address":"上海龙华寺内"},{"poiid":"B2094654DA6DAAFC4192","title":"中国交通职业技术学院南校区","lon":"121.45514","lat":"31.17075","category":"54","category_name":"职业技术学校","address":""},{"poiid":"B2094654DA6DABF54493","title":"俞一小区","lon":"121.458","lat":"31.1762","category":"47","category_name":"住宅区","address":"龙华西路31弄"},{"poiid":"B2094757D069ABFA4698","title":"龙华人家","lon":"121.45276","lat":"31.17075","category":"68","category_name":"快餐厅","address":"徐汇区龙华西路31弄7号甲(近龙华西路桥)"},{"poiid":"B2094654DA6DAAFC409E","title":"上海晟豪机动车驾驶员培训有限公司","lon":"121.45805","lat":"31.17028","category":"192","category_name":"驾校","address":"机场东一路1"},{"poiid":"B2094757D068A4FD4592","title":"上海飞机设计研究院","lon":"121.457473516","lat":"31.1714706279","category":"191","category_name":"科研机构","address":"上海云锦路5号"},{"poiid":"B2094654DA6DAAFC4093","title":"新徐汇幼儿园","lon":"121.45671","lat":"31.17332","category":"57","category_name":"幼儿园","address":"徐汇区云锦路80弄10号龙华飞机场内"},{"poiid":"B2094757D069A0FC479C","title":"百匯園","lon":"121.45893307","lat":"31.17263744","category":"500","category_name":"未知分类","address":"上海市卢湾区济南路8号"},{"poiid":"B2094750DA6BA2FA499B","title":"中国商飞民用飞机试飞中心","lon":"121.457092","lat":"31.173355","category":"263","category_name":"公司","address":"云锦路5号"},{"poiid":"B2094654DA6DAAFC409F","title":"民苑小区","lon":"121.45907","lat":"31.17126","category":"47","category_name":"住宅区","address":"上海云锦路201弄"},{"poiid":"B2094750DB6CA5FD4992","title":"中华艺术宫","lon":"121.455485","lat":"31.172717","category":"500","category_name":"未知分类","address":null},{"poiid":"B2094654DA6DAAFC4092","title":"光明乳业石龙配送站","lon":"121.45722","lat":"31.17314","category":"117","category_name":"便民商店/便利店","address":""},{"poiid":"B2094654DB6BA5F5469D","title":"龙华苑","lon":"121.458","lat":"31.1738","category":"47","category_name":"住宅区","address":"龙华机场新村34-61号"},{"poiid":"B2094757D16BA7FF4192","title":"上海交通职业技术学院南校区寝室楼","lon":"121.45696673","lat":"31.172769076","category":"500","category_name":"未知分类","address":"上海市龙华西路1号"},{"poiid":"B2094655D26FA6F84798","title":"7天连锁酒店(徐家汇龙华店)","lon":"121.44962","lat":"31.17182","category":"216","category_name":"经济型连锁酒店","address":"徐汇区龙华路3100号(近龙华西路)"},{"poiid":"B2094757D169AAFC489C","title":"龙华路","lon":"121.45602473","lat":"31.174308109","category":"500","category_name":"未知分类","address":"上海龙兆苑"},{"poiid":"B2094750DA6DA4FC409D","title":"中国民用航空上海民航职业技术学院","lon":"121.455337","lat":"31.170598","category":"253","category_name":"校园生活","address":null},{"poiid":"B2094757D165A7FA4098","title":"威尔造型","lon":"121.457189738","lat":"31.1732790874","category":"148","category_name":"美容美发店","address":"上海云锦路84号"},{"poiid":"B2094654DB6BA4FE4298","title":"重庆鸡公煲 龙华店","lon":"121.44473","lat":"31.16964","category":"71","category_name":"四川菜","address":"徐汇区龙华西路(近龙华路)"},{"poiid":"B2094654DB6BA4FE429D","title":"乐购龙华店","lon":"121.45252","lat":"31.17284","category":"118","category_name":"超级市场","address":"龙华路2888"},{"poiid":"B2094655D26BA7F9449B","title":"龙华文化站电影厅","lon":"121.45315","lat":"31.17482","category":"178","category_name":"电影院","address":"龙华路2796号"},{"poiid":"B2094757D169ABFE409F","title":"上海第四机动车检测站","lon":"121.45682203","lat":"31.171134041","category":"500","category_name":"未知分类","address":"上海云锦路丰谷路口"},{"poiid":"B2094757D06BA4F94292","title":"才富大烤场","lon":"121.452207","lat":"31.172419","category":"247","category_name":"餐饮美食","address":"上海龙华路3096号"},{"poiid":"B2094654DA6DABF5439A","title":"南风烤鸭店","lon":"121.45294","lat":"31.16974","category":"68","category_name":"快餐厅","address":"徐汇区龙恒路24号(近龙华西路)"},{"poiid":"B2094655D26EABFA429B","title":"永琪美容美发(龙华店)","lon":"121.45145","lat":"31.17175","category":"148","category_name":"美容美发店","address":"龙华西路89-1识别"},{"poiid":"B2094654DA6DABF54993","title":"金龙花苑玫瑰园","lon":"121.45657","lat":"31.168856","category":"47","category_name":"住宅区","address":"丰谷路315弄"},{"poiid":"B2094654DA6EA1F9429C","title":"好德No.380","lon":"121.45278","lat":"31.17443","category":"117","category_name":"便民商店/便利店","address":"龙华路2816"},{"poiid":"B2094655D264ABFB499A","title":"快客","lon":"121.45603","lat":"31.17017","category":"117","category_name":"便民商店/便利店","address":"丰谷路191"},{"poiid":"B2094654DA6EA1F94292","title":"快客(龙华路)","lon":"121.45283","lat":"31.17458","category":"117","category_name":"便民商店/便利店","address":"龙华路2806、2810"},{"poiid":"B2094654DA6DA7FC439C","title":"龙华寺","lon":"121.45126274222366","lat":"31.17265835484479","category":"244","category_name":"寺庙道观","address":"上海市徐汇区龙华路2853号"},{"poiid":"B2094757D06FA1F84098","title":"绍兴饭店(龙华西路店)","lon":"121.45392","lat":"31.16961","category":"75","category_name":"浙江菜","address":"徐汇区龙华西路1号(近龙华机场大门)"},{"poiid":"B2094757D069A6FB459F","title":"龙腾大道","lon":"121.45933573","lat":"31.175346131","category":"500","category_name":"未知分类","address":"上海龙腾大道"},{"poiid":"B2094654DA6DAAFC4193","title":"中国民用航空学院职业技术学院","lon":"121.45514","lat":"31.17076","category":"54","category_name":"职业技术学校","address":""},{"poiid":"B2094757D16CA6FA479B","title":"徐汇滨江龙腾大道","lon":"121.46242978","lat":"31.171125424","category":"500","category_name":"未知分类","address":"上海龙腾大道丰谷路"},{"poiid":"B2094757D06FA3FD499E","title":"晟豪驾校","lon":"121.45466","lat":"31.16915","category":"68","category_name":"快餐厅","address":"徐汇区龙华西路1号(云锦路口)"},{"poiid":"B2094757D06FA4F8499B","title":"龙华机场","lon":"121.45366","lat":"31.16978","category":"21","category_name":"飞机场","address":"徐汇区龙华西路1号(近龙华机场)"},{"poiid":"B2094757D66DA6FB459A","title":"天华科技信息园","lon":"121.45","lat":"31.1771","category":"500","category_name":"未知分类","address":"上海市徐汇区漕东支路"},{"poiid":"B2094757D068A0FF469B","title":"人道素菜欢喜斋 Jen Dow","lon":"121.4528386878","lat":"31.174444613162","category":"89","category_name":"中式素餐馆","address":"徐汇区龙华路2787号龙华迎宾馆内(近龙华寺)"},{"poiid":"B2094757D06FA4FA4792","title":"花园酒楼 龙华店","lon":"121.4508068482","lat":"31.172764130042","category":"75","category_name":"浙江菜","address":"徐汇区龙华西路109号(龙华寺对面)"},{"poiid":"B2094654DA6DA7FE4292","title":"2577创意大院","lon":"121.45108","lat":"31.17846","category":"45","category_name":"产业园区","address":"徐汇区龙华路2577号(近龙华寺)"},{"poiid":"B2094757D06FABF9439D","title":"上海民航中专","lon":"121.45486666","lat":"31.170237367","category":"253","category_name":"校园生活","address":"上海龙华西路1号"},{"poiid":"B2094757D06FA6FD4293","title":"龙腾大道","lon":"121.46263851","lat":"31.171261612","category":"260","category_name":"其他","address":"上海徐汇滨江亲水区"},{"poiid":"B2094654DA6DA4F9419C","title":"尚海湾豪庭","lon":"121.45771","lat":"31.178894","category":"47","category_name":"住宅区","address":"徐汇区宛平南路1455弄"},{"poiid":"B2094757D06FA1FA4893","title":"盛大花园","lon":"121.45329","lat":"31.179134","category":"47","category_name":"住宅区","address":"上海市徐汇区龙华路2518弄"},{"poiid":"B2094757D068A7FC459C","title":"粤珍轩(龙华店)","lon":"121.45162","lat":"31.17831","category":"72","category_name":"广东菜","address":"徐汇区龙华路2577号创意大院内(近龙华寺)"},{"poiid":"B2094757D069A3FD439F","title":"龙兆苑","lon":"121.453078","lat":"31.177168","category":"47","category_name":"住宅区","address":"上海市浦东新区上南路3500弄"},{"poiid":"B2094655D36CA1F84399","title":"龙华西路","lon":"121.45296","lat":"31.17074","category":"38","category_name":"公交车站","address":""},{"poiid":"B2094654DA6DAAFC419A","title":"华龙新苑小区","lon":"121.45664","lat":"31.17359","category":"47","category_name":"住宅区","address":"上海徐汇区云锦路50弄"},{"poiid":"B2094750D565A2FE4692","title":"上海民航职业技术学院","lon":"121.457061","lat":"31.17053","category":"671","category_name":"高校中心点","address":"上海市徐汇区龙华西路1号"},{"poiid":"B2094757D068A4FC4399","title":"越乡小吃","lon":"121.452414","lat":"31.170483","category":"68","category_name":"快餐厅","address":"徐汇区龙华西路31弄(近龙华西路桥)"},{"poiid":"B2094757D66DA1F4499A","title":"龙华寺斋堂","lon":"121.451551586","lat":"31.1751613546","category":"500","category_name":"未知分类","address":"上海龙华寺内"},{"poiid":"B2094654DA6DAAFC4192","title":"中国交通职业技术学院南校区","lon":"121.45514","lat":"31.17075","category":"54","category_name":"职业技术学校","address":""},{"poiid":"B2094654DA6DABF54493","title":"俞一小区","lon":"121.458","lat":"31.1762","category":"47","category_name":"住宅区","address":"龙华西路31弄"},{"poiid":"B2094757D069ABFA4698","title":"龙华人家","lon":"121.45276","lat":"31.17075","category":"68","category_name":"快餐厅","address":"徐汇区龙华西路31弄7号甲(近龙华西路桥)"},{"poiid":"B2094654DA6DAAFC409E","title":"上海晟豪机动车驾驶员培训有限公司","lon":"121.45805","lat":"31.17028","category":"192","category_name":"驾校","address":"机场东一路1"},{"poiid":"B2094757D068A4FD4592","title":"上海飞机设计研究院","lon":"121.457473516","lat":"31.1714706279","category":"191","category_name":"科研机构","address":"上海云锦路5号"},{"poiid":"B2094654DA6DAAFC4093","title":"新徐汇幼儿园","lon":"121.45671","lat":"31.17332","category":"57","category_name":"幼儿园","address":"徐汇区云锦路80弄10号龙华飞机场内"},{"poiid":"B2094757D069A0FC479C","title":"百匯園","lon":"121.45893307","lat":"31.17263744","category":"500","category_name":"未知分类","address":"上海市卢湾区济南路8号"},{"poiid":"B2094750DA6BA2FA499B","title":"中国商飞民用飞机试飞中心","lon":"121.457092","lat":"31.173355","category":"263","category_name":"公司","address":"云锦路5号"},{"poiid":"B2094654DA6DAAFC409F","title":"民苑小区","lon":"121.45907","lat":"31.17126","category":"47","category_name":"住宅区","address":"上海云锦路201弄"},{"poiid":"B2094750DB6CA5FD4992","title":"中华艺术宫","lon":"121.455485","lat":"31.172717","category":"500","category_name":"未知分类","address":null},{"poiid":"B2094654DA6DAAFC4092","title":"光明乳业石龙配送站","lon":"121.45722","lat":"31.17314","category":"117","category_name":"便民商店/便利店","address":""},{"poiid":"B2094654DB6BA5F5469D","title":"龙华苑","lon":"121.458","lat":"31.1738","category":"47","category_name":"住宅区","address":"龙华机场新村34-61号"},{"poiid":"B2094757D16BA7FF4192","title":"上海交通职业技术学院南校区寝室楼","lon":"121.45696673","lat":"31.172769076","category":"500","category_name":"未知分类","address":"上海市龙华西路1号"},{"poiid":"B2094655D26FA6F84798","title":"7天连锁酒店(徐家汇龙华店)","lon":"121.44962","lat":"31.17182","category":"216","category_name":"经济型连锁酒店","address":"徐汇区龙华路3100号(近龙华西路)"},{"poiid":"B2094757D169AAFC489C","title":"龙华路","lon":"121.45602473","lat":"31.174308109","category":"500","category_name":"未知分类","address":"上海龙兆苑"},{"poiid":"B2094750DA6DA4FC409D","title":"中国民用航空上海民航职业技术学院","lon":"121.455337","lat":"31.170598","category":"253","category_name":"校园生活","address":null},{"poiid":"B2094757D165A7FA4098","title":"威尔造型","lon":"121.457189738","lat":"31.1732790874","category":"148","category_name":"美容美发店","address":"上海云锦路84号"},{"poiid":"B2094654DB6BA4FE4298","title":"重庆鸡公煲 龙华店","lon":"121.44473","lat":"31.16964","category":"71","category_name":"四川菜","address":"徐汇区龙华西路(近龙华路)"},{"poiid":"B2094654DB6BA4FE429D","title":"乐购龙华店","lon":"121.45252","lat":"31.17284","category":"118","category_name":"超级市场","address":"龙华路2888"},{"poiid":"B2094655D26BA7F9449B","title":"龙华文化站电影厅","lon":"121.45315","lat":"31.17482","category":"178","category_name":"电影院","address":"龙华路2796号"},{"poiid":"B2094757D169ABFE409F","title":"上海第四机动车检测站","lon":"121.45682203","lat":"31.171134041","category":"500","category_name":"未知分类","address":"上海云锦路丰谷路口"},{"poiid":"B2094757D06BA4F94292","title":"才富大烤场","lon":"121.452207","lat":"31.172419","category":"247","category_name":"餐饮美食","address":"上海龙华路3096号"},{"poiid":"B2094654DA6DABF5439A","title":"南风烤鸭店","lon":"121.45294","lat":"31.16974","category":"68","category_name":"快餐厅","address":"徐汇区龙恒路24号(近龙华西路)"},{"poiid":"B2094655D26EABFA429B","title":"永琪美容美发(龙华店)","lon":"121.45145","lat":"31.17175","category":"148","category_name":"美容美发店","address":"龙华西路89-1识别"},{"poiid":"B2094654DA6DABF54993","title":"金龙花苑玫瑰园","lon":"121.45657","lat":"31.168856","category":"47","category_name":"住宅区","address":"丰谷路315弄"},{"poiid":"B2094654DA6EA1F9429C","title":"好德No.380","lon":"121.45278","lat":"31.17443","category":"117","category_name":"便民商店/便利店","address":"龙华路2816"},{"poiid":"B2094655D264ABFB499A","title":"快客","lon":"121.45603","lat":"31.17017","category":"117","category_name":"便民商店/便利店","address":"丰谷路191"},{"poiid":"B2094654DA6EA1F94292","title":"快客(龙华路)","lon":"121.45283","lat":"31.17458","category":"117","category_name":"便民商店/便利店","address":"龙华路2806、2810"},{"poiid":"B2094654DA6DA7FC439C","title":"龙华寺","lon":"121.45126274222366","lat":"31.17265835484479","category":"244","category_name":"寺庙道观","address":"上海市徐汇区龙华路2853号"},{"poiid":"B2094757D06FA1F84098","title":"绍兴饭店(龙华西路店)","lon":"121.45392","lat":"31.16961","category":"75","category_name":"浙江菜","address":"徐汇区龙华西路1号(近龙华机场大门)"},{"poiid":"B2094757D069A6FB459F","title":"龙腾大道","lon":"121.45933573","lat":"31.175346131","category":"500","category_name":"未知分类","address":"上海龙腾大道"},{"poiid":"B2094654DA6DAAFC4193","title":"中国民用航空学院职业技术学院","lon":"121.45514","lat":"31.17076","category":"54","category_name":"职业技术学校","address":""},{"poiid":"B2094757D16CA6FA479B","title":"徐汇滨江龙腾大道","lon":"121.46242978","lat":"31.171125424","category":"500","category_name":"未知分类","address":"上海龙腾大道丰谷路"},{"poiid":"B2094757D06FA3FD499E","title":"晟豪驾校","lon":"121.45466","lat":"31.16915","category":"68","category_name":"快餐厅","address":"徐汇区龙华西路1号(云锦路口)"},{"poiid":"B2094757D06FA4F8499B","title":"龙华机场","lon":"121.45366","lat":"31.16978","category":"21","category_name":"飞机场","address":"徐汇区龙华西路1号(近龙华机场)"},{"poiid":"B2094757D66DA6FB459A","title":"天华科技信息园","lon":"121.45","lat":"31.1771","category":"500","category_name":"未知分类","address":"上海市徐汇区漕东支路"},{"poiid":"B2094757D068A0FF469B","title":"人道素菜欢喜斋 Jen Dow","lon":"121.4528386878","lat":"31.174444613162","category":"89","category_name":"中式素餐馆","address":"徐汇区龙华路2787号龙华迎宾馆内(近龙华寺)"},{"poiid":"B2094757D06FA4FA4792","title":"花园酒楼 龙华店","lon":"121.4508068482","lat":"31.172764130042","category":"75","category_name":"浙江菜","address":"徐汇区龙华西路109号(龙华寺对面)"},{"poiid":"B2094654DA6DA7FE4292","title":"2577创意大院","lon":"121.45108","lat":"31.17846","category":"45","category_name":"产业园区","address":"徐汇区龙华路2577号(近龙华寺)"},{"poiid":"B2094757D06FABF9439D","title":"上海民航中专","lon":"121.45486666","lat":"31.170237367","category":"253","category_name":"校园生活","address":"上海龙华西路1号"},{"poiid":"B2094757D06FA6FD4293","title":"龙腾大道","lon":"121.46263851","lat":"31.171261612","category":"260","category_name":"其他","address":"上海徐汇滨江亲水区"},{"poiid":"B2094654DA6DA4F9419C","title":"尚海湾豪庭","lon":"121.45771","lat":"31.178894","category":"47","category_name":"住宅区","address":"徐汇区宛平南路1455弄"},{"poiid":"B2094757D06FA1FA4893","title":"盛大花园","lon":"121.45329","lat":"31.179134","category":"47","category_name":"住宅区","address":"上海市徐汇区龙华路2518弄"},{"poiid":"B2094757D068A7FC459C","title":"粤珍轩(龙华店)","lon":"121.45162","lat":"31.17831","category":"72","category_name":"广东菜","address":"徐汇区龙华路2577号创意大院内(近龙华寺)"},{"poiid":"B2094757D069A3FD439F","title":"龙兆苑","lon":"121.453078","lat":"31.177168","category":"47","category_name":"住宅区","address":"上海市浦东新区上南路3500弄"},{"poiid":"B2094655D36CA1F84399","title":"龙华西路","lon":"121.45296","lat":"31.17074","category":"38","category_name":"公交车站","address":""},{"poiid":"B2094654DA6DAAFC419A","title":"华龙新苑小区","lon":"121.45664","lat":"31.17359","category":"47","category_name":"住宅区","address":"上海徐汇区云锦路50弄"},{"poiid":"B2094750D565A2FE4692","title":"上海民航职业技术学院","lon":"121.457061","lat":"31.17053","category":"671","category_name":"高校中心点","address":"上海市徐汇区龙华西路1号"},{"poiid":"B2094757D068A4FC4399","title":"越乡小吃","lon":"121.452414","lat":"31.170483","category":"68","category_name":"快餐厅","address":"徐汇区龙华西路31弄(近龙华西路桥)"},{"poiid":"B2094757D66DA1F4499A","title":"龙华寺斋堂","lon":"121.451551586","lat":"31.1751613546","category":"500","category_name":"未知分类","address":"上海龙华寺内"},{"poiid":"B2094654DA6DAAFC4192","title":"中国交通职业技术学院南校区","lon":"121.45514","lat":"31.17075","category":"54","category_name":"职业技术学校","address":""},{"poiid":"B2094654DA6DABF54493","title":"俞一小区","lon":"121.458","lat":"31.1762","category":"47","category_name":"住宅区","address":"龙华西路31弄"},{"poiid":"B2094757D069ABFA4698","title":"龙华人家","lon":"121.45276","lat":"31.17075","category":"68","category_name":"快餐厅","address":"徐汇区龙华西路31弄7号甲(近龙华西路桥)"},{"poiid":"B2094654DA6DAAFC409E","title":"上海晟豪机动车驾驶员培训有限公司","lon":"121.45805","lat":"31.17028","category":"192","category_name":"驾校","address":"机场东一路1"},{"poiid":"B2094757D068A4FD4592","title":"上海飞机设计研究院","lon":"121.457473516","lat":"31.1714706279","category":"191","category_name":"科研机构","address":"上海云锦路5号"},{"poiid":"B2094654DA6DAAFC4093","title":"新徐汇幼儿园","lon":"121.45671","lat":"31.17332","category":"57","category_name":"幼儿园","address":"徐汇区云锦路80弄10号龙华飞机场内"},{"poiid":"B2094757D069A0FC479C","title":"百匯園","lon":"121.45893307","lat":"31.17263744","category":"500","category_name":"未知分类","address":"上海市卢湾区济南路8号"},{"poiid":"B2094750DA6BA2FA499B","title":"中国商飞民用飞机试飞中心","lon":"121.457092","lat":"31.173355","category":"263","category_name":"公司","address":"云锦路5号"},{"poiid":"B2094654DA6DAAFC409F","title":"民苑小区","lon":"121.45907","lat":"31.17126","category":"47","category_name":"住宅区","address":"上海云锦路201弄"},{"poiid":"B2094750DB6CA5FD4992","title":"中华艺术宫","lon":"121.455485","lat":"31.172717","category":"500","category_name":"未知分类","address":null},{"poiid":"B2094654DA6DAAFC4092","title":"光明乳业石龙配送站","lon":"121.45722","lat":"31.17314","category":"117","category_name":"便民商店/便利店","address":""},{"poiid":"B2094654DB6BA5F5469D","title":"龙华苑","lon":"121.458","lat":"31.1738","category":"47","category_name":"住宅区","address":"龙华机场新村34-61号"},{"poiid":"B2094757D16BA7FF4192","title":"上海交通职业技术学院南校区寝室楼","lon":"121.45696673","lat":"31.172769076","category":"500","category_name":"未知分类","address":"上海市龙华西路1号"},{"poiid":"B2094655D26FA6F84798","title":"7天连锁酒店(徐家汇龙华店)","lon":"121.44962","lat":"31.17182","category":"216","category_name":"经济型连锁酒店","address":"徐汇区龙华路3100号(近龙华西路)"},{"poiid":"B2094757D169AAFC489C","title":"龙华路","lon":"121.45602473","lat":"31.174308109","category":"500","category_name":"未知分类","address":"上海龙兆苑"},{"poiid":"B2094750DA6DA4FC409D","title":"中国民用航空上海民航职业技术学院","lon":"121.455337","lat":"31.170598","category":"253","category_name":"校园生活","address":null},{"poiid":"B2094757D165A7FA4098","title":"威尔造型","lon":"121.457189738","lat":"31.1732790874","category":"148","category_name":"美容美发店","address":"上海云锦路84号"},{"poiid":"B2094654DB6BA4FE4298","title":"重庆鸡公煲 龙华店","lon":"121.44473","lat":"31.16964","category":"71","category_name":"四川菜","address":"徐汇区龙华西路(近龙华路)"},{"poiid":"B2094654DB6BA4FE429D","title":"乐购龙华店","lon":"121.45252","lat":"31.17284","category":"118","category_name":"超级市场","address":"龙华路2888"},{"poiid":"B2094655D26BA7F9449B","title":"龙华文化站电影厅","lon":"121.45315","lat":"31.17482","category":"178","category_name":"电影院","address":"龙华路2796号"},{"poiid":"B2094757D169ABFE409F","title":"上海第四机动车检测站","lon":"121.45682203","lat":"31.171134041","category":"500","category_name":"未知分类","address":"上海云锦路丰谷路口"},{"poiid":"B2094757D06BA4F94292","title":"才富大烤场","lon":"121.452207","lat":"31.172419","category":"247","category_name":"餐饮美食","address":"上海龙华路3096号"},{"poiid":"B2094654DA6DABF5439A","title":"南风烤鸭店","lon":"121.45294","lat":"31.16974","category":"68","category_name":"快餐厅","address":"徐汇区龙恒路24号(近龙华西路)"},{"poiid":"B2094655D26EABFA429B","title":"永琪美容美发(龙华店)","lon":"121.45145","lat":"31.17175","category":"148","category_name":"美容美发店","address":"龙华西路89-1识别"},{"poiid":"B2094654DA6DABF54993","title":"金龙花苑玫瑰园","lon":"121.45657","lat":"31.168856","category":"47","category_name":"住宅区","address":"丰谷路315弄"},{"poiid":"B2094654DA6EA1F9429C","title":"好德No.380","lon":"121.45278","lat":"31.17443","category":"117","category_name":"便民商店/便利店","address":"龙华路2816"},{"poiid":"B2094655D264ABFB499A","title":"快客","lon":"121.45603","lat":"31.17017","category":"117","category_name":"便民商店/便利店","address":"丰谷路191"},{"poiid":"B2094654DA6EA1F94292","title":"快客(龙华路)","lon":"121.45283","lat":"31.17458","category":"117","category_name":"便民商店/便利店","address":"龙华路2806、2810"}]