[{"poiid":"B2094654DB6FA0F4499E","title":"上海野生动物园","lon":"121.712745","lat":"31.061231","category":"68","category_name":"快餐厅","address":"上海市南汇区南六公路178号"},{"poiid":"B2094655D26DAAFB429C","title":"艺泰安邦花园(南季路)","lon":"121.71056","lat":"31.05892","category":"47","category_name":"住宅区","address":""},{"poiid":"B2094757D06AA7F8439A","title":"艺泰安邦","lon":"121.7142847","lat":"31.0560212","category":"500","category_name":"未知分类","address":"上海南汇区三灶镇南六公路399弄"},{"poiid":"B2094757D06AA7F44398","title":"沈家花园(南汇店)","lon":"121.71406","lat":"31.03715","category":"47","category_name":"住宅区","address":"浦东新区沪南公路9356弄1号(近南芦公路)"},{"poiid":"B2094655D265ABF94998","title":"上海野生动物园(正门)","lon":"121.71458","lat":"31.05408","category":"680","category_name":"楼宇机构","address":""},{"poiid":"B2094757D06BA2FC4793","title":"韶梦酒店(南六公路店)","lon":"121.71694","lat":"31.04472","category":"76","category_name":"上海菜","address":"浦东新区南六公路188号(枫丹白露会所旁)"},{"poiid":"B2094654DB6FA0F44892","title":"桃城度假村","lon":"121.71375","lat":"31.03866","category":"215","category_name":"三星级宾馆","address":"上海市浦东新区南汇沪南公路9191号(近南六公路)"},{"poiid":"B2094655D26BA1FF459E","title":"南六公路艺泰安邦","lon":"121.71402","lat":"31.05828","category":"38","category_name":"公交车站","address":""},{"poiid":"B2094757D568A1FD499A","title":"火烈鸟生态区","lon":"121.718136","lat":"31.055163","category":"197","category_name":"动物园","address":"中国上海市浦东新区"},{"poiid":"B2094655D36CA2FB4498","title":"三灶","lon":"121.71356","lat":"31.06179","category":"38","category_name":"公交车站","address":""},{"poiid":"B2094655D26BA1FF4592","title":"南六公路","lon":"121.71359","lat":"31.06274","category":"38","category_name":"公交车站","address":"上海南六公路"},{"poiid":"B2094757D568A4FE4693","title":"金丝猴岛","lon":"121.718678","lat":"31.052376","category":"607","category_name":"一般景点","address":"中国上海市浦东新区"},{"poiid":"B2094655D26DA6FD4999","title":"桃源花苑一区(南六公路)","lon":"121.71185","lat":"31.04637","category":"47","category_name":"住宅区","address":"南六公路99弄17支弄1-131号"},{"poiid":"B2094654DB64AAFA429A","title":"南瑞别墅(南六公路)","lon":"121.70959","lat":"31.04444","category":"47","category_name":"住宅区","address":"南六公路99弄23支弄7"},{"poiid":"B2094655D26FA4F9479A","title":"桃源花苑一区(西门)","lon":"121.71185","lat":"31.04637","category":"47","category_name":"住宅区","address":"南六公路99弄17支弄1-131号"},{"poiid":"B2094757D164A6F4459A","title":"清风人家(薛家宅店)","lon":"121.71367172","lat":"31.036383115","category":"247","category_name":"餐饮美食","address":"沪南公路9356弄汇展商务广场5幢2楼近南六公路"},{"poiid":"B209475DDB68A2F9449B","title":"上海野生动物园","lon":"121.712135","lat":"31.047901","category":"627","category_name":"一般地点标志","address":"上海市 上海市浦东新区"},{"poiid":"B2094655D26BAAFE4399","title":"莱茵美墅","lon":"121.71218","lat":"31.067366","category":"47","category_name":"住宅区","address":"南六公路567弄"},{"poiid":"B2094757D66DAAFC4299","title":"观鹤楼大酒店","lon":"121.72323608","lat":"31.051803588","category":"76","category_name":"上海菜","address":"浦东新区三灶镇南六公路178号上海野生动物园内"},{"poiid":"B2094654DB69A7FA4199","title":"九九别墅","lon":"121.71282","lat":"31.04402","category":"47","category_name":"住宅区","address":"上海市南汇区南六公路99弄"},{"poiid":"B2094757D168A3F9459F","title":"汤记大酒店","lon":"121.718920157","lat":"31.0683564883","category":"76","category_name":"上海菜","address":"浦东新区宣桥镇三灶南六公路498号(近艺泰安邦花园)"},{"poiid":"B2094757D16DA2FD449C","title":"南美水疗","lon":"121.716122628","lat":"31.0362881135","category":"148","category_name":"美容美发店","address":"上海市浦东新区沪南公路"},{"poiid":"B2094655D264A0FA4293","title":"碧盈苑","lon":"121.70959","lat":"31.04445","category":"47","category_name":"住宅区","address":"南六公路99弄20支弄"},{"poiid":"B2094757D06AA6FB4693","title":"下盐公路","lon":"121.714472","lat":"31.064128","category":"500","category_name":"未知分类","address":"上海下盐公路"},{"poiid":"B2094757D164AAF8409B","title":"凯迪枫丹白露","lon":"121.717674","lat":"31.044136","category":"252","category_name":"楼宇机构","address":"上海市浦东新区南六公路188号"},{"poiid":"B2094757D464A7FE439E","title":"沪华海鲜大酒楼 南汇店","lon":"121.71684","lat":"31.0341","category":"76","category_name":"上海菜","address":"浦东新区沪南公路9356弄3-5号汇展国际商务广场"},{"poiid":"B2094757D169AAF9409D","title":"爱西西里 上海野生动物园店","lon":"121.72226235","lat":"31.05508569","category":"500","category_name":"未知分类","address":"上海市浦东新区南六公路"},{"poiid":"B2094757D66DA4FF4199","title":"112路區間(管弄新村－人民廣場)","lon":"121.71950531","lat":"31.057081222","category":"500","category_name":"未知分类","address":"上海管弄新村－人民廣場"},{"poiid":"B2094654DB6FA0F5409D","title":"中国电信三灶营业处","lon":"121.71302","lat":"31.06433","category":"151","category_name":"电讯营业厅","address":"三灶镇"},{"poiid":"B2094655D26BA1FF459D","title":"南六公路光辉","lon":"121.71335","lat":"31.06483","category":"38","category_name":"公交车站","address":""},{"poiid":"B2094654DB6FA7FD419C","title":"中新酒家","lon":"121.72158","lat":"31.04977","category":"257","category_name":"中餐厅","address":""},{"poiid":"B2094757D66BA3FC499D","title":"柴火灶土菜馆","lon":"121.7130805","lat":"31.0669372","category":"87","category_name":"特色／地方风味餐厅","address":"浦东新区南六公路609号(近上海野生动物园)"},{"poiid":"B2094654DB6FA0F5409C","title":"山田音乐茶庄","lon":"121.71299","lat":"31.06469","category":"66","category_name":"茶艺馆","address":""},{"poiid":"B2094757D16AA2FB4092","title":"南美水疗(南汇店)","lon":"121.698909357","lat":"31.0548116847","category":"149","category_name":"洗浴推拿场所","address":"浦东新区沪南公路9356弄8-11号(近南美汇展国际商务广场)"},{"poiid":"B2094655D36CA7F54399","title":"光辉","lon":"121.71319","lat":"31.06638","category":"38","category_name":"公交车站","address":""},{"poiid":"B2094655D26EAAFD409A","title":"建德大酒店","lon":"121.7144","lat":"31.06625","category":"250","category_name":"公园户外","address":"南六公路570号2层"},{"poiid":"B2094654DB64AAFA419D","title":"三灶影剧院","lon":"121.70863","lat":"31.068365","category":"178","category_name":"电影院","address":"中市尺"},{"poiid":"B209475CD76EA2FA4293","title":"上海野生动物园","lon":"121.725975","lat":"31.052228","category":"500","category_name":"未知分类","address":"上海市 上海浦东南汇"},{"poiid":"B2094757D168AAFE479C","title":"汇展国际商务","lon":"121.716978","lat":"31.037392","category":"500","category_name":"未知分类","address":"上海沪南公路薛家宅"},{"poiid":"B2094654DB6FA6FF499C","title":"上海两港装饰城","lon":"121.71015","lat":"31.07391","category":"123","category_name":"家具建材市场","address":"浦东新区南六公路799号"},{"poiid":"B2094655D26FA4F94893","title":"快客","lon":"121.71264","lat":"31.06853","category":"117","category_name":"便民商店/便利店","address":"三灶幼儿园西南"},{"poiid":"B2094655D26FA4F94798","title":"南瑞别墅(北门)","lon":"121.70958","lat":"31.04445","category":"656","category_name":"大门","address":"南六公路99弄23支弄7"},{"poiid":"B2094654DB64A0F94292","title":"枫丹白露别墅小区(南门)","lon":"121.71526","lat":"31.04347","category":"48","category_name":"楼宇大门","address":"南六公路188号"},{"poiid":"B2094654DB6FA6FE419F","title":"新时代阿军发型形象工作室三灶店","lon":"121.70822","lat":"31.06809","category":"148","category_name":"美容美发店","address":""},{"poiid":"B2094757D464A7FE4498","title":"清风人家 汇展店 Chinfond Teahouse","lon":"121.716487","lat":"31.037743","category":"260","category_name":"其他","address":"浦东新区沪南公路9356弄汇展国际5幢2楼(近南芦公路)"},{"poiid":"B2094757D16EA1F8469B","title":"两港装饰城","lon":"121.711680557","lat":"31.073512904","category":"500","category_name":"未知分类","address":"上海近郊南汇区宣桥镇南六公路699弄两港装饰城(近野生动物园)  "},{"poiid":"B2094757D169A0F44298","title":"瓦屑镇","lon":"121.71325405","lat":"31.070073026","category":"38","category_name":"公交车站","address":"上海市浦东新区瓦屑镇"},{"poiid":"B2094655D36DA0FF469B","title":"薛家宅","lon":"121.71679","lat":"31.03732","category":"38","category_name":"公交车站","address":""},{"poiid":"B2094654DB6FA7FD4598","title":"上海农村商业银行三灶支行","lon":"121.71341","lat":"31.06924","category":"150","category_name":"银行","address":"南六公路636"},{"poiid":"B2094757D569A3F84098","title":"金茂大厦附楼","lon":"121.7150729","lat":"31.0359887","category":"46","category_name":"楼宇","address":"新世纪大道88号"},{"poiid":"B2094654DB6FA0F4499E","title":"上海野生动物园","lon":"121.712745","lat":"31.061231","category":"68","category_name":"快餐厅","address":"上海市南汇区南六公路178号"},{"poiid":"B2094655D26DAAFB429C","title":"艺泰安邦花园(南季路)","lon":"121.71056","lat":"31.05892","category":"47","category_name":"住宅区","address":""},{"poiid":"B2094757D06AA7F8439A","title":"艺泰安邦","lon":"121.7142847","lat":"31.0560212","category":"500","category_name":"未知分类","address":"上海南汇区三灶镇南六公路399弄"},{"poiid":"B2094757D06AA7F44398","title":"沈家花园(南汇店)","lon":"121.71406","lat":"31.03715","category":"47","category_name":"住宅区","address":"浦东新区沪南公路9356弄1号(近南芦公路)"},{"poiid":"B2094655D265ABF94998","title":"上海野生动物园(正门)","lon":"121.71458","lat":"31.05408","category":"680","category_name":"楼宇机构","address":""},{"poiid":"B2094757D06BA2FC4793","title":"韶梦酒店(南六公路店)","lon":"121.71694","lat":"31.04472","category":"76","category_name":"上海菜","address":"浦东新区南六公路188号(枫丹白露会所旁)"},{"poiid":"B2094654DB6FA0F44892","title":"桃城度假村","lon":"121.71375","lat":"31.03866","category":"215","category_name":"三星级宾馆","address":"上海市浦东新区南汇沪南公路9191号(近南六公路)"},{"poiid":"B2094655D26BA1FF459E","title":"南六公路艺泰安邦","lon":"121.71402","lat":"31.05828","category":"38","category_name":"公交车站","address":""},{"poiid":"B2094757D568A1FD499A","title":"火烈鸟生态区","lon":"121.718136","lat":"31.055163","category":"197","category_name":"动物园","address":"中国上海市浦东新区"},{"poiid":"B2094655D36CA2FB4498","title":"三灶","lon":"121.71356","lat":"31.06179","category":"38","category_name":"公交车站","address":""},{"poiid":"B2094655D26BA1FF4592","title":"南六公路","lon":"121.71359","lat":"31.06274","category":"38","category_name":"公交车站","address":"上海南六公路"},{"poiid":"B2094757D568A4FE4693","title":"金丝猴岛","lon":"121.718678","lat":"31.052376","category":"607","category_name":"一般景点","address":"中国上海市浦东新区"},{"poiid":"B2094655D26DA6FD4999","title":"桃源花苑一区(南六公路)","lon":"121.71185","lat":"31.04637","category":"47","category_name":"住宅区","address":"南六公路99弄17支弄1-131号"},{"poiid":"B2094654DB64AAFA429A","title":"南瑞别墅(南六公路)","lon":"121.70959","lat":"31.04444","category":"47","category_name":"住宅区","address":"南六公路99弄23支弄7"},{"poiid":"B2094655D26FA4F9479A","title":"桃源花苑一区(西门)","lon":"121.71185","lat":"31.04637","category":"47","category_name":"住宅区","address":"南六公路99弄17支弄1-131号"},{"poiid":"B2094757D164A6F4459A","title":"清风人家(薛家宅店)","lon":"121.71367172","lat":"31.036383115","category":"247","category_name":"餐饮美食","address":"沪南公路9356弄汇展商务广场5幢2楼近南六公路"},{"poiid":"B209475DDB68A2F9449B","title":"上海野生动物园","lon":"121.712135","lat":"31.047901","category":"627","category_name":"一般地点标志","address":"上海市 上海市浦东新区"},{"poiid":"B2094655D26BAAFE4399","title":"莱茵美墅","lon":"121.71218","lat":"31.067366","category":"47","category_name":"住宅区","address":"南六公路567弄"},{"poiid":"B2094757D66DAAFC4299","title":"观鹤楼大酒店","lon":"121.72323608","lat":"31.051803588","category":"76","category_name":"上海菜","address":"浦东新区三灶镇南六公路178号上海野生动物园内"},{"poiid":"B2094654DB69A7FA4199","title":"九九别墅","lon":"121.71282","lat":"31.04402","category":"47","category_name":"住宅区","address":"上海市南汇区南六公路99弄"},{"poiid":"B2094757D168A3F9459F","title":"汤记大酒店","lon":"121.718920157","lat":"31.0683564883","category":"76","category_name":"上海菜","address":"浦东新区宣桥镇三灶南六公路498号(近艺泰安邦花园)"},{"poiid":"B2094757D16DA2FD449C","title":"南美水疗","lon":"121.716122628","lat":"31.0362881135","category":"148","category_name":"美容美发店","address":"上海市浦东新区沪南公路"},{"poiid":"B2094655D264A0FA4293","title":"碧盈苑","lon":"121.70959","lat":"31.04445","category":"47","category_name":"住宅区","address":"南六公路99弄20支弄"},{"poiid":"B2094757D06AA6FB4693","title":"下盐公路","lon":"121.714472","lat":"31.064128","category":"500","category_name":"未知分类","address":"上海下盐公路"},{"poiid":"B2094757D164AAF8409B","title":"凯迪枫丹白露","lon":"121.717674","lat":"31.044136","category":"252","category_name":"楼宇机构","address":"上海市浦东新区南六公路188号"},{"poiid":"B2094757D464A7FE439E","title":"沪华海鲜大酒楼 南汇店","lon":"121.71684","lat":"31.0341","category":"76","category_name":"上海菜","address":"浦东新区沪南公路9356弄3-5号汇展国际商务广场"},{"poiid":"B2094757D169AAF9409D","title":"爱西西里 上海野生动物园店","lon":"121.72226235","lat":"31.05508569","category":"500","category_name":"未知分类","address":"上海市浦东新区南六公路"},{"poiid":"B2094757D66DA4FF4199","title":"112路區間(管弄新村－人民廣場)","lon":"121.71950531","lat":"31.057081222","category":"500","category_name":"未知分类","address":"上海管弄新村－人民廣場"},{"poiid":"B2094654DB6FA0F5409D","title":"中国电信三灶营业处","lon":"121.71302","lat":"31.06433","category":"151","category_name":"电讯营业厅","address":"三灶镇"},{"poiid":"B2094655D26BA1FF459D","title":"南六公路光辉","lon":"121.71335","lat":"31.06483","category":"38","category_name":"公交车站","address":""},{"poiid":"B2094654DB6FA7FD419C","title":"中新酒家","lon":"121.72158","lat":"31.04977","category":"257","category_name":"中餐厅","address":""},{"poiid":"B2094757D66BA3FC499D","title":"柴火灶土菜馆","lon":"121.7130805","lat":"31.0669372","category":"87","category_name":"特色／地方风味餐厅","address":"浦东新区南六公路609号(近上海野生动物园)"},{"poiid":"B2094654DB6FA0F5409C","title":"山田音乐茶庄","lon":"121.71299","lat":"31.06469","category":"66","category_name":"茶艺馆","address":""},{"poiid":"B2094757D16AA2FB4092","title":"南美水疗(南汇店)","lon":"121.698909357","lat":"31.0548116847","category":"149","category_name":"洗浴推拿场所","address":"浦东新区沪南公路9356弄8-11号(近南美汇展国际商务广场)"},{"poiid":"B2094655D36CA7F54399","title":"光辉","lon":"121.71319","lat":"31.06638","category":"38","category_name":"公交车站","address":""},{"poiid":"B2094655D26EAAFD409A","title":"建德大酒店","lon":"121.7144","lat":"31.06625","category":"250","category_name":"公园户外","address":"南六公路570号2层"},{"poiid":"B2094654DB64AAFA419D","title":"三灶影剧院","lon":"121.70863","lat":"31.068365","category":"178","category_name":"电影院","address":"中市尺"},{"poiid":"B209475CD76EA2FA4293","title":"上海野生动物园","lon":"121.725975","lat":"31.052228","category":"500","category_name":"未知分类","address":"上海市 上海浦东南汇"},{"poiid":"B2094757D168AAFE479C","title":"汇展国际商务","lon":"121.716978","lat":"31.037392","category":"500","category_name":"未知分类","address":"上海沪南公路薛家宅"},{"poiid":"B2094654DB6FA6FF499C","title":"上海两港装饰城","lon":"121.71015","lat":"31.07391","category":"123","category_name":"家具建材市场","address":"浦东新区南六公路799号"},{"poiid":"B2094655D26FA4F94893","title":"快客","lon":"121.71264","lat":"31.06853","category":"117","category_name":"便民商店/便利店","address":"三灶幼儿园西南"},{"poiid":"B2094655D26FA4F94798","title":"南瑞别墅(北门)","lon":"121.70958","lat":"31.04445","category":"656","category_name":"大门","address":"南六公路99弄23支弄7"},{"poiid":"B2094654DB64A0F94292","title":"枫丹白露别墅小区(南门)","lon":"121.71526","lat":"31.04347","category":"48","category_name":"楼宇大门","address":"南六公路188号"},{"poiid":"B2094654DB6FA6FE419F","title":"新时代阿军发型形象工作室三灶店","lon":"121.70822","lat":"31.06809","category":"148","category_name":"美容美发店","address":""},{"poiid":"B2094757D464A7FE4498","title":"清风人家 汇展店 Chinfond Teahouse","lon":"121.716487","lat":"31.037743","category":"260","category_name":"其他","address":"浦东新区沪南公路9356弄汇展国际5幢2楼(近南芦公路)"},{"poiid":"B2094757D16EA1F8469B","title":"两港装饰城","lon":"121.711680557","lat":"31.073512904","category":"500","category_name":"未知分类","address":"上海近郊南汇区宣桥镇南六公路699弄两港装饰城(近野生动物园)  "},{"poiid":"B2094757D169A0F44298","title":"瓦屑镇","lon":"121.71325405","lat":"31.070073026","category":"38","category_name":"公交车站","address":"上海市浦东新区瓦屑镇"},{"poiid":"B2094655D36DA0FF469B","title":"薛家宅","lon":"121.71679","lat":"31.03732","category":"38","category_name":"公交车站","address":""},{"poiid":"B2094654DB6FA7FD4598","title":"上海农村商业银行三灶支行","lon":"121.71341","lat":"31.06924","category":"150","category_name":"银行","address":"南六公路636"},{"poiid":"B2094757D569A3F84098","title":"金茂大厦附楼","lon":"121.7150729","lat":"31.0359887","category":"46","category_name":"楼宇","address":"新世纪大道88号"}]