[{"poiid":"B2094757D069A2FC499D","title":"瑞鑫百货","lon":"121.3367","lat":"30.72685","category":"119","category_name":"商场","address":"近郊金山区石化卫零路555号(卫清路口)"},{"poiid":"B2094757D06AAAF54099","title":"上海 石化工业学校","lon":"121.326148987","lat":"30.7213821411","category":"500","category_name":"未知分类","address":"近郊金山区石化龙胜路1097号"},{"poiid":"B2094655D26BA3F54399","title":"御景龙庭","lon":"121.322644","lat":"30.7316","category":"47","category_name":"住宅区","address":"上海金山区学府路818弄"},{"poiid":"B2094757D065A1FC449A","title":"依天花园大酒店","lon":"121.3298735","lat":"30.734068959","category":"76","category_name":"上海菜","address":"近郊东平南路1111号(近金山大道)"},{"poiid":"B2094757D069AAFA4392","title":"卜蜂莲花(金山卫清店)","lon":"121.33615","lat":"30.72736","category":"118","category_name":"超级市场","address":"金山区石化卫清路858号"},{"poiid":"B2094757DA6EA7FB479A","title":"来客乐","lon":"121.33279","lat":"30.72644","category":"76","category_name":"上海菜","address":"近郊金山石化东平南路855号(近卫清路)"},{"poiid":"B2094654DB69A2FC4799","title":"万寿寺(金卫村)","lon":"121.32872","lat":"30.73171","category":"244","category_name":"寺庙道观","address":"金山卫镇金卫村1148号"},{"poiid":"B2094757D064A1F4499E","title":"阿香米线","lon":"121.33503364","lat":"30.727581661","category":"257","category_name":"中餐厅","address":"上海市金山区石化卫清西路854号易初莲花内"},{"poiid":"B2094750D56AAAFD469E","title":"易家商业中心","lon":"121.329274","lat":"30.726841","category":"47","category_name":"住宅区","address":"城河路330号"},{"poiid":"B2094654DB69A2FD409E","title":"滨海二村北门","lon":"121.32713","lat":"30.72904","category":"47","category_name":"住宅区","address":"板桥西路1135"},{"poiid":"B2094654DB69A1FE4393","title":"蓝山咖啡馆金山店","lon":"121.34013183680531","lat":"30.728110924965684","category":"65","category_name":"咖啡厅","address":"近郊金山区卫清西路641号"},{"poiid":"B2094757D065A4FA4599","title":"钱龙大酒店","lon":"121.32272514","lat":"30.7334758","category":"76","category_name":"上海菜","address":"近郊金山区金山大道"},{"poiid":"B2094654DB69A2FC4798","title":"万寿新村","lon":"121.32708","lat":"30.73103","category":"47","category_name":"住宅区","address":""},{"poiid":"B2094654DB69A2FC4992","title":"滨海四村南门","lon":"121.32606","lat":"30.72923","category":"47","category_name":"住宅区","address":"板桥西路1172"},{"poiid":"B2094655D268A4FB419D","title":"万寿新村(东门)","lon":"121.32725","lat":"30.731","category":"47","category_name":"住宅区","address":""},{"poiid":"B2094654DB69A2FC439C","title":"滨海二村","lon":"121.3259","lat":"30.727533","category":"47","category_name":"住宅区","address":"板桥西路1221号"},{"poiid":"B2094655D268A4FB429A","title":"万寿寺(南门)","lon":"121.32876","lat":"30.73156","category":"679","category_name":"楼宇机构","address":"金山卫镇金卫村1148号"},{"poiid":"B2094654DB69A3F4499A","title":"金浦苑","lon":"121.33309","lat":"30.728344","category":"47","category_name":"住宅区","address":"上海市金山区卫清西路950弄"},{"poiid":"B2094654DB69A2FC439F","title":"滨海三·四村","lon":"121.32534","lat":"30.72956","category":"47","category_name":"住宅区","address":"板桥西路1230"},{"poiid":"B2094757DA65A5F5449E","title":"速8酒店（上海金山城市沙滩店）","lon":"121.322901249","lat":"30.727025313","category":"216","category_name":"经济型连锁酒店","address":"上海市金山区学府路551号"},{"poiid":"B2094655D268A6FE479C","title":"滨海三·四村(南门)","lon":"121.32544","lat":"30.72912","category":"47","category_name":"住宅区","address":"板桥西路1230"},{"poiid":"B2094655D268A4F94399","title":"松卫新村(北门)","lon":"121.33116","lat":"30.73041","category":"47","category_name":"住宅区","address":"杨家村1118"},{"poiid":"B2094654DB69A2FA489F","title":"新亚大包(卫零路)","lon":"121.33658","lat":"30.72645","category":"68","category_name":"快餐厅","address":"近郊金山区卫零路555号瑞鑫百货旁(近卫清路)"},{"poiid":"B2094654DB69A2FC459A","title":"松卫新村","lon":"121.33156","lat":"30.729944","category":"47","category_name":"住宅区","address":"杨家村1118号"},{"poiid":"B2094654DB69A2FC499E","title":"板桥路小商品市场","lon":"121.32449","lat":"30.72831","category":"120","category_name":"小商品市场","address":"板桥西路1303弄"},{"poiid":"B2094655D268A5FA469C","title":"商务办公楼(卫清西路)","lon":"121.32685","lat":"30.72539","category":"46","category_name":"楼宇","address":"卫清西路1283"},{"poiid":"B2094757D664A6FB499A","title":"新四方美食城 金山店","lon":"121.334074","lat":"30.726825","category":"68","category_name":"快餐厅","address":"近郊金山卫清路(近易初莲花)"},{"poiid":"B2094654DB69A2FC489B","title":"锦华大楼","lon":"121.32327","lat":"30.72815","category":"46","category_name":"楼宇","address":"板桥西路1345"},{"poiid":"B2094654DB69A2FB4992","title":"景点商务办公楼(卫清西路)","lon":"121.3264","lat":"30.72532","category":"46","category_name":"楼宇","address":"卫清西路1311-1313"},{"poiid":"B2094654DB69A2FC4893","title":"滨海一村","lon":"121.32394","lat":"30.728037","category":"47","category_name":"住宅区","address":"板桥西路1325弄"},{"poiid":"B2094654DB69A2FC4399","title":"中国工商银行金山支行北区分理处","lon":"121.32517","lat":"30.72904","category":"150","category_name":"银行","address":"上海市板桥西路1238号"},{"poiid":"B2094654DB69A2F44193","title":"景点商务办公楼(一号楼)","lon":"121.32586","lat":"30.72519","category":"46","category_name":"楼宇","address":"卫清西路1339"},{"poiid":"B2094751DA6BA3FD409F","title":"澳门机场","lon":"121.332471","lat":"30.727285","category":"500","category_name":"未知分类","address":null},{"poiid":"B2094757D16CA7F5419B","title":"锦川火锅","lon":"121.33635918","lat":"30.727727991","category":"86","category_name":"火锅店","address":"近郊金山区卫零路619号(卫清路口)"},{"poiid":"B2094655D268A4FA4299","title":"滨海一村(北门)","lon":"121.32379","lat":"30.72832","category":"47","category_name":"住宅区","address":"板桥西路1325"},{"poiid":"B2094757D46FA3FC489A","title":"85度C 金山店","lon":"121.340028054","lat":"30.726900793","category":"67","category_name":"甜品店","address":"近郊金山区卫零路169号蓝色海岸生活广场1楼L1-19号"},{"poiid":"B2094655D268A3F9499D","title":"东门苑(东门)","lon":"121.3327","lat":"30.72472","category":"47","category_name":"住宅区","address":"东平南路535弄1-29号"},{"poiid":"B2094757D16EA2FC429F","title":"汇都大酒楼","lon":"121.33604145","lat":"30.733219669","category":"247","category_name":"餐饮美食","address":"近郊金山区山阳镇杨家村卫零路3009号(卫零路卫清西路)"},{"poiid":"B2094654DB69A2FD459B","title":"上海金山卫经济小区","lon":"121.32315","lat":"30.7262","category":"46","category_name":"楼宇","address":"学府路501"},{"poiid":"B2094655D268A0FB4792","title":"好又多购物中心金卫店","lon":"121.32208","lat":"30.72827","category":"118","category_name":"超级市场","address":""},{"poiid":"B2094654DB69A2FD479F","title":"好德便利NO.484","lon":"121.32261","lat":"30.72803","category":"117","category_name":"便民商店/便利店","address":"板桥西路1351"},{"poiid":"B2094654DB69A3F44393","title":"金城经济小区","lon":"121.33451","lat":"30.72851","category":"46","category_name":"楼宇","address":"卫零路611弄97"},{"poiid":"B2094655D26FAAFB479E","title":"惠驰商务楼","lon":"121.32824","lat":"30.72337","category":"46","category_name":"楼宇","address":"施三路16"},{"poiid":"B2094655D268A6FE499A","title":"园中苑(北门)","lon":"121.33415","lat":"30.72686","category":"47","category_name":"住宅区","address":"卫清西路999弄"},{"poiid":"B2094654DB69A3FB4898","title":"金山欧洲商业广场","lon":"121.33584","lat":"30.72906","category":"119","category_name":"商场","address":""},{"poiid":"B2094654DB69A3F5439D","title":"东方网点卫清店","lon":"121.32582","lat":"30.72575","category":"176","category_name":"网吧","address":"近郊金山区卫清西路1376号(施三路卫清西路)"},{"poiid":"B2094654DB69A2FD4492","title":"上海市金卫中学","lon":"121.32286","lat":"30.72587","category":"55","category_name":"中学","address":"学府路481"},{"poiid":"B2094654DB69A2FC4193","title":"中国农业银行金山区金卫支行","lon":"121.3237","lat":"30.72869","category":"150","category_name":"银行","address":"近郊金卫镇板桥西路1318号"},{"poiid":"B2094757D66DA3FF479E","title":"联怡大酒店 金山店","lon":"121.33596","lat":"30.72938","category":"76","category_name":"上海菜","address":"近郊金山区卫零路757号"},{"poiid":"B2094655D36CA6FB449B","title":"东礁","lon":"121.33776","lat":"30.72248","category":"38","category_name":"公交车站","address":""},{"poiid":"B2094757D069A2FC499D","title":"瑞鑫百货","lon":"121.3367","lat":"30.72685","category":"119","category_name":"商场","address":"近郊金山区石化卫零路555号(卫清路口)"},{"poiid":"B2094757D06AAAF54099","title":"上海 石化工业学校","lon":"121.326148987","lat":"30.7213821411","category":"500","category_name":"未知分类","address":"近郊金山区石化龙胜路1097号"},{"poiid":"B2094655D26BA3F54399","title":"御景龙庭","lon":"121.322644","lat":"30.7316","category":"47","category_name":"住宅区","address":"上海金山区学府路818弄"},{"poiid":"B2094757D065A1FC449A","title":"依天花园大酒店","lon":"121.3298735","lat":"30.734068959","category":"76","category_name":"上海菜","address":"近郊东平南路1111号(近金山大道)"},{"poiid":"B2094757D069AAFA4392","title":"卜蜂莲花(金山卫清店)","lon":"121.33615","lat":"30.72736","category":"118","category_name":"超级市场","address":"金山区石化卫清路858号"},{"poiid":"B2094757DA6EA7FB479A","title":"来客乐","lon":"121.33279","lat":"30.72644","category":"76","category_name":"上海菜","address":"近郊金山石化东平南路855号(近卫清路)"},{"poiid":"B2094654DB69A2FC4799","title":"万寿寺(金卫村)","lon":"121.32872","lat":"30.73171","category":"244","category_name":"寺庙道观","address":"金山卫镇金卫村1148号"},{"poiid":"B2094757D064A1F4499E","title":"阿香米线","lon":"121.33503364","lat":"30.727581661","category":"257","category_name":"中餐厅","address":"上海市金山区石化卫清西路854号易初莲花内"},{"poiid":"B2094750D56AAAFD469E","title":"易家商业中心","lon":"121.329274","lat":"30.726841","category":"47","category_name":"住宅区","address":"城河路330号"},{"poiid":"B2094654DB69A2FD409E","title":"滨海二村北门","lon":"121.32713","lat":"30.72904","category":"47","category_name":"住宅区","address":"板桥西路1135"},{"poiid":"B2094654DB69A1FE4393","title":"蓝山咖啡馆金山店","lon":"121.34013183680531","lat":"30.728110924965684","category":"65","category_name":"咖啡厅","address":"近郊金山区卫清西路641号"},{"poiid":"B2094757D065A4FA4599","title":"钱龙大酒店","lon":"121.32272514","lat":"30.7334758","category":"76","category_name":"上海菜","address":"近郊金山区金山大道"},{"poiid":"B2094654DB69A2FC4798","title":"万寿新村","lon":"121.32708","lat":"30.73103","category":"47","category_name":"住宅区","address":""},{"poiid":"B2094654DB69A2FC4992","title":"滨海四村南门","lon":"121.32606","lat":"30.72923","category":"47","category_name":"住宅区","address":"板桥西路1172"},{"poiid":"B2094655D268A4FB419D","title":"万寿新村(东门)","lon":"121.32725","lat":"30.731","category":"47","category_name":"住宅区","address":""},{"poiid":"B2094654DB69A2FC439C","title":"滨海二村","lon":"121.3259","lat":"30.727533","category":"47","category_name":"住宅区","address":"板桥西路1221号"},{"poiid":"B2094655D268A4FB429A","title":"万寿寺(南门)","lon":"121.32876","lat":"30.73156","category":"679","category_name":"楼宇机构","address":"金山卫镇金卫村1148号"},{"poiid":"B2094654DB69A3F4499A","title":"金浦苑","lon":"121.33309","lat":"30.728344","category":"47","category_name":"住宅区","address":"上海市金山区卫清西路950弄"},{"poiid":"B2094654DB69A2FC439F","title":"滨海三·四村","lon":"121.32534","lat":"30.72956","category":"47","category_name":"住宅区","address":"板桥西路1230"},{"poiid":"B2094757DA65A5F5449E","title":"速8酒店（上海金山城市沙滩店）","lon":"121.322901249","lat":"30.727025313","category":"216","category_name":"经济型连锁酒店","address":"上海市金山区学府路551号"},{"poiid":"B2094655D268A6FE479C","title":"滨海三·四村(南门)","lon":"121.32544","lat":"30.72912","category":"47","category_name":"住宅区","address":"板桥西路1230"},{"poiid":"B2094655D268A4F94399","title":"松卫新村(北门)","lon":"121.33116","lat":"30.73041","category":"47","category_name":"住宅区","address":"杨家村1118"},{"poiid":"B2094654DB69A2FA489F","title":"新亚大包(卫零路)","lon":"121.33658","lat":"30.72645","category":"68","category_name":"快餐厅","address":"近郊金山区卫零路555号瑞鑫百货旁(近卫清路)"},{"poiid":"B2094654DB69A2FC459A","title":"松卫新村","lon":"121.33156","lat":"30.729944","category":"47","category_name":"住宅区","address":"杨家村1118号"},{"poiid":"B2094654DB69A2FC499E","title":"板桥路小商品市场","lon":"121.32449","lat":"30.72831","category":"120","category_name":"小商品市场","address":"板桥西路1303弄"},{"poiid":"B2094655D268A5FA469C","title":"商务办公楼(卫清西路)","lon":"121.32685","lat":"30.72539","category":"46","category_name":"楼宇","address":"卫清西路1283"},{"poiid":"B2094757D664A6FB499A","title":"新四方美食城 金山店","lon":"121.334074","lat":"30.726825","category":"68","category_name":"快餐厅","address":"近郊金山卫清路(近易初莲花)"},{"poiid":"B2094654DB69A2FC489B","title":"锦华大楼","lon":"121.32327","lat":"30.72815","category":"46","category_name":"楼宇","address":"板桥西路1345"},{"poiid":"B2094654DB69A2FB4992","title":"景点商务办公楼(卫清西路)","lon":"121.3264","lat":"30.72532","category":"46","category_name":"楼宇","address":"卫清西路1311-1313"},{"poiid":"B2094654DB69A2FC4893","title":"滨海一村","lon":"121.32394","lat":"30.728037","category":"47","category_name":"住宅区","address":"板桥西路1325弄"},{"poiid":"B2094654DB69A2FC4399","title":"中国工商银行金山支行北区分理处","lon":"121.32517","lat":"30.72904","category":"150","category_name":"银行","address":"上海市板桥西路1238号"},{"poiid":"B2094654DB69A2F44193","title":"景点商务办公楼(一号楼)","lon":"121.32586","lat":"30.72519","category":"46","category_name":"楼宇","address":"卫清西路1339"},{"poiid":"B2094751DA6BA3FD409F","title":"澳门机场","lon":"121.332471","lat":"30.727285","category":"500","category_name":"未知分类","address":null},{"poiid":"B2094757D16CA7F5419B","title":"锦川火锅","lon":"121.33635918","lat":"30.727727991","category":"86","category_name":"火锅店","address":"近郊金山区卫零路619号(卫清路口)"},{"poiid":"B2094655D268A4FA4299","title":"滨海一村(北门)","lon":"121.32379","lat":"30.72832","category":"47","category_name":"住宅区","address":"板桥西路1325"},{"poiid":"B2094757D46FA3FC489A","title":"85度C 金山店","lon":"121.340028054","lat":"30.726900793","category":"67","category_name":"甜品店","address":"近郊金山区卫零路169号蓝色海岸生活广场1楼L1-19号"},{"poiid":"B2094655D268A3F9499D","title":"东门苑(东门)","lon":"121.3327","lat":"30.72472","category":"47","category_name":"住宅区","address":"东平南路535弄1-29号"},{"poiid":"B2094757D16EA2FC429F","title":"汇都大酒楼","lon":"121.33604145","lat":"30.733219669","category":"247","category_name":"餐饮美食","address":"近郊金山区山阳镇杨家村卫零路3009号(卫零路卫清西路)"},{"poiid":"B2094654DB69A2FD459B","title":"上海金山卫经济小区","lon":"121.32315","lat":"30.7262","category":"46","category_name":"楼宇","address":"学府路501"},{"poiid":"B2094655D268A0FB4792","title":"好又多购物中心金卫店","lon":"121.32208","lat":"30.72827","category":"118","category_name":"超级市场","address":""},{"poiid":"B2094654DB69A2FD479F","title":"好德便利NO.484","lon":"121.32261","lat":"30.72803","category":"117","category_name":"便民商店/便利店","address":"板桥西路1351"},{"poiid":"B2094654DB69A3F44393","title":"金城经济小区","lon":"121.33451","lat":"30.72851","category":"46","category_name":"楼宇","address":"卫零路611弄97"},{"poiid":"B2094655D26FAAFB479E","title":"惠驰商务楼","lon":"121.32824","lat":"30.72337","category":"46","category_name":"楼宇","address":"施三路16"},{"poiid":"B2094655D268A6FE499A","title":"园中苑(北门)","lon":"121.33415","lat":"30.72686","category":"47","category_name":"住宅区","address":"卫清西路999弄"},{"poiid":"B2094654DB69A3FB4898","title":"金山欧洲商业广场","lon":"121.33584","lat":"30.72906","category":"119","category_name":"商场","address":""},{"poiid":"B2094654DB69A3F5439D","title":"东方网点卫清店","lon":"121.32582","lat":"30.72575","category":"176","category_name":"网吧","address":"近郊金山区卫清西路1376号(施三路卫清西路)"},{"poiid":"B2094654DB69A2FD4492","title":"上海市金卫中学","lon":"121.32286","lat":"30.72587","category":"55","category_name":"中学","address":"学府路481"},{"poiid":"B2094654DB69A2FC4193","title":"中国农业银行金山区金卫支行","lon":"121.3237","lat":"30.72869","category":"150","category_name":"银行","address":"近郊金卫镇板桥西路1318号"},{"poiid":"B2094757D66DA3FF479E","title":"联怡大酒店 金山店","lon":"121.33596","lat":"30.72938","category":"76","category_name":"上海菜","address":"近郊金山区卫零路757号"},{"poiid":"B2094655D36CA6FB449B","title":"东礁","lon":"121.33776","lat":"30.72248","category":"38","category_name":"公交车站","address":""},{"poiid":"B2094757D069A2FC499D","title":"瑞鑫百货","lon":"121.3367","lat":"30.72685","category":"119","category_name":"商场","address":"近郊金山区石化卫零路555号(卫清路口)"},{"poiid":"B2094757D06AAAF54099","title":"上海 石化工业学校","lon":"121.326148987","lat":"30.7213821411","category":"500","category_name":"未知分类","address":"近郊金山区石化龙胜路1097号"},{"poiid":"B2094655D26BA3F54399","title":"御景龙庭","lon":"121.322644","lat":"30.7316","category":"47","category_name":"住宅区","address":"上海金山区学府路818弄"},{"poiid":"B2094757D065A1FC449A","title":"依天花园大酒店","lon":"121.3298735","lat":"30.734068959","category":"76","category_name":"上海菜","address":"近郊东平南路1111号(近金山大道)"},{"poiid":"B2094757D069AAFA4392","title":"卜蜂莲花(金山卫清店)","lon":"121.33615","lat":"30.72736","category":"118","category_name":"超级市场","address":"金山区石化卫清路858号"},{"poiid":"B2094757DA6EA7FB479A","title":"来客乐","lon":"121.33279","lat":"30.72644","category":"76","category_name":"上海菜","address":"近郊金山石化东平南路855号(近卫清路)"},{"poiid":"B2094654DB69A2FC4799","title":"万寿寺(金卫村)","lon":"121.32872","lat":"30.73171","category":"244","category_name":"寺庙道观","address":"金山卫镇金卫村1148号"},{"poiid":"B2094757D064A1F4499E","title":"阿香米线","lon":"121.33503364","lat":"30.727581661","category":"257","category_name":"中餐厅","address":"上海市金山区石化卫清西路854号易初莲花内"},{"poiid":"B2094750D56AAAFD469E","title":"易家商业中心","lon":"121.329274","lat":"30.726841","category":"47","category_name":"住宅区","address":"城河路330号"},{"poiid":"B2094654DB69A2FD409E","title":"滨海二村北门","lon":"121.32713","lat":"30.72904","category":"47","category_name":"住宅区","address":"板桥西路1135"},{"poiid":"B2094654DB69A1FE4393","title":"蓝山咖啡馆金山店","lon":"121.34013183680531","lat":"30.728110924965684","category":"65","category_name":"咖啡厅","address":"近郊金山区卫清西路641号"},{"poiid":"B2094757D065A4FA4599","title":"钱龙大酒店","lon":"121.32272514","lat":"30.7334758","category":"76","category_name":"上海菜","address":"近郊金山区金山大道"},{"poiid":"B2094654DB69A2FC4798","title":"万寿新村","lon":"121.32708","lat":"30.73103","category":"47","category_name":"住宅区","address":""},{"poiid":"B2094654DB69A2FC4992","title":"滨海四村南门","lon":"121.32606","lat":"30.72923","category":"47","category_name":"住宅区","address":"板桥西路1172"},{"poiid":"B2094655D268A4FB419D","title":"万寿新村(东门)","lon":"121.32725","lat":"30.731","category":"47","category_name":"住宅区","address":""},{"poiid":"B2094654DB69A2FC439C","title":"滨海二村","lon":"121.3259","lat":"30.727533","category":"47","category_name":"住宅区","address":"板桥西路1221号"},{"poiid":"B2094655D268A4FB429A","title":"万寿寺(南门)","lon":"121.32876","lat":"30.73156","category":"679","category_name":"楼宇机构","address":"金山卫镇金卫村1148号"},{"poiid":"B2094654DB69A3F4499A","title":"金浦苑","lon":"121.33309","lat":"30.728344","category":"47","category_name":"住宅区","address":"上海市金山区卫清西路950弄"},{"poiid":"B2094654DB69A2FC439F","title":"滨海三·四村","lon":"121.32534","lat":"30.72956","category":"47","category_name":"住宅区","address":"板桥西路1230"},{"poiid":"B2094757DA65A5F5449E","title":"速8酒店（上海金山城市沙滩店）","lon":"121.322901249","lat":"30.727025313","category":"216","category_name":"经济型连锁酒店","address":"上海市金山区学府路551号"},{"poiid":"B2094655D268A6FE479C","title":"滨海三·四村(南门)","lon":"121.32544","lat":"30.72912","category":"47","category_name":"住宅区","address":"板桥西路1230"},{"poiid":"B2094655D268A4F94399","title":"松卫新村(北门)","lon":"121.33116","lat":"30.73041","category":"47","category_name":"住宅区","address":"杨家村1118"},{"poiid":"B2094654DB69A2FA489F","title":"新亚大包(卫零路)","lon":"121.33658","lat":"30.72645","category":"68","category_name":"快餐厅","address":"近郊金山区卫零路555号瑞鑫百货旁(近卫清路)"},{"poiid":"B2094654DB69A2FC459A","title":"松卫新村","lon":"121.33156","lat":"30.729944","category":"47","category_name":"住宅区","address":"杨家村1118号"},{"poiid":"B2094654DB69A2FC499E","title":"板桥路小商品市场","lon":"121.32449","lat":"30.72831","category":"120","category_name":"小商品市场","address":"板桥西路1303弄"},{"poiid":"B2094655D268A5FA469C","title":"商务办公楼(卫清西路)","lon":"121.32685","lat":"30.72539","category":"46","category_name":"楼宇","address":"卫清西路1283"},{"poiid":"B2094757D664A6FB499A","title":"新四方美食城 金山店","lon":"121.334074","lat":"30.726825","category":"68","category_name":"快餐厅","address":"近郊金山卫清路(近易初莲花)"},{"poiid":"B2094654DB69A2FC489B","title":"锦华大楼","lon":"121.32327","lat":"30.72815","category":"46","category_name":"楼宇","address":"板桥西路1345"},{"poiid":"B2094654DB69A2FB4992","title":"景点商务办公楼(卫清西路)","lon":"121.3264","lat":"30.72532","category":"46","category_name":"楼宇","address":"卫清西路1311-1313"},{"poiid":"B2094654DB69A2FC4893","title":"滨海一村","lon":"121.32394","lat":"30.728037","category":"47","category_name":"住宅区","address":"板桥西路1325弄"},{"poiid":"B2094654DB69A2FC4399","title":"中国工商银行金山支行北区分理处","lon":"121.32517","lat":"30.72904","category":"150","category_name":"银行","address":"上海市板桥西路1238号"},{"poiid":"B2094654DB69A2F44193","title":"景点商务办公楼(一号楼)","lon":"121.32586","lat":"30.72519","category":"46","category_name":"楼宇","address":"卫清西路1339"},{"poiid":"B2094751DA6BA3FD409F","title":"澳门机场","lon":"121.332471","lat":"30.727285","category":"500","category_name":"未知分类","address":null},{"poiid":"B2094757D16CA7F5419B","title":"锦川火锅","lon":"121.33635918","lat":"30.727727991","category":"86","category_name":"火锅店","address":"近郊金山区卫零路619号(卫清路口)"},{"poiid":"B2094655D268A4FA4299","title":"滨海一村(北门)","lon":"121.32379","lat":"30.72832","category":"47","category_name":"住宅区","address":"板桥西路1325"},{"poiid":"B2094757D46FA3FC489A","title":"85度C 金山店","lon":"121.340028054","lat":"30.726900793","category":"67","category_name":"甜品店","address":"近郊金山区卫零路169号蓝色海岸生活广场1楼L1-19号"},{"poiid":"B2094655D268A3F9499D","title":"东门苑(东门)","lon":"121.3327","lat":"30.72472","category":"47","category_name":"住宅区","address":"东平南路535弄1-29号"},{"poiid":"B2094757D16EA2FC429F","title":"汇都大酒楼","lon":"121.33604145","lat":"30.733219669","category":"247","category_name":"餐饮美食","address":"近郊金山区山阳镇杨家村卫零路3009号(卫零路卫清西路)"},{"poiid":"B2094654DB69A2FD459B","title":"上海金山卫经济小区","lon":"121.32315","lat":"30.7262","category":"46","category_name":"楼宇","address":"学府路501"},{"poiid":"B2094655D268A0FB4792","title":"好又多购物中心金卫店","lon":"121.32208","lat":"30.72827","category":"118","category_name":"超级市场","address":""},{"poiid":"B2094654DB69A2FD479F","title":"好德便利NO.484","lon":"121.32261","lat":"30.72803","category":"117","category_name":"便民商店/便利店","address":"板桥西路1351"},{"poiid":"B2094654DB69A3F44393","title":"金城经济小区","lon":"121.33451","lat":"30.72851","category":"46","category_name":"楼宇","address":"卫零路611弄97"},{"poiid":"B2094655D26FAAFB479E","title":"惠驰商务楼","lon":"121.32824","lat":"30.72337","category":"46","category_name":"楼宇","address":"施三路16"},{"poiid":"B2094655D268A6FE499A","title":"园中苑(北门)","lon":"121.33415","lat":"30.72686","category":"47","category_name":"住宅区","address":"卫清西路999弄"},{"poiid":"B2094654DB69A3FB4898","title":"金山欧洲商业广场","lon":"121.33584","lat":"30.72906","category":"119","category_name":"商场","address":""},{"poiid":"B2094654DB69A3F5439D","title":"东方网点卫清店","lon":"121.32582","lat":"30.72575","category":"176","category_name":"网吧","address":"近郊金山区卫清西路1376号(施三路卫清西路)"},{"poiid":"B2094654DB69A2FD4492","title":"上海市金卫中学","lon":"121.32286","lat":"30.72587","category":"55","category_name":"中学","address":"学府路481"},{"poiid":"B2094654DB69A2FC4193","title":"中国农业银行金山区金卫支行","lon":"121.3237","lat":"30.72869","category":"150","category_name":"银行","address":"近郊金卫镇板桥西路1318号"},{"poiid":"B2094757D66DA3FF479E","title":"联怡大酒店 金山店","lon":"121.33596","lat":"30.72938","category":"76","category_name":"上海菜","address":"近郊金山区卫零路757号"},{"poiid":"B2094655D36CA6FB449B","title":"东礁","lon":"121.33776","lat":"30.72248","category":"38","category_name":"公交车站","address":""},{"poiid":"B2094757D069A2FC499D","title":"瑞鑫百货","lon":"121.3367","lat":"30.72685","category":"119","category_name":"商场","address":"近郊金山区石化卫零路555号(卫清路口)"},{"poiid":"B2094757D06AAAF54099","title":"上海 石化工业学校","lon":"121.326148987","lat":"30.7213821411","category":"500","category_name":"未知分类","address":"近郊金山区石化龙胜路1097号"},{"poiid":"B2094655D26BA3F54399","title":"御景龙庭","lon":"121.322644","lat":"30.7316","category":"47","category_name":"住宅区","address":"上海金山区学府路818弄"},{"poiid":"B2094757D065A1FC449A","title":"依天花园大酒店","lon":"121.3298735","lat":"30.734068959","category":"76","category_name":"上海菜","address":"近郊东平南路1111号(近金山大道)"},{"poiid":"B2094757D069AAFA4392","title":"卜蜂莲花(金山卫清店)","lon":"121.33615","lat":"30.72736","category":"118","category_name":"超级市场","address":"金山区石化卫清路858号"},{"poiid":"B2094757DA6EA7FB479A","title":"来客乐","lon":"121.33279","lat":"30.72644","category":"76","category_name":"上海菜","address":"近郊金山石化东平南路855号(近卫清路)"},{"poiid":"B2094654DB69A2FC4799","title":"万寿寺(金卫村)","lon":"121.32872","lat":"30.73171","category":"244","category_name":"寺庙道观","address":"金山卫镇金卫村1148号"},{"poiid":"B2094757D064A1F4499E","title":"阿香米线","lon":"121.33503364","lat":"30.727581661","category":"257","category_name":"中餐厅","address":"上海市金山区石化卫清西路854号易初莲花内"},{"poiid":"B2094750D56AAAFD469E","title":"易家商业中心","lon":"121.329274","lat":"30.726841","category":"47","category_name":"住宅区","address":"城河路330号"},{"poiid":"B2094654DB69A2FD409E","title":"滨海二村北门","lon":"121.32713","lat":"30.72904","category":"47","category_name":"住宅区","address":"板桥西路1135"},{"poiid":"B2094654DB69A1FE4393","title":"蓝山咖啡馆金山店","lon":"121.34013183680531","lat":"30.728110924965684","category":"65","category_name":"咖啡厅","address":"近郊金山区卫清西路641号"},{"poiid":"B2094757D065A4FA4599","title":"钱龙大酒店","lon":"121.32272514","lat":"30.7334758","category":"76","category_name":"上海菜","address":"近郊金山区金山大道"},{"poiid":"B2094654DB69A2FC4798","title":"万寿新村","lon":"121.32708","lat":"30.73103","category":"47","category_name":"住宅区","address":""},{"poiid":"B2094654DB69A2FC4992","title":"滨海四村南门","lon":"121.32606","lat":"30.72923","category":"47","category_name":"住宅区","address":"板桥西路1172"},{"poiid":"B2094655D268A4FB419D","title":"万寿新村(东门)","lon":"121.32725","lat":"30.731","category":"47","category_name":"住宅区","address":""},{"poiid":"B2094654DB69A2FC439C","title":"滨海二村","lon":"121.3259","lat":"30.727533","category":"47","category_name":"住宅区","address":"板桥西路1221号"},{"poiid":"B2094655D268A4FB429A","title":"万寿寺(南门)","lon":"121.32876","lat":"30.73156","category":"679","category_name":"楼宇机构","address":"金山卫镇金卫村1148号"},{"poiid":"B2094654DB69A3F4499A","title":"金浦苑","lon":"121.33309","lat":"30.728344","category":"47","category_name":"住宅区","address":"上海市金山区卫清西路950弄"},{"poiid":"B2094654DB69A2FC439F","title":"滨海三·四村","lon":"121.32534","lat":"30.72956","category":"47","category_name":"住宅区","address":"板桥西路1230"},{"poiid":"B2094757DA65A5F5449E","title":"速8酒店（上海金山城市沙滩店）","lon":"121.322901249","lat":"30.727025313","category":"216","category_name":"经济型连锁酒店","address":"上海市金山区学府路551号"},{"poiid":"B2094655D268A6FE479C","title":"滨海三·四村(南门)","lon":"121.32544","lat":"30.72912","category":"47","category_name":"住宅区","address":"板桥西路1230"},{"poiid":"B2094655D268A4F94399","title":"松卫新村(北门)","lon":"121.33116","lat":"30.73041","category":"47","category_name":"住宅区","address":"杨家村1118"},{"poiid":"B2094654DB69A2FA489F","title":"新亚大包(卫零路)","lon":"121.33658","lat":"30.72645","category":"68","category_name":"快餐厅","address":"近郊金山区卫零路555号瑞鑫百货旁(近卫清路)"},{"poiid":"B2094654DB69A2FC459A","title":"松卫新村","lon":"121.33156","lat":"30.729944","category":"47","category_name":"住宅区","address":"杨家村1118号"},{"poiid":"B2094654DB69A2FC499E","title":"板桥路小商品市场","lon":"121.32449","lat":"30.72831","category":"120","category_name":"小商品市场","address":"板桥西路1303弄"},{"poiid":"B2094655D268A5FA469C","title":"商务办公楼(卫清西路)","lon":"121.32685","lat":"30.72539","category":"46","category_name":"楼宇","address":"卫清西路1283"},{"poiid":"B2094757D664A6FB499A","title":"新四方美食城 金山店","lon":"121.334074","lat":"30.726825","category":"68","category_name":"快餐厅","address":"近郊金山卫清路(近易初莲花)"},{"poiid":"B2094654DB69A2FC489B","title":"锦华大楼","lon":"121.32327","lat":"30.72815","category":"46","category_name":"楼宇","address":"板桥西路1345"},{"poiid":"B2094654DB69A2FB4992","title":"景点商务办公楼(卫清西路)","lon":"121.3264","lat":"30.72532","category":"46","category_name":"楼宇","address":"卫清西路1311-1313"},{"poiid":"B2094654DB69A2FC4893","title":"滨海一村","lon":"121.32394","lat":"30.728037","category":"47","category_name":"住宅区","address":"板桥西路1325弄"},{"poiid":"B2094654DB69A2FC4399","title":"中国工商银行金山支行北区分理处","lon":"121.32517","lat":"30.72904","category":"150","category_name":"银行","address":"上海市板桥西路1238号"},{"poiid":"B2094654DB69A2F44193","title":"景点商务办公楼(一号楼)","lon":"121.32586","lat":"30.72519","category":"46","category_name":"楼宇","address":"卫清西路1339"},{"poiid":"B2094751DA6BA3FD409F","title":"澳门机场","lon":"121.332471","lat":"30.727285","category":"500","category_name":"未知分类","address":null},{"poiid":"B2094757D16CA7F5419B","title":"锦川火锅","lon":"121.33635918","lat":"30.727727991","category":"86","category_name":"火锅店","address":"近郊金山区卫零路619号(卫清路口)"},{"poiid":"B2094655D268A4FA4299","title":"滨海一村(北门)","lon":"121.32379","lat":"30.72832","category":"47","category_name":"住宅区","address":"板桥西路1325"},{"poiid":"B2094757D46FA3FC489A","title":"85度C 金山店","lon":"121.340028054","lat":"30.726900793","category":"67","category_name":"甜品店","address":"近郊金山区卫零路169号蓝色海岸生活广场1楼L1-19号"},{"poiid":"B2094655D268A3F9499D","title":"东门苑(东门)","lon":"121.3327","lat":"30.72472","category":"47","category_name":"住宅区","address":"东平南路535弄1-29号"},{"poiid":"B2094757D16EA2FC429F","title":"汇都大酒楼","lon":"121.33604145","lat":"30.733219669","category":"247","category_name":"餐饮美食","address":"近郊金山区山阳镇杨家村卫零路3009号(卫零路卫清西路)"},{"poiid":"B2094654DB69A2FD459B","title":"上海金山卫经济小区","lon":"121.32315","lat":"30.7262","category":"46","category_name":"楼宇","address":"学府路501"},{"poiid":"B2094655D268A0FB4792","title":"好又多购物中心金卫店","lon":"121.32208","lat":"30.72827","category":"118","category_name":"超级市场","address":""},{"poiid":"B2094654DB69A2FD479F","title":"好德便利NO.484","lon":"121.32261","lat":"30.72803","category":"117","category_name":"便民商店/便利店","address":"板桥西路1351"},{"poiid":"B2094654DB69A3F44393","title":"金城经济小区","lon":"121.33451","lat":"30.72851","category":"46","category_name":"楼宇","address":"卫零路611弄97"},{"poiid":"B2094655D26FAAFB479E","title":"惠驰商务楼","lon":"121.32824","lat":"30.72337","category":"46","category_name":"楼宇","address":"施三路16"},{"poiid":"B2094655D268A6FE499A","title":"园中苑(北门)","lon":"121.33415","lat":"30.72686","category":"47","category_name":"住宅区","address":"卫清西路999弄"},{"poiid":"B2094654DB69A3FB4898","title":"金山欧洲商业广场","lon":"121.33584","lat":"30.72906","category":"119","category_name":"商场","address":""},{"poiid":"B2094654DB69A3F5439D","title":"东方网点卫清店","lon":"121.32582","lat":"30.72575","category":"176","category_name":"网吧","address":"近郊金山区卫清西路1376号(施三路卫清西路)"},{"poiid":"B2094654DB69A2FD4492","title":"上海市金卫中学","lon":"121.32286","lat":"30.72587","category":"55","category_name":"中学","address":"学府路481"},{"poiid":"B2094654DB69A2FC4193","title":"中国农业银行金山区金卫支行","lon":"121.3237","lat":"30.72869","category":"150","category_name":"银行","address":"近郊金卫镇板桥西路1318号"},{"poiid":"B2094757D66DA3FF479E","title":"联怡大酒店 金山店","lon":"121.33596","lat":"30.72938","category":"76","category_name":"上海菜","address":"近郊金山区卫零路757号"},{"poiid":"B2094655D36CA6FB449B","title":"东礁","lon":"121.33776","lat":"30.72248","category":"38","category_name":"公交车站","address":""}]