[{"poiid":"B2094757D06FA2FE489C","title":"百联金山购物中心","lon":"121.34676264","lat":"30.733259894","category":"119","category_name":"商场","address":"近郊金山区卫清西路168弄99号(近松卫南路)"},{"poiid":"B2094757D06FA2FB489E","title":"星巴克(金山百联店)","lon":"121.35126","lat":"30.731089","category":"260","category_name":"其他","address":"近郊金山区卫清西路168弄99号百联金山购物中心内(近松卫南路)"},{"poiid":"B2094757D06FA0FC4699","title":"星美国际影城金山店","lon":"121.348272","lat":"30.730783","category":"178","category_name":"电影院","address":"上海金山区卫清西路188号301-1302-2室"},{"poiid":"B2094654DB69A2F5439A","title":"海鸥大厦","lon":"121.35182","lat":"30.72937","category":"268","category_name":"自助","address":"近郊金山区龙胜路58号(近战斗港路)"},{"poiid":"B2094757D06FAAF5429B","title":"好乐迪金山店","lon":"121.34451927","lat":"30.732421942","category":"170","category_name":"KTV","address":"上海卫清西路168弄99号3f"},{"poiid":"B2094655D36CA0FE459B","title":"金山区政府","lon":"121.34336","lat":"30.74191","category":"38","category_name":"公交车站","address":"金山区金山大道2000号"},{"poiid":"B2094757D068A3F8449B","title":"必胜客(金山百联店)","lon":"121.35021","lat":"30.73057","category":"94","category_name":"西餐厅","address":"近郊金山区卫清西路168弄99号百联金山购物中心1楼B120-121室(近松卫南路)"},{"poiid":"B2094757D06FA4FA459E","title":"避风塘 百联金山店","lon":"121.35021","lat":"30.73057","category":"111","category_name":"休闲餐饮场所","address":"近郊金山区卫清西路168弄99号百联金山购物中心1楼(近松卫南路)"},{"poiid":"B2094757D665ABF8459F","title":"哈根达斯 百联金山店 Haagen-Dazs","lon":"121.35021","lat":"30.73057","category":"67","category_name":"甜品店","address":"近郊金山区卫清西路168弄99号百联金山购物中心B105商铺(近松卫南路)"},{"poiid":"B2094750DA6EA2F5429E","title":"湖蝶轩法式越南料理","lon":"121.346382","lat":"30.729667","category":"247","category_name":"餐饮美食","address":null},{"poiid":"B2094655D264A7FE4299","title":"金山豪庭","lon":"121.35342","lat":"30.734066","category":"47","category_name":"住宅区","address":"上海市金山区卫清东路2988弄"},{"poiid":"B2094757D069A0FC419A","title":"汤姆熊(百联金山店)","lon":"121.34654524","lat":"30.732037833","category":"500","category_name":"未知分类","address":"上海金山区卫清西路168弄99号百联金山购物中心2楼"},{"poiid":"B2094655D265A4FA439A","title":"宝华海湾城","lon":"121.34979","lat":"30.73463","category":"47","category_name":"住宅区","address":"金山杭州湾大道板桥东路1480弄"},{"poiid":"B2094757D168A2FC4698","title":"金山区行政服务中心","lon":"121.340799045","lat":"30.7442538551","category":"500","category_name":"未知分类","address":"上海金山区龙山路555号"},{"poiid":"B2094654DB69A3FB4093","title":"辰凯紫薇苑","lon":"121.34617913329","lat":"30.740805127992","category":"47","category_name":"住宅区","address":"上海市金山区蒙山路1517弄"},{"poiid":"B2094757D06BA2F54398","title":"丰收日(金山百联店)","lon":"121.34889164","lat":"30.731467753","category":"500","category_name":"未知分类","address":"上海金山百联购物中心"},{"poiid":"B2094655D268A2FC429B","title":"金天地花园","lon":"121.350925","lat":"30.731236","category":"47","category_name":"住宅区","address":"金山卫清西路88号"},{"poiid":"B2094757D16BA3FC439E","title":"金山税务局","lon":"121.338526645","lat":"30.7419290002","category":"500","category_name":"未知分类","address":"上海市金山区龙山路"},{"poiid":"B2094757D16CA5FB4292","title":"金海岸花园","lon":"121.3567","lat":"30.72822","category":"47","category_name":"住宅区","address":"上海市金山区龙胜东路789弄"},{"poiid":"B2094751D56DA0FA439A","title":"香涌海鲜大酒楼(金山店)","lon":"121.35697","lat":"30.75479","category":"76","category_name":"上海菜","address":"近郊金山区亭卫公路1515号(近龙皓路)"},{"poiid":"B2094757D065A7FA4298","title":"蓝色收获","lon":"121.35797","lat":"30.742123","category":"249","category_name":"购物服务","address":"上海市金山区板桥东路1200弄"},{"poiid":"B2094655D268A7FF439F","title":"山鑫城市广场","lon":"121.349978","lat":"30.734272","category":"46","category_name":"楼宇","address":"卫清西路139_149号等"},{"poiid":"B2094655D265A5FF429F","title":"上海波曼大酒店","lon":"121.34923","lat":"30.72995","category":"250","category_name":"公园户外","address":"近郊金山区卫清路179号(近金山城市沙滩)"},{"poiid":"B2094654DB69A0F8449D","title":"金山区海棠小学蓝色收获校区","lon":"121.3527","lat":"30.74004","category":"56","category_name":"小学","address":"近郊金山区山阳镇卫阳南路800号"},{"poiid":"B2094655D268A6FD469B","title":"福宴海鲜大酒楼","lon":"121.35036","lat":"30.73032","category":"75","category_name":"浙江菜","address":"近郊金山区卫清西路139号"},{"poiid":"B2094655D36CA7FA489D","title":"海芙路龙皓路","lon":"121.34834","lat":"30.74523","category":"38","category_name":"公交车站","address":""},{"poiid":"B2094757D664A2F44993","title":"韩林炭烤 （百联金山店）","lon":"121.35021","lat":"30.73057","category":"96","category_name":"韩国料理","address":"卫清西路168弄99号百联金山购物中心2楼近松卫南路"},{"poiid":"B2094757D065A2FB489B","title":"棕榈湾花园","lon":"121.3497","lat":"30.736702","category":"47","category_name":"住宅区","address":"上海蒙山路1266弄"},{"poiid":"B2094655D36CA1FF479A","title":"龙皓路(山阳镇政府)","lon":"121.35508","lat":"30.74775","category":"38","category_name":"公交车站","address":""},{"poiid":"B2094750D76EA6F94799","title":"雨盟咖啡","lon":"121.346","lat":"30.7403","category":"94","category_name":"西餐厅","address":"近郊金山区石化杭州湾大道1377号(近金山大道)"},{"poiid":"B2094654DB69A3F9479C","title":"上海市公安局金山分局","lon":"121.33789","lat":"30.74057","category":"248","category_name":"生活娱乐","address":"上海金山区蒙源路110号"},{"poiid":"B2094655D268A6FA449A","title":"莫泰168金山卫清店","lon":"121.35103","lat":"30.73007","category":"216","category_name":"经济型连锁酒店","address":"近郊金山区卫清西路55号"},{"poiid":"B2094757D068A3FF419C","title":"金山区","lon":"121.341964","lat":"30.741986","category":"250","category_name":"公园户外","address":"上海金山区区域"},{"poiid":"B2094654DB68AAFD489C","title":"上海市金山工业区","lon":"121.35702","lat":"30.74805","category":"45","category_name":"产业园区","address":""},{"poiid":"B2094757D568A7FB4093","title":"三品香(卫清店)","lon":"121.3453087","lat":"30.72963515","category":"88","category_name":"海鲜酒楼","address":"上海市金山区卫清西路318号"},{"poiid":"B2094757D068A6F9439D","title":"金山区人民政府","lon":"121.35082244","lat":"30.738594055","category":"252","category_name":"楼宇机构","address":"上海金山区金山大道2000号"},{"poiid":"B2094655D36CA0FE4598","title":"金山区政府(下客站)","lon":"121.34726","lat":"30.74226","category":"38","category_name":"公交车站","address":""},{"poiid":"B2094655D36DA1F54993","title":"新城区教育园区","lon":"121.34604","lat":"30.7455","category":"38","category_name":"公交车站","address":""},{"poiid":"B2094757D16CA4FF4092","title":"味千拉面(金山百联店)","lon":"121.34775619","lat":"30.7326628985","category":"95","category_name":"日本料理","address":"近郊金山区卫清西路168弄99号百联金山购物中心内(近松卫南路)"},{"poiid":"B2094757D569A0FA439C","title":"海尚馨苑","lon":"121.34814","lat":"30.755018","category":"47","category_name":"住宅区","address":"上海市金山区海盛路515弄"},{"poiid":"B2094757D16AA3FB4299","title":"海辰馨苑","lon":"121.35249","lat":"30.757185","category":"47","category_name":"住宅区","address":"海丰路85弄"},{"poiid":"B2094757D16FAAFC439E","title":"金山大道","lon":"121.34906888","lat":"30.7438124447","category":"260","category_name":"其他","address":"上海金山区金山大道"},{"poiid":"B2094654DB68AAF44698","title":"上海广成汽车修理分公司","lon":"121.35603","lat":"30.74744","category":"159","category_name":"汽车维修","address":"金山大道1328号"},{"poiid":"B2094757D16BA5FC4692","title":"金山区康城","lon":"121.3527069","lat":"30.740037918","category":"500","category_name":"未知分类","address":"上海市金山区卫阳南路"},{"poiid":"B2094654DB69A3FC4098","title":"新金山国际幼稚园(松卫南路)","lon":"121.34513","lat":"30.74444","category":"57","category_name":"幼儿园","address":""},{"poiid":"B2094757D069A6FE469C","title":"许留山(金山百联店)","lon":"121.34743773","lat":"30.732148669","category":"67","category_name":"甜品店","address":"上海金山百联"},{"poiid":"B2094757D168A7F44792","title":"好乐迪","lon":"121.34642564","lat":"30.732410775","category":"500","category_name":"未知分类","address":"上海市金山区蒙山路"},{"poiid":"B2094750D268A4FE4493","title":"老金老汤面","lon":"121.341969","lat":"30.741992","category":"68","category_name":"快餐厅","address":"近郊金山区辰凯花园1栋门口"},{"poiid":"B2094655D268A6FD4699","title":"九天银河大浴场","lon":"121.35131","lat":"30.73035","category":"149","category_name":"洗浴推拿场所","address":"近郊金山区卫清西路55号(近杭州湾大道)"},{"poiid":"B2094757D56EA6F54993","title":"旁氏乐购金山店","lon":"121.347524","lat":"30.742103","category":"249","category_name":"购物服务","address":"上海金山区卫青西路477号"},{"poiid":"B2094757D06FA2FE489C","title":"百联金山购物中心","lon":"121.34676264","lat":"30.733259894","category":"119","category_name":"商场","address":"近郊金山区卫清西路168弄99号(近松卫南路)"},{"poiid":"B2094757D06FA2FB489E","title":"星巴克(金山百联店)","lon":"121.35126","lat":"30.731089","category":"260","category_name":"其他","address":"近郊金山区卫清西路168弄99号百联金山购物中心内(近松卫南路)"},{"poiid":"B2094757D06FA0FC4699","title":"星美国际影城金山店","lon":"121.348272","lat":"30.730783","category":"178","category_name":"电影院","address":"上海金山区卫清西路188号301-1302-2室"},{"poiid":"B2094654DB69A2F5439A","title":"海鸥大厦","lon":"121.35182","lat":"30.72937","category":"268","category_name":"自助","address":"近郊金山区龙胜路58号(近战斗港路)"},{"poiid":"B2094757D06FAAF5429B","title":"好乐迪金山店","lon":"121.34451927","lat":"30.732421942","category":"170","category_name":"KTV","address":"上海卫清西路168弄99号3f"},{"poiid":"B2094655D36CA0FE459B","title":"金山区政府","lon":"121.34336","lat":"30.74191","category":"38","category_name":"公交车站","address":"金山区金山大道2000号"},{"poiid":"B2094757D068A3F8449B","title":"必胜客(金山百联店)","lon":"121.35021","lat":"30.73057","category":"94","category_name":"西餐厅","address":"近郊金山区卫清西路168弄99号百联金山购物中心1楼B120-121室(近松卫南路)"},{"poiid":"B2094757D06FA4FA459E","title":"避风塘 百联金山店","lon":"121.35021","lat":"30.73057","category":"111","category_name":"休闲餐饮场所","address":"近郊金山区卫清西路168弄99号百联金山购物中心1楼(近松卫南路)"},{"poiid":"B2094757D665ABF8459F","title":"哈根达斯 百联金山店 Haagen-Dazs","lon":"121.35021","lat":"30.73057","category":"67","category_name":"甜品店","address":"近郊金山区卫清西路168弄99号百联金山购物中心B105商铺(近松卫南路)"},{"poiid":"B2094750DA6EA2F5429E","title":"湖蝶轩法式越南料理","lon":"121.346382","lat":"30.729667","category":"247","category_name":"餐饮美食","address":null},{"poiid":"B2094655D264A7FE4299","title":"金山豪庭","lon":"121.35342","lat":"30.734066","category":"47","category_name":"住宅区","address":"上海市金山区卫清东路2988弄"},{"poiid":"B2094757D069A0FC419A","title":"汤姆熊(百联金山店)","lon":"121.34654524","lat":"30.732037833","category":"500","category_name":"未知分类","address":"上海金山区卫清西路168弄99号百联金山购物中心2楼"},{"poiid":"B2094655D265A4FA439A","title":"宝华海湾城","lon":"121.34979","lat":"30.73463","category":"47","category_name":"住宅区","address":"金山杭州湾大道板桥东路1480弄"},{"poiid":"B2094757D168A2FC4698","title":"金山区行政服务中心","lon":"121.340799045","lat":"30.7442538551","category":"500","category_name":"未知分类","address":"上海金山区龙山路555号"},{"poiid":"B2094654DB69A3FB4093","title":"辰凯紫薇苑","lon":"121.34617913329","lat":"30.740805127992","category":"47","category_name":"住宅区","address":"上海市金山区蒙山路1517弄"},{"poiid":"B2094757D06BA2F54398","title":"丰收日(金山百联店)","lon":"121.34889164","lat":"30.731467753","category":"500","category_name":"未知分类","address":"上海金山百联购物中心"},{"poiid":"B2094655D268A2FC429B","title":"金天地花园","lon":"121.350925","lat":"30.731236","category":"47","category_name":"住宅区","address":"金山卫清西路88号"},{"poiid":"B2094757D16BA3FC439E","title":"金山税务局","lon":"121.338526645","lat":"30.7419290002","category":"500","category_name":"未知分类","address":"上海市金山区龙山路"},{"poiid":"B2094757D16CA5FB4292","title":"金海岸花园","lon":"121.3567","lat":"30.72822","category":"47","category_name":"住宅区","address":"上海市金山区龙胜东路789弄"},{"poiid":"B2094751D56DA0FA439A","title":"香涌海鲜大酒楼(金山店)","lon":"121.35697","lat":"30.75479","category":"76","category_name":"上海菜","address":"近郊金山区亭卫公路1515号(近龙皓路)"},{"poiid":"B2094757D065A7FA4298","title":"蓝色收获","lon":"121.35797","lat":"30.742123","category":"249","category_name":"购物服务","address":"上海市金山区板桥东路1200弄"},{"poiid":"B2094655D268A7FF439F","title":"山鑫城市广场","lon":"121.349978","lat":"30.734272","category":"46","category_name":"楼宇","address":"卫清西路139_149号等"},{"poiid":"B2094655D265A5FF429F","title":"上海波曼大酒店","lon":"121.34923","lat":"30.72995","category":"250","category_name":"公园户外","address":"近郊金山区卫清路179号(近金山城市沙滩)"},{"poiid":"B2094654DB69A0F8449D","title":"金山区海棠小学蓝色收获校区","lon":"121.3527","lat":"30.74004","category":"56","category_name":"小学","address":"近郊金山区山阳镇卫阳南路800号"},{"poiid":"B2094655D268A6FD469B","title":"福宴海鲜大酒楼","lon":"121.35036","lat":"30.73032","category":"75","category_name":"浙江菜","address":"近郊金山区卫清西路139号"},{"poiid":"B2094655D36CA7FA489D","title":"海芙路龙皓路","lon":"121.34834","lat":"30.74523","category":"38","category_name":"公交车站","address":""},{"poiid":"B2094757D664A2F44993","title":"韩林炭烤 （百联金山店）","lon":"121.35021","lat":"30.73057","category":"96","category_name":"韩国料理","address":"卫清西路168弄99号百联金山购物中心2楼近松卫南路"},{"poiid":"B2094757D065A2FB489B","title":"棕榈湾花园","lon":"121.3497","lat":"30.736702","category":"47","category_name":"住宅区","address":"上海蒙山路1266弄"},{"poiid":"B2094655D36CA1FF479A","title":"龙皓路(山阳镇政府)","lon":"121.35508","lat":"30.74775","category":"38","category_name":"公交车站","address":""},{"poiid":"B2094750D76EA6F94799","title":"雨盟咖啡","lon":"121.346","lat":"30.7403","category":"94","category_name":"西餐厅","address":"近郊金山区石化杭州湾大道1377号(近金山大道)"},{"poiid":"B2094654DB69A3F9479C","title":"上海市公安局金山分局","lon":"121.33789","lat":"30.74057","category":"248","category_name":"生活娱乐","address":"上海金山区蒙源路110号"},{"poiid":"B2094655D268A6FA449A","title":"莫泰168金山卫清店","lon":"121.35103","lat":"30.73007","category":"216","category_name":"经济型连锁酒店","address":"近郊金山区卫清西路55号"},{"poiid":"B2094757D068A3FF419C","title":"金山区","lon":"121.341964","lat":"30.741986","category":"250","category_name":"公园户外","address":"上海金山区区域"},{"poiid":"B2094654DB68AAFD489C","title":"上海市金山工业区","lon":"121.35702","lat":"30.74805","category":"45","category_name":"产业园区","address":""},{"poiid":"B2094757D568A7FB4093","title":"三品香(卫清店)","lon":"121.3453087","lat":"30.72963515","category":"88","category_name":"海鲜酒楼","address":"上海市金山区卫清西路318号"},{"poiid":"B2094757D068A6F9439D","title":"金山区人民政府","lon":"121.35082244","lat":"30.738594055","category":"252","category_name":"楼宇机构","address":"上海金山区金山大道2000号"},{"poiid":"B2094655D36CA0FE4598","title":"金山区政府(下客站)","lon":"121.34726","lat":"30.74226","category":"38","category_name":"公交车站","address":""},{"poiid":"B2094655D36DA1F54993","title":"新城区教育园区","lon":"121.34604","lat":"30.7455","category":"38","category_name":"公交车站","address":""},{"poiid":"B2094757D16CA4FF4092","title":"味千拉面(金山百联店)","lon":"121.34775619","lat":"30.7326628985","category":"95","category_name":"日本料理","address":"近郊金山区卫清西路168弄99号百联金山购物中心内(近松卫南路)"},{"poiid":"B2094757D569A0FA439C","title":"海尚馨苑","lon":"121.34814","lat":"30.755018","category":"47","category_name":"住宅区","address":"上海市金山区海盛路515弄"},{"poiid":"B2094757D16AA3FB4299","title":"海辰馨苑","lon":"121.35249","lat":"30.757185","category":"47","category_name":"住宅区","address":"海丰路85弄"},{"poiid":"B2094757D16FAAFC439E","title":"金山大道","lon":"121.34906888","lat":"30.7438124447","category":"260","category_name":"其他","address":"上海金山区金山大道"},{"poiid":"B2094654DB68AAF44698","title":"上海广成汽车修理分公司","lon":"121.35603","lat":"30.74744","category":"159","category_name":"汽车维修","address":"金山大道1328号"},{"poiid":"B2094757D16BA5FC4692","title":"金山区康城","lon":"121.3527069","lat":"30.740037918","category":"500","category_name":"未知分类","address":"上海市金山区卫阳南路"},{"poiid":"B2094654DB69A3FC4098","title":"新金山国际幼稚园(松卫南路)","lon":"121.34513","lat":"30.74444","category":"57","category_name":"幼儿园","address":""},{"poiid":"B2094757D069A6FE469C","title":"许留山(金山百联店)","lon":"121.34743773","lat":"30.732148669","category":"67","category_name":"甜品店","address":"上海金山百联"},{"poiid":"B2094757D168A7F44792","title":"好乐迪","lon":"121.34642564","lat":"30.732410775","category":"500","category_name":"未知分类","address":"上海市金山区蒙山路"},{"poiid":"B2094750D268A4FE4493","title":"老金老汤面","lon":"121.341969","lat":"30.741992","category":"68","category_name":"快餐厅","address":"近郊金山区辰凯花园1栋门口"},{"poiid":"B2094655D268A6FD4699","title":"九天银河大浴场","lon":"121.35131","lat":"30.73035","category":"149","category_name":"洗浴推拿场所","address":"近郊金山区卫清西路55号(近杭州湾大道)"},{"poiid":"B2094757D56EA6F54993","title":"旁氏乐购金山店","lon":"121.347524","lat":"30.742103","category":"249","category_name":"购物服务","address":"上海金山区卫青西路477号"},{"poiid":"B2094757D06FA2FE489C","title":"百联金山购物中心","lon":"121.34676264","lat":"30.733259894","category":"119","category_name":"商场","address":"近郊金山区卫清西路168弄99号(近松卫南路)"},{"poiid":"B2094757D06FA2FB489E","title":"星巴克(金山百联店)","lon":"121.35126","lat":"30.731089","category":"260","category_name":"其他","address":"近郊金山区卫清西路168弄99号百联金山购物中心内(近松卫南路)"},{"poiid":"B2094757D06FA0FC4699","title":"星美国际影城金山店","lon":"121.348272","lat":"30.730783","category":"178","category_name":"电影院","address":"上海金山区卫清西路188号301-1302-2室"},{"poiid":"B2094654DB69A2F5439A","title":"海鸥大厦","lon":"121.35182","lat":"30.72937","category":"268","category_name":"自助","address":"近郊金山区龙胜路58号(近战斗港路)"},{"poiid":"B2094757D06FAAF5429B","title":"好乐迪金山店","lon":"121.34451927","lat":"30.732421942","category":"170","category_name":"KTV","address":"上海卫清西路168弄99号3f"},{"poiid":"B2094655D36CA0FE459B","title":"金山区政府","lon":"121.34336","lat":"30.74191","category":"38","category_name":"公交车站","address":"金山区金山大道2000号"},{"poiid":"B2094757D068A3F8449B","title":"必胜客(金山百联店)","lon":"121.35021","lat":"30.73057","category":"94","category_name":"西餐厅","address":"近郊金山区卫清西路168弄99号百联金山购物中心1楼B120-121室(近松卫南路)"},{"poiid":"B2094757D06FA4FA459E","title":"避风塘 百联金山店","lon":"121.35021","lat":"30.73057","category":"111","category_name":"休闲餐饮场所","address":"近郊金山区卫清西路168弄99号百联金山购物中心1楼(近松卫南路)"},{"poiid":"B2094757D665ABF8459F","title":"哈根达斯 百联金山店 Haagen-Dazs","lon":"121.35021","lat":"30.73057","category":"67","category_name":"甜品店","address":"近郊金山区卫清西路168弄99号百联金山购物中心B105商铺(近松卫南路)"},{"poiid":"B2094750DA6EA2F5429E","title":"湖蝶轩法式越南料理","lon":"121.346382","lat":"30.729667","category":"247","category_name":"餐饮美食","address":null},{"poiid":"B2094655D264A7FE4299","title":"金山豪庭","lon":"121.35342","lat":"30.734066","category":"47","category_name":"住宅区","address":"上海市金山区卫清东路2988弄"},{"poiid":"B2094757D069A0FC419A","title":"汤姆熊(百联金山店)","lon":"121.34654524","lat":"30.732037833","category":"500","category_name":"未知分类","address":"上海金山区卫清西路168弄99号百联金山购物中心2楼"},{"poiid":"B2094655D265A4FA439A","title":"宝华海湾城","lon":"121.34979","lat":"30.73463","category":"47","category_name":"住宅区","address":"金山杭州湾大道板桥东路1480弄"},{"poiid":"B2094757D168A2FC4698","title":"金山区行政服务中心","lon":"121.340799045","lat":"30.7442538551","category":"500","category_name":"未知分类","address":"上海金山区龙山路555号"},{"poiid":"B2094654DB69A3FB4093","title":"辰凯紫薇苑","lon":"121.34617913329","lat":"30.740805127992","category":"47","category_name":"住宅区","address":"上海市金山区蒙山路1517弄"},{"poiid":"B2094757D06BA2F54398","title":"丰收日(金山百联店)","lon":"121.34889164","lat":"30.731467753","category":"500","category_name":"未知分类","address":"上海金山百联购物中心"},{"poiid":"B2094655D268A2FC429B","title":"金天地花园","lon":"121.350925","lat":"30.731236","category":"47","category_name":"住宅区","address":"金山卫清西路88号"},{"poiid":"B2094757D16BA3FC439E","title":"金山税务局","lon":"121.338526645","lat":"30.7419290002","category":"500","category_name":"未知分类","address":"上海市金山区龙山路"},{"poiid":"B2094757D16CA5FB4292","title":"金海岸花园","lon":"121.3567","lat":"30.72822","category":"47","category_name":"住宅区","address":"上海市金山区龙胜东路789弄"},{"poiid":"B2094751D56DA0FA439A","title":"香涌海鲜大酒楼(金山店)","lon":"121.35697","lat":"30.75479","category":"76","category_name":"上海菜","address":"近郊金山区亭卫公路1515号(近龙皓路)"},{"poiid":"B2094757D065A7FA4298","title":"蓝色收获","lon":"121.35797","lat":"30.742123","category":"249","category_name":"购物服务","address":"上海市金山区板桥东路1200弄"},{"poiid":"B2094655D268A7FF439F","title":"山鑫城市广场","lon":"121.349978","lat":"30.734272","category":"46","category_name":"楼宇","address":"卫清西路139_149号等"},{"poiid":"B2094655D265A5FF429F","title":"上海波曼大酒店","lon":"121.34923","lat":"30.72995","category":"250","category_name":"公园户外","address":"近郊金山区卫清路179号(近金山城市沙滩)"},{"poiid":"B2094654DB69A0F8449D","title":"金山区海棠小学蓝色收获校区","lon":"121.3527","lat":"30.74004","category":"56","category_name":"小学","address":"近郊金山区山阳镇卫阳南路800号"},{"poiid":"B2094655D268A6FD469B","title":"福宴海鲜大酒楼","lon":"121.35036","lat":"30.73032","category":"75","category_name":"浙江菜","address":"近郊金山区卫清西路139号"},{"poiid":"B2094655D36CA7FA489D","title":"海芙路龙皓路","lon":"121.34834","lat":"30.74523","category":"38","category_name":"公交车站","address":""},{"poiid":"B2094757D664A2F44993","title":"韩林炭烤 （百联金山店）","lon":"121.35021","lat":"30.73057","category":"96","category_name":"韩国料理","address":"卫清西路168弄99号百联金山购物中心2楼近松卫南路"},{"poiid":"B2094757D065A2FB489B","title":"棕榈湾花园","lon":"121.3497","lat":"30.736702","category":"47","category_name":"住宅区","address":"上海蒙山路1266弄"},{"poiid":"B2094655D36CA1FF479A","title":"龙皓路(山阳镇政府)","lon":"121.35508","lat":"30.74775","category":"38","category_name":"公交车站","address":""},{"poiid":"B2094750D76EA6F94799","title":"雨盟咖啡","lon":"121.346","lat":"30.7403","category":"94","category_name":"西餐厅","address":"近郊金山区石化杭州湾大道1377号(近金山大道)"},{"poiid":"B2094654DB69A3F9479C","title":"上海市公安局金山分局","lon":"121.33789","lat":"30.74057","category":"248","category_name":"生活娱乐","address":"上海金山区蒙源路110号"},{"poiid":"B2094655D268A6FA449A","title":"莫泰168金山卫清店","lon":"121.35103","lat":"30.73007","category":"216","category_name":"经济型连锁酒店","address":"近郊金山区卫清西路55号"},{"poiid":"B2094757D068A3FF419C","title":"金山区","lon":"121.341964","lat":"30.741986","category":"250","category_name":"公园户外","address":"上海金山区区域"},{"poiid":"B2094654DB68AAFD489C","title":"上海市金山工业区","lon":"121.35702","lat":"30.74805","category":"45","category_name":"产业园区","address":""},{"poiid":"B2094757D568A7FB4093","title":"三品香(卫清店)","lon":"121.3453087","lat":"30.72963515","category":"88","category_name":"海鲜酒楼","address":"上海市金山区卫清西路318号"},{"poiid":"B2094757D068A6F9439D","title":"金山区人民政府","lon":"121.35082244","lat":"30.738594055","category":"252","category_name":"楼宇机构","address":"上海金山区金山大道2000号"},{"poiid":"B2094655D36CA0FE4598","title":"金山区政府(下客站)","lon":"121.34726","lat":"30.74226","category":"38","category_name":"公交车站","address":""},{"poiid":"B2094655D36DA1F54993","title":"新城区教育园区","lon":"121.34604","lat":"30.7455","category":"38","category_name":"公交车站","address":""},{"poiid":"B2094757D16CA4FF4092","title":"味千拉面(金山百联店)","lon":"121.34775619","lat":"30.7326628985","category":"95","category_name":"日本料理","address":"近郊金山区卫清西路168弄99号百联金山购物中心内(近松卫南路)"},{"poiid":"B2094757D569A0FA439C","title":"海尚馨苑","lon":"121.34814","lat":"30.755018","category":"47","category_name":"住宅区","address":"上海市金山区海盛路515弄"},{"poiid":"B2094757D16AA3FB4299","title":"海辰馨苑","lon":"121.35249","lat":"30.757185","category":"47","category_name":"住宅区","address":"海丰路85弄"},{"poiid":"B2094757D16FAAFC439E","title":"金山大道","lon":"121.34906888","lat":"30.7438124447","category":"260","category_name":"其他","address":"上海金山区金山大道"},{"poiid":"B2094654DB68AAF44698","title":"上海广成汽车修理分公司","lon":"121.35603","lat":"30.74744","category":"159","category_name":"汽车维修","address":"金山大道1328号"},{"poiid":"B2094757D16BA5FC4692","title":"金山区康城","lon":"121.3527069","lat":"30.740037918","category":"500","category_name":"未知分类","address":"上海市金山区卫阳南路"},{"poiid":"B2094654DB69A3FC4098","title":"新金山国际幼稚园(松卫南路)","lon":"121.34513","lat":"30.74444","category":"57","category_name":"幼儿园","address":""},{"poiid":"B2094757D069A6FE469C","title":"许留山(金山百联店)","lon":"121.34743773","lat":"30.732148669","category":"67","category_name":"甜品店","address":"上海金山百联"},{"poiid":"B2094757D168A7F44792","title":"好乐迪","lon":"121.34642564","lat":"30.732410775","category":"500","category_name":"未知分类","address":"上海市金山区蒙山路"},{"poiid":"B2094750D268A4FE4493","title":"老金老汤面","lon":"121.341969","lat":"30.741992","category":"68","category_name":"快餐厅","address":"近郊金山区辰凯花园1栋门口"},{"poiid":"B2094655D268A6FD4699","title":"九天银河大浴场","lon":"121.35131","lat":"30.73035","category":"149","category_name":"洗浴推拿场所","address":"近郊金山区卫清西路55号(近杭州湾大道)"},{"poiid":"B2094757D56EA6F54993","title":"旁氏乐购金山店","lon":"121.347524","lat":"30.742103","category":"249","category_name":"购物服务","address":"上海金山区卫青西路477号"},{"poiid":"B2094757D06FA2FE489C","title":"百联金山购物中心","lon":"121.34676264","lat":"30.733259894","category":"119","category_name":"商场","address":"近郊金山区卫清西路168弄99号(近松卫南路)"},{"poiid":"B2094757D06FA2FB489E","title":"星巴克(金山百联店)","lon":"121.35126","lat":"30.731089","category":"260","category_name":"其他","address":"近郊金山区卫清西路168弄99号百联金山购物中心内(近松卫南路)"},{"poiid":"B2094757D06FA0FC4699","title":"星美国际影城金山店","lon":"121.348272","lat":"30.730783","category":"178","category_name":"电影院","address":"上海金山区卫清西路188号301-1302-2室"},{"poiid":"B2094654DB69A2F5439A","title":"海鸥大厦","lon":"121.35182","lat":"30.72937","category":"268","category_name":"自助","address":"近郊金山区龙胜路58号(近战斗港路)"},{"poiid":"B2094757D06FAAF5429B","title":"好乐迪金山店","lon":"121.34451927","lat":"30.732421942","category":"170","category_name":"KTV","address":"上海卫清西路168弄99号3f"},{"poiid":"B2094655D36CA0FE459B","title":"金山区政府","lon":"121.34336","lat":"30.74191","category":"38","category_name":"公交车站","address":"金山区金山大道2000号"},{"poiid":"B2094757D068A3F8449B","title":"必胜客(金山百联店)","lon":"121.35021","lat":"30.73057","category":"94","category_name":"西餐厅","address":"近郊金山区卫清西路168弄99号百联金山购物中心1楼B120-121室(近松卫南路)"},{"poiid":"B2094757D06FA4FA459E","title":"避风塘 百联金山店","lon":"121.35021","lat":"30.73057","category":"111","category_name":"休闲餐饮场所","address":"近郊金山区卫清西路168弄99号百联金山购物中心1楼(近松卫南路)"},{"poiid":"B2094757D665ABF8459F","title":"哈根达斯 百联金山店 Haagen-Dazs","lon":"121.35021","lat":"30.73057","category":"67","category_name":"甜品店","address":"近郊金山区卫清西路168弄99号百联金山购物中心B105商铺(近松卫南路)"},{"poiid":"B2094750DA6EA2F5429E","title":"湖蝶轩法式越南料理","lon":"121.346382","lat":"30.729667","category":"247","category_name":"餐饮美食","address":null},{"poiid":"B2094655D264A7FE4299","title":"金山豪庭","lon":"121.35342","lat":"30.734066","category":"47","category_name":"住宅区","address":"上海市金山区卫清东路2988弄"},{"poiid":"B2094757D069A0FC419A","title":"汤姆熊(百联金山店)","lon":"121.34654524","lat":"30.732037833","category":"500","category_name":"未知分类","address":"上海金山区卫清西路168弄99号百联金山购物中心2楼"},{"poiid":"B2094655D265A4FA439A","title":"宝华海湾城","lon":"121.34979","lat":"30.73463","category":"47","category_name":"住宅区","address":"金山杭州湾大道板桥东路1480弄"},{"poiid":"B2094757D168A2FC4698","title":"金山区行政服务中心","lon":"121.340799045","lat":"30.7442538551","category":"500","category_name":"未知分类","address":"上海金山区龙山路555号"},{"poiid":"B2094654DB69A3FB4093","title":"辰凯紫薇苑","lon":"121.34617913329","lat":"30.740805127992","category":"47","category_name":"住宅区","address":"上海市金山区蒙山路1517弄"},{"poiid":"B2094757D06BA2F54398","title":"丰收日(金山百联店)","lon":"121.34889164","lat":"30.731467753","category":"500","category_name":"未知分类","address":"上海金山百联购物中心"},{"poiid":"B2094655D268A2FC429B","title":"金天地花园","lon":"121.350925","lat":"30.731236","category":"47","category_name":"住宅区","address":"金山卫清西路88号"},{"poiid":"B2094757D16BA3FC439E","title":"金山税务局","lon":"121.338526645","lat":"30.7419290002","category":"500","category_name":"未知分类","address":"上海市金山区龙山路"},{"poiid":"B2094757D16CA5FB4292","title":"金海岸花园","lon":"121.3567","lat":"30.72822","category":"47","category_name":"住宅区","address":"上海市金山区龙胜东路789弄"},{"poiid":"B2094751D56DA0FA439A","title":"香涌海鲜大酒楼(金山店)","lon":"121.35697","lat":"30.75479","category":"76","category_name":"上海菜","address":"近郊金山区亭卫公路1515号(近龙皓路)"},{"poiid":"B2094757D065A7FA4298","title":"蓝色收获","lon":"121.35797","lat":"30.742123","category":"249","category_name":"购物服务","address":"上海市金山区板桥东路1200弄"},{"poiid":"B2094655D268A7FF439F","title":"山鑫城市广场","lon":"121.349978","lat":"30.734272","category":"46","category_name":"楼宇","address":"卫清西路139_149号等"},{"poiid":"B2094655D265A5FF429F","title":"上海波曼大酒店","lon":"121.34923","lat":"30.72995","category":"250","category_name":"公园户外","address":"近郊金山区卫清路179号(近金山城市沙滩)"},{"poiid":"B2094654DB69A0F8449D","title":"金山区海棠小学蓝色收获校区","lon":"121.3527","lat":"30.74004","category":"56","category_name":"小学","address":"近郊金山区山阳镇卫阳南路800号"},{"poiid":"B2094655D268A6FD469B","title":"福宴海鲜大酒楼","lon":"121.35036","lat":"30.73032","category":"75","category_name":"浙江菜","address":"近郊金山区卫清西路139号"},{"poiid":"B2094655D36CA7FA489D","title":"海芙路龙皓路","lon":"121.34834","lat":"30.74523","category":"38","category_name":"公交车站","address":""},{"poiid":"B2094757D664A2F44993","title":"韩林炭烤 （百联金山店）","lon":"121.35021","lat":"30.73057","category":"96","category_name":"韩国料理","address":"卫清西路168弄99号百联金山购物中心2楼近松卫南路"},{"poiid":"B2094757D065A2FB489B","title":"棕榈湾花园","lon":"121.3497","lat":"30.736702","category":"47","category_name":"住宅区","address":"上海蒙山路1266弄"},{"poiid":"B2094655D36CA1FF479A","title":"龙皓路(山阳镇政府)","lon":"121.35508","lat":"30.74775","category":"38","category_name":"公交车站","address":""},{"poiid":"B2094750D76EA6F94799","title":"雨盟咖啡","lon":"121.346","lat":"30.7403","category":"94","category_name":"西餐厅","address":"近郊金山区石化杭州湾大道1377号(近金山大道)"},{"poiid":"B2094654DB69A3F9479C","title":"上海市公安局金山分局","lon":"121.33789","lat":"30.74057","category":"248","category_name":"生活娱乐","address":"上海金山区蒙源路110号"},{"poiid":"B2094655D268A6FA449A","title":"莫泰168金山卫清店","lon":"121.35103","lat":"30.73007","category":"216","category_name":"经济型连锁酒店","address":"近郊金山区卫清西路55号"},{"poiid":"B2094757D068A3FF419C","title":"金山区","lon":"121.341964","lat":"30.741986","category":"250","category_name":"公园户外","address":"上海金山区区域"},{"poiid":"B2094654DB68AAFD489C","title":"上海市金山工业区","lon":"121.35702","lat":"30.74805","category":"45","category_name":"产业园区","address":""},{"poiid":"B2094757D568A7FB4093","title":"三品香(卫清店)","lon":"121.3453087","lat":"30.72963515","category":"88","category_name":"海鲜酒楼","address":"上海市金山区卫清西路318号"},{"poiid":"B2094757D068A6F9439D","title":"金山区人民政府","lon":"121.35082244","lat":"30.738594055","category":"252","category_name":"楼宇机构","address":"上海金山区金山大道2000号"},{"poiid":"B2094655D36CA0FE4598","title":"金山区政府(下客站)","lon":"121.34726","lat":"30.74226","category":"38","category_name":"公交车站","address":""},{"poiid":"B2094655D36DA1F54993","title":"新城区教育园区","lon":"121.34604","lat":"30.7455","category":"38","category_name":"公交车站","address":""},{"poiid":"B2094757D16CA4FF4092","title":"味千拉面(金山百联店)","lon":"121.34775619","lat":"30.7326628985","category":"95","category_name":"日本料理","address":"近郊金山区卫清西路168弄99号百联金山购物中心内(近松卫南路)"},{"poiid":"B2094757D569A0FA439C","title":"海尚馨苑","lon":"121.34814","lat":"30.755018","category":"47","category_name":"住宅区","address":"上海市金山区海盛路515弄"},{"poiid":"B2094757D16AA3FB4299","title":"海辰馨苑","lon":"121.35249","lat":"30.757185","category":"47","category_name":"住宅区","address":"海丰路85弄"},{"poiid":"B2094757D16FAAFC439E","title":"金山大道","lon":"121.34906888","lat":"30.7438124447","category":"260","category_name":"其他","address":"上海金山区金山大道"},{"poiid":"B2094654DB68AAF44698","title":"上海广成汽车修理分公司","lon":"121.35603","lat":"30.74744","category":"159","category_name":"汽车维修","address":"金山大道1328号"},{"poiid":"B2094757D16BA5FC4692","title":"金山区康城","lon":"121.3527069","lat":"30.740037918","category":"500","category_name":"未知分类","address":"上海市金山区卫阳南路"},{"poiid":"B2094654DB69A3FC4098","title":"新金山国际幼稚园(松卫南路)","lon":"121.34513","lat":"30.74444","category":"57","category_name":"幼儿园","address":""},{"poiid":"B2094757D069A6FE469C","title":"许留山(金山百联店)","lon":"121.34743773","lat":"30.732148669","category":"67","category_name":"甜品店","address":"上海金山百联"},{"poiid":"B2094757D168A7F44792","title":"好乐迪","lon":"121.34642564","lat":"30.732410775","category":"500","category_name":"未知分类","address":"上海市金山区蒙山路"},{"poiid":"B2094750D268A4FE4493","title":"老金老汤面","lon":"121.341969","lat":"30.741992","category":"68","category_name":"快餐厅","address":"近郊金山区辰凯花园1栋门口"},{"poiid":"B2094655D268A6FD4699","title":"九天银河大浴场","lon":"121.35131","lat":"30.73035","category":"149","category_name":"洗浴推拿场所","address":"近郊金山区卫清西路55号(近杭州湾大道)"},{"poiid":"B2094757D56EA6F54993","title":"旁氏乐购金山店","lon":"121.347524","lat":"30.742103","category":"249","category_name":"购物服务","address":"上海金山区卫青西路477号"}]