[{"poiid":"B2094757D06FA7FC449B","title":"金山石化汽车站","lon":"121.3364732","lat":"30.717885116","category":"35","category_name":"长途汽车站","address":"近郊金山区沪杭公路(卫零路口)"},{"poiid":"B2094757D069A2FC499D","title":"瑞鑫百货","lon":"121.3367","lat":"30.72685","category":"119","category_name":"商场","address":"近郊金山区石化卫零路555号(卫清路口)"},{"poiid":"B2094757D06AAAF54099","title":"上海 石化工业学校","lon":"121.326148987","lat":"30.7213821411","category":"500","category_name":"未知分类","address":"近郊金山区石化龙胜路1097号"},{"poiid":"B2094757D069AAFA4392","title":"卜蜂莲花(金山卫清店)","lon":"121.33615","lat":"30.72736","category":"118","category_name":"超级市场","address":"金山区石化卫清路858号"},{"poiid":"B2094654DB69A1FE4393","title":"蓝山咖啡馆金山店","lon":"121.34013183680531","lat":"30.728110924965684","category":"65","category_name":"咖啡厅","address":"近郊金山区卫清西路641号"},{"poiid":"B2094757DA6EA7FB479A","title":"来客乐","lon":"121.33279","lat":"30.72644","category":"76","category_name":"上海菜","address":"近郊金山石化东平南路855号(近卫清路)"},{"poiid":"B2094757D064A1F4499E","title":"阿香米线","lon":"121.33503364","lat":"30.727581661","category":"257","category_name":"中餐厅","address":"上海市金山区石化卫清西路854号易初莲花内"},{"poiid":"B2094655D36CA6FB449B","title":"东礁","lon":"121.33776","lat":"30.72248","category":"38","category_name":"公交车站","address":""},{"poiid":"B2094654DB69A2FA489F","title":"新亚大包(卫零路)","lon":"121.33658","lat":"30.72645","category":"68","category_name":"快餐厅","address":"近郊金山区卫零路555号瑞鑫百货旁(近卫清路)"},{"poiid":"B2094654DB69A2FA469D","title":"华东师范大学第三附属中学","lon":"121.33593","lat":"30.72332","category":"55","category_name":"中学","address":"卫新路115"},{"poiid":"B2094757D16BA1FB499D","title":"品味轩","lon":"121.334601172","lat":"30.7236309965","category":"76","category_name":"上海菜","address":"近郊龙胜路692号(近金山大道)"},{"poiid":"B2094654DB69A1FD4692","title":"卫零路商业室内步行街","lon":"121.33836","lat":"30.72074","category":"116","category_name":"特色商业街","address":"卫零路288"},{"poiid":"B2094757D46FA3FC489A","title":"85度C 金山店","lon":"121.340028054","lat":"30.726900793","category":"67","category_name":"甜品店","address":"近郊金山区卫零路169号蓝色海岸生活广场1楼L1-19号"},{"poiid":"B2094757D064A5FC4792","title":"金山区石化梅州新村","lon":"121.339511","lat":"30.717898","category":"500","category_name":"未知分类","address":"上海市金山区梅州街"},{"poiid":"B2094654DB69A2FA4493","title":"桥英馨苑","lon":"121.33524","lat":"30.724358","category":"47","category_name":"住宅区","address":"龙胜路666弄"},{"poiid":"B2094757D065A0FC4498","title":"格林豪泰酒店(龙胜路店)","lon":"121.33774281","lat":"30.723502865","category":"217","category_name":"旅馆招待所","address":"近郊金山石化龙胜路555号(卫零路)"},{"poiid":"B2094757D16EA4F8439F","title":"金山房地产交易中心","lon":"121.337282","lat":"30.725537","category":"500","category_name":"未知分类","address":"上海卫零路478号"},{"poiid":"B2094655D268A3F9499D","title":"东门苑(东门)","lon":"121.3327","lat":"30.72472","category":"47","category_name":"住宅区","address":"东平南路535弄1-29号"},{"poiid":"B2094750DA6EA3F54398","title":"鲜芋仙(卫零路店)","lon":"121.338758","lat":"30.718559","category":"67","category_name":"甜品店","address":"近郊金山区卫零路(近老盛昌汤包馆)"},{"poiid":"B2094757D16CA6FB4392","title":"湘港大酒店","lon":"121.33765","lat":"30.71744","category":"72","category_name":"广东菜","address":"近郊金山区石化沪杭公路8484弄3号(近石化汽车站)"},{"poiid":"B2094757D664A6FB499A","title":"新四方美食城 金山店","lon":"121.334074","lat":"30.726825","category":"68","category_name":"快餐厅","address":"近郊金山卫清路(近易初莲花)"},{"poiid":"B2094655D268A4FA4292","title":"桥英馨苑(南门)","lon":"121.33531","lat":"30.72392","category":"47","category_name":"住宅区","address":"龙胜路666弄"},{"poiid":"B2094757D16BABFB479D","title":"超越神话","lon":"121.3304","lat":"30.71923","category":"500","category_name":"未知分类","address":"近郊金山石化临桂路2688号"},{"poiid":"B2094654DB64A7F8419D","title":"东礁一村(一号门)","lon":"121.33847","lat":"30.72215","category":"47","category_name":"住宅区","address":""},{"poiid":"B2094757D16CA7F5419B","title":"锦川火锅","lon":"121.33635918","lat":"30.727727991","category":"86","category_name":"火锅店","address":"近郊金山区卫零路619号(卫清路口)"},{"poiid":"B2094757D065A6FA439F","title":"金山区社会保险事业管理中心","lon":"121.336284","lat":"30.720948","category":"500","category_name":"未知分类","address":"上海市金山区石化街道卫零路357号"},{"poiid":"B2094654DB65A6FB479E","title":"金茜苑大酒店石化店","lon":"121.33477","lat":"30.72378","category":"250","category_name":"公园户外","address":"金山区石化龙胜路688号"},{"poiid":"B2094757D064A7F4489A","title":"金山电信局","lon":"121.336792","lat":"30.724505","category":"500","category_name":"未知分类","address":"上海金山区石化卫零路465号"},{"poiid":"B2094655D268A4FA429D","title":"金山信息大楼","lon":"121.33679","lat":"30.72451","category":"46","category_name":"楼宇","address":"卫零路465"},{"poiid":"B2094655D36CA6FB4498","title":"东礁新村","lon":"121.33777","lat":"30.72246","category":"38","category_name":"公交车站","address":""},{"poiid":"B2094655D264A5FA419E","title":"金山移动A类厅","lon":"121.33754","lat":"30.72448","category":"46","category_name":"楼宇","address":"卫零路410号"},{"poiid":"B2094757D169A6FB419B","title":"馨辕汽车服务","lon":"121.33272717","lat":"30.723391002","category":"163","category_name":"4S店","address":"上海金山区龙胜路730-756号"},{"poiid":"B2094757D16FA2FC499C","title":"园中苑","lon":"121.33442","lat":"30.725948","category":"500","category_name":"未知分类","address":"上海市金山区卫清西路999弄"},{"poiid":"B2094750D464A3FA409B","title":"华师大三附中","lon":"121.336883","lat":"30.723716","category":"500","category_name":"未知分类","address":null},{"poiid":"B2094757D66CA2FA4498","title":"金山移动","lon":"121.33432864","lat":"30.724631592","category":"500","category_name":"未知分类","address":"上海市金山区卫清西路"},{"poiid":"B2094654DB69A1FD419D","title":"木子里日本海鲜料理","lon":"121.33784","lat":"30.72448","category":"88","category_name":"海鲜酒楼","address":"近郊金山石化龙胜路550号(龙胜路卫零路)"},{"poiid":"B2094654DB69A1FD419A","title":"圣普商务大楼","lon":"121.33783","lat":"30.72448","category":"46","category_name":"楼宇","address":"龙胜路540-542"},{"poiid":"B2094654DB69A2FA4698","title":"锦宏建身会所","lon":"121.3362","lat":"30.72406","category":"221","category_name":"健身中心","address":"龙胜路636"},{"poiid":"B2094654DB69A1FD439C","title":"可的好便利店NO.758","lon":"121.3381","lat":"30.72177","category":"117","category_name":"便民商店/便利店","address":"卫零路326"},{"poiid":"B2094654DB69A2FA429A","title":"中国石化集团上海培训中心","lon":"121.32852","lat":"30.722","category":"190","category_name":"培训机构","address":"上海龙胜路909号"},{"poiid":"B2094654DB69A2FA479D","title":"上海职业介绍金山分中心","lon":"121.33729","lat":"30.72328","category":"252","category_name":"楼宇机构","address":"卫零路365"},{"poiid":"B2094654DB69A1FD4498","title":"永乐商场","lon":"121.33829","lat":"30.72181","category":"119","category_name":"商场","address":""},{"poiid":"B2094654DB69A2FA479B","title":"上海市金山区国家税务局","lon":"121.33745","lat":"30.72197","category":"250","category_name":"公园户外","address":"金山区卫新路8号"},{"poiid":"B2094655D26FAAFB4499","title":"卡娃咖啡 石化店 Cova coffee","lon":"121.3381","lat":"30.7245","category":"260","category_name":"其他","address":"近郊金山区石化龙胜路550号"},{"poiid":"B2094655D268A6FE499A","title":"园中苑(北门)","lon":"121.33415","lat":"30.72686","category":"47","category_name":"住宅区","address":"卫清西路999弄"},{"poiid":"B2094654DB69A3FA409E","title":"山龙新村(卫清西路)","lon":"121.33775","lat":"30.72868","category":"47","category_name":"住宅区","address":"山龙新村"},{"poiid":"B2094750D56AAAFD469E","title":"易家商业中心","lon":"121.329274","lat":"30.726841","category":"47","category_name":"住宅区","address":"城河路330号"},{"poiid":"B2094655D268A5FA4592","title":"新金山公寓","lon":"121.33581","lat":"30.72617","category":"47","category_name":"住宅区","address":""},{"poiid":"B2094757D66DA2F9499D","title":"东门苑","lon":"121.33215","lat":"30.724745","category":"500","category_name":"未知分类","address":"东平路535弄"},{"poiid":"B2094654DB69A3F4499A","title":"金浦苑","lon":"121.33309","lat":"30.728344","category":"47","category_name":"住宅区","address":"上海市金山区卫清西路950弄"},{"poiid":"B2094757D06FA7FC449B","title":"金山石化汽车站","lon":"121.3364732","lat":"30.717885116","category":"35","category_name":"长途汽车站","address":"近郊金山区沪杭公路(卫零路口)"},{"poiid":"B2094757D069A2FC499D","title":"瑞鑫百货","lon":"121.3367","lat":"30.72685","category":"119","category_name":"商场","address":"近郊金山区石化卫零路555号(卫清路口)"},{"poiid":"B2094757D06AAAF54099","title":"上海 石化工业学校","lon":"121.326148987","lat":"30.7213821411","category":"500","category_name":"未知分类","address":"近郊金山区石化龙胜路1097号"},{"poiid":"B2094757D069AAFA4392","title":"卜蜂莲花(金山卫清店)","lon":"121.33615","lat":"30.72736","category":"118","category_name":"超级市场","address":"金山区石化卫清路858号"},{"poiid":"B2094654DB69A1FE4393","title":"蓝山咖啡馆金山店","lon":"121.34013183680531","lat":"30.728110924965684","category":"65","category_name":"咖啡厅","address":"近郊金山区卫清西路641号"},{"poiid":"B2094757DA6EA7FB479A","title":"来客乐","lon":"121.33279","lat":"30.72644","category":"76","category_name":"上海菜","address":"近郊金山石化东平南路855号(近卫清路)"},{"poiid":"B2094757D064A1F4499E","title":"阿香米线","lon":"121.33503364","lat":"30.727581661","category":"257","category_name":"中餐厅","address":"上海市金山区石化卫清西路854号易初莲花内"},{"poiid":"B2094655D36CA6FB449B","title":"东礁","lon":"121.33776","lat":"30.72248","category":"38","category_name":"公交车站","address":""},{"poiid":"B2094654DB69A2FA489F","title":"新亚大包(卫零路)","lon":"121.33658","lat":"30.72645","category":"68","category_name":"快餐厅","address":"近郊金山区卫零路555号瑞鑫百货旁(近卫清路)"},{"poiid":"B2094654DB69A2FA469D","title":"华东师范大学第三附属中学","lon":"121.33593","lat":"30.72332","category":"55","category_name":"中学","address":"卫新路115"},{"poiid":"B2094757D16BA1FB499D","title":"品味轩","lon":"121.334601172","lat":"30.7236309965","category":"76","category_name":"上海菜","address":"近郊龙胜路692号(近金山大道)"},{"poiid":"B2094654DB69A1FD4692","title":"卫零路商业室内步行街","lon":"121.33836","lat":"30.72074","category":"116","category_name":"特色商业街","address":"卫零路288"},{"poiid":"B2094757D46FA3FC489A","title":"85度C 金山店","lon":"121.340028054","lat":"30.726900793","category":"67","category_name":"甜品店","address":"近郊金山区卫零路169号蓝色海岸生活广场1楼L1-19号"},{"poiid":"B2094757D064A5FC4792","title":"金山区石化梅州新村","lon":"121.339511","lat":"30.717898","category":"500","category_name":"未知分类","address":"上海市金山区梅州街"},{"poiid":"B2094654DB69A2FA4493","title":"桥英馨苑","lon":"121.33524","lat":"30.724358","category":"47","category_name":"住宅区","address":"龙胜路666弄"},{"poiid":"B2094757D065A0FC4498","title":"格林豪泰酒店(龙胜路店)","lon":"121.33774281","lat":"30.723502865","category":"217","category_name":"旅馆招待所","address":"近郊金山石化龙胜路555号(卫零路)"},{"poiid":"B2094757D16EA4F8439F","title":"金山房地产交易中心","lon":"121.337282","lat":"30.725537","category":"500","category_name":"未知分类","address":"上海卫零路478号"},{"poiid":"B2094655D268A3F9499D","title":"东门苑(东门)","lon":"121.3327","lat":"30.72472","category":"47","category_name":"住宅区","address":"东平南路535弄1-29号"},{"poiid":"B2094750DA6EA3F54398","title":"鲜芋仙(卫零路店)","lon":"121.338758","lat":"30.718559","category":"67","category_name":"甜品店","address":"近郊金山区卫零路(近老盛昌汤包馆)"},{"poiid":"B2094757D16CA6FB4392","title":"湘港大酒店","lon":"121.33765","lat":"30.71744","category":"72","category_name":"广东菜","address":"近郊金山区石化沪杭公路8484弄3号(近石化汽车站)"},{"poiid":"B2094757D664A6FB499A","title":"新四方美食城 金山店","lon":"121.334074","lat":"30.726825","category":"68","category_name":"快餐厅","address":"近郊金山卫清路(近易初莲花)"},{"poiid":"B2094655D268A4FA4292","title":"桥英馨苑(南门)","lon":"121.33531","lat":"30.72392","category":"47","category_name":"住宅区","address":"龙胜路666弄"},{"poiid":"B2094757D16BABFB479D","title":"超越神话","lon":"121.3304","lat":"30.71923","category":"500","category_name":"未知分类","address":"近郊金山石化临桂路2688号"},{"poiid":"B2094654DB64A7F8419D","title":"东礁一村(一号门)","lon":"121.33847","lat":"30.72215","category":"47","category_name":"住宅区","address":""},{"poiid":"B2094757D16CA7F5419B","title":"锦川火锅","lon":"121.33635918","lat":"30.727727991","category":"86","category_name":"火锅店","address":"近郊金山区卫零路619号(卫清路口)"},{"poiid":"B2094757D065A6FA439F","title":"金山区社会保险事业管理中心","lon":"121.336284","lat":"30.720948","category":"500","category_name":"未知分类","address":"上海市金山区石化街道卫零路357号"},{"poiid":"B2094654DB65A6FB479E","title":"金茜苑大酒店石化店","lon":"121.33477","lat":"30.72378","category":"250","category_name":"公园户外","address":"金山区石化龙胜路688号"},{"poiid":"B2094757D064A7F4489A","title":"金山电信局","lon":"121.336792","lat":"30.724505","category":"500","category_name":"未知分类","address":"上海金山区石化卫零路465号"},{"poiid":"B2094655D268A4FA429D","title":"金山信息大楼","lon":"121.33679","lat":"30.72451","category":"46","category_name":"楼宇","address":"卫零路465"},{"poiid":"B2094655D36CA6FB4498","title":"东礁新村","lon":"121.33777","lat":"30.72246","category":"38","category_name":"公交车站","address":""},{"poiid":"B2094655D264A5FA419E","title":"金山移动A类厅","lon":"121.33754","lat":"30.72448","category":"46","category_name":"楼宇","address":"卫零路410号"},{"poiid":"B2094757D169A6FB419B","title":"馨辕汽车服务","lon":"121.33272717","lat":"30.723391002","category":"163","category_name":"4S店","address":"上海金山区龙胜路730-756号"},{"poiid":"B2094757D16FA2FC499C","title":"园中苑","lon":"121.33442","lat":"30.725948","category":"500","category_name":"未知分类","address":"上海市金山区卫清西路999弄"},{"poiid":"B2094750D464A3FA409B","title":"华师大三附中","lon":"121.336883","lat":"30.723716","category":"500","category_name":"未知分类","address":null},{"poiid":"B2094757D66CA2FA4498","title":"金山移动","lon":"121.33432864","lat":"30.724631592","category":"500","category_name":"未知分类","address":"上海市金山区卫清西路"},{"poiid":"B2094654DB69A1FD419D","title":"木子里日本海鲜料理","lon":"121.33784","lat":"30.72448","category":"88","category_name":"海鲜酒楼","address":"近郊金山石化龙胜路550号(龙胜路卫零路)"},{"poiid":"B2094654DB69A1FD419A","title":"圣普商务大楼","lon":"121.33783","lat":"30.72448","category":"46","category_name":"楼宇","address":"龙胜路540-542"},{"poiid":"B2094654DB69A2FA4698","title":"锦宏建身会所","lon":"121.3362","lat":"30.72406","category":"221","category_name":"健身中心","address":"龙胜路636"},{"poiid":"B2094654DB69A1FD439C","title":"可的好便利店NO.758","lon":"121.3381","lat":"30.72177","category":"117","category_name":"便民商店/便利店","address":"卫零路326"},{"poiid":"B2094654DB69A2FA429A","title":"中国石化集团上海培训中心","lon":"121.32852","lat":"30.722","category":"190","category_name":"培训机构","address":"上海龙胜路909号"},{"poiid":"B2094654DB69A2FA479D","title":"上海职业介绍金山分中心","lon":"121.33729","lat":"30.72328","category":"252","category_name":"楼宇机构","address":"卫零路365"},{"poiid":"B2094654DB69A1FD4498","title":"永乐商场","lon":"121.33829","lat":"30.72181","category":"119","category_name":"商场","address":""},{"poiid":"B2094654DB69A2FA479B","title":"上海市金山区国家税务局","lon":"121.33745","lat":"30.72197","category":"250","category_name":"公园户外","address":"金山区卫新路8号"},{"poiid":"B2094655D26FAAFB4499","title":"卡娃咖啡 石化店 Cova coffee","lon":"121.3381","lat":"30.7245","category":"260","category_name":"其他","address":"近郊金山区石化龙胜路550号"},{"poiid":"B2094655D268A6FE499A","title":"园中苑(北门)","lon":"121.33415","lat":"30.72686","category":"47","category_name":"住宅区","address":"卫清西路999弄"},{"poiid":"B2094654DB69A3FA409E","title":"山龙新村(卫清西路)","lon":"121.33775","lat":"30.72868","category":"47","category_name":"住宅区","address":"山龙新村"},{"poiid":"B2094750D56AAAFD469E","title":"易家商业中心","lon":"121.329274","lat":"30.726841","category":"47","category_name":"住宅区","address":"城河路330号"},{"poiid":"B2094655D268A5FA4592","title":"新金山公寓","lon":"121.33581","lat":"30.72617","category":"47","category_name":"住宅区","address":""},{"poiid":"B2094757D66DA2F9499D","title":"东门苑","lon":"121.33215","lat":"30.724745","category":"500","category_name":"未知分类","address":"东平路535弄"},{"poiid":"B2094654DB69A3F4499A","title":"金浦苑","lon":"121.33309","lat":"30.728344","category":"47","category_name":"住宅区","address":"上海市金山区卫清西路950弄"},{"poiid":"B2094757D06FA7FC449B","title":"金山石化汽车站","lon":"121.3364732","lat":"30.717885116","category":"35","category_name":"长途汽车站","address":"近郊金山区沪杭公路(卫零路口)"},{"poiid":"B2094757D069A2FC499D","title":"瑞鑫百货","lon":"121.3367","lat":"30.72685","category":"119","category_name":"商场","address":"近郊金山区石化卫零路555号(卫清路口)"},{"poiid":"B2094757D06AAAF54099","title":"上海 石化工业学校","lon":"121.326148987","lat":"30.7213821411","category":"500","category_name":"未知分类","address":"近郊金山区石化龙胜路1097号"},{"poiid":"B2094757D069AAFA4392","title":"卜蜂莲花(金山卫清店)","lon":"121.33615","lat":"30.72736","category":"118","category_name":"超级市场","address":"金山区石化卫清路858号"},{"poiid":"B2094654DB69A1FE4393","title":"蓝山咖啡馆金山店","lon":"121.34013183680531","lat":"30.728110924965684","category":"65","category_name":"咖啡厅","address":"近郊金山区卫清西路641号"},{"poiid":"B2094757DA6EA7FB479A","title":"来客乐","lon":"121.33279","lat":"30.72644","category":"76","category_name":"上海菜","address":"近郊金山石化东平南路855号(近卫清路)"},{"poiid":"B2094757D064A1F4499E","title":"阿香米线","lon":"121.33503364","lat":"30.727581661","category":"257","category_name":"中餐厅","address":"上海市金山区石化卫清西路854号易初莲花内"},{"poiid":"B2094655D36CA6FB449B","title":"东礁","lon":"121.33776","lat":"30.72248","category":"38","category_name":"公交车站","address":""},{"poiid":"B2094654DB69A2FA489F","title":"新亚大包(卫零路)","lon":"121.33658","lat":"30.72645","category":"68","category_name":"快餐厅","address":"近郊金山区卫零路555号瑞鑫百货旁(近卫清路)"},{"poiid":"B2094654DB69A2FA469D","title":"华东师范大学第三附属中学","lon":"121.33593","lat":"30.72332","category":"55","category_name":"中学","address":"卫新路115"},{"poiid":"B2094757D16BA1FB499D","title":"品味轩","lon":"121.334601172","lat":"30.7236309965","category":"76","category_name":"上海菜","address":"近郊龙胜路692号(近金山大道)"},{"poiid":"B2094654DB69A1FD4692","title":"卫零路商业室内步行街","lon":"121.33836","lat":"30.72074","category":"116","category_name":"特色商业街","address":"卫零路288"},{"poiid":"B2094757D46FA3FC489A","title":"85度C 金山店","lon":"121.340028054","lat":"30.726900793","category":"67","category_name":"甜品店","address":"近郊金山区卫零路169号蓝色海岸生活广场1楼L1-19号"},{"poiid":"B2094757D064A5FC4792","title":"金山区石化梅州新村","lon":"121.339511","lat":"30.717898","category":"500","category_name":"未知分类","address":"上海市金山区梅州街"},{"poiid":"B2094654DB69A2FA4493","title":"桥英馨苑","lon":"121.33524","lat":"30.724358","category":"47","category_name":"住宅区","address":"龙胜路666弄"},{"poiid":"B2094757D065A0FC4498","title":"格林豪泰酒店(龙胜路店)","lon":"121.33774281","lat":"30.723502865","category":"217","category_name":"旅馆招待所","address":"近郊金山石化龙胜路555号(卫零路)"},{"poiid":"B2094757D16EA4F8439F","title":"金山房地产交易中心","lon":"121.337282","lat":"30.725537","category":"500","category_name":"未知分类","address":"上海卫零路478号"},{"poiid":"B2094655D268A3F9499D","title":"东门苑(东门)","lon":"121.3327","lat":"30.72472","category":"47","category_name":"住宅区","address":"东平南路535弄1-29号"},{"poiid":"B2094750DA6EA3F54398","title":"鲜芋仙(卫零路店)","lon":"121.338758","lat":"30.718559","category":"67","category_name":"甜品店","address":"近郊金山区卫零路(近老盛昌汤包馆)"},{"poiid":"B2094757D16CA6FB4392","title":"湘港大酒店","lon":"121.33765","lat":"30.71744","category":"72","category_name":"广东菜","address":"近郊金山区石化沪杭公路8484弄3号(近石化汽车站)"},{"poiid":"B2094757D664A6FB499A","title":"新四方美食城 金山店","lon":"121.334074","lat":"30.726825","category":"68","category_name":"快餐厅","address":"近郊金山卫清路(近易初莲花)"},{"poiid":"B2094655D268A4FA4292","title":"桥英馨苑(南门)","lon":"121.33531","lat":"30.72392","category":"47","category_name":"住宅区","address":"龙胜路666弄"},{"poiid":"B2094757D16BABFB479D","title":"超越神话","lon":"121.3304","lat":"30.71923","category":"500","category_name":"未知分类","address":"近郊金山石化临桂路2688号"},{"poiid":"B2094654DB64A7F8419D","title":"东礁一村(一号门)","lon":"121.33847","lat":"30.72215","category":"47","category_name":"住宅区","address":""},{"poiid":"B2094757D16CA7F5419B","title":"锦川火锅","lon":"121.33635918","lat":"30.727727991","category":"86","category_name":"火锅店","address":"近郊金山区卫零路619号(卫清路口)"},{"poiid":"B2094757D065A6FA439F","title":"金山区社会保险事业管理中心","lon":"121.336284","lat":"30.720948","category":"500","category_name":"未知分类","address":"上海市金山区石化街道卫零路357号"},{"poiid":"B2094654DB65A6FB479E","title":"金茜苑大酒店石化店","lon":"121.33477","lat":"30.72378","category":"250","category_name":"公园户外","address":"金山区石化龙胜路688号"},{"poiid":"B2094757D064A7F4489A","title":"金山电信局","lon":"121.336792","lat":"30.724505","category":"500","category_name":"未知分类","address":"上海金山区石化卫零路465号"},{"poiid":"B2094655D268A4FA429D","title":"金山信息大楼","lon":"121.33679","lat":"30.72451","category":"46","category_name":"楼宇","address":"卫零路465"},{"poiid":"B2094655D36CA6FB4498","title":"东礁新村","lon":"121.33777","lat":"30.72246","category":"38","category_name":"公交车站","address":""},{"poiid":"B2094655D264A5FA419E","title":"金山移动A类厅","lon":"121.33754","lat":"30.72448","category":"46","category_name":"楼宇","address":"卫零路410号"},{"poiid":"B2094757D169A6FB419B","title":"馨辕汽车服务","lon":"121.33272717","lat":"30.723391002","category":"163","category_name":"4S店","address":"上海金山区龙胜路730-756号"},{"poiid":"B2094757D16FA2FC499C","title":"园中苑","lon":"121.33442","lat":"30.725948","category":"500","category_name":"未知分类","address":"上海市金山区卫清西路999弄"},{"poiid":"B2094750D464A3FA409B","title":"华师大三附中","lon":"121.336883","lat":"30.723716","category":"500","category_name":"未知分类","address":null},{"poiid":"B2094757D66CA2FA4498","title":"金山移动","lon":"121.33432864","lat":"30.724631592","category":"500","category_name":"未知分类","address":"上海市金山区卫清西路"},{"poiid":"B2094654DB69A1FD419D","title":"木子里日本海鲜料理","lon":"121.33784","lat":"30.72448","category":"88","category_name":"海鲜酒楼","address":"近郊金山石化龙胜路550号(龙胜路卫零路)"},{"poiid":"B2094654DB69A1FD419A","title":"圣普商务大楼","lon":"121.33783","lat":"30.72448","category":"46","category_name":"楼宇","address":"龙胜路540-542"},{"poiid":"B2094654DB69A2FA4698","title":"锦宏建身会所","lon":"121.3362","lat":"30.72406","category":"221","category_name":"健身中心","address":"龙胜路636"},{"poiid":"B2094654DB69A1FD439C","title":"可的好便利店NO.758","lon":"121.3381","lat":"30.72177","category":"117","category_name":"便民商店/便利店","address":"卫零路326"},{"poiid":"B2094654DB69A2FA429A","title":"中国石化集团上海培训中心","lon":"121.32852","lat":"30.722","category":"190","category_name":"培训机构","address":"上海龙胜路909号"},{"poiid":"B2094654DB69A2FA479D","title":"上海职业介绍金山分中心","lon":"121.33729","lat":"30.72328","category":"252","category_name":"楼宇机构","address":"卫零路365"},{"poiid":"B2094654DB69A1FD4498","title":"永乐商场","lon":"121.33829","lat":"30.72181","category":"119","category_name":"商场","address":""},{"poiid":"B2094654DB69A2FA479B","title":"上海市金山区国家税务局","lon":"121.33745","lat":"30.72197","category":"250","category_name":"公园户外","address":"金山区卫新路8号"},{"poiid":"B2094655D26FAAFB4499","title":"卡娃咖啡 石化店 Cova coffee","lon":"121.3381","lat":"30.7245","category":"260","category_name":"其他","address":"近郊金山区石化龙胜路550号"},{"poiid":"B2094655D268A6FE499A","title":"园中苑(北门)","lon":"121.33415","lat":"30.72686","category":"47","category_name":"住宅区","address":"卫清西路999弄"},{"poiid":"B2094654DB69A3FA409E","title":"山龙新村(卫清西路)","lon":"121.33775","lat":"30.72868","category":"47","category_name":"住宅区","address":"山龙新村"},{"poiid":"B2094750D56AAAFD469E","title":"易家商业中心","lon":"121.329274","lat":"30.726841","category":"47","category_name":"住宅区","address":"城河路330号"},{"poiid":"B2094655D268A5FA4592","title":"新金山公寓","lon":"121.33581","lat":"30.72617","category":"47","category_name":"住宅区","address":""},{"poiid":"B2094757D66DA2F9499D","title":"东门苑","lon":"121.33215","lat":"30.724745","category":"500","category_name":"未知分类","address":"东平路535弄"},{"poiid":"B2094654DB69A3F4499A","title":"金浦苑","lon":"121.33309","lat":"30.728344","category":"47","category_name":"住宅区","address":"上海市金山区卫清西路950弄"}]