[{"poiid":"B2094757D168AAF9419E","title":"金山嘴","lon":"121.37316467","lat":"30.728571241","category":"500","category_name":"未知分类","address":"上海市金山区亭卫南路"},{"poiid":"B2094757DA65A3F54998","title":"上海金山嘴渔村","lon":"121.3713456639883","lat":"30.7348745679435","category":"247","category_name":"餐饮美食","address":"近郊金山金山嘴"},{"poiid":"B2094654DB69A3FC4099","title":"大金山酒家","lon":"121.37618","lat":"30.73253","category":"260","category_name":"其他","address":"近郊金山区金山嘴海鲜一条街(近沪杭公路)"},{"poiid":"B2094655D36CA0FE449F","title":"金山嘴","lon":"121.37486","lat":"30.73082","category":"38","category_name":"公交车站","address":""},{"poiid":"B2094655D36CA7FA469E","title":"杭州湾大道","lon":"121.37448","lat":"30.73038","category":"38","category_name":"公交车站","address":""},{"poiid":"B2094757D66CAAFF4698","title":"恒隆大酒店","lon":"121.37954711","lat":"30.728532791","category":"76","category_name":"上海菜","address":"上海金山區滬航公路"},{"poiid":"B2094654DB69A3FC419B","title":"金山嘴大酒店","lon":"121.37442","lat":"30.73061","category":"76","category_name":"上海菜","address":"近郊金山区沪杭公路6468号海鲜一条街(近亭卫南路)"},{"poiid":"B2094757D065A4FD429F","title":"金海岸酒家","lon":"121.37138697","lat":"30.728765495","category":"88","category_name":"海鲜酒楼","address":"近郊金山区金山嘴海鲜一条街"},{"poiid":"B2094757D465A2F54493","title":"天桥酒店","lon":"121.374511054","lat":"30.728685793","category":"88","category_name":"海鲜酒楼","address":"近郊金山区沪航公路6412号(近金山嘴海鲜一条街)"},{"poiid":"B2094757D165A3FD429C","title":"鑫潮海鲜馆","lon":"121.37401283","lat":"30.729757239","category":"247","category_name":"餐饮美食","address":"近郊金山区金山嘴海鲜一条街6480号"},{"poiid":"B2094654DB69A3FC409D","title":"天桥大酒店","lon":"121.3756","lat":"30.73208","category":"250","category_name":"公园户外","address":"石化"},{"poiid":"B2094757D66EA4FB409C","title":"光辉小海鲜","lon":"121.37498","lat":"30.73047","category":"260","category_name":"其他","address":"近郊金山区沪杭公路6422号金山嘴海鲜一条街"},{"poiid":"B2094654DB69A3FC4198","title":"永乐大酒店","lon":"121.37422","lat":"30.73032","category":"250","category_name":"公园户外","address":"石化"},{"poiid":"B2094751D26EA7FD4092","title":"金山卫地铁站","lon":"121.372886","lat":"30.731716","category":"36","category_name":"地铁站","address":"金山"},{"poiid":"B2094757D168A2F94093","title":"新金山嘴大酒店(金山嘴海鲜一条街)","lon":"121.367648671","lat":"30.7354013921","category":"88","category_name":"海鲜酒楼","address":"上海市金山区金山嘴沪杭公路"},{"poiid":"B2094750D665A7FE469F","title":"天天量贩式海鲜城","lon":"121.372","lat":"30.7297","category":"260","category_name":"其他","address":"近郊金山区亭卫南路88号金山嘴海鲜城(近沪杭公路)"},{"poiid":"B2094751DB64ABFC4193","title":"金汕码头","lon":"121.36953","lat":"30.72864","category":"72","category_name":"广东菜","address":"近郊金山区亭卫南路88号(近沪杭公路)"}]