[{"poiid":"B2094655D36DA7FA489C","title":"朱泾","lon":"121.16849","lat":"30.89183","category":"38","category_name":"公交车站","address":""},{"poiid":"B2094757D068A4FA449B","title":"东林寺","lon":"121.166431459","lat":"30.8943811709","category":"246","category_name":"回教寺","address":"近郊金山区朱泾镇东林街(近东林坊步行街)"},{"poiid":"B2094654DB68A1F4459A","title":"金山汽车站","lon":"121.16913","lat":"30.89231","category":"35","category_name":"长途汽车站","address":"上海金山区朱泾镇罗星路"},{"poiid":"B2094757D06AA2F8439E","title":"朱泾大光明影城","lon":"121.166709","lat":"30.896149","category":"178","category_name":"电影院","address":"上海市金山区朱泾镇人民路160号5楼"},{"poiid":"B2094757D065A7F9439F","title":"金山区中心医院","lon":"121.158483103","lat":"30.8932906605","category":"162","category_name":"医院","address":"近郊金山区健康路146号(近新汇街)"},{"poiid":"B2094757D06BA2F9459A","title":"自由港量贩式KTV(朱泾店)","lon":"121.16919","lat":"30.88602","category":"170","category_name":"KTV","address":"近郊金龙新街528弄7115号3楼(罗星南路和金龙新街间)"},{"poiid":"B2094757D66BA6F5489A","title":"肯德基 朱泾店 KFC","lon":"121.159978054","lat":"30.898310793","category":"68","category_name":"快餐厅","address":"近郊金山区朱泾镇公园路246弄51号"},{"poiid":"B2094757D064A3FA4492","title":"上岛咖啡(朱泾店)","lon":"121.168036","lat":"30.89659","category":"65","category_name":"咖啡厅","address":"近郊朱泾人民路"},{"poiid":"B2094654DB68A1F54192","title":"汇都大酒楼 朱泾店","lon":"121.172134054","lat":"30.892881793","category":"70","category_name":"综合酒楼","address":"近郊金山区朱泾镇亭枫公路3759弄58号(近沈浦泾南路)"},{"poiid":"B2094757D06BA6FF459E","title":"紫金广场","lon":"121.15992748","lat":"30.898094888","category":"500","category_name":"未知分类","address":"上海金山区朱泾镇万安街"},{"poiid":"B2094655D26FA4F8419A","title":"上海交大附属第六医院金山分院","lon":"121.1564","lat":"30.89327","category":"162","category_name":"医院","address":"朱泾镇健康路146号2号楼"},{"poiid":"B2094757D168A2F4489E","title":"南佳苑酒店","lon":"121.164650054","lat":"30.890314793","category":"76","category_name":"上海菜","address":"近郊金山区朱泾金龙新街501号3楼(近罗星南路)"},{"poiid":"B2094752D06CA0F9489C","title":"上海17.5影城(金龙新街店)","lon":"121.1692","lat":"30.88696","category":"178","category_name":"电影院","address":"近郊金山朱泾镇金龙新街528弄金上海生活广场7105号(近自由港KTV)"},{"poiid":"B2094751D46BABFD499E","title":"乐购上海沈浦泾店","lon":"121.167995","lat":"30.897236","category":"500","category_name":"未知分类","address":"沈浦泾路50号"},{"poiid":"B2094654DB68A0FE4299","title":"紫金名苑","lon":"121.17234","lat":"30.88922","category":"47","category_name":"住宅区","address":""},{"poiid":"B2094757D16CA5F94692","title":"味千拉面(万安街店)","lon":"121.1682705","lat":"30.8969715","category":"95","category_name":"日本料理","address":"近郊金山朱泾镇万安街835号1楼(朱泾万安街罗星路)"},{"poiid":"B2094655D36DA7FA489D","title":"朱泾汽车站","lon":"121.16939","lat":"30.89236","category":"35","category_name":"长途汽车站","address":"近郊金山区亭枫公路4420号(近罗星路)"},{"poiid":"B2094654DB69A6FD4892","title":"汇佳新苑","lon":"121.17064","lat":"30.885014","category":"47","category_name":"住宅区","address":"上海市浦东新区盛苑路777弄1-39号"},{"poiid":"B2094757D16FAAF9469A","title":"金山中学","lon":"121.1609361","lat":"30.882937427","category":"55","category_name":"中学","address":"近郊金山区朱泾镇众益街899号(塘园路众益街)"},{"poiid":"B2094655D36CA7FF4693","title":"红菱苑","lon":"121.16035","lat":"30.899189","category":"38","category_name":"公交车站","address":"上海市金山区朱泾镇秀州街718弄"},{"poiid":"B2094750D568A3F84299","title":"朱泾大酒店","lon":"121.17","lat":"30.8896","category":"76","category_name":"上海菜","address":"近郊金山区朱泾镇众安街486号"},{"poiid":"B2094757D16DAAFE4793","title":"哈里欧咖啡(金山店)","lon":"121.17021","lat":"30.8895","category":"260","category_name":"其他","address":"近郊金山区罗星南路528号(众安街口)"},{"poiid":"B2094757D06BA1FF4098","title":"金山朱泾金玉良苑","lon":"121.169206","lat":"30.884691","category":"500","category_name":"未知分类","address":"上海罗星南路303弄"},{"poiid":"B2094654DB68A0FD479F","title":"上海交通大学医学院附属卫校金山分校","lon":"121.16492","lat":"30.88982","category":"52","category_name":"高等院校","address":"金山区卫生路43"},{"poiid":"B2094655D26FA4F8419B","title":"金山区朱泾地段医院","lon":"121.16959","lat":"30.89105","category":"162","category_name":"医院","address":"亭枫公路4371号"},{"poiid":"B2094757DA65A5F5469C","title":"莫泰168（上海金山朱泾店）","lon":"121.166678667","lat":"30.896834544","category":"216","category_name":"经济型连锁酒店","address":"上海市金山区朱泾镇万安街625号西侧"},{"poiid":"B2094654DB68A0FE409A","title":"金西苑","lon":"121.16996","lat":"30.892204","category":"47","category_name":"住宅区","address":"亭枫公路"},{"poiid":"B2094655D26BA1FB4292","title":"罗星南路","lon":"121.16879","lat":"30.88605","category":"38","category_name":"公交车站","address":""},{"poiid":"B2094655D36DA7F94498","title":"钟楼新村","lon":"121.17352","lat":"30.900301","category":"38","category_name":"公交车站","address":"上海金山区朱泾镇"},{"poiid":"B2094654DB68A0FE4298","title":"上海市金山区广播电视台","lon":"121.17047","lat":"30.89127","category":"59","category_name":"电视台","address":"亭风公路4325号"},{"poiid":"B2094654DB68A0FE429B","title":"金山公安分局交通警察支队","lon":"121.17049","lat":"30.89117","category":"250","category_name":"公园户外","address":""},{"poiid":"B2094654DB68A0FD449D","title":"临仓小区","lon":"121.17211","lat":"30.892965","category":"47","category_name":"住宅区","address":"临仓街298弄"},{"poiid":"B2094757D568A0F5499E","title":"金上海生活广场","lon":"121.16806966","lat":"30.88672607","category":"249","category_name":"购物服务","address":"朱泾镇金龙新街528弄"},{"poiid":"B209475DD369ABFC4998","title":"上海广缘大酒店","lon":"121.169876","lat":"30.889886","category":"247","category_name":"餐饮美食","address":"上海市金山区朱泾镇罗星南路528号"},{"poiid":"B2094655D264A6F4449F","title":"万安金邸","lon":"121.17271","lat":"30.896271","category":"47","category_name":"住宅区","address":"金山区朱泾镇万安街55弄"},{"poiid":"B2094654DB68A1F4459E","title":"金山电影院","lon":"121.16646","lat":"30.896759","category":"178","category_name":"电影院","address":"万安街625号"},{"poiid":"B2094757D165A3FE419B","title":"澳門葡京賭場","lon":"121.169630103","lat":"30.8947706938","category":"248","category_name":"生活娱乐","address":"澳门澳門"},{"poiid":"B2094757D465A7FC419D","title":"美林阁 金龙新街店","lon":"121.166339","lat":"30.88584","category":"76","category_name":"上海菜","address":"近郊金山朱泾镇金龙新街535号"},{"poiid":"B2094655D36CA1FC4193","title":"沈浦泾路","lon":"121.17424","lat":"30.89604","category":"38","category_name":"公交车站","address":""},{"poiid":"B2094752D36DA1FD459D","title":"上海汇众汽车底盘厂","lon":"121.171246","lat":"30.893229","category":"500","category_name":"未知分类","address":"沈浦泾路151号"},{"poiid":"B2094757D165A5F84192","title":"金山众仁老年护理医院","lon":"121.1675477","lat":"30.893504965","category":"162","category_name":"医院","address":"上海东林寺对面"},{"poiid":"B2094757D16BA1F8439B","title":"川流不息 朱泾店","lon":"121.15718820669","lat":"30.899876489171","category":"71","category_name":"四川菜","address":"近郊朱泾镇健康路451号(健康路临源街)"},{"poiid":"B2094654DB69A6F94399","title":"上海市宝山现代农业园区","lon":"121.17423","lat":"30.8916","category":"45","category_name":"产业园区","address":"宝山区罗南镇塘汇河"},{"poiid":"B2094750D76DA0F54593","title":"海利豆捞","lon":"121.167","lat":"30.8859","category":"86","category_name":"火锅店","address":"近郊金山区朱泾镇金龙新街(近金山联华超市)"},{"poiid":"B2094757D16EA6F8459B","title":"名谷酒店","lon":"121.16666","lat":"30.88585","category":"76","category_name":"上海菜","address":"近郊金山区朱泾镇金龙新街472号"},{"poiid":"B2094654DB68A0FC479B","title":"南圩小区","lon":"121.16128","lat":"30.89729","category":"47","category_name":"住宅区","address":"朱泾镇"},{"poiid":"B2094757D164A5F4459B","title":"金山民政局","lon":"121.171991403","lat":"30.8996181028","category":"500","category_name":"未知分类","address":"上海临源街620号"},{"poiid":"B2094654DB64A0F54992","title":"新华书店(朱泾·万安街)","lon":"121.1666","lat":"30.89714","category":"125","category_name":"书店","address":""},{"poiid":"B2094654DB64A7FC4192","title":"好德(朱泾·万安街)","lon":"121.16806","lat":"30.89678","category":"117","category_name":"便民商店/便利店","address":""},{"poiid":"B2094655D36CA0FE4593","title":"金山大桥","lon":"121.17668","lat":"30.89231","category":"38","category_name":"公交车站","address":""},{"poiid":"B2094655D36DA7FA489C","title":"朱泾","lon":"121.16849","lat":"30.89183","category":"38","category_name":"公交车站","address":""},{"poiid":"B2094757D068A4FA449B","title":"东林寺","lon":"121.166431459","lat":"30.8943811709","category":"246","category_name":"回教寺","address":"近郊金山区朱泾镇东林街(近东林坊步行街)"},{"poiid":"B2094654DB68A1F4459A","title":"金山汽车站","lon":"121.16913","lat":"30.89231","category":"35","category_name":"长途汽车站","address":"上海金山区朱泾镇罗星路"},{"poiid":"B2094757D06AA2F8439E","title":"朱泾大光明影城","lon":"121.166709","lat":"30.896149","category":"178","category_name":"电影院","address":"上海市金山区朱泾镇人民路160号5楼"},{"poiid":"B2094757D065A7F9439F","title":"金山区中心医院","lon":"121.158483103","lat":"30.8932906605","category":"162","category_name":"医院","address":"近郊金山区健康路146号(近新汇街)"},{"poiid":"B2094757D06BA2F9459A","title":"自由港量贩式KTV(朱泾店)","lon":"121.16919","lat":"30.88602","category":"170","category_name":"KTV","address":"近郊金龙新街528弄7115号3楼(罗星南路和金龙新街间)"},{"poiid":"B2094757D66BA6F5489A","title":"肯德基 朱泾店 KFC","lon":"121.159978054","lat":"30.898310793","category":"68","category_name":"快餐厅","address":"近郊金山区朱泾镇公园路246弄51号"},{"poiid":"B2094757D064A3FA4492","title":"上岛咖啡(朱泾店)","lon":"121.168036","lat":"30.89659","category":"65","category_name":"咖啡厅","address":"近郊朱泾人民路"},{"poiid":"B2094654DB68A1F54192","title":"汇都大酒楼 朱泾店","lon":"121.172134054","lat":"30.892881793","category":"70","category_name":"综合酒楼","address":"近郊金山区朱泾镇亭枫公路3759弄58号(近沈浦泾南路)"},{"poiid":"B2094757D06BA6FF459E","title":"紫金广场","lon":"121.15992748","lat":"30.898094888","category":"500","category_name":"未知分类","address":"上海金山区朱泾镇万安街"},{"poiid":"B2094655D26FA4F8419A","title":"上海交大附属第六医院金山分院","lon":"121.1564","lat":"30.89327","category":"162","category_name":"医院","address":"朱泾镇健康路146号2号楼"},{"poiid":"B2094757D168A2F4489E","title":"南佳苑酒店","lon":"121.164650054","lat":"30.890314793","category":"76","category_name":"上海菜","address":"近郊金山区朱泾金龙新街501号3楼(近罗星南路)"},{"poiid":"B2094752D06CA0F9489C","title":"上海17.5影城(金龙新街店)","lon":"121.1692","lat":"30.88696","category":"178","category_name":"电影院","address":"近郊金山朱泾镇金龙新街528弄金上海生活广场7105号(近自由港KTV)"},{"poiid":"B2094751D46BABFD499E","title":"乐购上海沈浦泾店","lon":"121.167995","lat":"30.897236","category":"500","category_name":"未知分类","address":"沈浦泾路50号"},{"poiid":"B2094654DB68A0FE4299","title":"紫金名苑","lon":"121.17234","lat":"30.88922","category":"47","category_name":"住宅区","address":""},{"poiid":"B2094757D16CA5F94692","title":"味千拉面(万安街店)","lon":"121.1682705","lat":"30.8969715","category":"95","category_name":"日本料理","address":"近郊金山朱泾镇万安街835号1楼(朱泾万安街罗星路)"},{"poiid":"B2094655D36DA7FA489D","title":"朱泾汽车站","lon":"121.16939","lat":"30.89236","category":"35","category_name":"长途汽车站","address":"近郊金山区亭枫公路4420号(近罗星路)"},{"poiid":"B2094654DB69A6FD4892","title":"汇佳新苑","lon":"121.17064","lat":"30.885014","category":"47","category_name":"住宅区","address":"上海市浦东新区盛苑路777弄1-39号"},{"poiid":"B2094757D16FAAF9469A","title":"金山中学","lon":"121.1609361","lat":"30.882937427","category":"55","category_name":"中学","address":"近郊金山区朱泾镇众益街899号(塘园路众益街)"},{"poiid":"B2094655D36CA7FF4693","title":"红菱苑","lon":"121.16035","lat":"30.899189","category":"38","category_name":"公交车站","address":"上海市金山区朱泾镇秀州街718弄"},{"poiid":"B2094750D568A3F84299","title":"朱泾大酒店","lon":"121.17","lat":"30.8896","category":"76","category_name":"上海菜","address":"近郊金山区朱泾镇众安街486号"},{"poiid":"B2094757D16DAAFE4793","title":"哈里欧咖啡(金山店)","lon":"121.17021","lat":"30.8895","category":"260","category_name":"其他","address":"近郊金山区罗星南路528号(众安街口)"},{"poiid":"B2094757D06BA1FF4098","title":"金山朱泾金玉良苑","lon":"121.169206","lat":"30.884691","category":"500","category_name":"未知分类","address":"上海罗星南路303弄"},{"poiid":"B2094654DB68A0FD479F","title":"上海交通大学医学院附属卫校金山分校","lon":"121.16492","lat":"30.88982","category":"52","category_name":"高等院校","address":"金山区卫生路43"},{"poiid":"B2094655D26FA4F8419B","title":"金山区朱泾地段医院","lon":"121.16959","lat":"30.89105","category":"162","category_name":"医院","address":"亭枫公路4371号"},{"poiid":"B2094757DA65A5F5469C","title":"莫泰168（上海金山朱泾店）","lon":"121.166678667","lat":"30.896834544","category":"216","category_name":"经济型连锁酒店","address":"上海市金山区朱泾镇万安街625号西侧"},{"poiid":"B2094654DB68A0FE409A","title":"金西苑","lon":"121.16996","lat":"30.892204","category":"47","category_name":"住宅区","address":"亭枫公路"},{"poiid":"B2094655D26BA1FB4292","title":"罗星南路","lon":"121.16879","lat":"30.88605","category":"38","category_name":"公交车站","address":""},{"poiid":"B2094655D36DA7F94498","title":"钟楼新村","lon":"121.17352","lat":"30.900301","category":"38","category_name":"公交车站","address":"上海金山区朱泾镇"},{"poiid":"B2094654DB68A0FE4298","title":"上海市金山区广播电视台","lon":"121.17047","lat":"30.89127","category":"59","category_name":"电视台","address":"亭风公路4325号"},{"poiid":"B2094654DB68A0FE429B","title":"金山公安分局交通警察支队","lon":"121.17049","lat":"30.89117","category":"250","category_name":"公园户外","address":""},{"poiid":"B2094654DB68A0FD449D","title":"临仓小区","lon":"121.17211","lat":"30.892965","category":"47","category_name":"住宅区","address":"临仓街298弄"},{"poiid":"B2094757D568A0F5499E","title":"金上海生活广场","lon":"121.16806966","lat":"30.88672607","category":"249","category_name":"购物服务","address":"朱泾镇金龙新街528弄"},{"poiid":"B209475DD369ABFC4998","title":"上海广缘大酒店","lon":"121.169876","lat":"30.889886","category":"247","category_name":"餐饮美食","address":"上海市金山区朱泾镇罗星南路528号"},{"poiid":"B2094655D264A6F4449F","title":"万安金邸","lon":"121.17271","lat":"30.896271","category":"47","category_name":"住宅区","address":"金山区朱泾镇万安街55弄"},{"poiid":"B2094654DB68A1F4459E","title":"金山电影院","lon":"121.16646","lat":"30.896759","category":"178","category_name":"电影院","address":"万安街625号"},{"poiid":"B2094757D165A3FE419B","title":"澳門葡京賭場","lon":"121.169630103","lat":"30.8947706938","category":"248","category_name":"生活娱乐","address":"澳门澳門"},{"poiid":"B2094757D465A7FC419D","title":"美林阁 金龙新街店","lon":"121.166339","lat":"30.88584","category":"76","category_name":"上海菜","address":"近郊金山朱泾镇金龙新街535号"},{"poiid":"B2094655D36CA1FC4193","title":"沈浦泾路","lon":"121.17424","lat":"30.89604","category":"38","category_name":"公交车站","address":""},{"poiid":"B2094752D36DA1FD459D","title":"上海汇众汽车底盘厂","lon":"121.171246","lat":"30.893229","category":"500","category_name":"未知分类","address":"沈浦泾路151号"},{"poiid":"B2094757D165A5F84192","title":"金山众仁老年护理医院","lon":"121.1675477","lat":"30.893504965","category":"162","category_name":"医院","address":"上海东林寺对面"},{"poiid":"B2094757D16BA1F8439B","title":"川流不息 朱泾店","lon":"121.15718820669","lat":"30.899876489171","category":"71","category_name":"四川菜","address":"近郊朱泾镇健康路451号(健康路临源街)"},{"poiid":"B2094654DB69A6F94399","title":"上海市宝山现代农业园区","lon":"121.17423","lat":"30.8916","category":"45","category_name":"产业园区","address":"宝山区罗南镇塘汇河"},{"poiid":"B2094750D76DA0F54593","title":"海利豆捞","lon":"121.167","lat":"30.8859","category":"86","category_name":"火锅店","address":"近郊金山区朱泾镇金龙新街(近金山联华超市)"},{"poiid":"B2094757D16EA6F8459B","title":"名谷酒店","lon":"121.16666","lat":"30.88585","category":"76","category_name":"上海菜","address":"近郊金山区朱泾镇金龙新街472号"},{"poiid":"B2094654DB68A0FC479B","title":"南圩小区","lon":"121.16128","lat":"30.89729","category":"47","category_name":"住宅区","address":"朱泾镇"},{"poiid":"B2094757D164A5F4459B","title":"金山民政局","lon":"121.171991403","lat":"30.8996181028","category":"500","category_name":"未知分类","address":"上海临源街620号"},{"poiid":"B2094654DB64A0F54992","title":"新华书店(朱泾·万安街)","lon":"121.1666","lat":"30.89714","category":"125","category_name":"书店","address":""},{"poiid":"B2094654DB64A7FC4192","title":"好德(朱泾·万安街)","lon":"121.16806","lat":"30.89678","category":"117","category_name":"便民商店/便利店","address":""},{"poiid":"B2094655D36CA0FE4593","title":"金山大桥","lon":"121.17668","lat":"30.89231","category":"38","category_name":"公交车站","address":""},{"poiid":"B2094655D36DA7FA489C","title":"朱泾","lon":"121.16849","lat":"30.89183","category":"38","category_name":"公交车站","address":""},{"poiid":"B2094757D068A4FA449B","title":"东林寺","lon":"121.166431459","lat":"30.8943811709","category":"246","category_name":"回教寺","address":"近郊金山区朱泾镇东林街(近东林坊步行街)"},{"poiid":"B2094654DB68A1F4459A","title":"金山汽车站","lon":"121.16913","lat":"30.89231","category":"35","category_name":"长途汽车站","address":"上海金山区朱泾镇罗星路"},{"poiid":"B2094757D06AA2F8439E","title":"朱泾大光明影城","lon":"121.166709","lat":"30.896149","category":"178","category_name":"电影院","address":"上海市金山区朱泾镇人民路160号5楼"},{"poiid":"B2094757D065A7F9439F","title":"金山区中心医院","lon":"121.158483103","lat":"30.8932906605","category":"162","category_name":"医院","address":"近郊金山区健康路146号(近新汇街)"},{"poiid":"B2094757D06BA2F9459A","title":"自由港量贩式KTV(朱泾店)","lon":"121.16919","lat":"30.88602","category":"170","category_name":"KTV","address":"近郊金龙新街528弄7115号3楼(罗星南路和金龙新街间)"},{"poiid":"B2094757D66BA6F5489A","title":"肯德基 朱泾店 KFC","lon":"121.159978054","lat":"30.898310793","category":"68","category_name":"快餐厅","address":"近郊金山区朱泾镇公园路246弄51号"},{"poiid":"B2094757D064A3FA4492","title":"上岛咖啡(朱泾店)","lon":"121.168036","lat":"30.89659","category":"65","category_name":"咖啡厅","address":"近郊朱泾人民路"},{"poiid":"B2094654DB68A1F54192","title":"汇都大酒楼 朱泾店","lon":"121.172134054","lat":"30.892881793","category":"70","category_name":"综合酒楼","address":"近郊金山区朱泾镇亭枫公路3759弄58号(近沈浦泾南路)"},{"poiid":"B2094757D06BA6FF459E","title":"紫金广场","lon":"121.15992748","lat":"30.898094888","category":"500","category_name":"未知分类","address":"上海金山区朱泾镇万安街"},{"poiid":"B2094655D26FA4F8419A","title":"上海交大附属第六医院金山分院","lon":"121.1564","lat":"30.89327","category":"162","category_name":"医院","address":"朱泾镇健康路146号2号楼"},{"poiid":"B2094757D168A2F4489E","title":"南佳苑酒店","lon":"121.164650054","lat":"30.890314793","category":"76","category_name":"上海菜","address":"近郊金山区朱泾金龙新街501号3楼(近罗星南路)"},{"poiid":"B2094752D06CA0F9489C","title":"上海17.5影城(金龙新街店)","lon":"121.1692","lat":"30.88696","category":"178","category_name":"电影院","address":"近郊金山朱泾镇金龙新街528弄金上海生活广场7105号(近自由港KTV)"},{"poiid":"B2094751D46BABFD499E","title":"乐购上海沈浦泾店","lon":"121.167995","lat":"30.897236","category":"500","category_name":"未知分类","address":"沈浦泾路50号"},{"poiid":"B2094654DB68A0FE4299","title":"紫金名苑","lon":"121.17234","lat":"30.88922","category":"47","category_name":"住宅区","address":""},{"poiid":"B2094757D16CA5F94692","title":"味千拉面(万安街店)","lon":"121.1682705","lat":"30.8969715","category":"95","category_name":"日本料理","address":"近郊金山朱泾镇万安街835号1楼(朱泾万安街罗星路)"},{"poiid":"B2094655D36DA7FA489D","title":"朱泾汽车站","lon":"121.16939","lat":"30.89236","category":"35","category_name":"长途汽车站","address":"近郊金山区亭枫公路4420号(近罗星路)"},{"poiid":"B2094654DB69A6FD4892","title":"汇佳新苑","lon":"121.17064","lat":"30.885014","category":"47","category_name":"住宅区","address":"上海市浦东新区盛苑路777弄1-39号"},{"poiid":"B2094757D16FAAF9469A","title":"金山中学","lon":"121.1609361","lat":"30.882937427","category":"55","category_name":"中学","address":"近郊金山区朱泾镇众益街899号(塘园路众益街)"},{"poiid":"B2094655D36CA7FF4693","title":"红菱苑","lon":"121.16035","lat":"30.899189","category":"38","category_name":"公交车站","address":"上海市金山区朱泾镇秀州街718弄"},{"poiid":"B2094750D568A3F84299","title":"朱泾大酒店","lon":"121.17","lat":"30.8896","category":"76","category_name":"上海菜","address":"近郊金山区朱泾镇众安街486号"},{"poiid":"B2094757D16DAAFE4793","title":"哈里欧咖啡(金山店)","lon":"121.17021","lat":"30.8895","category":"260","category_name":"其他","address":"近郊金山区罗星南路528号(众安街口)"},{"poiid":"B2094757D06BA1FF4098","title":"金山朱泾金玉良苑","lon":"121.169206","lat":"30.884691","category":"500","category_name":"未知分类","address":"上海罗星南路303弄"},{"poiid":"B2094654DB68A0FD479F","title":"上海交通大学医学院附属卫校金山分校","lon":"121.16492","lat":"30.88982","category":"52","category_name":"高等院校","address":"金山区卫生路43"},{"poiid":"B2094655D26FA4F8419B","title":"金山区朱泾地段医院","lon":"121.16959","lat":"30.89105","category":"162","category_name":"医院","address":"亭枫公路4371号"},{"poiid":"B2094757DA65A5F5469C","title":"莫泰168（上海金山朱泾店）","lon":"121.166678667","lat":"30.896834544","category":"216","category_name":"经济型连锁酒店","address":"上海市金山区朱泾镇万安街625号西侧"},{"poiid":"B2094654DB68A0FE409A","title":"金西苑","lon":"121.16996","lat":"30.892204","category":"47","category_name":"住宅区","address":"亭枫公路"},{"poiid":"B2094655D26BA1FB4292","title":"罗星南路","lon":"121.16879","lat":"30.88605","category":"38","category_name":"公交车站","address":""},{"poiid":"B2094655D36DA7F94498","title":"钟楼新村","lon":"121.17352","lat":"30.900301","category":"38","category_name":"公交车站","address":"上海金山区朱泾镇"},{"poiid":"B2094654DB68A0FE4298","title":"上海市金山区广播电视台","lon":"121.17047","lat":"30.89127","category":"59","category_name":"电视台","address":"亭风公路4325号"},{"poiid":"B2094654DB68A0FE429B","title":"金山公安分局交通警察支队","lon":"121.17049","lat":"30.89117","category":"250","category_name":"公园户外","address":""},{"poiid":"B2094654DB68A0FD449D","title":"临仓小区","lon":"121.17211","lat":"30.892965","category":"47","category_name":"住宅区","address":"临仓街298弄"},{"poiid":"B2094757D568A0F5499E","title":"金上海生活广场","lon":"121.16806966","lat":"30.88672607","category":"249","category_name":"购物服务","address":"朱泾镇金龙新街528弄"},{"poiid":"B209475DD369ABFC4998","title":"上海广缘大酒店","lon":"121.169876","lat":"30.889886","category":"247","category_name":"餐饮美食","address":"上海市金山区朱泾镇罗星南路528号"},{"poiid":"B2094655D264A6F4449F","title":"万安金邸","lon":"121.17271","lat":"30.896271","category":"47","category_name":"住宅区","address":"金山区朱泾镇万安街55弄"},{"poiid":"B2094654DB68A1F4459E","title":"金山电影院","lon":"121.16646","lat":"30.896759","category":"178","category_name":"电影院","address":"万安街625号"},{"poiid":"B2094757D165A3FE419B","title":"澳門葡京賭場","lon":"121.169630103","lat":"30.8947706938","category":"248","category_name":"生活娱乐","address":"澳门澳門"},{"poiid":"B2094757D465A7FC419D","title":"美林阁 金龙新街店","lon":"121.166339","lat":"30.88584","category":"76","category_name":"上海菜","address":"近郊金山朱泾镇金龙新街535号"},{"poiid":"B2094655D36CA1FC4193","title":"沈浦泾路","lon":"121.17424","lat":"30.89604","category":"38","category_name":"公交车站","address":""},{"poiid":"B2094752D36DA1FD459D","title":"上海汇众汽车底盘厂","lon":"121.171246","lat":"30.893229","category":"500","category_name":"未知分类","address":"沈浦泾路151号"},{"poiid":"B2094757D165A5F84192","title":"金山众仁老年护理医院","lon":"121.1675477","lat":"30.893504965","category":"162","category_name":"医院","address":"上海东林寺对面"},{"poiid":"B2094757D16BA1F8439B","title":"川流不息 朱泾店","lon":"121.15718820669","lat":"30.899876489171","category":"71","category_name":"四川菜","address":"近郊朱泾镇健康路451号(健康路临源街)"},{"poiid":"B2094654DB69A6F94399","title":"上海市宝山现代农业园区","lon":"121.17423","lat":"30.8916","category":"45","category_name":"产业园区","address":"宝山区罗南镇塘汇河"},{"poiid":"B2094750D76DA0F54593","title":"海利豆捞","lon":"121.167","lat":"30.8859","category":"86","category_name":"火锅店","address":"近郊金山区朱泾镇金龙新街(近金山联华超市)"},{"poiid":"B2094757D16EA6F8459B","title":"名谷酒店","lon":"121.16666","lat":"30.88585","category":"76","category_name":"上海菜","address":"近郊金山区朱泾镇金龙新街472号"},{"poiid":"B2094654DB68A0FC479B","title":"南圩小区","lon":"121.16128","lat":"30.89729","category":"47","category_name":"住宅区","address":"朱泾镇"},{"poiid":"B2094757D164A5F4459B","title":"金山民政局","lon":"121.171991403","lat":"30.8996181028","category":"500","category_name":"未知分类","address":"上海临源街620号"},{"poiid":"B2094654DB64A0F54992","title":"新华书店(朱泾·万安街)","lon":"121.1666","lat":"30.89714","category":"125","category_name":"书店","address":""},{"poiid":"B2094654DB64A7FC4192","title":"好德(朱泾·万安街)","lon":"121.16806","lat":"30.89678","category":"117","category_name":"便民商店/便利店","address":""},{"poiid":"B2094655D36CA0FE4593","title":"金山大桥","lon":"121.17668","lat":"30.89231","category":"38","category_name":"公交车站","address":""},{"poiid":"B2094655D36DA7FA489C","title":"朱泾","lon":"121.16849","lat":"30.89183","category":"38","category_name":"公交车站","address":""},{"poiid":"B2094757D068A4FA449B","title":"东林寺","lon":"121.166431459","lat":"30.8943811709","category":"246","category_name":"回教寺","address":"近郊金山区朱泾镇东林街(近东林坊步行街)"},{"poiid":"B2094654DB68A1F4459A","title":"金山汽车站","lon":"121.16913","lat":"30.89231","category":"35","category_name":"长途汽车站","address":"上海金山区朱泾镇罗星路"},{"poiid":"B2094757D06AA2F8439E","title":"朱泾大光明影城","lon":"121.166709","lat":"30.896149","category":"178","category_name":"电影院","address":"上海市金山区朱泾镇人民路160号5楼"},{"poiid":"B2094757D065A7F9439F","title":"金山区中心医院","lon":"121.158483103","lat":"30.8932906605","category":"162","category_name":"医院","address":"近郊金山区健康路146号(近新汇街)"},{"poiid":"B2094757D06BA2F9459A","title":"自由港量贩式KTV(朱泾店)","lon":"121.16919","lat":"30.88602","category":"170","category_name":"KTV","address":"近郊金龙新街528弄7115号3楼(罗星南路和金龙新街间)"},{"poiid":"B2094757D66BA6F5489A","title":"肯德基 朱泾店 KFC","lon":"121.159978054","lat":"30.898310793","category":"68","category_name":"快餐厅","address":"近郊金山区朱泾镇公园路246弄51号"},{"poiid":"B2094757D064A3FA4492","title":"上岛咖啡(朱泾店)","lon":"121.168036","lat":"30.89659","category":"65","category_name":"咖啡厅","address":"近郊朱泾人民路"},{"poiid":"B2094654DB68A1F54192","title":"汇都大酒楼 朱泾店","lon":"121.172134054","lat":"30.892881793","category":"70","category_name":"综合酒楼","address":"近郊金山区朱泾镇亭枫公路3759弄58号(近沈浦泾南路)"},{"poiid":"B2094757D06BA6FF459E","title":"紫金广场","lon":"121.15992748","lat":"30.898094888","category":"500","category_name":"未知分类","address":"上海金山区朱泾镇万安街"},{"poiid":"B2094655D26FA4F8419A","title":"上海交大附属第六医院金山分院","lon":"121.1564","lat":"30.89327","category":"162","category_name":"医院","address":"朱泾镇健康路146号2号楼"},{"poiid":"B2094757D168A2F4489E","title":"南佳苑酒店","lon":"121.164650054","lat":"30.890314793","category":"76","category_name":"上海菜","address":"近郊金山区朱泾金龙新街501号3楼(近罗星南路)"},{"poiid":"B2094752D06CA0F9489C","title":"上海17.5影城(金龙新街店)","lon":"121.1692","lat":"30.88696","category":"178","category_name":"电影院","address":"近郊金山朱泾镇金龙新街528弄金上海生活广场7105号(近自由港KTV)"},{"poiid":"B2094751D46BABFD499E","title":"乐购上海沈浦泾店","lon":"121.167995","lat":"30.897236","category":"500","category_name":"未知分类","address":"沈浦泾路50号"},{"poiid":"B2094654DB68A0FE4299","title":"紫金名苑","lon":"121.17234","lat":"30.88922","category":"47","category_name":"住宅区","address":""},{"poiid":"B2094757D16CA5F94692","title":"味千拉面(万安街店)","lon":"121.1682705","lat":"30.8969715","category":"95","category_name":"日本料理","address":"近郊金山朱泾镇万安街835号1楼(朱泾万安街罗星路)"},{"poiid":"B2094655D36DA7FA489D","title":"朱泾汽车站","lon":"121.16939","lat":"30.89236","category":"35","category_name":"长途汽车站","address":"近郊金山区亭枫公路4420号(近罗星路)"},{"poiid":"B2094654DB69A6FD4892","title":"汇佳新苑","lon":"121.17064","lat":"30.885014","category":"47","category_name":"住宅区","address":"上海市浦东新区盛苑路777弄1-39号"},{"poiid":"B2094757D16FAAF9469A","title":"金山中学","lon":"121.1609361","lat":"30.882937427","category":"55","category_name":"中学","address":"近郊金山区朱泾镇众益街899号(塘园路众益街)"},{"poiid":"B2094655D36CA7FF4693","title":"红菱苑","lon":"121.16035","lat":"30.899189","category":"38","category_name":"公交车站","address":"上海市金山区朱泾镇秀州街718弄"},{"poiid":"B2094750D568A3F84299","title":"朱泾大酒店","lon":"121.17","lat":"30.8896","category":"76","category_name":"上海菜","address":"近郊金山区朱泾镇众安街486号"},{"poiid":"B2094757D16DAAFE4793","title":"哈里欧咖啡(金山店)","lon":"121.17021","lat":"30.8895","category":"260","category_name":"其他","address":"近郊金山区罗星南路528号(众安街口)"},{"poiid":"B2094757D06BA1FF4098","title":"金山朱泾金玉良苑","lon":"121.169206","lat":"30.884691","category":"500","category_name":"未知分类","address":"上海罗星南路303弄"},{"poiid":"B2094654DB68A0FD479F","title":"上海交通大学医学院附属卫校金山分校","lon":"121.16492","lat":"30.88982","category":"52","category_name":"高等院校","address":"金山区卫生路43"},{"poiid":"B2094655D26FA4F8419B","title":"金山区朱泾地段医院","lon":"121.16959","lat":"30.89105","category":"162","category_name":"医院","address":"亭枫公路4371号"},{"poiid":"B2094757DA65A5F5469C","title":"莫泰168（上海金山朱泾店）","lon":"121.166678667","lat":"30.896834544","category":"216","category_name":"经济型连锁酒店","address":"上海市金山区朱泾镇万安街625号西侧"},{"poiid":"B2094654DB68A0FE409A","title":"金西苑","lon":"121.16996","lat":"30.892204","category":"47","category_name":"住宅区","address":"亭枫公路"},{"poiid":"B2094655D26BA1FB4292","title":"罗星南路","lon":"121.16879","lat":"30.88605","category":"38","category_name":"公交车站","address":""},{"poiid":"B2094655D36DA7F94498","title":"钟楼新村","lon":"121.17352","lat":"30.900301","category":"38","category_name":"公交车站","address":"上海金山区朱泾镇"},{"poiid":"B2094654DB68A0FE4298","title":"上海市金山区广播电视台","lon":"121.17047","lat":"30.89127","category":"59","category_name":"电视台","address":"亭风公路4325号"},{"poiid":"B2094654DB68A0FE429B","title":"金山公安分局交通警察支队","lon":"121.17049","lat":"30.89117","category":"250","category_name":"公园户外","address":""},{"poiid":"B2094654DB68A0FD449D","title":"临仓小区","lon":"121.17211","lat":"30.892965","category":"47","category_name":"住宅区","address":"临仓街298弄"},{"poiid":"B2094757D568A0F5499E","title":"金上海生活广场","lon":"121.16806966","lat":"30.88672607","category":"249","category_name":"购物服务","address":"朱泾镇金龙新街528弄"},{"poiid":"B209475DD369ABFC4998","title":"上海广缘大酒店","lon":"121.169876","lat":"30.889886","category":"247","category_name":"餐饮美食","address":"上海市金山区朱泾镇罗星南路528号"},{"poiid":"B2094655D264A6F4449F","title":"万安金邸","lon":"121.17271","lat":"30.896271","category":"47","category_name":"住宅区","address":"金山区朱泾镇万安街55弄"},{"poiid":"B2094654DB68A1F4459E","title":"金山电影院","lon":"121.16646","lat":"30.896759","category":"178","category_name":"电影院","address":"万安街625号"},{"poiid":"B2094757D165A3FE419B","title":"澳門葡京賭場","lon":"121.169630103","lat":"30.8947706938","category":"248","category_name":"生活娱乐","address":"澳门澳門"},{"poiid":"B2094757D465A7FC419D","title":"美林阁 金龙新街店","lon":"121.166339","lat":"30.88584","category":"76","category_name":"上海菜","address":"近郊金山朱泾镇金龙新街535号"},{"poiid":"B2094655D36CA1FC4193","title":"沈浦泾路","lon":"121.17424","lat":"30.89604","category":"38","category_name":"公交车站","address":""},{"poiid":"B2094752D36DA1FD459D","title":"上海汇众汽车底盘厂","lon":"121.171246","lat":"30.893229","category":"500","category_name":"未知分类","address":"沈浦泾路151号"},{"poiid":"B2094757D165A5F84192","title":"金山众仁老年护理医院","lon":"121.1675477","lat":"30.893504965","category":"162","category_name":"医院","address":"上海东林寺对面"},{"poiid":"B2094757D16BA1F8439B","title":"川流不息 朱泾店","lon":"121.15718820669","lat":"30.899876489171","category":"71","category_name":"四川菜","address":"近郊朱泾镇健康路451号(健康路临源街)"},{"poiid":"B2094654DB69A6F94399","title":"上海市宝山现代农业园区","lon":"121.17423","lat":"30.8916","category":"45","category_name":"产业园区","address":"宝山区罗南镇塘汇河"},{"poiid":"B2094750D76DA0F54593","title":"海利豆捞","lon":"121.167","lat":"30.8859","category":"86","category_name":"火锅店","address":"近郊金山区朱泾镇金龙新街(近金山联华超市)"},{"poiid":"B2094757D16EA6F8459B","title":"名谷酒店","lon":"121.16666","lat":"30.88585","category":"76","category_name":"上海菜","address":"近郊金山区朱泾镇金龙新街472号"},{"poiid":"B2094654DB68A0FC479B","title":"南圩小区","lon":"121.16128","lat":"30.89729","category":"47","category_name":"住宅区","address":"朱泾镇"},{"poiid":"B2094757D164A5F4459B","title":"金山民政局","lon":"121.171991403","lat":"30.8996181028","category":"500","category_name":"未知分类","address":"上海临源街620号"},{"poiid":"B2094654DB64A0F54992","title":"新华书店(朱泾·万安街)","lon":"121.1666","lat":"30.89714","category":"125","category_name":"书店","address":""},{"poiid":"B2094654DB64A7FC4192","title":"好德(朱泾·万安街)","lon":"121.16806","lat":"30.89678","category":"117","category_name":"便民商店/便利店","address":""},{"poiid":"B2094655D36CA0FE4593","title":"金山大桥","lon":"121.17668","lat":"30.89231","category":"38","category_name":"公交车站","address":""}]