[{"poiid":"B2094757D06EABF54493","title":"翔殷路地铁站","lon":"121.53197866","lat":"31.305146989","category":"36","category_name":"地铁站","address":"杨浦区翔殷路"},{"poiid":"B2094757D06FA7FE4793","title":"薇拉宫邸私人婚礼会所(杨浦店)","lon":"121.53268","lat":"31.29639","category":"500","category_name":"未知分类","address":"杨浦区营口路699号(近双阳北路)查看地图"},{"poiid":"B2094757D06FAAFD439B","title":"翔殷路","lon":"121.531976","lat":"31.30513","category":"260","category_name":"其他","address":"上海杨浦区翔殷路"},{"poiid":"B2094655D26AABF9449B","title":"上海锦雪苑酒店原上海第二军医大学锦雪苑酒店","lon":"121.53309","lat":"31.3051","category":"250","category_name":"公园户外","address":"翔殷路631号"},{"poiid":"B2094757D068A1FC489E","title":"海上硕和城","lon":"121.52803","lat":"31.300863","category":"47","category_name":"住宅区","address":"上海安波路567弄"},{"poiid":"B2094757D068A2FF4693","title":"绿地汇创国际广场","lon":"121.528","lat":"31.3032","category":"46","category_name":"楼宇","address":"上海市杨浦区国定东路273弄1号等"},{"poiid":"B2094654DB64A6FA4098","title":"洋人阿婆五角场店","lon":"121.53222","lat":"31.30251","category":"76","category_name":"上海菜","address":"杨浦区营口路868号(安波路口)"},{"poiid":"B2094757DA64AAF54799","title":"五角场","lon":"121.531717","lat":"31.296098","category":"500","category_name":"未知分类","address":"万达广场"},{"poiid":"B2094757D06FA3FC4398","title":"汤豪仕汤馆 国顺店","lon":"121.535952054","lat":"31.300504793","category":"76","category_name":"上海菜","address":"杨浦区国顺东路180号(近沙岗路)"},{"poiid":"B2094757D06BA0F44798","title":"八号线 延吉中路站","lon":"121.532200903","lat":"31.2966668709","category":"500","category_name":"未知分类","address":"上海市杨浦区靖宇中路营口路"},{"poiid":"B2094757D06FA7F84293","title":"肯德基 KFC (国顺店)","lon":"121.536208","lat":"31.300525","category":"68","category_name":"快餐厅","address":"杨浦区国顺东路180号(近沙岗路)"},{"poiid":"B2094757D06FA1FF4198","title":"深山老屋(国顺店)","lon":"121.53643","lat":"31.30035","category":"260","category_name":"其他","address":"杨浦区沙岗路632号(国顺东路口)"},{"poiid":"B2094655D26DA4FE4499","title":"华夏良子上海旗舰店","lon":"121.53315","lat":"31.29881","category":"149","category_name":"洗浴推拿场所","address":"国顺东路258"},{"poiid":"B2094654DB6BA2F4429D","title":"佳泰花园","lon":"121.53121","lat":"31.299124","category":"47","category_name":"住宅区","address":"上海市杨浦区营口路789弄1号(国顺东路口)"},{"poiid":"B2094757D66EA5FD449F","title":"仲益黄兴健身游泳瑜伽会所","lon":"121.531677103","lat":"31.2985010093","category":"500","category_name":"未知分类","address":"杨浦区国顺东路318号仲益黄兴体育公园内(近双阳北路)"},{"poiid":"B2094654D568A3FB439F","title":"企航商务","lon":"121.5316","lat":"31.30052","category":"46","category_name":"楼宇","address":"营口路825号"},{"poiid":"B2094655D26AA0FA429A","title":"地铁黄兴公园站","lon":"121.53276","lat":"31.29651","category":"36","category_name":"地铁站","address":""},{"poiid":"B2094757D16EA3FD4193","title":"城隍庙小吃","lon":"121.53287","lat":"31.29822","category":"68","category_name":"快餐厅","address":"杨浦区国顺东路255号(近营口路)"},{"poiid":"B2094757D069A6FD409E","title":"豪享来上海国顺店","lon":"121.5358","lat":"31.3013","category":"247","category_name":"餐饮美食","address":"上海市杨浦区沙岗路620号国顺东路店"},{"poiid":"B2094757D064A4F5449D","title":"景亨宴","lon":"121.527882103","lat":"31.301835079","category":"76","category_name":"上海菜","address":"安波路533弄1号楼1-2楼近营口路"},{"poiid":"B2094654D56FAAF8419A","title":"兰馨雅苑","lon":"121.53355","lat":"31.301998","category":"47","category_name":"住宅区","address":"上海市杨浦区安波路297号(营口路)"},{"poiid":"B209475CD66CA1F9469C","title":"盈田盈粥庄","lon":"121.529441","lat":"31.302219","category":"247","category_name":"餐饮美食","address":"上海市 安波路497号"},{"poiid":"B2094750DB6CABFE459D","title":"农屋里香","lon":"121.53203","lat":"31.29788","category":"87","category_name":"特色／地方风味餐厅","address":"杨浦区国顺东路318号仲益高尔夫会所内(近黄兴公园)"},{"poiid":"B2094654D56FAAFA4198","title":"浙西名菜府","lon":"121.53385","lat":"31.3052","category":"76","category_name":"上海菜","address":"杨浦区翔殷路577号海外宾馆内(沙岗路口)"},{"poiid":"B2094655D26AA0FA429B","title":"地铁翔殷路站","lon":"121.53197","lat":"31.30513","category":"36","category_name":"地铁站","address":""},{"poiid":"B2094655D36DA0FB459C","title":"营口路国顺东路","lon":"121.53209","lat":"31.29865","category":"38","category_name":"公交车站","address":""},{"poiid":"B2094757D16CA7FD4693","title":"艾森时尚旅店","lon":"121.532477828","lat":"31.3021262101","category":"216","category_name":"经济型连锁酒店","address":"杨浦区国顺东路180号(近沙岗路)"},{"poiid":"B2094750D76EA3F54692","title":"渔乐勝","lon":"121.532","lat":"31.2979","category":"95","category_name":"日本料理","address":"杨浦区国顺东路318号仲益国际高尔夫会所内"},{"poiid":"B2094655D26CA6FC4693","title":"苏州藏书羊肉面馆","lon":"121.530113","lat":"31.302255","category":"68","category_name":"快餐厅","address":"杨浦区沙岗路658号(近国顺东路)"},{"poiid":"B2094757D068A7FB4598","title":"上海800号美术馆","lon":"121.53504","lat":"31.29969","category":"179","category_name":"音乐厅","address":"杨浦区国顺东路800号黄兴公园东楼1楼(近双阳北路)"},{"poiid":"B2094654D568A3FB439E","title":"天炎网吧","lon":"121.5317","lat":"31.30071","category":"176","category_name":"网吧","address":"杨浦区营口路825号2楼(近安波路)"},{"poiid":"B2094757DA6FA3F44298","title":"鸡排超人(黄兴公园店)","lon":"121.534342999999","lat":"31.2990749999998","category":"68","category_name":"快餐厅","address":"杨浦区国顺东路237号(近营口路)"},{"poiid":"B2094654D56FAAF8429D","title":"绿景家苑","lon":"121.53362","lat":"31.3004","category":"47","category_name":"住宅区","address":"绿景家苑位于闵行营口路838弄"},{"poiid":"B2094655D26BABFE499B","title":"海上SOHO","lon":"121.53174","lat":"31.30265","category":"47","category_name":"住宅区","address":"上海市杨浦区安波路333号"},{"poiid":"B2094655D36DA0FB459F","title":"营口路安波路","lon":"121.53205","lat":"31.30252","category":"38","category_name":"公交车站","address":""},{"poiid":"B2094655D36DA0FB469B","title":"营口路翔殷路","lon":"121.5319","lat":"31.30259","category":"38","category_name":"公交车站","address":""},{"poiid":"B2094757D06AA7FF4498","title":"佳泰花苑","lon":"121.531702","lat":"31.299057","category":"47","category_name":"住宅区","address":"上海营口路789弄"},{"poiid":"B2094757D068A4FA439A","title":"綠景家園","lon":"121.5323881","lat":"31.300578052","category":"500","category_name":"未知分类","address":"上海市杨浦区營口路"},{"poiid":"B2094655D26AAAF8409B","title":"锦雪苑大酒店风味餐厅","lon":"121.53309","lat":"31.3051","category":"71","category_name":"四川菜","address":"杨浦区翔殷路631号(近地铁翔殷路站)"},{"poiid":"B2094757D16AA0FA489E","title":"顺旺基","lon":"121.533247803","lat":"31.2985999114","category":"68","category_name":"快餐厅","address":"杨浦区国顺东路237号"},{"poiid":"B2094654D568A3F5479B","title":"上海恒基市政建设工程有限公司","lon":"121.53161","lat":"31.30052","category":"263","category_name":"公司","address":"营口路825号企航商务805、807、809"},{"poiid":"B2094654D568A3F54793","title":"上海(日本)阿洛卡技术服务部","lon":"121.5316","lat":"31.30052","category":"263","category_name":"公司","address":"营口路825号企航商务905、907、909、911"},{"poiid":"B2094654D56FA6F9439F","title":"河南拉面麻辣烫(国顺东路)","lon":"121.53276","lat":"31.29814","category":"68","category_name":"快餐厅","address":"杨浦区国顺东路267号(近营口路)"},{"poiid":"B2094757D06AA1FF419D","title":"永琪美容美发(国顺店)","lon":"121.53351","lat":"31.29819","category":"148","category_name":"美容美发店","address":"杨浦区国顺东路249号(近营口路)"},{"poiid":"B2094757D06AABF5419E","title":"重庆鸡公煲 国顺东路店","lon":"121.53605708498","lat":"31.300342585043","category":"71","category_name":"四川菜","address":"杨浦区国顺东路221号(近沙岗路)"},{"poiid":"B2094757D768A5FA4699","title":"深井大叔港式烧腊 安波路店","lon":"121.527524","lat":"31.301476","category":"72","category_name":"广东菜","address":"杨浦区安波路577号(近营口路)"},{"poiid":"B2094757D069ABFF429A","title":"法国UWANTART当代画廊","lon":"121.5354","lat":"31.29991","category":"179","category_name":"音乐厅","address":"杨浦区国顺东路800号艺术园区三楼303-305室(近双阳北路)"},{"poiid":"B209475CD66FA3F94398","title":"盈田盈粥庄","lon":"121.529594","lat":"31.30224","category":"247","category_name":"餐饮美食","address":"上海市 安波路"},{"poiid":"B2094757D06AA4F94293","title":"GUCCI(海港城店)","lon":"121.5325336","lat":"31.303076605","category":"141","category_name":"服装鞋帽皮具店","address":"香港广东道17号海港城港威商场G124-125A  "},{"poiid":"B2094654D56FAAF84292","title":"绿景家苑(西门)","lon":"121.53226","lat":"31.30031","category":"48","category_name":"楼宇大门","address":"营口路838弄"},{"poiid":"B2094757D06EABF54493","title":"翔殷路地铁站","lon":"121.53197866","lat":"31.305146989","category":"36","category_name":"地铁站","address":"杨浦区翔殷路"},{"poiid":"B2094757D06FA7FE4793","title":"薇拉宫邸私人婚礼会所(杨浦店)","lon":"121.53268","lat":"31.29639","category":"500","category_name":"未知分类","address":"杨浦区营口路699号(近双阳北路)查看地图"},{"poiid":"B2094757D06FAAFD439B","title":"翔殷路","lon":"121.531976","lat":"31.30513","category":"260","category_name":"其他","address":"上海杨浦区翔殷路"},{"poiid":"B2094655D26AABF9449B","title":"上海锦雪苑酒店原上海第二军医大学锦雪苑酒店","lon":"121.53309","lat":"31.3051","category":"250","category_name":"公园户外","address":"翔殷路631号"},{"poiid":"B2094757D068A1FC489E","title":"海上硕和城","lon":"121.52803","lat":"31.300863","category":"47","category_name":"住宅区","address":"上海安波路567弄"},{"poiid":"B2094757D068A2FF4693","title":"绿地汇创国际广场","lon":"121.528","lat":"31.3032","category":"46","category_name":"楼宇","address":"上海市杨浦区国定东路273弄1号等"},{"poiid":"B2094654DB64A6FA4098","title":"洋人阿婆五角场店","lon":"121.53222","lat":"31.30251","category":"76","category_name":"上海菜","address":"杨浦区营口路868号(安波路口)"},{"poiid":"B2094757DA64AAF54799","title":"五角场","lon":"121.531717","lat":"31.296098","category":"500","category_name":"未知分类","address":"万达广场"},{"poiid":"B2094757D06FA3FC4398","title":"汤豪仕汤馆 国顺店","lon":"121.535952054","lat":"31.300504793","category":"76","category_name":"上海菜","address":"杨浦区国顺东路180号(近沙岗路)"},{"poiid":"B2094757D06BA0F44798","title":"八号线 延吉中路站","lon":"121.532200903","lat":"31.2966668709","category":"500","category_name":"未知分类","address":"上海市杨浦区靖宇中路营口路"},{"poiid":"B2094757D06FA7F84293","title":"肯德基 KFC (国顺店)","lon":"121.536208","lat":"31.300525","category":"68","category_name":"快餐厅","address":"杨浦区国顺东路180号(近沙岗路)"},{"poiid":"B2094757D06FA1FF4198","title":"深山老屋(国顺店)","lon":"121.53643","lat":"31.30035","category":"260","category_name":"其他","address":"杨浦区沙岗路632号(国顺东路口)"},{"poiid":"B2094655D26DA4FE4499","title":"华夏良子上海旗舰店","lon":"121.53315","lat":"31.29881","category":"149","category_name":"洗浴推拿场所","address":"国顺东路258"},{"poiid":"B2094654DB6BA2F4429D","title":"佳泰花园","lon":"121.53121","lat":"31.299124","category":"47","category_name":"住宅区","address":"上海市杨浦区营口路789弄1号(国顺东路口)"},{"poiid":"B2094757D66EA5FD449F","title":"仲益黄兴健身游泳瑜伽会所","lon":"121.531677103","lat":"31.2985010093","category":"500","category_name":"未知分类","address":"杨浦区国顺东路318号仲益黄兴体育公园内(近双阳北路)"},{"poiid":"B2094654D568A3FB439F","title":"企航商务","lon":"121.5316","lat":"31.30052","category":"46","category_name":"楼宇","address":"营口路825号"},{"poiid":"B2094655D26AA0FA429A","title":"地铁黄兴公园站","lon":"121.53276","lat":"31.29651","category":"36","category_name":"地铁站","address":""},{"poiid":"B2094757D16EA3FD4193","title":"城隍庙小吃","lon":"121.53287","lat":"31.29822","category":"68","category_name":"快餐厅","address":"杨浦区国顺东路255号(近营口路)"},{"poiid":"B2094757D069A6FD409E","title":"豪享来上海国顺店","lon":"121.5358","lat":"31.3013","category":"247","category_name":"餐饮美食","address":"上海市杨浦区沙岗路620号国顺东路店"},{"poiid":"B2094757D064A4F5449D","title":"景亨宴","lon":"121.527882103","lat":"31.301835079","category":"76","category_name":"上海菜","address":"安波路533弄1号楼1-2楼近营口路"},{"poiid":"B2094654D56FAAF8419A","title":"兰馨雅苑","lon":"121.53355","lat":"31.301998","category":"47","category_name":"住宅区","address":"上海市杨浦区安波路297号(营口路)"},{"poiid":"B209475CD66CA1F9469C","title":"盈田盈粥庄","lon":"121.529441","lat":"31.302219","category":"247","category_name":"餐饮美食","address":"上海市 安波路497号"},{"poiid":"B2094750DB6CABFE459D","title":"农屋里香","lon":"121.53203","lat":"31.29788","category":"87","category_name":"特色／地方风味餐厅","address":"杨浦区国顺东路318号仲益高尔夫会所内(近黄兴公园)"},{"poiid":"B2094654D56FAAFA4198","title":"浙西名菜府","lon":"121.53385","lat":"31.3052","category":"76","category_name":"上海菜","address":"杨浦区翔殷路577号海外宾馆内(沙岗路口)"},{"poiid":"B2094655D26AA0FA429B","title":"地铁翔殷路站","lon":"121.53197","lat":"31.30513","category":"36","category_name":"地铁站","address":""},{"poiid":"B2094655D36DA0FB459C","title":"营口路国顺东路","lon":"121.53209","lat":"31.29865","category":"38","category_name":"公交车站","address":""},{"poiid":"B2094757D16CA7FD4693","title":"艾森时尚旅店","lon":"121.532477828","lat":"31.3021262101","category":"216","category_name":"经济型连锁酒店","address":"杨浦区国顺东路180号(近沙岗路)"},{"poiid":"B2094750D76EA3F54692","title":"渔乐勝","lon":"121.532","lat":"31.2979","category":"95","category_name":"日本料理","address":"杨浦区国顺东路318号仲益国际高尔夫会所内"},{"poiid":"B2094655D26CA6FC4693","title":"苏州藏书羊肉面馆","lon":"121.530113","lat":"31.302255","category":"68","category_name":"快餐厅","address":"杨浦区沙岗路658号(近国顺东路)"},{"poiid":"B2094757D068A7FB4598","title":"上海800号美术馆","lon":"121.53504","lat":"31.29969","category":"179","category_name":"音乐厅","address":"杨浦区国顺东路800号黄兴公园东楼1楼(近双阳北路)"},{"poiid":"B2094654D568A3FB439E","title":"天炎网吧","lon":"121.5317","lat":"31.30071","category":"176","category_name":"网吧","address":"杨浦区营口路825号2楼(近安波路)"},{"poiid":"B2094757DA6FA3F44298","title":"鸡排超人(黄兴公园店)","lon":"121.534342999999","lat":"31.2990749999998","category":"68","category_name":"快餐厅","address":"杨浦区国顺东路237号(近营口路)"},{"poiid":"B2094654D56FAAF8429D","title":"绿景家苑","lon":"121.53362","lat":"31.3004","category":"47","category_name":"住宅区","address":"绿景家苑位于闵行营口路838弄"},{"poiid":"B2094655D26BABFE499B","title":"海上SOHO","lon":"121.53174","lat":"31.30265","category":"47","category_name":"住宅区","address":"上海市杨浦区安波路333号"},{"poiid":"B2094655D36DA0FB459F","title":"营口路安波路","lon":"121.53205","lat":"31.30252","category":"38","category_name":"公交车站","address":""},{"poiid":"B2094655D36DA0FB469B","title":"营口路翔殷路","lon":"121.5319","lat":"31.30259","category":"38","category_name":"公交车站","address":""},{"poiid":"B2094757D06AA7FF4498","title":"佳泰花苑","lon":"121.531702","lat":"31.299057","category":"47","category_name":"住宅区","address":"上海营口路789弄"},{"poiid":"B2094757D068A4FA439A","title":"綠景家園","lon":"121.5323881","lat":"31.300578052","category":"500","category_name":"未知分类","address":"上海市杨浦区營口路"},{"poiid":"B2094655D26AAAF8409B","title":"锦雪苑大酒店风味餐厅","lon":"121.53309","lat":"31.3051","category":"71","category_name":"四川菜","address":"杨浦区翔殷路631号(近地铁翔殷路站)"},{"poiid":"B2094757D16AA0FA489E","title":"顺旺基","lon":"121.533247803","lat":"31.2985999114","category":"68","category_name":"快餐厅","address":"杨浦区国顺东路237号"},{"poiid":"B2094654D568A3F5479B","title":"上海恒基市政建设工程有限公司","lon":"121.53161","lat":"31.30052","category":"263","category_name":"公司","address":"营口路825号企航商务805、807、809"},{"poiid":"B2094654D568A3F54793","title":"上海(日本)阿洛卡技术服务部","lon":"121.5316","lat":"31.30052","category":"263","category_name":"公司","address":"营口路825号企航商务905、907、909、911"},{"poiid":"B2094654D56FA6F9439F","title":"河南拉面麻辣烫(国顺东路)","lon":"121.53276","lat":"31.29814","category":"68","category_name":"快餐厅","address":"杨浦区国顺东路267号(近营口路)"},{"poiid":"B2094757D06AA1FF419D","title":"永琪美容美发(国顺店)","lon":"121.53351","lat":"31.29819","category":"148","category_name":"美容美发店","address":"杨浦区国顺东路249号(近营口路)"},{"poiid":"B2094757D06AABF5419E","title":"重庆鸡公煲 国顺东路店","lon":"121.53605708498","lat":"31.300342585043","category":"71","category_name":"四川菜","address":"杨浦区国顺东路221号(近沙岗路)"},{"poiid":"B2094757D768A5FA4699","title":"深井大叔港式烧腊 安波路店","lon":"121.527524","lat":"31.301476","category":"72","category_name":"广东菜","address":"杨浦区安波路577号(近营口路)"},{"poiid":"B2094757D069ABFF429A","title":"法国UWANTART当代画廊","lon":"121.5354","lat":"31.29991","category":"179","category_name":"音乐厅","address":"杨浦区国顺东路800号艺术园区三楼303-305室(近双阳北路)"},{"poiid":"B209475CD66FA3F94398","title":"盈田盈粥庄","lon":"121.529594","lat":"31.30224","category":"247","category_name":"餐饮美食","address":"上海市 安波路"},{"poiid":"B2094757D06AA4F94293","title":"GUCCI(海港城店)","lon":"121.5325336","lat":"31.303076605","category":"141","category_name":"服装鞋帽皮具店","address":"香港广东道17号海港城港威商场G124-125A  "},{"poiid":"B2094654D56FAAF84292","title":"绿景家苑(西门)","lon":"121.53226","lat":"31.30031","category":"48","category_name":"楼宇大门","address":"营口路838弄"},{"poiid":"B2094757D06EABF54493","title":"翔殷路地铁站","lon":"121.53197866","lat":"31.305146989","category":"36","category_name":"地铁站","address":"杨浦区翔殷路"},{"poiid":"B2094757D06FA7FE4793","title":"薇拉宫邸私人婚礼会所(杨浦店)","lon":"121.53268","lat":"31.29639","category":"500","category_name":"未知分类","address":"杨浦区营口路699号(近双阳北路)查看地图"},{"poiid":"B2094757D06FAAFD439B","title":"翔殷路","lon":"121.531976","lat":"31.30513","category":"260","category_name":"其他","address":"上海杨浦区翔殷路"},{"poiid":"B2094655D26AABF9449B","title":"上海锦雪苑酒店原上海第二军医大学锦雪苑酒店","lon":"121.53309","lat":"31.3051","category":"250","category_name":"公园户外","address":"翔殷路631号"},{"poiid":"B2094757D068A1FC489E","title":"海上硕和城","lon":"121.52803","lat":"31.300863","category":"47","category_name":"住宅区","address":"上海安波路567弄"},{"poiid":"B2094757D068A2FF4693","title":"绿地汇创国际广场","lon":"121.528","lat":"31.3032","category":"46","category_name":"楼宇","address":"上海市杨浦区国定东路273弄1号等"},{"poiid":"B2094654DB64A6FA4098","title":"洋人阿婆五角场店","lon":"121.53222","lat":"31.30251","category":"76","category_name":"上海菜","address":"杨浦区营口路868号(安波路口)"},{"poiid":"B2094757DA64AAF54799","title":"五角场","lon":"121.531717","lat":"31.296098","category":"500","category_name":"未知分类","address":"万达广场"},{"poiid":"B2094757D06FA3FC4398","title":"汤豪仕汤馆 国顺店","lon":"121.535952054","lat":"31.300504793","category":"76","category_name":"上海菜","address":"杨浦区国顺东路180号(近沙岗路)"},{"poiid":"B2094757D06BA0F44798","title":"八号线 延吉中路站","lon":"121.532200903","lat":"31.2966668709","category":"500","category_name":"未知分类","address":"上海市杨浦区靖宇中路营口路"},{"poiid":"B2094757D06FA7F84293","title":"肯德基 KFC (国顺店)","lon":"121.536208","lat":"31.300525","category":"68","category_name":"快餐厅","address":"杨浦区国顺东路180号(近沙岗路)"},{"poiid":"B2094757D06FA1FF4198","title":"深山老屋(国顺店)","lon":"121.53643","lat":"31.30035","category":"260","category_name":"其他","address":"杨浦区沙岗路632号(国顺东路口)"},{"poiid":"B2094655D26DA4FE4499","title":"华夏良子上海旗舰店","lon":"121.53315","lat":"31.29881","category":"149","category_name":"洗浴推拿场所","address":"国顺东路258"},{"poiid":"B2094654DB6BA2F4429D","title":"佳泰花园","lon":"121.53121","lat":"31.299124","category":"47","category_name":"住宅区","address":"上海市杨浦区营口路789弄1号(国顺东路口)"},{"poiid":"B2094757D66EA5FD449F","title":"仲益黄兴健身游泳瑜伽会所","lon":"121.531677103","lat":"31.2985010093","category":"500","category_name":"未知分类","address":"杨浦区国顺东路318号仲益黄兴体育公园内(近双阳北路)"},{"poiid":"B2094654D568A3FB439F","title":"企航商务","lon":"121.5316","lat":"31.30052","category":"46","category_name":"楼宇","address":"营口路825号"},{"poiid":"B2094655D26AA0FA429A","title":"地铁黄兴公园站","lon":"121.53276","lat":"31.29651","category":"36","category_name":"地铁站","address":""},{"poiid":"B2094757D16EA3FD4193","title":"城隍庙小吃","lon":"121.53287","lat":"31.29822","category":"68","category_name":"快餐厅","address":"杨浦区国顺东路255号(近营口路)"},{"poiid":"B2094757D069A6FD409E","title":"豪享来上海国顺店","lon":"121.5358","lat":"31.3013","category":"247","category_name":"餐饮美食","address":"上海市杨浦区沙岗路620号国顺东路店"},{"poiid":"B2094757D064A4F5449D","title":"景亨宴","lon":"121.527882103","lat":"31.301835079","category":"76","category_name":"上海菜","address":"安波路533弄1号楼1-2楼近营口路"},{"poiid":"B2094654D56FAAF8419A","title":"兰馨雅苑","lon":"121.53355","lat":"31.301998","category":"47","category_name":"住宅区","address":"上海市杨浦区安波路297号(营口路)"},{"poiid":"B209475CD66CA1F9469C","title":"盈田盈粥庄","lon":"121.529441","lat":"31.302219","category":"247","category_name":"餐饮美食","address":"上海市 安波路497号"},{"poiid":"B2094750DB6CABFE459D","title":"农屋里香","lon":"121.53203","lat":"31.29788","category":"87","category_name":"特色／地方风味餐厅","address":"杨浦区国顺东路318号仲益高尔夫会所内(近黄兴公园)"},{"poiid":"B2094654D56FAAFA4198","title":"浙西名菜府","lon":"121.53385","lat":"31.3052","category":"76","category_name":"上海菜","address":"杨浦区翔殷路577号海外宾馆内(沙岗路口)"},{"poiid":"B2094655D26AA0FA429B","title":"地铁翔殷路站","lon":"121.53197","lat":"31.30513","category":"36","category_name":"地铁站","address":""},{"poiid":"B2094655D36DA0FB459C","title":"营口路国顺东路","lon":"121.53209","lat":"31.29865","category":"38","category_name":"公交车站","address":""},{"poiid":"B2094757D16CA7FD4693","title":"艾森时尚旅店","lon":"121.532477828","lat":"31.3021262101","category":"216","category_name":"经济型连锁酒店","address":"杨浦区国顺东路180号(近沙岗路)"},{"poiid":"B2094750D76EA3F54692","title":"渔乐勝","lon":"121.532","lat":"31.2979","category":"95","category_name":"日本料理","address":"杨浦区国顺东路318号仲益国际高尔夫会所内"},{"poiid":"B2094655D26CA6FC4693","title":"苏州藏书羊肉面馆","lon":"121.530113","lat":"31.302255","category":"68","category_name":"快餐厅","address":"杨浦区沙岗路658号(近国顺东路)"},{"poiid":"B2094757D068A7FB4598","title":"上海800号美术馆","lon":"121.53504","lat":"31.29969","category":"179","category_name":"音乐厅","address":"杨浦区国顺东路800号黄兴公园东楼1楼(近双阳北路)"},{"poiid":"B2094654D568A3FB439E","title":"天炎网吧","lon":"121.5317","lat":"31.30071","category":"176","category_name":"网吧","address":"杨浦区营口路825号2楼(近安波路)"},{"poiid":"B2094757DA6FA3F44298","title":"鸡排超人(黄兴公园店)","lon":"121.534342999999","lat":"31.2990749999998","category":"68","category_name":"快餐厅","address":"杨浦区国顺东路237号(近营口路)"},{"poiid":"B2094654D56FAAF8429D","title":"绿景家苑","lon":"121.53362","lat":"31.3004","category":"47","category_name":"住宅区","address":"绿景家苑位于闵行营口路838弄"},{"poiid":"B2094655D26BABFE499B","title":"海上SOHO","lon":"121.53174","lat":"31.30265","category":"47","category_name":"住宅区","address":"上海市杨浦区安波路333号"},{"poiid":"B2094655D36DA0FB459F","title":"营口路安波路","lon":"121.53205","lat":"31.30252","category":"38","category_name":"公交车站","address":""},{"poiid":"B2094655D36DA0FB469B","title":"营口路翔殷路","lon":"121.5319","lat":"31.30259","category":"38","category_name":"公交车站","address":""},{"poiid":"B2094757D06AA7FF4498","title":"佳泰花苑","lon":"121.531702","lat":"31.299057","category":"47","category_name":"住宅区","address":"上海营口路789弄"},{"poiid":"B2094757D068A4FA439A","title":"綠景家園","lon":"121.5323881","lat":"31.300578052","category":"500","category_name":"未知分类","address":"上海市杨浦区營口路"},{"poiid":"B2094655D26AAAF8409B","title":"锦雪苑大酒店风味餐厅","lon":"121.53309","lat":"31.3051","category":"71","category_name":"四川菜","address":"杨浦区翔殷路631号(近地铁翔殷路站)"},{"poiid":"B2094757D16AA0FA489E","title":"顺旺基","lon":"121.533247803","lat":"31.2985999114","category":"68","category_name":"快餐厅","address":"杨浦区国顺东路237号"},{"poiid":"B2094654D568A3F5479B","title":"上海恒基市政建设工程有限公司","lon":"121.53161","lat":"31.30052","category":"263","category_name":"公司","address":"营口路825号企航商务805、807、809"},{"poiid":"B2094654D568A3F54793","title":"上海(日本)阿洛卡技术服务部","lon":"121.5316","lat":"31.30052","category":"263","category_name":"公司","address":"营口路825号企航商务905、907、909、911"},{"poiid":"B2094654D56FA6F9439F","title":"河南拉面麻辣烫(国顺东路)","lon":"121.53276","lat":"31.29814","category":"68","category_name":"快餐厅","address":"杨浦区国顺东路267号(近营口路)"},{"poiid":"B2094757D06AA1FF419D","title":"永琪美容美发(国顺店)","lon":"121.53351","lat":"31.29819","category":"148","category_name":"美容美发店","address":"杨浦区国顺东路249号(近营口路)"},{"poiid":"B2094757D06AABF5419E","title":"重庆鸡公煲 国顺东路店","lon":"121.53605708498","lat":"31.300342585043","category":"71","category_name":"四川菜","address":"杨浦区国顺东路221号(近沙岗路)"},{"poiid":"B2094757D768A5FA4699","title":"深井大叔港式烧腊 安波路店","lon":"121.527524","lat":"31.301476","category":"72","category_name":"广东菜","address":"杨浦区安波路577号(近营口路)"},{"poiid":"B2094757D069ABFF429A","title":"法国UWANTART当代画廊","lon":"121.5354","lat":"31.29991","category":"179","category_name":"音乐厅","address":"杨浦区国顺东路800号艺术园区三楼303-305室(近双阳北路)"},{"poiid":"B209475CD66FA3F94398","title":"盈田盈粥庄","lon":"121.529594","lat":"31.30224","category":"247","category_name":"餐饮美食","address":"上海市 安波路"},{"poiid":"B2094757D06AA4F94293","title":"GUCCI(海港城店)","lon":"121.5325336","lat":"31.303076605","category":"141","category_name":"服装鞋帽皮具店","address":"香港广东道17号海港城港威商场G124-125A  "},{"poiid":"B2094654D56FAAF84292","title":"绿景家苑(西门)","lon":"121.53226","lat":"31.30031","category":"48","category_name":"楼宇大门","address":"营口路838弄"},{"poiid":"B2094757D06EABF54493","title":"翔殷路地铁站","lon":"121.53197866","lat":"31.305146989","category":"36","category_name":"地铁站","address":"杨浦区翔殷路"},{"poiid":"B2094757D06FA7FE4793","title":"薇拉宫邸私人婚礼会所(杨浦店)","lon":"121.53268","lat":"31.29639","category":"500","category_name":"未知分类","address":"杨浦区营口路699号(近双阳北路)查看地图"},{"poiid":"B2094757D06FAAFD439B","title":"翔殷路","lon":"121.531976","lat":"31.30513","category":"260","category_name":"其他","address":"上海杨浦区翔殷路"},{"poiid":"B2094655D26AABF9449B","title":"上海锦雪苑酒店原上海第二军医大学锦雪苑酒店","lon":"121.53309","lat":"31.3051","category":"250","category_name":"公园户外","address":"翔殷路631号"},{"poiid":"B2094757D068A1FC489E","title":"海上硕和城","lon":"121.52803","lat":"31.300863","category":"47","category_name":"住宅区","address":"上海安波路567弄"},{"poiid":"B2094757D068A2FF4693","title":"绿地汇创国际广场","lon":"121.528","lat":"31.3032","category":"46","category_name":"楼宇","address":"上海市杨浦区国定东路273弄1号等"},{"poiid":"B2094654DB64A6FA4098","title":"洋人阿婆五角场店","lon":"121.53222","lat":"31.30251","category":"76","category_name":"上海菜","address":"杨浦区营口路868号(安波路口)"},{"poiid":"B2094757DA64AAF54799","title":"五角场","lon":"121.531717","lat":"31.296098","category":"500","category_name":"未知分类","address":"万达广场"},{"poiid":"B2094757D06FA3FC4398","title":"汤豪仕汤馆 国顺店","lon":"121.535952054","lat":"31.300504793","category":"76","category_name":"上海菜","address":"杨浦区国顺东路180号(近沙岗路)"},{"poiid":"B2094757D06BA0F44798","title":"八号线 延吉中路站","lon":"121.532200903","lat":"31.2966668709","category":"500","category_name":"未知分类","address":"上海市杨浦区靖宇中路营口路"},{"poiid":"B2094757D06FA7F84293","title":"肯德基 KFC (国顺店)","lon":"121.536208","lat":"31.300525","category":"68","category_name":"快餐厅","address":"杨浦区国顺东路180号(近沙岗路)"},{"poiid":"B2094757D06FA1FF4198","title":"深山老屋(国顺店)","lon":"121.53643","lat":"31.30035","category":"260","category_name":"其他","address":"杨浦区沙岗路632号(国顺东路口)"},{"poiid":"B2094655D26DA4FE4499","title":"华夏良子上海旗舰店","lon":"121.53315","lat":"31.29881","category":"149","category_name":"洗浴推拿场所","address":"国顺东路258"},{"poiid":"B2094654DB6BA2F4429D","title":"佳泰花园","lon":"121.53121","lat":"31.299124","category":"47","category_name":"住宅区","address":"上海市杨浦区营口路789弄1号(国顺东路口)"},{"poiid":"B2094757D66EA5FD449F","title":"仲益黄兴健身游泳瑜伽会所","lon":"121.531677103","lat":"31.2985010093","category":"500","category_name":"未知分类","address":"杨浦区国顺东路318号仲益黄兴体育公园内(近双阳北路)"},{"poiid":"B2094654D568A3FB439F","title":"企航商务","lon":"121.5316","lat":"31.30052","category":"46","category_name":"楼宇","address":"营口路825号"},{"poiid":"B2094655D26AA0FA429A","title":"地铁黄兴公园站","lon":"121.53276","lat":"31.29651","category":"36","category_name":"地铁站","address":""},{"poiid":"B2094757D16EA3FD4193","title":"城隍庙小吃","lon":"121.53287","lat":"31.29822","category":"68","category_name":"快餐厅","address":"杨浦区国顺东路255号(近营口路)"},{"poiid":"B2094757D069A6FD409E","title":"豪享来上海国顺店","lon":"121.5358","lat":"31.3013","category":"247","category_name":"餐饮美食","address":"上海市杨浦区沙岗路620号国顺东路店"},{"poiid":"B2094757D064A4F5449D","title":"景亨宴","lon":"121.527882103","lat":"31.301835079","category":"76","category_name":"上海菜","address":"安波路533弄1号楼1-2楼近营口路"},{"poiid":"B2094654D56FAAF8419A","title":"兰馨雅苑","lon":"121.53355","lat":"31.301998","category":"47","category_name":"住宅区","address":"上海市杨浦区安波路297号(营口路)"},{"poiid":"B209475CD66CA1F9469C","title":"盈田盈粥庄","lon":"121.529441","lat":"31.302219","category":"247","category_name":"餐饮美食","address":"上海市 安波路497号"},{"poiid":"B2094750DB6CABFE459D","title":"农屋里香","lon":"121.53203","lat":"31.29788","category":"87","category_name":"特色／地方风味餐厅","address":"杨浦区国顺东路318号仲益高尔夫会所内(近黄兴公园)"},{"poiid":"B2094654D56FAAFA4198","title":"浙西名菜府","lon":"121.53385","lat":"31.3052","category":"76","category_name":"上海菜","address":"杨浦区翔殷路577号海外宾馆内(沙岗路口)"},{"poiid":"B2094655D26AA0FA429B","title":"地铁翔殷路站","lon":"121.53197","lat":"31.30513","category":"36","category_name":"地铁站","address":""},{"poiid":"B2094655D36DA0FB459C","title":"营口路国顺东路","lon":"121.53209","lat":"31.29865","category":"38","category_name":"公交车站","address":""},{"poiid":"B2094757D16CA7FD4693","title":"艾森时尚旅店","lon":"121.532477828","lat":"31.3021262101","category":"216","category_name":"经济型连锁酒店","address":"杨浦区国顺东路180号(近沙岗路)"},{"poiid":"B2094750D76EA3F54692","title":"渔乐勝","lon":"121.532","lat":"31.2979","category":"95","category_name":"日本料理","address":"杨浦区国顺东路318号仲益国际高尔夫会所内"},{"poiid":"B2094655D26CA6FC4693","title":"苏州藏书羊肉面馆","lon":"121.530113","lat":"31.302255","category":"68","category_name":"快餐厅","address":"杨浦区沙岗路658号(近国顺东路)"},{"poiid":"B2094757D068A7FB4598","title":"上海800号美术馆","lon":"121.53504","lat":"31.29969","category":"179","category_name":"音乐厅","address":"杨浦区国顺东路800号黄兴公园东楼1楼(近双阳北路)"},{"poiid":"B2094654D568A3FB439E","title":"天炎网吧","lon":"121.5317","lat":"31.30071","category":"176","category_name":"网吧","address":"杨浦区营口路825号2楼(近安波路)"},{"poiid":"B2094757DA6FA3F44298","title":"鸡排超人(黄兴公园店)","lon":"121.534342999999","lat":"31.2990749999998","category":"68","category_name":"快餐厅","address":"杨浦区国顺东路237号(近营口路)"},{"poiid":"B2094654D56FAAF8429D","title":"绿景家苑","lon":"121.53362","lat":"31.3004","category":"47","category_name":"住宅区","address":"绿景家苑位于闵行营口路838弄"},{"poiid":"B2094655D26BABFE499B","title":"海上SOHO","lon":"121.53174","lat":"31.30265","category":"47","category_name":"住宅区","address":"上海市杨浦区安波路333号"},{"poiid":"B2094655D36DA0FB459F","title":"营口路安波路","lon":"121.53205","lat":"31.30252","category":"38","category_name":"公交车站","address":""},{"poiid":"B2094655D36DA0FB469B","title":"营口路翔殷路","lon":"121.5319","lat":"31.30259","category":"38","category_name":"公交车站","address":""},{"poiid":"B2094757D06AA7FF4498","title":"佳泰花苑","lon":"121.531702","lat":"31.299057","category":"47","category_name":"住宅区","address":"上海营口路789弄"},{"poiid":"B2094757D068A4FA439A","title":"綠景家園","lon":"121.5323881","lat":"31.300578052","category":"500","category_name":"未知分类","address":"上海市杨浦区營口路"},{"poiid":"B2094655D26AAAF8409B","title":"锦雪苑大酒店风味餐厅","lon":"121.53309","lat":"31.3051","category":"71","category_name":"四川菜","address":"杨浦区翔殷路631号(近地铁翔殷路站)"},{"poiid":"B2094757D16AA0FA489E","title":"顺旺基","lon":"121.533247803","lat":"31.2985999114","category":"68","category_name":"快餐厅","address":"杨浦区国顺东路237号"},{"poiid":"B2094654D568A3F5479B","title":"上海恒基市政建设工程有限公司","lon":"121.53161","lat":"31.30052","category":"263","category_name":"公司","address":"营口路825号企航商务805、807、809"},{"poiid":"B2094654D568A3F54793","title":"上海(日本)阿洛卡技术服务部","lon":"121.5316","lat":"31.30052","category":"263","category_name":"公司","address":"营口路825号企航商务905、907、909、911"},{"poiid":"B2094654D56FA6F9439F","title":"河南拉面麻辣烫(国顺东路)","lon":"121.53276","lat":"31.29814","category":"68","category_name":"快餐厅","address":"杨浦区国顺东路267号(近营口路)"},{"poiid":"B2094757D06AA1FF419D","title":"永琪美容美发(国顺店)","lon":"121.53351","lat":"31.29819","category":"148","category_name":"美容美发店","address":"杨浦区国顺东路249号(近营口路)"},{"poiid":"B2094757D06AABF5419E","title":"重庆鸡公煲 国顺东路店","lon":"121.53605708498","lat":"31.300342585043","category":"71","category_name":"四川菜","address":"杨浦区国顺东路221号(近沙岗路)"},{"poiid":"B2094757D768A5FA4699","title":"深井大叔港式烧腊 安波路店","lon":"121.527524","lat":"31.301476","category":"72","category_name":"广东菜","address":"杨浦区安波路577号(近营口路)"},{"poiid":"B2094757D069ABFF429A","title":"法国UWANTART当代画廊","lon":"121.5354","lat":"31.29991","category":"179","category_name":"音乐厅","address":"杨浦区国顺东路800号艺术园区三楼303-305室(近双阳北路)"},{"poiid":"B209475CD66FA3F94398","title":"盈田盈粥庄","lon":"121.529594","lat":"31.30224","category":"247","category_name":"餐饮美食","address":"上海市 安波路"},{"poiid":"B2094757D06AA4F94293","title":"GUCCI(海港城店)","lon":"121.5325336","lat":"31.303076605","category":"141","category_name":"服装鞋帽皮具店","address":"香港广东道17号海港城港威商场G124-125A  "},{"poiid":"B2094654D56FAAF84292","title":"绿景家苑(西门)","lon":"121.53226","lat":"31.30031","category":"48","category_name":"楼宇大门","address":"营口路838弄"}]