[{"poiid":"B2094757D068A7F9469D","title":"联怡枇杷生态园","lon":"121.13281267","lat":"31.13237601","category":"500","category_name":"未知分类","address":"上海ShanghaiQingpuHuyu Expressway Exit"},{"poiid":"B2094757D06FA7FC489F","title":"福寿园","lon":"121.131284073","lat":"31.1121971078","category":"47","category_name":"住宅区","address":"上海近郊青浦区外青松公路7270号"},{"poiid":"B2094654DA6BA4FF419D","title":"凯博休闲农庄","lon":"121.12996","lat":"31.12377","category":"248","category_name":"生活娱乐","address":"外青松公路7188号近沪青平公路"},{"poiid":"B2094757D06FA6F44392","title":"青浦联怡枇杷生態园","lon":"121.11156654","lat":"31.121325189","category":"260","category_name":"其他","address":"上海外青松公路7166号"},{"poiid":"B2094757D068A4F5419A","title":"帕缇欧香苑","lon":"121.1250559","lat":"31.141070094","category":"252","category_name":"楼宇机构","address":"上海青浦区外青松公路6666弄"},{"poiid":"B2094655D36DA6FF499C","title":"上海青浦影城","lon":"121.11842","lat":"31.13721","category":"178","category_name":"电影院","address":"上海市青浦区沪青平公路5669弄(金域广场)63栋22号"},{"poiid":"B2094757D069A2F5489D","title":"G50沪渝高速青浦城区收费站","lon":"121.124441394","lat":"31.130823627","category":"267","category_name":"收费站","address":"上海G50沪渝高速青浦城区收费站"},{"poiid":"B2094757D06AABFD4899","title":"金家农家乐","lon":"121.11396","lat":"31.11734","category":"500","category_name":"未知分类","address":"上海近郊青浦区青昆路688号(近青松路)  "},{"poiid":"B2094757D06BA3FF479E","title":"仁恒运杰河滨花苑","lon":"121.12885939","lat":"31.140946384","category":"252","category_name":"楼宇机构","address":"上海青浦区外青松公路6999弄"},{"poiid":"B2094757D16FABFB4798","title":"小木屋农家菜","lon":"121.124215671","lat":"31.131902901","category":"76","category_name":"上海菜","address":"青浦区外青松公路6666弄68-69号(近热浪健身俱乐部)"},{"poiid":"B2094750D664A6FB4392","title":"张家湾生态园","lon":"121.13","lat":"31.1233","category":"87","category_name":"特色／地方风味餐厅","address":"青浦区外青松公路7188号张家湾生态园内"},{"poiid":"B2094757D06BA1FA419F","title":"琵琶园农家乐","lon":"121.134522671","lat":"31.1320980049","category":"75","category_name":"浙江菜","address":"上海外青松公路7166号"},{"poiid":"B2094757D16CA4FD429A","title":"小外灘","lon":"121.114895071","lat":"31.1407699787","category":"500","category_name":"未知分类","address":"上海近郊青浦區"},{"poiid":"B2094757D66AA0F54898","title":"丑小鸭家常菜馆","lon":"121.12565","lat":"31.12875","category":"76","category_name":"上海菜","address":"青浦区青松路7199号一区12-16号(近福寿园)"},{"poiid":"B2094757D56EA0F44198","title":"车水马廷","lon":"121.1253619","lat":"31.13135855","category":"76","category_name":"上海菜","address":"青浦区外青松公路6677号(近福寿园)"},{"poiid":"B2094655D264A4F9489A","title":"G50青浦城区收费站","lon":"121.12445","lat":"31.13151","category":"267","category_name":"收费站","address":""},{"poiid":"B2094654DA6BA5FB449B","title":"上海市公安局青浦分局交通警察支队","lon":"121.11951","lat":"31.13749","category":"250","category_name":"公园户外","address":"沪青平公路5540"},{"poiid":"B2094757D568A7FD4898","title":"轩和坊","lon":"121.1264411","lat":"31.132295","category":"46","category_name":"楼宇","address":"朱家角镇新风路185弄"},{"poiid":"B2094655D36CA2F8449E","title":"青松路","lon":"121.11723","lat":"31.13711","category":"38","category_name":"公交车站","address":""},{"poiid":"B2094757D064A3F9449D","title":"18区真人实景数字对战游戏基地","lon":"121.11398","lat":"31.12851","category":"173","category_name":"游戏厅","address":"青浦区青昆路688号(近青松路)"},{"poiid":"B2094757D16CA3FD4992","title":"联怡大酒店 青浦店","lon":"121.111864054","lat":"31.143871793","category":"76","category_name":"上海菜","address":"青浦区城中南路267号(城中南路老朱青路)"},{"poiid":"B2094757D064A6F9469E","title":"G50沪渝高速金泽收费站","lon":"121.124253","lat":"31.131357","category":"267","category_name":"收费站","address":"上海G50沪渝高速金泽收费站"},{"poiid":"B2094655D36CA2F8439A","title":"青浦南门","lon":"121.10972","lat":"31.13693","category":"38","category_name":"公交车站","address":"上海金地格林都"},{"poiid":"B2094757D16EA5FD4592","title":"西岑","lon":"121.1244","lat":"31.131441","category":"500","category_name":"未知分类","address":"上海A9公路"},{"poiid":"B2094757D568A7F5449C","title":"全驴馆","lon":"121.129342","lat":"31.125371","category":"260","category_name":"其他","address":"青浦区外青松公路7199号18-20号"},{"poiid":"B2094655D36DA2F94398","title":"三官塘大桥","lon":"121.12795","lat":"31.11622","category":"250","category_name":"公园户外","address":""},{"poiid":"B2094757D165A2FA489E","title":"青浦","lon":"121.10593067","lat":"31.120539773","category":"500","category_name":"未知分类","address":"上海青浦"},{"poiid":"B2094757D16DAAFF419E","title":"青浦热浪游泳健身会所","lon":"121.12440467","lat":"31.141178186","category":"500","category_name":"未知分类","address":"青浦区外青松公路6666号(近沪青平公路)"},{"poiid":"B2094654DA6BA5FB4499","title":"上海大众汽车青浦销售服务有限公司","lon":"121.12095","lat":"31.13812","category":"159","category_name":"汽车维修","address":"青浦区沪青平公路5528号"},{"poiid":"B2094654DA6BA7F9479C","title":"千味红景庭","lon":"121.11569","lat":"31.14271","category":"47","category_name":"住宅区","address":"青浦区青松路288号(青浦湖滨路青松路)"},{"poiid":"B2094757D56EA2FF489B","title":"华阳马术俱乐部","lon":"121.10555648803711","lat":"31.119896581289822","category":"250","category_name":"公园户外","address":"青浦区青昆路688号金家农家乐内,电话13311869820(青浦城区)"},{"poiid":"B2094757D16BA3FD4692","title":"小乐园","lon":"121.107344471","lat":"31.1248975606","category":"500","category_name":"未知分类","address":"上海青昆路"},{"poiid":"B2094757D66EA5F9459A","title":"Quiksilver(青浦奥特莱斯店)","lon":"121.11634","lat":"31.13666","category":"141","category_name":"服装鞋帽皮具店","address":"上海近郊青浦区沪青平公路2888号奥特莱斯B113(近嘉松中路)  "},{"poiid":"B2094757D065ABFD479F","title":"318国道","lon":"121.118341","lat":"31.137428","category":"260","category_name":"其他","address":"上海318国道(青浦至西藏)"},{"poiid":"B2094654DB69AAFB469E","title":"青浦区交警支队","lon":"121.11951","lat":"31.13749","category":"250","category_name":"公园户外","address":"青浦区沪青平公路5540号"},{"poiid":"B2094757D164A0F9489C","title":"塔湾新村","lon":"121.118450321","lat":"31.1373831108","category":"47","category_name":"住宅区","address":"上海沪青平公路479弄"},{"poiid":"B2094654DA6BA7F94798","title":"青城苑","lon":"121.11543","lat":"31.143129","category":"47","category_name":"住宅区","address":"上海市青松路270号"},{"poiid":"B2094654DA6BA0FE439A","title":"青丝漫舞","lon":"121.1116","lat":"31.13549","category":"148","category_name":"美容美发店","address":""},{"poiid":"B2094654DA6BA0FE4392","title":"夏阳派出所","lon":"121.11181","lat":"31.13459","category":"609","category_name":"警察局","address":"青浦区青昆路100号"},{"poiid":"B2094655D36DA2F94193","title":"沪青平公路东大盈桥","lon":"121.11402","lat":"31.13687","category":"250","category_name":"公园户外","address":""},{"poiid":"B2094757D66CA0FF499A","title":"君港海鲜酒楼","lon":"121.110100671","lat":"31.1369331018","category":"247","category_name":"餐饮美食","address":"上海市青浦区沪青平公路5732-5736号"},{"poiid":"B2094655D268A3F4409D","title":"塔湾新村一区","lon":"121.1183","lat":"31.13811","category":"47","category_name":"住宅区","address":""},{"poiid":"B2094654DA6BA5F54393","title":"零点咖啡","lon":"121.11074","lat":"31.1413","category":"65","category_name":"咖啡厅","address":"青浦镇"},{"poiid":"B2094655D268A3F44198","title":"青松路447弄小区","lon":"121.11808","lat":"31.13872","category":"47","category_name":"住宅区","address":"青松路447弄"},{"poiid":"B2094757D168ABF84399","title":"两岸咖啡(青浦店)","lon":"121.11143532","lat":"31.140599525","category":"65","category_name":"咖啡厅","address":"青浦区环城西路2号(南门大桥下)"},{"poiid":"B2094655D268A3F4419E","title":"基督教堂","lon":"121.11913","lat":"31.1398","category":"245","category_name":"教堂","address":""},{"poiid":"B2094654DA6BA0FA419E","title":"上海银洲汽车修理厂","lon":"121.11608","lat":"31.1367","category":"159","category_name":"汽车维修","address":"沪青平公路5251号"},{"poiid":"B2094654DA6BA7F9499C","title":"雅克曼咖啡","lon":"121.11443","lat":"31.14261","category":"65","category_name":"咖啡厅","address":"青浦区环城东路328号(环城东路青浦南门街)"},{"poiid":"B2094654DA6BA4F4439E","title":"福苑山庄","lon":"121.13532","lat":"31.11705","category":"248","category_name":"生活娱乐","address":"青浦镇"},{"poiid":"B2094750D66AA4F8409F","title":"上海市青浦监狱","lon":"121.138511","lat":"31.121097","category":"608","category_name":"法院","address":"青浦区外青松公路7405号"},{"poiid":"B2094757D068A7F9469D","title":"联怡枇杷生态园","lon":"121.13281267","lat":"31.13237601","category":"500","category_name":"未知分类","address":"上海ShanghaiQingpuHuyu Expressway Exit"},{"poiid":"B2094757D06FA7FC489F","title":"福寿园","lon":"121.131284073","lat":"31.1121971078","category":"47","category_name":"住宅区","address":"上海近郊青浦区外青松公路7270号"},{"poiid":"B2094654DA6BA4FF419D","title":"凯博休闲农庄","lon":"121.12996","lat":"31.12377","category":"248","category_name":"生活娱乐","address":"外青松公路7188号近沪青平公路"},{"poiid":"B2094757D06FA6F44392","title":"青浦联怡枇杷生態园","lon":"121.11156654","lat":"31.121325189","category":"260","category_name":"其他","address":"上海外青松公路7166号"},{"poiid":"B2094757D068A4F5419A","title":"帕缇欧香苑","lon":"121.1250559","lat":"31.141070094","category":"252","category_name":"楼宇机构","address":"上海青浦区外青松公路6666弄"},{"poiid":"B2094655D36DA6FF499C","title":"上海青浦影城","lon":"121.11842","lat":"31.13721","category":"178","category_name":"电影院","address":"上海市青浦区沪青平公路5669弄(金域广场)63栋22号"},{"poiid":"B2094757D069A2F5489D","title":"G50沪渝高速青浦城区收费站","lon":"121.124441394","lat":"31.130823627","category":"267","category_name":"收费站","address":"上海G50沪渝高速青浦城区收费站"},{"poiid":"B2094757D06AABFD4899","title":"金家农家乐","lon":"121.11396","lat":"31.11734","category":"500","category_name":"未知分类","address":"上海近郊青浦区青昆路688号(近青松路)  "},{"poiid":"B2094757D06BA3FF479E","title":"仁恒运杰河滨花苑","lon":"121.12885939","lat":"31.140946384","category":"252","category_name":"楼宇机构","address":"上海青浦区外青松公路6999弄"},{"poiid":"B2094757D16FABFB4798","title":"小木屋农家菜","lon":"121.124215671","lat":"31.131902901","category":"76","category_name":"上海菜","address":"青浦区外青松公路6666弄68-69号(近热浪健身俱乐部)"},{"poiid":"B2094750D664A6FB4392","title":"张家湾生态园","lon":"121.13","lat":"31.1233","category":"87","category_name":"特色／地方风味餐厅","address":"青浦区外青松公路7188号张家湾生态园内"},{"poiid":"B2094757D06BA1FA419F","title":"琵琶园农家乐","lon":"121.134522671","lat":"31.1320980049","category":"75","category_name":"浙江菜","address":"上海外青松公路7166号"},{"poiid":"B2094757D16CA4FD429A","title":"小外灘","lon":"121.114895071","lat":"31.1407699787","category":"500","category_name":"未知分类","address":"上海近郊青浦區"},{"poiid":"B2094757D66AA0F54898","title":"丑小鸭家常菜馆","lon":"121.12565","lat":"31.12875","category":"76","category_name":"上海菜","address":"青浦区青松路7199号一区12-16号(近福寿园)"},{"poiid":"B2094757D56EA0F44198","title":"车水马廷","lon":"121.1253619","lat":"31.13135855","category":"76","category_name":"上海菜","address":"青浦区外青松公路6677号(近福寿园)"},{"poiid":"B2094655D264A4F9489A","title":"G50青浦城区收费站","lon":"121.12445","lat":"31.13151","category":"267","category_name":"收费站","address":""},{"poiid":"B2094654DA6BA5FB449B","title":"上海市公安局青浦分局交通警察支队","lon":"121.11951","lat":"31.13749","category":"250","category_name":"公园户外","address":"沪青平公路5540"},{"poiid":"B2094757D568A7FD4898","title":"轩和坊","lon":"121.1264411","lat":"31.132295","category":"46","category_name":"楼宇","address":"朱家角镇新风路185弄"},{"poiid":"B2094655D36CA2F8449E","title":"青松路","lon":"121.11723","lat":"31.13711","category":"38","category_name":"公交车站","address":""},{"poiid":"B2094757D064A3F9449D","title":"18区真人实景数字对战游戏基地","lon":"121.11398","lat":"31.12851","category":"173","category_name":"游戏厅","address":"青浦区青昆路688号(近青松路)"},{"poiid":"B2094757D16CA3FD4992","title":"联怡大酒店 青浦店","lon":"121.111864054","lat":"31.143871793","category":"76","category_name":"上海菜","address":"青浦区城中南路267号(城中南路老朱青路)"},{"poiid":"B2094757D064A6F9469E","title":"G50沪渝高速金泽收费站","lon":"121.124253","lat":"31.131357","category":"267","category_name":"收费站","address":"上海G50沪渝高速金泽收费站"},{"poiid":"B2094655D36CA2F8439A","title":"青浦南门","lon":"121.10972","lat":"31.13693","category":"38","category_name":"公交车站","address":"上海金地格林都"},{"poiid":"B2094757D16EA5FD4592","title":"西岑","lon":"121.1244","lat":"31.131441","category":"500","category_name":"未知分类","address":"上海A9公路"},{"poiid":"B2094757D568A7F5449C","title":"全驴馆","lon":"121.129342","lat":"31.125371","category":"260","category_name":"其他","address":"青浦区外青松公路7199号18-20号"},{"poiid":"B2094655D36DA2F94398","title":"三官塘大桥","lon":"121.12795","lat":"31.11622","category":"250","category_name":"公园户外","address":""},{"poiid":"B2094757D165A2FA489E","title":"青浦","lon":"121.10593067","lat":"31.120539773","category":"500","category_name":"未知分类","address":"上海青浦"},{"poiid":"B2094757D16DAAFF419E","title":"青浦热浪游泳健身会所","lon":"121.12440467","lat":"31.141178186","category":"500","category_name":"未知分类","address":"青浦区外青松公路6666号(近沪青平公路)"},{"poiid":"B2094654DA6BA5FB4499","title":"上海大众汽车青浦销售服务有限公司","lon":"121.12095","lat":"31.13812","category":"159","category_name":"汽车维修","address":"青浦区沪青平公路5528号"},{"poiid":"B2094654DA6BA7F9479C","title":"千味红景庭","lon":"121.11569","lat":"31.14271","category":"47","category_name":"住宅区","address":"青浦区青松路288号(青浦湖滨路青松路)"},{"poiid":"B2094757D56EA2FF489B","title":"华阳马术俱乐部","lon":"121.10555648803711","lat":"31.119896581289822","category":"250","category_name":"公园户外","address":"青浦区青昆路688号金家农家乐内,电话13311869820(青浦城区)"},{"poiid":"B2094757D16BA3FD4692","title":"小乐园","lon":"121.107344471","lat":"31.1248975606","category":"500","category_name":"未知分类","address":"上海青昆路"},{"poiid":"B2094757D66EA5F9459A","title":"Quiksilver(青浦奥特莱斯店)","lon":"121.11634","lat":"31.13666","category":"141","category_name":"服装鞋帽皮具店","address":"上海近郊青浦区沪青平公路2888号奥特莱斯B113(近嘉松中路)  "},{"poiid":"B2094757D065ABFD479F","title":"318国道","lon":"121.118341","lat":"31.137428","category":"260","category_name":"其他","address":"上海318国道(青浦至西藏)"},{"poiid":"B2094654DB69AAFB469E","title":"青浦区交警支队","lon":"121.11951","lat":"31.13749","category":"250","category_name":"公园户外","address":"青浦区沪青平公路5540号"},{"poiid":"B2094757D164A0F9489C","title":"塔湾新村","lon":"121.118450321","lat":"31.1373831108","category":"47","category_name":"住宅区","address":"上海沪青平公路479弄"},{"poiid":"B2094654DA6BA7F94798","title":"青城苑","lon":"121.11543","lat":"31.143129","category":"47","category_name":"住宅区","address":"上海市青松路270号"},{"poiid":"B2094654DA6BA0FE439A","title":"青丝漫舞","lon":"121.1116","lat":"31.13549","category":"148","category_name":"美容美发店","address":""},{"poiid":"B2094654DA6BA0FE4392","title":"夏阳派出所","lon":"121.11181","lat":"31.13459","category":"609","category_name":"警察局","address":"青浦区青昆路100号"},{"poiid":"B2094655D36DA2F94193","title":"沪青平公路东大盈桥","lon":"121.11402","lat":"31.13687","category":"250","category_name":"公园户外","address":""},{"poiid":"B2094757D66CA0FF499A","title":"君港海鲜酒楼","lon":"121.110100671","lat":"31.1369331018","category":"247","category_name":"餐饮美食","address":"上海市青浦区沪青平公路5732-5736号"},{"poiid":"B2094655D268A3F4409D","title":"塔湾新村一区","lon":"121.1183","lat":"31.13811","category":"47","category_name":"住宅区","address":""},{"poiid":"B2094654DA6BA5F54393","title":"零点咖啡","lon":"121.11074","lat":"31.1413","category":"65","category_name":"咖啡厅","address":"青浦镇"},{"poiid":"B2094655D268A3F44198","title":"青松路447弄小区","lon":"121.11808","lat":"31.13872","category":"47","category_name":"住宅区","address":"青松路447弄"},{"poiid":"B2094757D168ABF84399","title":"两岸咖啡(青浦店)","lon":"121.11143532","lat":"31.140599525","category":"65","category_name":"咖啡厅","address":"青浦区环城西路2号(南门大桥下)"},{"poiid":"B2094655D268A3F4419E","title":"基督教堂","lon":"121.11913","lat":"31.1398","category":"245","category_name":"教堂","address":""},{"poiid":"B2094654DA6BA0FA419E","title":"上海银洲汽车修理厂","lon":"121.11608","lat":"31.1367","category":"159","category_name":"汽车维修","address":"沪青平公路5251号"},{"poiid":"B2094654DA6BA7F9499C","title":"雅克曼咖啡","lon":"121.11443","lat":"31.14261","category":"65","category_name":"咖啡厅","address":"青浦区环城东路328号(环城东路青浦南门街)"},{"poiid":"B2094654DA6BA4F4439E","title":"福苑山庄","lon":"121.13532","lat":"31.11705","category":"248","category_name":"生活娱乐","address":"青浦镇"},{"poiid":"B2094750D66AA4F8409F","title":"上海市青浦监狱","lon":"121.138511","lat":"31.121097","category":"608","category_name":"法院","address":"青浦区外青松公路7405号"}]