[{"poiid":"B2094757D06FA2F84299","title":"Wagas沃歌斯(金桥国际广场店)","lon":"121.58569335","lat":"31.252571106","category":"94","category_name":"西餐厅","address":"浦东新区张杨路3611号金桥国际商业广场(金桥路张杨路)"},{"poiid":"B2094757D068A2FC499D","title":"金杨新村","lon":"121.580062","lat":"31.249486","category":"252","category_name":"楼宇机构","address":"上海金杨路枣庄路"},{"poiid":"B2094757D068A4FD479B","title":"高点保龄球(金桥店)","lon":"121.58156","lat":"31.25603","category":"220","category_name":"运动场所","address":"浦东新区张杨路3611弄金桥国际商业广场3座4楼(金桥路张杨路)"},{"poiid":"B2094757D069A7F8499C","title":"陆行中学","lon":"121.5868","lat":"31.25336","category":"55","category_name":"中学","address":"上海浦东新区金桥路1288号"},{"poiid":"B2094655D36CA0FE4999","title":"金桥路地铁站","lon":"121.58197","lat":"31.25624","category":"36","category_name":"地铁站","address":""},{"poiid":"B2094757D06FA6F54399","title":"肯德基 KFC (金杨店)","lon":"121.580584","lat":"31.249445","category":"500","category_name":"未知分类","address":"浦东新区金杨路524号(近枣庄路)"},{"poiid":"B2094757D069A4F84292","title":"骏莱海鲜","lon":"121.5871744","lat":"31.253618245","category":"247","category_name":"餐饮美食","address":"上海金桥路1379号"},{"poiid":"B2094655D26DABFE449C","title":"金杨路商业街(金杨路)","lon":"121.58482","lat":"31.25505","category":"116","category_name":"特色商业街","address":""},{"poiid":"B2094757D068A7FC4698","title":"大富贵酒楼(金杨店)","lon":"121.58217","lat":"31.25082","category":"76","category_name":"上海菜","address":"浦东新区金杨路635号(近枣庄路)"},{"poiid":"B2094757D069A1FD459F","title":"爱金华鱼头汤 金桥店","lon":"121.58592147378","lat":"31.254573735846","category":"76","category_name":"上海菜","address":"浦东新区金桥路1258号(近金杨路)"},{"poiid":"B2094655D26CA7F8479B","title":"瑞亚·臻品酒店","lon":"121.58742","lat":"31.25276","category":"250","category_name":"公园户外","address":"上海市浦东新区金桥路1388号(近金台路)"},{"poiid":"B2094757D16BAAFE4593","title":"金台路","lon":"121.58593633","lat":"31.2501258","category":"500","category_name":"未知分类","address":"上海市浦东新区金杨路"},{"poiid":"B2094655D36CA0FE419C","title":"金杨路枣庄路","lon":"121.58121","lat":"31.25098","category":"38","category_name":"公交车站","address":"上海金杨路枣庄路金桥路"},{"poiid":"B2094654D568A6FA459A","title":"金杨十街坊","lon":"121.58266","lat":"31.251093","category":"47","category_name":"住宅区","address":"金杨路660弄"},{"poiid":"B2094757D164A0FF4392","title":"重庆谢记麻辣烫","lon":"121.582626339","lat":"31.2523888523","category":"68","category_name":"快餐厅","address":"浦东新区金杨路686号"},{"poiid":"B2094757D06FA5F84499","title":"85度C(金杨店)","lon":"121.57983033","lat":"31.248967773","category":"112","category_name":"糕饼店","address":"浦东新区金杨路483号1楼"},{"poiid":"B2094757D069AAF44993","title":"格力特健身中心","lon":"121.58154","lat":"31.25021","category":"148","category_name":"美容美发店","address":"浦东新区金杨路628号家得利超市3楼(近枣庄路)"},{"poiid":"B2094654D568A6FB439F","title":"哈尔滨人家 金台路店","lon":"121.58527758954","lat":"31.249521136892","category":"82","category_name":"东北菜","address":"浦东新区金台路136号(近枣庄路)"},{"poiid":"B2094757D569A3FC4399","title":"吴氏小龙虾摊","lon":"121.58209","lat":"31.25177306","category":"68","category_name":"快餐厅","address":"浦东新区金杨路672号中国银行旁(近枣庄路)"},{"poiid":"B2094757D569A0F44392","title":"仇记特色小锅锅贴","lon":"121.58209","lat":"31.25177306","category":"68","category_name":"快餐厅","address":"浦东新区金杨路672号中国银行旁(近枣庄路)"},{"poiid":"B2094757D16FAAFC479A","title":"苏宁电器(金杨店)","lon":"121.582636","lat":"31.253327","category":"138","category_name":"家电电子卖场","address":"浦东新区金桥金杨路755号"},{"poiid":"B2094655D26DAAF44199","title":"乔家栅 金杨路店","lon":"121.581898054","lat":"31.251555793","category":"68","category_name":"快餐厅","address":"浦东新区金杨路737号(近金桥路)"},{"poiid":"B2094750DB6EA6F9439D","title":"红宝石金杨店","lon":"121.581665","lat":"31.248418","category":"67","category_name":"甜品店","address":"浦东新区金杨路486号(近枣庄路)"},{"poiid":"B2094757D064A1F9459B","title":"缘品火锅坊","lon":"121.58073","lat":"31.24992","category":"86","category_name":"火锅店","address":"浦东新区金杨路558号(近枣庄路)"},{"poiid":"B2094654D568A6FA439C","title":"好德便利No.525","lon":"121.58245","lat":"31.25228","category":"117","category_name":"便民商店/便利店","address":"金杨路692"},{"poiid":"B2094757D16AA4FD4498","title":"碧悦城市酒店","lon":"121.58781833","lat":"31.252270849","category":"217","category_name":"旅馆招待所","address":"上海市浦东新区金台路222号(近金桥路)"},{"poiid":"B2094654D568A6F8469D","title":"中国移动金杨路营业厅(金杨路)","lon":"121.58239","lat":"31.2529","category":"151","category_name":"电讯营业厅","address":"金杨路725-727号"},{"poiid":"B2094757D568ABFD4793","title":"勿忘我兰州拉面","lon":"121.5816306","lat":"31.25114667","category":"68","category_name":"快餐厅","address":"浦东新区金杨路650号(近枣庄路)"},{"poiid":"B2094654D568A6F8479A","title":"中国农业银行金杨储蓄所","lon":"121.5823","lat":"31.25279","category":"150","category_name":"银行","address":"浦东新区金杨路717-719号(近金桥路)"},{"poiid":"B2094757D16DA1FC4093","title":"吉旺港式餐厅","lon":"121.583312862","lat":"31.2541664082","category":"247","category_name":"餐饮美食","address":"上海金桥国际广场三座三楼302"},{"poiid":"B2094757D064A7FF4793","title":"新亚大包(金杨店)","lon":"121.58026","lat":"31.25067","category":"68","category_name":"快餐厅","address":"浦东新区枣庄路765号(近金杨路)"},{"poiid":"B2094654D568A6F84798","title":"中国联通金杨路营业厅","lon":"121.58223","lat":"31.25269","category":"151","category_name":"电讯营业厅","address":"浦东新区金杨路715号"},{"poiid":"B2094757D165A7F44993","title":"CoCo一番屋","lon":"121.582241339","lat":"31.2551009146","category":"95","category_name":"日本料理","address":"浦东新区张杨路3611弄金桥国际商业广场"},{"poiid":"B2094654D568A6F84793","title":"梦珍美容美发","lon":"121.58172","lat":"31.25201","category":"148","category_name":"美容美发店","address":"金杨路679-683号"},{"poiid":"B2094757D66EA6F44099","title":"中国银行金桥支行","lon":"121.58260833","lat":"31.252589856","category":"150","category_name":"银行","address":"上海市浦东新区张杨路3611号6座1楼"},{"poiid":"B2094757D065A1FE479F","title":"万宁(金桥店)","lon":"121.58370971","lat":"31.253002166","category":"122","category_name":"个人用品/化妆品店","address":"上海浦东新区金桥路3611号金桥国际广场1楼(近张杨路)"},{"poiid":"B2094757D164A6FB469B","title":"金杨菜场","lon":"121.582889339","lat":"31.2516678357","category":"249","category_name":"购物服务","address":"上海金杨路 近枣庄路"},{"poiid":"B2094655D26FA5F8449D","title":"永琪美容美发(金杨店)","lon":"121.58349","lat":"31.25398","category":"148","category_name":"美容美发店","address":"浦东新区枣庄路771号(近金杨新村三街坊)"},{"poiid":"B2094654D568A6F84698","title":"可的(金杨路)","lon":"121.58264","lat":"31.25329","category":"117","category_name":"便民商店/便利店","address":"金杨路751"},{"poiid":"B2094654D568A6FA4292","title":"金杨第二商城","lon":"121.5837","lat":"31.25359","category":"119","category_name":"商场","address":"金杨路776-780号"},{"poiid":"B2094757D16EA5FA429A","title":"1001私房牛肉面","lon":"121.583145261","lat":"31.2535409454","category":"247","category_name":"餐饮美食","address":"上海金桥商业广场"},{"poiid":"B2094757D06FA1F4429D","title":"佐丹奴(金杨路店)","lon":"121.58191177","lat":"31.251538283","category":"141","category_name":"服装鞋帽皮具店","address":"上海浦东新区金杨路666号(近枣庄路)"},{"poiid":"B2094654D568A6FA4399","title":"上海浦东发展银行金杨支行","lon":"121.58276","lat":"31.25241","category":"150","category_name":"银行","address":"浦东新区金杨路696"},{"poiid":"B2094654D568A6FA4192","title":"茶风暴 金杨店 Tea Storm","lon":"121.585217054","lat":"31.254918793","category":"113","category_name":"冷饮店","address":"浦东新区金杨路798号(近金桥路)"},{"poiid":"B2094654D568A6FA449F","title":"中国银行上海市金杨路支行","lon":"121.58205","lat":"31.25174","category":"150","category_name":"银行","address":"浦东新区金杨路672-674号(近枣庄路)"},{"poiid":"B2094757D165A3F5419F","title":"王老家饭店","lon":"121.582391339","lat":"31.2491507779","category":"247","category_name":"餐饮美食","address":"浦东新区枣庄路(近金台路)"},{"poiid":"B2094655D26DA5FF4093","title":"金杨路商业街(枣庄路)","lon":"121.58061","lat":"31.25075","category":"116","category_name":"特色商业街","address":""},{"poiid":"B2094757DB6DA6F44799","title":"上海金桥中心智选假日酒店（原金桥中心快捷假日酒店）","lon":"121.5874314","lat":"31.25381307","category":"215","category_name":"三星级宾馆","address":"上海市浦东新区金桥路1359号(近金台路)"},{"poiid":"B2094757D164A5FB499D","title":"苹果园(金杨路店)","lon":"121.58141","lat":"31.25001","category":"117","category_name":"便民商店/便利店","address":"浦东新区金杨路277号(近金口路)"},{"poiid":"B2094654D568A6FA429A","title":"浩瀚美容美发有限公司金杨店","lon":"121.58414","lat":"31.25394","category":"148","category_name":"美容美发店","address":"浦东新区金杨路785弄对面(近金桥路)"},{"poiid":"B2094757D06FA2F84299","title":"Wagas沃歌斯(金桥国际广场店)","lon":"121.58569335","lat":"31.252571106","category":"94","category_name":"西餐厅","address":"浦东新区张杨路3611号金桥国际商业广场(金桥路张杨路)"},{"poiid":"B2094757D068A2FC499D","title":"金杨新村","lon":"121.580062","lat":"31.249486","category":"252","category_name":"楼宇机构","address":"上海金杨路枣庄路"},{"poiid":"B2094757D068A4FD479B","title":"高点保龄球(金桥店)","lon":"121.58156","lat":"31.25603","category":"220","category_name":"运动场所","address":"浦东新区张杨路3611弄金桥国际商业广场3座4楼(金桥路张杨路)"},{"poiid":"B2094757D069A7F8499C","title":"陆行中学","lon":"121.5868","lat":"31.25336","category":"55","category_name":"中学","address":"上海浦东新区金桥路1288号"},{"poiid":"B2094655D36CA0FE4999","title":"金桥路地铁站","lon":"121.58197","lat":"31.25624","category":"36","category_name":"地铁站","address":""},{"poiid":"B2094757D06FA6F54399","title":"肯德基 KFC (金杨店)","lon":"121.580584","lat":"31.249445","category":"500","category_name":"未知分类","address":"浦东新区金杨路524号(近枣庄路)"},{"poiid":"B2094757D069A4F84292","title":"骏莱海鲜","lon":"121.5871744","lat":"31.253618245","category":"247","category_name":"餐饮美食","address":"上海金桥路1379号"},{"poiid":"B2094655D26DABFE449C","title":"金杨路商业街(金杨路)","lon":"121.58482","lat":"31.25505","category":"116","category_name":"特色商业街","address":""},{"poiid":"B2094757D068A7FC4698","title":"大富贵酒楼(金杨店)","lon":"121.58217","lat":"31.25082","category":"76","category_name":"上海菜","address":"浦东新区金杨路635号(近枣庄路)"},{"poiid":"B2094757D069A1FD459F","title":"爱金华鱼头汤 金桥店","lon":"121.58592147378","lat":"31.254573735846","category":"76","category_name":"上海菜","address":"浦东新区金桥路1258号(近金杨路)"},{"poiid":"B2094655D26CA7F8479B","title":"瑞亚·臻品酒店","lon":"121.58742","lat":"31.25276","category":"250","category_name":"公园户外","address":"上海市浦东新区金桥路1388号(近金台路)"},{"poiid":"B2094757D16BAAFE4593","title":"金台路","lon":"121.58593633","lat":"31.2501258","category":"500","category_name":"未知分类","address":"上海市浦东新区金杨路"},{"poiid":"B2094655D36CA0FE419C","title":"金杨路枣庄路","lon":"121.58121","lat":"31.25098","category":"38","category_name":"公交车站","address":"上海金杨路枣庄路金桥路"},{"poiid":"B2094654D568A6FA459A","title":"金杨十街坊","lon":"121.58266","lat":"31.251093","category":"47","category_name":"住宅区","address":"金杨路660弄"},{"poiid":"B2094757D164A0FF4392","title":"重庆谢记麻辣烫","lon":"121.582626339","lat":"31.2523888523","category":"68","category_name":"快餐厅","address":"浦东新区金杨路686号"},{"poiid":"B2094757D06FA5F84499","title":"85度C(金杨店)","lon":"121.57983033","lat":"31.248967773","category":"112","category_name":"糕饼店","address":"浦东新区金杨路483号1楼"},{"poiid":"B2094757D069AAF44993","title":"格力特健身中心","lon":"121.58154","lat":"31.25021","category":"148","category_name":"美容美发店","address":"浦东新区金杨路628号家得利超市3楼(近枣庄路)"},{"poiid":"B2094654D568A6FB439F","title":"哈尔滨人家 金台路店","lon":"121.58527758954","lat":"31.249521136892","category":"82","category_name":"东北菜","address":"浦东新区金台路136号(近枣庄路)"},{"poiid":"B2094757D569A3FC4399","title":"吴氏小龙虾摊","lon":"121.58209","lat":"31.25177306","category":"68","category_name":"快餐厅","address":"浦东新区金杨路672号中国银行旁(近枣庄路)"},{"poiid":"B2094757D569A0F44392","title":"仇记特色小锅锅贴","lon":"121.58209","lat":"31.25177306","category":"68","category_name":"快餐厅","address":"浦东新区金杨路672号中国银行旁(近枣庄路)"},{"poiid":"B2094757D16FAAFC479A","title":"苏宁电器(金杨店)","lon":"121.582636","lat":"31.253327","category":"138","category_name":"家电电子卖场","address":"浦东新区金桥金杨路755号"},{"poiid":"B2094655D26DAAF44199","title":"乔家栅 金杨路店","lon":"121.581898054","lat":"31.251555793","category":"68","category_name":"快餐厅","address":"浦东新区金杨路737号(近金桥路)"},{"poiid":"B2094750DB6EA6F9439D","title":"红宝石金杨店","lon":"121.581665","lat":"31.248418","category":"67","category_name":"甜品店","address":"浦东新区金杨路486号(近枣庄路)"},{"poiid":"B2094757D064A1F9459B","title":"缘品火锅坊","lon":"121.58073","lat":"31.24992","category":"86","category_name":"火锅店","address":"浦东新区金杨路558号(近枣庄路)"},{"poiid":"B2094654D568A6FA439C","title":"好德便利No.525","lon":"121.58245","lat":"31.25228","category":"117","category_name":"便民商店/便利店","address":"金杨路692"},{"poiid":"B2094757D16AA4FD4498","title":"碧悦城市酒店","lon":"121.58781833","lat":"31.252270849","category":"217","category_name":"旅馆招待所","address":"上海市浦东新区金台路222号(近金桥路)"},{"poiid":"B2094654D568A6F8469D","title":"中国移动金杨路营业厅(金杨路)","lon":"121.58239","lat":"31.2529","category":"151","category_name":"电讯营业厅","address":"金杨路725-727号"},{"poiid":"B2094757D568ABFD4793","title":"勿忘我兰州拉面","lon":"121.5816306","lat":"31.25114667","category":"68","category_name":"快餐厅","address":"浦东新区金杨路650号(近枣庄路)"},{"poiid":"B2094654D568A6F8479A","title":"中国农业银行金杨储蓄所","lon":"121.5823","lat":"31.25279","category":"150","category_name":"银行","address":"浦东新区金杨路717-719号(近金桥路)"},{"poiid":"B2094757D16DA1FC4093","title":"吉旺港式餐厅","lon":"121.583312862","lat":"31.2541664082","category":"247","category_name":"餐饮美食","address":"上海金桥国际广场三座三楼302"},{"poiid":"B2094757D064A7FF4793","title":"新亚大包(金杨店)","lon":"121.58026","lat":"31.25067","category":"68","category_name":"快餐厅","address":"浦东新区枣庄路765号(近金杨路)"},{"poiid":"B2094654D568A6F84798","title":"中国联通金杨路营业厅","lon":"121.58223","lat":"31.25269","category":"151","category_name":"电讯营业厅","address":"浦东新区金杨路715号"},{"poiid":"B2094757D165A7F44993","title":"CoCo一番屋","lon":"121.582241339","lat":"31.2551009146","category":"95","category_name":"日本料理","address":"浦东新区张杨路3611弄金桥国际商业广场"},{"poiid":"B2094654D568A6F84793","title":"梦珍美容美发","lon":"121.58172","lat":"31.25201","category":"148","category_name":"美容美发店","address":"金杨路679-683号"},{"poiid":"B2094757D66EA6F44099","title":"中国银行金桥支行","lon":"121.58260833","lat":"31.252589856","category":"150","category_name":"银行","address":"上海市浦东新区张杨路3611号6座1楼"},{"poiid":"B2094757D065A1FE479F","title":"万宁(金桥店)","lon":"121.58370971","lat":"31.253002166","category":"122","category_name":"个人用品/化妆品店","address":"上海浦东新区金桥路3611号金桥国际广场1楼(近张杨路)"},{"poiid":"B2094757D164A6FB469B","title":"金杨菜场","lon":"121.582889339","lat":"31.2516678357","category":"249","category_name":"购物服务","address":"上海金杨路 近枣庄路"},{"poiid":"B2094655D26FA5F8449D","title":"永琪美容美发(金杨店)","lon":"121.58349","lat":"31.25398","category":"148","category_name":"美容美发店","address":"浦东新区枣庄路771号(近金杨新村三街坊)"},{"poiid":"B2094654D568A6F84698","title":"可的(金杨路)","lon":"121.58264","lat":"31.25329","category":"117","category_name":"便民商店/便利店","address":"金杨路751"},{"poiid":"B2094654D568A6FA4292","title":"金杨第二商城","lon":"121.5837","lat":"31.25359","category":"119","category_name":"商场","address":"金杨路776-780号"},{"poiid":"B2094757D16EA5FA429A","title":"1001私房牛肉面","lon":"121.583145261","lat":"31.2535409454","category":"247","category_name":"餐饮美食","address":"上海金桥商业广场"},{"poiid":"B2094757D06FA1F4429D","title":"佐丹奴(金杨路店)","lon":"121.58191177","lat":"31.251538283","category":"141","category_name":"服装鞋帽皮具店","address":"上海浦东新区金杨路666号(近枣庄路)"},{"poiid":"B2094654D568A6FA4399","title":"上海浦东发展银行金杨支行","lon":"121.58276","lat":"31.25241","category":"150","category_name":"银行","address":"浦东新区金杨路696"},{"poiid":"B2094654D568A6FA4192","title":"茶风暴 金杨店 Tea Storm","lon":"121.585217054","lat":"31.254918793","category":"113","category_name":"冷饮店","address":"浦东新区金杨路798号(近金桥路)"},{"poiid":"B2094654D568A6FA449F","title":"中国银行上海市金杨路支行","lon":"121.58205","lat":"31.25174","category":"150","category_name":"银行","address":"浦东新区金杨路672-674号(近枣庄路)"},{"poiid":"B2094757D165A3F5419F","title":"王老家饭店","lon":"121.582391339","lat":"31.2491507779","category":"247","category_name":"餐饮美食","address":"浦东新区枣庄路(近金台路)"},{"poiid":"B2094655D26DA5FF4093","title":"金杨路商业街(枣庄路)","lon":"121.58061","lat":"31.25075","category":"116","category_name":"特色商业街","address":""},{"poiid":"B2094757DB6DA6F44799","title":"上海金桥中心智选假日酒店（原金桥中心快捷假日酒店）","lon":"121.5874314","lat":"31.25381307","category":"215","category_name":"三星级宾馆","address":"上海市浦东新区金桥路1359号(近金台路)"},{"poiid":"B2094757D164A5FB499D","title":"苹果园(金杨路店)","lon":"121.58141","lat":"31.25001","category":"117","category_name":"便民商店/便利店","address":"浦东新区金杨路277号(近金口路)"},{"poiid":"B2094654D568A6FA429A","title":"浩瀚美容美发有限公司金杨店","lon":"121.58414","lat":"31.25394","category":"148","category_name":"美容美发店","address":"浦东新区金杨路785弄对面(近金桥路)"},{"poiid":"B2094757D06FA2F84299","title":"Wagas沃歌斯(金桥国际广场店)","lon":"121.58569335","lat":"31.252571106","category":"94","category_name":"西餐厅","address":"浦东新区张杨路3611号金桥国际商业广场(金桥路张杨路)"},{"poiid":"B2094757D068A2FC499D","title":"金杨新村","lon":"121.580062","lat":"31.249486","category":"252","category_name":"楼宇机构","address":"上海金杨路枣庄路"},{"poiid":"B2094757D068A4FD479B","title":"高点保龄球(金桥店)","lon":"121.58156","lat":"31.25603","category":"220","category_name":"运动场所","address":"浦东新区张杨路3611弄金桥国际商业广场3座4楼(金桥路张杨路)"},{"poiid":"B2094757D069A7F8499C","title":"陆行中学","lon":"121.5868","lat":"31.25336","category":"55","category_name":"中学","address":"上海浦东新区金桥路1288号"},{"poiid":"B2094655D36CA0FE4999","title":"金桥路地铁站","lon":"121.58197","lat":"31.25624","category":"36","category_name":"地铁站","address":""},{"poiid":"B2094757D06FA6F54399","title":"肯德基 KFC (金杨店)","lon":"121.580584","lat":"31.249445","category":"500","category_name":"未知分类","address":"浦东新区金杨路524号(近枣庄路)"},{"poiid":"B2094757D069A4F84292","title":"骏莱海鲜","lon":"121.5871744","lat":"31.253618245","category":"247","category_name":"餐饮美食","address":"上海金桥路1379号"},{"poiid":"B2094655D26DABFE449C","title":"金杨路商业街(金杨路)","lon":"121.58482","lat":"31.25505","category":"116","category_name":"特色商业街","address":""},{"poiid":"B2094757D068A7FC4698","title":"大富贵酒楼(金杨店)","lon":"121.58217","lat":"31.25082","category":"76","category_name":"上海菜","address":"浦东新区金杨路635号(近枣庄路)"},{"poiid":"B2094757D069A1FD459F","title":"爱金华鱼头汤 金桥店","lon":"121.58592147378","lat":"31.254573735846","category":"76","category_name":"上海菜","address":"浦东新区金桥路1258号(近金杨路)"},{"poiid":"B2094655D26CA7F8479B","title":"瑞亚·臻品酒店","lon":"121.58742","lat":"31.25276","category":"250","category_name":"公园户外","address":"上海市浦东新区金桥路1388号(近金台路)"},{"poiid":"B2094757D16BAAFE4593","title":"金台路","lon":"121.58593633","lat":"31.2501258","category":"500","category_name":"未知分类","address":"上海市浦东新区金杨路"},{"poiid":"B2094655D36CA0FE419C","title":"金杨路枣庄路","lon":"121.58121","lat":"31.25098","category":"38","category_name":"公交车站","address":"上海金杨路枣庄路金桥路"},{"poiid":"B2094654D568A6FA459A","title":"金杨十街坊","lon":"121.58266","lat":"31.251093","category":"47","category_name":"住宅区","address":"金杨路660弄"},{"poiid":"B2094757D164A0FF4392","title":"重庆谢记麻辣烫","lon":"121.582626339","lat":"31.2523888523","category":"68","category_name":"快餐厅","address":"浦东新区金杨路686号"},{"poiid":"B2094757D06FA5F84499","title":"85度C(金杨店)","lon":"121.57983033","lat":"31.248967773","category":"112","category_name":"糕饼店","address":"浦东新区金杨路483号1楼"},{"poiid":"B2094757D069AAF44993","title":"格力特健身中心","lon":"121.58154","lat":"31.25021","category":"148","category_name":"美容美发店","address":"浦东新区金杨路628号家得利超市3楼(近枣庄路)"},{"poiid":"B2094654D568A6FB439F","title":"哈尔滨人家 金台路店","lon":"121.58527758954","lat":"31.249521136892","category":"82","category_name":"东北菜","address":"浦东新区金台路136号(近枣庄路)"},{"poiid":"B2094757D569A3FC4399","title":"吴氏小龙虾摊","lon":"121.58209","lat":"31.25177306","category":"68","category_name":"快餐厅","address":"浦东新区金杨路672号中国银行旁(近枣庄路)"},{"poiid":"B2094757D569A0F44392","title":"仇记特色小锅锅贴","lon":"121.58209","lat":"31.25177306","category":"68","category_name":"快餐厅","address":"浦东新区金杨路672号中国银行旁(近枣庄路)"},{"poiid":"B2094757D16FAAFC479A","title":"苏宁电器(金杨店)","lon":"121.582636","lat":"31.253327","category":"138","category_name":"家电电子卖场","address":"浦东新区金桥金杨路755号"},{"poiid":"B2094655D26DAAF44199","title":"乔家栅 金杨路店","lon":"121.581898054","lat":"31.251555793","category":"68","category_name":"快餐厅","address":"浦东新区金杨路737号(近金桥路)"},{"poiid":"B2094750DB6EA6F9439D","title":"红宝石金杨店","lon":"121.581665","lat":"31.248418","category":"67","category_name":"甜品店","address":"浦东新区金杨路486号(近枣庄路)"},{"poiid":"B2094757D064A1F9459B","title":"缘品火锅坊","lon":"121.58073","lat":"31.24992","category":"86","category_name":"火锅店","address":"浦东新区金杨路558号(近枣庄路)"},{"poiid":"B2094654D568A6FA439C","title":"好德便利No.525","lon":"121.58245","lat":"31.25228","category":"117","category_name":"便民商店/便利店","address":"金杨路692"},{"poiid":"B2094757D16AA4FD4498","title":"碧悦城市酒店","lon":"121.58781833","lat":"31.252270849","category":"217","category_name":"旅馆招待所","address":"上海市浦东新区金台路222号(近金桥路)"},{"poiid":"B2094654D568A6F8469D","title":"中国移动金杨路营业厅(金杨路)","lon":"121.58239","lat":"31.2529","category":"151","category_name":"电讯营业厅","address":"金杨路725-727号"},{"poiid":"B2094757D568ABFD4793","title":"勿忘我兰州拉面","lon":"121.5816306","lat":"31.25114667","category":"68","category_name":"快餐厅","address":"浦东新区金杨路650号(近枣庄路)"},{"poiid":"B2094654D568A6F8479A","title":"中国农业银行金杨储蓄所","lon":"121.5823","lat":"31.25279","category":"150","category_name":"银行","address":"浦东新区金杨路717-719号(近金桥路)"},{"poiid":"B2094757D16DA1FC4093","title":"吉旺港式餐厅","lon":"121.583312862","lat":"31.2541664082","category":"247","category_name":"餐饮美食","address":"上海金桥国际广场三座三楼302"},{"poiid":"B2094757D064A7FF4793","title":"新亚大包(金杨店)","lon":"121.58026","lat":"31.25067","category":"68","category_name":"快餐厅","address":"浦东新区枣庄路765号(近金杨路)"},{"poiid":"B2094654D568A6F84798","title":"中国联通金杨路营业厅","lon":"121.58223","lat":"31.25269","category":"151","category_name":"电讯营业厅","address":"浦东新区金杨路715号"},{"poiid":"B2094757D165A7F44993","title":"CoCo一番屋","lon":"121.582241339","lat":"31.2551009146","category":"95","category_name":"日本料理","address":"浦东新区张杨路3611弄金桥国际商业广场"},{"poiid":"B2094654D568A6F84793","title":"梦珍美容美发","lon":"121.58172","lat":"31.25201","category":"148","category_name":"美容美发店","address":"金杨路679-683号"},{"poiid":"B2094757D66EA6F44099","title":"中国银行金桥支行","lon":"121.58260833","lat":"31.252589856","category":"150","category_name":"银行","address":"上海市浦东新区张杨路3611号6座1楼"},{"poiid":"B2094757D065A1FE479F","title":"万宁(金桥店)","lon":"121.58370971","lat":"31.253002166","category":"122","category_name":"个人用品/化妆品店","address":"上海浦东新区金桥路3611号金桥国际广场1楼(近张杨路)"},{"poiid":"B2094757D164A6FB469B","title":"金杨菜场","lon":"121.582889339","lat":"31.2516678357","category":"249","category_name":"购物服务","address":"上海金杨路 近枣庄路"},{"poiid":"B2094655D26FA5F8449D","title":"永琪美容美发(金杨店)","lon":"121.58349","lat":"31.25398","category":"148","category_name":"美容美发店","address":"浦东新区枣庄路771号(近金杨新村三街坊)"},{"poiid":"B2094654D568A6F84698","title":"可的(金杨路)","lon":"121.58264","lat":"31.25329","category":"117","category_name":"便民商店/便利店","address":"金杨路751"},{"poiid":"B2094654D568A6FA4292","title":"金杨第二商城","lon":"121.5837","lat":"31.25359","category":"119","category_name":"商场","address":"金杨路776-780号"},{"poiid":"B2094757D16EA5FA429A","title":"1001私房牛肉面","lon":"121.583145261","lat":"31.2535409454","category":"247","category_name":"餐饮美食","address":"上海金桥商业广场"},{"poiid":"B2094757D06FA1F4429D","title":"佐丹奴(金杨路店)","lon":"121.58191177","lat":"31.251538283","category":"141","category_name":"服装鞋帽皮具店","address":"上海浦东新区金杨路666号(近枣庄路)"},{"poiid":"B2094654D568A6FA4399","title":"上海浦东发展银行金杨支行","lon":"121.58276","lat":"31.25241","category":"150","category_name":"银行","address":"浦东新区金杨路696"},{"poiid":"B2094654D568A6FA4192","title":"茶风暴 金杨店 Tea Storm","lon":"121.585217054","lat":"31.254918793","category":"113","category_name":"冷饮店","address":"浦东新区金杨路798号(近金桥路)"},{"poiid":"B2094654D568A6FA449F","title":"中国银行上海市金杨路支行","lon":"121.58205","lat":"31.25174","category":"150","category_name":"银行","address":"浦东新区金杨路672-674号(近枣庄路)"},{"poiid":"B2094757D165A3F5419F","title":"王老家饭店","lon":"121.582391339","lat":"31.2491507779","category":"247","category_name":"餐饮美食","address":"浦东新区枣庄路(近金台路)"},{"poiid":"B2094655D26DA5FF4093","title":"金杨路商业街(枣庄路)","lon":"121.58061","lat":"31.25075","category":"116","category_name":"特色商业街","address":""},{"poiid":"B2094757DB6DA6F44799","title":"上海金桥中心智选假日酒店（原金桥中心快捷假日酒店）","lon":"121.5874314","lat":"31.25381307","category":"215","category_name":"三星级宾馆","address":"上海市浦东新区金桥路1359号(近金台路)"},{"poiid":"B2094757D164A5FB499D","title":"苹果园(金杨路店)","lon":"121.58141","lat":"31.25001","category":"117","category_name":"便民商店/便利店","address":"浦东新区金杨路277号(近金口路)"},{"poiid":"B2094654D568A6FA429A","title":"浩瀚美容美发有限公司金杨店","lon":"121.58414","lat":"31.25394","category":"148","category_name":"美容美发店","address":"浦东新区金杨路785弄对面(近金桥路)"}]