[{"poiid":"B2094654DB6BA1FA469B","title":"上海第二工业大学","lon":"121.65148","lat":"31.26086","category":"671","category_name":"高校中心点","address":"浦东新区金海路2360号"},{"poiid":"B2094655D26BA7F84499","title":"上海杉达学院","lon":"121.6587244618845","lat":"31.266664708677787","category":"253","category_name":"校园生活","address":"浦东新区金海路2727号"},{"poiid":"B2094654D569A3F5479E","title":"上海第二工业大学学生公寓","lon":"121.65776","lat":"31.26113","category":"47","category_name":"住宅区","address":""},{"poiid":"B2094757D06FA0F94692","title":"上海金融学院","lon":"121.6536383","lat":"31.2764308","category":"671","category_name":"高校中心点","address":"上海上川路995号"},{"poiid":"B2094654D569A2F9449E","title":"上海金融学院学生公寓","lon":"121.65841","lat":"31.27462","category":"47","category_name":"住宅区","address":"上海浦东新区民雪路108号"},{"poiid":"B2094757D068A6FB409D","title":"上海第二工业大学图书馆","lon":"121.65252","lat":"31.26446","category":"253","category_name":"校园生活","address":"上海浦东新区金海路2360号"},{"poiid":"B2094757D06AA1FE419B","title":"杉达学院女生寝室","lon":"121.6590271","lat":"31.267677307","category":"500","category_name":"未知分类","address":null},{"poiid":"B2094752D56CA6F9459A","title":"宝龙城市广场","lon":"121.659509","lat":"31.272171","category":"47","category_name":"住宅区","address":"金海路2505弄近民耀路"},{"poiid":"B2094757D16EABF9479D","title":"阳光苑","lon":"121.65295731","lat":"31.272371545","category":"47","category_name":"住宅区","address":"上海浦东新区民耀路268弄"},{"poiid":"B2094757D06AA6F5449C","title":"上海第二工业大学食堂","lon":"121.65177","lat":"31.26466","category":"68","category_name":"快餐厅","address":"浦东新区金海路2360号上海第二工业大学内"},{"poiid":"B2094757D06BA4FD4999","title":"第二工业大学东门(黑暗料理界)","lon":"121.6577815","lat":"31.261825676","category":"500","category_name":"未知分类","address":"上海浦东新区顾唐路298号(近二工大)"},{"poiid":"B2094757D068A4FB489E","title":"上海金融学院图书馆","lon":"121.65375","lat":"31.27627","category":"253","category_name":"校园生活","address":"浦东新区上川路995号"},{"poiid":"B2094654D569A3FF419E","title":"杉达大学(金海路)","lon":"121.66515","lat":"31.26829","category":"671","category_name":"高校中心点","address":"浦东新区金海路2727号"},{"poiid":"B2094757D069A0F4419B","title":"梦奇园海鲜大酒店","lon":"121.66341","lat":"31.2742","category":"260","category_name":"其他","address":"浦东新区曹路镇民雨路390号(民春路)"},{"poiid":"B2094757D06AA6F44798","title":"杉达黑暗料理街","lon":"121.65786","lat":"31.26612","category":"111","category_name":"休闲餐饮场所","address":"浦东新区金海路2727号杉达学院附近(近民耀路)"},{"poiid":"B2094757D16EA0FC489C","title":"上海第二工业大学 图文信息中心","lon":"121.650222339","lat":"31.2628240921","category":"500","category_name":"未知分类","address":"上海浦东新区金海路2360号,第二工业大学,校内"},{"poiid":"B2094757D06BA7F5449E","title":"河滨城市花园","lon":"121.65675","lat":"31.263691","category":"252","category_name":"楼宇机构","address":"上海市浦东新区顾唐路138弄"},{"poiid":"B2094655D26BA1F94099","title":"民耀路民区路","lon":"121.65265","lat":"31.27339","category":"38","category_name":"公交车站","address":""},{"poiid":"B2094757D069A2F44899","title":"上海第二工业大学 实训楼","lon":"121.651466","lat":"31.260866","category":"500","category_name":"未知分类","address":"上海第二工业大学 实训楼"},{"poiid":"B2094655D36CA0FF4698","title":"金海路环东二大道","lon":"121.64525","lat":"31.26434","category":"38","category_name":"公交车站","address":""},{"poiid":"B2094757D064A1FC499D","title":"上海第二工业大学 体育馆","lon":"121.652504798","lat":"31.2634427144","category":"500","category_name":"未知分类","address":"上海第二工业大学 体育馆"},{"poiid":"B2094757D66EA2F4409D","title":"故里居","lon":"121.658","lat":"31.26085","category":"77","category_name":"湖南菜","address":"浦东新区顾唐路第二工业大学附近"},{"poiid":"B2094757D168A2FD449F","title":"上海金融学院文博楼","lon":"121.65687445","lat":"31.275942651","category":"500","category_name":"未知分类","address":"上海上川路995号"},{"poiid":"B2094655D26BA1F9409C","title":"民耀路金海路","lon":"121.65622","lat":"31.26681","category":"38","category_name":"公交车站","address":""},{"poiid":"B2094757D164A0F94998","title":"比萨坊","lon":"121.65484","lat":"31.26972","category":"94","category_name":"西餐厅","address":"浦东新区民耀路445号(近金海路)"},{"poiid":"B2094757D069A4FE479C","title":"蜀膳传火锅传奇 民耀路店","lon":"121.65199069654","lat":"31.27541289843","category":"86","category_name":"火锅店","address":"浦东新区民耀路217-219号(民区路民耀路)"},{"poiid":"B2094757D069AAFB4499","title":"上海第二工业大学艺术楼","lon":"121.652356124","lat":"31.2575583428","category":"500","category_name":"未知分类","address":"上海金海路2360号"},{"poiid":"B2094655D36CA0FF469E","title":"金海路","lon":"121.65067","lat":"31.26507","category":"38","category_name":"公交车站","address":""},{"poiid":"B2094757D66DAAFC499E","title":"上海第二工业大学三号楼自习教室","lon":"121.652044237","lat":"31.263912968","category":"500","category_name":"未知分类","address":null},{"poiid":"B2094655D36CA6F9479A","title":"二工大","lon":"121.64724","lat":"31.26448","category":"38","category_name":"公交车站","address":"金海路2360"},{"poiid":"B2094757D16FA3F4429E","title":"二工大游泳馆","lon":"121.65173","lat":"31.2606","category":"220","category_name":"运动场所","address":"浦东新区金海路2360号上海第二工业大学内"},{"poiid":"B2094757D164A2FC439D","title":"第二工业大学400人报告厅","lon":"121.651720039","lat":"31.2652708483","category":"500","category_name":"未知分类","address":"上海金海路2360号"},{"poiid":"B2094757D065A0FF429D","title":"二工大 人文楼","lon":"121.650725","lat":"31.265133","category":"500","category_name":"未知分类","address":"上海市浦东新区金海路2360号"},{"poiid":"B2094757D06BAAF9489E","title":"伊铭坊 民耀路店","lon":"121.653142054","lat":"31.273166793","category":"86","category_name":"火锅店","address":"浦东新区民耀路235-241号(近民区路)"},{"poiid":"B2094757D46FABFC439C","title":"1 1韩国烤肉自助餐 民耀路店","lon":"121.6543","lat":"31.2706485","category":"268","category_name":"自助","address":"浦东新区曹路镇民耀路374号(近金海路)"},{"poiid":"B2094654D569A2F84198","title":"东北人家(民耀路)","lon":"121.65393","lat":"31.27163","category":"82","category_name":"东北菜","address":"浦东新区民耀路271号"},{"poiid":"B2094752D36DAAFD4392","title":"金桥国际商业广场","lon":"121.651199","lat":"31.262215","category":"248","category_name":"生活娱乐","address":null},{"poiid":"B2094757D66EA7FA409F","title":"1 1韩国烤肉","lon":"121.65593245","lat":"31.267417367","category":"247","category_name":"餐饮美食","address":"上海民耀路金海路"},{"poiid":"B209475CDB65A7F4489C","title":"宝乐迪","lon":"121.651901","lat":"31.265024","category":"500","category_name":"未知分类","address":"上海市 曹路镇金海路2505弄宝龙广场"},{"poiid":"B2094654D569A2F8429C","title":"新芳邻","lon":"121.653489","lat":"31.271609","category":"47","category_name":"住宅区","address":"康惠苑位于徐汇康健路16弄(沪闵路)"},{"poiid":"B2094654DB64A6FF449A","title":"中国移动曹路镇营业厅","lon":"121.65644","lat":"31.26812","category":"151","category_name":"电讯营业厅","address":"浦东新区民耀路457-471号"},{"poiid":"B2094654D569A3F5489E","title":"三信国际电器上海有限公司(金海路)","lon":"121.65477","lat":"31.26514","category":"263","category_name":"公司","address":""},{"poiid":"B209475DD26CA4F4419D","title":"宝龙广场","lon":"121.653511","lat":"31.266523","category":"500","category_name":"未知分类","address":"上海市 浦东新区曹路镇"},{"poiid":"B209475DD26CA4F44292","title":"宝龙广场（丰收日）","lon":"121.651992","lat":"31.264997","category":"500","category_name":"未知分类","address":"上海市 浦东新区曹路镇"},{"poiid":"B209475DD36EA4FD489D","title":"曹路宝龙城市广场","lon":"121.65306","lat":"31.266424","category":"500","category_name":"未知分类","address":"上海市 金海路2505弄(近民耀路)"},{"poiid":"B2094654D569A3F5489C","title":"古李园","lon":"121.65705","lat":"31.26982","category":"196","category_name":"公园","address":"浦东新区金海路2727号杉达大学后门(近民耀路)"},{"poiid":"B2094654D569A2F8419F","title":"重庆鸡公煲(民耀路)","lon":"121.65454","lat":"31.27051","category":"71","category_name":"四川菜","address":"浦东新区民耀路杉达大学附近(民同路路口)"},{"poiid":"B2094757D16CA2F8449A","title":"二工大川菜馆","lon":"121.66532","lat":"31.2667","category":"71","category_name":"四川菜","address":"浦东新区金海路2360号上海第二工业大学后门"},{"poiid":"B209475CD66FABF94392","title":"Shanghai second polytechnic university","lon":"121.654815","lat":"31.257022","category":"500","category_name":"未知分类","address":"上海市 上海浦东新区金海路2360号"},{"poiid":"B2094654D569A2F8439D","title":"百味楼","lon":"121.65481","lat":"31.26933","category":"68","category_name":"快餐厅","address":"浦东新区曹路镇民耀路191号(阳光苑旁)"},{"poiid":"B2094654DB6BA1FA469B","title":"上海第二工业大学","lon":"121.65148","lat":"31.26086","category":"671","category_name":"高校中心点","address":"浦东新区金海路2360号"},{"poiid":"B2094655D26BA7F84499","title":"上海杉达学院","lon":"121.6587244618845","lat":"31.266664708677787","category":"253","category_name":"校园生活","address":"浦东新区金海路2727号"},{"poiid":"B2094654D569A3F5479E","title":"上海第二工业大学学生公寓","lon":"121.65776","lat":"31.26113","category":"47","category_name":"住宅区","address":""},{"poiid":"B2094757D06FA0F94692","title":"上海金融学院","lon":"121.6536383","lat":"31.2764308","category":"671","category_name":"高校中心点","address":"上海上川路995号"},{"poiid":"B2094654D569A2F9449E","title":"上海金融学院学生公寓","lon":"121.65841","lat":"31.27462","category":"47","category_name":"住宅区","address":"上海浦东新区民雪路108号"},{"poiid":"B2094757D068A6FB409D","title":"上海第二工业大学图书馆","lon":"121.65252","lat":"31.26446","category":"253","category_name":"校园生活","address":"上海浦东新区金海路2360号"},{"poiid":"B2094757D06AA1FE419B","title":"杉达学院女生寝室","lon":"121.6590271","lat":"31.267677307","category":"500","category_name":"未知分类","address":null},{"poiid":"B2094752D56CA6F9459A","title":"宝龙城市广场","lon":"121.659509","lat":"31.272171","category":"47","category_name":"住宅区","address":"金海路2505弄近民耀路"},{"poiid":"B2094757D16EABF9479D","title":"阳光苑","lon":"121.65295731","lat":"31.272371545","category":"47","category_name":"住宅区","address":"上海浦东新区民耀路268弄"},{"poiid":"B2094757D06AA6F5449C","title":"上海第二工业大学食堂","lon":"121.65177","lat":"31.26466","category":"68","category_name":"快餐厅","address":"浦东新区金海路2360号上海第二工业大学内"},{"poiid":"B2094757D06BA4FD4999","title":"第二工业大学东门(黑暗料理界)","lon":"121.6577815","lat":"31.261825676","category":"500","category_name":"未知分类","address":"上海浦东新区顾唐路298号(近二工大)"},{"poiid":"B2094757D068A4FB489E","title":"上海金融学院图书馆","lon":"121.65375","lat":"31.27627","category":"253","category_name":"校园生活","address":"浦东新区上川路995号"},{"poiid":"B2094654D569A3FF419E","title":"杉达大学(金海路)","lon":"121.66515","lat":"31.26829","category":"671","category_name":"高校中心点","address":"浦东新区金海路2727号"},{"poiid":"B2094757D069A0F4419B","title":"梦奇园海鲜大酒店","lon":"121.66341","lat":"31.2742","category":"260","category_name":"其他","address":"浦东新区曹路镇民雨路390号(民春路)"},{"poiid":"B2094757D06AA6F44798","title":"杉达黑暗料理街","lon":"121.65786","lat":"31.26612","category":"111","category_name":"休闲餐饮场所","address":"浦东新区金海路2727号杉达学院附近(近民耀路)"},{"poiid":"B2094757D16EA0FC489C","title":"上海第二工业大学 图文信息中心","lon":"121.650222339","lat":"31.2628240921","category":"500","category_name":"未知分类","address":"上海浦东新区金海路2360号,第二工业大学,校内"},{"poiid":"B2094757D06BA7F5449E","title":"河滨城市花园","lon":"121.65675","lat":"31.263691","category":"252","category_name":"楼宇机构","address":"上海市浦东新区顾唐路138弄"},{"poiid":"B2094655D26BA1F94099","title":"民耀路民区路","lon":"121.65265","lat":"31.27339","category":"38","category_name":"公交车站","address":""},{"poiid":"B2094757D069A2F44899","title":"上海第二工业大学 实训楼","lon":"121.651466","lat":"31.260866","category":"500","category_name":"未知分类","address":"上海第二工业大学 实训楼"},{"poiid":"B2094655D36CA0FF4698","title":"金海路环东二大道","lon":"121.64525","lat":"31.26434","category":"38","category_name":"公交车站","address":""},{"poiid":"B2094757D064A1FC499D","title":"上海第二工业大学 体育馆","lon":"121.652504798","lat":"31.2634427144","category":"500","category_name":"未知分类","address":"上海第二工业大学 体育馆"},{"poiid":"B2094757D66EA2F4409D","title":"故里居","lon":"121.658","lat":"31.26085","category":"77","category_name":"湖南菜","address":"浦东新区顾唐路第二工业大学附近"},{"poiid":"B2094757D168A2FD449F","title":"上海金融学院文博楼","lon":"121.65687445","lat":"31.275942651","category":"500","category_name":"未知分类","address":"上海上川路995号"},{"poiid":"B2094655D26BA1F9409C","title":"民耀路金海路","lon":"121.65622","lat":"31.26681","category":"38","category_name":"公交车站","address":""},{"poiid":"B2094757D164A0F94998","title":"比萨坊","lon":"121.65484","lat":"31.26972","category":"94","category_name":"西餐厅","address":"浦东新区民耀路445号(近金海路)"},{"poiid":"B2094757D069A4FE479C","title":"蜀膳传火锅传奇 民耀路店","lon":"121.65199069654","lat":"31.27541289843","category":"86","category_name":"火锅店","address":"浦东新区民耀路217-219号(民区路民耀路)"},{"poiid":"B2094757D069AAFB4499","title":"上海第二工业大学艺术楼","lon":"121.652356124","lat":"31.2575583428","category":"500","category_name":"未知分类","address":"上海金海路2360号"},{"poiid":"B2094655D36CA0FF469E","title":"金海路","lon":"121.65067","lat":"31.26507","category":"38","category_name":"公交车站","address":""},{"poiid":"B2094757D66DAAFC499E","title":"上海第二工业大学三号楼自习教室","lon":"121.652044237","lat":"31.263912968","category":"500","category_name":"未知分类","address":null},{"poiid":"B2094655D36CA6F9479A","title":"二工大","lon":"121.64724","lat":"31.26448","category":"38","category_name":"公交车站","address":"金海路2360"},{"poiid":"B2094757D16FA3F4429E","title":"二工大游泳馆","lon":"121.65173","lat":"31.2606","category":"220","category_name":"运动场所","address":"浦东新区金海路2360号上海第二工业大学内"},{"poiid":"B2094757D164A2FC439D","title":"第二工业大学400人报告厅","lon":"121.651720039","lat":"31.2652708483","category":"500","category_name":"未知分类","address":"上海金海路2360号"},{"poiid":"B2094757D065A0FF429D","title":"二工大 人文楼","lon":"121.650725","lat":"31.265133","category":"500","category_name":"未知分类","address":"上海市浦东新区金海路2360号"},{"poiid":"B2094757D06BAAF9489E","title":"伊铭坊 民耀路店","lon":"121.653142054","lat":"31.273166793","category":"86","category_name":"火锅店","address":"浦东新区民耀路235-241号(近民区路)"},{"poiid":"B2094757D46FABFC439C","title":"1 1韩国烤肉自助餐 民耀路店","lon":"121.6543","lat":"31.2706485","category":"268","category_name":"自助","address":"浦东新区曹路镇民耀路374号(近金海路)"},{"poiid":"B2094654D569A2F84198","title":"东北人家(民耀路)","lon":"121.65393","lat":"31.27163","category":"82","category_name":"东北菜","address":"浦东新区民耀路271号"},{"poiid":"B2094752D36DAAFD4392","title":"金桥国际商业广场","lon":"121.651199","lat":"31.262215","category":"248","category_name":"生活娱乐","address":null},{"poiid":"B2094757D66EA7FA409F","title":"1 1韩国烤肉","lon":"121.65593245","lat":"31.267417367","category":"247","category_name":"餐饮美食","address":"上海民耀路金海路"},{"poiid":"B209475CDB65A7F4489C","title":"宝乐迪","lon":"121.651901","lat":"31.265024","category":"500","category_name":"未知分类","address":"上海市 曹路镇金海路2505弄宝龙广场"},{"poiid":"B2094654D569A2F8429C","title":"新芳邻","lon":"121.653489","lat":"31.271609","category":"47","category_name":"住宅区","address":"康惠苑位于徐汇康健路16弄(沪闵路)"},{"poiid":"B2094654DB64A6FF449A","title":"中国移动曹路镇营业厅","lon":"121.65644","lat":"31.26812","category":"151","category_name":"电讯营业厅","address":"浦东新区民耀路457-471号"},{"poiid":"B2094654D569A3F5489E","title":"三信国际电器上海有限公司(金海路)","lon":"121.65477","lat":"31.26514","category":"263","category_name":"公司","address":""},{"poiid":"B209475DD26CA4F4419D","title":"宝龙广场","lon":"121.653511","lat":"31.266523","category":"500","category_name":"未知分类","address":"上海市 浦东新区曹路镇"},{"poiid":"B209475DD26CA4F44292","title":"宝龙广场（丰收日）","lon":"121.651992","lat":"31.264997","category":"500","category_name":"未知分类","address":"上海市 浦东新区曹路镇"},{"poiid":"B209475DD36EA4FD489D","title":"曹路宝龙城市广场","lon":"121.65306","lat":"31.266424","category":"500","category_name":"未知分类","address":"上海市 金海路2505弄(近民耀路)"},{"poiid":"B2094654D569A3F5489C","title":"古李园","lon":"121.65705","lat":"31.26982","category":"196","category_name":"公园","address":"浦东新区金海路2727号杉达大学后门(近民耀路)"},{"poiid":"B2094654D569A2F8419F","title":"重庆鸡公煲(民耀路)","lon":"121.65454","lat":"31.27051","category":"71","category_name":"四川菜","address":"浦东新区民耀路杉达大学附近(民同路路口)"},{"poiid":"B2094757D16CA2F8449A","title":"二工大川菜馆","lon":"121.66532","lat":"31.2667","category":"71","category_name":"四川菜","address":"浦东新区金海路2360号上海第二工业大学后门"},{"poiid":"B209475CD66FABF94392","title":"Shanghai second polytechnic university","lon":"121.654815","lat":"31.257022","category":"500","category_name":"未知分类","address":"上海市 上海浦东新区金海路2360号"},{"poiid":"B2094654D569A2F8439D","title":"百味楼","lon":"121.65481","lat":"31.26933","category":"68","category_name":"快餐厅","address":"浦东新区曹路镇民耀路191号(阳光苑旁)"},{"poiid":"B2094654DB6BA1FA469B","title":"上海第二工业大学","lon":"121.65148","lat":"31.26086","category":"671","category_name":"高校中心点","address":"浦东新区金海路2360号"},{"poiid":"B2094655D26BA7F84499","title":"上海杉达学院","lon":"121.6587244618845","lat":"31.266664708677787","category":"253","category_name":"校园生活","address":"浦东新区金海路2727号"},{"poiid":"B2094654D569A3F5479E","title":"上海第二工业大学学生公寓","lon":"121.65776","lat":"31.26113","category":"47","category_name":"住宅区","address":""},{"poiid":"B2094757D06FA0F94692","title":"上海金融学院","lon":"121.6536383","lat":"31.2764308","category":"671","category_name":"高校中心点","address":"上海上川路995号"},{"poiid":"B2094654D569A2F9449E","title":"上海金融学院学生公寓","lon":"121.65841","lat":"31.27462","category":"47","category_name":"住宅区","address":"上海浦东新区民雪路108号"},{"poiid":"B2094757D068A6FB409D","title":"上海第二工业大学图书馆","lon":"121.65252","lat":"31.26446","category":"253","category_name":"校园生活","address":"上海浦东新区金海路2360号"},{"poiid":"B2094757D06AA1FE419B","title":"杉达学院女生寝室","lon":"121.6590271","lat":"31.267677307","category":"500","category_name":"未知分类","address":null},{"poiid":"B2094752D56CA6F9459A","title":"宝龙城市广场","lon":"121.659509","lat":"31.272171","category":"47","category_name":"住宅区","address":"金海路2505弄近民耀路"},{"poiid":"B2094757D16EABF9479D","title":"阳光苑","lon":"121.65295731","lat":"31.272371545","category":"47","category_name":"住宅区","address":"上海浦东新区民耀路268弄"},{"poiid":"B2094757D06AA6F5449C","title":"上海第二工业大学食堂","lon":"121.65177","lat":"31.26466","category":"68","category_name":"快餐厅","address":"浦东新区金海路2360号上海第二工业大学内"},{"poiid":"B2094757D06BA4FD4999","title":"第二工业大学东门(黑暗料理界)","lon":"121.6577815","lat":"31.261825676","category":"500","category_name":"未知分类","address":"上海浦东新区顾唐路298号(近二工大)"},{"poiid":"B2094757D068A4FB489E","title":"上海金融学院图书馆","lon":"121.65375","lat":"31.27627","category":"253","category_name":"校园生活","address":"浦东新区上川路995号"},{"poiid":"B2094654D569A3FF419E","title":"杉达大学(金海路)","lon":"121.66515","lat":"31.26829","category":"671","category_name":"高校中心点","address":"浦东新区金海路2727号"},{"poiid":"B2094757D069A0F4419B","title":"梦奇园海鲜大酒店","lon":"121.66341","lat":"31.2742","category":"260","category_name":"其他","address":"浦东新区曹路镇民雨路390号(民春路)"},{"poiid":"B2094757D06AA6F44798","title":"杉达黑暗料理街","lon":"121.65786","lat":"31.26612","category":"111","category_name":"休闲餐饮场所","address":"浦东新区金海路2727号杉达学院附近(近民耀路)"},{"poiid":"B2094757D16EA0FC489C","title":"上海第二工业大学 图文信息中心","lon":"121.650222339","lat":"31.2628240921","category":"500","category_name":"未知分类","address":"上海浦东新区金海路2360号,第二工业大学,校内"},{"poiid":"B2094757D06BA7F5449E","title":"河滨城市花园","lon":"121.65675","lat":"31.263691","category":"252","category_name":"楼宇机构","address":"上海市浦东新区顾唐路138弄"},{"poiid":"B2094655D26BA1F94099","title":"民耀路民区路","lon":"121.65265","lat":"31.27339","category":"38","category_name":"公交车站","address":""},{"poiid":"B2094757D069A2F44899","title":"上海第二工业大学 实训楼","lon":"121.651466","lat":"31.260866","category":"500","category_name":"未知分类","address":"上海第二工业大学 实训楼"},{"poiid":"B2094655D36CA0FF4698","title":"金海路环东二大道","lon":"121.64525","lat":"31.26434","category":"38","category_name":"公交车站","address":""},{"poiid":"B2094757D064A1FC499D","title":"上海第二工业大学 体育馆","lon":"121.652504798","lat":"31.2634427144","category":"500","category_name":"未知分类","address":"上海第二工业大学 体育馆"},{"poiid":"B2094757D66EA2F4409D","title":"故里居","lon":"121.658","lat":"31.26085","category":"77","category_name":"湖南菜","address":"浦东新区顾唐路第二工业大学附近"},{"poiid":"B2094757D168A2FD449F","title":"上海金融学院文博楼","lon":"121.65687445","lat":"31.275942651","category":"500","category_name":"未知分类","address":"上海上川路995号"},{"poiid":"B2094655D26BA1F9409C","title":"民耀路金海路","lon":"121.65622","lat":"31.26681","category":"38","category_name":"公交车站","address":""},{"poiid":"B2094757D164A0F94998","title":"比萨坊","lon":"121.65484","lat":"31.26972","category":"94","category_name":"西餐厅","address":"浦东新区民耀路445号(近金海路)"},{"poiid":"B2094757D069A4FE479C","title":"蜀膳传火锅传奇 民耀路店","lon":"121.65199069654","lat":"31.27541289843","category":"86","category_name":"火锅店","address":"浦东新区民耀路217-219号(民区路民耀路)"},{"poiid":"B2094757D069AAFB4499","title":"上海第二工业大学艺术楼","lon":"121.652356124","lat":"31.2575583428","category":"500","category_name":"未知分类","address":"上海金海路2360号"},{"poiid":"B2094655D36CA0FF469E","title":"金海路","lon":"121.65067","lat":"31.26507","category":"38","category_name":"公交车站","address":""},{"poiid":"B2094757D66DAAFC499E","title":"上海第二工业大学三号楼自习教室","lon":"121.652044237","lat":"31.263912968","category":"500","category_name":"未知分类","address":null},{"poiid":"B2094655D36CA6F9479A","title":"二工大","lon":"121.64724","lat":"31.26448","category":"38","category_name":"公交车站","address":"金海路2360"},{"poiid":"B2094757D16FA3F4429E","title":"二工大游泳馆","lon":"121.65173","lat":"31.2606","category":"220","category_name":"运动场所","address":"浦东新区金海路2360号上海第二工业大学内"},{"poiid":"B2094757D164A2FC439D","title":"第二工业大学400人报告厅","lon":"121.651720039","lat":"31.2652708483","category":"500","category_name":"未知分类","address":"上海金海路2360号"},{"poiid":"B2094757D065A0FF429D","title":"二工大 人文楼","lon":"121.650725","lat":"31.265133","category":"500","category_name":"未知分类","address":"上海市浦东新区金海路2360号"},{"poiid":"B2094757D06BAAF9489E","title":"伊铭坊 民耀路店","lon":"121.653142054","lat":"31.273166793","category":"86","category_name":"火锅店","address":"浦东新区民耀路235-241号(近民区路)"},{"poiid":"B2094757D46FABFC439C","title":"1 1韩国烤肉自助餐 民耀路店","lon":"121.6543","lat":"31.2706485","category":"268","category_name":"自助","address":"浦东新区曹路镇民耀路374号(近金海路)"},{"poiid":"B2094654D569A2F84198","title":"东北人家(民耀路)","lon":"121.65393","lat":"31.27163","category":"82","category_name":"东北菜","address":"浦东新区民耀路271号"},{"poiid":"B2094752D36DAAFD4392","title":"金桥国际商业广场","lon":"121.651199","lat":"31.262215","category":"248","category_name":"生活娱乐","address":null},{"poiid":"B2094757D66EA7FA409F","title":"1 1韩国烤肉","lon":"121.65593245","lat":"31.267417367","category":"247","category_name":"餐饮美食","address":"上海民耀路金海路"},{"poiid":"B209475CDB65A7F4489C","title":"宝乐迪","lon":"121.651901","lat":"31.265024","category":"500","category_name":"未知分类","address":"上海市 曹路镇金海路2505弄宝龙广场"},{"poiid":"B2094654D569A2F8429C","title":"新芳邻","lon":"121.653489","lat":"31.271609","category":"47","category_name":"住宅区","address":"康惠苑位于徐汇康健路16弄(沪闵路)"},{"poiid":"B2094654DB64A6FF449A","title":"中国移动曹路镇营业厅","lon":"121.65644","lat":"31.26812","category":"151","category_name":"电讯营业厅","address":"浦东新区民耀路457-471号"},{"poiid":"B2094654D569A3F5489E","title":"三信国际电器上海有限公司(金海路)","lon":"121.65477","lat":"31.26514","category":"263","category_name":"公司","address":""},{"poiid":"B209475DD26CA4F4419D","title":"宝龙广场","lon":"121.653511","lat":"31.266523","category":"500","category_name":"未知分类","address":"上海市 浦东新区曹路镇"},{"poiid":"B209475DD26CA4F44292","title":"宝龙广场（丰收日）","lon":"121.651992","lat":"31.264997","category":"500","category_name":"未知分类","address":"上海市 浦东新区曹路镇"},{"poiid":"B209475DD36EA4FD489D","title":"曹路宝龙城市广场","lon":"121.65306","lat":"31.266424","category":"500","category_name":"未知分类","address":"上海市 金海路2505弄(近民耀路)"},{"poiid":"B2094654D569A3F5489C","title":"古李园","lon":"121.65705","lat":"31.26982","category":"196","category_name":"公园","address":"浦东新区金海路2727号杉达大学后门(近民耀路)"},{"poiid":"B2094654D569A2F8419F","title":"重庆鸡公煲(民耀路)","lon":"121.65454","lat":"31.27051","category":"71","category_name":"四川菜","address":"浦东新区民耀路杉达大学附近(民同路路口)"},{"poiid":"B2094757D16CA2F8449A","title":"二工大川菜馆","lon":"121.66532","lat":"31.2667","category":"71","category_name":"四川菜","address":"浦东新区金海路2360号上海第二工业大学后门"},{"poiid":"B209475CD66FABF94392","title":"Shanghai second polytechnic university","lon":"121.654815","lat":"31.257022","category":"500","category_name":"未知分类","address":"上海市 上海浦东新区金海路2360号"},{"poiid":"B2094654D569A2F8439D","title":"百味楼","lon":"121.65481","lat":"31.26933","category":"68","category_name":"快餐厅","address":"浦东新区曹路镇民耀路191号(阳光苑旁)"},{"poiid":"B2094654DB6BA1FA469B","title":"上海第二工业大学","lon":"121.65148","lat":"31.26086","category":"671","category_name":"高校中心点","address":"浦东新区金海路2360号"},{"poiid":"B2094655D26BA7F84499","title":"上海杉达学院","lon":"121.6587244618845","lat":"31.266664708677787","category":"253","category_name":"校园生活","address":"浦东新区金海路2727号"},{"poiid":"B2094654D569A3F5479E","title":"上海第二工业大学学生公寓","lon":"121.65776","lat":"31.26113","category":"47","category_name":"住宅区","address":""},{"poiid":"B2094757D06FA0F94692","title":"上海金融学院","lon":"121.6536383","lat":"31.2764308","category":"671","category_name":"高校中心点","address":"上海上川路995号"},{"poiid":"B2094654D569A2F9449E","title":"上海金融学院学生公寓","lon":"121.65841","lat":"31.27462","category":"47","category_name":"住宅区","address":"上海浦东新区民雪路108号"},{"poiid":"B2094757D068A6FB409D","title":"上海第二工业大学图书馆","lon":"121.65252","lat":"31.26446","category":"253","category_name":"校园生活","address":"上海浦东新区金海路2360号"},{"poiid":"B2094757D06AA1FE419B","title":"杉达学院女生寝室","lon":"121.6590271","lat":"31.267677307","category":"500","category_name":"未知分类","address":null},{"poiid":"B2094752D56CA6F9459A","title":"宝龙城市广场","lon":"121.659509","lat":"31.272171","category":"47","category_name":"住宅区","address":"金海路2505弄近民耀路"},{"poiid":"B2094757D16EABF9479D","title":"阳光苑","lon":"121.65295731","lat":"31.272371545","category":"47","category_name":"住宅区","address":"上海浦东新区民耀路268弄"},{"poiid":"B2094757D06AA6F5449C","title":"上海第二工业大学食堂","lon":"121.65177","lat":"31.26466","category":"68","category_name":"快餐厅","address":"浦东新区金海路2360号上海第二工业大学内"},{"poiid":"B2094757D06BA4FD4999","title":"第二工业大学东门(黑暗料理界)","lon":"121.6577815","lat":"31.261825676","category":"500","category_name":"未知分类","address":"上海浦东新区顾唐路298号(近二工大)"},{"poiid":"B2094757D068A4FB489E","title":"上海金融学院图书馆","lon":"121.65375","lat":"31.27627","category":"253","category_name":"校园生活","address":"浦东新区上川路995号"},{"poiid":"B2094654D569A3FF419E","title":"杉达大学(金海路)","lon":"121.66515","lat":"31.26829","category":"671","category_name":"高校中心点","address":"浦东新区金海路2727号"},{"poiid":"B2094757D069A0F4419B","title":"梦奇园海鲜大酒店","lon":"121.66341","lat":"31.2742","category":"260","category_name":"其他","address":"浦东新区曹路镇民雨路390号(民春路)"},{"poiid":"B2094757D06AA6F44798","title":"杉达黑暗料理街","lon":"121.65786","lat":"31.26612","category":"111","category_name":"休闲餐饮场所","address":"浦东新区金海路2727号杉达学院附近(近民耀路)"},{"poiid":"B2094757D16EA0FC489C","title":"上海第二工业大学 图文信息中心","lon":"121.650222339","lat":"31.2628240921","category":"500","category_name":"未知分类","address":"上海浦东新区金海路2360号,第二工业大学,校内"},{"poiid":"B2094757D06BA7F5449E","title":"河滨城市花园","lon":"121.65675","lat":"31.263691","category":"252","category_name":"楼宇机构","address":"上海市浦东新区顾唐路138弄"},{"poiid":"B2094655D26BA1F94099","title":"民耀路民区路","lon":"121.65265","lat":"31.27339","category":"38","category_name":"公交车站","address":""},{"poiid":"B2094757D069A2F44899","title":"上海第二工业大学 实训楼","lon":"121.651466","lat":"31.260866","category":"500","category_name":"未知分类","address":"上海第二工业大学 实训楼"},{"poiid":"B2094655D36CA0FF4698","title":"金海路环东二大道","lon":"121.64525","lat":"31.26434","category":"38","category_name":"公交车站","address":""},{"poiid":"B2094757D064A1FC499D","title":"上海第二工业大学 体育馆","lon":"121.652504798","lat":"31.2634427144","category":"500","category_name":"未知分类","address":"上海第二工业大学 体育馆"},{"poiid":"B2094757D66EA2F4409D","title":"故里居","lon":"121.658","lat":"31.26085","category":"77","category_name":"湖南菜","address":"浦东新区顾唐路第二工业大学附近"},{"poiid":"B2094757D168A2FD449F","title":"上海金融学院文博楼","lon":"121.65687445","lat":"31.275942651","category":"500","category_name":"未知分类","address":"上海上川路995号"},{"poiid":"B2094655D26BA1F9409C","title":"民耀路金海路","lon":"121.65622","lat":"31.26681","category":"38","category_name":"公交车站","address":""},{"poiid":"B2094757D164A0F94998","title":"比萨坊","lon":"121.65484","lat":"31.26972","category":"94","category_name":"西餐厅","address":"浦东新区民耀路445号(近金海路)"},{"poiid":"B2094757D069A4FE479C","title":"蜀膳传火锅传奇 民耀路店","lon":"121.65199069654","lat":"31.27541289843","category":"86","category_name":"火锅店","address":"浦东新区民耀路217-219号(民区路民耀路)"},{"poiid":"B2094757D069AAFB4499","title":"上海第二工业大学艺术楼","lon":"121.652356124","lat":"31.2575583428","category":"500","category_name":"未知分类","address":"上海金海路2360号"},{"poiid":"B2094655D36CA0FF469E","title":"金海路","lon":"121.65067","lat":"31.26507","category":"38","category_name":"公交车站","address":""},{"poiid":"B2094757D66DAAFC499E","title":"上海第二工业大学三号楼自习教室","lon":"121.652044237","lat":"31.263912968","category":"500","category_name":"未知分类","address":null},{"poiid":"B2094655D36CA6F9479A","title":"二工大","lon":"121.64724","lat":"31.26448","category":"38","category_name":"公交车站","address":"金海路2360"},{"poiid":"B2094757D16FA3F4429E","title":"二工大游泳馆","lon":"121.65173","lat":"31.2606","category":"220","category_name":"运动场所","address":"浦东新区金海路2360号上海第二工业大学内"},{"poiid":"B2094757D164A2FC439D","title":"第二工业大学400人报告厅","lon":"121.651720039","lat":"31.2652708483","category":"500","category_name":"未知分类","address":"上海金海路2360号"},{"poiid":"B2094757D065A0FF429D","title":"二工大 人文楼","lon":"121.650725","lat":"31.265133","category":"500","category_name":"未知分类","address":"上海市浦东新区金海路2360号"},{"poiid":"B2094757D06BAAF9489E","title":"伊铭坊 民耀路店","lon":"121.653142054","lat":"31.273166793","category":"86","category_name":"火锅店","address":"浦东新区民耀路235-241号(近民区路)"},{"poiid":"B2094757D46FABFC439C","title":"1 1韩国烤肉自助餐 民耀路店","lon":"121.6543","lat":"31.2706485","category":"268","category_name":"自助","address":"浦东新区曹路镇民耀路374号(近金海路)"},{"poiid":"B2094654D569A2F84198","title":"东北人家(民耀路)","lon":"121.65393","lat":"31.27163","category":"82","category_name":"东北菜","address":"浦东新区民耀路271号"},{"poiid":"B2094752D36DAAFD4392","title":"金桥国际商业广场","lon":"121.651199","lat":"31.262215","category":"248","category_name":"生活娱乐","address":null},{"poiid":"B2094757D66EA7FA409F","title":"1 1韩国烤肉","lon":"121.65593245","lat":"31.267417367","category":"247","category_name":"餐饮美食","address":"上海民耀路金海路"},{"poiid":"B209475CDB65A7F4489C","title":"宝乐迪","lon":"121.651901","lat":"31.265024","category":"500","category_name":"未知分类","address":"上海市 曹路镇金海路2505弄宝龙广场"},{"poiid":"B2094654D569A2F8429C","title":"新芳邻","lon":"121.653489","lat":"31.271609","category":"47","category_name":"住宅区","address":"康惠苑位于徐汇康健路16弄(沪闵路)"},{"poiid":"B2094654DB64A6FF449A","title":"中国移动曹路镇营业厅","lon":"121.65644","lat":"31.26812","category":"151","category_name":"电讯营业厅","address":"浦东新区民耀路457-471号"},{"poiid":"B2094654D569A3F5489E","title":"三信国际电器上海有限公司(金海路)","lon":"121.65477","lat":"31.26514","category":"263","category_name":"公司","address":""},{"poiid":"B209475DD26CA4F4419D","title":"宝龙广场","lon":"121.653511","lat":"31.266523","category":"500","category_name":"未知分类","address":"上海市 浦东新区曹路镇"},{"poiid":"B209475DD26CA4F44292","title":"宝龙广场（丰收日）","lon":"121.651992","lat":"31.264997","category":"500","category_name":"未知分类","address":"上海市 浦东新区曹路镇"},{"poiid":"B209475DD36EA4FD489D","title":"曹路宝龙城市广场","lon":"121.65306","lat":"31.266424","category":"500","category_name":"未知分类","address":"上海市 金海路2505弄(近民耀路)"},{"poiid":"B2094654D569A3F5489C","title":"古李园","lon":"121.65705","lat":"31.26982","category":"196","category_name":"公园","address":"浦东新区金海路2727号杉达大学后门(近民耀路)"},{"poiid":"B2094654D569A2F8419F","title":"重庆鸡公煲(民耀路)","lon":"121.65454","lat":"31.27051","category":"71","category_name":"四川菜","address":"浦东新区民耀路杉达大学附近(民同路路口)"},{"poiid":"B2094757D16CA2F8449A","title":"二工大川菜馆","lon":"121.66532","lat":"31.2667","category":"71","category_name":"四川菜","address":"浦东新区金海路2360号上海第二工业大学后门"},{"poiid":"B209475CD66FABF94392","title":"Shanghai second polytechnic university","lon":"121.654815","lat":"31.257022","category":"500","category_name":"未知分类","address":"上海市 上海浦东新区金海路2360号"},{"poiid":"B2094654D569A2F8439D","title":"百味楼","lon":"121.65481","lat":"31.26933","category":"68","category_name":"快餐厅","address":"浦东新区曹路镇民耀路191号(阳光苑旁)"}]