[{"poiid":"B2094757D06FA6FE449D","title":"曹杨中学","lon":"121.36836519014355","lat":"31.244254864028765","category":"55","category_name":"中学","address":"普陀区香樟路386号建德花园内"},{"poiid":"B2094757D06FA5F4409D","title":"同君福大酒楼(曹安路店)","lon":"121.37076","lat":"31.2519","category":"76","category_name":"上海菜","address":"嘉定区曹安路1500号(近祁连山路)"},{"poiid":"B2094757D068AAF94398","title":"宝燕海鲜(丰庄店)","lon":"121.37153","lat":"31.24864","category":"75","category_name":"浙江菜","address":"嘉定区祁连山南路2025号(丰庄北路)"},{"poiid":"B2094757D068A3FD419B","title":"捞王猪肚鸡(梅川路店)","lon":"121.37612","lat":"31.24634","category":"86","category_name":"火锅店","address":"普陀区梅川路1532号(近万镇路)"},{"poiid":"B2094757D66EABF44798","title":"老阿爸野鱼馆","lon":"121.367773586","lat":"31.2475827706","category":"87","category_name":"特色／地方风味餐厅","address":"嘉定区丰庄北路431号(近祁连山南路)"},{"poiid":"B2094654D56AA3FF4393","title":"金沙嘉年华","lon":"121.36771","lat":"31.24281","category":"47","category_name":"住宅区","address":"祁连山南路999弄"},{"poiid":"B2094757D06FA5F9429F","title":"甜蜜蜜(梅川店)","lon":"121.37798","lat":"31.24551","category":"67","category_name":"甜品店","address":"普陀区梅川路1454号(近万镇路)"},{"poiid":"B2094757D068A3F8499F","title":"金沙雅苑滨湖世家","lon":"121.36955773","lat":"31.241852721","category":"47","category_name":"住宅区","address":"上海清峪路368弄"},{"poiid":"B2094750DB6EA1FC4799","title":"小贝壳自助海鲜火锅","lon":"121.376495","lat":"31.246557","category":"247","category_name":"餐饮美食","address":"普陀区梅川路1528号(万镇路口)"},{"poiid":"B2094757D06FAAFF419A","title":"一兆韦德(梅川路店)","lon":"121.376592","lat":"31.245883","category":"148","category_name":"美容美发店","address":"普陀区梅川路1369号商业步行街3楼(近真光路)"},{"poiid":"B2094757D06AABFA469C","title":"曹杨中学羽毛球馆","lon":"121.37100219","lat":"31.246200561","category":"253","category_name":"校园生活","address":"普陀区祁连山南路1069号曹杨中学内(近金沙雅苑)"},{"poiid":"B2094757D06FA0F4499B","title":"金沙雅苑二期","lon":"121.376194","lat":"31.245874","category":"500","category_name":"未知分类","address":"上海市普陀区金沙江路2316号"},{"poiid":"B2094757D16CABFA4598","title":"宝燕壹号","lon":"121.373735586","lat":"31.2473017651","category":"500","category_name":"未知分类","address":"上海祁连山路"},{"poiid":"B2094757D068A3FB4992","title":"丰庄一村","lon":"121.36606","lat":"31.248865","category":"500","category_name":"未知分类","address":"上海丰庄路450弄"},{"poiid":"B2094757DB6CA5FB449C","title":"翠丽华港澳餐厅","lon":"121.3735896633572","lat":"31.24667443965718","category":"247","category_name":"餐饮美食","address":"普陀区梅川路1458-1466号(近真光路)"},{"poiid":"B2094757D069A2F5499F","title":"泰宸景苑","lon":"121.37625","lat":"31.248657","category":"47","category_name":"住宅区","address":"上海市普陀区桃浦路368号"},{"poiid":"B2094757D06FABFE4798","title":"一兆韦德(清峪路店)","lon":"121.36947","lat":"31.24048","category":"148","category_name":"美容美发店","address":"普陀区清峪路385号2楼(近祁连山南路)"},{"poiid":"B2094757D069A0FC459A","title":"丰庄四村","lon":"121.3688","lat":"31.248678","category":"47","category_name":"住宅区","address":"上海丰庄北路祁连山南路"},{"poiid":"B2094654D56AA3FF479E","title":"嘉云苑","lon":"121.37075","lat":"31.24379","category":"47","category_name":"住宅区","address":"延川路243弄"},{"poiid":"B2094757D068A1FE449E","title":"上海豪园","lon":"121.37306","lat":"31.24081","category":"47","category_name":"住宅区","address":"上海普陀区清峪路258弄(近万镇路)"},{"poiid":"B2094654D56AA3FF4798","title":"金祥坊","lon":"121.37168","lat":"31.24506","category":"47","category_name":"住宅区","address":"吉镇路445弄1-79"},{"poiid":"B2094654D56AA3FF4698","title":"家旺新苑","lon":"121.3746","lat":"31.246191","category":"47","category_name":"住宅区","address":"梅川路1493弄"},{"poiid":"B2094757D068A3F9479D","title":"卜蜂莲花(曹安路店)","lon":"121.37048","lat":"31.25168","category":"118","category_name":"超级市场","address":"普陀区曹安路1538号(近安边路)"},{"poiid":"B2094654DB6AA3FD4498","title":"韩林炭烤(梅川店)","lon":"121.37618","lat":"31.24666","category":"96","category_name":"韩国料理","address":"梅川路1528-1"},{"poiid":"B2094655D26BA6F54398","title":"福瑞大厦","lon":"121.37085","lat":"31.25142","category":"46","category_name":"楼宇","address":"沈河北站路与北京街的交汇处"},{"poiid":"B2094655D36CA0FB4598","title":"吉镇路","lon":"121.37359","lat":"31.24693","category":"38","category_name":"公交车站","address":"上海吉镇路445弄44号"},{"poiid":"B2094757DB69ABFF4899","title":"沪尚名庭","lon":"121.3755","lat":"31.24651","category":"47","category_name":"住宅区","address":"普陀区梅川路1483号(近万镇路)"},{"poiid":"B2094654D56AA3FF479F","title":"上海青草地双语幼儿园(延川路)","lon":"121.37103","lat":"31.24509","category":"57","category_name":"幼儿园","address":"延川路246号"},{"poiid":"B2094757D66DA4F4449B","title":"小豬窩","lon":"121.373054586","lat":"31.2473547661","category":"47","category_name":"住宅区","address":"上海梅川路1725弄7号501室"},{"poiid":"B2094655D26BA4FC429C","title":"金沙嘉年华四期","lon":"121.373","lat":"31.2478","category":"47","category_name":"住宅区","address":"上海市普陀区祁连山南路新丰路路口"},{"poiid":"B2094655D26DA5FF419D","title":"每日美家酒店","lon":"121.37173","lat":"31.24826","category":"250","category_name":"公园户外","address":"上海市嘉定区祁连山南路1888号（梅川路口）"},{"poiid":"B2094757D065A5FE469D","title":"中环百联土耳其冰淇淋","lon":"121.37061713","lat":"31.246989009","category":"500","category_name":"未知分类","address":"上海百联中环B1"},{"poiid":"B2094757D06AA7FA489E","title":"梅川路吉镇路","lon":"121.373145","lat":"31.248118","category":"500","category_name":"未知分类","address":"上海梅川路吉镇路"},{"poiid":"B2094757D16DA1FD409D","title":"昆澄阁(梅川路店)","lon":"121.37707","lat":"31.24544","category":"76","category_name":"上海菜","address":"普陀区梅川路1483-1号(近万镇路)"},{"poiid":"B2094750D564A7FD4998","title":"中环财富杰座","lon":"121.372232","lat":"31.249039","category":"47","category_name":"住宅区","address":"祁连山路和梅川路路口"},{"poiid":"B2094654D46BA6FE429F","title":"梅川雅苑","lon":"121.37454","lat":"31.248821","category":"47","category_name":"住宅区","address":"上海梅川路1566弄"},{"poiid":"B2094757D568A7FE4992","title":"运旺新村嘉云苑","lon":"121.3720089","lat":"31.24304306","category":"47","category_name":"住宅区","address":"上海市普陀区延川路243弄"},{"poiid":"B2094757D069A5FD4698","title":"广德苑","lon":"121.36808","lat":"31.246727","category":"252","category_name":"楼宇机构","address":"上海市普陀区延川路299号"},{"poiid":"B2094757D06AA5F44493","title":"美适台球馆","lon":"121.37765","lat":"31.2454","category":"125","category_name":"书店","address":"普陀区梅川路1353号3楼(近真光路)"},{"poiid":"B2094655D26FA1FA439B","title":"振鑫花苑","lon":"121.37045","lat":"31.249577","category":"47","category_name":"住宅区","address":"丰庄北路299弄499"},{"poiid":"B2094757D16EAAF44399","title":"银脚盆沐足会馆","lon":"121.37497658","lat":"31.244588712","category":"148","category_name":"美容美发店","address":"上海市梅川路1481号-5二楼"},{"poiid":"B2094655D36CA6F8459C","title":"丰庄北路","lon":"121.36979","lat":"31.24911","category":"38","category_name":"公交车站","address":""},{"poiid":"B2094654D56AA3FF449A","title":"金元坊","lon":"121.37486","lat":"31.247793","category":"47","category_name":"住宅区","address":"梅川路1680弄"},{"poiid":"B2094655D26FA0F54298","title":"金元坊(南门)","lon":"121.37451","lat":"31.24744","category":"47","category_name":"住宅区","address":"梅川路1680弄"},{"poiid":"B2094757D168A3FB409A","title":"联华快客便利(丰庄北路店)","lon":"121.372825","lat":"31.24737","category":"249","category_name":"购物服务","address":"嘉定区丰庄路54号(近金沙江路)"},{"poiid":"B2094655D26CA4FC4198","title":"嘉泰花园公寓(南门)","lon":"121.37199","lat":"31.24616","category":"656","category_name":"大门","address":""},{"poiid":"B2094654DB6AA4FF439A","title":"振鑫花苑(南门)","lon":"121.37008","lat":"31.24929","category":"47","category_name":"住宅区","address":"丰庄北路299弄499"},{"poiid":"B2094654DB65A0FB419A","title":"好德No.333","lon":"121.37019","lat":"31.24925","category":"117","category_name":"便民商店/便利店","address":"丰庄北路625"},{"poiid":"B2094757D16EA7FE4698","title":"喜阳来（阳旺店）","lon":"121.37489478","lat":"31.243151283","category":"68","category_name":"快餐厅","address":"普陀区延川路9号(近万镇路)"},{"poiid":"B2094757D069ABF4419F","title":"清峪路万镇路黑车窝点","lon":"121.37174658","lat":"31.24450271","category":"500","category_name":"未知分类","address":"上海清峪路万镇路口附近"},{"poiid":"B2094757D06FA6FE449D","title":"曹杨中学","lon":"121.36836519014355","lat":"31.244254864028765","category":"55","category_name":"中学","address":"普陀区香樟路386号建德花园内"},{"poiid":"B2094757D06FA5F4409D","title":"同君福大酒楼(曹安路店)","lon":"121.37076","lat":"31.2519","category":"76","category_name":"上海菜","address":"嘉定区曹安路1500号(近祁连山路)"},{"poiid":"B2094757D068AAF94398","title":"宝燕海鲜(丰庄店)","lon":"121.37153","lat":"31.24864","category":"75","category_name":"浙江菜","address":"嘉定区祁连山南路2025号(丰庄北路)"},{"poiid":"B2094757D068A3FD419B","title":"捞王猪肚鸡(梅川路店)","lon":"121.37612","lat":"31.24634","category":"86","category_name":"火锅店","address":"普陀区梅川路1532号(近万镇路)"},{"poiid":"B2094757D66EABF44798","title":"老阿爸野鱼馆","lon":"121.367773586","lat":"31.2475827706","category":"87","category_name":"特色／地方风味餐厅","address":"嘉定区丰庄北路431号(近祁连山南路)"},{"poiid":"B2094654D56AA3FF4393","title":"金沙嘉年华","lon":"121.36771","lat":"31.24281","category":"47","category_name":"住宅区","address":"祁连山南路999弄"},{"poiid":"B2094757D06FA5F9429F","title":"甜蜜蜜(梅川店)","lon":"121.37798","lat":"31.24551","category":"67","category_name":"甜品店","address":"普陀区梅川路1454号(近万镇路)"},{"poiid":"B2094757D068A3F8499F","title":"金沙雅苑滨湖世家","lon":"121.36955773","lat":"31.241852721","category":"47","category_name":"住宅区","address":"上海清峪路368弄"},{"poiid":"B2094750DB6EA1FC4799","title":"小贝壳自助海鲜火锅","lon":"121.376495","lat":"31.246557","category":"247","category_name":"餐饮美食","address":"普陀区梅川路1528号(万镇路口)"},{"poiid":"B2094757D06FAAFF419A","title":"一兆韦德(梅川路店)","lon":"121.376592","lat":"31.245883","category":"148","category_name":"美容美发店","address":"普陀区梅川路1369号商业步行街3楼(近真光路)"},{"poiid":"B2094757D06AABFA469C","title":"曹杨中学羽毛球馆","lon":"121.37100219","lat":"31.246200561","category":"253","category_name":"校园生活","address":"普陀区祁连山南路1069号曹杨中学内(近金沙雅苑)"},{"poiid":"B2094757D06FA0F4499B","title":"金沙雅苑二期","lon":"121.376194","lat":"31.245874","category":"500","category_name":"未知分类","address":"上海市普陀区金沙江路2316号"},{"poiid":"B2094757D16CABFA4598","title":"宝燕壹号","lon":"121.373735586","lat":"31.2473017651","category":"500","category_name":"未知分类","address":"上海祁连山路"},{"poiid":"B2094757D068A3FB4992","title":"丰庄一村","lon":"121.36606","lat":"31.248865","category":"500","category_name":"未知分类","address":"上海丰庄路450弄"},{"poiid":"B2094757DB6CA5FB449C","title":"翠丽华港澳餐厅","lon":"121.3735896633572","lat":"31.24667443965718","category":"247","category_name":"餐饮美食","address":"普陀区梅川路1458-1466号(近真光路)"},{"poiid":"B2094757D069A2F5499F","title":"泰宸景苑","lon":"121.37625","lat":"31.248657","category":"47","category_name":"住宅区","address":"上海市普陀区桃浦路368号"},{"poiid":"B2094757D06FABFE4798","title":"一兆韦德(清峪路店)","lon":"121.36947","lat":"31.24048","category":"148","category_name":"美容美发店","address":"普陀区清峪路385号2楼(近祁连山南路)"},{"poiid":"B2094757D069A0FC459A","title":"丰庄四村","lon":"121.3688","lat":"31.248678","category":"47","category_name":"住宅区","address":"上海丰庄北路祁连山南路"},{"poiid":"B2094654D56AA3FF479E","title":"嘉云苑","lon":"121.37075","lat":"31.24379","category":"47","category_name":"住宅区","address":"延川路243弄"},{"poiid":"B2094757D068A1FE449E","title":"上海豪园","lon":"121.37306","lat":"31.24081","category":"47","category_name":"住宅区","address":"上海普陀区清峪路258弄(近万镇路)"},{"poiid":"B2094654D56AA3FF4798","title":"金祥坊","lon":"121.37168","lat":"31.24506","category":"47","category_name":"住宅区","address":"吉镇路445弄1-79"},{"poiid":"B2094654D56AA3FF4698","title":"家旺新苑","lon":"121.3746","lat":"31.246191","category":"47","category_name":"住宅区","address":"梅川路1493弄"},{"poiid":"B2094757D068A3F9479D","title":"卜蜂莲花(曹安路店)","lon":"121.37048","lat":"31.25168","category":"118","category_name":"超级市场","address":"普陀区曹安路1538号(近安边路)"},{"poiid":"B2094654DB6AA3FD4498","title":"韩林炭烤(梅川店)","lon":"121.37618","lat":"31.24666","category":"96","category_name":"韩国料理","address":"梅川路1528-1"},{"poiid":"B2094655D26BA6F54398","title":"福瑞大厦","lon":"121.37085","lat":"31.25142","category":"46","category_name":"楼宇","address":"沈河北站路与北京街的交汇处"},{"poiid":"B2094655D36CA0FB4598","title":"吉镇路","lon":"121.37359","lat":"31.24693","category":"38","category_name":"公交车站","address":"上海吉镇路445弄44号"},{"poiid":"B2094757DB69ABFF4899","title":"沪尚名庭","lon":"121.3755","lat":"31.24651","category":"47","category_name":"住宅区","address":"普陀区梅川路1483号(近万镇路)"},{"poiid":"B2094654D56AA3FF479F","title":"上海青草地双语幼儿园(延川路)","lon":"121.37103","lat":"31.24509","category":"57","category_name":"幼儿园","address":"延川路246号"},{"poiid":"B2094757D66DA4F4449B","title":"小豬窩","lon":"121.373054586","lat":"31.2473547661","category":"47","category_name":"住宅区","address":"上海梅川路1725弄7号501室"},{"poiid":"B2094655D26BA4FC429C","title":"金沙嘉年华四期","lon":"121.373","lat":"31.2478","category":"47","category_name":"住宅区","address":"上海市普陀区祁连山南路新丰路路口"},{"poiid":"B2094655D26DA5FF419D","title":"每日美家酒店","lon":"121.37173","lat":"31.24826","category":"250","category_name":"公园户外","address":"上海市嘉定区祁连山南路1888号（梅川路口）"},{"poiid":"B2094757D065A5FE469D","title":"中环百联土耳其冰淇淋","lon":"121.37061713","lat":"31.246989009","category":"500","category_name":"未知分类","address":"上海百联中环B1"},{"poiid":"B2094757D06AA7FA489E","title":"梅川路吉镇路","lon":"121.373145","lat":"31.248118","category":"500","category_name":"未知分类","address":"上海梅川路吉镇路"},{"poiid":"B2094757D16DA1FD409D","title":"昆澄阁(梅川路店)","lon":"121.37707","lat":"31.24544","category":"76","category_name":"上海菜","address":"普陀区梅川路1483-1号(近万镇路)"},{"poiid":"B2094750D564A7FD4998","title":"中环财富杰座","lon":"121.372232","lat":"31.249039","category":"47","category_name":"住宅区","address":"祁连山路和梅川路路口"},{"poiid":"B2094654D46BA6FE429F","title":"梅川雅苑","lon":"121.37454","lat":"31.248821","category":"47","category_name":"住宅区","address":"上海梅川路1566弄"},{"poiid":"B2094757D568A7FE4992","title":"运旺新村嘉云苑","lon":"121.3720089","lat":"31.24304306","category":"47","category_name":"住宅区","address":"上海市普陀区延川路243弄"},{"poiid":"B2094757D069A5FD4698","title":"广德苑","lon":"121.36808","lat":"31.246727","category":"252","category_name":"楼宇机构","address":"上海市普陀区延川路299号"},{"poiid":"B2094757D06AA5F44493","title":"美适台球馆","lon":"121.37765","lat":"31.2454","category":"125","category_name":"书店","address":"普陀区梅川路1353号3楼(近真光路)"},{"poiid":"B2094655D26FA1FA439B","title":"振鑫花苑","lon":"121.37045","lat":"31.249577","category":"47","category_name":"住宅区","address":"丰庄北路299弄499"},{"poiid":"B2094757D16EAAF44399","title":"银脚盆沐足会馆","lon":"121.37497658","lat":"31.244588712","category":"148","category_name":"美容美发店","address":"上海市梅川路1481号-5二楼"},{"poiid":"B2094655D36CA6F8459C","title":"丰庄北路","lon":"121.36979","lat":"31.24911","category":"38","category_name":"公交车站","address":""},{"poiid":"B2094654D56AA3FF449A","title":"金元坊","lon":"121.37486","lat":"31.247793","category":"47","category_name":"住宅区","address":"梅川路1680弄"},{"poiid":"B2094655D26FA0F54298","title":"金元坊(南门)","lon":"121.37451","lat":"31.24744","category":"47","category_name":"住宅区","address":"梅川路1680弄"},{"poiid":"B2094757D168A3FB409A","title":"联华快客便利(丰庄北路店)","lon":"121.372825","lat":"31.24737","category":"249","category_name":"购物服务","address":"嘉定区丰庄路54号(近金沙江路)"},{"poiid":"B2094655D26CA4FC4198","title":"嘉泰花园公寓(南门)","lon":"121.37199","lat":"31.24616","category":"656","category_name":"大门","address":""},{"poiid":"B2094654DB6AA4FF439A","title":"振鑫花苑(南门)","lon":"121.37008","lat":"31.24929","category":"47","category_name":"住宅区","address":"丰庄北路299弄499"},{"poiid":"B2094654DB65A0FB419A","title":"好德No.333","lon":"121.37019","lat":"31.24925","category":"117","category_name":"便民商店/便利店","address":"丰庄北路625"},{"poiid":"B2094757D16EA7FE4698","title":"喜阳来（阳旺店）","lon":"121.37489478","lat":"31.243151283","category":"68","category_name":"快餐厅","address":"普陀区延川路9号(近万镇路)"},{"poiid":"B2094757D069ABF4419F","title":"清峪路万镇路黑车窝点","lon":"121.37174658","lat":"31.24450271","category":"500","category_name":"未知分类","address":"上海清峪路万镇路口附近"},{"poiid":"B2094757D06FA6FE449D","title":"曹杨中学","lon":"121.36836519014355","lat":"31.244254864028765","category":"55","category_name":"中学","address":"普陀区香樟路386号建德花园内"},{"poiid":"B2094757D06FA5F4409D","title":"同君福大酒楼(曹安路店)","lon":"121.37076","lat":"31.2519","category":"76","category_name":"上海菜","address":"嘉定区曹安路1500号(近祁连山路)"},{"poiid":"B2094757D068AAF94398","title":"宝燕海鲜(丰庄店)","lon":"121.37153","lat":"31.24864","category":"75","category_name":"浙江菜","address":"嘉定区祁连山南路2025号(丰庄北路)"},{"poiid":"B2094757D068A3FD419B","title":"捞王猪肚鸡(梅川路店)","lon":"121.37612","lat":"31.24634","category":"86","category_name":"火锅店","address":"普陀区梅川路1532号(近万镇路)"},{"poiid":"B2094757D66EABF44798","title":"老阿爸野鱼馆","lon":"121.367773586","lat":"31.2475827706","category":"87","category_name":"特色／地方风味餐厅","address":"嘉定区丰庄北路431号(近祁连山南路)"},{"poiid":"B2094654D56AA3FF4393","title":"金沙嘉年华","lon":"121.36771","lat":"31.24281","category":"47","category_name":"住宅区","address":"祁连山南路999弄"},{"poiid":"B2094757D06FA5F9429F","title":"甜蜜蜜(梅川店)","lon":"121.37798","lat":"31.24551","category":"67","category_name":"甜品店","address":"普陀区梅川路1454号(近万镇路)"},{"poiid":"B2094757D068A3F8499F","title":"金沙雅苑滨湖世家","lon":"121.36955773","lat":"31.241852721","category":"47","category_name":"住宅区","address":"上海清峪路368弄"},{"poiid":"B2094750DB6EA1FC4799","title":"小贝壳自助海鲜火锅","lon":"121.376495","lat":"31.246557","category":"247","category_name":"餐饮美食","address":"普陀区梅川路1528号(万镇路口)"},{"poiid":"B2094757D06FAAFF419A","title":"一兆韦德(梅川路店)","lon":"121.376592","lat":"31.245883","category":"148","category_name":"美容美发店","address":"普陀区梅川路1369号商业步行街3楼(近真光路)"},{"poiid":"B2094757D06AABFA469C","title":"曹杨中学羽毛球馆","lon":"121.37100219","lat":"31.246200561","category":"253","category_name":"校园生活","address":"普陀区祁连山南路1069号曹杨中学内(近金沙雅苑)"},{"poiid":"B2094757D06FA0F4499B","title":"金沙雅苑二期","lon":"121.376194","lat":"31.245874","category":"500","category_name":"未知分类","address":"上海市普陀区金沙江路2316号"},{"poiid":"B2094757D16CABFA4598","title":"宝燕壹号","lon":"121.373735586","lat":"31.2473017651","category":"500","category_name":"未知分类","address":"上海祁连山路"},{"poiid":"B2094757D068A3FB4992","title":"丰庄一村","lon":"121.36606","lat":"31.248865","category":"500","category_name":"未知分类","address":"上海丰庄路450弄"},{"poiid":"B2094757DB6CA5FB449C","title":"翠丽华港澳餐厅","lon":"121.3735896633572","lat":"31.24667443965718","category":"247","category_name":"餐饮美食","address":"普陀区梅川路1458-1466号(近真光路)"},{"poiid":"B2094757D069A2F5499F","title":"泰宸景苑","lon":"121.37625","lat":"31.248657","category":"47","category_name":"住宅区","address":"上海市普陀区桃浦路368号"},{"poiid":"B2094757D06FABFE4798","title":"一兆韦德(清峪路店)","lon":"121.36947","lat":"31.24048","category":"148","category_name":"美容美发店","address":"普陀区清峪路385号2楼(近祁连山南路)"},{"poiid":"B2094757D069A0FC459A","title":"丰庄四村","lon":"121.3688","lat":"31.248678","category":"47","category_name":"住宅区","address":"上海丰庄北路祁连山南路"},{"poiid":"B2094654D56AA3FF479E","title":"嘉云苑","lon":"121.37075","lat":"31.24379","category":"47","category_name":"住宅区","address":"延川路243弄"},{"poiid":"B2094757D068A1FE449E","title":"上海豪园","lon":"121.37306","lat":"31.24081","category":"47","category_name":"住宅区","address":"上海普陀区清峪路258弄(近万镇路)"},{"poiid":"B2094654D56AA3FF4798","title":"金祥坊","lon":"121.37168","lat":"31.24506","category":"47","category_name":"住宅区","address":"吉镇路445弄1-79"},{"poiid":"B2094654D56AA3FF4698","title":"家旺新苑","lon":"121.3746","lat":"31.246191","category":"47","category_name":"住宅区","address":"梅川路1493弄"},{"poiid":"B2094757D068A3F9479D","title":"卜蜂莲花(曹安路店)","lon":"121.37048","lat":"31.25168","category":"118","category_name":"超级市场","address":"普陀区曹安路1538号(近安边路)"},{"poiid":"B2094654DB6AA3FD4498","title":"韩林炭烤(梅川店)","lon":"121.37618","lat":"31.24666","category":"96","category_name":"韩国料理","address":"梅川路1528-1"},{"poiid":"B2094655D26BA6F54398","title":"福瑞大厦","lon":"121.37085","lat":"31.25142","category":"46","category_name":"楼宇","address":"沈河北站路与北京街的交汇处"},{"poiid":"B2094655D36CA0FB4598","title":"吉镇路","lon":"121.37359","lat":"31.24693","category":"38","category_name":"公交车站","address":"上海吉镇路445弄44号"},{"poiid":"B2094757DB69ABFF4899","title":"沪尚名庭","lon":"121.3755","lat":"31.24651","category":"47","category_name":"住宅区","address":"普陀区梅川路1483号(近万镇路)"},{"poiid":"B2094654D56AA3FF479F","title":"上海青草地双语幼儿园(延川路)","lon":"121.37103","lat":"31.24509","category":"57","category_name":"幼儿园","address":"延川路246号"},{"poiid":"B2094757D66DA4F4449B","title":"小豬窩","lon":"121.373054586","lat":"31.2473547661","category":"47","category_name":"住宅区","address":"上海梅川路1725弄7号501室"},{"poiid":"B2094655D26BA4FC429C","title":"金沙嘉年华四期","lon":"121.373","lat":"31.2478","category":"47","category_name":"住宅区","address":"上海市普陀区祁连山南路新丰路路口"},{"poiid":"B2094655D26DA5FF419D","title":"每日美家酒店","lon":"121.37173","lat":"31.24826","category":"250","category_name":"公园户外","address":"上海市嘉定区祁连山南路1888号（梅川路口）"},{"poiid":"B2094757D065A5FE469D","title":"中环百联土耳其冰淇淋","lon":"121.37061713","lat":"31.246989009","category":"500","category_name":"未知分类","address":"上海百联中环B1"},{"poiid":"B2094757D06AA7FA489E","title":"梅川路吉镇路","lon":"121.373145","lat":"31.248118","category":"500","category_name":"未知分类","address":"上海梅川路吉镇路"},{"poiid":"B2094757D16DA1FD409D","title":"昆澄阁(梅川路店)","lon":"121.37707","lat":"31.24544","category":"76","category_name":"上海菜","address":"普陀区梅川路1483-1号(近万镇路)"},{"poiid":"B2094750D564A7FD4998","title":"中环财富杰座","lon":"121.372232","lat":"31.249039","category":"47","category_name":"住宅区","address":"祁连山路和梅川路路口"},{"poiid":"B2094654D46BA6FE429F","title":"梅川雅苑","lon":"121.37454","lat":"31.248821","category":"47","category_name":"住宅区","address":"上海梅川路1566弄"},{"poiid":"B2094757D568A7FE4992","title":"运旺新村嘉云苑","lon":"121.3720089","lat":"31.24304306","category":"47","category_name":"住宅区","address":"上海市普陀区延川路243弄"},{"poiid":"B2094757D069A5FD4698","title":"广德苑","lon":"121.36808","lat":"31.246727","category":"252","category_name":"楼宇机构","address":"上海市普陀区延川路299号"},{"poiid":"B2094757D06AA5F44493","title":"美适台球馆","lon":"121.37765","lat":"31.2454","category":"125","category_name":"书店","address":"普陀区梅川路1353号3楼(近真光路)"},{"poiid":"B2094655D26FA1FA439B","title":"振鑫花苑","lon":"121.37045","lat":"31.249577","category":"47","category_name":"住宅区","address":"丰庄北路299弄499"},{"poiid":"B2094757D16EAAF44399","title":"银脚盆沐足会馆","lon":"121.37497658","lat":"31.244588712","category":"148","category_name":"美容美发店","address":"上海市梅川路1481号-5二楼"},{"poiid":"B2094655D36CA6F8459C","title":"丰庄北路","lon":"121.36979","lat":"31.24911","category":"38","category_name":"公交车站","address":""},{"poiid":"B2094654D56AA3FF449A","title":"金元坊","lon":"121.37486","lat":"31.247793","category":"47","category_name":"住宅区","address":"梅川路1680弄"},{"poiid":"B2094655D26FA0F54298","title":"金元坊(南门)","lon":"121.37451","lat":"31.24744","category":"47","category_name":"住宅区","address":"梅川路1680弄"},{"poiid":"B2094757D168A3FB409A","title":"联华快客便利(丰庄北路店)","lon":"121.372825","lat":"31.24737","category":"249","category_name":"购物服务","address":"嘉定区丰庄路54号(近金沙江路)"},{"poiid":"B2094655D26CA4FC4198","title":"嘉泰花园公寓(南门)","lon":"121.37199","lat":"31.24616","category":"656","category_name":"大门","address":""},{"poiid":"B2094654DB6AA4FF439A","title":"振鑫花苑(南门)","lon":"121.37008","lat":"31.24929","category":"47","category_name":"住宅区","address":"丰庄北路299弄499"},{"poiid":"B2094654DB65A0FB419A","title":"好德No.333","lon":"121.37019","lat":"31.24925","category":"117","category_name":"便民商店/便利店","address":"丰庄北路625"},{"poiid":"B2094757D16EA7FE4698","title":"喜阳来（阳旺店）","lon":"121.37489478","lat":"31.243151283","category":"68","category_name":"快餐厅","address":"普陀区延川路9号(近万镇路)"},{"poiid":"B2094757D069ABF4419F","title":"清峪路万镇路黑车窝点","lon":"121.37174658","lat":"31.24450271","category":"500","category_name":"未知分类","address":"上海清峪路万镇路口附近"},{"poiid":"B2094757D06FA6FE449D","title":"曹杨中学","lon":"121.36836519014355","lat":"31.244254864028765","category":"55","category_name":"中学","address":"普陀区香樟路386号建德花园内"},{"poiid":"B2094757D06FA5F4409D","title":"同君福大酒楼(曹安路店)","lon":"121.37076","lat":"31.2519","category":"76","category_name":"上海菜","address":"嘉定区曹安路1500号(近祁连山路)"},{"poiid":"B2094757D068AAF94398","title":"宝燕海鲜(丰庄店)","lon":"121.37153","lat":"31.24864","category":"75","category_name":"浙江菜","address":"嘉定区祁连山南路2025号(丰庄北路)"},{"poiid":"B2094757D068A3FD419B","title":"捞王猪肚鸡(梅川路店)","lon":"121.37612","lat":"31.24634","category":"86","category_name":"火锅店","address":"普陀区梅川路1532号(近万镇路)"},{"poiid":"B2094757D66EABF44798","title":"老阿爸野鱼馆","lon":"121.367773586","lat":"31.2475827706","category":"87","category_name":"特色／地方风味餐厅","address":"嘉定区丰庄北路431号(近祁连山南路)"},{"poiid":"B2094654D56AA3FF4393","title":"金沙嘉年华","lon":"121.36771","lat":"31.24281","category":"47","category_name":"住宅区","address":"祁连山南路999弄"},{"poiid":"B2094757D06FA5F9429F","title":"甜蜜蜜(梅川店)","lon":"121.37798","lat":"31.24551","category":"67","category_name":"甜品店","address":"普陀区梅川路1454号(近万镇路)"},{"poiid":"B2094757D068A3F8499F","title":"金沙雅苑滨湖世家","lon":"121.36955773","lat":"31.241852721","category":"47","category_name":"住宅区","address":"上海清峪路368弄"},{"poiid":"B2094750DB6EA1FC4799","title":"小贝壳自助海鲜火锅","lon":"121.376495","lat":"31.246557","category":"247","category_name":"餐饮美食","address":"普陀区梅川路1528号(万镇路口)"},{"poiid":"B2094757D06FAAFF419A","title":"一兆韦德(梅川路店)","lon":"121.376592","lat":"31.245883","category":"148","category_name":"美容美发店","address":"普陀区梅川路1369号商业步行街3楼(近真光路)"},{"poiid":"B2094757D06AABFA469C","title":"曹杨中学羽毛球馆","lon":"121.37100219","lat":"31.246200561","category":"253","category_name":"校园生活","address":"普陀区祁连山南路1069号曹杨中学内(近金沙雅苑)"},{"poiid":"B2094757D06FA0F4499B","title":"金沙雅苑二期","lon":"121.376194","lat":"31.245874","category":"500","category_name":"未知分类","address":"上海市普陀区金沙江路2316号"},{"poiid":"B2094757D16CABFA4598","title":"宝燕壹号","lon":"121.373735586","lat":"31.2473017651","category":"500","category_name":"未知分类","address":"上海祁连山路"},{"poiid":"B2094757D068A3FB4992","title":"丰庄一村","lon":"121.36606","lat":"31.248865","category":"500","category_name":"未知分类","address":"上海丰庄路450弄"},{"poiid":"B2094757DB6CA5FB449C","title":"翠丽华港澳餐厅","lon":"121.3735896633572","lat":"31.24667443965718","category":"247","category_name":"餐饮美食","address":"普陀区梅川路1458-1466号(近真光路)"},{"poiid":"B2094757D069A2F5499F","title":"泰宸景苑","lon":"121.37625","lat":"31.248657","category":"47","category_name":"住宅区","address":"上海市普陀区桃浦路368号"},{"poiid":"B2094757D06FABFE4798","title":"一兆韦德(清峪路店)","lon":"121.36947","lat":"31.24048","category":"148","category_name":"美容美发店","address":"普陀区清峪路385号2楼(近祁连山南路)"},{"poiid":"B2094757D069A0FC459A","title":"丰庄四村","lon":"121.3688","lat":"31.248678","category":"47","category_name":"住宅区","address":"上海丰庄北路祁连山南路"},{"poiid":"B2094654D56AA3FF479E","title":"嘉云苑","lon":"121.37075","lat":"31.24379","category":"47","category_name":"住宅区","address":"延川路243弄"},{"poiid":"B2094757D068A1FE449E","title":"上海豪园","lon":"121.37306","lat":"31.24081","category":"47","category_name":"住宅区","address":"上海普陀区清峪路258弄(近万镇路)"},{"poiid":"B2094654D56AA3FF4798","title":"金祥坊","lon":"121.37168","lat":"31.24506","category":"47","category_name":"住宅区","address":"吉镇路445弄1-79"},{"poiid":"B2094654D56AA3FF4698","title":"家旺新苑","lon":"121.3746","lat":"31.246191","category":"47","category_name":"住宅区","address":"梅川路1493弄"},{"poiid":"B2094757D068A3F9479D","title":"卜蜂莲花(曹安路店)","lon":"121.37048","lat":"31.25168","category":"118","category_name":"超级市场","address":"普陀区曹安路1538号(近安边路)"},{"poiid":"B2094654DB6AA3FD4498","title":"韩林炭烤(梅川店)","lon":"121.37618","lat":"31.24666","category":"96","category_name":"韩国料理","address":"梅川路1528-1"},{"poiid":"B2094655D26BA6F54398","title":"福瑞大厦","lon":"121.37085","lat":"31.25142","category":"46","category_name":"楼宇","address":"沈河北站路与北京街的交汇处"},{"poiid":"B2094655D36CA0FB4598","title":"吉镇路","lon":"121.37359","lat":"31.24693","category":"38","category_name":"公交车站","address":"上海吉镇路445弄44号"},{"poiid":"B2094757DB69ABFF4899","title":"沪尚名庭","lon":"121.3755","lat":"31.24651","category":"47","category_name":"住宅区","address":"普陀区梅川路1483号(近万镇路)"},{"poiid":"B2094654D56AA3FF479F","title":"上海青草地双语幼儿园(延川路)","lon":"121.37103","lat":"31.24509","category":"57","category_name":"幼儿园","address":"延川路246号"},{"poiid":"B2094757D66DA4F4449B","title":"小豬窩","lon":"121.373054586","lat":"31.2473547661","category":"47","category_name":"住宅区","address":"上海梅川路1725弄7号501室"},{"poiid":"B2094655D26BA4FC429C","title":"金沙嘉年华四期","lon":"121.373","lat":"31.2478","category":"47","category_name":"住宅区","address":"上海市普陀区祁连山南路新丰路路口"},{"poiid":"B2094655D26DA5FF419D","title":"每日美家酒店","lon":"121.37173","lat":"31.24826","category":"250","category_name":"公园户外","address":"上海市嘉定区祁连山南路1888号（梅川路口）"},{"poiid":"B2094757D065A5FE469D","title":"中环百联土耳其冰淇淋","lon":"121.37061713","lat":"31.246989009","category":"500","category_name":"未知分类","address":"上海百联中环B1"},{"poiid":"B2094757D06AA7FA489E","title":"梅川路吉镇路","lon":"121.373145","lat":"31.248118","category":"500","category_name":"未知分类","address":"上海梅川路吉镇路"},{"poiid":"B2094757D16DA1FD409D","title":"昆澄阁(梅川路店)","lon":"121.37707","lat":"31.24544","category":"76","category_name":"上海菜","address":"普陀区梅川路1483-1号(近万镇路)"},{"poiid":"B2094750D564A7FD4998","title":"中环财富杰座","lon":"121.372232","lat":"31.249039","category":"47","category_name":"住宅区","address":"祁连山路和梅川路路口"},{"poiid":"B2094654D46BA6FE429F","title":"梅川雅苑","lon":"121.37454","lat":"31.248821","category":"47","category_name":"住宅区","address":"上海梅川路1566弄"},{"poiid":"B2094757D568A7FE4992","title":"运旺新村嘉云苑","lon":"121.3720089","lat":"31.24304306","category":"47","category_name":"住宅区","address":"上海市普陀区延川路243弄"},{"poiid":"B2094757D069A5FD4698","title":"广德苑","lon":"121.36808","lat":"31.246727","category":"252","category_name":"楼宇机构","address":"上海市普陀区延川路299号"},{"poiid":"B2094757D06AA5F44493","title":"美适台球馆","lon":"121.37765","lat":"31.2454","category":"125","category_name":"书店","address":"普陀区梅川路1353号3楼(近真光路)"},{"poiid":"B2094655D26FA1FA439B","title":"振鑫花苑","lon":"121.37045","lat":"31.249577","category":"47","category_name":"住宅区","address":"丰庄北路299弄499"},{"poiid":"B2094757D16EAAF44399","title":"银脚盆沐足会馆","lon":"121.37497658","lat":"31.244588712","category":"148","category_name":"美容美发店","address":"上海市梅川路1481号-5二楼"},{"poiid":"B2094655D36CA6F8459C","title":"丰庄北路","lon":"121.36979","lat":"31.24911","category":"38","category_name":"公交车站","address":""},{"poiid":"B2094654D56AA3FF449A","title":"金元坊","lon":"121.37486","lat":"31.247793","category":"47","category_name":"住宅区","address":"梅川路1680弄"},{"poiid":"B2094655D26FA0F54298","title":"金元坊(南门)","lon":"121.37451","lat":"31.24744","category":"47","category_name":"住宅区","address":"梅川路1680弄"},{"poiid":"B2094757D168A3FB409A","title":"联华快客便利(丰庄北路店)","lon":"121.372825","lat":"31.24737","category":"249","category_name":"购物服务","address":"嘉定区丰庄路54号(近金沙江路)"},{"poiid":"B2094655D26CA4FC4198","title":"嘉泰花园公寓(南门)","lon":"121.37199","lat":"31.24616","category":"656","category_name":"大门","address":""},{"poiid":"B2094654DB6AA4FF439A","title":"振鑫花苑(南门)","lon":"121.37008","lat":"31.24929","category":"47","category_name":"住宅区","address":"丰庄北路299弄499"},{"poiid":"B2094654DB65A0FB419A","title":"好德No.333","lon":"121.37019","lat":"31.24925","category":"117","category_name":"便民商店/便利店","address":"丰庄北路625"},{"poiid":"B2094757D16EA7FE4698","title":"喜阳来（阳旺店）","lon":"121.37489478","lat":"31.243151283","category":"68","category_name":"快餐厅","address":"普陀区延川路9号(近万镇路)"},{"poiid":"B2094757D069ABF4419F","title":"清峪路万镇路黑车窝点","lon":"121.37174658","lat":"31.24450271","category":"500","category_name":"未知分类","address":"上海清峪路万镇路口附近"}]