[{"poiid":"B2094757D06FA2FA429B","title":"上海国际时尚中心","lon":"121.55726862","lat":"31.270837313","category":"260","category_name":"其他","address":"杨浦区杨树浦路2866号(近内江路)"},{"poiid":"B2094750D76CA3FC4492","title":"金钱豹(杨树浦路店)","lon":"121.557","lat":"31.2714","category":"87","category_name":"特色／地方风味餐厅","address":"杨树浦路2866号(近内江路6月开业)"},{"poiid":"B2094757D06FA7F4409B","title":"金桥路浦东大道","lon":"121.570783","lat":"31.2663931","category":"260","category_name":"其他","address":"上海浦东新区金桥路浦东大道"},{"poiid":"B2094757D068ABFD409B","title":"上海双拥大厦","lon":"121.564009619","lat":"31.26092478","category":"46","category_name":"楼宇","address":"浦东新区浦东大道2601号(近居家桥路)"},{"poiid":"B2094752D36BA0F8479F","title":"星巴克(杨树浦路店)","lon":"121.557357","lat":"31.271385","category":"247","category_name":"餐饮美食","address":"杨浦区杨树浦路2866号(近内江路)"},{"poiid":"B2094757D06BA5FE4799","title":"定海桥轮渡站","lon":"121.56264308","lat":"31.272182024","category":"500","category_name":"未知分类","address":"上海共青路4号"},{"poiid":"B2094654DB64A4FD429E","title":"爱康国宾上海浦东分院","lon":"121.56272","lat":"31.25877","category":"162","category_name":"医院","address":"浦东大道2554号三楼"},{"poiid":"B2094757D069A4FC4293","title":"浦东大道金桥路","lon":"121.569491","lat":"31.265606","category":"500","category_name":"未知分类","address":"上海浦东消防支队"},{"poiid":"B2094750DB6DA0F5409A","title":"米瑟 MIXER","lon":"121.557283","lat":"31.271839","category":"67","category_name":"甜品店","address":"杨浦区杨树浦路2866号国际时尚中心(近内江路)"},{"poiid":"B2094655D26BA5F5469F","title":"中环滨江大厦","lon":"121.57168","lat":"31.26648","category":"47","category_name":"住宅区","address":"上海浦东新区浦东大道2742号(近金桥路)"},{"poiid":"B2094757D06FA2FE449A","title":"军工路隧道","lon":"121.564936863","lat":"31.2710545852","category":"260","category_name":"其他","address":"上海市杨浦区军工路-浦东新区金桥路"},{"poiid":"B2094654D568A7FA429B","title":"上海交通职业技术学院(浦东大道)","lon":"121.56713","lat":"31.26276","category":"52","category_name":"高等院校","address":"浦东大道2598"},{"poiid":"B2094757D069A5FF459A","title":"上房金丰苑","lon":"121.569","lat":"31.266","category":"47","category_name":"住宅区","address":"上海市浦东新区浦东大道2567号"},{"poiid":"B2094654DB6BA1FD4698","title":"上海海事大学东校区北门(浦东大道)","lon":"121.56855","lat":"31.26329","category":"52","category_name":"高等院校","address":"浦东大道2600"},{"poiid":"B2094757D068A6F8459D","title":"金桥轮渡站","lon":"121.56765957","lat":"31.269204681","category":"251","category_name":"出行住宿","address":"上海金桥路1号"},{"poiid":"B2094655D26FA0FB4098","title":"金樟花苑","lon":"121.56441","lat":"31.25869","category":"47","category_name":"住宅区","address":"栖山路1555弄1-34号"},{"poiid":"B2094751DA6AAAF54099","title":"星巴克时尚中心店","lon":"121.558759","lat":"31.271","category":"247","category_name":"餐饮美食","address":null},{"poiid":"B2094757D16DABF94099","title":"定海桥","lon":"121.56081333","lat":"31.271165283","category":"500","category_name":"未知分类","address":"上海杨浦区定海路"},{"poiid":"B2094655D26FA0FE4193","title":"陈家宅小区","lon":"121.57315","lat":"31.26672","category":"47","category_name":"住宅区","address":"金桥路301弄1-32号"},{"poiid":"B2094655D26BA5FD469F","title":"济川国际广场","lon":"121.569","lat":"31.2652","category":"47","category_name":"住宅区","address":"上海市浦东新区浦东大道2954弄"},{"poiid":"B2094655D264ABF4489E","title":"寺前浜小区","lon":"121.56795","lat":"31.264982","category":"47","category_name":"住宅区","address":"浦东大道2639弄1-36号"},{"poiid":"B2094655D36DA0F9429A","title":"杨树浦路内江路","lon":"121.55652","lat":"31.2711","category":"38","category_name":"公交车站","address":""},{"poiid":"B2094655D36DA6FF459A","title":"金桥路渡口","lon":"121.568","lat":"31.2691","category":"38","category_name":"公交车站","address":""},{"poiid":"B2094655D26BA5F4429A","title":"阿玛尼烫染造型广场","lon":"121.56878","lat":"31.26497","category":"148","category_name":"美容美发店","address":""},{"poiid":"B2094757D16CA5FB489B","title":"上海市远洋教育中心(友林路)","lon":"121.568641757","lat":"31.2604601886","category":"46","category_name":"楼宇","address":"上海市浦东新区友林路55号"},{"poiid":"B2094654D568A5F5449A","title":"东桥路渡口","lon":"121.56777","lat":"31.26921","category":"34","category_name":"港口码头","address":""},{"poiid":"B2094655D36CA3FB409F","title":"清真马记清香拉面王","lon":"121.56725","lat":"31.2636","category":"90","category_name":"清真餐馆","address":"浦东新区浦东大道2639弄(近居家桥路)"},{"poiid":"B2094654D568A2F4459C","title":"可的(复兴岛大酒店南)","lon":"121.56236","lat":"31.27213","category":"117","category_name":"便民商店/便利店","address":""},{"poiid":"B2094654D568A5F44898","title":"东华科技大厦","lon":"121.57269","lat":"31.26868","category":"46","category_name":"楼宇","address":"浦东大道2789号"},{"poiid":"B2094654D568A7FA479B","title":"上海市民办兴知中学","lon":"121.5687","lat":"31.26754","category":"55","category_name":"中学","address":"金桥路136弄15号"},{"poiid":"B2094654D568A7FF499F","title":"苏宁电器(浦东大道)","lon":"121.56298","lat":"31.25892","category":"138","category_name":"家电电子卖场","address":"浦东新区浦东大道2554号(近居家桥路)"},{"poiid":"B2094654D568A5F5449D","title":"三郎艺术纹身馆","lon":"121.56861","lat":"31.26868","category":"148","category_name":"美容美发店","address":"金桥路41"},{"poiid":"B2094757D16DAAF94892","title":"滨江龙居苑","lon":"121.564821","lat":"31.26251","category":"47","category_name":"住宅区","address":"浦东龙居路2号、浦东大道2448号"},{"poiid":"B2094654D568A5F54593","title":"光明便利No.245","lon":"121.56951","lat":"31.26773","category":"117","category_name":"便民商店/便利店","address":"沪东新村"},{"poiid":"B2094655D269AAF44598","title":"莫泰168金桥路店","lon":"121.57185","lat":"31.26483","category":"247","category_name":"餐饮美食","address":"浦东新区金桥路298号"},{"poiid":"B2094757D664A7FF449A","title":"一品粥坊","lon":"121.57187","lat":"31.26483","category":"68","category_name":"快餐厅","address":"浦东新区金桥路298号(近浦东大道)"},{"poiid":"B2094757D16BA6FC429E","title":"上海国家保密局","lon":"121.55471453","lat":"31.269237939","category":"247","category_name":"餐饮美食","address":"上海凉州路381号"},{"poiid":"B2094654D568A7FA449C","title":"可的(上海江东泌尿外科医院西)","lon":"121.56853","lat":"31.26474","category":"117","category_name":"便民商店/便利店","address":"金杨新村"},{"poiid":"B2094655D26AA3FB459F","title":"上海港湾学校","lon":"121.56855","lat":"31.26329","category":"247","category_name":"餐饮美食","address":"浦东新区浦东大道1550号上海海事大学院内(近民生路)"},{"poiid":"B2094757D065A3FC4698","title":"定海桥渡口站","lon":"121.56801633","lat":"31.269210238","category":"251","category_name":"出行住宿","address":"上海杨浦区定海路"},{"poiid":"B2094750D26FA5FC499D","title":"阁楼足球会所","lon":"121.554924","lat":"31.271301","category":"248","category_name":"生活娱乐","address":"杨浦区贵阳路38号(近杨树浦路)"},{"poiid":"B2094757D065A3F5499B","title":"黄浦江游轮","lon":"121.55846688","lat":"31.26314064","category":"247","category_name":"餐饮美食","address":"上海黄浦江上"},{"poiid":"B2094655D26BA2F5479E","title":"浦东大道居家桥路","lon":"121.56168","lat":"31.25906","category":"38","category_name":"公交车站","address":"上海浦东新区浦东大道居家桥路口"},{"poiid":"B2094655D265A0F5499C","title":"皇中皇酒家","lon":"121.57019","lat":"31.26698","category":"70","category_name":"综合酒楼","address":"金桥路187号"},{"poiid":"B2094654D568A7FA419E","title":"上海海事大学高等技术学院","lon":"121.56855","lat":"31.26329","category":"52","category_name":"高等院校","address":"浦东大道2600"},{"poiid":"B2094654DB69AAF5459E","title":"江东医院","lon":"121.57192","lat":"31.26478","category":"162","category_name":"医院","address":"浦东新区金桥路300号(近浦东大道)"},{"poiid":"B2094753D26EA6F44699","title":"金星舞蹈团","lon":"121.559699","lat":"31.271037","category":"500","category_name":"未知分类","address":"上海市 杨浦区杨树浦路2866号"},{"poiid":"B2094752D26DA6FF4599","title":"珍得巧克力剧院","lon":"121.55661","lat":"31.2713","category":"67","category_name":"甜品店","address":"杨浦区杨树浦路2866号上海国际时尚中心内(近内江路)"},{"poiid":"B2094655D264ABF44899","title":"喜士多便利店","lon":"121.56669","lat":"31.2624","category":"117","category_name":"便民商店/便利店","address":"浦东大道2596号-11(临)"},{"poiid":"B2094654DB64AAF54193","title":"上海海事大学东校区学生宿舍5号楼","lon":"121.56684","lat":"31.26252","category":"47","category_name":"住宅区","address":"浦东大道2596"},{"poiid":"B2094757D06FA2FA429B","title":"上海国际时尚中心","lon":"121.55726862","lat":"31.270837313","category":"260","category_name":"其他","address":"杨浦区杨树浦路2866号(近内江路)"},{"poiid":"B2094750D76CA3FC4492","title":"金钱豹(杨树浦路店)","lon":"121.557","lat":"31.2714","category":"87","category_name":"特色／地方风味餐厅","address":"杨树浦路2866号(近内江路6月开业)"},{"poiid":"B2094757D06FA7F4409B","title":"金桥路浦东大道","lon":"121.570783","lat":"31.2663931","category":"260","category_name":"其他","address":"上海浦东新区金桥路浦东大道"},{"poiid":"B2094757D068ABFD409B","title":"上海双拥大厦","lon":"121.564009619","lat":"31.26092478","category":"46","category_name":"楼宇","address":"浦东新区浦东大道2601号(近居家桥路)"},{"poiid":"B2094752D36BA0F8479F","title":"星巴克(杨树浦路店)","lon":"121.557357","lat":"31.271385","category":"247","category_name":"餐饮美食","address":"杨浦区杨树浦路2866号(近内江路)"},{"poiid":"B2094757D06BA5FE4799","title":"定海桥轮渡站","lon":"121.56264308","lat":"31.272182024","category":"500","category_name":"未知分类","address":"上海共青路4号"},{"poiid":"B2094654DB64A4FD429E","title":"爱康国宾上海浦东分院","lon":"121.56272","lat":"31.25877","category":"162","category_name":"医院","address":"浦东大道2554号三楼"},{"poiid":"B2094757D069A4FC4293","title":"浦东大道金桥路","lon":"121.569491","lat":"31.265606","category":"500","category_name":"未知分类","address":"上海浦东消防支队"},{"poiid":"B2094750DB6DA0F5409A","title":"米瑟 MIXER","lon":"121.557283","lat":"31.271839","category":"67","category_name":"甜品店","address":"杨浦区杨树浦路2866号国际时尚中心(近内江路)"},{"poiid":"B2094655D26BA5F5469F","title":"中环滨江大厦","lon":"121.57168","lat":"31.26648","category":"47","category_name":"住宅区","address":"上海浦东新区浦东大道2742号(近金桥路)"},{"poiid":"B2094757D06FA2FE449A","title":"军工路隧道","lon":"121.564936863","lat":"31.2710545852","category":"260","category_name":"其他","address":"上海市杨浦区军工路-浦东新区金桥路"},{"poiid":"B2094654D568A7FA429B","title":"上海交通职业技术学院(浦东大道)","lon":"121.56713","lat":"31.26276","category":"52","category_name":"高等院校","address":"浦东大道2598"},{"poiid":"B2094757D069A5FF459A","title":"上房金丰苑","lon":"121.569","lat":"31.266","category":"47","category_name":"住宅区","address":"上海市浦东新区浦东大道2567号"},{"poiid":"B2094654DB6BA1FD4698","title":"上海海事大学东校区北门(浦东大道)","lon":"121.56855","lat":"31.26329","category":"52","category_name":"高等院校","address":"浦东大道2600"},{"poiid":"B2094757D068A6F8459D","title":"金桥轮渡站","lon":"121.56765957","lat":"31.269204681","category":"251","category_name":"出行住宿","address":"上海金桥路1号"},{"poiid":"B2094655D26FA0FB4098","title":"金樟花苑","lon":"121.56441","lat":"31.25869","category":"47","category_name":"住宅区","address":"栖山路1555弄1-34号"},{"poiid":"B2094751DA6AAAF54099","title":"星巴克时尚中心店","lon":"121.558759","lat":"31.271","category":"247","category_name":"餐饮美食","address":null},{"poiid":"B2094757D16DABF94099","title":"定海桥","lon":"121.56081333","lat":"31.271165283","category":"500","category_name":"未知分类","address":"上海杨浦区定海路"},{"poiid":"B2094655D26FA0FE4193","title":"陈家宅小区","lon":"121.57315","lat":"31.26672","category":"47","category_name":"住宅区","address":"金桥路301弄1-32号"},{"poiid":"B2094655D26BA5FD469F","title":"济川国际广场","lon":"121.569","lat":"31.2652","category":"47","category_name":"住宅区","address":"上海市浦东新区浦东大道2954弄"},{"poiid":"B2094655D264ABF4489E","title":"寺前浜小区","lon":"121.56795","lat":"31.264982","category":"47","category_name":"住宅区","address":"浦东大道2639弄1-36号"},{"poiid":"B2094655D36DA0F9429A","title":"杨树浦路内江路","lon":"121.55652","lat":"31.2711","category":"38","category_name":"公交车站","address":""},{"poiid":"B2094655D36DA6FF459A","title":"金桥路渡口","lon":"121.568","lat":"31.2691","category":"38","category_name":"公交车站","address":""},{"poiid":"B2094655D26BA5F4429A","title":"阿玛尼烫染造型广场","lon":"121.56878","lat":"31.26497","category":"148","category_name":"美容美发店","address":""},{"poiid":"B2094757D16CA5FB489B","title":"上海市远洋教育中心(友林路)","lon":"121.568641757","lat":"31.2604601886","category":"46","category_name":"楼宇","address":"上海市浦东新区友林路55号"},{"poiid":"B2094654D568A5F5449A","title":"东桥路渡口","lon":"121.56777","lat":"31.26921","category":"34","category_name":"港口码头","address":""},{"poiid":"B2094655D36CA3FB409F","title":"清真马记清香拉面王","lon":"121.56725","lat":"31.2636","category":"90","category_name":"清真餐馆","address":"浦东新区浦东大道2639弄(近居家桥路)"},{"poiid":"B2094654D568A2F4459C","title":"可的(复兴岛大酒店南)","lon":"121.56236","lat":"31.27213","category":"117","category_name":"便民商店/便利店","address":""},{"poiid":"B2094654D568A5F44898","title":"东华科技大厦","lon":"121.57269","lat":"31.26868","category":"46","category_name":"楼宇","address":"浦东大道2789号"},{"poiid":"B2094654D568A7FA479B","title":"上海市民办兴知中学","lon":"121.5687","lat":"31.26754","category":"55","category_name":"中学","address":"金桥路136弄15号"},{"poiid":"B2094654D568A7FF499F","title":"苏宁电器(浦东大道)","lon":"121.56298","lat":"31.25892","category":"138","category_name":"家电电子卖场","address":"浦东新区浦东大道2554号(近居家桥路)"},{"poiid":"B2094654D568A5F5449D","title":"三郎艺术纹身馆","lon":"121.56861","lat":"31.26868","category":"148","category_name":"美容美发店","address":"金桥路41"},{"poiid":"B2094757D16DAAF94892","title":"滨江龙居苑","lon":"121.564821","lat":"31.26251","category":"47","category_name":"住宅区","address":"浦东龙居路2号、浦东大道2448号"},{"poiid":"B2094654D568A5F54593","title":"光明便利No.245","lon":"121.56951","lat":"31.26773","category":"117","category_name":"便民商店/便利店","address":"沪东新村"},{"poiid":"B2094655D269AAF44598","title":"莫泰168金桥路店","lon":"121.57185","lat":"31.26483","category":"247","category_name":"餐饮美食","address":"浦东新区金桥路298号"},{"poiid":"B2094757D664A7FF449A","title":"一品粥坊","lon":"121.57187","lat":"31.26483","category":"68","category_name":"快餐厅","address":"浦东新区金桥路298号(近浦东大道)"},{"poiid":"B2094757D16BA6FC429E","title":"上海国家保密局","lon":"121.55471453","lat":"31.269237939","category":"247","category_name":"餐饮美食","address":"上海凉州路381号"},{"poiid":"B2094654D568A7FA449C","title":"可的(上海江东泌尿外科医院西)","lon":"121.56853","lat":"31.26474","category":"117","category_name":"便民商店/便利店","address":"金杨新村"},{"poiid":"B2094655D26AA3FB459F","title":"上海港湾学校","lon":"121.56855","lat":"31.26329","category":"247","category_name":"餐饮美食","address":"浦东新区浦东大道1550号上海海事大学院内(近民生路)"},{"poiid":"B2094757D065A3FC4698","title":"定海桥渡口站","lon":"121.56801633","lat":"31.269210238","category":"251","category_name":"出行住宿","address":"上海杨浦区定海路"},{"poiid":"B2094750D26FA5FC499D","title":"阁楼足球会所","lon":"121.554924","lat":"31.271301","category":"248","category_name":"生活娱乐","address":"杨浦区贵阳路38号(近杨树浦路)"},{"poiid":"B2094757D065A3F5499B","title":"黄浦江游轮","lon":"121.55846688","lat":"31.26314064","category":"247","category_name":"餐饮美食","address":"上海黄浦江上"},{"poiid":"B2094655D26BA2F5479E","title":"浦东大道居家桥路","lon":"121.56168","lat":"31.25906","category":"38","category_name":"公交车站","address":"上海浦东新区浦东大道居家桥路口"},{"poiid":"B2094655D265A0F5499C","title":"皇中皇酒家","lon":"121.57019","lat":"31.26698","category":"70","category_name":"综合酒楼","address":"金桥路187号"},{"poiid":"B2094654D568A7FA419E","title":"上海海事大学高等技术学院","lon":"121.56855","lat":"31.26329","category":"52","category_name":"高等院校","address":"浦东大道2600"},{"poiid":"B2094654DB69AAF5459E","title":"江东医院","lon":"121.57192","lat":"31.26478","category":"162","category_name":"医院","address":"浦东新区金桥路300号(近浦东大道)"},{"poiid":"B2094753D26EA6F44699","title":"金星舞蹈团","lon":"121.559699","lat":"31.271037","category":"500","category_name":"未知分类","address":"上海市 杨浦区杨树浦路2866号"},{"poiid":"B2094752D26DA6FF4599","title":"珍得巧克力剧院","lon":"121.55661","lat":"31.2713","category":"67","category_name":"甜品店","address":"杨浦区杨树浦路2866号上海国际时尚中心内(近内江路)"},{"poiid":"B2094655D264ABF44899","title":"喜士多便利店","lon":"121.56669","lat":"31.2624","category":"117","category_name":"便民商店/便利店","address":"浦东大道2596号-11(临)"},{"poiid":"B2094654DB64AAF54193","title":"上海海事大学东校区学生宿舍5号楼","lon":"121.56684","lat":"31.26252","category":"47","category_name":"住宅区","address":"浦东大道2596"},{"poiid":"B2094757D06FA2FA429B","title":"上海国际时尚中心","lon":"121.55726862","lat":"31.270837313","category":"260","category_name":"其他","address":"杨浦区杨树浦路2866号(近内江路)"},{"poiid":"B2094750D76CA3FC4492","title":"金钱豹(杨树浦路店)","lon":"121.557","lat":"31.2714","category":"87","category_name":"特色／地方风味餐厅","address":"杨树浦路2866号(近内江路6月开业)"},{"poiid":"B2094757D06FA7F4409B","title":"金桥路浦东大道","lon":"121.570783","lat":"31.2663931","category":"260","category_name":"其他","address":"上海浦东新区金桥路浦东大道"},{"poiid":"B2094757D068ABFD409B","title":"上海双拥大厦","lon":"121.564009619","lat":"31.26092478","category":"46","category_name":"楼宇","address":"浦东新区浦东大道2601号(近居家桥路)"},{"poiid":"B2094752D36BA0F8479F","title":"星巴克(杨树浦路店)","lon":"121.557357","lat":"31.271385","category":"247","category_name":"餐饮美食","address":"杨浦区杨树浦路2866号(近内江路)"},{"poiid":"B2094757D06BA5FE4799","title":"定海桥轮渡站","lon":"121.56264308","lat":"31.272182024","category":"500","category_name":"未知分类","address":"上海共青路4号"},{"poiid":"B2094654DB64A4FD429E","title":"爱康国宾上海浦东分院","lon":"121.56272","lat":"31.25877","category":"162","category_name":"医院","address":"浦东大道2554号三楼"},{"poiid":"B2094757D069A4FC4293","title":"浦东大道金桥路","lon":"121.569491","lat":"31.265606","category":"500","category_name":"未知分类","address":"上海浦东消防支队"},{"poiid":"B2094750DB6DA0F5409A","title":"米瑟 MIXER","lon":"121.557283","lat":"31.271839","category":"67","category_name":"甜品店","address":"杨浦区杨树浦路2866号国际时尚中心(近内江路)"},{"poiid":"B2094655D26BA5F5469F","title":"中环滨江大厦","lon":"121.57168","lat":"31.26648","category":"47","category_name":"住宅区","address":"上海浦东新区浦东大道2742号(近金桥路)"},{"poiid":"B2094757D06FA2FE449A","title":"军工路隧道","lon":"121.564936863","lat":"31.2710545852","category":"260","category_name":"其他","address":"上海市杨浦区军工路-浦东新区金桥路"},{"poiid":"B2094654D568A7FA429B","title":"上海交通职业技术学院(浦东大道)","lon":"121.56713","lat":"31.26276","category":"52","category_name":"高等院校","address":"浦东大道2598"},{"poiid":"B2094757D069A5FF459A","title":"上房金丰苑","lon":"121.569","lat":"31.266","category":"47","category_name":"住宅区","address":"上海市浦东新区浦东大道2567号"},{"poiid":"B2094654DB6BA1FD4698","title":"上海海事大学东校区北门(浦东大道)","lon":"121.56855","lat":"31.26329","category":"52","category_name":"高等院校","address":"浦东大道2600"},{"poiid":"B2094757D068A6F8459D","title":"金桥轮渡站","lon":"121.56765957","lat":"31.269204681","category":"251","category_name":"出行住宿","address":"上海金桥路1号"},{"poiid":"B2094655D26FA0FB4098","title":"金樟花苑","lon":"121.56441","lat":"31.25869","category":"47","category_name":"住宅区","address":"栖山路1555弄1-34号"},{"poiid":"B2094751DA6AAAF54099","title":"星巴克时尚中心店","lon":"121.558759","lat":"31.271","category":"247","category_name":"餐饮美食","address":null},{"poiid":"B2094757D16DABF94099","title":"定海桥","lon":"121.56081333","lat":"31.271165283","category":"500","category_name":"未知分类","address":"上海杨浦区定海路"},{"poiid":"B2094655D26FA0FE4193","title":"陈家宅小区","lon":"121.57315","lat":"31.26672","category":"47","category_name":"住宅区","address":"金桥路301弄1-32号"},{"poiid":"B2094655D26BA5FD469F","title":"济川国际广场","lon":"121.569","lat":"31.2652","category":"47","category_name":"住宅区","address":"上海市浦东新区浦东大道2954弄"},{"poiid":"B2094655D264ABF4489E","title":"寺前浜小区","lon":"121.56795","lat":"31.264982","category":"47","category_name":"住宅区","address":"浦东大道2639弄1-36号"},{"poiid":"B2094655D36DA0F9429A","title":"杨树浦路内江路","lon":"121.55652","lat":"31.2711","category":"38","category_name":"公交车站","address":""},{"poiid":"B2094655D36DA6FF459A","title":"金桥路渡口","lon":"121.568","lat":"31.2691","category":"38","category_name":"公交车站","address":""},{"poiid":"B2094655D26BA5F4429A","title":"阿玛尼烫染造型广场","lon":"121.56878","lat":"31.26497","category":"148","category_name":"美容美发店","address":""},{"poiid":"B2094757D16CA5FB489B","title":"上海市远洋教育中心(友林路)","lon":"121.568641757","lat":"31.2604601886","category":"46","category_name":"楼宇","address":"上海市浦东新区友林路55号"},{"poiid":"B2094654D568A5F5449A","title":"东桥路渡口","lon":"121.56777","lat":"31.26921","category":"34","category_name":"港口码头","address":""},{"poiid":"B2094655D36CA3FB409F","title":"清真马记清香拉面王","lon":"121.56725","lat":"31.2636","category":"90","category_name":"清真餐馆","address":"浦东新区浦东大道2639弄(近居家桥路)"},{"poiid":"B2094654D568A2F4459C","title":"可的(复兴岛大酒店南)","lon":"121.56236","lat":"31.27213","category":"117","category_name":"便民商店/便利店","address":""},{"poiid":"B2094654D568A5F44898","title":"东华科技大厦","lon":"121.57269","lat":"31.26868","category":"46","category_name":"楼宇","address":"浦东大道2789号"},{"poiid":"B2094654D568A7FA479B","title":"上海市民办兴知中学","lon":"121.5687","lat":"31.26754","category":"55","category_name":"中学","address":"金桥路136弄15号"},{"poiid":"B2094654D568A7FF499F","title":"苏宁电器(浦东大道)","lon":"121.56298","lat":"31.25892","category":"138","category_name":"家电电子卖场","address":"浦东新区浦东大道2554号(近居家桥路)"},{"poiid":"B2094654D568A5F5449D","title":"三郎艺术纹身馆","lon":"121.56861","lat":"31.26868","category":"148","category_name":"美容美发店","address":"金桥路41"},{"poiid":"B2094757D16DAAF94892","title":"滨江龙居苑","lon":"121.564821","lat":"31.26251","category":"47","category_name":"住宅区","address":"浦东龙居路2号、浦东大道2448号"},{"poiid":"B2094654D568A5F54593","title":"光明便利No.245","lon":"121.56951","lat":"31.26773","category":"117","category_name":"便民商店/便利店","address":"沪东新村"},{"poiid":"B2094655D269AAF44598","title":"莫泰168金桥路店","lon":"121.57185","lat":"31.26483","category":"247","category_name":"餐饮美食","address":"浦东新区金桥路298号"},{"poiid":"B2094757D664A7FF449A","title":"一品粥坊","lon":"121.57187","lat":"31.26483","category":"68","category_name":"快餐厅","address":"浦东新区金桥路298号(近浦东大道)"},{"poiid":"B2094757D16BA6FC429E","title":"上海国家保密局","lon":"121.55471453","lat":"31.269237939","category":"247","category_name":"餐饮美食","address":"上海凉州路381号"},{"poiid":"B2094654D568A7FA449C","title":"可的(上海江东泌尿外科医院西)","lon":"121.56853","lat":"31.26474","category":"117","category_name":"便民商店/便利店","address":"金杨新村"},{"poiid":"B2094655D26AA3FB459F","title":"上海港湾学校","lon":"121.56855","lat":"31.26329","category":"247","category_name":"餐饮美食","address":"浦东新区浦东大道1550号上海海事大学院内(近民生路)"},{"poiid":"B2094757D065A3FC4698","title":"定海桥渡口站","lon":"121.56801633","lat":"31.269210238","category":"251","category_name":"出行住宿","address":"上海杨浦区定海路"},{"poiid":"B2094750D26FA5FC499D","title":"阁楼足球会所","lon":"121.554924","lat":"31.271301","category":"248","category_name":"生活娱乐","address":"杨浦区贵阳路38号(近杨树浦路)"},{"poiid":"B2094757D065A3F5499B","title":"黄浦江游轮","lon":"121.55846688","lat":"31.26314064","category":"247","category_name":"餐饮美食","address":"上海黄浦江上"},{"poiid":"B2094655D26BA2F5479E","title":"浦东大道居家桥路","lon":"121.56168","lat":"31.25906","category":"38","category_name":"公交车站","address":"上海浦东新区浦东大道居家桥路口"},{"poiid":"B2094655D265A0F5499C","title":"皇中皇酒家","lon":"121.57019","lat":"31.26698","category":"70","category_name":"综合酒楼","address":"金桥路187号"},{"poiid":"B2094654D568A7FA419E","title":"上海海事大学高等技术学院","lon":"121.56855","lat":"31.26329","category":"52","category_name":"高等院校","address":"浦东大道2600"},{"poiid":"B2094654DB69AAF5459E","title":"江东医院","lon":"121.57192","lat":"31.26478","category":"162","category_name":"医院","address":"浦东新区金桥路300号(近浦东大道)"},{"poiid":"B2094753D26EA6F44699","title":"金星舞蹈团","lon":"121.559699","lat":"31.271037","category":"500","category_name":"未知分类","address":"上海市 杨浦区杨树浦路2866号"},{"poiid":"B2094752D26DA6FF4599","title":"珍得巧克力剧院","lon":"121.55661","lat":"31.2713","category":"67","category_name":"甜品店","address":"杨浦区杨树浦路2866号上海国际时尚中心内(近内江路)"},{"poiid":"B2094655D264ABF44899","title":"喜士多便利店","lon":"121.56669","lat":"31.2624","category":"117","category_name":"便民商店/便利店","address":"浦东大道2596号-11(临)"},{"poiid":"B2094654DB64AAF54193","title":"上海海事大学东校区学生宿舍5号楼","lon":"121.56684","lat":"31.26252","category":"47","category_name":"住宅区","address":"浦东大道2596"},{"poiid":"B2094757D06FA2FA429B","title":"上海国际时尚中心","lon":"121.55726862","lat":"31.270837313","category":"260","category_name":"其他","address":"杨浦区杨树浦路2866号(近内江路)"},{"poiid":"B2094750D76CA3FC4492","title":"金钱豹(杨树浦路店)","lon":"121.557","lat":"31.2714","category":"87","category_name":"特色／地方风味餐厅","address":"杨树浦路2866号(近内江路6月开业)"},{"poiid":"B2094757D06FA7F4409B","title":"金桥路浦东大道","lon":"121.570783","lat":"31.2663931","category":"260","category_name":"其他","address":"上海浦东新区金桥路浦东大道"},{"poiid":"B2094757D068ABFD409B","title":"上海双拥大厦","lon":"121.564009619","lat":"31.26092478","category":"46","category_name":"楼宇","address":"浦东新区浦东大道2601号(近居家桥路)"},{"poiid":"B2094752D36BA0F8479F","title":"星巴克(杨树浦路店)","lon":"121.557357","lat":"31.271385","category":"247","category_name":"餐饮美食","address":"杨浦区杨树浦路2866号(近内江路)"},{"poiid":"B2094757D06BA5FE4799","title":"定海桥轮渡站","lon":"121.56264308","lat":"31.272182024","category":"500","category_name":"未知分类","address":"上海共青路4号"},{"poiid":"B2094654DB64A4FD429E","title":"爱康国宾上海浦东分院","lon":"121.56272","lat":"31.25877","category":"162","category_name":"医院","address":"浦东大道2554号三楼"},{"poiid":"B2094757D069A4FC4293","title":"浦东大道金桥路","lon":"121.569491","lat":"31.265606","category":"500","category_name":"未知分类","address":"上海浦东消防支队"},{"poiid":"B2094750DB6DA0F5409A","title":"米瑟 MIXER","lon":"121.557283","lat":"31.271839","category":"67","category_name":"甜品店","address":"杨浦区杨树浦路2866号国际时尚中心(近内江路)"},{"poiid":"B2094655D26BA5F5469F","title":"中环滨江大厦","lon":"121.57168","lat":"31.26648","category":"47","category_name":"住宅区","address":"上海浦东新区浦东大道2742号(近金桥路)"},{"poiid":"B2094757D06FA2FE449A","title":"军工路隧道","lon":"121.564936863","lat":"31.2710545852","category":"260","category_name":"其他","address":"上海市杨浦区军工路-浦东新区金桥路"},{"poiid":"B2094654D568A7FA429B","title":"上海交通职业技术学院(浦东大道)","lon":"121.56713","lat":"31.26276","category":"52","category_name":"高等院校","address":"浦东大道2598"},{"poiid":"B2094757D069A5FF459A","title":"上房金丰苑","lon":"121.569","lat":"31.266","category":"47","category_name":"住宅区","address":"上海市浦东新区浦东大道2567号"},{"poiid":"B2094654DB6BA1FD4698","title":"上海海事大学东校区北门(浦东大道)","lon":"121.56855","lat":"31.26329","category":"52","category_name":"高等院校","address":"浦东大道2600"},{"poiid":"B2094757D068A6F8459D","title":"金桥轮渡站","lon":"121.56765957","lat":"31.269204681","category":"251","category_name":"出行住宿","address":"上海金桥路1号"},{"poiid":"B2094655D26FA0FB4098","title":"金樟花苑","lon":"121.56441","lat":"31.25869","category":"47","category_name":"住宅区","address":"栖山路1555弄1-34号"},{"poiid":"B2094751DA6AAAF54099","title":"星巴克时尚中心店","lon":"121.558759","lat":"31.271","category":"247","category_name":"餐饮美食","address":null},{"poiid":"B2094757D16DABF94099","title":"定海桥","lon":"121.56081333","lat":"31.271165283","category":"500","category_name":"未知分类","address":"上海杨浦区定海路"},{"poiid":"B2094655D26FA0FE4193","title":"陈家宅小区","lon":"121.57315","lat":"31.26672","category":"47","category_name":"住宅区","address":"金桥路301弄1-32号"},{"poiid":"B2094655D26BA5FD469F","title":"济川国际广场","lon":"121.569","lat":"31.2652","category":"47","category_name":"住宅区","address":"上海市浦东新区浦东大道2954弄"},{"poiid":"B2094655D264ABF4489E","title":"寺前浜小区","lon":"121.56795","lat":"31.264982","category":"47","category_name":"住宅区","address":"浦东大道2639弄1-36号"},{"poiid":"B2094655D36DA0F9429A","title":"杨树浦路内江路","lon":"121.55652","lat":"31.2711","category":"38","category_name":"公交车站","address":""},{"poiid":"B2094655D36DA6FF459A","title":"金桥路渡口","lon":"121.568","lat":"31.2691","category":"38","category_name":"公交车站","address":""},{"poiid":"B2094655D26BA5F4429A","title":"阿玛尼烫染造型广场","lon":"121.56878","lat":"31.26497","category":"148","category_name":"美容美发店","address":""},{"poiid":"B2094757D16CA5FB489B","title":"上海市远洋教育中心(友林路)","lon":"121.568641757","lat":"31.2604601886","category":"46","category_name":"楼宇","address":"上海市浦东新区友林路55号"},{"poiid":"B2094654D568A5F5449A","title":"东桥路渡口","lon":"121.56777","lat":"31.26921","category":"34","category_name":"港口码头","address":""},{"poiid":"B2094655D36CA3FB409F","title":"清真马记清香拉面王","lon":"121.56725","lat":"31.2636","category":"90","category_name":"清真餐馆","address":"浦东新区浦东大道2639弄(近居家桥路)"},{"poiid":"B2094654D568A2F4459C","title":"可的(复兴岛大酒店南)","lon":"121.56236","lat":"31.27213","category":"117","category_name":"便民商店/便利店","address":""},{"poiid":"B2094654D568A5F44898","title":"东华科技大厦","lon":"121.57269","lat":"31.26868","category":"46","category_name":"楼宇","address":"浦东大道2789号"},{"poiid":"B2094654D568A7FA479B","title":"上海市民办兴知中学","lon":"121.5687","lat":"31.26754","category":"55","category_name":"中学","address":"金桥路136弄15号"},{"poiid":"B2094654D568A7FF499F","title":"苏宁电器(浦东大道)","lon":"121.56298","lat":"31.25892","category":"138","category_name":"家电电子卖场","address":"浦东新区浦东大道2554号(近居家桥路)"},{"poiid":"B2094654D568A5F5449D","title":"三郎艺术纹身馆","lon":"121.56861","lat":"31.26868","category":"148","category_name":"美容美发店","address":"金桥路41"},{"poiid":"B2094757D16DAAF94892","title":"滨江龙居苑","lon":"121.564821","lat":"31.26251","category":"47","category_name":"住宅区","address":"浦东龙居路2号、浦东大道2448号"},{"poiid":"B2094654D568A5F54593","title":"光明便利No.245","lon":"121.56951","lat":"31.26773","category":"117","category_name":"便民商店/便利店","address":"沪东新村"},{"poiid":"B2094655D269AAF44598","title":"莫泰168金桥路店","lon":"121.57185","lat":"31.26483","category":"247","category_name":"餐饮美食","address":"浦东新区金桥路298号"},{"poiid":"B2094757D664A7FF449A","title":"一品粥坊","lon":"121.57187","lat":"31.26483","category":"68","category_name":"快餐厅","address":"浦东新区金桥路298号(近浦东大道)"},{"poiid":"B2094757D16BA6FC429E","title":"上海国家保密局","lon":"121.55471453","lat":"31.269237939","category":"247","category_name":"餐饮美食","address":"上海凉州路381号"},{"poiid":"B2094654D568A7FA449C","title":"可的(上海江东泌尿外科医院西)","lon":"121.56853","lat":"31.26474","category":"117","category_name":"便民商店/便利店","address":"金杨新村"},{"poiid":"B2094655D26AA3FB459F","title":"上海港湾学校","lon":"121.56855","lat":"31.26329","category":"247","category_name":"餐饮美食","address":"浦东新区浦东大道1550号上海海事大学院内(近民生路)"},{"poiid":"B2094757D065A3FC4698","title":"定海桥渡口站","lon":"121.56801633","lat":"31.269210238","category":"251","category_name":"出行住宿","address":"上海杨浦区定海路"},{"poiid":"B2094750D26FA5FC499D","title":"阁楼足球会所","lon":"121.554924","lat":"31.271301","category":"248","category_name":"生活娱乐","address":"杨浦区贵阳路38号(近杨树浦路)"},{"poiid":"B2094757D065A3F5499B","title":"黄浦江游轮","lon":"121.55846688","lat":"31.26314064","category":"247","category_name":"餐饮美食","address":"上海黄浦江上"},{"poiid":"B2094655D26BA2F5479E","title":"浦东大道居家桥路","lon":"121.56168","lat":"31.25906","category":"38","category_name":"公交车站","address":"上海浦东新区浦东大道居家桥路口"},{"poiid":"B2094655D265A0F5499C","title":"皇中皇酒家","lon":"121.57019","lat":"31.26698","category":"70","category_name":"综合酒楼","address":"金桥路187号"},{"poiid":"B2094654D568A7FA419E","title":"上海海事大学高等技术学院","lon":"121.56855","lat":"31.26329","category":"52","category_name":"高等院校","address":"浦东大道2600"},{"poiid":"B2094654DB69AAF5459E","title":"江东医院","lon":"121.57192","lat":"31.26478","category":"162","category_name":"医院","address":"浦东新区金桥路300号(近浦东大道)"},{"poiid":"B2094753D26EA6F44699","title":"金星舞蹈团","lon":"121.559699","lat":"31.271037","category":"500","category_name":"未知分类","address":"上海市 杨浦区杨树浦路2866号"},{"poiid":"B2094752D26DA6FF4599","title":"珍得巧克力剧院","lon":"121.55661","lat":"31.2713","category":"67","category_name":"甜品店","address":"杨浦区杨树浦路2866号上海国际时尚中心内(近内江路)"},{"poiid":"B2094655D264ABF44899","title":"喜士多便利店","lon":"121.56669","lat":"31.2624","category":"117","category_name":"便民商店/便利店","address":"浦东大道2596号-11(临)"},{"poiid":"B2094654DB64AAF54193","title":"上海海事大学东校区学生宿舍5号楼","lon":"121.56684","lat":"31.26252","category":"47","category_name":"住宅区","address":"浦东大道2596"}]