[{"poiid":"B2094757D06FA1F44898","title":"上海大学宏基黑暗料理街","lon":"121.38597869","lat":"31.315303802","category":"111","category_name":"休闲餐饮场所","address":"宝山区聚丰园路5弄31号宏基广场附近(近上海大学)"},{"poiid":"B2094757D06FA0FF419F","title":"大地数字影院(弘基店)","lon":"121.38606388","lat":"31.315299962","category":"178","category_name":"电影院","address":"宝山区聚丰园路57弄3号弘基文化休闲广场1号楼商场3楼(近上海大学)"},{"poiid":"B2094757D06EAAF44498","title":"上海大学地铁站","lon":"121.38904727","lat":"31.320612748","category":"36","category_name":"地铁站","address":"上海轨道交通 七号线 轨交上海大学站 7"},{"poiid":"B2094654DB6AABF5419C","title":"新世纪大学生村","lon":"121.38644","lat":"31.314575","category":"47","category_name":"住宅区","address":"上大路1259号"},{"poiid":"B2094757D068A4FB469D","title":"上海大学北门","lon":"121.3890661","lat":"31.3204244008","category":"52","category_name":"高等院校","address":"上海上大北门"},{"poiid":"B2094654D465A4FE4893","title":"弘基文化休闲广场","lon":"121.38684","lat":"31.31571","category":"248","category_name":"生活娱乐","address":"宝山区聚丰园路55号弘基广场31号(近祁连山路)"},{"poiid":"B2094654D465A6F8489A","title":"麦当劳 祁连山路店 McDonald's","lon":"121.382868054","lat":"31.315055793","category":"68","category_name":"快餐厅","address":"宝山区聚丰园路205号(近祁连山路)"},{"poiid":"B2094655D36DA1FA4299","title":"聚丰景都","lon":"121.37756","lat":"31.31431","category":"47","category_name":"住宅区","address":"上海市宝山区聚丰园路628弄"},{"poiid":"B2094757D068A3FE439B","title":"沃尔玛(祁连店)","lon":"121.38216895","lat":"31.3150999219","category":"118","category_name":"超级市场","address":"宝山区聚丰园路205号(近祁连山路)"},{"poiid":"B2094757D06FA6FC479B","title":"上海大学食堂益新餐厅","lon":"121.389242649","lat":"31.3161704631","category":"68","category_name":"快餐厅","address":"宝山区上大路99号上海大学内(近南陈路)"},{"poiid":"B2094757D068A7FD409C","title":"聚丰园路祁连山路","lon":"121.38280487","lat":"31.31508255","category":"500","category_name":"未知分类","address":"上海聚丰园路祁连山路"},{"poiid":"B2094757D06FABFE4598","title":"三村米线","lon":"121.38589477","lat":"31.315925598","category":"83","category_name":"云贵菜","address":"上海聚丰园路43号"},{"poiid":"B2094757D06FA4F4469F","title":"老盛昌苏州汤包馆(聚丰园路店)","lon":"121.38215","lat":"31.31498","category":"87","category_name":"特色／地方风味餐厅","address":"宝山区聚丰园路300号(近祁连山路)"},{"poiid":"B2094757D065A5F5459F","title":"巨麦KTV(聚丰园路弘基广场)","lon":"121.386626974","lat":"31.3150604313","category":"170","category_name":"KTV","address":"宝山区聚丰园路55号弘基广场3楼(近上海大学)"},{"poiid":"B2094757D468A6FB4298","title":"肯德基 聚丰店 KFC","lon":"121.382822054","lat":"31.314975793","category":"68","category_name":"快餐厅","address":"宝山区聚丰园路205号(近祁连山路)"},{"poiid":"B2094757D06FABF84198","title":"上海大学食堂山明餐厅","lon":"121.38868475","lat":"31.317655307","category":"68","category_name":"快餐厅","address":"宝山区上大路99号上海大学内(近南陈路)"},{"poiid":"B2094757D068A7FE409A","title":"轩乐诗 聚丰园路店","lon":"121.381078054","lat":"31.315256793","category":"86","category_name":"火锅店","address":"宝山区聚丰园路300号(近祁连山路)"},{"poiid":"B2094654D465A6F8409C","title":"学林苑","lon":"121.38508","lat":"31.314762","category":"47","category_name":"住宅区","address":"聚丰园路188弄"},{"poiid":"B2094757D16DA4FE499A","title":"上海大学D楼","lon":"121.37990145","lat":"31.320033816","category":"500","category_name":"未知分类","address":"上海C楼旁边"},{"poiid":"B2094757D06AA3F5449A","title":"祁连二村","lon":"121.384","lat":"31.3208","category":"252","category_name":"楼宇机构","address":"祁连山路60弄"},{"poiid":"B2094757D06FAAFB4198","title":"85度C(聚丰园店)","lon":"121.38209","lat":"31.31392","category":"112","category_name":"糕饼店","address":"宝山区聚丰园路300-7号1楼(近祁连山路)"},{"poiid":"B2094654D465A6FD459A","title":"祁连地段医院","lon":"121.38204","lat":"31.31738","category":"162","category_name":"医院","address":"宝山区祁连山路2851号"},{"poiid":"B2094654D465A6FF469E","title":"美铭酒楼","lon":"121.381167054","lat":"31.315202793","category":"76","category_name":"上海菜","address":"宝山区聚丰园路300号(近祁连山路)"},{"poiid":"B2094750D769A2FD4999","title":"在汉城(弘基店)","lon":"121.386","lat":"31.3152","category":"96","category_name":"韩国料理","address":"宝山区聚丰园路55号弘基广场2楼(近祁连山路)"},{"poiid":"B2094654D465A6F84893","title":"祁连一村","lon":"121.38074","lat":"31.312012","category":"47","category_name":"住宅区","address":"祁连山路2500弄1-199号"},{"poiid":"B2094654DB6AABF54098","title":"锦泰苑","lon":"121.38061","lat":"31.317333","category":"47","category_name":"住宅区","address":"上海祁连山路2828弄"},{"poiid":"B2094654D465A6FD469E","title":"上海市物资学校(锦秋路)","lon":"121.37986","lat":"31.31889","category":"55","category_name":"中学","address":"锦秋路1333号"},{"poiid":"B2094757D66BA3F4499F","title":"伸立大酒店","lon":"121.3787386","lat":"31.322883","category":"76","category_name":"上海菜","address":"宝山区祁华路218号"},{"poiid":"B2094757D064ABF44193","title":"乐翻天量贩式KTV","lon":"121.38512","lat":"31.31515","category":"172","category_name":"酒吧","address":"宝山区聚丰园路165号沃尔玛超市3楼(近祁连山路)"},{"poiid":"B2094654DB69AAFD499F","title":"西湘苗家","lon":"121.38588","lat":"31.31585","category":"77","category_name":"湖南菜","address":"宝山区聚丰园路9弄88号弘基广场2楼(近上海大学)"},{"poiid":"B2094757D06AABFE409C","title":"锦龙苑","lon":"121.37867","lat":"31.313692","category":"500","category_name":"未知分类","address":"上海市宝山区祁连山路2618号"},{"poiid":"B2094757D06AA1FC419E","title":"上海大学EJ楼","lon":"121.3864169","lat":"31.315439891","category":"253","category_name":"校园生活","address":"上海大学EJ楼"},{"poiid":"B2094654D46BAAFC4093","title":"祁连二村C街坊","lon":"121.384","lat":"31.3204","category":"47","category_name":"住宅区","address":"聚丰园路84号-177号"},{"poiid":"B2094654D465A4FF419B","title":"聚丰园路步行街","lon":"121.38684","lat":"31.31574","category":"116","category_name":"特色商业街","address":""},{"poiid":"B2094655D36CA0FD469B","title":"锦秋路祁连山路","lon":"121.38027","lat":"31.31897","category":"38","category_name":"公交车站","address":""},{"poiid":"B2094654D465A6F8469E","title":"潇湘酒楼","lon":"121.38444","lat":"31.31513","category":"77","category_name":"湖南菜","address":"宝山区聚丰园路131号(近宏基广场)"},{"poiid":"B2094655D26AA0F9459A","title":"地铁祁连山路站","lon":"121.38171","lat":"31.31929","category":"36","category_name":"地铁站","address":""},{"poiid":"B2094654DB6AABF5459C","title":"好又多","lon":"121.38306","lat":"31.31509","category":"118","category_name":"超级市场","address":"聚丰园路205"},{"poiid":"B2094654DB69A7FF499B","title":"祁南二村","lon":"121.3814","lat":"31.31759","category":"47","category_name":"住宅区","address":"宝山区祁连山路"},{"poiid":"B2094654DB6AA1FA479D","title":"祁南新村","lon":"121.38363","lat":"31.31933","category":"47","category_name":"住宅区","address":"宝山区锦秋路1188弄1-98号"},{"poiid":"B2094757D16BA7FF469D","title":"祁连派出所","lon":"121.381213","lat":"31.319226","category":"609","category_name":"警察局","address":"宝山区锦秋路1281号"},{"poiid":"B2094757D465A5FF4999","title":"巴麦隆烤肉 聚丰园路店","lon":"121.386541054","lat":"31.315685793","category":"68","category_name":"快餐厅","address":"宝山区聚丰园路9弄68号弘基广场2楼(近上海大学)"},{"poiid":"B2094757D068ABFB4099","title":"红乐坊台湾小食","lon":"121.385513","lat":"31.31554","category":"91","category_name":"台湾菜","address":"宝山区聚丰园路35号(豪大大鸡排.E68右側)(上大西门近弘基广场)"},{"poiid":"B2094757D06BA1FE4298","title":"七里香烧烤王","lon":"121.386541054","lat":"31.315685793","category":"68","category_name":"快餐厅","address":"宝山区聚丰园路55号弘基广场内(近祁连山路)"},{"poiid":"B2094757D06BA0F4459C","title":"110终点站","lon":"121.38143385","lat":"31.3141215532","category":"38","category_name":"公交车站","address":"上海祁连新村"},{"poiid":"B2094757D66AA0F9449D","title":"托馥咖啡 聚丰园路店","lon":"121.386541054","lat":"31.315685793","category":"260","category_name":"其他","address":"宝山区聚丰园路55号弘基广场门口(近祁连山路)"},{"poiid":"B2094654DB6AA3FC4999","title":"韩亭苑 一号店","lon":"121.386541054","lat":"31.315685793","category":"96","category_name":"韩国料理","address":"宝山区聚丰园路55号弘基广场内(近祁连山路)"},{"poiid":"B2094757D065A2FD4698","title":"祁连四村","lon":"121.38197","lat":"31.317041","category":"252","category_name":"楼宇机构","address":"上海祁连山路2777弄"},{"poiid":"B2094654DB6AA2FC479F","title":"味之都 祁连店 Wish Doing","lon":"121.382822054","lat":"31.314952793","category":"68","category_name":"快餐厅","address":"宝山区聚丰园路205号(近祁连山路)"},{"poiid":"B2094654D465A6FF4599","title":"良友金伴便利连锁No.755","lon":"121.37993","lat":"31.31891","category":"117","category_name":"便民商店/便利店","address":"锦秋路1327"},{"poiid":"B2094757D06FA1F44898","title":"上海大学宏基黑暗料理街","lon":"121.38597869","lat":"31.315303802","category":"111","category_name":"休闲餐饮场所","address":"宝山区聚丰园路5弄31号宏基广场附近(近上海大学)"},{"poiid":"B2094757D06FA0FF419F","title":"大地数字影院(弘基店)","lon":"121.38606388","lat":"31.315299962","category":"178","category_name":"电影院","address":"宝山区聚丰园路57弄3号弘基文化休闲广场1号楼商场3楼(近上海大学)"},{"poiid":"B2094757D06EAAF44498","title":"上海大学地铁站","lon":"121.38904727","lat":"31.320612748","category":"36","category_name":"地铁站","address":"上海轨道交通 七号线 轨交上海大学站 7"},{"poiid":"B2094654DB6AABF5419C","title":"新世纪大学生村","lon":"121.38644","lat":"31.314575","category":"47","category_name":"住宅区","address":"上大路1259号"},{"poiid":"B2094757D068A4FB469D","title":"上海大学北门","lon":"121.3890661","lat":"31.3204244008","category":"52","category_name":"高等院校","address":"上海上大北门"},{"poiid":"B2094654D465A4FE4893","title":"弘基文化休闲广场","lon":"121.38684","lat":"31.31571","category":"248","category_name":"生活娱乐","address":"宝山区聚丰园路55号弘基广场31号(近祁连山路)"},{"poiid":"B2094654D465A6F8489A","title":"麦当劳 祁连山路店 McDonald's","lon":"121.382868054","lat":"31.315055793","category":"68","category_name":"快餐厅","address":"宝山区聚丰园路205号(近祁连山路)"},{"poiid":"B2094655D36DA1FA4299","title":"聚丰景都","lon":"121.37756","lat":"31.31431","category":"47","category_name":"住宅区","address":"上海市宝山区聚丰园路628弄"},{"poiid":"B2094757D068A3FE439B","title":"沃尔玛(祁连店)","lon":"121.38216895","lat":"31.3150999219","category":"118","category_name":"超级市场","address":"宝山区聚丰园路205号(近祁连山路)"},{"poiid":"B2094757D06FA6FC479B","title":"上海大学食堂益新餐厅","lon":"121.389242649","lat":"31.3161704631","category":"68","category_name":"快餐厅","address":"宝山区上大路99号上海大学内(近南陈路)"},{"poiid":"B2094757D068A7FD409C","title":"聚丰园路祁连山路","lon":"121.38280487","lat":"31.31508255","category":"500","category_name":"未知分类","address":"上海聚丰园路祁连山路"},{"poiid":"B2094757D06FABFE4598","title":"三村米线","lon":"121.38589477","lat":"31.315925598","category":"83","category_name":"云贵菜","address":"上海聚丰园路43号"},{"poiid":"B2094757D06FA4F4469F","title":"老盛昌苏州汤包馆(聚丰园路店)","lon":"121.38215","lat":"31.31498","category":"87","category_name":"特色／地方风味餐厅","address":"宝山区聚丰园路300号(近祁连山路)"},{"poiid":"B2094757D065A5F5459F","title":"巨麦KTV(聚丰园路弘基广场)","lon":"121.386626974","lat":"31.3150604313","category":"170","category_name":"KTV","address":"宝山区聚丰园路55号弘基广场3楼(近上海大学)"},{"poiid":"B2094757D468A6FB4298","title":"肯德基 聚丰店 KFC","lon":"121.382822054","lat":"31.314975793","category":"68","category_name":"快餐厅","address":"宝山区聚丰园路205号(近祁连山路)"},{"poiid":"B2094757D06FABF84198","title":"上海大学食堂山明餐厅","lon":"121.38868475","lat":"31.317655307","category":"68","category_name":"快餐厅","address":"宝山区上大路99号上海大学内(近南陈路)"},{"poiid":"B2094757D068A7FE409A","title":"轩乐诗 聚丰园路店","lon":"121.381078054","lat":"31.315256793","category":"86","category_name":"火锅店","address":"宝山区聚丰园路300号(近祁连山路)"},{"poiid":"B2094654D465A6F8409C","title":"学林苑","lon":"121.38508","lat":"31.314762","category":"47","category_name":"住宅区","address":"聚丰园路188弄"},{"poiid":"B2094757D16DA4FE499A","title":"上海大学D楼","lon":"121.37990145","lat":"31.320033816","category":"500","category_name":"未知分类","address":"上海C楼旁边"},{"poiid":"B2094757D06AA3F5449A","title":"祁连二村","lon":"121.384","lat":"31.3208","category":"252","category_name":"楼宇机构","address":"祁连山路60弄"},{"poiid":"B2094757D06FAAFB4198","title":"85度C(聚丰园店)","lon":"121.38209","lat":"31.31392","category":"112","category_name":"糕饼店","address":"宝山区聚丰园路300-7号1楼(近祁连山路)"},{"poiid":"B2094654D465A6FD459A","title":"祁连地段医院","lon":"121.38204","lat":"31.31738","category":"162","category_name":"医院","address":"宝山区祁连山路2851号"},{"poiid":"B2094654D465A6FF469E","title":"美铭酒楼","lon":"121.381167054","lat":"31.315202793","category":"76","category_name":"上海菜","address":"宝山区聚丰园路300号(近祁连山路)"},{"poiid":"B2094750D769A2FD4999","title":"在汉城(弘基店)","lon":"121.386","lat":"31.3152","category":"96","category_name":"韩国料理","address":"宝山区聚丰园路55号弘基广场2楼(近祁连山路)"},{"poiid":"B2094654D465A6F84893","title":"祁连一村","lon":"121.38074","lat":"31.312012","category":"47","category_name":"住宅区","address":"祁连山路2500弄1-199号"},{"poiid":"B2094654DB6AABF54098","title":"锦泰苑","lon":"121.38061","lat":"31.317333","category":"47","category_name":"住宅区","address":"上海祁连山路2828弄"},{"poiid":"B2094654D465A6FD469E","title":"上海市物资学校(锦秋路)","lon":"121.37986","lat":"31.31889","category":"55","category_name":"中学","address":"锦秋路1333号"},{"poiid":"B2094757D66BA3F4499F","title":"伸立大酒店","lon":"121.3787386","lat":"31.322883","category":"76","category_name":"上海菜","address":"宝山区祁华路218号"},{"poiid":"B2094757D064ABF44193","title":"乐翻天量贩式KTV","lon":"121.38512","lat":"31.31515","category":"172","category_name":"酒吧","address":"宝山区聚丰园路165号沃尔玛超市3楼(近祁连山路)"},{"poiid":"B2094654DB69AAFD499F","title":"西湘苗家","lon":"121.38588","lat":"31.31585","category":"77","category_name":"湖南菜","address":"宝山区聚丰园路9弄88号弘基广场2楼(近上海大学)"},{"poiid":"B2094757D06AABFE409C","title":"锦龙苑","lon":"121.37867","lat":"31.313692","category":"500","category_name":"未知分类","address":"上海市宝山区祁连山路2618号"},{"poiid":"B2094757D06AA1FC419E","title":"上海大学EJ楼","lon":"121.3864169","lat":"31.315439891","category":"253","category_name":"校园生活","address":"上海大学EJ楼"},{"poiid":"B2094654D46BAAFC4093","title":"祁连二村C街坊","lon":"121.384","lat":"31.3204","category":"47","category_name":"住宅区","address":"聚丰园路84号-177号"},{"poiid":"B2094654D465A4FF419B","title":"聚丰园路步行街","lon":"121.38684","lat":"31.31574","category":"116","category_name":"特色商业街","address":""},{"poiid":"B2094655D36CA0FD469B","title":"锦秋路祁连山路","lon":"121.38027","lat":"31.31897","category":"38","category_name":"公交车站","address":""},{"poiid":"B2094654D465A6F8469E","title":"潇湘酒楼","lon":"121.38444","lat":"31.31513","category":"77","category_name":"湖南菜","address":"宝山区聚丰园路131号(近宏基广场)"},{"poiid":"B2094655D26AA0F9459A","title":"地铁祁连山路站","lon":"121.38171","lat":"31.31929","category":"36","category_name":"地铁站","address":""},{"poiid":"B2094654DB6AABF5459C","title":"好又多","lon":"121.38306","lat":"31.31509","category":"118","category_name":"超级市场","address":"聚丰园路205"},{"poiid":"B2094654DB69A7FF499B","title":"祁南二村","lon":"121.3814","lat":"31.31759","category":"47","category_name":"住宅区","address":"宝山区祁连山路"},{"poiid":"B2094654DB6AA1FA479D","title":"祁南新村","lon":"121.38363","lat":"31.31933","category":"47","category_name":"住宅区","address":"宝山区锦秋路1188弄1-98号"},{"poiid":"B2094757D16BA7FF469D","title":"祁连派出所","lon":"121.381213","lat":"31.319226","category":"609","category_name":"警察局","address":"宝山区锦秋路1281号"},{"poiid":"B2094757D465A5FF4999","title":"巴麦隆烤肉 聚丰园路店","lon":"121.386541054","lat":"31.315685793","category":"68","category_name":"快餐厅","address":"宝山区聚丰园路9弄68号弘基广场2楼(近上海大学)"},{"poiid":"B2094757D068ABFB4099","title":"红乐坊台湾小食","lon":"121.385513","lat":"31.31554","category":"91","category_name":"台湾菜","address":"宝山区聚丰园路35号(豪大大鸡排.E68右側)(上大西门近弘基广场)"},{"poiid":"B2094757D06BA1FE4298","title":"七里香烧烤王","lon":"121.386541054","lat":"31.315685793","category":"68","category_name":"快餐厅","address":"宝山区聚丰园路55号弘基广场内(近祁连山路)"},{"poiid":"B2094757D06BA0F4459C","title":"110终点站","lon":"121.38143385","lat":"31.3141215532","category":"38","category_name":"公交车站","address":"上海祁连新村"},{"poiid":"B2094757D66AA0F9449D","title":"托馥咖啡 聚丰园路店","lon":"121.386541054","lat":"31.315685793","category":"260","category_name":"其他","address":"宝山区聚丰园路55号弘基广场门口(近祁连山路)"},{"poiid":"B2094654DB6AA3FC4999","title":"韩亭苑 一号店","lon":"121.386541054","lat":"31.315685793","category":"96","category_name":"韩国料理","address":"宝山区聚丰园路55号弘基广场内(近祁连山路)"},{"poiid":"B2094757D065A2FD4698","title":"祁连四村","lon":"121.38197","lat":"31.317041","category":"252","category_name":"楼宇机构","address":"上海祁连山路2777弄"},{"poiid":"B2094654DB6AA2FC479F","title":"味之都 祁连店 Wish Doing","lon":"121.382822054","lat":"31.314952793","category":"68","category_name":"快餐厅","address":"宝山区聚丰园路205号(近祁连山路)"},{"poiid":"B2094654D465A6FF4599","title":"良友金伴便利连锁No.755","lon":"121.37993","lat":"31.31891","category":"117","category_name":"便民商店/便利店","address":"锦秋路1327"},{"poiid":"B2094757D06FA1F44898","title":"上海大学宏基黑暗料理街","lon":"121.38597869","lat":"31.315303802","category":"111","category_name":"休闲餐饮场所","address":"宝山区聚丰园路5弄31号宏基广场附近(近上海大学)"},{"poiid":"B2094757D06FA0FF419F","title":"大地数字影院(弘基店)","lon":"121.38606388","lat":"31.315299962","category":"178","category_name":"电影院","address":"宝山区聚丰园路57弄3号弘基文化休闲广场1号楼商场3楼(近上海大学)"},{"poiid":"B2094757D06EAAF44498","title":"上海大学地铁站","lon":"121.38904727","lat":"31.320612748","category":"36","category_name":"地铁站","address":"上海轨道交通 七号线 轨交上海大学站 7"},{"poiid":"B2094654DB6AABF5419C","title":"新世纪大学生村","lon":"121.38644","lat":"31.314575","category":"47","category_name":"住宅区","address":"上大路1259号"},{"poiid":"B2094757D068A4FB469D","title":"上海大学北门","lon":"121.3890661","lat":"31.3204244008","category":"52","category_name":"高等院校","address":"上海上大北门"},{"poiid":"B2094654D465A4FE4893","title":"弘基文化休闲广场","lon":"121.38684","lat":"31.31571","category":"248","category_name":"生活娱乐","address":"宝山区聚丰园路55号弘基广场31号(近祁连山路)"},{"poiid":"B2094654D465A6F8489A","title":"麦当劳 祁连山路店 McDonald's","lon":"121.382868054","lat":"31.315055793","category":"68","category_name":"快餐厅","address":"宝山区聚丰园路205号(近祁连山路)"},{"poiid":"B2094655D36DA1FA4299","title":"聚丰景都","lon":"121.37756","lat":"31.31431","category":"47","category_name":"住宅区","address":"上海市宝山区聚丰园路628弄"},{"poiid":"B2094757D068A3FE439B","title":"沃尔玛(祁连店)","lon":"121.38216895","lat":"31.3150999219","category":"118","category_name":"超级市场","address":"宝山区聚丰园路205号(近祁连山路)"},{"poiid":"B2094757D06FA6FC479B","title":"上海大学食堂益新餐厅","lon":"121.389242649","lat":"31.3161704631","category":"68","category_name":"快餐厅","address":"宝山区上大路99号上海大学内(近南陈路)"},{"poiid":"B2094757D068A7FD409C","title":"聚丰园路祁连山路","lon":"121.38280487","lat":"31.31508255","category":"500","category_name":"未知分类","address":"上海聚丰园路祁连山路"},{"poiid":"B2094757D06FABFE4598","title":"三村米线","lon":"121.38589477","lat":"31.315925598","category":"83","category_name":"云贵菜","address":"上海聚丰园路43号"},{"poiid":"B2094757D06FA4F4469F","title":"老盛昌苏州汤包馆(聚丰园路店)","lon":"121.38215","lat":"31.31498","category":"87","category_name":"特色／地方风味餐厅","address":"宝山区聚丰园路300号(近祁连山路)"},{"poiid":"B2094757D065A5F5459F","title":"巨麦KTV(聚丰园路弘基广场)","lon":"121.386626974","lat":"31.3150604313","category":"170","category_name":"KTV","address":"宝山区聚丰园路55号弘基广场3楼(近上海大学)"},{"poiid":"B2094757D468A6FB4298","title":"肯德基 聚丰店 KFC","lon":"121.382822054","lat":"31.314975793","category":"68","category_name":"快餐厅","address":"宝山区聚丰园路205号(近祁连山路)"},{"poiid":"B2094757D06FABF84198","title":"上海大学食堂山明餐厅","lon":"121.38868475","lat":"31.317655307","category":"68","category_name":"快餐厅","address":"宝山区上大路99号上海大学内(近南陈路)"},{"poiid":"B2094757D068A7FE409A","title":"轩乐诗 聚丰园路店","lon":"121.381078054","lat":"31.315256793","category":"86","category_name":"火锅店","address":"宝山区聚丰园路300号(近祁连山路)"},{"poiid":"B2094654D465A6F8409C","title":"学林苑","lon":"121.38508","lat":"31.314762","category":"47","category_name":"住宅区","address":"聚丰园路188弄"},{"poiid":"B2094757D16DA4FE499A","title":"上海大学D楼","lon":"121.37990145","lat":"31.320033816","category":"500","category_name":"未知分类","address":"上海C楼旁边"},{"poiid":"B2094757D06AA3F5449A","title":"祁连二村","lon":"121.384","lat":"31.3208","category":"252","category_name":"楼宇机构","address":"祁连山路60弄"},{"poiid":"B2094757D06FAAFB4198","title":"85度C(聚丰园店)","lon":"121.38209","lat":"31.31392","category":"112","category_name":"糕饼店","address":"宝山区聚丰园路300-7号1楼(近祁连山路)"},{"poiid":"B2094654D465A6FD459A","title":"祁连地段医院","lon":"121.38204","lat":"31.31738","category":"162","category_name":"医院","address":"宝山区祁连山路2851号"},{"poiid":"B2094654D465A6FF469E","title":"美铭酒楼","lon":"121.381167054","lat":"31.315202793","category":"76","category_name":"上海菜","address":"宝山区聚丰园路300号(近祁连山路)"},{"poiid":"B2094750D769A2FD4999","title":"在汉城(弘基店)","lon":"121.386","lat":"31.3152","category":"96","category_name":"韩国料理","address":"宝山区聚丰园路55号弘基广场2楼(近祁连山路)"},{"poiid":"B2094654D465A6F84893","title":"祁连一村","lon":"121.38074","lat":"31.312012","category":"47","category_name":"住宅区","address":"祁连山路2500弄1-199号"},{"poiid":"B2094654DB6AABF54098","title":"锦泰苑","lon":"121.38061","lat":"31.317333","category":"47","category_name":"住宅区","address":"上海祁连山路2828弄"},{"poiid":"B2094654D465A6FD469E","title":"上海市物资学校(锦秋路)","lon":"121.37986","lat":"31.31889","category":"55","category_name":"中学","address":"锦秋路1333号"},{"poiid":"B2094757D66BA3F4499F","title":"伸立大酒店","lon":"121.3787386","lat":"31.322883","category":"76","category_name":"上海菜","address":"宝山区祁华路218号"},{"poiid":"B2094757D064ABF44193","title":"乐翻天量贩式KTV","lon":"121.38512","lat":"31.31515","category":"172","category_name":"酒吧","address":"宝山区聚丰园路165号沃尔玛超市3楼(近祁连山路)"},{"poiid":"B2094654DB69AAFD499F","title":"西湘苗家","lon":"121.38588","lat":"31.31585","category":"77","category_name":"湖南菜","address":"宝山区聚丰园路9弄88号弘基广场2楼(近上海大学)"},{"poiid":"B2094757D06AABFE409C","title":"锦龙苑","lon":"121.37867","lat":"31.313692","category":"500","category_name":"未知分类","address":"上海市宝山区祁连山路2618号"},{"poiid":"B2094757D06AA1FC419E","title":"上海大学EJ楼","lon":"121.3864169","lat":"31.315439891","category":"253","category_name":"校园生活","address":"上海大学EJ楼"},{"poiid":"B2094654D46BAAFC4093","title":"祁连二村C街坊","lon":"121.384","lat":"31.3204","category":"47","category_name":"住宅区","address":"聚丰园路84号-177号"},{"poiid":"B2094654D465A4FF419B","title":"聚丰园路步行街","lon":"121.38684","lat":"31.31574","category":"116","category_name":"特色商业街","address":""},{"poiid":"B2094655D36CA0FD469B","title":"锦秋路祁连山路","lon":"121.38027","lat":"31.31897","category":"38","category_name":"公交车站","address":""},{"poiid":"B2094654D465A6F8469E","title":"潇湘酒楼","lon":"121.38444","lat":"31.31513","category":"77","category_name":"湖南菜","address":"宝山区聚丰园路131号(近宏基广场)"},{"poiid":"B2094655D26AA0F9459A","title":"地铁祁连山路站","lon":"121.38171","lat":"31.31929","category":"36","category_name":"地铁站","address":""},{"poiid":"B2094654DB6AABF5459C","title":"好又多","lon":"121.38306","lat":"31.31509","category":"118","category_name":"超级市场","address":"聚丰园路205"},{"poiid":"B2094654DB69A7FF499B","title":"祁南二村","lon":"121.3814","lat":"31.31759","category":"47","category_name":"住宅区","address":"宝山区祁连山路"},{"poiid":"B2094654DB6AA1FA479D","title":"祁南新村","lon":"121.38363","lat":"31.31933","category":"47","category_name":"住宅区","address":"宝山区锦秋路1188弄1-98号"},{"poiid":"B2094757D16BA7FF469D","title":"祁连派出所","lon":"121.381213","lat":"31.319226","category":"609","category_name":"警察局","address":"宝山区锦秋路1281号"},{"poiid":"B2094757D465A5FF4999","title":"巴麦隆烤肉 聚丰园路店","lon":"121.386541054","lat":"31.315685793","category":"68","category_name":"快餐厅","address":"宝山区聚丰园路9弄68号弘基广场2楼(近上海大学)"},{"poiid":"B2094757D068ABFB4099","title":"红乐坊台湾小食","lon":"121.385513","lat":"31.31554","category":"91","category_name":"台湾菜","address":"宝山区聚丰园路35号(豪大大鸡排.E68右側)(上大西门近弘基广场)"},{"poiid":"B2094757D06BA1FE4298","title":"七里香烧烤王","lon":"121.386541054","lat":"31.315685793","category":"68","category_name":"快餐厅","address":"宝山区聚丰园路55号弘基广场内(近祁连山路)"},{"poiid":"B2094757D06BA0F4459C","title":"110终点站","lon":"121.38143385","lat":"31.3141215532","category":"38","category_name":"公交车站","address":"上海祁连新村"},{"poiid":"B2094757D66AA0F9449D","title":"托馥咖啡 聚丰园路店","lon":"121.386541054","lat":"31.315685793","category":"260","category_name":"其他","address":"宝山区聚丰园路55号弘基广场门口(近祁连山路)"},{"poiid":"B2094654DB6AA3FC4999","title":"韩亭苑 一号店","lon":"121.386541054","lat":"31.315685793","category":"96","category_name":"韩国料理","address":"宝山区聚丰园路55号弘基广场内(近祁连山路)"},{"poiid":"B2094757D065A2FD4698","title":"祁连四村","lon":"121.38197","lat":"31.317041","category":"252","category_name":"楼宇机构","address":"上海祁连山路2777弄"},{"poiid":"B2094654DB6AA2FC479F","title":"味之都 祁连店 Wish Doing","lon":"121.382822054","lat":"31.314952793","category":"68","category_name":"快餐厅","address":"宝山区聚丰园路205号(近祁连山路)"},{"poiid":"B2094654D465A6FF4599","title":"良友金伴便利连锁No.755","lon":"121.37993","lat":"31.31891","category":"117","category_name":"便民商店/便利店","address":"锦秋路1327"},{"poiid":"B2094757D06FA1F44898","title":"上海大学宏基黑暗料理街","lon":"121.38597869","lat":"31.315303802","category":"111","category_name":"休闲餐饮场所","address":"宝山区聚丰园路5弄31号宏基广场附近(近上海大学)"},{"poiid":"B2094757D06FA0FF419F","title":"大地数字影院(弘基店)","lon":"121.38606388","lat":"31.315299962","category":"178","category_name":"电影院","address":"宝山区聚丰园路57弄3号弘基文化休闲广场1号楼商场3楼(近上海大学)"},{"poiid":"B2094757D06EAAF44498","title":"上海大学地铁站","lon":"121.38904727","lat":"31.320612748","category":"36","category_name":"地铁站","address":"上海轨道交通 七号线 轨交上海大学站 7"},{"poiid":"B2094654DB6AABF5419C","title":"新世纪大学生村","lon":"121.38644","lat":"31.314575","category":"47","category_name":"住宅区","address":"上大路1259号"},{"poiid":"B2094757D068A4FB469D","title":"上海大学北门","lon":"121.3890661","lat":"31.3204244008","category":"52","category_name":"高等院校","address":"上海上大北门"},{"poiid":"B2094654D465A4FE4893","title":"弘基文化休闲广场","lon":"121.38684","lat":"31.31571","category":"248","category_name":"生活娱乐","address":"宝山区聚丰园路55号弘基广场31号(近祁连山路)"},{"poiid":"B2094654D465A6F8489A","title":"麦当劳 祁连山路店 McDonald's","lon":"121.382868054","lat":"31.315055793","category":"68","category_name":"快餐厅","address":"宝山区聚丰园路205号(近祁连山路)"},{"poiid":"B2094655D36DA1FA4299","title":"聚丰景都","lon":"121.37756","lat":"31.31431","category":"47","category_name":"住宅区","address":"上海市宝山区聚丰园路628弄"},{"poiid":"B2094757D068A3FE439B","title":"沃尔玛(祁连店)","lon":"121.38216895","lat":"31.3150999219","category":"118","category_name":"超级市场","address":"宝山区聚丰园路205号(近祁连山路)"},{"poiid":"B2094757D06FA6FC479B","title":"上海大学食堂益新餐厅","lon":"121.389242649","lat":"31.3161704631","category":"68","category_name":"快餐厅","address":"宝山区上大路99号上海大学内(近南陈路)"},{"poiid":"B2094757D068A7FD409C","title":"聚丰园路祁连山路","lon":"121.38280487","lat":"31.31508255","category":"500","category_name":"未知分类","address":"上海聚丰园路祁连山路"},{"poiid":"B2094757D06FABFE4598","title":"三村米线","lon":"121.38589477","lat":"31.315925598","category":"83","category_name":"云贵菜","address":"上海聚丰园路43号"},{"poiid":"B2094757D06FA4F4469F","title":"老盛昌苏州汤包馆(聚丰园路店)","lon":"121.38215","lat":"31.31498","category":"87","category_name":"特色／地方风味餐厅","address":"宝山区聚丰园路300号(近祁连山路)"},{"poiid":"B2094757D065A5F5459F","title":"巨麦KTV(聚丰园路弘基广场)","lon":"121.386626974","lat":"31.3150604313","category":"170","category_name":"KTV","address":"宝山区聚丰园路55号弘基广场3楼(近上海大学)"},{"poiid":"B2094757D468A6FB4298","title":"肯德基 聚丰店 KFC","lon":"121.382822054","lat":"31.314975793","category":"68","category_name":"快餐厅","address":"宝山区聚丰园路205号(近祁连山路)"},{"poiid":"B2094757D06FABF84198","title":"上海大学食堂山明餐厅","lon":"121.38868475","lat":"31.317655307","category":"68","category_name":"快餐厅","address":"宝山区上大路99号上海大学内(近南陈路)"},{"poiid":"B2094757D068A7FE409A","title":"轩乐诗 聚丰园路店","lon":"121.381078054","lat":"31.315256793","category":"86","category_name":"火锅店","address":"宝山区聚丰园路300号(近祁连山路)"},{"poiid":"B2094654D465A6F8409C","title":"学林苑","lon":"121.38508","lat":"31.314762","category":"47","category_name":"住宅区","address":"聚丰园路188弄"},{"poiid":"B2094757D16DA4FE499A","title":"上海大学D楼","lon":"121.37990145","lat":"31.320033816","category":"500","category_name":"未知分类","address":"上海C楼旁边"},{"poiid":"B2094757D06AA3F5449A","title":"祁连二村","lon":"121.384","lat":"31.3208","category":"252","category_name":"楼宇机构","address":"祁连山路60弄"},{"poiid":"B2094757D06FAAFB4198","title":"85度C(聚丰园店)","lon":"121.38209","lat":"31.31392","category":"112","category_name":"糕饼店","address":"宝山区聚丰园路300-7号1楼(近祁连山路)"},{"poiid":"B2094654D465A6FD459A","title":"祁连地段医院","lon":"121.38204","lat":"31.31738","category":"162","category_name":"医院","address":"宝山区祁连山路2851号"},{"poiid":"B2094654D465A6FF469E","title":"美铭酒楼","lon":"121.381167054","lat":"31.315202793","category":"76","category_name":"上海菜","address":"宝山区聚丰园路300号(近祁连山路)"},{"poiid":"B2094750D769A2FD4999","title":"在汉城(弘基店)","lon":"121.386","lat":"31.3152","category":"96","category_name":"韩国料理","address":"宝山区聚丰园路55号弘基广场2楼(近祁连山路)"},{"poiid":"B2094654D465A6F84893","title":"祁连一村","lon":"121.38074","lat":"31.312012","category":"47","category_name":"住宅区","address":"祁连山路2500弄1-199号"},{"poiid":"B2094654DB6AABF54098","title":"锦泰苑","lon":"121.38061","lat":"31.317333","category":"47","category_name":"住宅区","address":"上海祁连山路2828弄"},{"poiid":"B2094654D465A6FD469E","title":"上海市物资学校(锦秋路)","lon":"121.37986","lat":"31.31889","category":"55","category_name":"中学","address":"锦秋路1333号"},{"poiid":"B2094757D66BA3F4499F","title":"伸立大酒店","lon":"121.3787386","lat":"31.322883","category":"76","category_name":"上海菜","address":"宝山区祁华路218号"},{"poiid":"B2094757D064ABF44193","title":"乐翻天量贩式KTV","lon":"121.38512","lat":"31.31515","category":"172","category_name":"酒吧","address":"宝山区聚丰园路165号沃尔玛超市3楼(近祁连山路)"},{"poiid":"B2094654DB69AAFD499F","title":"西湘苗家","lon":"121.38588","lat":"31.31585","category":"77","category_name":"湖南菜","address":"宝山区聚丰园路9弄88号弘基广场2楼(近上海大学)"},{"poiid":"B2094757D06AABFE409C","title":"锦龙苑","lon":"121.37867","lat":"31.313692","category":"500","category_name":"未知分类","address":"上海市宝山区祁连山路2618号"},{"poiid":"B2094757D06AA1FC419E","title":"上海大学EJ楼","lon":"121.3864169","lat":"31.315439891","category":"253","category_name":"校园生活","address":"上海大学EJ楼"},{"poiid":"B2094654D46BAAFC4093","title":"祁连二村C街坊","lon":"121.384","lat":"31.3204","category":"47","category_name":"住宅区","address":"聚丰园路84号-177号"},{"poiid":"B2094654D465A4FF419B","title":"聚丰园路步行街","lon":"121.38684","lat":"31.31574","category":"116","category_name":"特色商业街","address":""},{"poiid":"B2094655D36CA0FD469B","title":"锦秋路祁连山路","lon":"121.38027","lat":"31.31897","category":"38","category_name":"公交车站","address":""},{"poiid":"B2094654D465A6F8469E","title":"潇湘酒楼","lon":"121.38444","lat":"31.31513","category":"77","category_name":"湖南菜","address":"宝山区聚丰园路131号(近宏基广场)"},{"poiid":"B2094655D26AA0F9459A","title":"地铁祁连山路站","lon":"121.38171","lat":"31.31929","category":"36","category_name":"地铁站","address":""},{"poiid":"B2094654DB6AABF5459C","title":"好又多","lon":"121.38306","lat":"31.31509","category":"118","category_name":"超级市场","address":"聚丰园路205"},{"poiid":"B2094654DB69A7FF499B","title":"祁南二村","lon":"121.3814","lat":"31.31759","category":"47","category_name":"住宅区","address":"宝山区祁连山路"},{"poiid":"B2094654DB6AA1FA479D","title":"祁南新村","lon":"121.38363","lat":"31.31933","category":"47","category_name":"住宅区","address":"宝山区锦秋路1188弄1-98号"},{"poiid":"B2094757D16BA7FF469D","title":"祁连派出所","lon":"121.381213","lat":"31.319226","category":"609","category_name":"警察局","address":"宝山区锦秋路1281号"},{"poiid":"B2094757D465A5FF4999","title":"巴麦隆烤肉 聚丰园路店","lon":"121.386541054","lat":"31.315685793","category":"68","category_name":"快餐厅","address":"宝山区聚丰园路9弄68号弘基广场2楼(近上海大学)"},{"poiid":"B2094757D068ABFB4099","title":"红乐坊台湾小食","lon":"121.385513","lat":"31.31554","category":"91","category_name":"台湾菜","address":"宝山区聚丰园路35号(豪大大鸡排.E68右側)(上大西门近弘基广场)"},{"poiid":"B2094757D06BA1FE4298","title":"七里香烧烤王","lon":"121.386541054","lat":"31.315685793","category":"68","category_name":"快餐厅","address":"宝山区聚丰园路55号弘基广场内(近祁连山路)"},{"poiid":"B2094757D06BA0F4459C","title":"110终点站","lon":"121.38143385","lat":"31.3141215532","category":"38","category_name":"公交车站","address":"上海祁连新村"},{"poiid":"B2094757D66AA0F9449D","title":"托馥咖啡 聚丰园路店","lon":"121.386541054","lat":"31.315685793","category":"260","category_name":"其他","address":"宝山区聚丰园路55号弘基广场门口(近祁连山路)"},{"poiid":"B2094654DB6AA3FC4999","title":"韩亭苑 一号店","lon":"121.386541054","lat":"31.315685793","category":"96","category_name":"韩国料理","address":"宝山区聚丰园路55号弘基广场内(近祁连山路)"},{"poiid":"B2094757D065A2FD4698","title":"祁连四村","lon":"121.38197","lat":"31.317041","category":"252","category_name":"楼宇机构","address":"上海祁连山路2777弄"},{"poiid":"B2094654DB6AA2FC479F","title":"味之都 祁连店 Wish Doing","lon":"121.382822054","lat":"31.314952793","category":"68","category_name":"快餐厅","address":"宝山区聚丰园路205号(近祁连山路)"},{"poiid":"B2094654D465A6FF4599","title":"良友金伴便利连锁No.755","lon":"121.37993","lat":"31.31891","category":"117","category_name":"便民商店/便利店","address":"锦秋路1327"}]