[{"poiid":"B2094654DA69A7FB489A","title":"渣打银行大厦","lon":"121.516","lat":"31.2415","category":"46","category_name":"楼宇","address":"浦东区金融贸易区D3-5"},{"poiid":"B2094655D26FA5F9439B","title":"上海证券大厦","lon":"121.517707","lat":"31.241749","category":"46","category_name":"楼宇","address":"浦东新区浦东南路528号"},{"poiid":"B2094757D06FA7F44199","title":"光头烧烤吧(南泉北路店)","lon":"121.51594","lat":"31.23765","category":"68","category_name":"快餐厅","address":"浦东新区南泉北路47号(近东方医院)"},{"poiid":"B209475CD564A7F84392","title":"上海滩浦东香格里拉店","lon":"121.50058","lat":"31.23634","category":"119","category_name":"商场","address":"浦东富成路33号香格里拉酒店内大堂层"},{"poiid":"B2094757D069A7F4429B","title":"浦东新舞台","lon":"121.51503","lat":"31.23892","category":"179","category_name":"音乐厅","address":"浦东新区浦东大道143号(南泉北路浦东大道)"},{"poiid":"B2094757D06FA2FF4099","title":"中国保险大厦","lon":"121.516","lat":"31.2421","category":"46","category_name":"楼宇","address":"浦东临港新城主城区申港大道200号"},{"poiid":"B2094757D06FA1FE489C","title":"上海市房地产交易中心","lon":"121.515980363","lat":"31.2356323484","category":"46","category_name":"楼宇","address":"上海浦东新区南泉北路201号(栖霞路口)"},{"poiid":"B2094655D26DA7F84399","title":"房地大厦","lon":"121.51593","lat":"31.23556","category":"46","category_name":"楼宇","address":"昌平区回龙观镇国际信息产业基地高新二街"},{"poiid":"B2094757D068A1FA4999","title":"西安5号米皮","lon":"121.51563","lat":"31.23721","category":"68","category_name":"快餐厅","address":"浦东新区南泉北路51号-4(近招远路)"},{"poiid":"B2094757D068A6FD489F","title":"永华大厦","lon":"121.51416015","lat":"31.238700866","category":"46","category_name":"楼宇","address":"浦东大道138号"},{"poiid":"B2094757D068A3F94192","title":"东北四季饺子王(浦东大道店)","lon":"121.51492","lat":"31.23906","category":"82","category_name":"东北菜","address":"上海浦东新区浦东大道143号甲(即墨路口)"},{"poiid":"B2094750D665A4FA489D","title":"花ちゃんの台所","lon":"121.515","lat":"31.2359","category":"95","category_name":"日本料理","address":"浦东新区栖霞路41号(近南泉北路)"},{"poiid":"B2094757D56CAAFB469F","title":"二子龙虾 东昌店","lon":"121.514945054","lat":"31.237452793","category":"68","category_name":"快餐厅","address":"浦东新区南泉北路51号(近招远路)"},{"poiid":"B2094757D068A5F8459B","title":"月亮生煎大王","lon":"121.51692","lat":"31.23806","category":"68","category_name":"快餐厅","address":"浦东新区崂山路80号101室(近浦东大道)"},{"poiid":"B2094757D06FAAFF4693","title":"大壶春(浦东总店)","lon":"121.51408","lat":"31.23824","category":"68","category_name":"快餐厅","address":"浦东新区浦东大道136弄4-6号(近即墨路)"},{"poiid":"B2094655D264ABF94793","title":"富橙投资","lon":"121.51634","lat":"31.23925","category":"46","category_name":"楼宇","address":"浦东区浦东大道288号"},{"poiid":"B2094757D06AA7F8429A","title":"德兴面馆(浦东店)","lon":"121.5153","lat":"31.2387","category":"68","category_name":"快餐厅","address":"浦东新区南泉北路1号(浦东大道口)"},{"poiid":"B2094757D164A2F9429C","title":"光头烧烤","lon":"121.51228","lat":"31.24018","category":"68","category_name":"快餐厅","address":"浦东新区崂山路47号(东昌电影院)"},{"poiid":"B2094757D068A1FC429F","title":"东昌电影院","lon":"121.516061","lat":"31.237536","category":"178","category_name":"电影院","address":"南泉北路150"},{"poiid":"B2094757D16BA7FE4793","title":"黄浦江边","lon":"121.51653933","lat":"31.239108522","category":"500","category_name":"未知分类","address":"上海钱仓站"},{"poiid":"B2094654DA69A0FD4792","title":"半岛鱼翅潮州酒楼","lon":"121.51827247863","lat":"31.24055145864","category":"72","category_name":"广东菜","address":"浦东新区浦东大道281号2楼(浦东大道荣成路)"},{"poiid":"B2094757D065A2FD479B","title":"老姚烧烤","lon":"121.51579","lat":"31.23748","category":"68","category_name":"快餐厅","address":"浦东新区南泉北路51号(近招远路)"},{"poiid":"B2094654DA69A0FD4793","title":"东海宾馆","lon":"121.51625","lat":"31.23986","category":"215","category_name":"三星级宾馆","address":"浦东新区浦东大道281号(近东方路)"},{"poiid":"B2094757D66DABFB479E","title":"名盛串城","lon":"121.515641738","lat":"31.2376644585","category":"96","category_name":"韩国料理","address":"浦东新区南泉北路53号(近浦东大道)"},{"poiid":"B2094654DA69A7FD479B","title":"东昌中学东校","lon":"121.51871","lat":"31.23801","category":"55","category_name":"中学","address":"崂山路200"},{"poiid":"B2094654DA69A7FE459A","title":"崂山五村","lon":"121.51745","lat":"31.23745","category":"47","category_name":"住宅区","address":"崂山五村502-562号"},{"poiid":"B2094654DA69A7FD419D","title":"崂六小区","lon":"121.5174","lat":"31.239016","category":"47","category_name":"住宅区","address":"浦东大道290弄1-29号"},{"poiid":"B2094654DB6BAAFE429E","title":"红辣椒 浦东店","lon":"121.51873393805","lat":"31.240492205441","category":"257","category_name":"中餐厅","address":"浦东大道279号东海宾馆底层近东方路"},{"poiid":"B2094757D768AAFE4593","title":"仟村馄饨 南泉北路店","lon":"121.515156054","lat":"31.239196793","category":"68","category_name":"快餐厅","address":"浦东新区南泉北路41号(近招远路)"},{"poiid":"B2094654DB64A7F5459D","title":"要得湖南湘菜馆","lon":"121.51452","lat":"31.23933","category":"77","category_name":"湖南菜","address":"浦东新区浦东大道143号乙(即墨路口)"},{"poiid":"B2094655D26AA5FB4593","title":"昌邑小学","lon":"121.51561","lat":"31.23899","category":"56","category_name":"小学","address":"浦东新区崂山东路10号(崂山路浦东大道)"},{"poiid":"B2094757D064A0F94199","title":"Chloe's","lon":"121.51385973","lat":"31.238796482","category":"94","category_name":"西餐厅","address":"浦东新区昌邑路31号(即墨路口)"},{"poiid":"B2094654DA69A7FC439A","title":"京世国际发型美容连锁机构","lon":"121.519","lat":"31.237","category":"148","category_name":"美容美发店","address":"崂山东路"},{"poiid":"B2094757D16DA3FE4092","title":"仟村馄饨","lon":"121.51579573","lat":"31.238097467","category":"247","category_name":"餐饮美食","address":"上海市浦东新区浦东南路"},{"poiid":"B2094750D76CABFF429C","title":"长安客(招远路店)","lon":"121.515","lat":"31.2371","category":"68","category_name":"快餐厅","address":"浦东新区招远路19弄25号(近东方医院)"},{"poiid":"B2094757D064A0FE479B","title":"上海动物园肉食区域","lon":"121.516931271","lat":"31.2391533236","category":"500","category_name":"未知分类","address":"上海动物园"},{"poiid":"B2094757D064A5F54393","title":"吉祥馄饨 栖霞店 Gll Wonton","lon":"121.51706","lat":"31.23627","category":"68","category_name":"快餐厅","address":"浦东新区栖霞路66号(近南泉北路)"},{"poiid":"B2094654DA69A7FD439C","title":"养和堂药业连锁中西药房NO.052","lon":"121.51602","lat":"31.23815","category":"162","category_name":"医院","address":"崂山路50"},{"poiid":"B2094654DA69A7F8459B","title":"上海电视大学黄经贸分校","lon":"121.51627","lat":"31.23714","category":"52","category_name":"高等院校","address":"南泉北路168-170"},{"poiid":"B2094654DA69A7FA4192","title":"上港小区","lon":"121.5146","lat":"31.238003","category":"47","category_name":"住宅区","address":"浦东大道136弄2-51号"},{"poiid":"B2094757D169A0FE4092","title":"浦东文化馆","lon":"121.515529738","lat":"31.2397765036","category":"500","category_name":"未知分类","address":"上海浦东大道143号"},{"poiid":"B209475CD16CABFE429E","title":"赣江村 浦东大道店","lon":"121.5161577","lat":"31.2398318","category":"650","category_name":"江西菜","address":"浦东新区浦东大道279号"},{"poiid":"B2094654DA69A7FC4598","title":"崂山新村","lon":"121.51923","lat":"31.238258","category":"47","category_name":"住宅区","address":"栖霞路190弄"},{"poiid":"B2094654DA69A7FD439D","title":"名剪城专业发型设计","lon":"121.51602","lat":"31.23812","category":"148","category_name":"美容美发店","address":"上海市浦东新区崂山路54号"},{"poiid":"B2094757D164AAF84299","title":"面道","lon":"121.515697738","lat":"31.238063467","category":"247","category_name":"餐饮美食","address":"上海南泉北路35号"},{"poiid":"B2094655D264A0FC449B","title":"浙商银行上海陆家嘴支行","lon":"121.51628","lat":"31.23934","category":"150","category_name":"银行","address":"浦东新区浦东大道288号1楼(近人民银行)"},{"poiid":"B2094757D169A6FA409F","title":"千岩五谷煲仔饭","lon":"121.51551","lat":"31.23728","category":"68","category_name":"快餐厅","address":"浦东新区招远路48号(近东方医院)"},{"poiid":"B2094655D268A7FC4692","title":"家家乐(南泉北路)","lon":"121.5155","lat":"31.23825","category":"118","category_name":"超级市场","address":"浦东新区南泉路(近蓝村路)"},{"poiid":"B2094655D26BABF9449A","title":"上海英豪教育学院","lon":"121.51633","lat":"31.23926","category":"190","category_name":"培训机构","address":"浦东大道288号富橙投资"},{"poiid":"B2094757D16FA3FD4693","title":"电信信息园区班车福山路站","lon":"121.516504508","lat":"31.2382092902","category":"500","category_name":"未知分类","address":"上海福山路380号"},{"poiid":"B2094654DA69A7FB489A","title":"渣打银行大厦","lon":"121.516","lat":"31.2415","category":"46","category_name":"楼宇","address":"浦东区金融贸易区D3-5"},{"poiid":"B2094655D26FA5F9439B","title":"上海证券大厦","lon":"121.517707","lat":"31.241749","category":"46","category_name":"楼宇","address":"浦东新区浦东南路528号"},{"poiid":"B2094757D06FA7F44199","title":"光头烧烤吧(南泉北路店)","lon":"121.51594","lat":"31.23765","category":"68","category_name":"快餐厅","address":"浦东新区南泉北路47号(近东方医院)"},{"poiid":"B209475CD564A7F84392","title":"上海滩浦东香格里拉店","lon":"121.50058","lat":"31.23634","category":"119","category_name":"商场","address":"浦东富成路33号香格里拉酒店内大堂层"},{"poiid":"B2094757D069A7F4429B","title":"浦东新舞台","lon":"121.51503","lat":"31.23892","category":"179","category_name":"音乐厅","address":"浦东新区浦东大道143号(南泉北路浦东大道)"},{"poiid":"B2094757D06FA2FF4099","title":"中国保险大厦","lon":"121.516","lat":"31.2421","category":"46","category_name":"楼宇","address":"浦东临港新城主城区申港大道200号"},{"poiid":"B2094757D06FA1FE489C","title":"上海市房地产交易中心","lon":"121.515980363","lat":"31.2356323484","category":"46","category_name":"楼宇","address":"上海浦东新区南泉北路201号(栖霞路口)"},{"poiid":"B2094655D26DA7F84399","title":"房地大厦","lon":"121.51593","lat":"31.23556","category":"46","category_name":"楼宇","address":"昌平区回龙观镇国际信息产业基地高新二街"},{"poiid":"B2094757D068A1FA4999","title":"西安5号米皮","lon":"121.51563","lat":"31.23721","category":"68","category_name":"快餐厅","address":"浦东新区南泉北路51号-4(近招远路)"},{"poiid":"B2094757D068A6FD489F","title":"永华大厦","lon":"121.51416015","lat":"31.238700866","category":"46","category_name":"楼宇","address":"浦东大道138号"},{"poiid":"B2094757D068A3F94192","title":"东北四季饺子王(浦东大道店)","lon":"121.51492","lat":"31.23906","category":"82","category_name":"东北菜","address":"上海浦东新区浦东大道143号甲(即墨路口)"},{"poiid":"B2094750D665A4FA489D","title":"花ちゃんの台所","lon":"121.515","lat":"31.2359","category":"95","category_name":"日本料理","address":"浦东新区栖霞路41号(近南泉北路)"},{"poiid":"B2094757D56CAAFB469F","title":"二子龙虾 东昌店","lon":"121.514945054","lat":"31.237452793","category":"68","category_name":"快餐厅","address":"浦东新区南泉北路51号(近招远路)"},{"poiid":"B2094757D068A5F8459B","title":"月亮生煎大王","lon":"121.51692","lat":"31.23806","category":"68","category_name":"快餐厅","address":"浦东新区崂山路80号101室(近浦东大道)"},{"poiid":"B2094757D06FAAFF4693","title":"大壶春(浦东总店)","lon":"121.51408","lat":"31.23824","category":"68","category_name":"快餐厅","address":"浦东新区浦东大道136弄4-6号(近即墨路)"},{"poiid":"B2094655D264ABF94793","title":"富橙投资","lon":"121.51634","lat":"31.23925","category":"46","category_name":"楼宇","address":"浦东区浦东大道288号"},{"poiid":"B2094757D06AA7F8429A","title":"德兴面馆(浦东店)","lon":"121.5153","lat":"31.2387","category":"68","category_name":"快餐厅","address":"浦东新区南泉北路1号(浦东大道口)"},{"poiid":"B2094757D164A2F9429C","title":"光头烧烤","lon":"121.51228","lat":"31.24018","category":"68","category_name":"快餐厅","address":"浦东新区崂山路47号(东昌电影院)"},{"poiid":"B2094757D068A1FC429F","title":"东昌电影院","lon":"121.516061","lat":"31.237536","category":"178","category_name":"电影院","address":"南泉北路150"},{"poiid":"B2094757D16BA7FE4793","title":"黄浦江边","lon":"121.51653933","lat":"31.239108522","category":"500","category_name":"未知分类","address":"上海钱仓站"},{"poiid":"B2094654DA69A0FD4792","title":"半岛鱼翅潮州酒楼","lon":"121.51827247863","lat":"31.24055145864","category":"72","category_name":"广东菜","address":"浦东新区浦东大道281号2楼(浦东大道荣成路)"},{"poiid":"B2094757D065A2FD479B","title":"老姚烧烤","lon":"121.51579","lat":"31.23748","category":"68","category_name":"快餐厅","address":"浦东新区南泉北路51号(近招远路)"},{"poiid":"B2094654DA69A0FD4793","title":"东海宾馆","lon":"121.51625","lat":"31.23986","category":"215","category_name":"三星级宾馆","address":"浦东新区浦东大道281号(近东方路)"},{"poiid":"B2094757D66DABFB479E","title":"名盛串城","lon":"121.515641738","lat":"31.2376644585","category":"96","category_name":"韩国料理","address":"浦东新区南泉北路53号(近浦东大道)"},{"poiid":"B2094654DA69A7FD479B","title":"东昌中学东校","lon":"121.51871","lat":"31.23801","category":"55","category_name":"中学","address":"崂山路200"},{"poiid":"B2094654DA69A7FE459A","title":"崂山五村","lon":"121.51745","lat":"31.23745","category":"47","category_name":"住宅区","address":"崂山五村502-562号"},{"poiid":"B2094654DA69A7FD419D","title":"崂六小区","lon":"121.5174","lat":"31.239016","category":"47","category_name":"住宅区","address":"浦东大道290弄1-29号"},{"poiid":"B2094654DB6BAAFE429E","title":"红辣椒 浦东店","lon":"121.51873393805","lat":"31.240492205441","category":"257","category_name":"中餐厅","address":"浦东大道279号东海宾馆底层近东方路"},{"poiid":"B2094757D768AAFE4593","title":"仟村馄饨 南泉北路店","lon":"121.515156054","lat":"31.239196793","category":"68","category_name":"快餐厅","address":"浦东新区南泉北路41号(近招远路)"},{"poiid":"B2094654DB64A7F5459D","title":"要得湖南湘菜馆","lon":"121.51452","lat":"31.23933","category":"77","category_name":"湖南菜","address":"浦东新区浦东大道143号乙(即墨路口)"},{"poiid":"B2094655D26AA5FB4593","title":"昌邑小学","lon":"121.51561","lat":"31.23899","category":"56","category_name":"小学","address":"浦东新区崂山东路10号(崂山路浦东大道)"},{"poiid":"B2094757D064A0F94199","title":"Chloe's","lon":"121.51385973","lat":"31.238796482","category":"94","category_name":"西餐厅","address":"浦东新区昌邑路31号(即墨路口)"},{"poiid":"B2094654DA69A7FC439A","title":"京世国际发型美容连锁机构","lon":"121.519","lat":"31.237","category":"148","category_name":"美容美发店","address":"崂山东路"},{"poiid":"B2094757D16DA3FE4092","title":"仟村馄饨","lon":"121.51579573","lat":"31.238097467","category":"247","category_name":"餐饮美食","address":"上海市浦东新区浦东南路"},{"poiid":"B2094750D76CABFF429C","title":"长安客(招远路店)","lon":"121.515","lat":"31.2371","category":"68","category_name":"快餐厅","address":"浦东新区招远路19弄25号(近东方医院)"},{"poiid":"B2094757D064A0FE479B","title":"上海动物园肉食区域","lon":"121.516931271","lat":"31.2391533236","category":"500","category_name":"未知分类","address":"上海动物园"},{"poiid":"B2094757D064A5F54393","title":"吉祥馄饨 栖霞店 Gll Wonton","lon":"121.51706","lat":"31.23627","category":"68","category_name":"快餐厅","address":"浦东新区栖霞路66号(近南泉北路)"},{"poiid":"B2094654DA69A7FD439C","title":"养和堂药业连锁中西药房NO.052","lon":"121.51602","lat":"31.23815","category":"162","category_name":"医院","address":"崂山路50"},{"poiid":"B2094654DA69A7F8459B","title":"上海电视大学黄经贸分校","lon":"121.51627","lat":"31.23714","category":"52","category_name":"高等院校","address":"南泉北路168-170"},{"poiid":"B2094654DA69A7FA4192","title":"上港小区","lon":"121.5146","lat":"31.238003","category":"47","category_name":"住宅区","address":"浦东大道136弄2-51号"},{"poiid":"B2094757D169A0FE4092","title":"浦东文化馆","lon":"121.515529738","lat":"31.2397765036","category":"500","category_name":"未知分类","address":"上海浦东大道143号"},{"poiid":"B209475CD16CABFE429E","title":"赣江村 浦东大道店","lon":"121.5161577","lat":"31.2398318","category":"650","category_name":"江西菜","address":"浦东新区浦东大道279号"},{"poiid":"B2094654DA69A7FC4598","title":"崂山新村","lon":"121.51923","lat":"31.238258","category":"47","category_name":"住宅区","address":"栖霞路190弄"},{"poiid":"B2094654DA69A7FD439D","title":"名剪城专业发型设计","lon":"121.51602","lat":"31.23812","category":"148","category_name":"美容美发店","address":"上海市浦东新区崂山路54号"},{"poiid":"B2094757D164AAF84299","title":"面道","lon":"121.515697738","lat":"31.238063467","category":"247","category_name":"餐饮美食","address":"上海南泉北路35号"},{"poiid":"B2094655D264A0FC449B","title":"浙商银行上海陆家嘴支行","lon":"121.51628","lat":"31.23934","category":"150","category_name":"银行","address":"浦东新区浦东大道288号1楼(近人民银行)"},{"poiid":"B2094757D169A6FA409F","title":"千岩五谷煲仔饭","lon":"121.51551","lat":"31.23728","category":"68","category_name":"快餐厅","address":"浦东新区招远路48号(近东方医院)"},{"poiid":"B2094655D268A7FC4692","title":"家家乐(南泉北路)","lon":"121.5155","lat":"31.23825","category":"118","category_name":"超级市场","address":"浦东新区南泉路(近蓝村路)"},{"poiid":"B2094655D26BABF9449A","title":"上海英豪教育学院","lon":"121.51633","lat":"31.23926","category":"190","category_name":"培训机构","address":"浦东大道288号富橙投资"},{"poiid":"B2094757D16FA3FD4693","title":"电信信息园区班车福山路站","lon":"121.516504508","lat":"31.2382092902","category":"500","category_name":"未知分类","address":"上海福山路380号"},{"poiid":"B2094654DA69A7FB489A","title":"渣打银行大厦","lon":"121.516","lat":"31.2415","category":"46","category_name":"楼宇","address":"浦东区金融贸易区D3-5"},{"poiid":"B2094655D26FA5F9439B","title":"上海证券大厦","lon":"121.517707","lat":"31.241749","category":"46","category_name":"楼宇","address":"浦东新区浦东南路528号"},{"poiid":"B2094757D06FA7F44199","title":"光头烧烤吧(南泉北路店)","lon":"121.51594","lat":"31.23765","category":"68","category_name":"快餐厅","address":"浦东新区南泉北路47号(近东方医院)"},{"poiid":"B209475CD564A7F84392","title":"上海滩浦东香格里拉店","lon":"121.50058","lat":"31.23634","category":"119","category_name":"商场","address":"浦东富成路33号香格里拉酒店内大堂层"},{"poiid":"B2094757D069A7F4429B","title":"浦东新舞台","lon":"121.51503","lat":"31.23892","category":"179","category_name":"音乐厅","address":"浦东新区浦东大道143号(南泉北路浦东大道)"},{"poiid":"B2094757D06FA2FF4099","title":"中国保险大厦","lon":"121.516","lat":"31.2421","category":"46","category_name":"楼宇","address":"浦东临港新城主城区申港大道200号"},{"poiid":"B2094757D06FA1FE489C","title":"上海市房地产交易中心","lon":"121.515980363","lat":"31.2356323484","category":"46","category_name":"楼宇","address":"上海浦东新区南泉北路201号(栖霞路口)"},{"poiid":"B2094655D26DA7F84399","title":"房地大厦","lon":"121.51593","lat":"31.23556","category":"46","category_name":"楼宇","address":"昌平区回龙观镇国际信息产业基地高新二街"},{"poiid":"B2094757D068A1FA4999","title":"西安5号米皮","lon":"121.51563","lat":"31.23721","category":"68","category_name":"快餐厅","address":"浦东新区南泉北路51号-4(近招远路)"},{"poiid":"B2094757D068A6FD489F","title":"永华大厦","lon":"121.51416015","lat":"31.238700866","category":"46","category_name":"楼宇","address":"浦东大道138号"},{"poiid":"B2094757D068A3F94192","title":"东北四季饺子王(浦东大道店)","lon":"121.51492","lat":"31.23906","category":"82","category_name":"东北菜","address":"上海浦东新区浦东大道143号甲(即墨路口)"},{"poiid":"B2094750D665A4FA489D","title":"花ちゃんの台所","lon":"121.515","lat":"31.2359","category":"95","category_name":"日本料理","address":"浦东新区栖霞路41号(近南泉北路)"},{"poiid":"B2094757D56CAAFB469F","title":"二子龙虾 东昌店","lon":"121.514945054","lat":"31.237452793","category":"68","category_name":"快餐厅","address":"浦东新区南泉北路51号(近招远路)"},{"poiid":"B2094757D068A5F8459B","title":"月亮生煎大王","lon":"121.51692","lat":"31.23806","category":"68","category_name":"快餐厅","address":"浦东新区崂山路80号101室(近浦东大道)"},{"poiid":"B2094757D06FAAFF4693","title":"大壶春(浦东总店)","lon":"121.51408","lat":"31.23824","category":"68","category_name":"快餐厅","address":"浦东新区浦东大道136弄4-6号(近即墨路)"},{"poiid":"B2094655D264ABF94793","title":"富橙投资","lon":"121.51634","lat":"31.23925","category":"46","category_name":"楼宇","address":"浦东区浦东大道288号"},{"poiid":"B2094757D06AA7F8429A","title":"德兴面馆(浦东店)","lon":"121.5153","lat":"31.2387","category":"68","category_name":"快餐厅","address":"浦东新区南泉北路1号(浦东大道口)"},{"poiid":"B2094757D164A2F9429C","title":"光头烧烤","lon":"121.51228","lat":"31.24018","category":"68","category_name":"快餐厅","address":"浦东新区崂山路47号(东昌电影院)"},{"poiid":"B2094757D068A1FC429F","title":"东昌电影院","lon":"121.516061","lat":"31.237536","category":"178","category_name":"电影院","address":"南泉北路150"},{"poiid":"B2094757D16BA7FE4793","title":"黄浦江边","lon":"121.51653933","lat":"31.239108522","category":"500","category_name":"未知分类","address":"上海钱仓站"},{"poiid":"B2094654DA69A0FD4792","title":"半岛鱼翅潮州酒楼","lon":"121.51827247863","lat":"31.24055145864","category":"72","category_name":"广东菜","address":"浦东新区浦东大道281号2楼(浦东大道荣成路)"},{"poiid":"B2094757D065A2FD479B","title":"老姚烧烤","lon":"121.51579","lat":"31.23748","category":"68","category_name":"快餐厅","address":"浦东新区南泉北路51号(近招远路)"},{"poiid":"B2094654DA69A0FD4793","title":"东海宾馆","lon":"121.51625","lat":"31.23986","category":"215","category_name":"三星级宾馆","address":"浦东新区浦东大道281号(近东方路)"},{"poiid":"B2094757D66DABFB479E","title":"名盛串城","lon":"121.515641738","lat":"31.2376644585","category":"96","category_name":"韩国料理","address":"浦东新区南泉北路53号(近浦东大道)"},{"poiid":"B2094654DA69A7FD479B","title":"东昌中学东校","lon":"121.51871","lat":"31.23801","category":"55","category_name":"中学","address":"崂山路200"},{"poiid":"B2094654DA69A7FE459A","title":"崂山五村","lon":"121.51745","lat":"31.23745","category":"47","category_name":"住宅区","address":"崂山五村502-562号"},{"poiid":"B2094654DA69A7FD419D","title":"崂六小区","lon":"121.5174","lat":"31.239016","category":"47","category_name":"住宅区","address":"浦东大道290弄1-29号"},{"poiid":"B2094654DB6BAAFE429E","title":"红辣椒 浦东店","lon":"121.51873393805","lat":"31.240492205441","category":"257","category_name":"中餐厅","address":"浦东大道279号东海宾馆底层近东方路"},{"poiid":"B2094757D768AAFE4593","title":"仟村馄饨 南泉北路店","lon":"121.515156054","lat":"31.239196793","category":"68","category_name":"快餐厅","address":"浦东新区南泉北路41号(近招远路)"},{"poiid":"B2094654DB64A7F5459D","title":"要得湖南湘菜馆","lon":"121.51452","lat":"31.23933","category":"77","category_name":"湖南菜","address":"浦东新区浦东大道143号乙(即墨路口)"},{"poiid":"B2094655D26AA5FB4593","title":"昌邑小学","lon":"121.51561","lat":"31.23899","category":"56","category_name":"小学","address":"浦东新区崂山东路10号(崂山路浦东大道)"},{"poiid":"B2094757D064A0F94199","title":"Chloe's","lon":"121.51385973","lat":"31.238796482","category":"94","category_name":"西餐厅","address":"浦东新区昌邑路31号(即墨路口)"},{"poiid":"B2094654DA69A7FC439A","title":"京世国际发型美容连锁机构","lon":"121.519","lat":"31.237","category":"148","category_name":"美容美发店","address":"崂山东路"},{"poiid":"B2094757D16DA3FE4092","title":"仟村馄饨","lon":"121.51579573","lat":"31.238097467","category":"247","category_name":"餐饮美食","address":"上海市浦东新区浦东南路"},{"poiid":"B2094750D76CABFF429C","title":"长安客(招远路店)","lon":"121.515","lat":"31.2371","category":"68","category_name":"快餐厅","address":"浦东新区招远路19弄25号(近东方医院)"},{"poiid":"B2094757D064A0FE479B","title":"上海动物园肉食区域","lon":"121.516931271","lat":"31.2391533236","category":"500","category_name":"未知分类","address":"上海动物园"},{"poiid":"B2094757D064A5F54393","title":"吉祥馄饨 栖霞店 Gll Wonton","lon":"121.51706","lat":"31.23627","category":"68","category_name":"快餐厅","address":"浦东新区栖霞路66号(近南泉北路)"},{"poiid":"B2094654DA69A7FD439C","title":"养和堂药业连锁中西药房NO.052","lon":"121.51602","lat":"31.23815","category":"162","category_name":"医院","address":"崂山路50"},{"poiid":"B2094654DA69A7F8459B","title":"上海电视大学黄经贸分校","lon":"121.51627","lat":"31.23714","category":"52","category_name":"高等院校","address":"南泉北路168-170"},{"poiid":"B2094654DA69A7FA4192","title":"上港小区","lon":"121.5146","lat":"31.238003","category":"47","category_name":"住宅区","address":"浦东大道136弄2-51号"},{"poiid":"B2094757D169A0FE4092","title":"浦东文化馆","lon":"121.515529738","lat":"31.2397765036","category":"500","category_name":"未知分类","address":"上海浦东大道143号"},{"poiid":"B209475CD16CABFE429E","title":"赣江村 浦东大道店","lon":"121.5161577","lat":"31.2398318","category":"650","category_name":"江西菜","address":"浦东新区浦东大道279号"},{"poiid":"B2094654DA69A7FC4598","title":"崂山新村","lon":"121.51923","lat":"31.238258","category":"47","category_name":"住宅区","address":"栖霞路190弄"},{"poiid":"B2094654DA69A7FD439D","title":"名剪城专业发型设计","lon":"121.51602","lat":"31.23812","category":"148","category_name":"美容美发店","address":"上海市浦东新区崂山路54号"},{"poiid":"B2094757D164AAF84299","title":"面道","lon":"121.515697738","lat":"31.238063467","category":"247","category_name":"餐饮美食","address":"上海南泉北路35号"},{"poiid":"B2094655D264A0FC449B","title":"浙商银行上海陆家嘴支行","lon":"121.51628","lat":"31.23934","category":"150","category_name":"银行","address":"浦东新区浦东大道288号1楼(近人民银行)"},{"poiid":"B2094757D169A6FA409F","title":"千岩五谷煲仔饭","lon":"121.51551","lat":"31.23728","category":"68","category_name":"快餐厅","address":"浦东新区招远路48号(近东方医院)"},{"poiid":"B2094655D268A7FC4692","title":"家家乐(南泉北路)","lon":"121.5155","lat":"31.23825","category":"118","category_name":"超级市场","address":"浦东新区南泉路(近蓝村路)"},{"poiid":"B2094655D26BABF9449A","title":"上海英豪教育学院","lon":"121.51633","lat":"31.23926","category":"190","category_name":"培训机构","address":"浦东大道288号富橙投资"},{"poiid":"B2094757D16FA3FD4693","title":"电信信息园区班车福山路站","lon":"121.516504508","lat":"31.2382092902","category":"500","category_name":"未知分类","address":"上海福山路380号"},{"poiid":"B2094654DA69A7FB489A","title":"渣打银行大厦","lon":"121.516","lat":"31.2415","category":"46","category_name":"楼宇","address":"浦东区金融贸易区D3-5"},{"poiid":"B2094655D26FA5F9439B","title":"上海证券大厦","lon":"121.517707","lat":"31.241749","category":"46","category_name":"楼宇","address":"浦东新区浦东南路528号"},{"poiid":"B2094757D06FA7F44199","title":"光头烧烤吧(南泉北路店)","lon":"121.51594","lat":"31.23765","category":"68","category_name":"快餐厅","address":"浦东新区南泉北路47号(近东方医院)"},{"poiid":"B209475CD564A7F84392","title":"上海滩浦东香格里拉店","lon":"121.50058","lat":"31.23634","category":"119","category_name":"商场","address":"浦东富成路33号香格里拉酒店内大堂层"},{"poiid":"B2094757D069A7F4429B","title":"浦东新舞台","lon":"121.51503","lat":"31.23892","category":"179","category_name":"音乐厅","address":"浦东新区浦东大道143号(南泉北路浦东大道)"},{"poiid":"B2094757D06FA2FF4099","title":"中国保险大厦","lon":"121.516","lat":"31.2421","category":"46","category_name":"楼宇","address":"浦东临港新城主城区申港大道200号"},{"poiid":"B2094757D06FA1FE489C","title":"上海市房地产交易中心","lon":"121.515980363","lat":"31.2356323484","category":"46","category_name":"楼宇","address":"上海浦东新区南泉北路201号(栖霞路口)"},{"poiid":"B2094655D26DA7F84399","title":"房地大厦","lon":"121.51593","lat":"31.23556","category":"46","category_name":"楼宇","address":"昌平区回龙观镇国际信息产业基地高新二街"},{"poiid":"B2094757D068A1FA4999","title":"西安5号米皮","lon":"121.51563","lat":"31.23721","category":"68","category_name":"快餐厅","address":"浦东新区南泉北路51号-4(近招远路)"},{"poiid":"B2094757D068A6FD489F","title":"永华大厦","lon":"121.51416015","lat":"31.238700866","category":"46","category_name":"楼宇","address":"浦东大道138号"},{"poiid":"B2094757D068A3F94192","title":"东北四季饺子王(浦东大道店)","lon":"121.51492","lat":"31.23906","category":"82","category_name":"东北菜","address":"上海浦东新区浦东大道143号甲(即墨路口)"},{"poiid":"B2094750D665A4FA489D","title":"花ちゃんの台所","lon":"121.515","lat":"31.2359","category":"95","category_name":"日本料理","address":"浦东新区栖霞路41号(近南泉北路)"},{"poiid":"B2094757D56CAAFB469F","title":"二子龙虾 东昌店","lon":"121.514945054","lat":"31.237452793","category":"68","category_name":"快餐厅","address":"浦东新区南泉北路51号(近招远路)"},{"poiid":"B2094757D068A5F8459B","title":"月亮生煎大王","lon":"121.51692","lat":"31.23806","category":"68","category_name":"快餐厅","address":"浦东新区崂山路80号101室(近浦东大道)"},{"poiid":"B2094757D06FAAFF4693","title":"大壶春(浦东总店)","lon":"121.51408","lat":"31.23824","category":"68","category_name":"快餐厅","address":"浦东新区浦东大道136弄4-6号(近即墨路)"},{"poiid":"B2094655D264ABF94793","title":"富橙投资","lon":"121.51634","lat":"31.23925","category":"46","category_name":"楼宇","address":"浦东区浦东大道288号"},{"poiid":"B2094757D06AA7F8429A","title":"德兴面馆(浦东店)","lon":"121.5153","lat":"31.2387","category":"68","category_name":"快餐厅","address":"浦东新区南泉北路1号(浦东大道口)"},{"poiid":"B2094757D164A2F9429C","title":"光头烧烤","lon":"121.51228","lat":"31.24018","category":"68","category_name":"快餐厅","address":"浦东新区崂山路47号(东昌电影院)"},{"poiid":"B2094757D068A1FC429F","title":"东昌电影院","lon":"121.516061","lat":"31.237536","category":"178","category_name":"电影院","address":"南泉北路150"},{"poiid":"B2094757D16BA7FE4793","title":"黄浦江边","lon":"121.51653933","lat":"31.239108522","category":"500","category_name":"未知分类","address":"上海钱仓站"},{"poiid":"B2094654DA69A0FD4792","title":"半岛鱼翅潮州酒楼","lon":"121.51827247863","lat":"31.24055145864","category":"72","category_name":"广东菜","address":"浦东新区浦东大道281号2楼(浦东大道荣成路)"},{"poiid":"B2094757D065A2FD479B","title":"老姚烧烤","lon":"121.51579","lat":"31.23748","category":"68","category_name":"快餐厅","address":"浦东新区南泉北路51号(近招远路)"},{"poiid":"B2094654DA69A0FD4793","title":"东海宾馆","lon":"121.51625","lat":"31.23986","category":"215","category_name":"三星级宾馆","address":"浦东新区浦东大道281号(近东方路)"},{"poiid":"B2094757D66DABFB479E","title":"名盛串城","lon":"121.515641738","lat":"31.2376644585","category":"96","category_name":"韩国料理","address":"浦东新区南泉北路53号(近浦东大道)"},{"poiid":"B2094654DA69A7FD479B","title":"东昌中学东校","lon":"121.51871","lat":"31.23801","category":"55","category_name":"中学","address":"崂山路200"},{"poiid":"B2094654DA69A7FE459A","title":"崂山五村","lon":"121.51745","lat":"31.23745","category":"47","category_name":"住宅区","address":"崂山五村502-562号"},{"poiid":"B2094654DA69A7FD419D","title":"崂六小区","lon":"121.5174","lat":"31.239016","category":"47","category_name":"住宅区","address":"浦东大道290弄1-29号"},{"poiid":"B2094654DB6BAAFE429E","title":"红辣椒 浦东店","lon":"121.51873393805","lat":"31.240492205441","category":"257","category_name":"中餐厅","address":"浦东大道279号东海宾馆底层近东方路"},{"poiid":"B2094757D768AAFE4593","title":"仟村馄饨 南泉北路店","lon":"121.515156054","lat":"31.239196793","category":"68","category_name":"快餐厅","address":"浦东新区南泉北路41号(近招远路)"},{"poiid":"B2094654DB64A7F5459D","title":"要得湖南湘菜馆","lon":"121.51452","lat":"31.23933","category":"77","category_name":"湖南菜","address":"浦东新区浦东大道143号乙(即墨路口)"},{"poiid":"B2094655D26AA5FB4593","title":"昌邑小学","lon":"121.51561","lat":"31.23899","category":"56","category_name":"小学","address":"浦东新区崂山东路10号(崂山路浦东大道)"},{"poiid":"B2094757D064A0F94199","title":"Chloe's","lon":"121.51385973","lat":"31.238796482","category":"94","category_name":"西餐厅","address":"浦东新区昌邑路31号(即墨路口)"},{"poiid":"B2094654DA69A7FC439A","title":"京世国际发型美容连锁机构","lon":"121.519","lat":"31.237","category":"148","category_name":"美容美发店","address":"崂山东路"},{"poiid":"B2094757D16DA3FE4092","title":"仟村馄饨","lon":"121.51579573","lat":"31.238097467","category":"247","category_name":"餐饮美食","address":"上海市浦东新区浦东南路"},{"poiid":"B2094750D76CABFF429C","title":"长安客(招远路店)","lon":"121.515","lat":"31.2371","category":"68","category_name":"快餐厅","address":"浦东新区招远路19弄25号(近东方医院)"},{"poiid":"B2094757D064A0FE479B","title":"上海动物园肉食区域","lon":"121.516931271","lat":"31.2391533236","category":"500","category_name":"未知分类","address":"上海动物园"},{"poiid":"B2094757D064A5F54393","title":"吉祥馄饨 栖霞店 Gll Wonton","lon":"121.51706","lat":"31.23627","category":"68","category_name":"快餐厅","address":"浦东新区栖霞路66号(近南泉北路)"},{"poiid":"B2094654DA69A7FD439C","title":"养和堂药业连锁中西药房NO.052","lon":"121.51602","lat":"31.23815","category":"162","category_name":"医院","address":"崂山路50"},{"poiid":"B2094654DA69A7F8459B","title":"上海电视大学黄经贸分校","lon":"121.51627","lat":"31.23714","category":"52","category_name":"高等院校","address":"南泉北路168-170"},{"poiid":"B2094654DA69A7FA4192","title":"上港小区","lon":"121.5146","lat":"31.238003","category":"47","category_name":"住宅区","address":"浦东大道136弄2-51号"},{"poiid":"B2094757D169A0FE4092","title":"浦东文化馆","lon":"121.515529738","lat":"31.2397765036","category":"500","category_name":"未知分类","address":"上海浦东大道143号"},{"poiid":"B209475CD16CABFE429E","title":"赣江村 浦东大道店","lon":"121.5161577","lat":"31.2398318","category":"650","category_name":"江西菜","address":"浦东新区浦东大道279号"},{"poiid":"B2094654DA69A7FC4598","title":"崂山新村","lon":"121.51923","lat":"31.238258","category":"47","category_name":"住宅区","address":"栖霞路190弄"},{"poiid":"B2094654DA69A7FD439D","title":"名剪城专业发型设计","lon":"121.51602","lat":"31.23812","category":"148","category_name":"美容美发店","address":"上海市浦东新区崂山路54号"},{"poiid":"B2094757D164AAF84299","title":"面道","lon":"121.515697738","lat":"31.238063467","category":"247","category_name":"餐饮美食","address":"上海南泉北路35号"},{"poiid":"B2094655D264A0FC449B","title":"浙商银行上海陆家嘴支行","lon":"121.51628","lat":"31.23934","category":"150","category_name":"银行","address":"浦东新区浦东大道288号1楼(近人民银行)"},{"poiid":"B2094757D169A6FA409F","title":"千岩五谷煲仔饭","lon":"121.51551","lat":"31.23728","category":"68","category_name":"快餐厅","address":"浦东新区招远路48号(近东方医院)"},{"poiid":"B2094655D268A7FC4692","title":"家家乐(南泉北路)","lon":"121.5155","lat":"31.23825","category":"118","category_name":"超级市场","address":"浦东新区南泉路(近蓝村路)"},{"poiid":"B2094655D26BABF9449A","title":"上海英豪教育学院","lon":"121.51633","lat":"31.23926","category":"190","category_name":"培训机构","address":"浦东大道288号富橙投资"},{"poiid":"B2094757D16FA3FD4693","title":"电信信息园区班车福山路站","lon":"121.516504508","lat":"31.2382092902","category":"500","category_name":"未知分类","address":"上海福山路380号"}]