[{"poiid":"B2094757D06FABFC409B","title":"张杨路民生路","lon":"121.544163704","lat":"31.2360301375","category":"500","category_name":"未知分类","address":"上海市浦东新区张杨路民生路"},{"poiid":"B2094757D468A6F54999","title":"二子龙虾 栖山路店","lon":"121.542679054","lat":"31.242488793","category":"68","category_name":"快餐厅","address":"浦东新区栖山路50号(近民生路)"},{"poiid":"B2094757D06FA6F94692","title":"上海市医药学校","lon":"121.54008","lat":"31.2359","category":"500","category_name":"未知分类","address":"浦东新区沈家弄路700号(近源深体育场)"},{"poiid":"B2094757D06FA1FF439E","title":"民生路地铁站","lon":"121.542912661","lat":"31.2356123472","category":"36","category_name":"地铁站","address":"上海轨道交通 六号线 轨交民生路站 6"},{"poiid":"B2094757D06FA5F8479A","title":"汤豪仕汤馆(民生店)","lon":"121.54043","lat":"31.23834","category":"76","category_name":"上海菜","address":"浦东新区商城路2128号(近民生路)"},{"poiid":"B2094757D06AA6F54999","title":"印度小厨(浦东店)","lon":"121.54252","lat":"31.23881","category":"102","category_name":"印度风味","address":"浦东新区民生路480号(商城路口)"},{"poiid":"B2094654DA69ABF5489C","title":"嘉瑞酒店","lon":"121.542","lat":"31.2346","category":"214","category_name":"四星级宾馆","address":"浦东新区潍坊路328号(潍坊路源深路)"},{"poiid":"B2094654DA68ABFF4399","title":"船研大厦","lon":"121.54187","lat":"31.23891","category":"46","category_name":"楼宇","address":"闸北区江场西路38号(近共和新路)"},{"poiid":"B2094654DA68ABF8459F","title":"鼓浪屿休闲浴场","lon":"121.54085","lat":"31.23552","category":"149","category_name":"洗浴推拿场所","address":"张杨路1657"},{"poiid":"B2094757D068A0F94192","title":"阿英煲 民生路店","lon":"121.542073054","lat":"31.239555793","category":"260","category_name":"其他","address":"浦东新区商城路2151号(民生路口)"},{"poiid":"B2094654DA68AAFD479F","title":"小厨面 巨野路店","lon":"121.545059054","lat":"31.242603793","category":"68","category_name":"快餐厅","address":"浦东新区巨野路181号(近栖山路)"},{"poiid":"B2094654DB6BABF44393","title":"锦江之星(民生路店)","lon":"121.54267","lat":"31.23818","category":"216","category_name":"经济型连锁酒店","address":"浦东新区民生路606号(近沈家弄路)"},{"poiid":"B2094757D16FA6FE439E","title":"高恒大厦","lon":"121.541544078","lat":"31.2419453798","category":"252","category_name":"楼宇机构","address":"上海浦东大道1608号"},{"poiid":"B2094757D168A2FF489F","title":"雅弗源养生中心","lon":"121.54144873","lat":"31.239282493","category":"500","category_name":"未知分类","address":"浦东新区商城路2120号(近民生路)"},{"poiid":"B2094654DA68ABFA419A","title":"上海市泾南中学","lon":"121.54187","lat":"31.24162","category":"55","category_name":"中学","address":"浦东新区民生路303号(民生路栖山路)"},{"poiid":"B2094757D068ABFE4399","title":"西域郎烧烤(栖山路店)","lon":"121.54273","lat":"31.2419","category":"68","category_name":"快餐厅","address":"浦东新区栖山路48号(近民生路)"},{"poiid":"B2094757D06AABF8499C","title":"1758龙虾王","lon":"121.541451054","lat":"31.242051793","category":"68","category_name":"快餐厅","address":"浦东新区栖山路12号(近民生路)"},{"poiid":"B2094757D065A3F9429C","title":"民办福山正达外国语小学","lon":"121.543546738","lat":"31.2392314919","category":"500","category_name":"未知分类","address":"浦东新区沈家弄路870弄1号(近民生路)"},{"poiid":"B2094655D26BA1F94299","title":"民生路沈家弄路","lon":"121.54339","lat":"31.23762","category":"38","category_name":"公交车站","address":""},{"poiid":"B2094655D26AA0F54092","title":"进才中学北校区羽毛球馆","lon":"121.5442","lat":"31.23864","category":"247","category_name":"餐饮美食","address":"浦东新区沈家弄路870弄1号"},{"poiid":"B2094757D168A0F44693","title":"清风人家(桃林店)","lon":"121.544568","lat":"31.241527","category":"247","category_name":"餐饮美食","address":"上海浦东新区桃林路465号(近沈家弄路)"},{"poiid":"B2094757D66CA0F4419E","title":"仟村鸡味馆","lon":"121.543382054","lat":"31.237965793","category":"68","category_name":"快餐厅","address":"浦东新区民生路499-492号"},{"poiid":"B2094654DA68AAFD4393","title":"民生家园","lon":"121.54372","lat":"31.238279","category":"47","category_name":"住宅区","address":"沈家弄路810弄"},{"poiid":"B2094757D569A1FF469F","title":"化隆牛肉拉面","lon":"121.5435102","lat":"31.23792101","category":"68","category_name":"快餐厅","address":"浦东新区民生路609号(近沈家弄路)"},{"poiid":"B2094757D664A1FC4793","title":"重庆鸡公煲民生店","lon":"121.54551","lat":"31.23343","category":"71","category_name":"四川菜","address":"浦东新区民生路(近张杨路)"},{"poiid":"B2094757D16FA3FE489F","title":"张杨路巨野路","lon":"121.54704473","lat":"31.236199427","category":"500","category_name":"未知分类","address":"上海市民生路"},{"poiid":"B2094757D568A7F5419F","title":"民生便利店","lon":"121.543586","lat":"31.237798","category":"117","category_name":"便民商店/便利店","address":"中国上海市浦东新区民生路"},{"poiid":"B2094750D768A4FA4799","title":"达美乐比萨(张杨路店)","lon":"121.544","lat":"31.2356","category":"94","category_name":"西餐厅","address":"浦东新区张杨路1632号(近民生路)"},{"poiid":"B2094654DA68AAFD4392","title":"民生家园(南门)","lon":"121.54425","lat":"31.23786","category":"47","category_name":"住宅区","address":"沈家弄路810弄"},{"poiid":"B2094654DA68ABF8469E","title":"生安花苑","lon":"121.54338","lat":"31.236732","category":"47","category_name":"住宅区","address":"张杨路1673弄"},{"poiid":"B2094750D665ABFB439A","title":"金湘缘","lon":"121.54","lat":"31.2379","category":"77","category_name":"湖南菜","address":"浦东新区栖山路153号(近巨野路)"},{"poiid":"B2094654DA68AAFC4798","title":"永琪美容美发张杨二店","lon":"121.54429","lat":"31.23651","category":"148","category_name":"美容美发店","address":""},{"poiid":"B2094757D16CA2FF489C","title":"广东祥记蚝庄(栖山路店)","lon":"121.5416","lat":"31.24159","category":"68","category_name":"快餐厅","address":"浦东新区栖山路12号(近民生路)"},{"poiid":"B2094757D16EA3FB459E","title":"上海船舶运输科学研究所","lon":"121.540933701","lat":"31.2377258432","category":"500","category_name":"未知分类","address":"上海浦东新区民生路600号"},{"poiid":"B2094757D66DABFF4798","title":"马记川味麻辣烫(沈家弄路店)","lon":"121.54422","lat":"31.23737","category":"247","category_name":"餐饮美食","address":"上海浦东新区沈家弄路802号(近民生路)  "},{"poiid":"B2094654DA68ABFF4692","title":"运昌商务楼","lon":"121.54235","lat":"31.23707","category":"46","category_name":"楼宇","address":"沈家弄路770"},{"poiid":"B2094654DB6BABF44492","title":"中国电信浦东电信局陆家嘴分局","lon":"121.5432","lat":"31.23866","category":"263","category_name":"公司","address":"民生路579"},{"poiid":"B2094757D568A5FA4893","title":"避风塘","lon":"121.5423581","lat":"31.237075","category":"68","category_name":"快餐厅","address":"沈家弄路770弄旁"},{"poiid":"B2094757D16DA6FF439D","title":"全家超市","lon":"121.54310273","lat":"31.236672437","category":"118","category_name":"超级市场","address":"上海市浦东新区张杨路1592号"},{"poiid":"B2094655D26DAAF5419F","title":"泾西绿地","lon":"121.54531","lat":"31.23845","category":"196","category_name":"公园","address":""},{"poiid":"B2094753D668A6FC429E","title":"汉庭酒店(上海陆家嘴民生路店)","lon":"121.541982","lat":"31.239267","category":"216","category_name":"经济型连锁酒店","address":"商城路2142号"},{"poiid":"B2094655D36CA2FB4992","title":"商城路民生路(临时站)","lon":"121.54165","lat":"31.23943","category":"38","category_name":"公交车站","address":""},{"poiid":"B2094757D16CA7F8469A","title":"火火麻辣烫","lon":"121.5439","lat":"31.23605","category":"68","category_name":"快餐厅","address":"浦东新区民生路(张杨路口)"},{"poiid":"B2094654DA68ABF9499D","title":"民生四村","lon":"121.54309","lat":"31.239918","category":"47","category_name":"住宅区","address":"民生路423号"},{"poiid":"B2094757D66BA0F9449F","title":"知鱼轩茶艺馆","lon":"121.543530054","lat":"31.237700793","category":"260","category_name":"其他","address":"浦东新区沈家弄路806号(近民生路)"},{"poiid":"B2094654DA68ABF94592","title":"网誉网吧","lon":"121.54417","lat":"31.23785","category":"176","category_name":"网吧","address":"沈家弄路808"},{"poiid":"B2094655D26BA2F4449E","title":"栖山路民生路","lon":"121.54126","lat":"31.23929","category":"38","category_name":"公交车站","address":""},{"poiid":"B2094654DA68ABFA4492","title":"栖山小区","lon":"121.54363","lat":"31.241777","category":"47","category_name":"住宅区","address":"栖山路100弄1-63号"},{"poiid":"B2094757D064ABFB439E","title":"东方幼儿园(梅园部)","lon":"121.54574473","lat":"31.238932485","category":"57","category_name":"幼儿园","address":"上海浦东新区商城路1028弄36号"},{"poiid":"B2094655D26AA0FA4398","title":"地铁民生路站","lon":"121.54288","lat":"31.23564","category":"36","category_name":"地铁站","address":""},{"poiid":"B2094757D06FABFC409B","title":"张杨路民生路","lon":"121.544163704","lat":"31.2360301375","category":"500","category_name":"未知分类","address":"上海市浦东新区张杨路民生路"},{"poiid":"B2094757D468A6F54999","title":"二子龙虾 栖山路店","lon":"121.542679054","lat":"31.242488793","category":"68","category_name":"快餐厅","address":"浦东新区栖山路50号(近民生路)"},{"poiid":"B2094757D06FA6F94692","title":"上海市医药学校","lon":"121.54008","lat":"31.2359","category":"500","category_name":"未知分类","address":"浦东新区沈家弄路700号(近源深体育场)"},{"poiid":"B2094757D06FA1FF439E","title":"民生路地铁站","lon":"121.542912661","lat":"31.2356123472","category":"36","category_name":"地铁站","address":"上海轨道交通 六号线 轨交民生路站 6"},{"poiid":"B2094757D06FA5F8479A","title":"汤豪仕汤馆(民生店)","lon":"121.54043","lat":"31.23834","category":"76","category_name":"上海菜","address":"浦东新区商城路2128号(近民生路)"},{"poiid":"B2094757D06AA6F54999","title":"印度小厨(浦东店)","lon":"121.54252","lat":"31.23881","category":"102","category_name":"印度风味","address":"浦东新区民生路480号(商城路口)"},{"poiid":"B2094654DA69ABF5489C","title":"嘉瑞酒店","lon":"121.542","lat":"31.2346","category":"214","category_name":"四星级宾馆","address":"浦东新区潍坊路328号(潍坊路源深路)"},{"poiid":"B2094654DA68ABFF4399","title":"船研大厦","lon":"121.54187","lat":"31.23891","category":"46","category_name":"楼宇","address":"闸北区江场西路38号(近共和新路)"},{"poiid":"B2094654DA68ABF8459F","title":"鼓浪屿休闲浴场","lon":"121.54085","lat":"31.23552","category":"149","category_name":"洗浴推拿场所","address":"张杨路1657"},{"poiid":"B2094757D068A0F94192","title":"阿英煲 民生路店","lon":"121.542073054","lat":"31.239555793","category":"260","category_name":"其他","address":"浦东新区商城路2151号(民生路口)"},{"poiid":"B2094654DA68AAFD479F","title":"小厨面 巨野路店","lon":"121.545059054","lat":"31.242603793","category":"68","category_name":"快餐厅","address":"浦东新区巨野路181号(近栖山路)"},{"poiid":"B2094654DB6BABF44393","title":"锦江之星(民生路店)","lon":"121.54267","lat":"31.23818","category":"216","category_name":"经济型连锁酒店","address":"浦东新区民生路606号(近沈家弄路)"},{"poiid":"B2094757D16FA6FE439E","title":"高恒大厦","lon":"121.541544078","lat":"31.2419453798","category":"252","category_name":"楼宇机构","address":"上海浦东大道1608号"},{"poiid":"B2094757D168A2FF489F","title":"雅弗源养生中心","lon":"121.54144873","lat":"31.239282493","category":"500","category_name":"未知分类","address":"浦东新区商城路2120号(近民生路)"},{"poiid":"B2094654DA68ABFA419A","title":"上海市泾南中学","lon":"121.54187","lat":"31.24162","category":"55","category_name":"中学","address":"浦东新区民生路303号(民生路栖山路)"},{"poiid":"B2094757D068ABFE4399","title":"西域郎烧烤(栖山路店)","lon":"121.54273","lat":"31.2419","category":"68","category_name":"快餐厅","address":"浦东新区栖山路48号(近民生路)"},{"poiid":"B2094757D06AABF8499C","title":"1758龙虾王","lon":"121.541451054","lat":"31.242051793","category":"68","category_name":"快餐厅","address":"浦东新区栖山路12号(近民生路)"},{"poiid":"B2094757D065A3F9429C","title":"民办福山正达外国语小学","lon":"121.543546738","lat":"31.2392314919","category":"500","category_name":"未知分类","address":"浦东新区沈家弄路870弄1号(近民生路)"},{"poiid":"B2094655D26BA1F94299","title":"民生路沈家弄路","lon":"121.54339","lat":"31.23762","category":"38","category_name":"公交车站","address":""},{"poiid":"B2094655D26AA0F54092","title":"进才中学北校区羽毛球馆","lon":"121.5442","lat":"31.23864","category":"247","category_name":"餐饮美食","address":"浦东新区沈家弄路870弄1号"},{"poiid":"B2094757D168A0F44693","title":"清风人家(桃林店)","lon":"121.544568","lat":"31.241527","category":"247","category_name":"餐饮美食","address":"上海浦东新区桃林路465号(近沈家弄路)"},{"poiid":"B2094757D66CA0F4419E","title":"仟村鸡味馆","lon":"121.543382054","lat":"31.237965793","category":"68","category_name":"快餐厅","address":"浦东新区民生路499-492号"},{"poiid":"B2094654DA68AAFD4393","title":"民生家园","lon":"121.54372","lat":"31.238279","category":"47","category_name":"住宅区","address":"沈家弄路810弄"},{"poiid":"B2094757D569A1FF469F","title":"化隆牛肉拉面","lon":"121.5435102","lat":"31.23792101","category":"68","category_name":"快餐厅","address":"浦东新区民生路609号(近沈家弄路)"},{"poiid":"B2094757D664A1FC4793","title":"重庆鸡公煲民生店","lon":"121.54551","lat":"31.23343","category":"71","category_name":"四川菜","address":"浦东新区民生路(近张杨路)"},{"poiid":"B2094757D16FA3FE489F","title":"张杨路巨野路","lon":"121.54704473","lat":"31.236199427","category":"500","category_name":"未知分类","address":"上海市民生路"},{"poiid":"B2094757D568A7F5419F","title":"民生便利店","lon":"121.543586","lat":"31.237798","category":"117","category_name":"便民商店/便利店","address":"中国上海市浦东新区民生路"},{"poiid":"B2094750D768A4FA4799","title":"达美乐比萨(张杨路店)","lon":"121.544","lat":"31.2356","category":"94","category_name":"西餐厅","address":"浦东新区张杨路1632号(近民生路)"},{"poiid":"B2094654DA68AAFD4392","title":"民生家园(南门)","lon":"121.54425","lat":"31.23786","category":"47","category_name":"住宅区","address":"沈家弄路810弄"},{"poiid":"B2094654DA68ABF8469E","title":"生安花苑","lon":"121.54338","lat":"31.236732","category":"47","category_name":"住宅区","address":"张杨路1673弄"},{"poiid":"B2094750D665ABFB439A","title":"金湘缘","lon":"121.54","lat":"31.2379","category":"77","category_name":"湖南菜","address":"浦东新区栖山路153号(近巨野路)"},{"poiid":"B2094654DA68AAFC4798","title":"永琪美容美发张杨二店","lon":"121.54429","lat":"31.23651","category":"148","category_name":"美容美发店","address":""},{"poiid":"B2094757D16CA2FF489C","title":"广东祥记蚝庄(栖山路店)","lon":"121.5416","lat":"31.24159","category":"68","category_name":"快餐厅","address":"浦东新区栖山路12号(近民生路)"},{"poiid":"B2094757D16EA3FB459E","title":"上海船舶运输科学研究所","lon":"121.540933701","lat":"31.2377258432","category":"500","category_name":"未知分类","address":"上海浦东新区民生路600号"},{"poiid":"B2094757D66DABFF4798","title":"马记川味麻辣烫(沈家弄路店)","lon":"121.54422","lat":"31.23737","category":"247","category_name":"餐饮美食","address":"上海浦东新区沈家弄路802号(近民生路)  "},{"poiid":"B2094654DA68ABFF4692","title":"运昌商务楼","lon":"121.54235","lat":"31.23707","category":"46","category_name":"楼宇","address":"沈家弄路770"},{"poiid":"B2094654DB6BABF44492","title":"中国电信浦东电信局陆家嘴分局","lon":"121.5432","lat":"31.23866","category":"263","category_name":"公司","address":"民生路579"},{"poiid":"B2094757D568A5FA4893","title":"避风塘","lon":"121.5423581","lat":"31.237075","category":"68","category_name":"快餐厅","address":"沈家弄路770弄旁"},{"poiid":"B2094757D16DA6FF439D","title":"全家超市","lon":"121.54310273","lat":"31.236672437","category":"118","category_name":"超级市场","address":"上海市浦东新区张杨路1592号"},{"poiid":"B2094655D26DAAF5419F","title":"泾西绿地","lon":"121.54531","lat":"31.23845","category":"196","category_name":"公园","address":""},{"poiid":"B2094753D668A6FC429E","title":"汉庭酒店(上海陆家嘴民生路店)","lon":"121.541982","lat":"31.239267","category":"216","category_name":"经济型连锁酒店","address":"商城路2142号"},{"poiid":"B2094655D36CA2FB4992","title":"商城路民生路(临时站)","lon":"121.54165","lat":"31.23943","category":"38","category_name":"公交车站","address":""},{"poiid":"B2094757D16CA7F8469A","title":"火火麻辣烫","lon":"121.5439","lat":"31.23605","category":"68","category_name":"快餐厅","address":"浦东新区民生路(张杨路口)"},{"poiid":"B2094654DA68ABF9499D","title":"民生四村","lon":"121.54309","lat":"31.239918","category":"47","category_name":"住宅区","address":"民生路423号"},{"poiid":"B2094757D66BA0F9449F","title":"知鱼轩茶艺馆","lon":"121.543530054","lat":"31.237700793","category":"260","category_name":"其他","address":"浦东新区沈家弄路806号(近民生路)"},{"poiid":"B2094654DA68ABF94592","title":"网誉网吧","lon":"121.54417","lat":"31.23785","category":"176","category_name":"网吧","address":"沈家弄路808"},{"poiid":"B2094655D26BA2F4449E","title":"栖山路民生路","lon":"121.54126","lat":"31.23929","category":"38","category_name":"公交车站","address":""},{"poiid":"B2094654DA68ABFA4492","title":"栖山小区","lon":"121.54363","lat":"31.241777","category":"47","category_name":"住宅区","address":"栖山路100弄1-63号"},{"poiid":"B2094757D064ABFB439E","title":"东方幼儿园(梅园部)","lon":"121.54574473","lat":"31.238932485","category":"57","category_name":"幼儿园","address":"上海浦东新区商城路1028弄36号"},{"poiid":"B2094655D26AA0FA4398","title":"地铁民生路站","lon":"121.54288","lat":"31.23564","category":"36","category_name":"地铁站","address":""},{"poiid":"B2094757D06FABFC409B","title":"张杨路民生路","lon":"121.544163704","lat":"31.2360301375","category":"500","category_name":"未知分类","address":"上海市浦东新区张杨路民生路"},{"poiid":"B2094757D468A6F54999","title":"二子龙虾 栖山路店","lon":"121.542679054","lat":"31.242488793","category":"68","category_name":"快餐厅","address":"浦东新区栖山路50号(近民生路)"},{"poiid":"B2094757D06FA6F94692","title":"上海市医药学校","lon":"121.54008","lat":"31.2359","category":"500","category_name":"未知分类","address":"浦东新区沈家弄路700号(近源深体育场)"},{"poiid":"B2094757D06FA1FF439E","title":"民生路地铁站","lon":"121.542912661","lat":"31.2356123472","category":"36","category_name":"地铁站","address":"上海轨道交通 六号线 轨交民生路站 6"},{"poiid":"B2094757D06FA5F8479A","title":"汤豪仕汤馆(民生店)","lon":"121.54043","lat":"31.23834","category":"76","category_name":"上海菜","address":"浦东新区商城路2128号(近民生路)"},{"poiid":"B2094757D06AA6F54999","title":"印度小厨(浦东店)","lon":"121.54252","lat":"31.23881","category":"102","category_name":"印度风味","address":"浦东新区民生路480号(商城路口)"},{"poiid":"B2094654DA69ABF5489C","title":"嘉瑞酒店","lon":"121.542","lat":"31.2346","category":"214","category_name":"四星级宾馆","address":"浦东新区潍坊路328号(潍坊路源深路)"},{"poiid":"B2094654DA68ABFF4399","title":"船研大厦","lon":"121.54187","lat":"31.23891","category":"46","category_name":"楼宇","address":"闸北区江场西路38号(近共和新路)"},{"poiid":"B2094654DA68ABF8459F","title":"鼓浪屿休闲浴场","lon":"121.54085","lat":"31.23552","category":"149","category_name":"洗浴推拿场所","address":"张杨路1657"},{"poiid":"B2094757D068A0F94192","title":"阿英煲 民生路店","lon":"121.542073054","lat":"31.239555793","category":"260","category_name":"其他","address":"浦东新区商城路2151号(民生路口)"},{"poiid":"B2094654DA68AAFD479F","title":"小厨面 巨野路店","lon":"121.545059054","lat":"31.242603793","category":"68","category_name":"快餐厅","address":"浦东新区巨野路181号(近栖山路)"},{"poiid":"B2094654DB6BABF44393","title":"锦江之星(民生路店)","lon":"121.54267","lat":"31.23818","category":"216","category_name":"经济型连锁酒店","address":"浦东新区民生路606号(近沈家弄路)"},{"poiid":"B2094757D16FA6FE439E","title":"高恒大厦","lon":"121.541544078","lat":"31.2419453798","category":"252","category_name":"楼宇机构","address":"上海浦东大道1608号"},{"poiid":"B2094757D168A2FF489F","title":"雅弗源养生中心","lon":"121.54144873","lat":"31.239282493","category":"500","category_name":"未知分类","address":"浦东新区商城路2120号(近民生路)"},{"poiid":"B2094654DA68ABFA419A","title":"上海市泾南中学","lon":"121.54187","lat":"31.24162","category":"55","category_name":"中学","address":"浦东新区民生路303号(民生路栖山路)"},{"poiid":"B2094757D068ABFE4399","title":"西域郎烧烤(栖山路店)","lon":"121.54273","lat":"31.2419","category":"68","category_name":"快餐厅","address":"浦东新区栖山路48号(近民生路)"},{"poiid":"B2094757D06AABF8499C","title":"1758龙虾王","lon":"121.541451054","lat":"31.242051793","category":"68","category_name":"快餐厅","address":"浦东新区栖山路12号(近民生路)"},{"poiid":"B2094757D065A3F9429C","title":"民办福山正达外国语小学","lon":"121.543546738","lat":"31.2392314919","category":"500","category_name":"未知分类","address":"浦东新区沈家弄路870弄1号(近民生路)"},{"poiid":"B2094655D26BA1F94299","title":"民生路沈家弄路","lon":"121.54339","lat":"31.23762","category":"38","category_name":"公交车站","address":""},{"poiid":"B2094655D26AA0F54092","title":"进才中学北校区羽毛球馆","lon":"121.5442","lat":"31.23864","category":"247","category_name":"餐饮美食","address":"浦东新区沈家弄路870弄1号"},{"poiid":"B2094757D168A0F44693","title":"清风人家(桃林店)","lon":"121.544568","lat":"31.241527","category":"247","category_name":"餐饮美食","address":"上海浦东新区桃林路465号(近沈家弄路)"},{"poiid":"B2094757D66CA0F4419E","title":"仟村鸡味馆","lon":"121.543382054","lat":"31.237965793","category":"68","category_name":"快餐厅","address":"浦东新区民生路499-492号"},{"poiid":"B2094654DA68AAFD4393","title":"民生家园","lon":"121.54372","lat":"31.238279","category":"47","category_name":"住宅区","address":"沈家弄路810弄"},{"poiid":"B2094757D569A1FF469F","title":"化隆牛肉拉面","lon":"121.5435102","lat":"31.23792101","category":"68","category_name":"快餐厅","address":"浦东新区民生路609号(近沈家弄路)"},{"poiid":"B2094757D664A1FC4793","title":"重庆鸡公煲民生店","lon":"121.54551","lat":"31.23343","category":"71","category_name":"四川菜","address":"浦东新区民生路(近张杨路)"},{"poiid":"B2094757D16FA3FE489F","title":"张杨路巨野路","lon":"121.54704473","lat":"31.236199427","category":"500","category_name":"未知分类","address":"上海市民生路"},{"poiid":"B2094757D568A7F5419F","title":"民生便利店","lon":"121.543586","lat":"31.237798","category":"117","category_name":"便民商店/便利店","address":"中国上海市浦东新区民生路"},{"poiid":"B2094750D768A4FA4799","title":"达美乐比萨(张杨路店)","lon":"121.544","lat":"31.2356","category":"94","category_name":"西餐厅","address":"浦东新区张杨路1632号(近民生路)"},{"poiid":"B2094654DA68AAFD4392","title":"民生家园(南门)","lon":"121.54425","lat":"31.23786","category":"47","category_name":"住宅区","address":"沈家弄路810弄"},{"poiid":"B2094654DA68ABF8469E","title":"生安花苑","lon":"121.54338","lat":"31.236732","category":"47","category_name":"住宅区","address":"张杨路1673弄"},{"poiid":"B2094750D665ABFB439A","title":"金湘缘","lon":"121.54","lat":"31.2379","category":"77","category_name":"湖南菜","address":"浦东新区栖山路153号(近巨野路)"},{"poiid":"B2094654DA68AAFC4798","title":"永琪美容美发张杨二店","lon":"121.54429","lat":"31.23651","category":"148","category_name":"美容美发店","address":""},{"poiid":"B2094757D16CA2FF489C","title":"广东祥记蚝庄(栖山路店)","lon":"121.5416","lat":"31.24159","category":"68","category_name":"快餐厅","address":"浦东新区栖山路12号(近民生路)"},{"poiid":"B2094757D16EA3FB459E","title":"上海船舶运输科学研究所","lon":"121.540933701","lat":"31.2377258432","category":"500","category_name":"未知分类","address":"上海浦东新区民生路600号"},{"poiid":"B2094757D66DABFF4798","title":"马记川味麻辣烫(沈家弄路店)","lon":"121.54422","lat":"31.23737","category":"247","category_name":"餐饮美食","address":"上海浦东新区沈家弄路802号(近民生路)  "},{"poiid":"B2094654DA68ABFF4692","title":"运昌商务楼","lon":"121.54235","lat":"31.23707","category":"46","category_name":"楼宇","address":"沈家弄路770"},{"poiid":"B2094654DB6BABF44492","title":"中国电信浦东电信局陆家嘴分局","lon":"121.5432","lat":"31.23866","category":"263","category_name":"公司","address":"民生路579"},{"poiid":"B2094757D568A5FA4893","title":"避风塘","lon":"121.5423581","lat":"31.237075","category":"68","category_name":"快餐厅","address":"沈家弄路770弄旁"},{"poiid":"B2094757D16DA6FF439D","title":"全家超市","lon":"121.54310273","lat":"31.236672437","category":"118","category_name":"超级市场","address":"上海市浦东新区张杨路1592号"},{"poiid":"B2094655D26DAAF5419F","title":"泾西绿地","lon":"121.54531","lat":"31.23845","category":"196","category_name":"公园","address":""},{"poiid":"B2094753D668A6FC429E","title":"汉庭酒店(上海陆家嘴民生路店)","lon":"121.541982","lat":"31.239267","category":"216","category_name":"经济型连锁酒店","address":"商城路2142号"},{"poiid":"B2094655D36CA2FB4992","title":"商城路民生路(临时站)","lon":"121.54165","lat":"31.23943","category":"38","category_name":"公交车站","address":""},{"poiid":"B2094757D16CA7F8469A","title":"火火麻辣烫","lon":"121.5439","lat":"31.23605","category":"68","category_name":"快餐厅","address":"浦东新区民生路(张杨路口)"},{"poiid":"B2094654DA68ABF9499D","title":"民生四村","lon":"121.54309","lat":"31.239918","category":"47","category_name":"住宅区","address":"民生路423号"},{"poiid":"B2094757D66BA0F9449F","title":"知鱼轩茶艺馆","lon":"121.543530054","lat":"31.237700793","category":"260","category_name":"其他","address":"浦东新区沈家弄路806号(近民生路)"},{"poiid":"B2094654DA68ABF94592","title":"网誉网吧","lon":"121.54417","lat":"31.23785","category":"176","category_name":"网吧","address":"沈家弄路808"},{"poiid":"B2094655D26BA2F4449E","title":"栖山路民生路","lon":"121.54126","lat":"31.23929","category":"38","category_name":"公交车站","address":""},{"poiid":"B2094654DA68ABFA4492","title":"栖山小区","lon":"121.54363","lat":"31.241777","category":"47","category_name":"住宅区","address":"栖山路100弄1-63号"},{"poiid":"B2094757D064ABFB439E","title":"东方幼儿园(梅园部)","lon":"121.54574473","lat":"31.238932485","category":"57","category_name":"幼儿园","address":"上海浦东新区商城路1028弄36号"},{"poiid":"B2094655D26AA0FA4398","title":"地铁民生路站","lon":"121.54288","lat":"31.23564","category":"36","category_name":"地铁站","address":""},{"poiid":"B2094757D06FABFC409B","title":"张杨路民生路","lon":"121.544163704","lat":"31.2360301375","category":"500","category_name":"未知分类","address":"上海市浦东新区张杨路民生路"},{"poiid":"B2094757D468A6F54999","title":"二子龙虾 栖山路店","lon":"121.542679054","lat":"31.242488793","category":"68","category_name":"快餐厅","address":"浦东新区栖山路50号(近民生路)"},{"poiid":"B2094757D06FA6F94692","title":"上海市医药学校","lon":"121.54008","lat":"31.2359","category":"500","category_name":"未知分类","address":"浦东新区沈家弄路700号(近源深体育场)"},{"poiid":"B2094757D06FA1FF439E","title":"民生路地铁站","lon":"121.542912661","lat":"31.2356123472","category":"36","category_name":"地铁站","address":"上海轨道交通 六号线 轨交民生路站 6"},{"poiid":"B2094757D06FA5F8479A","title":"汤豪仕汤馆(民生店)","lon":"121.54043","lat":"31.23834","category":"76","category_name":"上海菜","address":"浦东新区商城路2128号(近民生路)"},{"poiid":"B2094757D06AA6F54999","title":"印度小厨(浦东店)","lon":"121.54252","lat":"31.23881","category":"102","category_name":"印度风味","address":"浦东新区民生路480号(商城路口)"},{"poiid":"B2094654DA69ABF5489C","title":"嘉瑞酒店","lon":"121.542","lat":"31.2346","category":"214","category_name":"四星级宾馆","address":"浦东新区潍坊路328号(潍坊路源深路)"},{"poiid":"B2094654DA68ABFF4399","title":"船研大厦","lon":"121.54187","lat":"31.23891","category":"46","category_name":"楼宇","address":"闸北区江场西路38号(近共和新路)"},{"poiid":"B2094654DA68ABF8459F","title":"鼓浪屿休闲浴场","lon":"121.54085","lat":"31.23552","category":"149","category_name":"洗浴推拿场所","address":"张杨路1657"},{"poiid":"B2094757D068A0F94192","title":"阿英煲 民生路店","lon":"121.542073054","lat":"31.239555793","category":"260","category_name":"其他","address":"浦东新区商城路2151号(民生路口)"},{"poiid":"B2094654DA68AAFD479F","title":"小厨面 巨野路店","lon":"121.545059054","lat":"31.242603793","category":"68","category_name":"快餐厅","address":"浦东新区巨野路181号(近栖山路)"},{"poiid":"B2094654DB6BABF44393","title":"锦江之星(民生路店)","lon":"121.54267","lat":"31.23818","category":"216","category_name":"经济型连锁酒店","address":"浦东新区民生路606号(近沈家弄路)"},{"poiid":"B2094757D16FA6FE439E","title":"高恒大厦","lon":"121.541544078","lat":"31.2419453798","category":"252","category_name":"楼宇机构","address":"上海浦东大道1608号"},{"poiid":"B2094757D168A2FF489F","title":"雅弗源养生中心","lon":"121.54144873","lat":"31.239282493","category":"500","category_name":"未知分类","address":"浦东新区商城路2120号(近民生路)"},{"poiid":"B2094654DA68ABFA419A","title":"上海市泾南中学","lon":"121.54187","lat":"31.24162","category":"55","category_name":"中学","address":"浦东新区民生路303号(民生路栖山路)"},{"poiid":"B2094757D068ABFE4399","title":"西域郎烧烤(栖山路店)","lon":"121.54273","lat":"31.2419","category":"68","category_name":"快餐厅","address":"浦东新区栖山路48号(近民生路)"},{"poiid":"B2094757D06AABF8499C","title":"1758龙虾王","lon":"121.541451054","lat":"31.242051793","category":"68","category_name":"快餐厅","address":"浦东新区栖山路12号(近民生路)"},{"poiid":"B2094757D065A3F9429C","title":"民办福山正达外国语小学","lon":"121.543546738","lat":"31.2392314919","category":"500","category_name":"未知分类","address":"浦东新区沈家弄路870弄1号(近民生路)"},{"poiid":"B2094655D26BA1F94299","title":"民生路沈家弄路","lon":"121.54339","lat":"31.23762","category":"38","category_name":"公交车站","address":""},{"poiid":"B2094655D26AA0F54092","title":"进才中学北校区羽毛球馆","lon":"121.5442","lat":"31.23864","category":"247","category_name":"餐饮美食","address":"浦东新区沈家弄路870弄1号"},{"poiid":"B2094757D168A0F44693","title":"清风人家(桃林店)","lon":"121.544568","lat":"31.241527","category":"247","category_name":"餐饮美食","address":"上海浦东新区桃林路465号(近沈家弄路)"},{"poiid":"B2094757D66CA0F4419E","title":"仟村鸡味馆","lon":"121.543382054","lat":"31.237965793","category":"68","category_name":"快餐厅","address":"浦东新区民生路499-492号"},{"poiid":"B2094654DA68AAFD4393","title":"民生家园","lon":"121.54372","lat":"31.238279","category":"47","category_name":"住宅区","address":"沈家弄路810弄"},{"poiid":"B2094757D569A1FF469F","title":"化隆牛肉拉面","lon":"121.5435102","lat":"31.23792101","category":"68","category_name":"快餐厅","address":"浦东新区民生路609号(近沈家弄路)"},{"poiid":"B2094757D664A1FC4793","title":"重庆鸡公煲民生店","lon":"121.54551","lat":"31.23343","category":"71","category_name":"四川菜","address":"浦东新区民生路(近张杨路)"},{"poiid":"B2094757D16FA3FE489F","title":"张杨路巨野路","lon":"121.54704473","lat":"31.236199427","category":"500","category_name":"未知分类","address":"上海市民生路"},{"poiid":"B2094757D568A7F5419F","title":"民生便利店","lon":"121.543586","lat":"31.237798","category":"117","category_name":"便民商店/便利店","address":"中国上海市浦东新区民生路"},{"poiid":"B2094750D768A4FA4799","title":"达美乐比萨(张杨路店)","lon":"121.544","lat":"31.2356","category":"94","category_name":"西餐厅","address":"浦东新区张杨路1632号(近民生路)"},{"poiid":"B2094654DA68AAFD4392","title":"民生家园(南门)","lon":"121.54425","lat":"31.23786","category":"47","category_name":"住宅区","address":"沈家弄路810弄"},{"poiid":"B2094654DA68ABF8469E","title":"生安花苑","lon":"121.54338","lat":"31.236732","category":"47","category_name":"住宅区","address":"张杨路1673弄"},{"poiid":"B2094750D665ABFB439A","title":"金湘缘","lon":"121.54","lat":"31.2379","category":"77","category_name":"湖南菜","address":"浦东新区栖山路153号(近巨野路)"},{"poiid":"B2094654DA68AAFC4798","title":"永琪美容美发张杨二店","lon":"121.54429","lat":"31.23651","category":"148","category_name":"美容美发店","address":""},{"poiid":"B2094757D16CA2FF489C","title":"广东祥记蚝庄(栖山路店)","lon":"121.5416","lat":"31.24159","category":"68","category_name":"快餐厅","address":"浦东新区栖山路12号(近民生路)"},{"poiid":"B2094757D16EA3FB459E","title":"上海船舶运输科学研究所","lon":"121.540933701","lat":"31.2377258432","category":"500","category_name":"未知分类","address":"上海浦东新区民生路600号"},{"poiid":"B2094757D66DABFF4798","title":"马记川味麻辣烫(沈家弄路店)","lon":"121.54422","lat":"31.23737","category":"247","category_name":"餐饮美食","address":"上海浦东新区沈家弄路802号(近民生路)  "},{"poiid":"B2094654DA68ABFF4692","title":"运昌商务楼","lon":"121.54235","lat":"31.23707","category":"46","category_name":"楼宇","address":"沈家弄路770"},{"poiid":"B2094654DB6BABF44492","title":"中国电信浦东电信局陆家嘴分局","lon":"121.5432","lat":"31.23866","category":"263","category_name":"公司","address":"民生路579"},{"poiid":"B2094757D568A5FA4893","title":"避风塘","lon":"121.5423581","lat":"31.237075","category":"68","category_name":"快餐厅","address":"沈家弄路770弄旁"},{"poiid":"B2094757D16DA6FF439D","title":"全家超市","lon":"121.54310273","lat":"31.236672437","category":"118","category_name":"超级市场","address":"上海市浦东新区张杨路1592号"},{"poiid":"B2094655D26DAAF5419F","title":"泾西绿地","lon":"121.54531","lat":"31.23845","category":"196","category_name":"公园","address":""},{"poiid":"B2094753D668A6FC429E","title":"汉庭酒店(上海陆家嘴民生路店)","lon":"121.541982","lat":"31.239267","category":"216","category_name":"经济型连锁酒店","address":"商城路2142号"},{"poiid":"B2094655D36CA2FB4992","title":"商城路民生路(临时站)","lon":"121.54165","lat":"31.23943","category":"38","category_name":"公交车站","address":""},{"poiid":"B2094757D16CA7F8469A","title":"火火麻辣烫","lon":"121.5439","lat":"31.23605","category":"68","category_name":"快餐厅","address":"浦东新区民生路(张杨路口)"},{"poiid":"B2094654DA68ABF9499D","title":"民生四村","lon":"121.54309","lat":"31.239918","category":"47","category_name":"住宅区","address":"民生路423号"},{"poiid":"B2094757D66BA0F9449F","title":"知鱼轩茶艺馆","lon":"121.543530054","lat":"31.237700793","category":"260","category_name":"其他","address":"浦东新区沈家弄路806号(近民生路)"},{"poiid":"B2094654DA68ABF94592","title":"网誉网吧","lon":"121.54417","lat":"31.23785","category":"176","category_name":"网吧","address":"沈家弄路808"},{"poiid":"B2094655D26BA2F4449E","title":"栖山路民生路","lon":"121.54126","lat":"31.23929","category":"38","category_name":"公交车站","address":""},{"poiid":"B2094654DA68ABFA4492","title":"栖山小区","lon":"121.54363","lat":"31.241777","category":"47","category_name":"住宅区","address":"栖山路100弄1-63号"},{"poiid":"B2094757D064ABFB439E","title":"东方幼儿园(梅园部)","lon":"121.54574473","lat":"31.238932485","category":"57","category_name":"幼儿园","address":"上海浦东新区商城路1028弄36号"},{"poiid":"B2094655D26AA0FA4398","title":"地铁民生路站","lon":"121.54288","lat":"31.23564","category":"36","category_name":"地铁站","address":""}]