[{"poiid":"B2094655D26FA7FA469E","title":"复旦大学附属肿瘤医院","lon":"121.45315","lat":"31.19065","category":"162","category_name":"医院","address":"徐汇区东安路270号(近零陵路)"},{"poiid":"B2094757D06EAAF84699","title":"东安路地铁站","lon":"121.454743","lat":"31.190834","category":"36","category_name":"地铁站","address":"上海轨道交通 四号线 七号线 轨交东安路站 轻轨 4 7"},{"poiid":"B2094654DA6EA1FC469D","title":"复旦大学光华楼","lon":"121.45357","lat":"31.19166","category":"265","category_name":"知名企业","address":"邯郸路220号"},{"poiid":"B2094757D064A7FC4793","title":"上海徐汇国际行政公寓","lon":"121.453992","lat":"31.192109","category":"500","category_name":"未知分类","address":"徐汇区东安路255号(近斜土路)"},{"poiid":"B2094757D06AA5FC4199","title":"上海田子坊","lon":"121.45459158","lat":"31.189467634","category":"500","category_name":"未知分类","address":"上海市徐汇区斜土路"},{"poiid":"B2094757D06FA5F8469C","title":"南洋模范中学(本部)","lon":"121.45216","lat":"31.18938","category":"55","category_name":"中学","address":"徐汇区零陵路453号(近东安路)"},{"poiid":"B2094757D068A3F9419C","title":"大王锅贴(东安路店)","lon":"121.45448","lat":"31.19116","category":"68","category_name":"快餐厅","address":"徐汇区东安路424号(零陵中学对面)"},{"poiid":"B2094757D069A3FC429B","title":"安吉汽车销售","lon":"121.453248","lat":"31.193429577","category":"158","category_name":"汽车销售","address":"徐汇区东安路239号(近斜土路)"},{"poiid":"B2094655D268A5F5499C","title":"东安新村","lon":"121.45395","lat":"31.18977","category":"47","category_name":"住宅区","address":""},{"poiid":"B2094757D06FAAFD4892","title":"永和大王(东安路店)","lon":"121.45471","lat":"31.1912","category":"68","category_name":"快餐厅","address":"徐汇区东安路263-1号(近零陵路)"},{"poiid":"B2094753D165A4F8439C","title":"星巴克(正大乐城)","lon":"121.452503","lat":"31.190905","category":"500","category_name":"未知分类","address":"上海市 徐汇区中山南二路699号1楼"},{"poiid":"B2094752DA68A7F5479F","title":"华士达东方影城","lon":"121.453438","lat":"31.189429","category":"500","category_name":"未知分类","address":"上海市 东安路599号正大乐城3楼"},{"poiid":"B2094757D065A2F9449E","title":"徐汇游泳馆 室内羽毛球馆","lon":"121.45356927","lat":"31.190225298","category":"500","category_name":"未知分类","address":"上海市徐汇区枫林路329号 四楼"},{"poiid":"B2094757D06AABFC4298","title":"肯德基KFC (东安路店)","lon":"121.454740903","lat":"31.1908887441","category":"68","category_name":"快餐厅","address":"上海轨道交通7号线东安路站站厅层"},{"poiid":"B2094654DA6EA2F44993","title":"上海中医药大学继续教育学院","lon":"121.45199","lat":"31.18902","category":"53","category_name":"成人教育","address":"零陵路530号15幢6-8层"},{"poiid":"B2094757D068A2FE499A","title":"东安二村","lon":"121.45557","lat":"31.187586","category":"252","category_name":"楼宇机构","address":"上海中山南二路东安路"},{"poiid":"B2094757D069A6FF489A","title":"零陵中学","lon":"121.45628","lat":"31.1884","category":"55","category_name":"中学","address":"徐汇区东安路451号(近零陵路)"},{"poiid":"B2094654DA6EA2F5409F","title":"半岛鱼翅海鲜酒楼","lon":"121.45085614548","lat":"31.18890740879","category":"88","category_name":"海鲜酒楼","address":"徐汇区零陵路518号长航宾馆1-2楼(近东安路)"},{"poiid":"B2094655D36DA7F9449D","title":"肿瘤医院","lon":"121.45531","lat":"31.18997","category":"162","category_name":"医院","address":"徐汇区东安路270号"},{"poiid":"B2094757D064A0FC4798","title":"徐汇区教育学院","lon":"121.45531","lat":"31.1868","category":"52","category_name":"高等院校","address":"徐汇区中山南二路800号(近东安路)"},{"poiid":"B2094757D06FA6FA489A","title":"85度C(东安店)","lon":"121.454341838","lat":"31.1919660094","category":"112","category_name":"糕饼店","address":"徐汇区东安路261-1号A区(东安路零陵路)"},{"poiid":"B2094655D36CA1F94692","title":"零陵路东安路","lon":"121.45443","lat":"31.19064","category":"38","category_name":"公交车站","address":""},{"poiid":"B2094654DB64A6FB449D","title":"长航宾馆","lon":"121.45213","lat":"31.18946","category":"250","category_name":"公园户外","address":"徐汇区零陵路518号"},{"poiid":"B2094757D069A1F9479B","title":"苏州羊肉馆(东安路店)","lon":"121.45517","lat":"31.18966","category":"68","category_name":"快餐厅","address":"徐汇区东安路352号邮局旁(近零陵路)"},{"poiid":"B2094757D06FA7FA489E","title":"东安一村","lon":"121.455943","lat":"31.191161","category":"47","category_name":"住宅区","address":"上海徐汇区零陵路350弄1-110号(近东安路)"},{"poiid":"B2094757D568AAFD4193","title":"汉庭快捷酒店(徐家汇东安路店)","lon":"121.45510715","lat":"31.19020562","category":"216","category_name":"经济型连锁酒店","address":"徐汇区东安路360号(近零陵路)"},{"poiid":"B2094753D165A3FF4492","title":"Fani Burger","lon":"121.453227","lat":"31.188324","category":"500","category_name":"未知分类","address":"上海市 徐汇区中山南二路699号2-104室"},{"poiid":"B2094752D46BA0F44298","title":"徐汇滨江绿地","lon":"121.454438","lat":"31.190028","category":"500","category_name":"未知分类","address":null},{"poiid":"B2094655D26AA0F8499B","title":"地铁东安路站","lon":"121.45475","lat":"31.19077","category":"36","category_name":"地铁站","address":""},{"poiid":"B2094753D165A3F8449F","title":"正大乐城-大众书局","lon":"121.453336","lat":"31.188074","category":"500","category_name":"未知分类","address":"上海市 徐汇区龙华中路"},{"poiid":"B2094757D165A2FE4198","title":"你我他","lon":"121.45479","lat":"31.19014","category":"68","category_name":"快餐厅","address":"徐汇区零陵路374号(近东安路)"},{"poiid":"B2094654DA6DA7FF429E","title":"中煌大厦","lon":"121.452345","lat":"31.187456","category":"46","category_name":"楼宇","address":"沈河北站路与北京街的交汇处"},{"poiid":"B2094655D36DA6FD419E","title":"东安路","lon":"121.45475","lat":"31.19077","category":"38","category_name":"公交车站","address":""},{"poiid":"B2094655D268A5F5499E","title":"东安新村(北门)","lon":"121.45378","lat":"31.19014","category":"47","category_name":"住宅区","address":""},{"poiid":"B2094655D26FA1F94393","title":"半岛西餐厅","lon":"121.45212","lat":"31.18946","category":"94","category_name":"西餐厅","address":"徐汇区零陵路518号2楼(近东安路)"},{"poiid":"B2094655D265A2F94792","title":"速8酒店徐家汇店","lon":"121.45145","lat":"31.18918","category":"216","category_name":"经济型连锁酒店","address":"徐汇区零陵路520号"},{"poiid":"B2094752DA6FA7FC479F","title":"龙华医院","lon":"121.453966","lat":"31.188532","category":"162","category_name":"医院","address":"上海市 徐汇区宛平南路725号"},{"poiid":"B2094654DA6EA2F4429B","title":"上海复医门诊部","lon":"121.45421","lat":"31.19029","category":"162","category_name":"医院","address":"徐汇区零陵路384号"},{"poiid":"B2094757D168A7F94399","title":"49路肿瘤医院站","lon":"121.453907","lat":"31.190564","category":"162","category_name":"医院","address":"上海东安路地铁站"},{"poiid":"B2094753D664AAF9469C","title":"正大乐城","lon":"121.456886","lat":"31.189115","category":"170","category_name":"KTV","address":"上海市 中山南二路679号"},{"poiid":"B2094757D169A4FF4193","title":"大众美林阁","lon":"121.454444738","lat":"31.1894034305","category":"247","category_name":"餐饮美食","address":"上海市吴中路"},{"poiid":"B2094753D66EA0F4449B","title":"正大乐城","lon":"121.452428","lat":"31.188917","category":"170","category_name":"KTV","address":"上海市 中山南二路699号（近东安路）"},{"poiid":"B2094753D26AABFA439E","title":"万人体育馆","lon":"121.452428","lat":"31.188917","category":"500","category_name":"未知分类","address":"上海市 漕溪路"},{"poiid":"B2094757D16DA4FD4992","title":"49路东安路中山南二路站","lon":"121.453954","lat":"31.189772","category":"500","category_name":"未知分类","address":"上海东安新村"},{"poiid":"B2094757DA6BA6FE449C","title":"上海绿地中心一期","lon":"121.456362","lat":"31.187987","category":"252","category_name":"楼宇机构","address":"徐汇钦州北路188号"},{"poiid":"B2094655D268A0F94399","title":"东安路338弄小区","lon":"121.4546","lat":"31.19021","category":"47","category_name":"住宅区","address":"东安路338弄"},{"poiid":"B2094757D16CAAFD419A","title":"复旦大学附属肿瘤医院ICU","lon":"121.453561656","lat":"31.1909297226","category":"162","category_name":"医院","address":"上海东安路270号"},{"poiid":"B2094757D16FA7FA4593","title":"罗森(东安路地铁站店)","lon":"121.454406","lat":"31.190375","category":"117","category_name":"便民商店/便利店","address":"上海徐汇区 东安路地铁站"},{"poiid":"B2094753D66BA0F44993","title":"正大乐城","lon":"121.455238","lat":"31.187892","category":"170","category_name":"KTV","address":"上海市 徐汇区中山南二路东安路"},{"poiid":"B2094654DA6DA5FA409D","title":"奥灶菜馆","lon":"121.456076054","lat":"31.187141793","category":"68","category_name":"快餐厅","address":"徐汇区东安路501号(近中山南二路)"},{"poiid":"B2094655D26FA7FA469E","title":"复旦大学附属肿瘤医院","lon":"121.45315","lat":"31.19065","category":"162","category_name":"医院","address":"徐汇区东安路270号(近零陵路)"},{"poiid":"B2094757D06EAAF84699","title":"东安路地铁站","lon":"121.454743","lat":"31.190834","category":"36","category_name":"地铁站","address":"上海轨道交通 四号线 七号线 轨交东安路站 轻轨 4 7"},{"poiid":"B2094654DA6EA1FC469D","title":"复旦大学光华楼","lon":"121.45357","lat":"31.19166","category":"265","category_name":"知名企业","address":"邯郸路220号"},{"poiid":"B2094757D064A7FC4793","title":"上海徐汇国际行政公寓","lon":"121.453992","lat":"31.192109","category":"500","category_name":"未知分类","address":"徐汇区东安路255号(近斜土路)"},{"poiid":"B2094757D06AA5FC4199","title":"上海田子坊","lon":"121.45459158","lat":"31.189467634","category":"500","category_name":"未知分类","address":"上海市徐汇区斜土路"},{"poiid":"B2094757D06FA5F8469C","title":"南洋模范中学(本部)","lon":"121.45216","lat":"31.18938","category":"55","category_name":"中学","address":"徐汇区零陵路453号(近东安路)"},{"poiid":"B2094757D068A3F9419C","title":"大王锅贴(东安路店)","lon":"121.45448","lat":"31.19116","category":"68","category_name":"快餐厅","address":"徐汇区东安路424号(零陵中学对面)"},{"poiid":"B2094757D069A3FC429B","title":"安吉汽车销售","lon":"121.453248","lat":"31.193429577","category":"158","category_name":"汽车销售","address":"徐汇区东安路239号(近斜土路)"},{"poiid":"B2094655D268A5F5499C","title":"东安新村","lon":"121.45395","lat":"31.18977","category":"47","category_name":"住宅区","address":""},{"poiid":"B2094757D06FAAFD4892","title":"永和大王(东安路店)","lon":"121.45471","lat":"31.1912","category":"68","category_name":"快餐厅","address":"徐汇区东安路263-1号(近零陵路)"},{"poiid":"B2094753D165A4F8439C","title":"星巴克(正大乐城)","lon":"121.452503","lat":"31.190905","category":"500","category_name":"未知分类","address":"上海市 徐汇区中山南二路699号1楼"},{"poiid":"B2094752DA68A7F5479F","title":"华士达东方影城","lon":"121.453438","lat":"31.189429","category":"500","category_name":"未知分类","address":"上海市 东安路599号正大乐城3楼"},{"poiid":"B2094757D065A2F9449E","title":"徐汇游泳馆 室内羽毛球馆","lon":"121.45356927","lat":"31.190225298","category":"500","category_name":"未知分类","address":"上海市徐汇区枫林路329号 四楼"},{"poiid":"B2094757D06AABFC4298","title":"肯德基KFC (东安路店)","lon":"121.454740903","lat":"31.1908887441","category":"68","category_name":"快餐厅","address":"上海轨道交通7号线东安路站站厅层"},{"poiid":"B2094654DA6EA2F44993","title":"上海中医药大学继续教育学院","lon":"121.45199","lat":"31.18902","category":"53","category_name":"成人教育","address":"零陵路530号15幢6-8层"},{"poiid":"B2094757D068A2FE499A","title":"东安二村","lon":"121.45557","lat":"31.187586","category":"252","category_name":"楼宇机构","address":"上海中山南二路东安路"},{"poiid":"B2094757D069A6FF489A","title":"零陵中学","lon":"121.45628","lat":"31.1884","category":"55","category_name":"中学","address":"徐汇区东安路451号(近零陵路)"},{"poiid":"B2094654DA6EA2F5409F","title":"半岛鱼翅海鲜酒楼","lon":"121.45085614548","lat":"31.18890740879","category":"88","category_name":"海鲜酒楼","address":"徐汇区零陵路518号长航宾馆1-2楼(近东安路)"},{"poiid":"B2094655D36DA7F9449D","title":"肿瘤医院","lon":"121.45531","lat":"31.18997","category":"162","category_name":"医院","address":"徐汇区东安路270号"},{"poiid":"B2094757D064A0FC4798","title":"徐汇区教育学院","lon":"121.45531","lat":"31.1868","category":"52","category_name":"高等院校","address":"徐汇区中山南二路800号(近东安路)"},{"poiid":"B2094757D06FA6FA489A","title":"85度C(东安店)","lon":"121.454341838","lat":"31.1919660094","category":"112","category_name":"糕饼店","address":"徐汇区东安路261-1号A区(东安路零陵路)"},{"poiid":"B2094655D36CA1F94692","title":"零陵路东安路","lon":"121.45443","lat":"31.19064","category":"38","category_name":"公交车站","address":""},{"poiid":"B2094654DB64A6FB449D","title":"长航宾馆","lon":"121.45213","lat":"31.18946","category":"250","category_name":"公园户外","address":"徐汇区零陵路518号"},{"poiid":"B2094757D069A1F9479B","title":"苏州羊肉馆(东安路店)","lon":"121.45517","lat":"31.18966","category":"68","category_name":"快餐厅","address":"徐汇区东安路352号邮局旁(近零陵路)"},{"poiid":"B2094757D06FA7FA489E","title":"东安一村","lon":"121.455943","lat":"31.191161","category":"47","category_name":"住宅区","address":"上海徐汇区零陵路350弄1-110号(近东安路)"},{"poiid":"B2094757D568AAFD4193","title":"汉庭快捷酒店(徐家汇东安路店)","lon":"121.45510715","lat":"31.19020562","category":"216","category_name":"经济型连锁酒店","address":"徐汇区东安路360号(近零陵路)"},{"poiid":"B2094753D165A3FF4492","title":"Fani Burger","lon":"121.453227","lat":"31.188324","category":"500","category_name":"未知分类","address":"上海市 徐汇区中山南二路699号2-104室"},{"poiid":"B2094752D46BA0F44298","title":"徐汇滨江绿地","lon":"121.454438","lat":"31.190028","category":"500","category_name":"未知分类","address":null},{"poiid":"B2094655D26AA0F8499B","title":"地铁东安路站","lon":"121.45475","lat":"31.19077","category":"36","category_name":"地铁站","address":""},{"poiid":"B2094753D165A3F8449F","title":"正大乐城-大众书局","lon":"121.453336","lat":"31.188074","category":"500","category_name":"未知分类","address":"上海市 徐汇区龙华中路"},{"poiid":"B2094757D165A2FE4198","title":"你我他","lon":"121.45479","lat":"31.19014","category":"68","category_name":"快餐厅","address":"徐汇区零陵路374号(近东安路)"},{"poiid":"B2094654DA6DA7FF429E","title":"中煌大厦","lon":"121.452345","lat":"31.187456","category":"46","category_name":"楼宇","address":"沈河北站路与北京街的交汇处"},{"poiid":"B2094655D36DA6FD419E","title":"东安路","lon":"121.45475","lat":"31.19077","category":"38","category_name":"公交车站","address":""},{"poiid":"B2094655D268A5F5499E","title":"东安新村(北门)","lon":"121.45378","lat":"31.19014","category":"47","category_name":"住宅区","address":""},{"poiid":"B2094655D26FA1F94393","title":"半岛西餐厅","lon":"121.45212","lat":"31.18946","category":"94","category_name":"西餐厅","address":"徐汇区零陵路518号2楼(近东安路)"},{"poiid":"B2094655D265A2F94792","title":"速8酒店徐家汇店","lon":"121.45145","lat":"31.18918","category":"216","category_name":"经济型连锁酒店","address":"徐汇区零陵路520号"},{"poiid":"B2094752DA6FA7FC479F","title":"龙华医院","lon":"121.453966","lat":"31.188532","category":"162","category_name":"医院","address":"上海市 徐汇区宛平南路725号"},{"poiid":"B2094654DA6EA2F4429B","title":"上海复医门诊部","lon":"121.45421","lat":"31.19029","category":"162","category_name":"医院","address":"徐汇区零陵路384号"},{"poiid":"B2094757D168A7F94399","title":"49路肿瘤医院站","lon":"121.453907","lat":"31.190564","category":"162","category_name":"医院","address":"上海东安路地铁站"},{"poiid":"B2094753D664AAF9469C","title":"正大乐城","lon":"121.456886","lat":"31.189115","category":"170","category_name":"KTV","address":"上海市 中山南二路679号"},{"poiid":"B2094757D169A4FF4193","title":"大众美林阁","lon":"121.454444738","lat":"31.1894034305","category":"247","category_name":"餐饮美食","address":"上海市吴中路"},{"poiid":"B2094753D66EA0F4449B","title":"正大乐城","lon":"121.452428","lat":"31.188917","category":"170","category_name":"KTV","address":"上海市 中山南二路699号（近东安路）"},{"poiid":"B2094753D26AABFA439E","title":"万人体育馆","lon":"121.452428","lat":"31.188917","category":"500","category_name":"未知分类","address":"上海市 漕溪路"},{"poiid":"B2094757D16DA4FD4992","title":"49路东安路中山南二路站","lon":"121.453954","lat":"31.189772","category":"500","category_name":"未知分类","address":"上海东安新村"},{"poiid":"B2094757DA6BA6FE449C","title":"上海绿地中心一期","lon":"121.456362","lat":"31.187987","category":"252","category_name":"楼宇机构","address":"徐汇钦州北路188号"},{"poiid":"B2094655D268A0F94399","title":"东安路338弄小区","lon":"121.4546","lat":"31.19021","category":"47","category_name":"住宅区","address":"东安路338弄"},{"poiid":"B2094757D16CAAFD419A","title":"复旦大学附属肿瘤医院ICU","lon":"121.453561656","lat":"31.1909297226","category":"162","category_name":"医院","address":"上海东安路270号"},{"poiid":"B2094757D16FA7FA4593","title":"罗森(东安路地铁站店)","lon":"121.454406","lat":"31.190375","category":"117","category_name":"便民商店/便利店","address":"上海徐汇区 东安路地铁站"},{"poiid":"B2094753D66BA0F44993","title":"正大乐城","lon":"121.455238","lat":"31.187892","category":"170","category_name":"KTV","address":"上海市 徐汇区中山南二路东安路"},{"poiid":"B2094654DA6DA5FA409D","title":"奥灶菜馆","lon":"121.456076054","lat":"31.187141793","category":"68","category_name":"快餐厅","address":"徐汇区东安路501号(近中山南二路)"},{"poiid":"B2094655D26FA7FA469E","title":"复旦大学附属肿瘤医院","lon":"121.45315","lat":"31.19065","category":"162","category_name":"医院","address":"徐汇区东安路270号(近零陵路)"},{"poiid":"B2094757D06EAAF84699","title":"东安路地铁站","lon":"121.454743","lat":"31.190834","category":"36","category_name":"地铁站","address":"上海轨道交通 四号线 七号线 轨交东安路站 轻轨 4 7"},{"poiid":"B2094654DA6EA1FC469D","title":"复旦大学光华楼","lon":"121.45357","lat":"31.19166","category":"265","category_name":"知名企业","address":"邯郸路220号"},{"poiid":"B2094757D064A7FC4793","title":"上海徐汇国际行政公寓","lon":"121.453992","lat":"31.192109","category":"500","category_name":"未知分类","address":"徐汇区东安路255号(近斜土路)"},{"poiid":"B2094757D06AA5FC4199","title":"上海田子坊","lon":"121.45459158","lat":"31.189467634","category":"500","category_name":"未知分类","address":"上海市徐汇区斜土路"},{"poiid":"B2094757D06FA5F8469C","title":"南洋模范中学(本部)","lon":"121.45216","lat":"31.18938","category":"55","category_name":"中学","address":"徐汇区零陵路453号(近东安路)"},{"poiid":"B2094757D068A3F9419C","title":"大王锅贴(东安路店)","lon":"121.45448","lat":"31.19116","category":"68","category_name":"快餐厅","address":"徐汇区东安路424号(零陵中学对面)"},{"poiid":"B2094757D069A3FC429B","title":"安吉汽车销售","lon":"121.453248","lat":"31.193429577","category":"158","category_name":"汽车销售","address":"徐汇区东安路239号(近斜土路)"},{"poiid":"B2094655D268A5F5499C","title":"东安新村","lon":"121.45395","lat":"31.18977","category":"47","category_name":"住宅区","address":""},{"poiid":"B2094757D06FAAFD4892","title":"永和大王(东安路店)","lon":"121.45471","lat":"31.1912","category":"68","category_name":"快餐厅","address":"徐汇区东安路263-1号(近零陵路)"},{"poiid":"B2094753D165A4F8439C","title":"星巴克(正大乐城)","lon":"121.452503","lat":"31.190905","category":"500","category_name":"未知分类","address":"上海市 徐汇区中山南二路699号1楼"},{"poiid":"B2094752DA68A7F5479F","title":"华士达东方影城","lon":"121.453438","lat":"31.189429","category":"500","category_name":"未知分类","address":"上海市 东安路599号正大乐城3楼"},{"poiid":"B2094757D065A2F9449E","title":"徐汇游泳馆 室内羽毛球馆","lon":"121.45356927","lat":"31.190225298","category":"500","category_name":"未知分类","address":"上海市徐汇区枫林路329号 四楼"},{"poiid":"B2094757D06AABFC4298","title":"肯德基KFC (东安路店)","lon":"121.454740903","lat":"31.1908887441","category":"68","category_name":"快餐厅","address":"上海轨道交通7号线东安路站站厅层"},{"poiid":"B2094654DA6EA2F44993","title":"上海中医药大学继续教育学院","lon":"121.45199","lat":"31.18902","category":"53","category_name":"成人教育","address":"零陵路530号15幢6-8层"},{"poiid":"B2094757D068A2FE499A","title":"东安二村","lon":"121.45557","lat":"31.187586","category":"252","category_name":"楼宇机构","address":"上海中山南二路东安路"},{"poiid":"B2094757D069A6FF489A","title":"零陵中学","lon":"121.45628","lat":"31.1884","category":"55","category_name":"中学","address":"徐汇区东安路451号(近零陵路)"},{"poiid":"B2094654DA6EA2F5409F","title":"半岛鱼翅海鲜酒楼","lon":"121.45085614548","lat":"31.18890740879","category":"88","category_name":"海鲜酒楼","address":"徐汇区零陵路518号长航宾馆1-2楼(近东安路)"},{"poiid":"B2094655D36DA7F9449D","title":"肿瘤医院","lon":"121.45531","lat":"31.18997","category":"162","category_name":"医院","address":"徐汇区东安路270号"},{"poiid":"B2094757D064A0FC4798","title":"徐汇区教育学院","lon":"121.45531","lat":"31.1868","category":"52","category_name":"高等院校","address":"徐汇区中山南二路800号(近东安路)"},{"poiid":"B2094757D06FA6FA489A","title":"85度C(东安店)","lon":"121.454341838","lat":"31.1919660094","category":"112","category_name":"糕饼店","address":"徐汇区东安路261-1号A区(东安路零陵路)"},{"poiid":"B2094655D36CA1F94692","title":"零陵路东安路","lon":"121.45443","lat":"31.19064","category":"38","category_name":"公交车站","address":""},{"poiid":"B2094654DB64A6FB449D","title":"长航宾馆","lon":"121.45213","lat":"31.18946","category":"250","category_name":"公园户外","address":"徐汇区零陵路518号"},{"poiid":"B2094757D069A1F9479B","title":"苏州羊肉馆(东安路店)","lon":"121.45517","lat":"31.18966","category":"68","category_name":"快餐厅","address":"徐汇区东安路352号邮局旁(近零陵路)"},{"poiid":"B2094757D06FA7FA489E","title":"东安一村","lon":"121.455943","lat":"31.191161","category":"47","category_name":"住宅区","address":"上海徐汇区零陵路350弄1-110号(近东安路)"},{"poiid":"B2094757D568AAFD4193","title":"汉庭快捷酒店(徐家汇东安路店)","lon":"121.45510715","lat":"31.19020562","category":"216","category_name":"经济型连锁酒店","address":"徐汇区东安路360号(近零陵路)"},{"poiid":"B2094753D165A3FF4492","title":"Fani Burger","lon":"121.453227","lat":"31.188324","category":"500","category_name":"未知分类","address":"上海市 徐汇区中山南二路699号2-104室"},{"poiid":"B2094752D46BA0F44298","title":"徐汇滨江绿地","lon":"121.454438","lat":"31.190028","category":"500","category_name":"未知分类","address":null},{"poiid":"B2094655D26AA0F8499B","title":"地铁东安路站","lon":"121.45475","lat":"31.19077","category":"36","category_name":"地铁站","address":""},{"poiid":"B2094753D165A3F8449F","title":"正大乐城-大众书局","lon":"121.453336","lat":"31.188074","category":"500","category_name":"未知分类","address":"上海市 徐汇区龙华中路"},{"poiid":"B2094757D165A2FE4198","title":"你我他","lon":"121.45479","lat":"31.19014","category":"68","category_name":"快餐厅","address":"徐汇区零陵路374号(近东安路)"},{"poiid":"B2094654DA6DA7FF429E","title":"中煌大厦","lon":"121.452345","lat":"31.187456","category":"46","category_name":"楼宇","address":"沈河北站路与北京街的交汇处"},{"poiid":"B2094655D36DA6FD419E","title":"东安路","lon":"121.45475","lat":"31.19077","category":"38","category_name":"公交车站","address":""},{"poiid":"B2094655D268A5F5499E","title":"东安新村(北门)","lon":"121.45378","lat":"31.19014","category":"47","category_name":"住宅区","address":""},{"poiid":"B2094655D26FA1F94393","title":"半岛西餐厅","lon":"121.45212","lat":"31.18946","category":"94","category_name":"西餐厅","address":"徐汇区零陵路518号2楼(近东安路)"},{"poiid":"B2094655D265A2F94792","title":"速8酒店徐家汇店","lon":"121.45145","lat":"31.18918","category":"216","category_name":"经济型连锁酒店","address":"徐汇区零陵路520号"},{"poiid":"B2094752DA6FA7FC479F","title":"龙华医院","lon":"121.453966","lat":"31.188532","category":"162","category_name":"医院","address":"上海市 徐汇区宛平南路725号"},{"poiid":"B2094654DA6EA2F4429B","title":"上海复医门诊部","lon":"121.45421","lat":"31.19029","category":"162","category_name":"医院","address":"徐汇区零陵路384号"},{"poiid":"B2094757D168A7F94399","title":"49路肿瘤医院站","lon":"121.453907","lat":"31.190564","category":"162","category_name":"医院","address":"上海东安路地铁站"},{"poiid":"B2094753D664AAF9469C","title":"正大乐城","lon":"121.456886","lat":"31.189115","category":"170","category_name":"KTV","address":"上海市 中山南二路679号"},{"poiid":"B2094757D169A4FF4193","title":"大众美林阁","lon":"121.454444738","lat":"31.1894034305","category":"247","category_name":"餐饮美食","address":"上海市吴中路"},{"poiid":"B2094753D66EA0F4449B","title":"正大乐城","lon":"121.452428","lat":"31.188917","category":"170","category_name":"KTV","address":"上海市 中山南二路699号（近东安路）"},{"poiid":"B2094753D26AABFA439E","title":"万人体育馆","lon":"121.452428","lat":"31.188917","category":"500","category_name":"未知分类","address":"上海市 漕溪路"},{"poiid":"B2094757D16DA4FD4992","title":"49路东安路中山南二路站","lon":"121.453954","lat":"31.189772","category":"500","category_name":"未知分类","address":"上海东安新村"},{"poiid":"B2094757DA6BA6FE449C","title":"上海绿地中心一期","lon":"121.456362","lat":"31.187987","category":"252","category_name":"楼宇机构","address":"徐汇钦州北路188号"},{"poiid":"B2094655D268A0F94399","title":"东安路338弄小区","lon":"121.4546","lat":"31.19021","category":"47","category_name":"住宅区","address":"东安路338弄"},{"poiid":"B2094757D16CAAFD419A","title":"复旦大学附属肿瘤医院ICU","lon":"121.453561656","lat":"31.1909297226","category":"162","category_name":"医院","address":"上海东安路270号"},{"poiid":"B2094757D16FA7FA4593","title":"罗森(东安路地铁站店)","lon":"121.454406","lat":"31.190375","category":"117","category_name":"便民商店/便利店","address":"上海徐汇区 东安路地铁站"},{"poiid":"B2094753D66BA0F44993","title":"正大乐城","lon":"121.455238","lat":"31.187892","category":"170","category_name":"KTV","address":"上海市 徐汇区中山南二路东安路"},{"poiid":"B2094654DA6DA5FA409D","title":"奥灶菜馆","lon":"121.456076054","lat":"31.187141793","category":"68","category_name":"快餐厅","address":"徐汇区东安路501号(近中山南二路)"}]