[{"poiid":"B2094654DA6BABF4449E","title":"热带风暴水上乐园","lon":"121.37227","lat":"31.13948","category":"250","category_name":"公园户外","address":"上海市闵行区新镇路78号"},{"poiid":"B2094757D06EAAFD409D","title":"闵行体育公园","lon":"121.36664128","lat":"31.146892955","category":"500","category_name":"未知分类","address":"闵行区新镇路456号(近农南路)"},{"poiid":"B2094757D06FA1FE419F","title":"闵行体育馆","lon":"121.37105783","lat":"31.142171733","category":"224","category_name":"综合体育馆","address":"闵行区新镇路288号闵行体育馆内(近热带风暴)"},{"poiid":"B2094757DB6DA5F94399","title":"上海富建酒店","lon":"121.360323429","lat":"31.139348045","category":"213","category_name":"五星级宾馆","address":"上海市闵行区七莘路1885号(中谊路与七莘路南侧路西)"},{"poiid":"B2094757D16AA0F5419D","title":"财富108广场","lon":"121.368","lat":"31.1393","category":"500","category_name":"未知分类","address":"闵行区七莘路1839号(近华中路)"},{"poiid":"B2094757D068A0FE489A","title":"越由大酒店 七莘路店","lon":"121.361253054","lat":"31.138277793","category":"76","category_name":"上海菜","address":"闵行区七莘路1886号(近华友路)"},{"poiid":"B2094757D068A1FF4198","title":"七宝中学","lon":"121.36772541","lat":"31.149760126","category":"55","category_name":"中学","address":"闵行区七中路1号(近农南路)"},{"poiid":"B2094757D06FA6F94293","title":"皇都花园","lon":"121.368953","lat":"31.139816","category":"47","category_name":"住宅区","address":"上海市长宁区黄金城道688弄"},{"poiid":"B2094757D06FA0F8409F","title":"九星建材批发市场","lon":"121.3737","lat":"31.1493","category":"249","category_name":"购物服务","address":"上海闵行区漕宝路6号桥南侧(近虹莘路)  "},{"poiid":"B2094757D06FA7FA4692","title":"大润发(港澳店)","lon":"121.372955948","lat":"31.1322914274","category":"118","category_name":"超级市场","address":"闵行区水清路1390号(近顾戴路)"},{"poiid":"B2094654DA64A1FD4993","title":"圣陶沙花园","lon":"121.37078","lat":"31.132294","category":"47","category_name":"住宅区","address":"上海市闵行区顾戴路2199弄"},{"poiid":"B2094757D068ABFC409E","title":"卜蜂莲花(新镇店)","lon":"121.36962","lat":"31.13986","category":"118","category_name":"超级市场","address":"闵行区宝铭路8号卜蜂莲花内(近新镇路)"},{"poiid":"B2094757D569A1FA4493","title":"闵行体育公园(8号门)","lon":"121.37435981","lat":"31.13667345","category":"680","category_name":"楼宇机构","address":"中国上海市闵行区顾戴路"},{"poiid":"B2094757D068AAFC4998","title":"黎安公园","lon":"121.376856143","lat":"31.131564803","category":"196","category_name":"公园","address":"闵行区黎安路"},{"poiid":"B2094654DA6BAAF8449E","title":"上海七宝外国语小学","lon":"121.37028","lat":"31.13798","category":"56","category_name":"小学","address":"闵行区新镇路79号(近皇都花园)"},{"poiid":"B2094654DA6BAAFA459C","title":"莲浦府邸","lon":"121.36669","lat":"31.140423","category":"47","category_name":"住宅区","address":"七莘路1818弄宝铭路88弄新镇路229弄"},{"poiid":"B2094757D06BA3FA409D","title":"琅迈大都会保龄球馆","lon":"121.37065","lat":"31.14163","category":"500","category_name":"未知分类","address":"闵行区新镇路288号闵行体育馆内(近热带风暴)"},{"poiid":"B2094757D069A1FE489E","title":"COCO壱番屋 水清路店","lon":"121.372840054","lat":"31.134963793","category":"95","category_name":"日本料理","address":"闵行区水清路1460弄3号港澳购物中心103室(近顾戴路)"},{"poiid":"B2094655D36DA0FE429E","title":"新镇路顾戴路","lon":"121.37102","lat":"31.138","category":"38","category_name":"公交车站","address":""},{"poiid":"B2094750D664A7FD4393","title":"麦当劳(宝铭路店)","lon":"121.369","lat":"31.1402","category":"68","category_name":"快餐厅","address":"闵行区新镇路290号(近易初莲花)"},{"poiid":"B2094655D265ABF44893","title":"汉庭快捷酒店上海闵行体育公园店","lon":"121.36744","lat":"31.13956","category":"216","category_name":"经济型连锁酒店","address":"上海市闵行区七宝镇宝铭路82、108号(近新镇路)"},{"poiid":"B2094757D568A5FE4698","title":"闵行体育公园(6号门)","lon":"121.37714355","lat":"31.13722114","category":"680","category_name":"楼宇机构","address":"中国上海市闵行区顾戴路"},{"poiid":"B2094757D064A5FC4093","title":"新新潘晓婷桌球俱乐部(新镇路店)","lon":"121.3712108","lat":"31.142637391","category":"500","category_name":"未知分类","address":"上海新镇路闵行体育馆一层"},{"poiid":"B2094757D46EABF9479A","title":"永和豆浆 宝铭路店 Yungho Soybean","lon":"121.365896","lat":"31.139155","category":"68","category_name":"快餐厅","address":"闵行区宝铭路8号卜蜂莲花内(近新镇路)"},{"poiid":"B2094757D064A0FF419C","title":"外环线 顾戴路出口","lon":"121.37337618","lat":"31.136359872","category":"500","category_name":"未知分类","address":"上海外环线"},{"poiid":"B2094757D169A3FA4792","title":"卡通尼乐园","lon":"121.371660857","lat":"31.1416221958","category":"500","category_name":"未知分类","address":"闵行区新镇路288号闵行体育馆主馆1楼(近热带风暴)"},{"poiid":"B2094757D16BA5FF499D","title":"安藤家","lon":"121.37225","lat":"31.13326","category":"95","category_name":"日本料理","address":"闵行区水清路1460弄103号(近黎安路)"},{"poiid":"B2094655D26AAAF5489F","title":"如家快捷酒店餐厅体育公园店","lon":"121.37042","lat":"31.14014","category":"76","category_name":"上海菜","address":"闵行区新镇路288号闵行体育馆内(近热带风暴)"},{"poiid":"B2094757D06BABFB4399","title":"东方花园三期公园养生豪庭","lon":"121.37422943","lat":"31.141601562","category":"47","category_name":"住宅区","address":"上海荣谊路108弄"},{"poiid":"B2094655D26DA0FE4998","title":"如家酒店(闵行体育馆店)","lon":"121.37161","lat":"31.14319","category":"216","category_name":"经济型连锁酒店","address":"闵行区新镇路288号(近顾戴路口闵行体育馆内)"},{"poiid":"B2094757D069A3FA4793","title":"莲蒲府邸","lon":"121.367150857","lat":"31.1404491723","category":"47","category_name":"住宅区","address":"上海市闵行区宝铭路88弄"},{"poiid":"B2094654DA65A0FC4099","title":"九星建材装潢市场","lon":"121.37741","lat":"31.1394","category":"123","category_name":"家具建材市场","address":"莘庄镇"},{"poiid":"B2094757D165A6FF459F","title":"东方花园三期","lon":"121.36506","lat":"31.142696","category":"47","category_name":"住宅区","address":"上海市闵行区新镇路603弄"},{"poiid":"B2094757D065ABFA4798","title":"四海游龙(水清路店)","lon":"121.37292","lat":"31.13402","category":"68","category_name":"快餐厅","address":"闵行区水清路1460号1号101单元(近顾戴路)"},{"poiid":"B2094757D168A6F84098","title":"熊出沒の地方","lon":"121.37280185","lat":"31.135205067","category":"247","category_name":"餐饮美食","address":null},{"poiid":"B2094757D06BA4FC439D","title":"闵行体育中心羽毛球馆","lon":"121.370326631","lat":"31.1441437264","category":"500","category_name":"未知分类","address":"上海闵行区新镇路288号"},{"poiid":"B2094654DA64A1FE4092","title":"港澳购物中心","lon":"121.37242","lat":"31.1334","category":"119","category_name":"商场","address":"闵行区水清路1500号(近顾戴路)"},{"poiid":"B2094757D06FAAF9459C","title":"圣淘沙花园","lon":"121.378552","lat":"31.138703","category":"47","category_name":"住宅区","address":"上海顾戴路2199弄"},{"poiid":"B2094654DB65A5FF489F","title":"肯德基","lon":"121.37287","lat":"31.13238","category":"68","category_name":"快餐厅","address":"闵行区水清路1390号大润发超市内(近顾戴路)"},{"poiid":"B2094757D568A2F5419F","title":"港澳商品城","lon":"121.3720625","lat":"31.13413583","category":"46","category_name":"楼宇","address":"水清路1500号"},{"poiid":"B2094654DB6CA3FA439D","title":"上海市文来中学(高中部)","lon":"121.38175","lat":"31.14015","category":"55","category_name":"中学","address":"闵行区虹莘路2166号(近平吉路)"},{"poiid":"B2094654DA64A1FE4099","title":"银星小区","lon":"121.3732","lat":"31.134941","category":"47","category_name":"住宅区","address":"闵行区水清路1550弄"},{"poiid":"B2094757D66AA6FA479F","title":"佳养记百味鸡煲","lon":"121.372840054","lat":"31.134963793","category":"86","category_name":"火锅店","address":"闵行区水清路1460弄B区1号102室(近顾戴路)"},{"poiid":"B2094757D06FA6FD409D","title":"平吉二村","lon":"121.380914","lat":"31.142429","category":"252","category_name":"楼宇机构","address":"上海虹莘路2288号"},{"poiid":"B2094750D665A4F9419D","title":"花东海岸台湾私家牛肉面馆(水清路店)","lon":"121.372","lat":"31.1333","category":"68","category_name":"快餐厅","address":"闵行区水清路1460弄1号104室"},{"poiid":"B2094757D06FA0FB499A","title":"外环线","lon":"121.37167739","lat":"31.147986525","category":"500","category_name":"未知分类","address":"上海外环线"},{"poiid":"B2094757D069A1F8419E","title":"宝燕壹号","lon":"121.366843156","lat":"31.1383027689","category":"500","category_name":"未知分类","address":"上海中谊路518号(七莘路口)"},{"poiid":"B2094655D36CA1FE499D","title":"水清北路顾戴路","lon":"121.37204","lat":"31.13428","category":"38","category_name":"公交车站","address":""},{"poiid":"B2094655D26BA2F4419A","title":"七莘路顾戴路","lon":"121.36714","lat":"31.13413","category":"38","category_name":"公交车站","address":"上海七莘路"},{"poiid":"B2094757D065A6FE4793","title":"闵行区财政局","lon":"121.37527687","lat":"31.135937517","category":"500","category_name":"未知分类","address":"上海沪闵路6358号"},{"poiid":"B2094654DA6BABF4449E","title":"热带风暴水上乐园","lon":"121.37227","lat":"31.13948","category":"250","category_name":"公园户外","address":"上海市闵行区新镇路78号"},{"poiid":"B2094757D06EAAFD409D","title":"闵行体育公园","lon":"121.36664128","lat":"31.146892955","category":"500","category_name":"未知分类","address":"闵行区新镇路456号(近农南路)"},{"poiid":"B2094757D06FA1FE419F","title":"闵行体育馆","lon":"121.37105783","lat":"31.142171733","category":"224","category_name":"综合体育馆","address":"闵行区新镇路288号闵行体育馆内(近热带风暴)"},{"poiid":"B2094757DB6DA5F94399","title":"上海富建酒店","lon":"121.360323429","lat":"31.139348045","category":"213","category_name":"五星级宾馆","address":"上海市闵行区七莘路1885号(中谊路与七莘路南侧路西)"},{"poiid":"B2094757D16AA0F5419D","title":"财富108广场","lon":"121.368","lat":"31.1393","category":"500","category_name":"未知分类","address":"闵行区七莘路1839号(近华中路)"},{"poiid":"B2094757D068A0FE489A","title":"越由大酒店 七莘路店","lon":"121.361253054","lat":"31.138277793","category":"76","category_name":"上海菜","address":"闵行区七莘路1886号(近华友路)"},{"poiid":"B2094757D068A1FF4198","title":"七宝中学","lon":"121.36772541","lat":"31.149760126","category":"55","category_name":"中学","address":"闵行区七中路1号(近农南路)"},{"poiid":"B2094757D06FA6F94293","title":"皇都花园","lon":"121.368953","lat":"31.139816","category":"47","category_name":"住宅区","address":"上海市长宁区黄金城道688弄"},{"poiid":"B2094757D06FA0F8409F","title":"九星建材批发市场","lon":"121.3737","lat":"31.1493","category":"249","category_name":"购物服务","address":"上海闵行区漕宝路6号桥南侧(近虹莘路)  "},{"poiid":"B2094757D06FA7FA4692","title":"大润发(港澳店)","lon":"121.372955948","lat":"31.1322914274","category":"118","category_name":"超级市场","address":"闵行区水清路1390号(近顾戴路)"},{"poiid":"B2094654DA64A1FD4993","title":"圣陶沙花园","lon":"121.37078","lat":"31.132294","category":"47","category_name":"住宅区","address":"上海市闵行区顾戴路2199弄"},{"poiid":"B2094757D068ABFC409E","title":"卜蜂莲花(新镇店)","lon":"121.36962","lat":"31.13986","category":"118","category_name":"超级市场","address":"闵行区宝铭路8号卜蜂莲花内(近新镇路)"},{"poiid":"B2094757D569A1FA4493","title":"闵行体育公园(8号门)","lon":"121.37435981","lat":"31.13667345","category":"680","category_name":"楼宇机构","address":"中国上海市闵行区顾戴路"},{"poiid":"B2094757D068AAFC4998","title":"黎安公园","lon":"121.376856143","lat":"31.131564803","category":"196","category_name":"公园","address":"闵行区黎安路"},{"poiid":"B2094654DA6BAAF8449E","title":"上海七宝外国语小学","lon":"121.37028","lat":"31.13798","category":"56","category_name":"小学","address":"闵行区新镇路79号(近皇都花园)"},{"poiid":"B2094654DA6BAAFA459C","title":"莲浦府邸","lon":"121.36669","lat":"31.140423","category":"47","category_name":"住宅区","address":"七莘路1818弄宝铭路88弄新镇路229弄"},{"poiid":"B2094757D06BA3FA409D","title":"琅迈大都会保龄球馆","lon":"121.37065","lat":"31.14163","category":"500","category_name":"未知分类","address":"闵行区新镇路288号闵行体育馆内(近热带风暴)"},{"poiid":"B2094757D069A1FE489E","title":"COCO壱番屋 水清路店","lon":"121.372840054","lat":"31.134963793","category":"95","category_name":"日本料理","address":"闵行区水清路1460弄3号港澳购物中心103室(近顾戴路)"},{"poiid":"B2094655D36DA0FE429E","title":"新镇路顾戴路","lon":"121.37102","lat":"31.138","category":"38","category_name":"公交车站","address":""},{"poiid":"B2094750D664A7FD4393","title":"麦当劳(宝铭路店)","lon":"121.369","lat":"31.1402","category":"68","category_name":"快餐厅","address":"闵行区新镇路290号(近易初莲花)"},{"poiid":"B2094655D265ABF44893","title":"汉庭快捷酒店上海闵行体育公园店","lon":"121.36744","lat":"31.13956","category":"216","category_name":"经济型连锁酒店","address":"上海市闵行区七宝镇宝铭路82、108号(近新镇路)"},{"poiid":"B2094757D568A5FE4698","title":"闵行体育公园(6号门)","lon":"121.37714355","lat":"31.13722114","category":"680","category_name":"楼宇机构","address":"中国上海市闵行区顾戴路"},{"poiid":"B2094757D064A5FC4093","title":"新新潘晓婷桌球俱乐部(新镇路店)","lon":"121.3712108","lat":"31.142637391","category":"500","category_name":"未知分类","address":"上海新镇路闵行体育馆一层"},{"poiid":"B2094757D46EABF9479A","title":"永和豆浆 宝铭路店 Yungho Soybean","lon":"121.365896","lat":"31.139155","category":"68","category_name":"快餐厅","address":"闵行区宝铭路8号卜蜂莲花内(近新镇路)"},{"poiid":"B2094757D064A0FF419C","title":"外环线 顾戴路出口","lon":"121.37337618","lat":"31.136359872","category":"500","category_name":"未知分类","address":"上海外环线"},{"poiid":"B2094757D169A3FA4792","title":"卡通尼乐园","lon":"121.371660857","lat":"31.1416221958","category":"500","category_name":"未知分类","address":"闵行区新镇路288号闵行体育馆主馆1楼(近热带风暴)"},{"poiid":"B2094757D16BA5FF499D","title":"安藤家","lon":"121.37225","lat":"31.13326","category":"95","category_name":"日本料理","address":"闵行区水清路1460弄103号(近黎安路)"},{"poiid":"B2094655D26AAAF5489F","title":"如家快捷酒店餐厅体育公园店","lon":"121.37042","lat":"31.14014","category":"76","category_name":"上海菜","address":"闵行区新镇路288号闵行体育馆内(近热带风暴)"},{"poiid":"B2094757D06BABFB4399","title":"东方花园三期公园养生豪庭","lon":"121.37422943","lat":"31.141601562","category":"47","category_name":"住宅区","address":"上海荣谊路108弄"},{"poiid":"B2094655D26DA0FE4998","title":"如家酒店(闵行体育馆店)","lon":"121.37161","lat":"31.14319","category":"216","category_name":"经济型连锁酒店","address":"闵行区新镇路288号(近顾戴路口闵行体育馆内)"},{"poiid":"B2094757D069A3FA4793","title":"莲蒲府邸","lon":"121.367150857","lat":"31.1404491723","category":"47","category_name":"住宅区","address":"上海市闵行区宝铭路88弄"},{"poiid":"B2094654DA65A0FC4099","title":"九星建材装潢市场","lon":"121.37741","lat":"31.1394","category":"123","category_name":"家具建材市场","address":"莘庄镇"},{"poiid":"B2094757D165A6FF459F","title":"东方花园三期","lon":"121.36506","lat":"31.142696","category":"47","category_name":"住宅区","address":"上海市闵行区新镇路603弄"},{"poiid":"B2094757D065ABFA4798","title":"四海游龙(水清路店)","lon":"121.37292","lat":"31.13402","category":"68","category_name":"快餐厅","address":"闵行区水清路1460号1号101单元(近顾戴路)"},{"poiid":"B2094757D168A6F84098","title":"熊出沒の地方","lon":"121.37280185","lat":"31.135205067","category":"247","category_name":"餐饮美食","address":null},{"poiid":"B2094757D06BA4FC439D","title":"闵行体育中心羽毛球馆","lon":"121.370326631","lat":"31.1441437264","category":"500","category_name":"未知分类","address":"上海闵行区新镇路288号"},{"poiid":"B2094654DA64A1FE4092","title":"港澳购物中心","lon":"121.37242","lat":"31.1334","category":"119","category_name":"商场","address":"闵行区水清路1500号(近顾戴路)"},{"poiid":"B2094757D06FAAF9459C","title":"圣淘沙花园","lon":"121.378552","lat":"31.138703","category":"47","category_name":"住宅区","address":"上海顾戴路2199弄"},{"poiid":"B2094654DB65A5FF489F","title":"肯德基","lon":"121.37287","lat":"31.13238","category":"68","category_name":"快餐厅","address":"闵行区水清路1390号大润发超市内(近顾戴路)"},{"poiid":"B2094757D568A2F5419F","title":"港澳商品城","lon":"121.3720625","lat":"31.13413583","category":"46","category_name":"楼宇","address":"水清路1500号"},{"poiid":"B2094654DB6CA3FA439D","title":"上海市文来中学(高中部)","lon":"121.38175","lat":"31.14015","category":"55","category_name":"中学","address":"闵行区虹莘路2166号(近平吉路)"},{"poiid":"B2094654DA64A1FE4099","title":"银星小区","lon":"121.3732","lat":"31.134941","category":"47","category_name":"住宅区","address":"闵行区水清路1550弄"},{"poiid":"B2094757D66AA6FA479F","title":"佳养记百味鸡煲","lon":"121.372840054","lat":"31.134963793","category":"86","category_name":"火锅店","address":"闵行区水清路1460弄B区1号102室(近顾戴路)"},{"poiid":"B2094757D06FA6FD409D","title":"平吉二村","lon":"121.380914","lat":"31.142429","category":"252","category_name":"楼宇机构","address":"上海虹莘路2288号"},{"poiid":"B2094750D665A4F9419D","title":"花东海岸台湾私家牛肉面馆(水清路店)","lon":"121.372","lat":"31.1333","category":"68","category_name":"快餐厅","address":"闵行区水清路1460弄1号104室"},{"poiid":"B2094757D06FA0FB499A","title":"外环线","lon":"121.37167739","lat":"31.147986525","category":"500","category_name":"未知分类","address":"上海外环线"},{"poiid":"B2094757D069A1F8419E","title":"宝燕壹号","lon":"121.366843156","lat":"31.1383027689","category":"500","category_name":"未知分类","address":"上海中谊路518号(七莘路口)"},{"poiid":"B2094655D36CA1FE499D","title":"水清北路顾戴路","lon":"121.37204","lat":"31.13428","category":"38","category_name":"公交车站","address":""},{"poiid":"B2094655D26BA2F4419A","title":"七莘路顾戴路","lon":"121.36714","lat":"31.13413","category":"38","category_name":"公交车站","address":"上海七莘路"},{"poiid":"B2094757D065A6FE4793","title":"闵行区财政局","lon":"121.37527687","lat":"31.135937517","category":"500","category_name":"未知分类","address":"上海沪闵路6358号"},{"poiid":"B2094654DA6BABF4449E","title":"热带风暴水上乐园","lon":"121.37227","lat":"31.13948","category":"250","category_name":"公园户外","address":"上海市闵行区新镇路78号"},{"poiid":"B2094757D06EAAFD409D","title":"闵行体育公园","lon":"121.36664128","lat":"31.146892955","category":"500","category_name":"未知分类","address":"闵行区新镇路456号(近农南路)"},{"poiid":"B2094757D06FA1FE419F","title":"闵行体育馆","lon":"121.37105783","lat":"31.142171733","category":"224","category_name":"综合体育馆","address":"闵行区新镇路288号闵行体育馆内(近热带风暴)"},{"poiid":"B2094757DB6DA5F94399","title":"上海富建酒店","lon":"121.360323429","lat":"31.139348045","category":"213","category_name":"五星级宾馆","address":"上海市闵行区七莘路1885号(中谊路与七莘路南侧路西)"},{"poiid":"B2094757D16AA0F5419D","title":"财富108广场","lon":"121.368","lat":"31.1393","category":"500","category_name":"未知分类","address":"闵行区七莘路1839号(近华中路)"},{"poiid":"B2094757D068A0FE489A","title":"越由大酒店 七莘路店","lon":"121.361253054","lat":"31.138277793","category":"76","category_name":"上海菜","address":"闵行区七莘路1886号(近华友路)"},{"poiid":"B2094757D068A1FF4198","title":"七宝中学","lon":"121.36772541","lat":"31.149760126","category":"55","category_name":"中学","address":"闵行区七中路1号(近农南路)"},{"poiid":"B2094757D06FA6F94293","title":"皇都花园","lon":"121.368953","lat":"31.139816","category":"47","category_name":"住宅区","address":"上海市长宁区黄金城道688弄"},{"poiid":"B2094757D06FA0F8409F","title":"九星建材批发市场","lon":"121.3737","lat":"31.1493","category":"249","category_name":"购物服务","address":"上海闵行区漕宝路6号桥南侧(近虹莘路)  "},{"poiid":"B2094757D06FA7FA4692","title":"大润发(港澳店)","lon":"121.372955948","lat":"31.1322914274","category":"118","category_name":"超级市场","address":"闵行区水清路1390号(近顾戴路)"},{"poiid":"B2094654DA64A1FD4993","title":"圣陶沙花园","lon":"121.37078","lat":"31.132294","category":"47","category_name":"住宅区","address":"上海市闵行区顾戴路2199弄"},{"poiid":"B2094757D068ABFC409E","title":"卜蜂莲花(新镇店)","lon":"121.36962","lat":"31.13986","category":"118","category_name":"超级市场","address":"闵行区宝铭路8号卜蜂莲花内(近新镇路)"},{"poiid":"B2094757D569A1FA4493","title":"闵行体育公园(8号门)","lon":"121.37435981","lat":"31.13667345","category":"680","category_name":"楼宇机构","address":"中国上海市闵行区顾戴路"},{"poiid":"B2094757D068AAFC4998","title":"黎安公园","lon":"121.376856143","lat":"31.131564803","category":"196","category_name":"公园","address":"闵行区黎安路"},{"poiid":"B2094654DA6BAAF8449E","title":"上海七宝外国语小学","lon":"121.37028","lat":"31.13798","category":"56","category_name":"小学","address":"闵行区新镇路79号(近皇都花园)"},{"poiid":"B2094654DA6BAAFA459C","title":"莲浦府邸","lon":"121.36669","lat":"31.140423","category":"47","category_name":"住宅区","address":"七莘路1818弄宝铭路88弄新镇路229弄"},{"poiid":"B2094757D06BA3FA409D","title":"琅迈大都会保龄球馆","lon":"121.37065","lat":"31.14163","category":"500","category_name":"未知分类","address":"闵行区新镇路288号闵行体育馆内(近热带风暴)"},{"poiid":"B2094757D069A1FE489E","title":"COCO壱番屋 水清路店","lon":"121.372840054","lat":"31.134963793","category":"95","category_name":"日本料理","address":"闵行区水清路1460弄3号港澳购物中心103室(近顾戴路)"},{"poiid":"B2094655D36DA0FE429E","title":"新镇路顾戴路","lon":"121.37102","lat":"31.138","category":"38","category_name":"公交车站","address":""},{"poiid":"B2094750D664A7FD4393","title":"麦当劳(宝铭路店)","lon":"121.369","lat":"31.1402","category":"68","category_name":"快餐厅","address":"闵行区新镇路290号(近易初莲花)"},{"poiid":"B2094655D265ABF44893","title":"汉庭快捷酒店上海闵行体育公园店","lon":"121.36744","lat":"31.13956","category":"216","category_name":"经济型连锁酒店","address":"上海市闵行区七宝镇宝铭路82、108号(近新镇路)"},{"poiid":"B2094757D568A5FE4698","title":"闵行体育公园(6号门)","lon":"121.37714355","lat":"31.13722114","category":"680","category_name":"楼宇机构","address":"中国上海市闵行区顾戴路"},{"poiid":"B2094757D064A5FC4093","title":"新新潘晓婷桌球俱乐部(新镇路店)","lon":"121.3712108","lat":"31.142637391","category":"500","category_name":"未知分类","address":"上海新镇路闵行体育馆一层"},{"poiid":"B2094757D46EABF9479A","title":"永和豆浆 宝铭路店 Yungho Soybean","lon":"121.365896","lat":"31.139155","category":"68","category_name":"快餐厅","address":"闵行区宝铭路8号卜蜂莲花内(近新镇路)"},{"poiid":"B2094757D064A0FF419C","title":"外环线 顾戴路出口","lon":"121.37337618","lat":"31.136359872","category":"500","category_name":"未知分类","address":"上海外环线"},{"poiid":"B2094757D169A3FA4792","title":"卡通尼乐园","lon":"121.371660857","lat":"31.1416221958","category":"500","category_name":"未知分类","address":"闵行区新镇路288号闵行体育馆主馆1楼(近热带风暴)"},{"poiid":"B2094757D16BA5FF499D","title":"安藤家","lon":"121.37225","lat":"31.13326","category":"95","category_name":"日本料理","address":"闵行区水清路1460弄103号(近黎安路)"},{"poiid":"B2094655D26AAAF5489F","title":"如家快捷酒店餐厅体育公园店","lon":"121.37042","lat":"31.14014","category":"76","category_name":"上海菜","address":"闵行区新镇路288号闵行体育馆内(近热带风暴)"},{"poiid":"B2094757D06BABFB4399","title":"东方花园三期公园养生豪庭","lon":"121.37422943","lat":"31.141601562","category":"47","category_name":"住宅区","address":"上海荣谊路108弄"},{"poiid":"B2094655D26DA0FE4998","title":"如家酒店(闵行体育馆店)","lon":"121.37161","lat":"31.14319","category":"216","category_name":"经济型连锁酒店","address":"闵行区新镇路288号(近顾戴路口闵行体育馆内)"},{"poiid":"B2094757D069A3FA4793","title":"莲蒲府邸","lon":"121.367150857","lat":"31.1404491723","category":"47","category_name":"住宅区","address":"上海市闵行区宝铭路88弄"},{"poiid":"B2094654DA65A0FC4099","title":"九星建材装潢市场","lon":"121.37741","lat":"31.1394","category":"123","category_name":"家具建材市场","address":"莘庄镇"},{"poiid":"B2094757D165A6FF459F","title":"东方花园三期","lon":"121.36506","lat":"31.142696","category":"47","category_name":"住宅区","address":"上海市闵行区新镇路603弄"},{"poiid":"B2094757D065ABFA4798","title":"四海游龙(水清路店)","lon":"121.37292","lat":"31.13402","category":"68","category_name":"快餐厅","address":"闵行区水清路1460号1号101单元(近顾戴路)"},{"poiid":"B2094757D168A6F84098","title":"熊出沒の地方","lon":"121.37280185","lat":"31.135205067","category":"247","category_name":"餐饮美食","address":null},{"poiid":"B2094757D06BA4FC439D","title":"闵行体育中心羽毛球馆","lon":"121.370326631","lat":"31.1441437264","category":"500","category_name":"未知分类","address":"上海闵行区新镇路288号"},{"poiid":"B2094654DA64A1FE4092","title":"港澳购物中心","lon":"121.37242","lat":"31.1334","category":"119","category_name":"商场","address":"闵行区水清路1500号(近顾戴路)"},{"poiid":"B2094757D06FAAF9459C","title":"圣淘沙花园","lon":"121.378552","lat":"31.138703","category":"47","category_name":"住宅区","address":"上海顾戴路2199弄"},{"poiid":"B2094654DB65A5FF489F","title":"肯德基","lon":"121.37287","lat":"31.13238","category":"68","category_name":"快餐厅","address":"闵行区水清路1390号大润发超市内(近顾戴路)"},{"poiid":"B2094757D568A2F5419F","title":"港澳商品城","lon":"121.3720625","lat":"31.13413583","category":"46","category_name":"楼宇","address":"水清路1500号"},{"poiid":"B2094654DB6CA3FA439D","title":"上海市文来中学(高中部)","lon":"121.38175","lat":"31.14015","category":"55","category_name":"中学","address":"闵行区虹莘路2166号(近平吉路)"},{"poiid":"B2094654DA64A1FE4099","title":"银星小区","lon":"121.3732","lat":"31.134941","category":"47","category_name":"住宅区","address":"闵行区水清路1550弄"},{"poiid":"B2094757D66AA6FA479F","title":"佳养记百味鸡煲","lon":"121.372840054","lat":"31.134963793","category":"86","category_name":"火锅店","address":"闵行区水清路1460弄B区1号102室(近顾戴路)"},{"poiid":"B2094757D06FA6FD409D","title":"平吉二村","lon":"121.380914","lat":"31.142429","category":"252","category_name":"楼宇机构","address":"上海虹莘路2288号"},{"poiid":"B2094750D665A4F9419D","title":"花东海岸台湾私家牛肉面馆(水清路店)","lon":"121.372","lat":"31.1333","category":"68","category_name":"快餐厅","address":"闵行区水清路1460弄1号104室"},{"poiid":"B2094757D06FA0FB499A","title":"外环线","lon":"121.37167739","lat":"31.147986525","category":"500","category_name":"未知分类","address":"上海外环线"},{"poiid":"B2094757D069A1F8419E","title":"宝燕壹号","lon":"121.366843156","lat":"31.1383027689","category":"500","category_name":"未知分类","address":"上海中谊路518号(七莘路口)"},{"poiid":"B2094655D36CA1FE499D","title":"水清北路顾戴路","lon":"121.37204","lat":"31.13428","category":"38","category_name":"公交车站","address":""},{"poiid":"B2094655D26BA2F4419A","title":"七莘路顾戴路","lon":"121.36714","lat":"31.13413","category":"38","category_name":"公交车站","address":"上海七莘路"},{"poiid":"B2094757D065A6FE4793","title":"闵行区财政局","lon":"121.37527687","lat":"31.135937517","category":"500","category_name":"未知分类","address":"上海沪闵路6358号"},{"poiid":"B2094654DA6BABF4449E","title":"热带风暴水上乐园","lon":"121.37227","lat":"31.13948","category":"250","category_name":"公园户外","address":"上海市闵行区新镇路78号"},{"poiid":"B2094757D06EAAFD409D","title":"闵行体育公园","lon":"121.36664128","lat":"31.146892955","category":"500","category_name":"未知分类","address":"闵行区新镇路456号(近农南路)"},{"poiid":"B2094757D06FA1FE419F","title":"闵行体育馆","lon":"121.37105783","lat":"31.142171733","category":"224","category_name":"综合体育馆","address":"闵行区新镇路288号闵行体育馆内(近热带风暴)"},{"poiid":"B2094757DB6DA5F94399","title":"上海富建酒店","lon":"121.360323429","lat":"31.139348045","category":"213","category_name":"五星级宾馆","address":"上海市闵行区七莘路1885号(中谊路与七莘路南侧路西)"},{"poiid":"B2094757D16AA0F5419D","title":"财富108广场","lon":"121.368","lat":"31.1393","category":"500","category_name":"未知分类","address":"闵行区七莘路1839号(近华中路)"},{"poiid":"B2094757D068A0FE489A","title":"越由大酒店 七莘路店","lon":"121.361253054","lat":"31.138277793","category":"76","category_name":"上海菜","address":"闵行区七莘路1886号(近华友路)"},{"poiid":"B2094757D068A1FF4198","title":"七宝中学","lon":"121.36772541","lat":"31.149760126","category":"55","category_name":"中学","address":"闵行区七中路1号(近农南路)"},{"poiid":"B2094757D06FA6F94293","title":"皇都花园","lon":"121.368953","lat":"31.139816","category":"47","category_name":"住宅区","address":"上海市长宁区黄金城道688弄"},{"poiid":"B2094757D06FA0F8409F","title":"九星建材批发市场","lon":"121.3737","lat":"31.1493","category":"249","category_name":"购物服务","address":"上海闵行区漕宝路6号桥南侧(近虹莘路)  "},{"poiid":"B2094757D06FA7FA4692","title":"大润发(港澳店)","lon":"121.372955948","lat":"31.1322914274","category":"118","category_name":"超级市场","address":"闵行区水清路1390号(近顾戴路)"},{"poiid":"B2094654DA64A1FD4993","title":"圣陶沙花园","lon":"121.37078","lat":"31.132294","category":"47","category_name":"住宅区","address":"上海市闵行区顾戴路2199弄"},{"poiid":"B2094757D068ABFC409E","title":"卜蜂莲花(新镇店)","lon":"121.36962","lat":"31.13986","category":"118","category_name":"超级市场","address":"闵行区宝铭路8号卜蜂莲花内(近新镇路)"},{"poiid":"B2094757D569A1FA4493","title":"闵行体育公园(8号门)","lon":"121.37435981","lat":"31.13667345","category":"680","category_name":"楼宇机构","address":"中国上海市闵行区顾戴路"},{"poiid":"B2094757D068AAFC4998","title":"黎安公园","lon":"121.376856143","lat":"31.131564803","category":"196","category_name":"公园","address":"闵行区黎安路"},{"poiid":"B2094654DA6BAAF8449E","title":"上海七宝外国语小学","lon":"121.37028","lat":"31.13798","category":"56","category_name":"小学","address":"闵行区新镇路79号(近皇都花园)"},{"poiid":"B2094654DA6BAAFA459C","title":"莲浦府邸","lon":"121.36669","lat":"31.140423","category":"47","category_name":"住宅区","address":"七莘路1818弄宝铭路88弄新镇路229弄"},{"poiid":"B2094757D06BA3FA409D","title":"琅迈大都会保龄球馆","lon":"121.37065","lat":"31.14163","category":"500","category_name":"未知分类","address":"闵行区新镇路288号闵行体育馆内(近热带风暴)"},{"poiid":"B2094757D069A1FE489E","title":"COCO壱番屋 水清路店","lon":"121.372840054","lat":"31.134963793","category":"95","category_name":"日本料理","address":"闵行区水清路1460弄3号港澳购物中心103室(近顾戴路)"},{"poiid":"B2094655D36DA0FE429E","title":"新镇路顾戴路","lon":"121.37102","lat":"31.138","category":"38","category_name":"公交车站","address":""},{"poiid":"B2094750D664A7FD4393","title":"麦当劳(宝铭路店)","lon":"121.369","lat":"31.1402","category":"68","category_name":"快餐厅","address":"闵行区新镇路290号(近易初莲花)"},{"poiid":"B2094655D265ABF44893","title":"汉庭快捷酒店上海闵行体育公园店","lon":"121.36744","lat":"31.13956","category":"216","category_name":"经济型连锁酒店","address":"上海市闵行区七宝镇宝铭路82、108号(近新镇路)"},{"poiid":"B2094757D568A5FE4698","title":"闵行体育公园(6号门)","lon":"121.37714355","lat":"31.13722114","category":"680","category_name":"楼宇机构","address":"中国上海市闵行区顾戴路"},{"poiid":"B2094757D064A5FC4093","title":"新新潘晓婷桌球俱乐部(新镇路店)","lon":"121.3712108","lat":"31.142637391","category":"500","category_name":"未知分类","address":"上海新镇路闵行体育馆一层"},{"poiid":"B2094757D46EABF9479A","title":"永和豆浆 宝铭路店 Yungho Soybean","lon":"121.365896","lat":"31.139155","category":"68","category_name":"快餐厅","address":"闵行区宝铭路8号卜蜂莲花内(近新镇路)"},{"poiid":"B2094757D064A0FF419C","title":"外环线 顾戴路出口","lon":"121.37337618","lat":"31.136359872","category":"500","category_name":"未知分类","address":"上海外环线"},{"poiid":"B2094757D169A3FA4792","title":"卡通尼乐园","lon":"121.371660857","lat":"31.1416221958","category":"500","category_name":"未知分类","address":"闵行区新镇路288号闵行体育馆主馆1楼(近热带风暴)"},{"poiid":"B2094757D16BA5FF499D","title":"安藤家","lon":"121.37225","lat":"31.13326","category":"95","category_name":"日本料理","address":"闵行区水清路1460弄103号(近黎安路)"},{"poiid":"B2094655D26AAAF5489F","title":"如家快捷酒店餐厅体育公园店","lon":"121.37042","lat":"31.14014","category":"76","category_name":"上海菜","address":"闵行区新镇路288号闵行体育馆内(近热带风暴)"},{"poiid":"B2094757D06BABFB4399","title":"东方花园三期公园养生豪庭","lon":"121.37422943","lat":"31.141601562","category":"47","category_name":"住宅区","address":"上海荣谊路108弄"},{"poiid":"B2094655D26DA0FE4998","title":"如家酒店(闵行体育馆店)","lon":"121.37161","lat":"31.14319","category":"216","category_name":"经济型连锁酒店","address":"闵行区新镇路288号(近顾戴路口闵行体育馆内)"},{"poiid":"B2094757D069A3FA4793","title":"莲蒲府邸","lon":"121.367150857","lat":"31.1404491723","category":"47","category_name":"住宅区","address":"上海市闵行区宝铭路88弄"},{"poiid":"B2094654DA65A0FC4099","title":"九星建材装潢市场","lon":"121.37741","lat":"31.1394","category":"123","category_name":"家具建材市场","address":"莘庄镇"},{"poiid":"B2094757D165A6FF459F","title":"东方花园三期","lon":"121.36506","lat":"31.142696","category":"47","category_name":"住宅区","address":"上海市闵行区新镇路603弄"},{"poiid":"B2094757D065ABFA4798","title":"四海游龙(水清路店)","lon":"121.37292","lat":"31.13402","category":"68","category_name":"快餐厅","address":"闵行区水清路1460号1号101单元(近顾戴路)"},{"poiid":"B2094757D168A6F84098","title":"熊出沒の地方","lon":"121.37280185","lat":"31.135205067","category":"247","category_name":"餐饮美食","address":null},{"poiid":"B2094757D06BA4FC439D","title":"闵行体育中心羽毛球馆","lon":"121.370326631","lat":"31.1441437264","category":"500","category_name":"未知分类","address":"上海闵行区新镇路288号"},{"poiid":"B2094654DA64A1FE4092","title":"港澳购物中心","lon":"121.37242","lat":"31.1334","category":"119","category_name":"商场","address":"闵行区水清路1500号(近顾戴路)"},{"poiid":"B2094757D06FAAF9459C","title":"圣淘沙花园","lon":"121.378552","lat":"31.138703","category":"47","category_name":"住宅区","address":"上海顾戴路2199弄"},{"poiid":"B2094654DB65A5FF489F","title":"肯德基","lon":"121.37287","lat":"31.13238","category":"68","category_name":"快餐厅","address":"闵行区水清路1390号大润发超市内(近顾戴路)"},{"poiid":"B2094757D568A2F5419F","title":"港澳商品城","lon":"121.3720625","lat":"31.13413583","category":"46","category_name":"楼宇","address":"水清路1500号"},{"poiid":"B2094654DB6CA3FA439D","title":"上海市文来中学(高中部)","lon":"121.38175","lat":"31.14015","category":"55","category_name":"中学","address":"闵行区虹莘路2166号(近平吉路)"},{"poiid":"B2094654DA64A1FE4099","title":"银星小区","lon":"121.3732","lat":"31.134941","category":"47","category_name":"住宅区","address":"闵行区水清路1550弄"},{"poiid":"B2094757D66AA6FA479F","title":"佳养记百味鸡煲","lon":"121.372840054","lat":"31.134963793","category":"86","category_name":"火锅店","address":"闵行区水清路1460弄B区1号102室(近顾戴路)"},{"poiid":"B2094757D06FA6FD409D","title":"平吉二村","lon":"121.380914","lat":"31.142429","category":"252","category_name":"楼宇机构","address":"上海虹莘路2288号"},{"poiid":"B2094750D665A4F9419D","title":"花东海岸台湾私家牛肉面馆(水清路店)","lon":"121.372","lat":"31.1333","category":"68","category_name":"快餐厅","address":"闵行区水清路1460弄1号104室"},{"poiid":"B2094757D06FA0FB499A","title":"外环线","lon":"121.37167739","lat":"31.147986525","category":"500","category_name":"未知分类","address":"上海外环线"},{"poiid":"B2094757D069A1F8419E","title":"宝燕壹号","lon":"121.366843156","lat":"31.1383027689","category":"500","category_name":"未知分类","address":"上海中谊路518号(七莘路口)"},{"poiid":"B2094655D36CA1FE499D","title":"水清北路顾戴路","lon":"121.37204","lat":"31.13428","category":"38","category_name":"公交车站","address":""},{"poiid":"B2094655D26BA2F4419A","title":"七莘路顾戴路","lon":"121.36714","lat":"31.13413","category":"38","category_name":"公交车站","address":"上海七莘路"},{"poiid":"B2094757D065A6FE4793","title":"闵行区财政局","lon":"121.37527687","lat":"31.135937517","category":"500","category_name":"未知分类","address":"上海沪闵路6358号"}]