[{"poiid":"B2094654DA69A1FB419B","title":"世纪公园","lon":"121.55255","lat":"31.21562","category":"196","category_name":"公园","address":"浦东新区锦绣路(1001号1号门，901号2号门，701号3号门)。"},{"poiid":"B2094654DA69A3FE4799","title":"上海科技馆","lon":"121.54144","lat":"31.21851","category":"186","category_name":"科技馆","address":"浦东新区世纪大道2000号"},{"poiid":"B2094654DB6BABF5469B","title":"世纪公园(七号门)","lon":"121.55046","lat":"31.21163","category":"680","category_name":"楼宇机构","address":""},{"poiid":"B2094654DB6BABF5459E","title":"星巴克咖啡(锦严路店)","lon":"121.54044","lat":"31.21641","category":"260","category_name":"其他","address":"浦东新区锦延路219号(近上海科技馆)"},{"poiid":"B2094757D06EAAFA449A","title":"上海科技馆地铁站","lon":"121.54296","lat":"31.219458","category":"36","category_name":"地铁站","address":"上海轨道交通 二号线 轨交上海科技馆站 2"},{"poiid":"B2094757D06FA3FA449A","title":"世纪公园地铁站","lon":"121.55072809","lat":"31.209946341","category":"36","category_name":"地铁站","address":"上海轨道交通 二号线 轨交人民广场站 2"},{"poiid":"B2094655D264A0FA429C","title":"上海丽悦酒店","lon":"121.55006","lat":"31.21023","category":"217","category_name":"旅馆招待所","address":"浦东新区花木路800号(近世纪公园)"},{"poiid":"B2094757D465ABFD4299","title":"慕尼黑皇家啤酒屋 Hofbraeu","lon":"121.54320301081","lat":"31.215851278023","category":"247","category_name":"餐饮美食","address":"浦东新区锦延路309号(近锦绣路)"},{"poiid":"B2094757D068A6FF429D","title":"锦绣坊","lon":"121.54040527","lat":"31.216379165","category":"500","category_name":"未知分类","address":"浦东新区锦延路(近锦绣路)"},{"poiid":"B2094757D06FA5FC439D","title":"花木苑","lon":"121.54359","lat":"31.2104","category":"47","category_name":"住宅区","address":"花木路500弄1-160号"},{"poiid":"B2094757D06BA5FD409D","title":"建平世纪中学","lon":"121.54689","lat":"31.20865","category":"55","category_name":"中学","address":"浦东新区玉兰路356号(梅花路口)"},{"poiid":"B2094654DA69A3F8429F","title":"陆家嘴中央公寓","lon":"121.54082","lat":"31.214033","category":"47","category_name":"住宅区","address":"上海市浦东新区东绣路99弄"},{"poiid":"B2094757D068A1F54693","title":"浦东新区青少年活动中心","lon":"121.54725","lat":"31.22036","category":"249","category_name":"购物服务","address":"上海浦东新区迎春路318号  "},{"poiid":"B2094757D06BA1F8439F","title":"花木社区文化中心","lon":"121.54376973","lat":"31.20864984","category":"500","category_name":"未知分类","address":"上海市浦东新区梅花路281号"},{"poiid":"B2094654DA69A2F84392","title":"东辰大厦","lon":"121.551","lat":"31.2118","category":"46","category_name":"楼宇","address":"越秀区环市东路362-366号"},{"poiid":"B2094757D069A2FD449C","title":"张家浜创意街","lon":"121.54472","lat":"31.21655","category":"116","category_name":"特色商业街","address":"上海浦东新区锦延路(近锦绣路)"},{"poiid":"B2094757D16DA4F94499","title":"御味道","lon":"121.54203973","lat":"31.216068998","category":"500","category_name":"未知分类","address":"上海市浦东新区锦严路"},{"poiid":"B2094655D268A1FA449A","title":"比比客 锦延路店 BBQ","lon":"121.54222","lat":"31.21566","category":"68","category_name":"快餐厅","address":"浦东新区锦延路318号1楼(近科技馆地铁站)"},{"poiid":"B2094757D16DA2F44998","title":"新光酒家方亮蟹宴(浦东店)","lon":"121.550274","lat":"31.210381","category":"257","category_name":"中餐厅","address":"浦东新区花木路800号丽悦酒店4楼(近海桐路)"},{"poiid":"B2094654DB6BABFA499F","title":"香梅花园","lon":"121.53968","lat":"31.21086","category":"47","category_name":"住宅区","address":"上海市浦东新区锦康路389弄"},{"poiid":"B2094757D068AAF9479E","title":"御香海(科技馆店)","lon":"121.54931157","lat":"31.213942729","category":"95","category_name":"日本料理","address":"浦东新区锦延路285号(近张家浜创意园区)"},{"poiid":"B2094757D06AA1FE4093","title":"Daisy's kitchen","lon":"121.54391","lat":"31.21765","category":"94","category_name":"西餐厅","address":"浦东新区世纪大道2002号亚太盛汇南广场J-06号(近地铁二号线上海科技馆站)"},{"poiid":"B2094757D068ABF54998","title":"肯德基KFC(科技馆店)","lon":"121.542076333","lat":"31.2193652614","category":"68","category_name":"快餐厅","address":"浦东新区世纪大道2002号亚太盛汇广场B1楼(近二号线上海科技馆站)"},{"poiid":"B2094757D06FAAFB459A","title":"一兆韦德(东绣路店)","lon":"121.54095","lat":"31.21376","category":"221","category_name":"健身中心","address":"浦东新区东绣路99弄陆家嘴中央公寓32号(近上海科技馆)"},{"poiid":"B2094757D069A6FD459F","title":"Pleasure Coffee","lon":"121.542267054","lat":"31.216790793","category":"260","category_name":"其他","address":"浦东新区锦延路293号(近锦绣路)"},{"poiid":"B2094757D06AA3F84293","title":"世纪公园儿童乐园","lon":"121.55204808","lat":"31.212757738","category":"196","category_name":"公园","address":"上海世纪公园内"},{"poiid":"B2094751D26BA3FA4998","title":"上海帝盛酒店","lon":"121.550703","lat":"31.210424","category":"500","category_name":"未知分类","address":"花木路800号"},{"poiid":"B2094757D16CA5FE4599","title":"康亘轩法式料理 CKC","lon":"121.537618","lat":"31.216577","category":"94","category_name":"西餐厅","address":"浦东新区锦延路269号(莎莉花园小区旁)"},{"poiid":"B2094655D26DAAFA4993","title":"上海亚太盛汇休闲购物广场","lon":"121.54371","lat":"31.21829","category":"119","category_name":"商场","address":"亚太盛汇位于浦东浦东新区世纪大道2002号(杨高路地铁站)"},{"poiid":"B2094757D069A6FE499C","title":"棒约翰比萨(中央公寓店)","lon":"121.54036","lat":"31.2159","category":"94","category_name":"西餐厅","address":"浦东新区锦延路250号(近东绣路)"},{"poiid":"B2094757D064AAF8419A","title":"La Paleta","lon":"121.55030873","lat":"31.210337876","category":"500","category_name":"未知分类","address":"上海市浦东新区花木路"},{"poiid":"B2094757D069AAFB469D","title":"香梅花園","lon":"121.54572296","lat":"31.213663101","category":"500","category_name":"未知分类","address":"上海東繡路梅花路"},{"poiid":"B2094757D06AA6FF4199","title":"湘霸王土菜馆 浦东店","lon":"121.54832332594","lat":"31.209045291263","category":"77","category_name":"湖南菜","address":"浦东新区梅花路601号(近海桐路)"},{"poiid":"B2094655D26EA5F44598","title":"次郎日式快餐 科技馆店","lon":"121.540979054","lat":"31.220935793","category":"68","category_name":"快餐厅","address":"浦东新区世纪大道2002号亚太盛汇广场B区07室(近二号线上海科技馆站)"},{"poiid":"B2094757D06BA5F44099","title":"香梅花园一期","lon":"121.545376","lat":"31.215493","category":"500","category_name":"未知分类","address":"上海市浦东新区花木路388号"},{"poiid":"B2094757D16DABFB409B","title":"申崇四线","lon":"121.54455273","lat":"31.214966974","category":"500","category_name":"未知分类","address":"上海科技馆至长兴岛"},{"poiid":"B2094757D16FA3F4459A","title":"浦东新区人民检察院","lon":"121.54704677","lat":"31.216408624","category":"608","category_name":"法院","address":"上海浦东新区丁香路633号"},{"poiid":"B2094750D268A4F9479C","title":"雅弗源","lon":"121.541984","lat":"31.215764","category":"248","category_name":"生活娱乐","address":"锦延店"},{"poiid":"B209475CD36BA1FA4993","title":"世纪潮府馆","lon":"121.5498694069","lat":"31.211372833107","category":"92","category_name":"潮州菜","address":"花木路809号世纪公园7号门近海桐路"},{"poiid":"B2094655D36CA7FD449E","title":"花木路锦绣路","lon":"121.54267","lat":"31.21199","category":"38","category_name":"公交车站","address":""},{"poiid":"B2094757D66CA7FC439D","title":"东都火锅","lon":"121.544602138","lat":"31.2163760049","category":"247","category_name":"餐饮美食","address":"上海梅花路203号(锦绣路口)"},{"poiid":"B2094654DA69A3F84192","title":"上海市市政工程行业协会浦东办事处","lon":"121.54409","lat":"31.21492","category":"250","category_name":"公园户外","address":"锦绣路1381"},{"poiid":"B2094750D76FA4F5449C","title":"美伊娜和风意大利家庭料理","lon":"121.54","lat":"31.2169","category":"94","category_name":"西餐厅","address":"浦东新区锦延路156号"},{"poiid":"B2094757D76BABF5409F","title":"嘉记茶餐厅","lon":"121.550095","lat":"31.209138","category":"72","category_name":"广东菜","address":"浦东新区梅花路623号(海桐路口)"},{"poiid":"B2094757D06BA2F9409A","title":"全家锦延路店","lon":"121.543379738","lat":"31.2146069672","category":"117","category_name":"便民商店/便利店","address":"上海ShanghaiPudong XinquJinyan Rd"},{"poiid":"B2094757D069ABFF419C","title":"球幕影院","lon":"121.54163346","lat":"31.218096545","category":"178","category_name":"电影院","address":"世纪大道2000号上海科技馆"},{"poiid":"B2094757D06BA3FD469F","title":"申崇二线(科技馆终点站)","lon":"121.546772","lat":"31.217528","category":"500","category_name":"未知分类","address":"上海地铁二号线科技馆站六号口"},{"poiid":"B209475CD764A2F44899","title":"星巴克 科技馆站店","lon":"121.54539","lat":"31.21748","category":"65","category_name":"咖啡厅","address":"地铁二号线科技馆麦尚城内(近科技馆地铁站3号出口)"},{"poiid":"B2094757D16FABFB419E","title":"陆家嘴软件园9号楼大智慧股份有限公司","lon":"121.54235173","lat":"31.214216958","category":"500","category_name":"未知分类","address":"上海市浦东新区锦康路"},{"poiid":"B2094757D169A6FA419F","title":"嘉里中心花木路","lon":"121.54779743","lat":"31.216850415","category":"500","category_name":"未知分类","address":"上海花木路地铁站"},{"poiid":"B2094654DA69A1FB419B","title":"世纪公园","lon":"121.55255","lat":"31.21562","category":"196","category_name":"公园","address":"浦东新区锦绣路(1001号1号门，901号2号门，701号3号门)。"},{"poiid":"B2094654DA69A3FE4799","title":"上海科技馆","lon":"121.54144","lat":"31.21851","category":"186","category_name":"科技馆","address":"浦东新区世纪大道2000号"},{"poiid":"B2094654DB6BABF5469B","title":"世纪公园(七号门)","lon":"121.55046","lat":"31.21163","category":"680","category_name":"楼宇机构","address":""},{"poiid":"B2094654DB6BABF5459E","title":"星巴克咖啡(锦严路店)","lon":"121.54044","lat":"31.21641","category":"260","category_name":"其他","address":"浦东新区锦延路219号(近上海科技馆)"},{"poiid":"B2094757D06EAAFA449A","title":"上海科技馆地铁站","lon":"121.54296","lat":"31.219458","category":"36","category_name":"地铁站","address":"上海轨道交通 二号线 轨交上海科技馆站 2"},{"poiid":"B2094757D06FA3FA449A","title":"世纪公园地铁站","lon":"121.55072809","lat":"31.209946341","category":"36","category_name":"地铁站","address":"上海轨道交通 二号线 轨交人民广场站 2"},{"poiid":"B2094655D264A0FA429C","title":"上海丽悦酒店","lon":"121.55006","lat":"31.21023","category":"217","category_name":"旅馆招待所","address":"浦东新区花木路800号(近世纪公园)"},{"poiid":"B2094757D465ABFD4299","title":"慕尼黑皇家啤酒屋 Hofbraeu","lon":"121.54320301081","lat":"31.215851278023","category":"247","category_name":"餐饮美食","address":"浦东新区锦延路309号(近锦绣路)"},{"poiid":"B2094757D068A6FF429D","title":"锦绣坊","lon":"121.54040527","lat":"31.216379165","category":"500","category_name":"未知分类","address":"浦东新区锦延路(近锦绣路)"},{"poiid":"B2094757D06FA5FC439D","title":"花木苑","lon":"121.54359","lat":"31.2104","category":"47","category_name":"住宅区","address":"花木路500弄1-160号"},{"poiid":"B2094757D06BA5FD409D","title":"建平世纪中学","lon":"121.54689","lat":"31.20865","category":"55","category_name":"中学","address":"浦东新区玉兰路356号(梅花路口)"},{"poiid":"B2094654DA69A3F8429F","title":"陆家嘴中央公寓","lon":"121.54082","lat":"31.214033","category":"47","category_name":"住宅区","address":"上海市浦东新区东绣路99弄"},{"poiid":"B2094757D068A1F54693","title":"浦东新区青少年活动中心","lon":"121.54725","lat":"31.22036","category":"249","category_name":"购物服务","address":"上海浦东新区迎春路318号  "},{"poiid":"B2094757D06BA1F8439F","title":"花木社区文化中心","lon":"121.54376973","lat":"31.20864984","category":"500","category_name":"未知分类","address":"上海市浦东新区梅花路281号"},{"poiid":"B2094654DA69A2F84392","title":"东辰大厦","lon":"121.551","lat":"31.2118","category":"46","category_name":"楼宇","address":"越秀区环市东路362-366号"},{"poiid":"B2094757D069A2FD449C","title":"张家浜创意街","lon":"121.54472","lat":"31.21655","category":"116","category_name":"特色商业街","address":"上海浦东新区锦延路(近锦绣路)"},{"poiid":"B2094757D16DA4F94499","title":"御味道","lon":"121.54203973","lat":"31.216068998","category":"500","category_name":"未知分类","address":"上海市浦东新区锦严路"},{"poiid":"B2094655D268A1FA449A","title":"比比客 锦延路店 BBQ","lon":"121.54222","lat":"31.21566","category":"68","category_name":"快餐厅","address":"浦东新区锦延路318号1楼(近科技馆地铁站)"},{"poiid":"B2094757D16DA2F44998","title":"新光酒家方亮蟹宴(浦东店)","lon":"121.550274","lat":"31.210381","category":"257","category_name":"中餐厅","address":"浦东新区花木路800号丽悦酒店4楼(近海桐路)"},{"poiid":"B2094654DB6BABFA499F","title":"香梅花园","lon":"121.53968","lat":"31.21086","category":"47","category_name":"住宅区","address":"上海市浦东新区锦康路389弄"},{"poiid":"B2094757D068AAF9479E","title":"御香海(科技馆店)","lon":"121.54931157","lat":"31.213942729","category":"95","category_name":"日本料理","address":"浦东新区锦延路285号(近张家浜创意园区)"},{"poiid":"B2094757D06AA1FE4093","title":"Daisy's kitchen","lon":"121.54391","lat":"31.21765","category":"94","category_name":"西餐厅","address":"浦东新区世纪大道2002号亚太盛汇南广场J-06号(近地铁二号线上海科技馆站)"},{"poiid":"B2094757D068ABF54998","title":"肯德基KFC(科技馆店)","lon":"121.542076333","lat":"31.2193652614","category":"68","category_name":"快餐厅","address":"浦东新区世纪大道2002号亚太盛汇广场B1楼(近二号线上海科技馆站)"},{"poiid":"B2094757D06FAAFB459A","title":"一兆韦德(东绣路店)","lon":"121.54095","lat":"31.21376","category":"221","category_name":"健身中心","address":"浦东新区东绣路99弄陆家嘴中央公寓32号(近上海科技馆)"},{"poiid":"B2094757D069A6FD459F","title":"Pleasure Coffee","lon":"121.542267054","lat":"31.216790793","category":"260","category_name":"其他","address":"浦东新区锦延路293号(近锦绣路)"},{"poiid":"B2094757D06AA3F84293","title":"世纪公园儿童乐园","lon":"121.55204808","lat":"31.212757738","category":"196","category_name":"公园","address":"上海世纪公园内"},{"poiid":"B2094751D26BA3FA4998","title":"上海帝盛酒店","lon":"121.550703","lat":"31.210424","category":"500","category_name":"未知分类","address":"花木路800号"},{"poiid":"B2094757D16CA5FE4599","title":"康亘轩法式料理 CKC","lon":"121.537618","lat":"31.216577","category":"94","category_name":"西餐厅","address":"浦东新区锦延路269号(莎莉花园小区旁)"},{"poiid":"B2094655D26DAAFA4993","title":"上海亚太盛汇休闲购物广场","lon":"121.54371","lat":"31.21829","category":"119","category_name":"商场","address":"亚太盛汇位于浦东浦东新区世纪大道2002号(杨高路地铁站)"},{"poiid":"B2094757D069A6FE499C","title":"棒约翰比萨(中央公寓店)","lon":"121.54036","lat":"31.2159","category":"94","category_name":"西餐厅","address":"浦东新区锦延路250号(近东绣路)"},{"poiid":"B2094757D064AAF8419A","title":"La Paleta","lon":"121.55030873","lat":"31.210337876","category":"500","category_name":"未知分类","address":"上海市浦东新区花木路"},{"poiid":"B2094757D069AAFB469D","title":"香梅花園","lon":"121.54572296","lat":"31.213663101","category":"500","category_name":"未知分类","address":"上海東繡路梅花路"},{"poiid":"B2094757D06AA6FF4199","title":"湘霸王土菜馆 浦东店","lon":"121.54832332594","lat":"31.209045291263","category":"77","category_name":"湖南菜","address":"浦东新区梅花路601号(近海桐路)"},{"poiid":"B2094655D26EA5F44598","title":"次郎日式快餐 科技馆店","lon":"121.540979054","lat":"31.220935793","category":"68","category_name":"快餐厅","address":"浦东新区世纪大道2002号亚太盛汇广场B区07室(近二号线上海科技馆站)"},{"poiid":"B2094757D06BA5F44099","title":"香梅花园一期","lon":"121.545376","lat":"31.215493","category":"500","category_name":"未知分类","address":"上海市浦东新区花木路388号"},{"poiid":"B2094757D16DABFB409B","title":"申崇四线","lon":"121.54455273","lat":"31.214966974","category":"500","category_name":"未知分类","address":"上海科技馆至长兴岛"},{"poiid":"B2094757D16FA3F4459A","title":"浦东新区人民检察院","lon":"121.54704677","lat":"31.216408624","category":"608","category_name":"法院","address":"上海浦东新区丁香路633号"},{"poiid":"B2094750D268A4F9479C","title":"雅弗源","lon":"121.541984","lat":"31.215764","category":"248","category_name":"生活娱乐","address":"锦延店"},{"poiid":"B209475CD36BA1FA4993","title":"世纪潮府馆","lon":"121.5498694069","lat":"31.211372833107","category":"92","category_name":"潮州菜","address":"花木路809号世纪公园7号门近海桐路"},{"poiid":"B2094655D36CA7FD449E","title":"花木路锦绣路","lon":"121.54267","lat":"31.21199","category":"38","category_name":"公交车站","address":""},{"poiid":"B2094757D66CA7FC439D","title":"东都火锅","lon":"121.544602138","lat":"31.2163760049","category":"247","category_name":"餐饮美食","address":"上海梅花路203号(锦绣路口)"},{"poiid":"B2094654DA69A3F84192","title":"上海市市政工程行业协会浦东办事处","lon":"121.54409","lat":"31.21492","category":"250","category_name":"公园户外","address":"锦绣路1381"},{"poiid":"B2094750D76FA4F5449C","title":"美伊娜和风意大利家庭料理","lon":"121.54","lat":"31.2169","category":"94","category_name":"西餐厅","address":"浦东新区锦延路156号"},{"poiid":"B2094757D76BABF5409F","title":"嘉记茶餐厅","lon":"121.550095","lat":"31.209138","category":"72","category_name":"广东菜","address":"浦东新区梅花路623号(海桐路口)"},{"poiid":"B2094757D06BA2F9409A","title":"全家锦延路店","lon":"121.543379738","lat":"31.2146069672","category":"117","category_name":"便民商店/便利店","address":"上海ShanghaiPudong XinquJinyan Rd"},{"poiid":"B2094757D069ABFF419C","title":"球幕影院","lon":"121.54163346","lat":"31.218096545","category":"178","category_name":"电影院","address":"世纪大道2000号上海科技馆"},{"poiid":"B2094757D06BA3FD469F","title":"申崇二线(科技馆终点站)","lon":"121.546772","lat":"31.217528","category":"500","category_name":"未知分类","address":"上海地铁二号线科技馆站六号口"},{"poiid":"B209475CD764A2F44899","title":"星巴克 科技馆站店","lon":"121.54539","lat":"31.21748","category":"65","category_name":"咖啡厅","address":"地铁二号线科技馆麦尚城内(近科技馆地铁站3号出口)"},{"poiid":"B2094757D16FABFB419E","title":"陆家嘴软件园9号楼大智慧股份有限公司","lon":"121.54235173","lat":"31.214216958","category":"500","category_name":"未知分类","address":"上海市浦东新区锦康路"},{"poiid":"B2094757D169A6FA419F","title":"嘉里中心花木路","lon":"121.54779743","lat":"31.216850415","category":"500","category_name":"未知分类","address":"上海花木路地铁站"},{"poiid":"B2094654DA69A1FB419B","title":"世纪公园","lon":"121.55255","lat":"31.21562","category":"196","category_name":"公园","address":"浦东新区锦绣路(1001号1号门，901号2号门，701号3号门)。"},{"poiid":"B2094654DA69A3FE4799","title":"上海科技馆","lon":"121.54144","lat":"31.21851","category":"186","category_name":"科技馆","address":"浦东新区世纪大道2000号"},{"poiid":"B2094654DB6BABF5469B","title":"世纪公园(七号门)","lon":"121.55046","lat":"31.21163","category":"680","category_name":"楼宇机构","address":""},{"poiid":"B2094654DB6BABF5459E","title":"星巴克咖啡(锦严路店)","lon":"121.54044","lat":"31.21641","category":"260","category_name":"其他","address":"浦东新区锦延路219号(近上海科技馆)"},{"poiid":"B2094757D06EAAFA449A","title":"上海科技馆地铁站","lon":"121.54296","lat":"31.219458","category":"36","category_name":"地铁站","address":"上海轨道交通 二号线 轨交上海科技馆站 2"},{"poiid":"B2094757D06FA3FA449A","title":"世纪公园地铁站","lon":"121.55072809","lat":"31.209946341","category":"36","category_name":"地铁站","address":"上海轨道交通 二号线 轨交人民广场站 2"},{"poiid":"B2094655D264A0FA429C","title":"上海丽悦酒店","lon":"121.55006","lat":"31.21023","category":"217","category_name":"旅馆招待所","address":"浦东新区花木路800号(近世纪公园)"},{"poiid":"B2094757D465ABFD4299","title":"慕尼黑皇家啤酒屋 Hofbraeu","lon":"121.54320301081","lat":"31.215851278023","category":"247","category_name":"餐饮美食","address":"浦东新区锦延路309号(近锦绣路)"},{"poiid":"B2094757D068A6FF429D","title":"锦绣坊","lon":"121.54040527","lat":"31.216379165","category":"500","category_name":"未知分类","address":"浦东新区锦延路(近锦绣路)"},{"poiid":"B2094757D06FA5FC439D","title":"花木苑","lon":"121.54359","lat":"31.2104","category":"47","category_name":"住宅区","address":"花木路500弄1-160号"},{"poiid":"B2094757D06BA5FD409D","title":"建平世纪中学","lon":"121.54689","lat":"31.20865","category":"55","category_name":"中学","address":"浦东新区玉兰路356号(梅花路口)"},{"poiid":"B2094654DA69A3F8429F","title":"陆家嘴中央公寓","lon":"121.54082","lat":"31.214033","category":"47","category_name":"住宅区","address":"上海市浦东新区东绣路99弄"},{"poiid":"B2094757D068A1F54693","title":"浦东新区青少年活动中心","lon":"121.54725","lat":"31.22036","category":"249","category_name":"购物服务","address":"上海浦东新区迎春路318号  "},{"poiid":"B2094757D06BA1F8439F","title":"花木社区文化中心","lon":"121.54376973","lat":"31.20864984","category":"500","category_name":"未知分类","address":"上海市浦东新区梅花路281号"},{"poiid":"B2094654DA69A2F84392","title":"东辰大厦","lon":"121.551","lat":"31.2118","category":"46","category_name":"楼宇","address":"越秀区环市东路362-366号"},{"poiid":"B2094757D069A2FD449C","title":"张家浜创意街","lon":"121.54472","lat":"31.21655","category":"116","category_name":"特色商业街","address":"上海浦东新区锦延路(近锦绣路)"},{"poiid":"B2094757D16DA4F94499","title":"御味道","lon":"121.54203973","lat":"31.216068998","category":"500","category_name":"未知分类","address":"上海市浦东新区锦严路"},{"poiid":"B2094655D268A1FA449A","title":"比比客 锦延路店 BBQ","lon":"121.54222","lat":"31.21566","category":"68","category_name":"快餐厅","address":"浦东新区锦延路318号1楼(近科技馆地铁站)"},{"poiid":"B2094757D16DA2F44998","title":"新光酒家方亮蟹宴(浦东店)","lon":"121.550274","lat":"31.210381","category":"257","category_name":"中餐厅","address":"浦东新区花木路800号丽悦酒店4楼(近海桐路)"},{"poiid":"B2094654DB6BABFA499F","title":"香梅花园","lon":"121.53968","lat":"31.21086","category":"47","category_name":"住宅区","address":"上海市浦东新区锦康路389弄"},{"poiid":"B2094757D068AAF9479E","title":"御香海(科技馆店)","lon":"121.54931157","lat":"31.213942729","category":"95","category_name":"日本料理","address":"浦东新区锦延路285号(近张家浜创意园区)"},{"poiid":"B2094757D06AA1FE4093","title":"Daisy's kitchen","lon":"121.54391","lat":"31.21765","category":"94","category_name":"西餐厅","address":"浦东新区世纪大道2002号亚太盛汇南广场J-06号(近地铁二号线上海科技馆站)"},{"poiid":"B2094757D068ABF54998","title":"肯德基KFC(科技馆店)","lon":"121.542076333","lat":"31.2193652614","category":"68","category_name":"快餐厅","address":"浦东新区世纪大道2002号亚太盛汇广场B1楼(近二号线上海科技馆站)"},{"poiid":"B2094757D06FAAFB459A","title":"一兆韦德(东绣路店)","lon":"121.54095","lat":"31.21376","category":"221","category_name":"健身中心","address":"浦东新区东绣路99弄陆家嘴中央公寓32号(近上海科技馆)"},{"poiid":"B2094757D069A6FD459F","title":"Pleasure Coffee","lon":"121.542267054","lat":"31.216790793","category":"260","category_name":"其他","address":"浦东新区锦延路293号(近锦绣路)"},{"poiid":"B2094757D06AA3F84293","title":"世纪公园儿童乐园","lon":"121.55204808","lat":"31.212757738","category":"196","category_name":"公园","address":"上海世纪公园内"},{"poiid":"B2094751D26BA3FA4998","title":"上海帝盛酒店","lon":"121.550703","lat":"31.210424","category":"500","category_name":"未知分类","address":"花木路800号"},{"poiid":"B2094757D16CA5FE4599","title":"康亘轩法式料理 CKC","lon":"121.537618","lat":"31.216577","category":"94","category_name":"西餐厅","address":"浦东新区锦延路269号(莎莉花园小区旁)"},{"poiid":"B2094655D26DAAFA4993","title":"上海亚太盛汇休闲购物广场","lon":"121.54371","lat":"31.21829","category":"119","category_name":"商场","address":"亚太盛汇位于浦东浦东新区世纪大道2002号(杨高路地铁站)"},{"poiid":"B2094757D069A6FE499C","title":"棒约翰比萨(中央公寓店)","lon":"121.54036","lat":"31.2159","category":"94","category_name":"西餐厅","address":"浦东新区锦延路250号(近东绣路)"},{"poiid":"B2094757D064AAF8419A","title":"La Paleta","lon":"121.55030873","lat":"31.210337876","category":"500","category_name":"未知分类","address":"上海市浦东新区花木路"},{"poiid":"B2094757D069AAFB469D","title":"香梅花園","lon":"121.54572296","lat":"31.213663101","category":"500","category_name":"未知分类","address":"上海東繡路梅花路"},{"poiid":"B2094757D06AA6FF4199","title":"湘霸王土菜馆 浦东店","lon":"121.54832332594","lat":"31.209045291263","category":"77","category_name":"湖南菜","address":"浦东新区梅花路601号(近海桐路)"},{"poiid":"B2094655D26EA5F44598","title":"次郎日式快餐 科技馆店","lon":"121.540979054","lat":"31.220935793","category":"68","category_name":"快餐厅","address":"浦东新区世纪大道2002号亚太盛汇广场B区07室(近二号线上海科技馆站)"},{"poiid":"B2094757D06BA5F44099","title":"香梅花园一期","lon":"121.545376","lat":"31.215493","category":"500","category_name":"未知分类","address":"上海市浦东新区花木路388号"},{"poiid":"B2094757D16DABFB409B","title":"申崇四线","lon":"121.54455273","lat":"31.214966974","category":"500","category_name":"未知分类","address":"上海科技馆至长兴岛"},{"poiid":"B2094757D16FA3F4459A","title":"浦东新区人民检察院","lon":"121.54704677","lat":"31.216408624","category":"608","category_name":"法院","address":"上海浦东新区丁香路633号"},{"poiid":"B2094750D268A4F9479C","title":"雅弗源","lon":"121.541984","lat":"31.215764","category":"248","category_name":"生活娱乐","address":"锦延店"},{"poiid":"B209475CD36BA1FA4993","title":"世纪潮府馆","lon":"121.5498694069","lat":"31.211372833107","category":"92","category_name":"潮州菜","address":"花木路809号世纪公园7号门近海桐路"},{"poiid":"B2094655D36CA7FD449E","title":"花木路锦绣路","lon":"121.54267","lat":"31.21199","category":"38","category_name":"公交车站","address":""},{"poiid":"B2094757D66CA7FC439D","title":"东都火锅","lon":"121.544602138","lat":"31.2163760049","category":"247","category_name":"餐饮美食","address":"上海梅花路203号(锦绣路口)"},{"poiid":"B2094654DA69A3F84192","title":"上海市市政工程行业协会浦东办事处","lon":"121.54409","lat":"31.21492","category":"250","category_name":"公园户外","address":"锦绣路1381"},{"poiid":"B2094750D76FA4F5449C","title":"美伊娜和风意大利家庭料理","lon":"121.54","lat":"31.2169","category":"94","category_name":"西餐厅","address":"浦东新区锦延路156号"},{"poiid":"B2094757D76BABF5409F","title":"嘉记茶餐厅","lon":"121.550095","lat":"31.209138","category":"72","category_name":"广东菜","address":"浦东新区梅花路623号(海桐路口)"},{"poiid":"B2094757D06BA2F9409A","title":"全家锦延路店","lon":"121.543379738","lat":"31.2146069672","category":"117","category_name":"便民商店/便利店","address":"上海ShanghaiPudong XinquJinyan Rd"},{"poiid":"B2094757D069ABFF419C","title":"球幕影院","lon":"121.54163346","lat":"31.218096545","category":"178","category_name":"电影院","address":"世纪大道2000号上海科技馆"},{"poiid":"B2094757D06BA3FD469F","title":"申崇二线(科技馆终点站)","lon":"121.546772","lat":"31.217528","category":"500","category_name":"未知分类","address":"上海地铁二号线科技馆站六号口"},{"poiid":"B209475CD764A2F44899","title":"星巴克 科技馆站店","lon":"121.54539","lat":"31.21748","category":"65","category_name":"咖啡厅","address":"地铁二号线科技馆麦尚城内(近科技馆地铁站3号出口)"},{"poiid":"B2094757D16FABFB419E","title":"陆家嘴软件园9号楼大智慧股份有限公司","lon":"121.54235173","lat":"31.214216958","category":"500","category_name":"未知分类","address":"上海市浦东新区锦康路"},{"poiid":"B2094757D169A6FA419F","title":"嘉里中心花木路","lon":"121.54779743","lat":"31.216850415","category":"500","category_name":"未知分类","address":"上海花木路地铁站"},{"poiid":"B2094654DA69A1FB419B","title":"世纪公园","lon":"121.55255","lat":"31.21562","category":"196","category_name":"公园","address":"浦东新区锦绣路(1001号1号门，901号2号门，701号3号门)。"},{"poiid":"B2094654DA69A3FE4799","title":"上海科技馆","lon":"121.54144","lat":"31.21851","category":"186","category_name":"科技馆","address":"浦东新区世纪大道2000号"},{"poiid":"B2094654DB6BABF5469B","title":"世纪公园(七号门)","lon":"121.55046","lat":"31.21163","category":"680","category_name":"楼宇机构","address":""},{"poiid":"B2094654DB6BABF5459E","title":"星巴克咖啡(锦严路店)","lon":"121.54044","lat":"31.21641","category":"260","category_name":"其他","address":"浦东新区锦延路219号(近上海科技馆)"},{"poiid":"B2094757D06EAAFA449A","title":"上海科技馆地铁站","lon":"121.54296","lat":"31.219458","category":"36","category_name":"地铁站","address":"上海轨道交通 二号线 轨交上海科技馆站 2"},{"poiid":"B2094757D06FA3FA449A","title":"世纪公园地铁站","lon":"121.55072809","lat":"31.209946341","category":"36","category_name":"地铁站","address":"上海轨道交通 二号线 轨交人民广场站 2"},{"poiid":"B2094655D264A0FA429C","title":"上海丽悦酒店","lon":"121.55006","lat":"31.21023","category":"217","category_name":"旅馆招待所","address":"浦东新区花木路800号(近世纪公园)"},{"poiid":"B2094757D465ABFD4299","title":"慕尼黑皇家啤酒屋 Hofbraeu","lon":"121.54320301081","lat":"31.215851278023","category":"247","category_name":"餐饮美食","address":"浦东新区锦延路309号(近锦绣路)"},{"poiid":"B2094757D068A6FF429D","title":"锦绣坊","lon":"121.54040527","lat":"31.216379165","category":"500","category_name":"未知分类","address":"浦东新区锦延路(近锦绣路)"},{"poiid":"B2094757D06FA5FC439D","title":"花木苑","lon":"121.54359","lat":"31.2104","category":"47","category_name":"住宅区","address":"花木路500弄1-160号"},{"poiid":"B2094757D06BA5FD409D","title":"建平世纪中学","lon":"121.54689","lat":"31.20865","category":"55","category_name":"中学","address":"浦东新区玉兰路356号(梅花路口)"},{"poiid":"B2094654DA69A3F8429F","title":"陆家嘴中央公寓","lon":"121.54082","lat":"31.214033","category":"47","category_name":"住宅区","address":"上海市浦东新区东绣路99弄"},{"poiid":"B2094757D068A1F54693","title":"浦东新区青少年活动中心","lon":"121.54725","lat":"31.22036","category":"249","category_name":"购物服务","address":"上海浦东新区迎春路318号  "},{"poiid":"B2094757D06BA1F8439F","title":"花木社区文化中心","lon":"121.54376973","lat":"31.20864984","category":"500","category_name":"未知分类","address":"上海市浦东新区梅花路281号"},{"poiid":"B2094654DA69A2F84392","title":"东辰大厦","lon":"121.551","lat":"31.2118","category":"46","category_name":"楼宇","address":"越秀区环市东路362-366号"},{"poiid":"B2094757D069A2FD449C","title":"张家浜创意街","lon":"121.54472","lat":"31.21655","category":"116","category_name":"特色商业街","address":"上海浦东新区锦延路(近锦绣路)"},{"poiid":"B2094757D16DA4F94499","title":"御味道","lon":"121.54203973","lat":"31.216068998","category":"500","category_name":"未知分类","address":"上海市浦东新区锦严路"},{"poiid":"B2094655D268A1FA449A","title":"比比客 锦延路店 BBQ","lon":"121.54222","lat":"31.21566","category":"68","category_name":"快餐厅","address":"浦东新区锦延路318号1楼(近科技馆地铁站)"},{"poiid":"B2094757D16DA2F44998","title":"新光酒家方亮蟹宴(浦东店)","lon":"121.550274","lat":"31.210381","category":"257","category_name":"中餐厅","address":"浦东新区花木路800号丽悦酒店4楼(近海桐路)"},{"poiid":"B2094654DB6BABFA499F","title":"香梅花园","lon":"121.53968","lat":"31.21086","category":"47","category_name":"住宅区","address":"上海市浦东新区锦康路389弄"},{"poiid":"B2094757D068AAF9479E","title":"御香海(科技馆店)","lon":"121.54931157","lat":"31.213942729","category":"95","category_name":"日本料理","address":"浦东新区锦延路285号(近张家浜创意园区)"},{"poiid":"B2094757D06AA1FE4093","title":"Daisy's kitchen","lon":"121.54391","lat":"31.21765","category":"94","category_name":"西餐厅","address":"浦东新区世纪大道2002号亚太盛汇南广场J-06号(近地铁二号线上海科技馆站)"},{"poiid":"B2094757D068ABF54998","title":"肯德基KFC(科技馆店)","lon":"121.542076333","lat":"31.2193652614","category":"68","category_name":"快餐厅","address":"浦东新区世纪大道2002号亚太盛汇广场B1楼(近二号线上海科技馆站)"},{"poiid":"B2094757D06FAAFB459A","title":"一兆韦德(东绣路店)","lon":"121.54095","lat":"31.21376","category":"221","category_name":"健身中心","address":"浦东新区东绣路99弄陆家嘴中央公寓32号(近上海科技馆)"},{"poiid":"B2094757D069A6FD459F","title":"Pleasure Coffee","lon":"121.542267054","lat":"31.216790793","category":"260","category_name":"其他","address":"浦东新区锦延路293号(近锦绣路)"},{"poiid":"B2094757D06AA3F84293","title":"世纪公园儿童乐园","lon":"121.55204808","lat":"31.212757738","category":"196","category_name":"公园","address":"上海世纪公园内"},{"poiid":"B2094751D26BA3FA4998","title":"上海帝盛酒店","lon":"121.550703","lat":"31.210424","category":"500","category_name":"未知分类","address":"花木路800号"},{"poiid":"B2094757D16CA5FE4599","title":"康亘轩法式料理 CKC","lon":"121.537618","lat":"31.216577","category":"94","category_name":"西餐厅","address":"浦东新区锦延路269号(莎莉花园小区旁)"},{"poiid":"B2094655D26DAAFA4993","title":"上海亚太盛汇休闲购物广场","lon":"121.54371","lat":"31.21829","category":"119","category_name":"商场","address":"亚太盛汇位于浦东浦东新区世纪大道2002号(杨高路地铁站)"},{"poiid":"B2094757D069A6FE499C","title":"棒约翰比萨(中央公寓店)","lon":"121.54036","lat":"31.2159","category":"94","category_name":"西餐厅","address":"浦东新区锦延路250号(近东绣路)"},{"poiid":"B2094757D064AAF8419A","title":"La Paleta","lon":"121.55030873","lat":"31.210337876","category":"500","category_name":"未知分类","address":"上海市浦东新区花木路"},{"poiid":"B2094757D069AAFB469D","title":"香梅花園","lon":"121.54572296","lat":"31.213663101","category":"500","category_name":"未知分类","address":"上海東繡路梅花路"},{"poiid":"B2094757D06AA6FF4199","title":"湘霸王土菜馆 浦东店","lon":"121.54832332594","lat":"31.209045291263","category":"77","category_name":"湖南菜","address":"浦东新区梅花路601号(近海桐路)"},{"poiid":"B2094655D26EA5F44598","title":"次郎日式快餐 科技馆店","lon":"121.540979054","lat":"31.220935793","category":"68","category_name":"快餐厅","address":"浦东新区世纪大道2002号亚太盛汇广场B区07室(近二号线上海科技馆站)"},{"poiid":"B2094757D06BA5F44099","title":"香梅花园一期","lon":"121.545376","lat":"31.215493","category":"500","category_name":"未知分类","address":"上海市浦东新区花木路388号"},{"poiid":"B2094757D16DABFB409B","title":"申崇四线","lon":"121.54455273","lat":"31.214966974","category":"500","category_name":"未知分类","address":"上海科技馆至长兴岛"},{"poiid":"B2094757D16FA3F4459A","title":"浦东新区人民检察院","lon":"121.54704677","lat":"31.216408624","category":"608","category_name":"法院","address":"上海浦东新区丁香路633号"},{"poiid":"B2094750D268A4F9479C","title":"雅弗源","lon":"121.541984","lat":"31.215764","category":"248","category_name":"生活娱乐","address":"锦延店"},{"poiid":"B209475CD36BA1FA4993","title":"世纪潮府馆","lon":"121.5498694069","lat":"31.211372833107","category":"92","category_name":"潮州菜","address":"花木路809号世纪公园7号门近海桐路"},{"poiid":"B2094655D36CA7FD449E","title":"花木路锦绣路","lon":"121.54267","lat":"31.21199","category":"38","category_name":"公交车站","address":""},{"poiid":"B2094757D66CA7FC439D","title":"东都火锅","lon":"121.544602138","lat":"31.2163760049","category":"247","category_name":"餐饮美食","address":"上海梅花路203号(锦绣路口)"},{"poiid":"B2094654DA69A3F84192","title":"上海市市政工程行业协会浦东办事处","lon":"121.54409","lat":"31.21492","category":"250","category_name":"公园户外","address":"锦绣路1381"},{"poiid":"B2094750D76FA4F5449C","title":"美伊娜和风意大利家庭料理","lon":"121.54","lat":"31.2169","category":"94","category_name":"西餐厅","address":"浦东新区锦延路156号"},{"poiid":"B2094757D76BABF5409F","title":"嘉记茶餐厅","lon":"121.550095","lat":"31.209138","category":"72","category_name":"广东菜","address":"浦东新区梅花路623号(海桐路口)"},{"poiid":"B2094757D06BA2F9409A","title":"全家锦延路店","lon":"121.543379738","lat":"31.2146069672","category":"117","category_name":"便民商店/便利店","address":"上海ShanghaiPudong XinquJinyan Rd"},{"poiid":"B2094757D069ABFF419C","title":"球幕影院","lon":"121.54163346","lat":"31.218096545","category":"178","category_name":"电影院","address":"世纪大道2000号上海科技馆"},{"poiid":"B2094757D06BA3FD469F","title":"申崇二线(科技馆终点站)","lon":"121.546772","lat":"31.217528","category":"500","category_name":"未知分类","address":"上海地铁二号线科技馆站六号口"},{"poiid":"B209475CD764A2F44899","title":"星巴克 科技馆站店","lon":"121.54539","lat":"31.21748","category":"65","category_name":"咖啡厅","address":"地铁二号线科技馆麦尚城内(近科技馆地铁站3号出口)"},{"poiid":"B2094757D16FABFB419E","title":"陆家嘴软件园9号楼大智慧股份有限公司","lon":"121.54235173","lat":"31.214216958","category":"500","category_name":"未知分类","address":"上海市浦东新区锦康路"},{"poiid":"B2094757D169A6FA419F","title":"嘉里中心花木路","lon":"121.54779743","lat":"31.216850415","category":"500","category_name":"未知分类","address":"上海花木路地铁站"}]