[{"poiid":"B2094757D06FA6F9449A","title":"上海浦东喜来登由由酒店(Sheraton Shanghai Pudong Hotel &amp; Residences)","lon":"121.51789093","lat":"31.209993362","category":"217","category_name":"旅馆招待所","address":"上海市浦东新区浦建路38号(近浦东南路)"},{"poiid":"B2094654DB64A3FC409D","title":"福朋喜来登由由酒店","lon":"121.51699","lat":"31.20981","category":"214","category_name":"四星级宾馆","address":"浦东新区浦东南路2111号(近浦建路)"},{"poiid":"B2094757D06FA2FB459A","title":"艾福敦酒店 (Eiffelton Riverside Hotel Pudong Shanghai)","lon":"121.509251618","lat":"31.2056334725","category":"217","category_name":"旅馆招待所","address":"浦东新区浦明路1888号(近浦建路)"},{"poiid":"B2094757D06FA2FC4993","title":"塘桥","lon":"121.51654052","lat":"31.21005249","category":"260","category_name":"其他","address":"塘桥路551识别"},{"poiid":"B2094757D06FA7FD4298","title":"薇拉宫邸(浦东店)","lon":"121.50889556","lat":"31.207375193","category":"95","category_name":"日本料理","address":"上海浦明路1888号5号楼"},{"poiid":"B2094757D06FA3FA4799","title":"麦当劳(塘桥店)","lon":"121.51674","lat":"31.2101","category":"68","category_name":"快餐厅","address":"浦东新区浦东南路2100号(浦建路塘桥新路)"},{"poiid":"B2094757D06FA2FA449A","title":"感智盲人保健会所(浦东南路店)","lon":"121.516704631","lat":"31.2098654502","category":"149","category_name":"洗浴推拿场所","address":"浦东新区浦东南路2100号B1楼(近浦建路)"},{"poiid":"B2094757D068A6FD449A","title":"陆家庄(塘桥店)","lon":"121.51753","lat":"31.21043","category":"76","category_name":"上海菜","address":"浦东新区浦建路1号塘桥生活广场(近浦东南路)"},{"poiid":"B2094757D068A3FB4299","title":"苏先生海鲜渔庄 南浦店","lon":"121.5131","lat":"31.20325","category":"260","category_name":"其他","address":"浦东新区浦东南路2304号(近龙阳路)"},{"poiid":"B2094655D268A1FA459F","title":"东江高尔夫会所","lon":"121.51033","lat":"31.2083","category":"206","category_name":"高尔夫相关","address":"小南码头路5号"},{"poiid":"B2094757D06FABFF4392","title":"四季亭(塘桥店)","lon":"121.51673","lat":"31.21006","category":"95","category_name":"日本料理","address":"浦东新区塘桥新路200号(近浦东南路)"},{"poiid":"B2094752D269A1FE439F","title":"满记甜品","lon":"121.51564","lat":"31.210876","category":"247","category_name":"餐饮美食","address":"浦建路巴黎春天"},{"poiid":"B2094757D068A3F8439E","title":"喜来登由由大酒店宴会厅","lon":"121.51806","lat":"31.20962","category":"72","category_name":"广东菜","address":"浦东新区浦东南路2111号2楼(近南浦大桥)"},{"poiid":"B2094757D068ABFD4298","title":"南浦广场公园","lon":"121.514124","lat":"31.204002","category":"196","category_name":"公园","address":"浦东新区浦东南路2277号(近龙阳路)"},{"poiid":"B2094757D06AA2F44792","title":"仁恒广场","lon":"121.51391","lat":"31.209261","category":"46","category_name":"楼宇","address":"上海茂兴路90号"},{"poiid":"B2094757D16DA2F9429C","title":"优艾贝国际月子会所","lon":"121.511133338","lat":"31.2068565021","category":"248","category_name":"生活娱乐","address":"浦东新区浦明路1888号(近南浦大桥)"},{"poiid":"B2094757DA6EABFB4999","title":"薇拉宫邸私人婚礼会所(南浦店)","lon":"121.509479","lat":"31.2066410000002","category":"248","category_name":"生活娱乐","address":"浦东新区浦明路1888号5号楼(近南浦大桥)查看地图"},{"poiid":"B2094757D06BA3F8439D","title":"汉庭海友客栈","lon":"121.515409","lat":"31.208214","category":"216","category_name":"经济型连锁酒店","address":"浦东新区浦东南路2162号(近微山路)"},{"poiid":"B2094654DB6AA2FC4099","title":"锦江之星(南浦大桥店)","lon":"121.51424","lat":"31.20632","category":"216","category_name":"经济型连锁酒店","address":"上海市浦东新区浦东南路2200号（近微山路）"},{"poiid":"B2094757D569A3FA4198","title":"南码头","lon":"121.511367","lat":"31.205579","category":"201","category_name":"城市广场","address":"浦明路1888"},{"poiid":"B2094757D069AAFD4699","title":"东江高尔夫","lon":"121.50941473","lat":"31.205573774","category":"500","category_name":"未知分类","address":"上海市南码头路5号"},{"poiid":"B2094753D26BABF84899","title":"梅赛德斯奔驰文化中心","lon":"121.511778","lat":"31.210557","category":"500","category_name":"未知分类","address":"上海市 上海浦东世博大道1200号"},{"poiid":"B2094654DA69A6FF489D","title":"由由大酒店","lon":"121.51718","lat":"31.21002","category":"76","category_name":"上海菜","address":"上海市浦东新区浦东南路2111号（近浦建路）"},{"poiid":"B2094757D069A2FE499D","title":"微山二村","lon":"121.51336","lat":"31.20816","category":"47","category_name":"住宅区","address":"微山路3号"},{"poiid":"B2094750D76FA3FC4993","title":"和容轩","lon":"121.511","lat":"31.2056","category":"76","category_name":"上海菜","address":"浦东新区浦明路1888号15号楼3楼(近微山路)"},{"poiid":"B2094757D06BABFB4193","title":"滨江2250","lon":"121.513661738","lat":"31.2047697577","category":"46","category_name":"楼宇","address":"上海市浦东新区浦东南路"},{"poiid":"B2094655D26FA6F8439D","title":"如家快捷酒店(上海浦东南路世博店)","lon":"121.5146","lat":"31.20503","category":"216","category_name":"经济型连锁酒店","address":"浦东新区浦东南路1860号(近浦东大酒店)"},{"poiid":"B2094753D76AA6FC499B","title":"宝燕壹号(滨江店)","lon":"121.51101","lat":"31.20368","category":"75","category_name":"浙江菜","address":"上海市浦东新区浦明路1999号云天地美食休闲广场内"},{"poiid":"B2094757D66EA5FF489D","title":"微山三村","lon":"121.513332738","lat":"31.2074558149","category":"47","category_name":"住宅区","address":"上海浦东新区小南码头路"},{"poiid":"B2094654DA69ABF8469E","title":"海运新村","lon":"121.51392","lat":"31.207024","category":"47","category_name":"住宅区","address":"浦东南路2178弄2-16号"},{"poiid":"B2094654DA69ABF8449F","title":"仁恒广场第一座","lon":"121.51345","lat":"31.20899","category":"46","category_name":"楼宇","address":"茂兴路98"},{"poiid":"B2094654DA69ABF8459A","title":"仁恒广场第二座","lon":"121.51402","lat":"31.2088","category":"46","category_name":"楼宇","address":"茂兴路92"},{"poiid":"B2094655D26DA7FB479B","title":"微山新村","lon":"121.51429","lat":"31.208408","category":"47","category_name":"住宅区","address":"上海浦东新区浦东南路塘桥"},{"poiid":"B2094655D26DA1FA4293","title":"仁恒广场第三座","lon":"121.51408","lat":"31.20956","category":"46","category_name":"楼宇","address":"茂兴路90"},{"poiid":"B2094654DA69ABF84393","title":"微南小区(北门)","lon":"121.51326","lat":"31.20862","category":"47","category_name":"住宅区","address":"微山二村1-43号"},{"poiid":"B2094654DA69ABF8449C","title":"仁恒广场第四座","lon":"121.51435","lat":"31.20955","category":"46","category_name":"楼宇","address":""},{"poiid":"B2094654DB64A3FF469D","title":"海博大厦","lon":"121.514","lat":"31.2065","category":"46","category_name":"楼宇","address":"南码头路101-3"},{"poiid":"B2094750D068A2FA4199","title":"虹口龙之梦","lon":"121.514823","lat":"31.207803","category":"500","category_name":"未知分类","address":null},{"poiid":"B2094753D764A7F8429F","title":"国金白丽宫影院","lon":"121.511009","lat":"31.209058","category":"178","category_name":"电影院","address":"上海市 陆家嘴国金"},{"poiid":"B2094757D66CA2FA4099","title":"富桥足浴国际会所","lon":"121.512429738","lat":"31.2074078139","category":"500","category_name":"未知分类","address":"浦东新区浦建路15号新塘桥购物广场3楼(近浦东南路)"},{"poiid":"B2094757D06EABF54393","title":"布丁酒店(上海世博南浦大桥店)","lon":"121.513055","lat":"31.20313","category":"217","category_name":"旅馆招待所","address":"浦东新区浦东南路2304号(近龙阳路)"},{"poiid":"B2094753D664A2F9439A","title":"黄浦江","lon":"121.512382","lat":"31.207145","category":"500","category_name":"未知分类","address":"上海市 外滩十六铺码头"},{"poiid":"B2094654DA69ABF84699","title":"浦东南路小学","lon":"121.51461","lat":"31.20748","category":"56","category_name":"小学","address":"浦东新区浦东南路2168号(浦建路口)"},{"poiid":"B2094757D06BA3FF4099","title":"仲元堂","lon":"121.516952738","lat":"31.2104578788","category":"500","category_name":"未知分类","address":"浦东南路2100号上尚商厦2楼"},{"poiid":"B2094654DA69ABF8489C","title":"国地公寓","lon":"121.51326","lat":"31.20549","category":"47","category_name":"住宅区","address":"国地公寓位于浦东浦东南路2244号"},{"poiid":"B2094654DA69ABF84498","title":"微西小区","lon":"121.51069","lat":"31.207483","category":"47","category_name":"住宅区","address":"微西小区"},{"poiid":"B2094654DA69ABF84499","title":"微西小区(东门)","lon":"121.51049","lat":"31.20791","category":"47","category_name":"住宅区","address":""},{"poiid":"B2094654DA69ABF8489E","title":"永业商务楼","lon":"121.51406","lat":"31.20558","category":"46","category_name":"楼宇","address":"上海浦东南路2240号"},{"poiid":"B2094654DB64A3FD499F","title":"微山新村(边门)","lon":"121.5148","lat":"31.20864","category":"47","category_name":"住宅区","address":""},{"poiid":"B2094757D064A6FA4099","title":"重庆家富富侨(塘桥店)","lon":"121.51759","lat":"31.20993","category":"149","category_name":"洗浴推拿场所","address":"浦东新区浦建路15号新塘桥购物广场4楼(近浦东南路)"},{"poiid":"B2094757D06FA6F9449A","title":"上海浦东喜来登由由酒店(Sheraton Shanghai Pudong Hotel &amp; Residences)","lon":"121.51789093","lat":"31.209993362","category":"217","category_name":"旅馆招待所","address":"上海市浦东新区浦建路38号(近浦东南路)"},{"poiid":"B2094654DB64A3FC409D","title":"福朋喜来登由由酒店","lon":"121.51699","lat":"31.20981","category":"214","category_name":"四星级宾馆","address":"浦东新区浦东南路2111号(近浦建路)"},{"poiid":"B2094757D06FA2FB459A","title":"艾福敦酒店 (Eiffelton Riverside Hotel Pudong Shanghai)","lon":"121.509251618","lat":"31.2056334725","category":"217","category_name":"旅馆招待所","address":"浦东新区浦明路1888号(近浦建路)"},{"poiid":"B2094757D06FA2FC4993","title":"塘桥","lon":"121.51654052","lat":"31.21005249","category":"260","category_name":"其他","address":"塘桥路551识别"},{"poiid":"B2094757D06FA7FD4298","title":"薇拉宫邸(浦东店)","lon":"121.50889556","lat":"31.207375193","category":"95","category_name":"日本料理","address":"上海浦明路1888号5号楼"},{"poiid":"B2094757D06FA3FA4799","title":"麦当劳(塘桥店)","lon":"121.51674","lat":"31.2101","category":"68","category_name":"快餐厅","address":"浦东新区浦东南路2100号(浦建路塘桥新路)"},{"poiid":"B2094757D06FA2FA449A","title":"感智盲人保健会所(浦东南路店)","lon":"121.516704631","lat":"31.2098654502","category":"149","category_name":"洗浴推拿场所","address":"浦东新区浦东南路2100号B1楼(近浦建路)"},{"poiid":"B2094757D068A6FD449A","title":"陆家庄(塘桥店)","lon":"121.51753","lat":"31.21043","category":"76","category_name":"上海菜","address":"浦东新区浦建路1号塘桥生活广场(近浦东南路)"},{"poiid":"B2094757D068A3FB4299","title":"苏先生海鲜渔庄 南浦店","lon":"121.5131","lat":"31.20325","category":"260","category_name":"其他","address":"浦东新区浦东南路2304号(近龙阳路)"},{"poiid":"B2094655D268A1FA459F","title":"东江高尔夫会所","lon":"121.51033","lat":"31.2083","category":"206","category_name":"高尔夫相关","address":"小南码头路5号"},{"poiid":"B2094757D06FABFF4392","title":"四季亭(塘桥店)","lon":"121.51673","lat":"31.21006","category":"95","category_name":"日本料理","address":"浦东新区塘桥新路200号(近浦东南路)"},{"poiid":"B2094752D269A1FE439F","title":"满记甜品","lon":"121.51564","lat":"31.210876","category":"247","category_name":"餐饮美食","address":"浦建路巴黎春天"},{"poiid":"B2094757D068A3F8439E","title":"喜来登由由大酒店宴会厅","lon":"121.51806","lat":"31.20962","category":"72","category_name":"广东菜","address":"浦东新区浦东南路2111号2楼(近南浦大桥)"},{"poiid":"B2094757D068ABFD4298","title":"南浦广场公园","lon":"121.514124","lat":"31.204002","category":"196","category_name":"公园","address":"浦东新区浦东南路2277号(近龙阳路)"},{"poiid":"B2094757D06AA2F44792","title":"仁恒广场","lon":"121.51391","lat":"31.209261","category":"46","category_name":"楼宇","address":"上海茂兴路90号"},{"poiid":"B2094757D16DA2F9429C","title":"优艾贝国际月子会所","lon":"121.511133338","lat":"31.2068565021","category":"248","category_name":"生活娱乐","address":"浦东新区浦明路1888号(近南浦大桥)"},{"poiid":"B2094757DA6EABFB4999","title":"薇拉宫邸私人婚礼会所(南浦店)","lon":"121.509479","lat":"31.2066410000002","category":"248","category_name":"生活娱乐","address":"浦东新区浦明路1888号5号楼(近南浦大桥)查看地图"},{"poiid":"B2094757D06BA3F8439D","title":"汉庭海友客栈","lon":"121.515409","lat":"31.208214","category":"216","category_name":"经济型连锁酒店","address":"浦东新区浦东南路2162号(近微山路)"},{"poiid":"B2094654DB6AA2FC4099","title":"锦江之星(南浦大桥店)","lon":"121.51424","lat":"31.20632","category":"216","category_name":"经济型连锁酒店","address":"上海市浦东新区浦东南路2200号（近微山路）"},{"poiid":"B2094757D569A3FA4198","title":"南码头","lon":"121.511367","lat":"31.205579","category":"201","category_name":"城市广场","address":"浦明路1888"},{"poiid":"B2094757D069AAFD4699","title":"东江高尔夫","lon":"121.50941473","lat":"31.205573774","category":"500","category_name":"未知分类","address":"上海市南码头路5号"},{"poiid":"B2094753D26BABF84899","title":"梅赛德斯奔驰文化中心","lon":"121.511778","lat":"31.210557","category":"500","category_name":"未知分类","address":"上海市 上海浦东世博大道1200号"},{"poiid":"B2094654DA69A6FF489D","title":"由由大酒店","lon":"121.51718","lat":"31.21002","category":"76","category_name":"上海菜","address":"上海市浦东新区浦东南路2111号（近浦建路）"},{"poiid":"B2094757D069A2FE499D","title":"微山二村","lon":"121.51336","lat":"31.20816","category":"47","category_name":"住宅区","address":"微山路3号"},{"poiid":"B2094750D76FA3FC4993","title":"和容轩","lon":"121.511","lat":"31.2056","category":"76","category_name":"上海菜","address":"浦东新区浦明路1888号15号楼3楼(近微山路)"},{"poiid":"B2094757D06BABFB4193","title":"滨江2250","lon":"121.513661738","lat":"31.2047697577","category":"46","category_name":"楼宇","address":"上海市浦东新区浦东南路"},{"poiid":"B2094655D26FA6F8439D","title":"如家快捷酒店(上海浦东南路世博店)","lon":"121.5146","lat":"31.20503","category":"216","category_name":"经济型连锁酒店","address":"浦东新区浦东南路1860号(近浦东大酒店)"},{"poiid":"B2094753D76AA6FC499B","title":"宝燕壹号(滨江店)","lon":"121.51101","lat":"31.20368","category":"75","category_name":"浙江菜","address":"上海市浦东新区浦明路1999号云天地美食休闲广场内"},{"poiid":"B2094757D66EA5FF489D","title":"微山三村","lon":"121.513332738","lat":"31.2074558149","category":"47","category_name":"住宅区","address":"上海浦东新区小南码头路"},{"poiid":"B2094654DA69ABF8469E","title":"海运新村","lon":"121.51392","lat":"31.207024","category":"47","category_name":"住宅区","address":"浦东南路2178弄2-16号"},{"poiid":"B2094654DA69ABF8449F","title":"仁恒广场第一座","lon":"121.51345","lat":"31.20899","category":"46","category_name":"楼宇","address":"茂兴路98"},{"poiid":"B2094654DA69ABF8459A","title":"仁恒广场第二座","lon":"121.51402","lat":"31.2088","category":"46","category_name":"楼宇","address":"茂兴路92"},{"poiid":"B2094655D26DA7FB479B","title":"微山新村","lon":"121.51429","lat":"31.208408","category":"47","category_name":"住宅区","address":"上海浦东新区浦东南路塘桥"},{"poiid":"B2094655D26DA1FA4293","title":"仁恒广场第三座","lon":"121.51408","lat":"31.20956","category":"46","category_name":"楼宇","address":"茂兴路90"},{"poiid":"B2094654DA69ABF84393","title":"微南小区(北门)","lon":"121.51326","lat":"31.20862","category":"47","category_name":"住宅区","address":"微山二村1-43号"},{"poiid":"B2094654DA69ABF8449C","title":"仁恒广场第四座","lon":"121.51435","lat":"31.20955","category":"46","category_name":"楼宇","address":""},{"poiid":"B2094654DB64A3FF469D","title":"海博大厦","lon":"121.514","lat":"31.2065","category":"46","category_name":"楼宇","address":"南码头路101-3"},{"poiid":"B2094750D068A2FA4199","title":"虹口龙之梦","lon":"121.514823","lat":"31.207803","category":"500","category_name":"未知分类","address":null},{"poiid":"B2094753D764A7F8429F","title":"国金白丽宫影院","lon":"121.511009","lat":"31.209058","category":"178","category_name":"电影院","address":"上海市 陆家嘴国金"},{"poiid":"B2094757D66CA2FA4099","title":"富桥足浴国际会所","lon":"121.512429738","lat":"31.2074078139","category":"500","category_name":"未知分类","address":"浦东新区浦建路15号新塘桥购物广场3楼(近浦东南路)"},{"poiid":"B2094757D06EABF54393","title":"布丁酒店(上海世博南浦大桥店)","lon":"121.513055","lat":"31.20313","category":"217","category_name":"旅馆招待所","address":"浦东新区浦东南路2304号(近龙阳路)"},{"poiid":"B2094753D664A2F9439A","title":"黄浦江","lon":"121.512382","lat":"31.207145","category":"500","category_name":"未知分类","address":"上海市 外滩十六铺码头"},{"poiid":"B2094654DA69ABF84699","title":"浦东南路小学","lon":"121.51461","lat":"31.20748","category":"56","category_name":"小学","address":"浦东新区浦东南路2168号(浦建路口)"},{"poiid":"B2094757D06BA3FF4099","title":"仲元堂","lon":"121.516952738","lat":"31.2104578788","category":"500","category_name":"未知分类","address":"浦东南路2100号上尚商厦2楼"},{"poiid":"B2094654DA69ABF8489C","title":"国地公寓","lon":"121.51326","lat":"31.20549","category":"47","category_name":"住宅区","address":"国地公寓位于浦东浦东南路2244号"},{"poiid":"B2094654DA69ABF84498","title":"微西小区","lon":"121.51069","lat":"31.207483","category":"47","category_name":"住宅区","address":"微西小区"},{"poiid":"B2094654DA69ABF84499","title":"微西小区(东门)","lon":"121.51049","lat":"31.20791","category":"47","category_name":"住宅区","address":""},{"poiid":"B2094654DA69ABF8489E","title":"永业商务楼","lon":"121.51406","lat":"31.20558","category":"46","category_name":"楼宇","address":"上海浦东南路2240号"},{"poiid":"B2094654DB64A3FD499F","title":"微山新村(边门)","lon":"121.5148","lat":"31.20864","category":"47","category_name":"住宅区","address":""},{"poiid":"B2094757D064A6FA4099","title":"重庆家富富侨(塘桥店)","lon":"121.51759","lat":"31.20993","category":"149","category_name":"洗浴推拿场所","address":"浦东新区浦建路15号新塘桥购物广场4楼(近浦东南路)"},{"poiid":"B2094757D06FA6F9449A","title":"上海浦东喜来登由由酒店(Sheraton Shanghai Pudong Hotel &amp; Residences)","lon":"121.51789093","lat":"31.209993362","category":"217","category_name":"旅馆招待所","address":"上海市浦东新区浦建路38号(近浦东南路)"},{"poiid":"B2094654DB64A3FC409D","title":"福朋喜来登由由酒店","lon":"121.51699","lat":"31.20981","category":"214","category_name":"四星级宾馆","address":"浦东新区浦东南路2111号(近浦建路)"},{"poiid":"B2094757D06FA2FB459A","title":"艾福敦酒店 (Eiffelton Riverside Hotel Pudong Shanghai)","lon":"121.509251618","lat":"31.2056334725","category":"217","category_name":"旅馆招待所","address":"浦东新区浦明路1888号(近浦建路)"},{"poiid":"B2094757D06FA2FC4993","title":"塘桥","lon":"121.51654052","lat":"31.21005249","category":"260","category_name":"其他","address":"塘桥路551识别"},{"poiid":"B2094757D06FA7FD4298","title":"薇拉宫邸(浦东店)","lon":"121.50889556","lat":"31.207375193","category":"95","category_name":"日本料理","address":"上海浦明路1888号5号楼"},{"poiid":"B2094757D06FA3FA4799","title":"麦当劳(塘桥店)","lon":"121.51674","lat":"31.2101","category":"68","category_name":"快餐厅","address":"浦东新区浦东南路2100号(浦建路塘桥新路)"},{"poiid":"B2094757D06FA2FA449A","title":"感智盲人保健会所(浦东南路店)","lon":"121.516704631","lat":"31.2098654502","category":"149","category_name":"洗浴推拿场所","address":"浦东新区浦东南路2100号B1楼(近浦建路)"},{"poiid":"B2094757D068A6FD449A","title":"陆家庄(塘桥店)","lon":"121.51753","lat":"31.21043","category":"76","category_name":"上海菜","address":"浦东新区浦建路1号塘桥生活广场(近浦东南路)"},{"poiid":"B2094757D068A3FB4299","title":"苏先生海鲜渔庄 南浦店","lon":"121.5131","lat":"31.20325","category":"260","category_name":"其他","address":"浦东新区浦东南路2304号(近龙阳路)"},{"poiid":"B2094655D268A1FA459F","title":"东江高尔夫会所","lon":"121.51033","lat":"31.2083","category":"206","category_name":"高尔夫相关","address":"小南码头路5号"},{"poiid":"B2094757D06FABFF4392","title":"四季亭(塘桥店)","lon":"121.51673","lat":"31.21006","category":"95","category_name":"日本料理","address":"浦东新区塘桥新路200号(近浦东南路)"},{"poiid":"B2094752D269A1FE439F","title":"满记甜品","lon":"121.51564","lat":"31.210876","category":"247","category_name":"餐饮美食","address":"浦建路巴黎春天"},{"poiid":"B2094757D068A3F8439E","title":"喜来登由由大酒店宴会厅","lon":"121.51806","lat":"31.20962","category":"72","category_name":"广东菜","address":"浦东新区浦东南路2111号2楼(近南浦大桥)"},{"poiid":"B2094757D068ABFD4298","title":"南浦广场公园","lon":"121.514124","lat":"31.204002","category":"196","category_name":"公园","address":"浦东新区浦东南路2277号(近龙阳路)"},{"poiid":"B2094757D06AA2F44792","title":"仁恒广场","lon":"121.51391","lat":"31.209261","category":"46","category_name":"楼宇","address":"上海茂兴路90号"},{"poiid":"B2094757D16DA2F9429C","title":"优艾贝国际月子会所","lon":"121.511133338","lat":"31.2068565021","category":"248","category_name":"生活娱乐","address":"浦东新区浦明路1888号(近南浦大桥)"},{"poiid":"B2094757DA6EABFB4999","title":"薇拉宫邸私人婚礼会所(南浦店)","lon":"121.509479","lat":"31.2066410000002","category":"248","category_name":"生活娱乐","address":"浦东新区浦明路1888号5号楼(近南浦大桥)查看地图"},{"poiid":"B2094757D06BA3F8439D","title":"汉庭海友客栈","lon":"121.515409","lat":"31.208214","category":"216","category_name":"经济型连锁酒店","address":"浦东新区浦东南路2162号(近微山路)"},{"poiid":"B2094654DB6AA2FC4099","title":"锦江之星(南浦大桥店)","lon":"121.51424","lat":"31.20632","category":"216","category_name":"经济型连锁酒店","address":"上海市浦东新区浦东南路2200号（近微山路）"},{"poiid":"B2094757D569A3FA4198","title":"南码头","lon":"121.511367","lat":"31.205579","category":"201","category_name":"城市广场","address":"浦明路1888"},{"poiid":"B2094757D069AAFD4699","title":"东江高尔夫","lon":"121.50941473","lat":"31.205573774","category":"500","category_name":"未知分类","address":"上海市南码头路5号"},{"poiid":"B2094753D26BABF84899","title":"梅赛德斯奔驰文化中心","lon":"121.511778","lat":"31.210557","category":"500","category_name":"未知分类","address":"上海市 上海浦东世博大道1200号"},{"poiid":"B2094654DA69A6FF489D","title":"由由大酒店","lon":"121.51718","lat":"31.21002","category":"76","category_name":"上海菜","address":"上海市浦东新区浦东南路2111号（近浦建路）"},{"poiid":"B2094757D069A2FE499D","title":"微山二村","lon":"121.51336","lat":"31.20816","category":"47","category_name":"住宅区","address":"微山路3号"},{"poiid":"B2094750D76FA3FC4993","title":"和容轩","lon":"121.511","lat":"31.2056","category":"76","category_name":"上海菜","address":"浦东新区浦明路1888号15号楼3楼(近微山路)"},{"poiid":"B2094757D06BABFB4193","title":"滨江2250","lon":"121.513661738","lat":"31.2047697577","category":"46","category_name":"楼宇","address":"上海市浦东新区浦东南路"},{"poiid":"B2094655D26FA6F8439D","title":"如家快捷酒店(上海浦东南路世博店)","lon":"121.5146","lat":"31.20503","category":"216","category_name":"经济型连锁酒店","address":"浦东新区浦东南路1860号(近浦东大酒店)"},{"poiid":"B2094753D76AA6FC499B","title":"宝燕壹号(滨江店)","lon":"121.51101","lat":"31.20368","category":"75","category_name":"浙江菜","address":"上海市浦东新区浦明路1999号云天地美食休闲广场内"},{"poiid":"B2094757D66EA5FF489D","title":"微山三村","lon":"121.513332738","lat":"31.2074558149","category":"47","category_name":"住宅区","address":"上海浦东新区小南码头路"},{"poiid":"B2094654DA69ABF8469E","title":"海运新村","lon":"121.51392","lat":"31.207024","category":"47","category_name":"住宅区","address":"浦东南路2178弄2-16号"},{"poiid":"B2094654DA69ABF8449F","title":"仁恒广场第一座","lon":"121.51345","lat":"31.20899","category":"46","category_name":"楼宇","address":"茂兴路98"},{"poiid":"B2094654DA69ABF8459A","title":"仁恒广场第二座","lon":"121.51402","lat":"31.2088","category":"46","category_name":"楼宇","address":"茂兴路92"},{"poiid":"B2094655D26DA7FB479B","title":"微山新村","lon":"121.51429","lat":"31.208408","category":"47","category_name":"住宅区","address":"上海浦东新区浦东南路塘桥"},{"poiid":"B2094655D26DA1FA4293","title":"仁恒广场第三座","lon":"121.51408","lat":"31.20956","category":"46","category_name":"楼宇","address":"茂兴路90"},{"poiid":"B2094654DA69ABF84393","title":"微南小区(北门)","lon":"121.51326","lat":"31.20862","category":"47","category_name":"住宅区","address":"微山二村1-43号"},{"poiid":"B2094654DA69ABF8449C","title":"仁恒广场第四座","lon":"121.51435","lat":"31.20955","category":"46","category_name":"楼宇","address":""},{"poiid":"B2094654DB64A3FF469D","title":"海博大厦","lon":"121.514","lat":"31.2065","category":"46","category_name":"楼宇","address":"南码头路101-3"},{"poiid":"B2094750D068A2FA4199","title":"虹口龙之梦","lon":"121.514823","lat":"31.207803","category":"500","category_name":"未知分类","address":null},{"poiid":"B2094753D764A7F8429F","title":"国金白丽宫影院","lon":"121.511009","lat":"31.209058","category":"178","category_name":"电影院","address":"上海市 陆家嘴国金"},{"poiid":"B2094757D66CA2FA4099","title":"富桥足浴国际会所","lon":"121.512429738","lat":"31.2074078139","category":"500","category_name":"未知分类","address":"浦东新区浦建路15号新塘桥购物广场3楼(近浦东南路)"},{"poiid":"B2094757D06EABF54393","title":"布丁酒店(上海世博南浦大桥店)","lon":"121.513055","lat":"31.20313","category":"217","category_name":"旅馆招待所","address":"浦东新区浦东南路2304号(近龙阳路)"},{"poiid":"B2094753D664A2F9439A","title":"黄浦江","lon":"121.512382","lat":"31.207145","category":"500","category_name":"未知分类","address":"上海市 外滩十六铺码头"},{"poiid":"B2094654DA69ABF84699","title":"浦东南路小学","lon":"121.51461","lat":"31.20748","category":"56","category_name":"小学","address":"浦东新区浦东南路2168号(浦建路口)"},{"poiid":"B2094757D06BA3FF4099","title":"仲元堂","lon":"121.516952738","lat":"31.2104578788","category":"500","category_name":"未知分类","address":"浦东南路2100号上尚商厦2楼"},{"poiid":"B2094654DA69ABF8489C","title":"国地公寓","lon":"121.51326","lat":"31.20549","category":"47","category_name":"住宅区","address":"国地公寓位于浦东浦东南路2244号"},{"poiid":"B2094654DA69ABF84498","title":"微西小区","lon":"121.51069","lat":"31.207483","category":"47","category_name":"住宅区","address":"微西小区"},{"poiid":"B2094654DA69ABF84499","title":"微西小区(东门)","lon":"121.51049","lat":"31.20791","category":"47","category_name":"住宅区","address":""},{"poiid":"B2094654DA69ABF8489E","title":"永业商务楼","lon":"121.51406","lat":"31.20558","category":"46","category_name":"楼宇","address":"上海浦东南路2240号"},{"poiid":"B2094654DB64A3FD499F","title":"微山新村(边门)","lon":"121.5148","lat":"31.20864","category":"47","category_name":"住宅区","address":""},{"poiid":"B2094757D064A6FA4099","title":"重庆家富富侨(塘桥店)","lon":"121.51759","lat":"31.20993","category":"149","category_name":"洗浴推拿场所","address":"浦东新区浦建路15号新塘桥购物广场4楼(近浦东南路)"},{"poiid":"B2094757D06FA6F9449A","title":"上海浦东喜来登由由酒店(Sheraton Shanghai Pudong Hotel &amp; Residences)","lon":"121.51789093","lat":"31.209993362","category":"217","category_name":"旅馆招待所","address":"上海市浦东新区浦建路38号(近浦东南路)"},{"poiid":"B2094654DB64A3FC409D","title":"福朋喜来登由由酒店","lon":"121.51699","lat":"31.20981","category":"214","category_name":"四星级宾馆","address":"浦东新区浦东南路2111号(近浦建路)"},{"poiid":"B2094757D06FA2FB459A","title":"艾福敦酒店 (Eiffelton Riverside Hotel Pudong Shanghai)","lon":"121.509251618","lat":"31.2056334725","category":"217","category_name":"旅馆招待所","address":"浦东新区浦明路1888号(近浦建路)"},{"poiid":"B2094757D06FA2FC4993","title":"塘桥","lon":"121.51654052","lat":"31.21005249","category":"260","category_name":"其他","address":"塘桥路551识别"},{"poiid":"B2094757D06FA7FD4298","title":"薇拉宫邸(浦东店)","lon":"121.50889556","lat":"31.207375193","category":"95","category_name":"日本料理","address":"上海浦明路1888号5号楼"},{"poiid":"B2094757D06FA3FA4799","title":"麦当劳(塘桥店)","lon":"121.51674","lat":"31.2101","category":"68","category_name":"快餐厅","address":"浦东新区浦东南路2100号(浦建路塘桥新路)"},{"poiid":"B2094757D06FA2FA449A","title":"感智盲人保健会所(浦东南路店)","lon":"121.516704631","lat":"31.2098654502","category":"149","category_name":"洗浴推拿场所","address":"浦东新区浦东南路2100号B1楼(近浦建路)"},{"poiid":"B2094757D068A6FD449A","title":"陆家庄(塘桥店)","lon":"121.51753","lat":"31.21043","category":"76","category_name":"上海菜","address":"浦东新区浦建路1号塘桥生活广场(近浦东南路)"},{"poiid":"B2094757D068A3FB4299","title":"苏先生海鲜渔庄 南浦店","lon":"121.5131","lat":"31.20325","category":"260","category_name":"其他","address":"浦东新区浦东南路2304号(近龙阳路)"},{"poiid":"B2094655D268A1FA459F","title":"东江高尔夫会所","lon":"121.51033","lat":"31.2083","category":"206","category_name":"高尔夫相关","address":"小南码头路5号"},{"poiid":"B2094757D06FABFF4392","title":"四季亭(塘桥店)","lon":"121.51673","lat":"31.21006","category":"95","category_name":"日本料理","address":"浦东新区塘桥新路200号(近浦东南路)"},{"poiid":"B2094752D269A1FE439F","title":"满记甜品","lon":"121.51564","lat":"31.210876","category":"247","category_name":"餐饮美食","address":"浦建路巴黎春天"},{"poiid":"B2094757D068A3F8439E","title":"喜来登由由大酒店宴会厅","lon":"121.51806","lat":"31.20962","category":"72","category_name":"广东菜","address":"浦东新区浦东南路2111号2楼(近南浦大桥)"},{"poiid":"B2094757D068ABFD4298","title":"南浦广场公园","lon":"121.514124","lat":"31.204002","category":"196","category_name":"公园","address":"浦东新区浦东南路2277号(近龙阳路)"},{"poiid":"B2094757D06AA2F44792","title":"仁恒广场","lon":"121.51391","lat":"31.209261","category":"46","category_name":"楼宇","address":"上海茂兴路90号"},{"poiid":"B2094757D16DA2F9429C","title":"优艾贝国际月子会所","lon":"121.511133338","lat":"31.2068565021","category":"248","category_name":"生活娱乐","address":"浦东新区浦明路1888号(近南浦大桥)"},{"poiid":"B2094757DA6EABFB4999","title":"薇拉宫邸私人婚礼会所(南浦店)","lon":"121.509479","lat":"31.2066410000002","category":"248","category_name":"生活娱乐","address":"浦东新区浦明路1888号5号楼(近南浦大桥)查看地图"},{"poiid":"B2094757D06BA3F8439D","title":"汉庭海友客栈","lon":"121.515409","lat":"31.208214","category":"216","category_name":"经济型连锁酒店","address":"浦东新区浦东南路2162号(近微山路)"},{"poiid":"B2094654DB6AA2FC4099","title":"锦江之星(南浦大桥店)","lon":"121.51424","lat":"31.20632","category":"216","category_name":"经济型连锁酒店","address":"上海市浦东新区浦东南路2200号（近微山路）"},{"poiid":"B2094757D569A3FA4198","title":"南码头","lon":"121.511367","lat":"31.205579","category":"201","category_name":"城市广场","address":"浦明路1888"},{"poiid":"B2094757D069AAFD4699","title":"东江高尔夫","lon":"121.50941473","lat":"31.205573774","category":"500","category_name":"未知分类","address":"上海市南码头路5号"},{"poiid":"B2094753D26BABF84899","title":"梅赛德斯奔驰文化中心","lon":"121.511778","lat":"31.210557","category":"500","category_name":"未知分类","address":"上海市 上海浦东世博大道1200号"},{"poiid":"B2094654DA69A6FF489D","title":"由由大酒店","lon":"121.51718","lat":"31.21002","category":"76","category_name":"上海菜","address":"上海市浦东新区浦东南路2111号（近浦建路）"},{"poiid":"B2094757D069A2FE499D","title":"微山二村","lon":"121.51336","lat":"31.20816","category":"47","category_name":"住宅区","address":"微山路3号"},{"poiid":"B2094750D76FA3FC4993","title":"和容轩","lon":"121.511","lat":"31.2056","category":"76","category_name":"上海菜","address":"浦东新区浦明路1888号15号楼3楼(近微山路)"},{"poiid":"B2094757D06BABFB4193","title":"滨江2250","lon":"121.513661738","lat":"31.2047697577","category":"46","category_name":"楼宇","address":"上海市浦东新区浦东南路"},{"poiid":"B2094655D26FA6F8439D","title":"如家快捷酒店(上海浦东南路世博店)","lon":"121.5146","lat":"31.20503","category":"216","category_name":"经济型连锁酒店","address":"浦东新区浦东南路1860号(近浦东大酒店)"},{"poiid":"B2094753D76AA6FC499B","title":"宝燕壹号(滨江店)","lon":"121.51101","lat":"31.20368","category":"75","category_name":"浙江菜","address":"上海市浦东新区浦明路1999号云天地美食休闲广场内"},{"poiid":"B2094757D66EA5FF489D","title":"微山三村","lon":"121.513332738","lat":"31.2074558149","category":"47","category_name":"住宅区","address":"上海浦东新区小南码头路"},{"poiid":"B2094654DA69ABF8469E","title":"海运新村","lon":"121.51392","lat":"31.207024","category":"47","category_name":"住宅区","address":"浦东南路2178弄2-16号"},{"poiid":"B2094654DA69ABF8449F","title":"仁恒广场第一座","lon":"121.51345","lat":"31.20899","category":"46","category_name":"楼宇","address":"茂兴路98"},{"poiid":"B2094654DA69ABF8459A","title":"仁恒广场第二座","lon":"121.51402","lat":"31.2088","category":"46","category_name":"楼宇","address":"茂兴路92"},{"poiid":"B2094655D26DA7FB479B","title":"微山新村","lon":"121.51429","lat":"31.208408","category":"47","category_name":"住宅区","address":"上海浦东新区浦东南路塘桥"},{"poiid":"B2094655D26DA1FA4293","title":"仁恒广场第三座","lon":"121.51408","lat":"31.20956","category":"46","category_name":"楼宇","address":"茂兴路90"},{"poiid":"B2094654DA69ABF84393","title":"微南小区(北门)","lon":"121.51326","lat":"31.20862","category":"47","category_name":"住宅区","address":"微山二村1-43号"},{"poiid":"B2094654DA69ABF8449C","title":"仁恒广场第四座","lon":"121.51435","lat":"31.20955","category":"46","category_name":"楼宇","address":""},{"poiid":"B2094654DB64A3FF469D","title":"海博大厦","lon":"121.514","lat":"31.2065","category":"46","category_name":"楼宇","address":"南码头路101-3"},{"poiid":"B2094750D068A2FA4199","title":"虹口龙之梦","lon":"121.514823","lat":"31.207803","category":"500","category_name":"未知分类","address":null},{"poiid":"B2094753D764A7F8429F","title":"国金白丽宫影院","lon":"121.511009","lat":"31.209058","category":"178","category_name":"电影院","address":"上海市 陆家嘴国金"},{"poiid":"B2094757D66CA2FA4099","title":"富桥足浴国际会所","lon":"121.512429738","lat":"31.2074078139","category":"500","category_name":"未知分类","address":"浦东新区浦建路15号新塘桥购物广场3楼(近浦东南路)"},{"poiid":"B2094757D06EABF54393","title":"布丁酒店(上海世博南浦大桥店)","lon":"121.513055","lat":"31.20313","category":"217","category_name":"旅馆招待所","address":"浦东新区浦东南路2304号(近龙阳路)"},{"poiid":"B2094753D664A2F9439A","title":"黄浦江","lon":"121.512382","lat":"31.207145","category":"500","category_name":"未知分类","address":"上海市 外滩十六铺码头"},{"poiid":"B2094654DA69ABF84699","title":"浦东南路小学","lon":"121.51461","lat":"31.20748","category":"56","category_name":"小学","address":"浦东新区浦东南路2168号(浦建路口)"},{"poiid":"B2094757D06BA3FF4099","title":"仲元堂","lon":"121.516952738","lat":"31.2104578788","category":"500","category_name":"未知分类","address":"浦东南路2100号上尚商厦2楼"},{"poiid":"B2094654DA69ABF8489C","title":"国地公寓","lon":"121.51326","lat":"31.20549","category":"47","category_name":"住宅区","address":"国地公寓位于浦东浦东南路2244号"},{"poiid":"B2094654DA69ABF84498","title":"微西小区","lon":"121.51069","lat":"31.207483","category":"47","category_name":"住宅区","address":"微西小区"},{"poiid":"B2094654DA69ABF84499","title":"微西小区(东门)","lon":"121.51049","lat":"31.20791","category":"47","category_name":"住宅区","address":""},{"poiid":"B2094654DA69ABF8489E","title":"永业商务楼","lon":"121.51406","lat":"31.20558","category":"46","category_name":"楼宇","address":"上海浦东南路2240号"},{"poiid":"B2094654DB64A3FD499F","title":"微山新村(边门)","lon":"121.5148","lat":"31.20864","category":"47","category_name":"住宅区","address":""},{"poiid":"B2094757D064A6FA4099","title":"重庆家富富侨(塘桥店)","lon":"121.51759","lat":"31.20993","category":"149","category_name":"洗浴推拿场所","address":"浦东新区浦建路15号新塘桥购物广场4楼(近浦东南路)"}]