[{"poiid":"B2094655D265A0F84392","title":"红麻辣料理(万航渡路店)","lon":"121.43574","lat":"31.22514","category":"68","category_name":"快餐厅","address":"静安区万航渡路465号(近镇宁路)"},{"poiid":"B2094757D069A2FE489E","title":"Time zipping house TZ","lon":"121.435335241","lat":"31.2244989389","category":"260","category_name":"其他","address":"静安区镇宁路525号新东纺大酒店1楼(近万航渡路)"},{"poiid":"B2094750D76EAAFC4993","title":"小胖龙虾(镇宁店)","lon":"121.435","lat":"31.2239","category":"68","category_name":"快餐厅","address":"静安区镇宁路483号(近万航渡路)"},{"poiid":"B209475CD564A7F8439E","title":"上海滩中信泰富店","lon":"121.45602","lat":"31.22851","category":"119","category_name":"商场","address":"\"南京西路1168号中信泰富广场，店铺号221.\r\n\""},{"poiid":"B2094750DB6FA0FB469D","title":"八重樱寿喜锅","lon":"121.436347","lat":"31.22504","category":"95","category_name":"日本料理","address":"静安区万航渡路450号2楼(近镇宁路)"},{"poiid":"B2094757D068A1FE489B","title":"舜元企业发展大厦","lon":"121.437273","lat":"31.225137","category":"46","category_name":"楼宇","address":"上海江苏路398号"},{"poiid":"B2094757D068A4F84692","title":"上海美术电影制片厂","lon":"121.43391","lat":"31.22595","category":"179","category_name":"音乐厅","address":"静安区万航渡路618号(近武定西路)"},{"poiid":"B2094757D468ABFA4792","title":"和平官邸5号","lon":"121.432227","lat":"31.224611","category":"247","category_name":"餐饮美食","address":"静安区武定西路1317弄10号(近万航渡路)"},{"poiid":"B2094757D16FABFF409A","title":"TZ house","lon":"121.436282","lat":"31.226693","category":"500","category_name":"未知分类","address":"上海武宁南路万航渡路"},{"poiid":"B2094757D069A1F44498","title":"Mokkos","lon":"121.433256152","lat":"31.2250710167","category":"260","category_name":"其他","address":"长宁区武定西路1245号103室(近万航渡路)"},{"poiid":"B2094757DB6CA5F84899","title":"外婆家","lon":"121.43476015","lat":"31.22588765","category":"500","category_name":"未知分类","address":"调频壹广场"},{"poiid":"B2094757D06FA4FA479B","title":"绿地商务大厦","lon":"121.43222758119","lat":"31.225661116139","category":"46","category_name":"楼宇","address":"上海市长宁区愚园路1258号"},{"poiid":"B2094750D26EA4FF4898","title":"庞克咖啡","lon":"121.435745","lat":"31.222717","category":"65","category_name":"咖啡厅","address":"静安区镇宁路425号(近愚园路)"},{"poiid":"B2094751D464A6FA4993","title":"CAS BAR","lon":"121.4359","lat":"31.22513","category":"260","category_name":"其他","address":"静安区武定路980号(近胶州路)"},{"poiid":"B2094750D664A3FB4893","title":"TZHouse弹指之间音乐酒吧","lon":"121.435","lat":"31.2245","category":"269","category_name":"烧烤","address":"镇宁路525号新东纺大酒店1楼(近万航渡路)"},{"poiid":"B2094757D56CABF4409C","title":"东北虎烧烤 镇宁路店","lon":"121.435838054","lat":"31.221491793","category":"68","category_name":"快餐厅","address":"静安区镇宁路367号(愚园路口)"},{"poiid":"B2094757DB6EA5F84199","title":"潮辣","lon":"121.433275","lat":"31.223303","category":"247","category_name":"餐饮美食","address":"愚圆路582号"},{"poiid":"B2094750DB64AAF4429B","title":"杨同兴火锅","lon":"121.43449","lat":"31.22562","category":"86","category_name":"火锅店","address":"静安区万航渡路550号(近武定西路)"},{"poiid":"B2094654D565A1FB499C","title":"嘉园","lon":"121.43611","lat":"31.224552","category":"47","category_name":"住宅区","address":"上海市静安区万航渡路458弄"},{"poiid":"B2094757D068A2FC4998","title":"红宝石 万航渡路店 Ruby","lon":"121.433935054","lat":"31.225951793","category":"67","category_name":"甜品店","address":"静安区万航渡路625号(近武定西路)"},{"poiid":"B2094757D065ABFD409F","title":"天星公寓","lon":"121.43437","lat":"31.224094","category":"47","category_name":"住宅区","address":"上海市虹口区天水路69弄"},{"poiid":"B2094757D068A6FF4693","title":"王家沙点心店(万航渡路店)","lon":"121.43307","lat":"31.22653","category":"68","category_name":"快餐厅","address":"静安区万航渡路673号(康定路与武定西路间)"},{"poiid":"B2094655D26DA3F94792","title":"兴星公寓","lon":"121.43436","lat":"31.223917","category":"47","category_name":"住宅区","address":"兴星公寓位于静安镇宁路545弄7号"},{"poiid":"B2094757D069A0F4479A","title":"天乐酒家","lon":"121.43225563741","lat":"31.226646519422","category":"76","category_name":"上海菜","address":"静安区万航渡路628号(近武定西路)"},{"poiid":"B2094757D068A2F84193","title":"MDB桌球会所","lon":"121.4354102","lat":"31.2250695","category":"248","category_name":"生活娱乐","address":"上海镇宁路525号(万航渡路口)"},{"poiid":"B2094757D16CAAFD4198","title":"红料理","lon":"121.435906586","lat":"31.2244983189","category":"247","category_name":"餐饮美食","address":"上海市静安区万航渡路"},{"poiid":"B2094757D065A1F8429B","title":"苏州五越斋汤包馆","lon":"121.434539586","lat":"31.2259423472","category":"68","category_name":"快餐厅","address":"静安区万航渡路529号(近武定西路)"},{"poiid":"B2094654D565A1FB449B","title":"重庆鸡公煲(镇宁路)","lon":"121.43631","lat":"31.22105","category":"71","category_name":"四川菜","address":"静安区愚园路654号(近镇宁路)"},{"poiid":"B2094757D06AAAF8449C","title":"镇宁路465弄","lon":"121.43528","lat":"31.223562","category":"500","category_name":"未知分类","address":"上海镇宁路465弄"},{"poiid":"B209475CDA6AA7F44599","title":"鱼酷活鱼现烤","lon":"121.434593","lat":"31.224903","category":"247","category_name":"餐饮美食","address":"上海市 静安区悦达889广场"},{"poiid":"B2094655D264A6FF449B","title":"益都名邸","lon":"121.433703","lat":"31.224221","category":"47","category_name":"住宅区","address":"上海市长宁区愚园路1155弄"},{"poiid":"B2094654DB69A6FE499C","title":"开开大厦","lon":"121.4338","lat":"31.22594","category":"46","category_name":"楼宇","address":"静安区万航渡路888号"},{"poiid":"B2094750DA64A0FB4699","title":"PUNK COFFEE","lon":"121.435043","lat":"31.223016","category":"247","category_name":"餐饮美食","address":"镇宁路425号"},{"poiid":"B2094654D565A1FB459B","title":"纺织工会大厦","lon":"121.43516","lat":"31.22431","category":"46","category_name":"楼宇","address":"镇宁路525"},{"poiid":"B2094757D068A7F8479B","title":"中行小区","lon":"121.43359768","lat":"31.226565699","category":"47","category_name":"住宅区","address":"上海市长宁区淮海西路346弄5号楼"},{"poiid":"B2094654D565A1FE4593","title":"京世造型(武定西路)","lon":"121.43558","lat":"31.22665","category":"148","category_name":"美容美发店","address":"武定西路1178"},{"poiid":"B2094655D26CABF44193","title":"中行别业商务中心","lon":"121.434","lat":"31.22675","category":"46","category_name":"楼宇","address":"城西路188、200号等"},{"poiid":"B2094654D565A1FB449D","title":"新东纺大酒店娱乐总汇","lon":"121.43528","lat":"31.22467","category":"170","category_name":"KTV","address":"静安区镇宁路525号新东纺大酒店4楼(近曹家渡)"},{"poiid":"B2094750D56DA6FA4492","title":"静安设计中心","lon":"121.43546177415","lat":"31.224096656872","category":"263","category_name":"公司","address":"静安区愚园路433弄8号(近乌鲁木齐路)"},{"poiid":"B2094757D66FA3FD4598","title":"福来多三国烤鱼","lon":"121.43662528","lat":"31.22507963","category":"71","category_name":"四川菜","address":"静安区万航渡路431号(近镇宁路)"},{"poiid":"B2094757DB6EAAF44792","title":"咕咚石锅蒸汽火锅","lon":"121.43476","lat":"31.225888","category":"247","category_name":"餐饮美食","address":"静安区"},{"poiid":"B2094757DB6FA4FC4492","title":"IMovie影院视听馆（静安店）","lon":"121.43618625","lat":"31.22430014","category":"248","category_name":"生活娱乐","address":"静安区北京西路1829号4楼(近乌鲁木齐路)"},{"poiid":"B2094655D26DA3FD449B","title":"传奇桌球(镇宁路)","lon":"121.43527","lat":"31.22467","category":"171","category_name":"台球厅","address":"镇宁路525号新东纺大酒店3层"},{"poiid":"B2094751D26EA1F94298","title":"海底捞火锅","lon":"121.4355280418445","lat":"31.22430984840841","category":"247","category_name":"餐饮美食","address":"南京西路"},{"poiid":"B2094654DB6BA6FE4892","title":"曹家渡派出所(武定西路)","lon":"121.4319","lat":"31.22475","category":"248","category_name":"生活娱乐","address":"武定西路1368"},{"poiid":"B209475CD06BA4F94493","title":"TZ House 弹指之间音乐酒吧  timezippinghouse","lon":"121.43542","lat":"31.22452","category":"172","category_name":"酒吧","address":"镇宁路525号新东纺大酒店1楼(近万航渡路)"},{"poiid":"B2094654DB6BA6FF4298","title":"光明便利(镇宁路)","lon":"121.43547","lat":"31.22371","category":"117","category_name":"便民商店/便利店","address":"普陀区江宁路958号(安远路江宁路)"},{"poiid":"B2094757D069AAF9409F","title":"新东纺大酒店","lon":"121.43539428","lat":"31.224704742","category":"217","category_name":"旅馆招待所","address":"静安区镇宁路525号(近万航渡路)"},{"poiid":"B2094757D16BA0FF429C","title":"上海市皮肤病医院","lon":"121.436256586","lat":"31.2217742656","category":"162","category_name":"医院","address":"上海市武夷路"},{"poiid":"B2094757D065A3FE429D","title":"上海镇宁路545弄","lon":"121.434918","lat":"31.224542","category":"500","category_name":"未知分类","address":"上海镇宁路545弄"},{"poiid":"B2094655D265A0F84392","title":"红麻辣料理(万航渡路店)","lon":"121.43574","lat":"31.22514","category":"68","category_name":"快餐厅","address":"静安区万航渡路465号(近镇宁路)"},{"poiid":"B2094757D069A2FE489E","title":"Time zipping house TZ","lon":"121.435335241","lat":"31.2244989389","category":"260","category_name":"其他","address":"静安区镇宁路525号新东纺大酒店1楼(近万航渡路)"},{"poiid":"B2094750D76EAAFC4993","title":"小胖龙虾(镇宁店)","lon":"121.435","lat":"31.2239","category":"68","category_name":"快餐厅","address":"静安区镇宁路483号(近万航渡路)"},{"poiid":"B209475CD564A7F8439E","title":"上海滩中信泰富店","lon":"121.45602","lat":"31.22851","category":"119","category_name":"商场","address":"\"南京西路1168号中信泰富广场，店铺号221.\r\n\""},{"poiid":"B2094750DB6FA0FB469D","title":"八重樱寿喜锅","lon":"121.436347","lat":"31.22504","category":"95","category_name":"日本料理","address":"静安区万航渡路450号2楼(近镇宁路)"},{"poiid":"B2094757D068A1FE489B","title":"舜元企业发展大厦","lon":"121.437273","lat":"31.225137","category":"46","category_name":"楼宇","address":"上海江苏路398号"},{"poiid":"B2094757D068A4F84692","title":"上海美术电影制片厂","lon":"121.43391","lat":"31.22595","category":"179","category_name":"音乐厅","address":"静安区万航渡路618号(近武定西路)"},{"poiid":"B2094757D468ABFA4792","title":"和平官邸5号","lon":"121.432227","lat":"31.224611","category":"247","category_name":"餐饮美食","address":"静安区武定西路1317弄10号(近万航渡路)"},{"poiid":"B2094757D16FABFF409A","title":"TZ house","lon":"121.436282","lat":"31.226693","category":"500","category_name":"未知分类","address":"上海武宁南路万航渡路"},{"poiid":"B2094757D069A1F44498","title":"Mokkos","lon":"121.433256152","lat":"31.2250710167","category":"260","category_name":"其他","address":"长宁区武定西路1245号103室(近万航渡路)"},{"poiid":"B2094757DB6CA5F84899","title":"外婆家","lon":"121.43476015","lat":"31.22588765","category":"500","category_name":"未知分类","address":"调频壹广场"},{"poiid":"B2094757D06FA4FA479B","title":"绿地商务大厦","lon":"121.43222758119","lat":"31.225661116139","category":"46","category_name":"楼宇","address":"上海市长宁区愚园路1258号"},{"poiid":"B2094750D26EA4FF4898","title":"庞克咖啡","lon":"121.435745","lat":"31.222717","category":"65","category_name":"咖啡厅","address":"静安区镇宁路425号(近愚园路)"},{"poiid":"B2094751D464A6FA4993","title":"CAS BAR","lon":"121.4359","lat":"31.22513","category":"260","category_name":"其他","address":"静安区武定路980号(近胶州路)"},{"poiid":"B2094750D664A3FB4893","title":"TZHouse弹指之间音乐酒吧","lon":"121.435","lat":"31.2245","category":"269","category_name":"烧烤","address":"镇宁路525号新东纺大酒店1楼(近万航渡路)"},{"poiid":"B2094757D56CABF4409C","title":"东北虎烧烤 镇宁路店","lon":"121.435838054","lat":"31.221491793","category":"68","category_name":"快餐厅","address":"静安区镇宁路367号(愚园路口)"},{"poiid":"B2094757DB6EA5F84199","title":"潮辣","lon":"121.433275","lat":"31.223303","category":"247","category_name":"餐饮美食","address":"愚圆路582号"},{"poiid":"B2094750DB64AAF4429B","title":"杨同兴火锅","lon":"121.43449","lat":"31.22562","category":"86","category_name":"火锅店","address":"静安区万航渡路550号(近武定西路)"},{"poiid":"B2094654D565A1FB499C","title":"嘉园","lon":"121.43611","lat":"31.224552","category":"47","category_name":"住宅区","address":"上海市静安区万航渡路458弄"},{"poiid":"B2094757D068A2FC4998","title":"红宝石 万航渡路店 Ruby","lon":"121.433935054","lat":"31.225951793","category":"67","category_name":"甜品店","address":"静安区万航渡路625号(近武定西路)"},{"poiid":"B2094757D065ABFD409F","title":"天星公寓","lon":"121.43437","lat":"31.224094","category":"47","category_name":"住宅区","address":"上海市虹口区天水路69弄"},{"poiid":"B2094757D068A6FF4693","title":"王家沙点心店(万航渡路店)","lon":"121.43307","lat":"31.22653","category":"68","category_name":"快餐厅","address":"静安区万航渡路673号(康定路与武定西路间)"},{"poiid":"B2094655D26DA3F94792","title":"兴星公寓","lon":"121.43436","lat":"31.223917","category":"47","category_name":"住宅区","address":"兴星公寓位于静安镇宁路545弄7号"},{"poiid":"B2094757D069A0F4479A","title":"天乐酒家","lon":"121.43225563741","lat":"31.226646519422","category":"76","category_name":"上海菜","address":"静安区万航渡路628号(近武定西路)"},{"poiid":"B2094757D068A2F84193","title":"MDB桌球会所","lon":"121.4354102","lat":"31.2250695","category":"248","category_name":"生活娱乐","address":"上海镇宁路525号(万航渡路口)"},{"poiid":"B2094757D16CAAFD4198","title":"红料理","lon":"121.435906586","lat":"31.2244983189","category":"247","category_name":"餐饮美食","address":"上海市静安区万航渡路"},{"poiid":"B2094757D065A1F8429B","title":"苏州五越斋汤包馆","lon":"121.434539586","lat":"31.2259423472","category":"68","category_name":"快餐厅","address":"静安区万航渡路529号(近武定西路)"},{"poiid":"B2094654D565A1FB449B","title":"重庆鸡公煲(镇宁路)","lon":"121.43631","lat":"31.22105","category":"71","category_name":"四川菜","address":"静安区愚园路654号(近镇宁路)"},{"poiid":"B2094757D06AAAF8449C","title":"镇宁路465弄","lon":"121.43528","lat":"31.223562","category":"500","category_name":"未知分类","address":"上海镇宁路465弄"},{"poiid":"B209475CDA6AA7F44599","title":"鱼酷活鱼现烤","lon":"121.434593","lat":"31.224903","category":"247","category_name":"餐饮美食","address":"上海市 静安区悦达889广场"},{"poiid":"B2094655D264A6FF449B","title":"益都名邸","lon":"121.433703","lat":"31.224221","category":"47","category_name":"住宅区","address":"上海市长宁区愚园路1155弄"},{"poiid":"B2094654DB69A6FE499C","title":"开开大厦","lon":"121.4338","lat":"31.22594","category":"46","category_name":"楼宇","address":"静安区万航渡路888号"},{"poiid":"B2094750DA64A0FB4699","title":"PUNK COFFEE","lon":"121.435043","lat":"31.223016","category":"247","category_name":"餐饮美食","address":"镇宁路425号"},{"poiid":"B2094654D565A1FB459B","title":"纺织工会大厦","lon":"121.43516","lat":"31.22431","category":"46","category_name":"楼宇","address":"镇宁路525"},{"poiid":"B2094757D068A7F8479B","title":"中行小区","lon":"121.43359768","lat":"31.226565699","category":"47","category_name":"住宅区","address":"上海市长宁区淮海西路346弄5号楼"},{"poiid":"B2094654D565A1FE4593","title":"京世造型(武定西路)","lon":"121.43558","lat":"31.22665","category":"148","category_name":"美容美发店","address":"武定西路1178"},{"poiid":"B2094655D26CABF44193","title":"中行别业商务中心","lon":"121.434","lat":"31.22675","category":"46","category_name":"楼宇","address":"城西路188、200号等"},{"poiid":"B2094654D565A1FB449D","title":"新东纺大酒店娱乐总汇","lon":"121.43528","lat":"31.22467","category":"170","category_name":"KTV","address":"静安区镇宁路525号新东纺大酒店4楼(近曹家渡)"},{"poiid":"B2094750D56DA6FA4492","title":"静安设计中心","lon":"121.43546177415","lat":"31.224096656872","category":"263","category_name":"公司","address":"静安区愚园路433弄8号(近乌鲁木齐路)"},{"poiid":"B2094757D66FA3FD4598","title":"福来多三国烤鱼","lon":"121.43662528","lat":"31.22507963","category":"71","category_name":"四川菜","address":"静安区万航渡路431号(近镇宁路)"},{"poiid":"B2094757DB6EAAF44792","title":"咕咚石锅蒸汽火锅","lon":"121.43476","lat":"31.225888","category":"247","category_name":"餐饮美食","address":"静安区"},{"poiid":"B2094757DB6FA4FC4492","title":"IMovie影院视听馆（静安店）","lon":"121.43618625","lat":"31.22430014","category":"248","category_name":"生活娱乐","address":"静安区北京西路1829号4楼(近乌鲁木齐路)"},{"poiid":"B2094655D26DA3FD449B","title":"传奇桌球(镇宁路)","lon":"121.43527","lat":"31.22467","category":"171","category_name":"台球厅","address":"镇宁路525号新东纺大酒店3层"},{"poiid":"B2094751D26EA1F94298","title":"海底捞火锅","lon":"121.4355280418445","lat":"31.22430984840841","category":"247","category_name":"餐饮美食","address":"南京西路"},{"poiid":"B2094654DB6BA6FE4892","title":"曹家渡派出所(武定西路)","lon":"121.4319","lat":"31.22475","category":"248","category_name":"生活娱乐","address":"武定西路1368"},{"poiid":"B209475CD06BA4F94493","title":"TZ House 弹指之间音乐酒吧  timezippinghouse","lon":"121.43542","lat":"31.22452","category":"172","category_name":"酒吧","address":"镇宁路525号新东纺大酒店1楼(近万航渡路)"},{"poiid":"B2094654DB6BA6FF4298","title":"光明便利(镇宁路)","lon":"121.43547","lat":"31.22371","category":"117","category_name":"便民商店/便利店","address":"普陀区江宁路958号(安远路江宁路)"},{"poiid":"B2094757D069AAF9409F","title":"新东纺大酒店","lon":"121.43539428","lat":"31.224704742","category":"217","category_name":"旅馆招待所","address":"静安区镇宁路525号(近万航渡路)"},{"poiid":"B2094757D16BA0FF429C","title":"上海市皮肤病医院","lon":"121.436256586","lat":"31.2217742656","category":"162","category_name":"医院","address":"上海市武夷路"},{"poiid":"B2094757D065A3FE429D","title":"上海镇宁路545弄","lon":"121.434918","lat":"31.224542","category":"500","category_name":"未知分类","address":"上海镇宁路545弄"},{"poiid":"B2094655D265A0F84392","title":"红麻辣料理(万航渡路店)","lon":"121.43574","lat":"31.22514","category":"68","category_name":"快餐厅","address":"静安区万航渡路465号(近镇宁路)"},{"poiid":"B2094757D069A2FE489E","title":"Time zipping house TZ","lon":"121.435335241","lat":"31.2244989389","category":"260","category_name":"其他","address":"静安区镇宁路525号新东纺大酒店1楼(近万航渡路)"},{"poiid":"B2094750D76EAAFC4993","title":"小胖龙虾(镇宁店)","lon":"121.435","lat":"31.2239","category":"68","category_name":"快餐厅","address":"静安区镇宁路483号(近万航渡路)"},{"poiid":"B209475CD564A7F8439E","title":"上海滩中信泰富店","lon":"121.45602","lat":"31.22851","category":"119","category_name":"商场","address":"\"南京西路1168号中信泰富广场，店铺号221.\r\n\""},{"poiid":"B2094750DB6FA0FB469D","title":"八重樱寿喜锅","lon":"121.436347","lat":"31.22504","category":"95","category_name":"日本料理","address":"静安区万航渡路450号2楼(近镇宁路)"},{"poiid":"B2094757D068A1FE489B","title":"舜元企业发展大厦","lon":"121.437273","lat":"31.225137","category":"46","category_name":"楼宇","address":"上海江苏路398号"},{"poiid":"B2094757D068A4F84692","title":"上海美术电影制片厂","lon":"121.43391","lat":"31.22595","category":"179","category_name":"音乐厅","address":"静安区万航渡路618号(近武定西路)"},{"poiid":"B2094757D468ABFA4792","title":"和平官邸5号","lon":"121.432227","lat":"31.224611","category":"247","category_name":"餐饮美食","address":"静安区武定西路1317弄10号(近万航渡路)"},{"poiid":"B2094757D16FABFF409A","title":"TZ house","lon":"121.436282","lat":"31.226693","category":"500","category_name":"未知分类","address":"上海武宁南路万航渡路"},{"poiid":"B2094757D069A1F44498","title":"Mokkos","lon":"121.433256152","lat":"31.2250710167","category":"260","category_name":"其他","address":"长宁区武定西路1245号103室(近万航渡路)"},{"poiid":"B2094757DB6CA5F84899","title":"外婆家","lon":"121.43476015","lat":"31.22588765","category":"500","category_name":"未知分类","address":"调频壹广场"},{"poiid":"B2094757D06FA4FA479B","title":"绿地商务大厦","lon":"121.43222758119","lat":"31.225661116139","category":"46","category_name":"楼宇","address":"上海市长宁区愚园路1258号"},{"poiid":"B2094750D26EA4FF4898","title":"庞克咖啡","lon":"121.435745","lat":"31.222717","category":"65","category_name":"咖啡厅","address":"静安区镇宁路425号(近愚园路)"},{"poiid":"B2094751D464A6FA4993","title":"CAS BAR","lon":"121.4359","lat":"31.22513","category":"260","category_name":"其他","address":"静安区武定路980号(近胶州路)"},{"poiid":"B2094750D664A3FB4893","title":"TZHouse弹指之间音乐酒吧","lon":"121.435","lat":"31.2245","category":"269","category_name":"烧烤","address":"镇宁路525号新东纺大酒店1楼(近万航渡路)"},{"poiid":"B2094757D56CABF4409C","title":"东北虎烧烤 镇宁路店","lon":"121.435838054","lat":"31.221491793","category":"68","category_name":"快餐厅","address":"静安区镇宁路367号(愚园路口)"},{"poiid":"B2094757DB6EA5F84199","title":"潮辣","lon":"121.433275","lat":"31.223303","category":"247","category_name":"餐饮美食","address":"愚圆路582号"},{"poiid":"B2094750DB64AAF4429B","title":"杨同兴火锅","lon":"121.43449","lat":"31.22562","category":"86","category_name":"火锅店","address":"静安区万航渡路550号(近武定西路)"},{"poiid":"B2094654D565A1FB499C","title":"嘉园","lon":"121.43611","lat":"31.224552","category":"47","category_name":"住宅区","address":"上海市静安区万航渡路458弄"},{"poiid":"B2094757D068A2FC4998","title":"红宝石 万航渡路店 Ruby","lon":"121.433935054","lat":"31.225951793","category":"67","category_name":"甜品店","address":"静安区万航渡路625号(近武定西路)"},{"poiid":"B2094757D065ABFD409F","title":"天星公寓","lon":"121.43437","lat":"31.224094","category":"47","category_name":"住宅区","address":"上海市虹口区天水路69弄"},{"poiid":"B2094757D068A6FF4693","title":"王家沙点心店(万航渡路店)","lon":"121.43307","lat":"31.22653","category":"68","category_name":"快餐厅","address":"静安区万航渡路673号(康定路与武定西路间)"},{"poiid":"B2094655D26DA3F94792","title":"兴星公寓","lon":"121.43436","lat":"31.223917","category":"47","category_name":"住宅区","address":"兴星公寓位于静安镇宁路545弄7号"},{"poiid":"B2094757D069A0F4479A","title":"天乐酒家","lon":"121.43225563741","lat":"31.226646519422","category":"76","category_name":"上海菜","address":"静安区万航渡路628号(近武定西路)"},{"poiid":"B2094757D068A2F84193","title":"MDB桌球会所","lon":"121.4354102","lat":"31.2250695","category":"248","category_name":"生活娱乐","address":"上海镇宁路525号(万航渡路口)"},{"poiid":"B2094757D16CAAFD4198","title":"红料理","lon":"121.435906586","lat":"31.2244983189","category":"247","category_name":"餐饮美食","address":"上海市静安区万航渡路"},{"poiid":"B2094757D065A1F8429B","title":"苏州五越斋汤包馆","lon":"121.434539586","lat":"31.2259423472","category":"68","category_name":"快餐厅","address":"静安区万航渡路529号(近武定西路)"},{"poiid":"B2094654D565A1FB449B","title":"重庆鸡公煲(镇宁路)","lon":"121.43631","lat":"31.22105","category":"71","category_name":"四川菜","address":"静安区愚园路654号(近镇宁路)"},{"poiid":"B2094757D06AAAF8449C","title":"镇宁路465弄","lon":"121.43528","lat":"31.223562","category":"500","category_name":"未知分类","address":"上海镇宁路465弄"},{"poiid":"B209475CDA6AA7F44599","title":"鱼酷活鱼现烤","lon":"121.434593","lat":"31.224903","category":"247","category_name":"餐饮美食","address":"上海市 静安区悦达889广场"},{"poiid":"B2094655D264A6FF449B","title":"益都名邸","lon":"121.433703","lat":"31.224221","category":"47","category_name":"住宅区","address":"上海市长宁区愚园路1155弄"},{"poiid":"B2094654DB69A6FE499C","title":"开开大厦","lon":"121.4338","lat":"31.22594","category":"46","category_name":"楼宇","address":"静安区万航渡路888号"},{"poiid":"B2094750DA64A0FB4699","title":"PUNK COFFEE","lon":"121.435043","lat":"31.223016","category":"247","category_name":"餐饮美食","address":"镇宁路425号"},{"poiid":"B2094654D565A1FB459B","title":"纺织工会大厦","lon":"121.43516","lat":"31.22431","category":"46","category_name":"楼宇","address":"镇宁路525"},{"poiid":"B2094757D068A7F8479B","title":"中行小区","lon":"121.43359768","lat":"31.226565699","category":"47","category_name":"住宅区","address":"上海市长宁区淮海西路346弄5号楼"},{"poiid":"B2094654D565A1FE4593","title":"京世造型(武定西路)","lon":"121.43558","lat":"31.22665","category":"148","category_name":"美容美发店","address":"武定西路1178"},{"poiid":"B2094655D26CABF44193","title":"中行别业商务中心","lon":"121.434","lat":"31.22675","category":"46","category_name":"楼宇","address":"城西路188、200号等"},{"poiid":"B2094654D565A1FB449D","title":"新东纺大酒店娱乐总汇","lon":"121.43528","lat":"31.22467","category":"170","category_name":"KTV","address":"静安区镇宁路525号新东纺大酒店4楼(近曹家渡)"},{"poiid":"B2094750D56DA6FA4492","title":"静安设计中心","lon":"121.43546177415","lat":"31.224096656872","category":"263","category_name":"公司","address":"静安区愚园路433弄8号(近乌鲁木齐路)"},{"poiid":"B2094757D66FA3FD4598","title":"福来多三国烤鱼","lon":"121.43662528","lat":"31.22507963","category":"71","category_name":"四川菜","address":"静安区万航渡路431号(近镇宁路)"},{"poiid":"B2094757DB6EAAF44792","title":"咕咚石锅蒸汽火锅","lon":"121.43476","lat":"31.225888","category":"247","category_name":"餐饮美食","address":"静安区"},{"poiid":"B2094757DB6FA4FC4492","title":"IMovie影院视听馆（静安店）","lon":"121.43618625","lat":"31.22430014","category":"248","category_name":"生活娱乐","address":"静安区北京西路1829号4楼(近乌鲁木齐路)"},{"poiid":"B2094655D26DA3FD449B","title":"传奇桌球(镇宁路)","lon":"121.43527","lat":"31.22467","category":"171","category_name":"台球厅","address":"镇宁路525号新东纺大酒店3层"},{"poiid":"B2094751D26EA1F94298","title":"海底捞火锅","lon":"121.4355280418445","lat":"31.22430984840841","category":"247","category_name":"餐饮美食","address":"南京西路"},{"poiid":"B2094654DB6BA6FE4892","title":"曹家渡派出所(武定西路)","lon":"121.4319","lat":"31.22475","category":"248","category_name":"生活娱乐","address":"武定西路1368"},{"poiid":"B209475CD06BA4F94493","title":"TZ House 弹指之间音乐酒吧  timezippinghouse","lon":"121.43542","lat":"31.22452","category":"172","category_name":"酒吧","address":"镇宁路525号新东纺大酒店1楼(近万航渡路)"},{"poiid":"B2094654DB6BA6FF4298","title":"光明便利(镇宁路)","lon":"121.43547","lat":"31.22371","category":"117","category_name":"便民商店/便利店","address":"普陀区江宁路958号(安远路江宁路)"},{"poiid":"B2094757D069AAF9409F","title":"新东纺大酒店","lon":"121.43539428","lat":"31.224704742","category":"217","category_name":"旅馆招待所","address":"静安区镇宁路525号(近万航渡路)"},{"poiid":"B2094757D16BA0FF429C","title":"上海市皮肤病医院","lon":"121.436256586","lat":"31.2217742656","category":"162","category_name":"医院","address":"上海市武夷路"},{"poiid":"B2094757D065A3FE429D","title":"上海镇宁路545弄","lon":"121.434918","lat":"31.224542","category":"500","category_name":"未知分类","address":"上海镇宁路545弄"},{"poiid":"B2094655D265A0F84392","title":"红麻辣料理(万航渡路店)","lon":"121.43574","lat":"31.22514","category":"68","category_name":"快餐厅","address":"静安区万航渡路465号(近镇宁路)"},{"poiid":"B2094757D069A2FE489E","title":"Time zipping house TZ","lon":"121.435335241","lat":"31.2244989389","category":"260","category_name":"其他","address":"静安区镇宁路525号新东纺大酒店1楼(近万航渡路)"},{"poiid":"B2094750D76EAAFC4993","title":"小胖龙虾(镇宁店)","lon":"121.435","lat":"31.2239","category":"68","category_name":"快餐厅","address":"静安区镇宁路483号(近万航渡路)"},{"poiid":"B209475CD564A7F8439E","title":"上海滩中信泰富店","lon":"121.45602","lat":"31.22851","category":"119","category_name":"商场","address":"\"南京西路1168号中信泰富广场，店铺号221.\r\n\""},{"poiid":"B2094750DB6FA0FB469D","title":"八重樱寿喜锅","lon":"121.436347","lat":"31.22504","category":"95","category_name":"日本料理","address":"静安区万航渡路450号2楼(近镇宁路)"},{"poiid":"B2094757D068A1FE489B","title":"舜元企业发展大厦","lon":"121.437273","lat":"31.225137","category":"46","category_name":"楼宇","address":"上海江苏路398号"},{"poiid":"B2094757D068A4F84692","title":"上海美术电影制片厂","lon":"121.43391","lat":"31.22595","category":"179","category_name":"音乐厅","address":"静安区万航渡路618号(近武定西路)"},{"poiid":"B2094757D468ABFA4792","title":"和平官邸5号","lon":"121.432227","lat":"31.224611","category":"247","category_name":"餐饮美食","address":"静安区武定西路1317弄10号(近万航渡路)"},{"poiid":"B2094757D16FABFF409A","title":"TZ house","lon":"121.436282","lat":"31.226693","category":"500","category_name":"未知分类","address":"上海武宁南路万航渡路"},{"poiid":"B2094757D069A1F44498","title":"Mokkos","lon":"121.433256152","lat":"31.2250710167","category":"260","category_name":"其他","address":"长宁区武定西路1245号103室(近万航渡路)"},{"poiid":"B2094757DB6CA5F84899","title":"外婆家","lon":"121.43476015","lat":"31.22588765","category":"500","category_name":"未知分类","address":"调频壹广场"},{"poiid":"B2094757D06FA4FA479B","title":"绿地商务大厦","lon":"121.43222758119","lat":"31.225661116139","category":"46","category_name":"楼宇","address":"上海市长宁区愚园路1258号"},{"poiid":"B2094750D26EA4FF4898","title":"庞克咖啡","lon":"121.435745","lat":"31.222717","category":"65","category_name":"咖啡厅","address":"静安区镇宁路425号(近愚园路)"},{"poiid":"B2094751D464A6FA4993","title":"CAS BAR","lon":"121.4359","lat":"31.22513","category":"260","category_name":"其他","address":"静安区武定路980号(近胶州路)"},{"poiid":"B2094750D664A3FB4893","title":"TZHouse弹指之间音乐酒吧","lon":"121.435","lat":"31.2245","category":"269","category_name":"烧烤","address":"镇宁路525号新东纺大酒店1楼(近万航渡路)"},{"poiid":"B2094757D56CABF4409C","title":"东北虎烧烤 镇宁路店","lon":"121.435838054","lat":"31.221491793","category":"68","category_name":"快餐厅","address":"静安区镇宁路367号(愚园路口)"},{"poiid":"B2094757DB6EA5F84199","title":"潮辣","lon":"121.433275","lat":"31.223303","category":"247","category_name":"餐饮美食","address":"愚圆路582号"},{"poiid":"B2094750DB64AAF4429B","title":"杨同兴火锅","lon":"121.43449","lat":"31.22562","category":"86","category_name":"火锅店","address":"静安区万航渡路550号(近武定西路)"},{"poiid":"B2094654D565A1FB499C","title":"嘉园","lon":"121.43611","lat":"31.224552","category":"47","category_name":"住宅区","address":"上海市静安区万航渡路458弄"},{"poiid":"B2094757D068A2FC4998","title":"红宝石 万航渡路店 Ruby","lon":"121.433935054","lat":"31.225951793","category":"67","category_name":"甜品店","address":"静安区万航渡路625号(近武定西路)"},{"poiid":"B2094757D065ABFD409F","title":"天星公寓","lon":"121.43437","lat":"31.224094","category":"47","category_name":"住宅区","address":"上海市虹口区天水路69弄"},{"poiid":"B2094757D068A6FF4693","title":"王家沙点心店(万航渡路店)","lon":"121.43307","lat":"31.22653","category":"68","category_name":"快餐厅","address":"静安区万航渡路673号(康定路与武定西路间)"},{"poiid":"B2094655D26DA3F94792","title":"兴星公寓","lon":"121.43436","lat":"31.223917","category":"47","category_name":"住宅区","address":"兴星公寓位于静安镇宁路545弄7号"},{"poiid":"B2094757D069A0F4479A","title":"天乐酒家","lon":"121.43225563741","lat":"31.226646519422","category":"76","category_name":"上海菜","address":"静安区万航渡路628号(近武定西路)"},{"poiid":"B2094757D068A2F84193","title":"MDB桌球会所","lon":"121.4354102","lat":"31.2250695","category":"248","category_name":"生活娱乐","address":"上海镇宁路525号(万航渡路口)"},{"poiid":"B2094757D16CAAFD4198","title":"红料理","lon":"121.435906586","lat":"31.2244983189","category":"247","category_name":"餐饮美食","address":"上海市静安区万航渡路"},{"poiid":"B2094757D065A1F8429B","title":"苏州五越斋汤包馆","lon":"121.434539586","lat":"31.2259423472","category":"68","category_name":"快餐厅","address":"静安区万航渡路529号(近武定西路)"},{"poiid":"B2094654D565A1FB449B","title":"重庆鸡公煲(镇宁路)","lon":"121.43631","lat":"31.22105","category":"71","category_name":"四川菜","address":"静安区愚园路654号(近镇宁路)"},{"poiid":"B2094757D06AAAF8449C","title":"镇宁路465弄","lon":"121.43528","lat":"31.223562","category":"500","category_name":"未知分类","address":"上海镇宁路465弄"},{"poiid":"B209475CDA6AA7F44599","title":"鱼酷活鱼现烤","lon":"121.434593","lat":"31.224903","category":"247","category_name":"餐饮美食","address":"上海市 静安区悦达889广场"},{"poiid":"B2094655D264A6FF449B","title":"益都名邸","lon":"121.433703","lat":"31.224221","category":"47","category_name":"住宅区","address":"上海市长宁区愚园路1155弄"},{"poiid":"B2094654DB69A6FE499C","title":"开开大厦","lon":"121.4338","lat":"31.22594","category":"46","category_name":"楼宇","address":"静安区万航渡路888号"},{"poiid":"B2094750DA64A0FB4699","title":"PUNK COFFEE","lon":"121.435043","lat":"31.223016","category":"247","category_name":"餐饮美食","address":"镇宁路425号"},{"poiid":"B2094654D565A1FB459B","title":"纺织工会大厦","lon":"121.43516","lat":"31.22431","category":"46","category_name":"楼宇","address":"镇宁路525"},{"poiid":"B2094757D068A7F8479B","title":"中行小区","lon":"121.43359768","lat":"31.226565699","category":"47","category_name":"住宅区","address":"上海市长宁区淮海西路346弄5号楼"},{"poiid":"B2094654D565A1FE4593","title":"京世造型(武定西路)","lon":"121.43558","lat":"31.22665","category":"148","category_name":"美容美发店","address":"武定西路1178"},{"poiid":"B2094655D26CABF44193","title":"中行别业商务中心","lon":"121.434","lat":"31.22675","category":"46","category_name":"楼宇","address":"城西路188、200号等"},{"poiid":"B2094654D565A1FB449D","title":"新东纺大酒店娱乐总汇","lon":"121.43528","lat":"31.22467","category":"170","category_name":"KTV","address":"静安区镇宁路525号新东纺大酒店4楼(近曹家渡)"},{"poiid":"B2094750D56DA6FA4492","title":"静安设计中心","lon":"121.43546177415","lat":"31.224096656872","category":"263","category_name":"公司","address":"静安区愚园路433弄8号(近乌鲁木齐路)"},{"poiid":"B2094757D66FA3FD4598","title":"福来多三国烤鱼","lon":"121.43662528","lat":"31.22507963","category":"71","category_name":"四川菜","address":"静安区万航渡路431号(近镇宁路)"},{"poiid":"B2094757DB6EAAF44792","title":"咕咚石锅蒸汽火锅","lon":"121.43476","lat":"31.225888","category":"247","category_name":"餐饮美食","address":"静安区"},{"poiid":"B2094757DB6FA4FC4492","title":"IMovie影院视听馆（静安店）","lon":"121.43618625","lat":"31.22430014","category":"248","category_name":"生活娱乐","address":"静安区北京西路1829号4楼(近乌鲁木齐路)"},{"poiid":"B2094655D26DA3FD449B","title":"传奇桌球(镇宁路)","lon":"121.43527","lat":"31.22467","category":"171","category_name":"台球厅","address":"镇宁路525号新东纺大酒店3层"},{"poiid":"B2094751D26EA1F94298","title":"海底捞火锅","lon":"121.4355280418445","lat":"31.22430984840841","category":"247","category_name":"餐饮美食","address":"南京西路"},{"poiid":"B2094654DB6BA6FE4892","title":"曹家渡派出所(武定西路)","lon":"121.4319","lat":"31.22475","category":"248","category_name":"生活娱乐","address":"武定西路1368"},{"poiid":"B209475CD06BA4F94493","title":"TZ House 弹指之间音乐酒吧  timezippinghouse","lon":"121.43542","lat":"31.22452","category":"172","category_name":"酒吧","address":"镇宁路525号新东纺大酒店1楼(近万航渡路)"},{"poiid":"B2094654DB6BA6FF4298","title":"光明便利(镇宁路)","lon":"121.43547","lat":"31.22371","category":"117","category_name":"便民商店/便利店","address":"普陀区江宁路958号(安远路江宁路)"},{"poiid":"B2094757D069AAF9409F","title":"新东纺大酒店","lon":"121.43539428","lat":"31.224704742","category":"217","category_name":"旅馆招待所","address":"静安区镇宁路525号(近万航渡路)"},{"poiid":"B2094757D16BA0FF429C","title":"上海市皮肤病医院","lon":"121.436256586","lat":"31.2217742656","category":"162","category_name":"医院","address":"上海市武夷路"},{"poiid":"B2094757D065A3FE429D","title":"上海镇宁路545弄","lon":"121.434918","lat":"31.224542","category":"500","category_name":"未知分类","address":"上海镇宁路545弄"}]