[{"poiid":"B2094757D069A1F84499","title":"长安墓园","lon":"121.178030004","lat":"31.3298556207","category":"260","category_name":"其他","address":"嘉定区嘉安公路3688号(墨玉路口)"},{"poiid":"B2094655D36CA0FB419E","title":"嘉安公路百安公路","lon":"121.18897","lat":"31.33326","category":"38","category_name":"公交车站","address":""},{"poiid":"B2094654D468ABF9469F","title":"德尔福派克电气系统有限公司","lon":"121.19857","lat":"31.33356","category":"263","category_name":"公司","address":"安亭园国路200号"},{"poiid":"B2094654D469A3FE4899","title":"上海爱知锻造有限公司(嘉安公路)","lon":"121.18923","lat":"31.33358","category":"263","category_name":"公司","address":"嘉安公路3300"},{"poiid":"B2094654D469A3FE4898","title":"锦湖(中国)轮胎销售有限公司","lon":"121.19139","lat":"31.33439","category":"263","category_name":"公司","address":"嘉安公路3188"},{"poiid":"B2094757D06AA4FC4493","title":"嘉安汽车销售","lon":"121.20173477","lat":"31.342063101","category":"158","category_name":"汽车销售","address":"嘉定区嘉安公路2688号(近墨玉路)"},{"poiid":"B2094654DB65A3F44598","title":"卡斯马汽车系统(上海)有限公司","lon":"121.19082","lat":"31.33117","category":"263","category_name":"公司","address":"百安公路1501"},{"poiid":"B2094757D16AA1FA429E","title":"G1501绕城高速嘉松北路入口","lon":"121.193705089","lat":"31.3338704229","category":"260","category_name":"其他","address":"上海G1501绕城高速嘉松北路入口"},{"poiid":"B2094654D46BA1F94792","title":"梅园三区别墅","lon":"121.178","lat":"31.3353","category":"47","category_name":"住宅区","address":"前扬路"},{"poiid":"B2094655D26FA1F4479A","title":"上海英提尔交运汽车零部件有限公司","lon":"121.188325","lat":"31.328885","category":"263","category_name":"公司","address":"园国路935"},{"poiid":"B2094654DB6AA6FA489D","title":"德尔福派克电气系统有限公司(东南门)","lon":"121.20156","lat":"31.33519","category":"263","category_name":"公司","address":"安亭园国路60号"},{"poiid":"B2094654DB64A5FB4198","title":"斯凯孚(上海)汽车技术有限公司","lon":"121.19586","lat":"31.33278","category":"263","category_name":"公司","address":"园国路328号"},{"poiid":"B2094654D468ABF9469C","title":"上海运城制版有限公司(园国路)","lon":"121.19445","lat":"31.33188","category":"263","category_name":"公司","address":"园国路398"},{"poiid":"B2094654DB65A2F84193","title":"上海汇众(园福路)","lon":"121.19617","lat":"31.32637","category":"263","category_name":"公司","address":"园福路258号"},{"poiid":"B2094655D268ABF9409F","title":"Ａ３０嘉松北路收费站","lon":"121.19303","lat":"31.33957","category":"267","category_name":"收费站","address":""},{"poiid":"B2094654DB65A2F44198","title":"福耀集团(上海)汽车玻璃有限公司(园福路)","lon":"121.19174","lat":"31.3246","category":"263","category_name":"公司","address":"园福路588"},{"poiid":"B2094655D26EA0FA4992","title":"上海宝钢阿赛洛激光拼焊有限公司","lon":"121.19245","lat":"31.32864","category":"263","category_name":"公司","address":"百安公路1369"},{"poiid":"B2094654D468AAF54299","title":"莱尼电器系统(上海)有限公司","lon":"121.19283","lat":"31.34389","category":"263","category_name":"公司","address":"嘉松北路1288"},{"poiid":"B2094654D468ABF9469D","title":"上海三立汇众汽车零部件有限公司","lon":"121.19555","lat":"31.33102","category":"263","category_name":"公司","address":"园国路409"},{"poiid":"B2094655D36DA1FF4398","title":"试车场出水桥","lon":"121.18743","lat":"31.32485","category":"250","category_name":"公园户外","address":""},{"poiid":"B2094655D264A3F4459F","title":"长安墓园桥","lon":"121.17694","lat":"31.33224","category":"250","category_name":"公园户外","address":""},{"poiid":"B2094654D468ABF94199","title":"上海第23机动车检测站","lon":"121.20425","lat":"31.3434","category":"250","category_name":"公园户外","address":""},{"poiid":"B2094654DB65A3FA479D","title":"上海华特汽车配件有限公司","lon":"121.17896","lat":"31.3275","category":"263","category_name":"公司","address":"园国路1388号"},{"poiid":"B2094757D169A6F54499","title":"天纳克","lon":"121.201206","lat":"31.334528","category":"500","category_name":"未知分类","address":"上海市嘉定区园国路99号"},{"poiid":"B2094655D265A1F9479C","title":"上海天纳克排气系统有限公司","lon":"121.20119","lat":"31.33451","category":"263","category_name":"公司","address":""},{"poiid":"B2094654D468AAF5429E","title":"上海耀祖实业有限公司","lon":"121.18467","lat":"31.34416","category":"263","category_name":"公司","address":"外冈镇百家村498"},{"poiid":"B2094757D164A0F9479F","title":"康坦波家具","lon":"121.198354","lat":"31.327684","category":"249","category_name":"购物服务","address":"上海嘉定园福路"},{"poiid":"B2094654DB65A2FE479C","title":"昆洲实业(上海)有限公司","lon":"121.19213","lat":"31.32358","category":"263","category_name":"公司","address":"园福路515"},{"poiid":"B2094757D16CA4F8499A","title":"方泰文化中心","lon":"121.20202","lat":"31.33667","category":"500","category_name":"未知分类","address":"上海近郊嘉定区方泰镇嘉松北路4395号  "},{"poiid":"B2094757D16DAAF44099","title":"嘉定交通事故保险理赔中心","lon":"121.204929","lat":"31.344158","category":"500","category_name":"未知分类","address":"上海嘉安公路2195号"},{"poiid":"B2094654DB64A4FB4292","title":"上海延锋江森座椅有限公司安亭基地","lon":"121.19947","lat":"31.32698","category":"263","category_name":"公司","address":"园福路151号"},{"poiid":"B2094757D168A6F5479D","title":"众大汽车配件有限公司","lon":"121.17778","lat":"31.326418","category":"500","category_name":"未知分类","address":"上海园国路1488号"},{"poiid":"B2094654DB64AAFE429C","title":"上海大众汽车","lon":"121.20487","lat":"31.32684","category":"263","category_name":"公司","address":"园汽路1000"},{"poiid":"B2094757D069A7F9499B","title":"上海天合汽车安全系统有限公司","lon":"121.199196","lat":"31.32363","category":"263","category_name":"公司","address":"上海市嘉定区园耀路168号"},{"poiid":"B2094655D36DA0F5499C","title":"园大路园区路","lon":"121.19154","lat":"31.31759","category":"38","category_name":"公交车站","address":""},{"poiid":"B2094655D265ABFC4693","title":"上海博泽汽车部件有限公司","lon":"121.19897","lat":"31.32577","category":"263","category_name":"公司","address":""},{"poiid":"B2094757D16AA6F84392","title":"嘉定园耀路","lon":"121.193567","lat":"31.321584","category":"500","category_name":"未知分类","address":"上海安亭园耀路"},{"poiid":"B2094654D46BA2FF4699","title":"松鹤艺园","lon":"121.20758","lat":"31.33136","category":"250","category_name":"公园户外","address":"嘉松北路3485"},{"poiid":"B2094757D16FA4FF419E","title":"中西制药","lon":"121.17258","lat":"31.345337","category":"46","category_name":"楼宇","address":"上海外青松公路446号"},{"poiid":"B2094757D16BA3FC4898","title":"二十三机动车检测站","lon":"121.204270849","lat":"31.342661114","category":"500","category_name":"未知分类","address":"上海嘉安公路"},{"poiid":"B2094757D568A2F54299","title":"便利店","lon":"121.2062009","lat":"31.33142117","category":"117","category_name":"便民商店/便利店","address":"嘉松北路3472"},{"poiid":"B2094655D26EABFF499C","title":"固丽纸业(上海)有限公司","lon":"121.17867","lat":"31.32323","category":"263","category_name":"公司","address":"园际路388"},{"poiid":"B2094655D36DA7FC419A","title":"园区路百安公路","lon":"121.19944","lat":"31.31995","category":"38","category_name":"公交车站","address":""},{"poiid":"B2094654DB65A3FA4893","title":"美诺精密压铸(上海)有限公司","lon":"121.17372","lat":"31.32665","category":"263","category_name":"公司","address":"嘉安公路3939"},{"poiid":"B2094757D164A1F54199","title":"嘉定嘉砼生活园区","lon":"121.20560328","lat":"31.335912865","category":"252","category_name":"楼宇机构","address":"上海嘉安公路2699号"},{"poiid":"B2094655D26EABF84199","title":"上海飞力普斯工业车辆零配件制造有限公司","lon":"121.19687","lat":"31.32173","category":"263","category_name":"公司","address":""},{"poiid":"B2094757D16FA7F4469B","title":"太仓华东水产品交易中心","lon":"121.197881889","lat":"31.3215956702","category":"500","category_name":"未知分类","address":"苏州太仓市浏河镇东海路66号"},{"poiid":"B2094654D469A3FD4193","title":"上海欧唯斯工具制造有限公司","lon":"121.19075","lat":"31.34909","category":"263","category_name":"公司","address":"嘉松北路1211号"},{"poiid":"B2094654D46BA1FA4298","title":"惠展电子材科(上海)有限公司","lon":"121.17229","lat":"31.3282","category":"263","category_name":"公司","address":"嘉安公路3938号"},{"poiid":"B2094655D26FA0FE479B","title":"上海天合汽车安全系统有限公司(南门)","lon":"121.19926","lat":"31.32379","category":"656","category_name":"大门","address":"园耀路168"},{"poiid":"B2094757D069A1F84499","title":"长安墓园","lon":"121.178030004","lat":"31.3298556207","category":"260","category_name":"其他","address":"嘉定区嘉安公路3688号(墨玉路口)"},{"poiid":"B2094655D36CA0FB419E","title":"嘉安公路百安公路","lon":"121.18897","lat":"31.33326","category":"38","category_name":"公交车站","address":""},{"poiid":"B2094654D468ABF9469F","title":"德尔福派克电气系统有限公司","lon":"121.19857","lat":"31.33356","category":"263","category_name":"公司","address":"安亭园国路200号"},{"poiid":"B2094654D469A3FE4899","title":"上海爱知锻造有限公司(嘉安公路)","lon":"121.18923","lat":"31.33358","category":"263","category_name":"公司","address":"嘉安公路3300"},{"poiid":"B2094654D469A3FE4898","title":"锦湖(中国)轮胎销售有限公司","lon":"121.19139","lat":"31.33439","category":"263","category_name":"公司","address":"嘉安公路3188"},{"poiid":"B2094757D06AA4FC4493","title":"嘉安汽车销售","lon":"121.20173477","lat":"31.342063101","category":"158","category_name":"汽车销售","address":"嘉定区嘉安公路2688号(近墨玉路)"},{"poiid":"B2094654DB65A3F44598","title":"卡斯马汽车系统(上海)有限公司","lon":"121.19082","lat":"31.33117","category":"263","category_name":"公司","address":"百安公路1501"},{"poiid":"B2094757D16AA1FA429E","title":"G1501绕城高速嘉松北路入口","lon":"121.193705089","lat":"31.3338704229","category":"260","category_name":"其他","address":"上海G1501绕城高速嘉松北路入口"},{"poiid":"B2094654D46BA1F94792","title":"梅园三区别墅","lon":"121.178","lat":"31.3353","category":"47","category_name":"住宅区","address":"前扬路"},{"poiid":"B2094655D26FA1F4479A","title":"上海英提尔交运汽车零部件有限公司","lon":"121.188325","lat":"31.328885","category":"263","category_name":"公司","address":"园国路935"},{"poiid":"B2094654DB6AA6FA489D","title":"德尔福派克电气系统有限公司(东南门)","lon":"121.20156","lat":"31.33519","category":"263","category_name":"公司","address":"安亭园国路60号"},{"poiid":"B2094654DB64A5FB4198","title":"斯凯孚(上海)汽车技术有限公司","lon":"121.19586","lat":"31.33278","category":"263","category_name":"公司","address":"园国路328号"},{"poiid":"B2094654D468ABF9469C","title":"上海运城制版有限公司(园国路)","lon":"121.19445","lat":"31.33188","category":"263","category_name":"公司","address":"园国路398"},{"poiid":"B2094654DB65A2F84193","title":"上海汇众(园福路)","lon":"121.19617","lat":"31.32637","category":"263","category_name":"公司","address":"园福路258号"},{"poiid":"B2094655D268ABF9409F","title":"Ａ３０嘉松北路收费站","lon":"121.19303","lat":"31.33957","category":"267","category_name":"收费站","address":""},{"poiid":"B2094654DB65A2F44198","title":"福耀集团(上海)汽车玻璃有限公司(园福路)","lon":"121.19174","lat":"31.3246","category":"263","category_name":"公司","address":"园福路588"},{"poiid":"B2094655D26EA0FA4992","title":"上海宝钢阿赛洛激光拼焊有限公司","lon":"121.19245","lat":"31.32864","category":"263","category_name":"公司","address":"百安公路1369"},{"poiid":"B2094654D468AAF54299","title":"莱尼电器系统(上海)有限公司","lon":"121.19283","lat":"31.34389","category":"263","category_name":"公司","address":"嘉松北路1288"},{"poiid":"B2094654D468ABF9469D","title":"上海三立汇众汽车零部件有限公司","lon":"121.19555","lat":"31.33102","category":"263","category_name":"公司","address":"园国路409"},{"poiid":"B2094655D36DA1FF4398","title":"试车场出水桥","lon":"121.18743","lat":"31.32485","category":"250","category_name":"公园户外","address":""},{"poiid":"B2094655D264A3F4459F","title":"长安墓园桥","lon":"121.17694","lat":"31.33224","category":"250","category_name":"公园户外","address":""},{"poiid":"B2094654D468ABF94199","title":"上海第23机动车检测站","lon":"121.20425","lat":"31.3434","category":"250","category_name":"公园户外","address":""},{"poiid":"B2094654DB65A3FA479D","title":"上海华特汽车配件有限公司","lon":"121.17896","lat":"31.3275","category":"263","category_name":"公司","address":"园国路1388号"},{"poiid":"B2094757D169A6F54499","title":"天纳克","lon":"121.201206","lat":"31.334528","category":"500","category_name":"未知分类","address":"上海市嘉定区园国路99号"},{"poiid":"B2094655D265A1F9479C","title":"上海天纳克排气系统有限公司","lon":"121.20119","lat":"31.33451","category":"263","category_name":"公司","address":""},{"poiid":"B2094654D468AAF5429E","title":"上海耀祖实业有限公司","lon":"121.18467","lat":"31.34416","category":"263","category_name":"公司","address":"外冈镇百家村498"},{"poiid":"B2094757D164A0F9479F","title":"康坦波家具","lon":"121.198354","lat":"31.327684","category":"249","category_name":"购物服务","address":"上海嘉定园福路"},{"poiid":"B2094654DB65A2FE479C","title":"昆洲实业(上海)有限公司","lon":"121.19213","lat":"31.32358","category":"263","category_name":"公司","address":"园福路515"},{"poiid":"B2094757D16CA4F8499A","title":"方泰文化中心","lon":"121.20202","lat":"31.33667","category":"500","category_name":"未知分类","address":"上海近郊嘉定区方泰镇嘉松北路4395号  "},{"poiid":"B2094757D16DAAF44099","title":"嘉定交通事故保险理赔中心","lon":"121.204929","lat":"31.344158","category":"500","category_name":"未知分类","address":"上海嘉安公路2195号"},{"poiid":"B2094654DB64A4FB4292","title":"上海延锋江森座椅有限公司安亭基地","lon":"121.19947","lat":"31.32698","category":"263","category_name":"公司","address":"园福路151号"},{"poiid":"B2094757D168A6F5479D","title":"众大汽车配件有限公司","lon":"121.17778","lat":"31.326418","category":"500","category_name":"未知分类","address":"上海园国路1488号"},{"poiid":"B2094654DB64AAFE429C","title":"上海大众汽车","lon":"121.20487","lat":"31.32684","category":"263","category_name":"公司","address":"园汽路1000"},{"poiid":"B2094757D069A7F9499B","title":"上海天合汽车安全系统有限公司","lon":"121.199196","lat":"31.32363","category":"263","category_name":"公司","address":"上海市嘉定区园耀路168号"},{"poiid":"B2094655D36DA0F5499C","title":"园大路园区路","lon":"121.19154","lat":"31.31759","category":"38","category_name":"公交车站","address":""},{"poiid":"B2094655D265ABFC4693","title":"上海博泽汽车部件有限公司","lon":"121.19897","lat":"31.32577","category":"263","category_name":"公司","address":""},{"poiid":"B2094757D16AA6F84392","title":"嘉定园耀路","lon":"121.193567","lat":"31.321584","category":"500","category_name":"未知分类","address":"上海安亭园耀路"},{"poiid":"B2094654D46BA2FF4699","title":"松鹤艺园","lon":"121.20758","lat":"31.33136","category":"250","category_name":"公园户外","address":"嘉松北路3485"},{"poiid":"B2094757D16FA4FF419E","title":"中西制药","lon":"121.17258","lat":"31.345337","category":"46","category_name":"楼宇","address":"上海外青松公路446号"},{"poiid":"B2094757D16BA3FC4898","title":"二十三机动车检测站","lon":"121.204270849","lat":"31.342661114","category":"500","category_name":"未知分类","address":"上海嘉安公路"},{"poiid":"B2094757D568A2F54299","title":"便利店","lon":"121.2062009","lat":"31.33142117","category":"117","category_name":"便民商店/便利店","address":"嘉松北路3472"},{"poiid":"B2094655D26EABFF499C","title":"固丽纸业(上海)有限公司","lon":"121.17867","lat":"31.32323","category":"263","category_name":"公司","address":"园际路388"},{"poiid":"B2094655D36DA7FC419A","title":"园区路百安公路","lon":"121.19944","lat":"31.31995","category":"38","category_name":"公交车站","address":""},{"poiid":"B2094654DB65A3FA4893","title":"美诺精密压铸(上海)有限公司","lon":"121.17372","lat":"31.32665","category":"263","category_name":"公司","address":"嘉安公路3939"},{"poiid":"B2094757D164A1F54199","title":"嘉定嘉砼生活园区","lon":"121.20560328","lat":"31.335912865","category":"252","category_name":"楼宇机构","address":"上海嘉安公路2699号"},{"poiid":"B2094655D26EABF84199","title":"上海飞力普斯工业车辆零配件制造有限公司","lon":"121.19687","lat":"31.32173","category":"263","category_name":"公司","address":""},{"poiid":"B2094757D16FA7F4469B","title":"太仓华东水产品交易中心","lon":"121.197881889","lat":"31.3215956702","category":"500","category_name":"未知分类","address":"苏州太仓市浏河镇东海路66号"},{"poiid":"B2094654D469A3FD4193","title":"上海欧唯斯工具制造有限公司","lon":"121.19075","lat":"31.34909","category":"263","category_name":"公司","address":"嘉松北路1211号"},{"poiid":"B2094654D46BA1FA4298","title":"惠展电子材科(上海)有限公司","lon":"121.17229","lat":"31.3282","category":"263","category_name":"公司","address":"嘉安公路3938号"},{"poiid":"B2094655D26FA0FE479B","title":"上海天合汽车安全系统有限公司(南门)","lon":"121.19926","lat":"31.32379","category":"656","category_name":"大门","address":"园耀路168"}]