[{"poiid":"B2094655D265A0F84392","title":"红麻辣料理(万航渡路店)","lon":"121.43574","lat":"31.22514","category":"68","category_name":"快餐厅","address":"静安区万航渡路465号(近镇宁路)"},{"poiid":"B2094655D26FA3FA469F","title":"富春小笼 静安店","lon":"121.43631001986","lat":"31.221026369224","category":"68","category_name":"快餐厅","address":"静安区愚园路650号(近镇宁路)"},{"poiid":"B2094757D069A2FE489E","title":"Time zipping house TZ","lon":"121.435335241","lat":"31.2244989389","category":"260","category_name":"其他","address":"静安区镇宁路525号新东纺大酒店1楼(近万航渡路)"},{"poiid":"B2094753D76FAAFA449C","title":"上海滩国泰旗舰店","lon":"121.466011","lat":"31.216125","category":"249","category_name":"购物服务","address":"淮海中路868号"},{"poiid":"B209475CD564A7F8439E","title":"上海滩中信泰富店","lon":"121.45602","lat":"31.22851","category":"119","category_name":"商场","address":"\"南京西路1168号中信泰富广场，店铺号221.\r\n\""},{"poiid":"B2094654D565A0FD499C","title":"华敏翰尊国际","lon":"121.44","lat":"31.2219","category":"46","category_name":"楼宇","address":"延安西路726-728号"},{"poiid":"B2094750D76EAAFC4993","title":"小胖龙虾(镇宁店)","lon":"121.435","lat":"31.2239","category":"68","category_name":"快餐厅","address":"静安区镇宁路483号(近万航渡路)"},{"poiid":"B2094750DB6FA0FB469D","title":"八重樱寿喜锅","lon":"121.436347","lat":"31.22504","category":"95","category_name":"日本料理","address":"静安区万航渡路450号2楼(近镇宁路)"},{"poiid":"B2094757D06FAAFE4098","title":"福1088","lon":"121.43641","lat":"31.2213","category":"76","category_name":"上海菜","address":"静安区镇宁路375号(愚园路口)"},{"poiid":"B2094757D068A1FE489B","title":"舜元企业发展大厦","lon":"121.437273","lat":"31.225137","category":"46","category_name":"楼宇","address":"上海江苏路398号"},{"poiid":"B2094757DA6AA4FB449B","title":"自由港ktv","lon":"121.4387163","lat":"31.2237309","category":"170","category_name":"KTV","address":"南京西路1856号4楼"},{"poiid":"B2094750D26DABFE419A","title":"潮辣重庆老火锅","lon":"121.43697","lat":"31.22105","category":"86","category_name":"火锅店","address":"静安区愚园路582号(近镇宁路)"},{"poiid":"B2094757DA6AA4F8429C","title":"iMovie影城＆视听馆","lon":"121.4379081","lat":"31.2254862","category":"178","category_name":"电影院","address":"静安区北京西路1829号4层"},{"poiid":"B2094757D068A7F84599","title":"静安区牙病防治所(愚园路门诊部)","lon":"121.4397","lat":"31.22177","category":"162","category_name":"医院","address":"静安区愚园路507号(近华山路)"},{"poiid":"B2094751D56EA0F44098","title":"黑三娘(万航渡路店)","lon":"121.43937","lat":"31.22548","category":"71","category_name":"四川菜","address":"静安区万航渡路282号(近新闸路)"},{"poiid":"B2094750D26EA4FF4898","title":"庞克咖啡","lon":"121.435745","lat":"31.222717","category":"65","category_name":"咖啡厅","address":"静安区镇宁路425号(近愚园路)"},{"poiid":"B2094757DA64A0FF469C","title":"太平洋企业中心","lon":"121.439","lat":"31.2209","category":"252","category_name":"楼宇机构","address":"上海市长宁区延安西路889号"},{"poiid":"B2094757D56CABF4409C","title":"东北虎烧烤 镇宁路店","lon":"121.435838054","lat":"31.221491793","category":"68","category_name":"快餐厅","address":"静安区镇宁路367号(愚园路口)"},{"poiid":"B2094757D06FA4F54992","title":"沈坚强游泳俱乐部(武宁南路店)","lon":"121.437663702","lat":"31.2264272769","category":"220","category_name":"运动场所","address":"静安区武宁南路48号(近万航渡路)"},{"poiid":"B2094751D464A6FA4993","title":"CAS BAR","lon":"121.4359","lat":"31.22513","category":"260","category_name":"其他","address":"静安区武定路980号(近胶州路)"},{"poiid":"B2094757D068A2F4479B","title":"上海市第一师范附属小学","lon":"121.43876866","lat":"31.22599449","category":"55","category_name":"中学","address":"上海静安区万航渡路299号(近静安寺)"},{"poiid":"B2094654D565A1FB499C","title":"嘉园","lon":"121.43611","lat":"31.224552","category":"47","category_name":"住宅区","address":"上海市静安区万航渡路458弄"},{"poiid":"B2094751D568A4FD429D","title":"上海一号私藏菜（南京西路店）","lon":"121.4392837","lat":"31.2218077","category":"247","category_name":"餐饮美食","address":null},{"poiid":"B2094654D565A0FA4793","title":"振鼎鸡(愚园路)","lon":"121.437","lat":"31.22097","category":"68","category_name":"快餐厅","address":"静安区愚园路631号(近镇宁路)"},{"poiid":"B2094750D664A3FB4893","title":"TZHouse弹指之间音乐酒吧","lon":"121.435","lat":"31.2245","category":"269","category_name":"烧烤","address":"镇宁路525号新东纺大酒店1楼(近万航渡路)"},{"poiid":"B2094757D06BA0F5479B","title":"咪道赞粥面馆","lon":"121.44126","lat":"31.22502","category":"68","category_name":"快餐厅","address":"静安区万航渡路170号(近乌鲁木齐北路)"},{"poiid":"B2094752D66AABFE469B","title":"好好先生","lon":"121.438238","lat":"31.225147","category":"247","category_name":"餐饮美食","address":"愚园路280号"},{"poiid":"B2094757D66FA3FD4598","title":"福来多三国烤鱼","lon":"121.43662528","lat":"31.22507963","category":"71","category_name":"四川菜","address":"静安区万航渡路431号(近镇宁路)"},{"poiid":"B2094757D16BA0FF429C","title":"上海市皮肤病医院","lon":"121.436256586","lat":"31.2217742656","category":"162","category_name":"医院","address":"上海市武夷路"},{"poiid":"B2094757D469A0FE489C","title":"云水肴","lon":"121.4394467","lat":"31.2218878","category":"91","category_name":"台湾菜","address":"静安区愚园路494-1号(乌鲁木齐北路口)"},{"poiid":"B2094654D565A1F44499","title":"上海市计算技术研究所","lon":"121.43814","lat":"31.22196","category":"191","category_name":"科研机构","address":"愚园路546"},{"poiid":"B2094757D16CAAFD4198","title":"红料理","lon":"121.435906586","lat":"31.2244983189","category":"247","category_name":"餐饮美食","address":"上海市静安区万航渡路"},{"poiid":"B2094757DB6FA4FC4492","title":"IMovie影院视听馆（静安店）","lon":"121.43618625","lat":"31.22430014","category":"248","category_name":"生活娱乐","address":"静安区北京西路1829号4楼(近乌鲁木齐路)"},{"poiid":"B2094752DA65A5FA4993","title":"华山医院","lon":"121.438821","lat":"31.222688","category":"162","category_name":"医院","address":"上海市 乌鲁木齐中路12号"},{"poiid":"B2094655D264A7FB479D","title":"嘉御豪庭","lon":"121.43666","lat":"31.22319","category":"47","category_name":"住宅区","address":""},{"poiid":"B2094655D26CABF8429B","title":"新镇宁菜市场","lon":"121.43663","lat":"31.22378","category":"117","category_name":"便民商店/便利店","address":"静安区镇宁路466号(近万航渡路)"},{"poiid":"B2094655D26AA3F44199","title":"一师附小","lon":"121.43870326620095","lat":"31.226002476384966","category":"56","category_name":"小学","address":"静安区万航渡路299号(近乌鲁木齐北路)"},{"poiid":"B2094752D465A1FA419B","title":"CC喵屋","lon":"121.439378","lat":"31.22515","category":"247","category_name":"餐饮美食","address":"愚园路300号申乐大厦2201室"},{"poiid":"B2094750DB65A1F5479F","title":"市三女中","lon":"121.438446","lat":"31.220645","category":"253","category_name":"校园生活","address":"长宁区江苏路愚园路"},{"poiid":"B2094757D06BA3FF4093","title":"红宝石 愚园路店 Ruby","lon":"121.441391054","lat":"31.222798793","category":"67","category_name":"甜品店","address":"静安区愚园路477号(近乌鲁木齐北路)"},{"poiid":"B2094654D565A1F44598","title":"四明体育弄","lon":"121.43854","lat":"31.222313","category":"47","category_name":"住宅区","address":"愚园路520弄2-28号"},{"poiid":"B2094654D565A1F94893","title":"沙利文饼干专卖店(万航渡路)","lon":"121.43872","lat":"31.22536","category":"67","category_name":"甜品店","address":"静安区万航渡路320弄内(近新闸路)"},{"poiid":"B2094654D565A1FB449B","title":"重庆鸡公煲(镇宁路)","lon":"121.43631","lat":"31.22105","category":"71","category_name":"四川菜","address":"静安区愚园路654号(近镇宁路)"},{"poiid":"B2094752DA69ABFD439E","title":"高岛屋百货","lon":"121.438427","lat":"31.2223","category":"249","category_name":"购物服务","address":"上海市 虹桥路1438号"},{"poiid":"B2094757D06AA5F9459F","title":"逸夫职业技术学校","lon":"121.436336","lat":"31.225274","category":"55","category_name":"中学","address":"上海万航渡路435号"},{"poiid":"B2094757D16EAAFB4993","title":"圣松传播","lon":"121.43725859","lat":"31.223964398","category":"263","category_name":"公司","address":"上海市镇宁路200号"},{"poiid":"B2094654DB6BA6FF4292","title":"上海市逸夫职业技术学校静安分部(南门)","lon":"121.43656","lat":"31.22526","category":"678","category_name":"学校大门","address":"万航渡路435"},{"poiid":"B2094655D26EA7FB4693","title":"嘉园健身会所泳池游泳馆","lon":"121.43631","lat":"31.22487","category":"231","category_name":"游泳馆","address":"静安区万航渡路442号(近镇宁路)"},{"poiid":"B2094654D565A1F4439D","title":"天福餐社","lon":"121.43696471794","lat":"31.221139533272","category":"76","category_name":"上海菜","address":"静安区愚园路582号(近镇宁路)"},{"poiid":"B2094757D068A2F84193","title":"MDB桌球会所","lon":"121.4354102","lat":"31.2250695","category":"248","category_name":"生活娱乐","address":"上海镇宁路525号(万航渡路口)"},{"poiid":"B2094655D265A0F84392","title":"红麻辣料理(万航渡路店)","lon":"121.43574","lat":"31.22514","category":"68","category_name":"快餐厅","address":"静安区万航渡路465号(近镇宁路)"},{"poiid":"B2094655D26FA3FA469F","title":"富春小笼 静安店","lon":"121.43631001986","lat":"31.221026369224","category":"68","category_name":"快餐厅","address":"静安区愚园路650号(近镇宁路)"},{"poiid":"B2094757D069A2FE489E","title":"Time zipping house TZ","lon":"121.435335241","lat":"31.2244989389","category":"260","category_name":"其他","address":"静安区镇宁路525号新东纺大酒店1楼(近万航渡路)"},{"poiid":"B2094753D76FAAFA449C","title":"上海滩国泰旗舰店","lon":"121.466011","lat":"31.216125","category":"249","category_name":"购物服务","address":"淮海中路868号"},{"poiid":"B209475CD564A7F8439E","title":"上海滩中信泰富店","lon":"121.45602","lat":"31.22851","category":"119","category_name":"商场","address":"\"南京西路1168号中信泰富广场，店铺号221.\r\n\""},{"poiid":"B2094654D565A0FD499C","title":"华敏翰尊国际","lon":"121.44","lat":"31.2219","category":"46","category_name":"楼宇","address":"延安西路726-728号"},{"poiid":"B2094750D76EAAFC4993","title":"小胖龙虾(镇宁店)","lon":"121.435","lat":"31.2239","category":"68","category_name":"快餐厅","address":"静安区镇宁路483号(近万航渡路)"},{"poiid":"B2094750DB6FA0FB469D","title":"八重樱寿喜锅","lon":"121.436347","lat":"31.22504","category":"95","category_name":"日本料理","address":"静安区万航渡路450号2楼(近镇宁路)"},{"poiid":"B2094757D06FAAFE4098","title":"福1088","lon":"121.43641","lat":"31.2213","category":"76","category_name":"上海菜","address":"静安区镇宁路375号(愚园路口)"},{"poiid":"B2094757D068A1FE489B","title":"舜元企业发展大厦","lon":"121.437273","lat":"31.225137","category":"46","category_name":"楼宇","address":"上海江苏路398号"},{"poiid":"B2094757DA6AA4FB449B","title":"自由港ktv","lon":"121.4387163","lat":"31.2237309","category":"170","category_name":"KTV","address":"南京西路1856号4楼"},{"poiid":"B2094750D26DABFE419A","title":"潮辣重庆老火锅","lon":"121.43697","lat":"31.22105","category":"86","category_name":"火锅店","address":"静安区愚园路582号(近镇宁路)"},{"poiid":"B2094757DA6AA4F8429C","title":"iMovie影城＆视听馆","lon":"121.4379081","lat":"31.2254862","category":"178","category_name":"电影院","address":"静安区北京西路1829号4层"},{"poiid":"B2094757D068A7F84599","title":"静安区牙病防治所(愚园路门诊部)","lon":"121.4397","lat":"31.22177","category":"162","category_name":"医院","address":"静安区愚园路507号(近华山路)"},{"poiid":"B2094751D56EA0F44098","title":"黑三娘(万航渡路店)","lon":"121.43937","lat":"31.22548","category":"71","category_name":"四川菜","address":"静安区万航渡路282号(近新闸路)"},{"poiid":"B2094750D26EA4FF4898","title":"庞克咖啡","lon":"121.435745","lat":"31.222717","category":"65","category_name":"咖啡厅","address":"静安区镇宁路425号(近愚园路)"},{"poiid":"B2094757DA64A0FF469C","title":"太平洋企业中心","lon":"121.439","lat":"31.2209","category":"252","category_name":"楼宇机构","address":"上海市长宁区延安西路889号"},{"poiid":"B2094757D56CABF4409C","title":"东北虎烧烤 镇宁路店","lon":"121.435838054","lat":"31.221491793","category":"68","category_name":"快餐厅","address":"静安区镇宁路367号(愚园路口)"},{"poiid":"B2094757D06FA4F54992","title":"沈坚强游泳俱乐部(武宁南路店)","lon":"121.437663702","lat":"31.2264272769","category":"220","category_name":"运动场所","address":"静安区武宁南路48号(近万航渡路)"},{"poiid":"B2094751D464A6FA4993","title":"CAS BAR","lon":"121.4359","lat":"31.22513","category":"260","category_name":"其他","address":"静安区武定路980号(近胶州路)"},{"poiid":"B2094757D068A2F4479B","title":"上海市第一师范附属小学","lon":"121.43876866","lat":"31.22599449","category":"55","category_name":"中学","address":"上海静安区万航渡路299号(近静安寺)"},{"poiid":"B2094654D565A1FB499C","title":"嘉园","lon":"121.43611","lat":"31.224552","category":"47","category_name":"住宅区","address":"上海市静安区万航渡路458弄"},{"poiid":"B2094751D568A4FD429D","title":"上海一号私藏菜（南京西路店）","lon":"121.4392837","lat":"31.2218077","category":"247","category_name":"餐饮美食","address":null},{"poiid":"B2094654D565A0FA4793","title":"振鼎鸡(愚园路)","lon":"121.437","lat":"31.22097","category":"68","category_name":"快餐厅","address":"静安区愚园路631号(近镇宁路)"},{"poiid":"B2094750D664A3FB4893","title":"TZHouse弹指之间音乐酒吧","lon":"121.435","lat":"31.2245","category":"269","category_name":"烧烤","address":"镇宁路525号新东纺大酒店1楼(近万航渡路)"},{"poiid":"B2094757D06BA0F5479B","title":"咪道赞粥面馆","lon":"121.44126","lat":"31.22502","category":"68","category_name":"快餐厅","address":"静安区万航渡路170号(近乌鲁木齐北路)"},{"poiid":"B2094752D66AABFE469B","title":"好好先生","lon":"121.438238","lat":"31.225147","category":"247","category_name":"餐饮美食","address":"愚园路280号"},{"poiid":"B2094757D66FA3FD4598","title":"福来多三国烤鱼","lon":"121.43662528","lat":"31.22507963","category":"71","category_name":"四川菜","address":"静安区万航渡路431号(近镇宁路)"},{"poiid":"B2094757D16BA0FF429C","title":"上海市皮肤病医院","lon":"121.436256586","lat":"31.2217742656","category":"162","category_name":"医院","address":"上海市武夷路"},{"poiid":"B2094757D469A0FE489C","title":"云水肴","lon":"121.4394467","lat":"31.2218878","category":"91","category_name":"台湾菜","address":"静安区愚园路494-1号(乌鲁木齐北路口)"},{"poiid":"B2094654D565A1F44499","title":"上海市计算技术研究所","lon":"121.43814","lat":"31.22196","category":"191","category_name":"科研机构","address":"愚园路546"},{"poiid":"B2094757D16CAAFD4198","title":"红料理","lon":"121.435906586","lat":"31.2244983189","category":"247","category_name":"餐饮美食","address":"上海市静安区万航渡路"},{"poiid":"B2094757DB6FA4FC4492","title":"IMovie影院视听馆（静安店）","lon":"121.43618625","lat":"31.22430014","category":"248","category_name":"生活娱乐","address":"静安区北京西路1829号4楼(近乌鲁木齐路)"},{"poiid":"B2094752DA65A5FA4993","title":"华山医院","lon":"121.438821","lat":"31.222688","category":"162","category_name":"医院","address":"上海市 乌鲁木齐中路12号"},{"poiid":"B2094655D264A7FB479D","title":"嘉御豪庭","lon":"121.43666","lat":"31.22319","category":"47","category_name":"住宅区","address":""},{"poiid":"B2094655D26CABF8429B","title":"新镇宁菜市场","lon":"121.43663","lat":"31.22378","category":"117","category_name":"便民商店/便利店","address":"静安区镇宁路466号(近万航渡路)"},{"poiid":"B2094655D26AA3F44199","title":"一师附小","lon":"121.43870326620095","lat":"31.226002476384966","category":"56","category_name":"小学","address":"静安区万航渡路299号(近乌鲁木齐北路)"},{"poiid":"B2094752D465A1FA419B","title":"CC喵屋","lon":"121.439378","lat":"31.22515","category":"247","category_name":"餐饮美食","address":"愚园路300号申乐大厦2201室"},{"poiid":"B2094750DB65A1F5479F","title":"市三女中","lon":"121.438446","lat":"31.220645","category":"253","category_name":"校园生活","address":"长宁区江苏路愚园路"},{"poiid":"B2094757D06BA3FF4093","title":"红宝石 愚园路店 Ruby","lon":"121.441391054","lat":"31.222798793","category":"67","category_name":"甜品店","address":"静安区愚园路477号(近乌鲁木齐北路)"},{"poiid":"B2094654D565A1F44598","title":"四明体育弄","lon":"121.43854","lat":"31.222313","category":"47","category_name":"住宅区","address":"愚园路520弄2-28号"},{"poiid":"B2094654D565A1F94893","title":"沙利文饼干专卖店(万航渡路)","lon":"121.43872","lat":"31.22536","category":"67","category_name":"甜品店","address":"静安区万航渡路320弄内(近新闸路)"},{"poiid":"B2094654D565A1FB449B","title":"重庆鸡公煲(镇宁路)","lon":"121.43631","lat":"31.22105","category":"71","category_name":"四川菜","address":"静安区愚园路654号(近镇宁路)"},{"poiid":"B2094752DA69ABFD439E","title":"高岛屋百货","lon":"121.438427","lat":"31.2223","category":"249","category_name":"购物服务","address":"上海市 虹桥路1438号"},{"poiid":"B2094757D06AA5F9459F","title":"逸夫职业技术学校","lon":"121.436336","lat":"31.225274","category":"55","category_name":"中学","address":"上海万航渡路435号"},{"poiid":"B2094757D16EAAFB4993","title":"圣松传播","lon":"121.43725859","lat":"31.223964398","category":"263","category_name":"公司","address":"上海市镇宁路200号"},{"poiid":"B2094654DB6BA6FF4292","title":"上海市逸夫职业技术学校静安分部(南门)","lon":"121.43656","lat":"31.22526","category":"678","category_name":"学校大门","address":"万航渡路435"},{"poiid":"B2094655D26EA7FB4693","title":"嘉园健身会所泳池游泳馆","lon":"121.43631","lat":"31.22487","category":"231","category_name":"游泳馆","address":"静安区万航渡路442号(近镇宁路)"},{"poiid":"B2094654D565A1F4439D","title":"天福餐社","lon":"121.43696471794","lat":"31.221139533272","category":"76","category_name":"上海菜","address":"静安区愚园路582号(近镇宁路)"},{"poiid":"B2094757D068A2F84193","title":"MDB桌球会所","lon":"121.4354102","lat":"31.2250695","category":"248","category_name":"生活娱乐","address":"上海镇宁路525号(万航渡路口)"},{"poiid":"B2094655D265A0F84392","title":"红麻辣料理(万航渡路店)","lon":"121.43574","lat":"31.22514","category":"68","category_name":"快餐厅","address":"静安区万航渡路465号(近镇宁路)"},{"poiid":"B2094655D26FA3FA469F","title":"富春小笼 静安店","lon":"121.43631001986","lat":"31.221026369224","category":"68","category_name":"快餐厅","address":"静安区愚园路650号(近镇宁路)"},{"poiid":"B2094757D069A2FE489E","title":"Time zipping house TZ","lon":"121.435335241","lat":"31.2244989389","category":"260","category_name":"其他","address":"静安区镇宁路525号新东纺大酒店1楼(近万航渡路)"},{"poiid":"B2094753D76FAAFA449C","title":"上海滩国泰旗舰店","lon":"121.466011","lat":"31.216125","category":"249","category_name":"购物服务","address":"淮海中路868号"},{"poiid":"B209475CD564A7F8439E","title":"上海滩中信泰富店","lon":"121.45602","lat":"31.22851","category":"119","category_name":"商场","address":"\"南京西路1168号中信泰富广场，店铺号221.\r\n\""},{"poiid":"B2094654D565A0FD499C","title":"华敏翰尊国际","lon":"121.44","lat":"31.2219","category":"46","category_name":"楼宇","address":"延安西路726-728号"},{"poiid":"B2094750D76EAAFC4993","title":"小胖龙虾(镇宁店)","lon":"121.435","lat":"31.2239","category":"68","category_name":"快餐厅","address":"静安区镇宁路483号(近万航渡路)"},{"poiid":"B2094750DB6FA0FB469D","title":"八重樱寿喜锅","lon":"121.436347","lat":"31.22504","category":"95","category_name":"日本料理","address":"静安区万航渡路450号2楼(近镇宁路)"},{"poiid":"B2094757D06FAAFE4098","title":"福1088","lon":"121.43641","lat":"31.2213","category":"76","category_name":"上海菜","address":"静安区镇宁路375号(愚园路口)"},{"poiid":"B2094757D068A1FE489B","title":"舜元企业发展大厦","lon":"121.437273","lat":"31.225137","category":"46","category_name":"楼宇","address":"上海江苏路398号"},{"poiid":"B2094757DA6AA4FB449B","title":"自由港ktv","lon":"121.4387163","lat":"31.2237309","category":"170","category_name":"KTV","address":"南京西路1856号4楼"},{"poiid":"B2094750D26DABFE419A","title":"潮辣重庆老火锅","lon":"121.43697","lat":"31.22105","category":"86","category_name":"火锅店","address":"静安区愚园路582号(近镇宁路)"},{"poiid":"B2094757DA6AA4F8429C","title":"iMovie影城＆视听馆","lon":"121.4379081","lat":"31.2254862","category":"178","category_name":"电影院","address":"静安区北京西路1829号4层"},{"poiid":"B2094757D068A7F84599","title":"静安区牙病防治所(愚园路门诊部)","lon":"121.4397","lat":"31.22177","category":"162","category_name":"医院","address":"静安区愚园路507号(近华山路)"},{"poiid":"B2094751D56EA0F44098","title":"黑三娘(万航渡路店)","lon":"121.43937","lat":"31.22548","category":"71","category_name":"四川菜","address":"静安区万航渡路282号(近新闸路)"},{"poiid":"B2094750D26EA4FF4898","title":"庞克咖啡","lon":"121.435745","lat":"31.222717","category":"65","category_name":"咖啡厅","address":"静安区镇宁路425号(近愚园路)"},{"poiid":"B2094757DA64A0FF469C","title":"太平洋企业中心","lon":"121.439","lat":"31.2209","category":"252","category_name":"楼宇机构","address":"上海市长宁区延安西路889号"},{"poiid":"B2094757D56CABF4409C","title":"东北虎烧烤 镇宁路店","lon":"121.435838054","lat":"31.221491793","category":"68","category_name":"快餐厅","address":"静安区镇宁路367号(愚园路口)"},{"poiid":"B2094757D06FA4F54992","title":"沈坚强游泳俱乐部(武宁南路店)","lon":"121.437663702","lat":"31.2264272769","category":"220","category_name":"运动场所","address":"静安区武宁南路48号(近万航渡路)"},{"poiid":"B2094751D464A6FA4993","title":"CAS BAR","lon":"121.4359","lat":"31.22513","category":"260","category_name":"其他","address":"静安区武定路980号(近胶州路)"},{"poiid":"B2094757D068A2F4479B","title":"上海市第一师范附属小学","lon":"121.43876866","lat":"31.22599449","category":"55","category_name":"中学","address":"上海静安区万航渡路299号(近静安寺)"},{"poiid":"B2094654D565A1FB499C","title":"嘉园","lon":"121.43611","lat":"31.224552","category":"47","category_name":"住宅区","address":"上海市静安区万航渡路458弄"},{"poiid":"B2094751D568A4FD429D","title":"上海一号私藏菜（南京西路店）","lon":"121.4392837","lat":"31.2218077","category":"247","category_name":"餐饮美食","address":null},{"poiid":"B2094654D565A0FA4793","title":"振鼎鸡(愚园路)","lon":"121.437","lat":"31.22097","category":"68","category_name":"快餐厅","address":"静安区愚园路631号(近镇宁路)"},{"poiid":"B2094750D664A3FB4893","title":"TZHouse弹指之间音乐酒吧","lon":"121.435","lat":"31.2245","category":"269","category_name":"烧烤","address":"镇宁路525号新东纺大酒店1楼(近万航渡路)"},{"poiid":"B2094757D06BA0F5479B","title":"咪道赞粥面馆","lon":"121.44126","lat":"31.22502","category":"68","category_name":"快餐厅","address":"静安区万航渡路170号(近乌鲁木齐北路)"},{"poiid":"B2094752D66AABFE469B","title":"好好先生","lon":"121.438238","lat":"31.225147","category":"247","category_name":"餐饮美食","address":"愚园路280号"},{"poiid":"B2094757D66FA3FD4598","title":"福来多三国烤鱼","lon":"121.43662528","lat":"31.22507963","category":"71","category_name":"四川菜","address":"静安区万航渡路431号(近镇宁路)"},{"poiid":"B2094757D16BA0FF429C","title":"上海市皮肤病医院","lon":"121.436256586","lat":"31.2217742656","category":"162","category_name":"医院","address":"上海市武夷路"},{"poiid":"B2094757D469A0FE489C","title":"云水肴","lon":"121.4394467","lat":"31.2218878","category":"91","category_name":"台湾菜","address":"静安区愚园路494-1号(乌鲁木齐北路口)"},{"poiid":"B2094654D565A1F44499","title":"上海市计算技术研究所","lon":"121.43814","lat":"31.22196","category":"191","category_name":"科研机构","address":"愚园路546"},{"poiid":"B2094757D16CAAFD4198","title":"红料理","lon":"121.435906586","lat":"31.2244983189","category":"247","category_name":"餐饮美食","address":"上海市静安区万航渡路"},{"poiid":"B2094757DB6FA4FC4492","title":"IMovie影院视听馆（静安店）","lon":"121.43618625","lat":"31.22430014","category":"248","category_name":"生活娱乐","address":"静安区北京西路1829号4楼(近乌鲁木齐路)"},{"poiid":"B2094752DA65A5FA4993","title":"华山医院","lon":"121.438821","lat":"31.222688","category":"162","category_name":"医院","address":"上海市 乌鲁木齐中路12号"},{"poiid":"B2094655D264A7FB479D","title":"嘉御豪庭","lon":"121.43666","lat":"31.22319","category":"47","category_name":"住宅区","address":""},{"poiid":"B2094655D26CABF8429B","title":"新镇宁菜市场","lon":"121.43663","lat":"31.22378","category":"117","category_name":"便民商店/便利店","address":"静安区镇宁路466号(近万航渡路)"},{"poiid":"B2094655D26AA3F44199","title":"一师附小","lon":"121.43870326620095","lat":"31.226002476384966","category":"56","category_name":"小学","address":"静安区万航渡路299号(近乌鲁木齐北路)"},{"poiid":"B2094752D465A1FA419B","title":"CC喵屋","lon":"121.439378","lat":"31.22515","category":"247","category_name":"餐饮美食","address":"愚园路300号申乐大厦2201室"},{"poiid":"B2094750DB65A1F5479F","title":"市三女中","lon":"121.438446","lat":"31.220645","category":"253","category_name":"校园生活","address":"长宁区江苏路愚园路"},{"poiid":"B2094757D06BA3FF4093","title":"红宝石 愚园路店 Ruby","lon":"121.441391054","lat":"31.222798793","category":"67","category_name":"甜品店","address":"静安区愚园路477号(近乌鲁木齐北路)"},{"poiid":"B2094654D565A1F44598","title":"四明体育弄","lon":"121.43854","lat":"31.222313","category":"47","category_name":"住宅区","address":"愚园路520弄2-28号"},{"poiid":"B2094654D565A1F94893","title":"沙利文饼干专卖店(万航渡路)","lon":"121.43872","lat":"31.22536","category":"67","category_name":"甜品店","address":"静安区万航渡路320弄内(近新闸路)"},{"poiid":"B2094654D565A1FB449B","title":"重庆鸡公煲(镇宁路)","lon":"121.43631","lat":"31.22105","category":"71","category_name":"四川菜","address":"静安区愚园路654号(近镇宁路)"},{"poiid":"B2094752DA69ABFD439E","title":"高岛屋百货","lon":"121.438427","lat":"31.2223","category":"249","category_name":"购物服务","address":"上海市 虹桥路1438号"},{"poiid":"B2094757D06AA5F9459F","title":"逸夫职业技术学校","lon":"121.436336","lat":"31.225274","category":"55","category_name":"中学","address":"上海万航渡路435号"},{"poiid":"B2094757D16EAAFB4993","title":"圣松传播","lon":"121.43725859","lat":"31.223964398","category":"263","category_name":"公司","address":"上海市镇宁路200号"},{"poiid":"B2094654DB6BA6FF4292","title":"上海市逸夫职业技术学校静安分部(南门)","lon":"121.43656","lat":"31.22526","category":"678","category_name":"学校大门","address":"万航渡路435"},{"poiid":"B2094655D26EA7FB4693","title":"嘉园健身会所泳池游泳馆","lon":"121.43631","lat":"31.22487","category":"231","category_name":"游泳馆","address":"静安区万航渡路442号(近镇宁路)"},{"poiid":"B2094654D565A1F4439D","title":"天福餐社","lon":"121.43696471794","lat":"31.221139533272","category":"76","category_name":"上海菜","address":"静安区愚园路582号(近镇宁路)"},{"poiid":"B2094757D068A2F84193","title":"MDB桌球会所","lon":"121.4354102","lat":"31.2250695","category":"248","category_name":"生活娱乐","address":"上海镇宁路525号(万航渡路口)"},{"poiid":"B2094655D265A0F84392","title":"红麻辣料理(万航渡路店)","lon":"121.43574","lat":"31.22514","category":"68","category_name":"快餐厅","address":"静安区万航渡路465号(近镇宁路)"},{"poiid":"B2094655D26FA3FA469F","title":"富春小笼 静安店","lon":"121.43631001986","lat":"31.221026369224","category":"68","category_name":"快餐厅","address":"静安区愚园路650号(近镇宁路)"},{"poiid":"B2094757D069A2FE489E","title":"Time zipping house TZ","lon":"121.435335241","lat":"31.2244989389","category":"260","category_name":"其他","address":"静安区镇宁路525号新东纺大酒店1楼(近万航渡路)"},{"poiid":"B2094753D76FAAFA449C","title":"上海滩国泰旗舰店","lon":"121.466011","lat":"31.216125","category":"249","category_name":"购物服务","address":"淮海中路868号"},{"poiid":"B209475CD564A7F8439E","title":"上海滩中信泰富店","lon":"121.45602","lat":"31.22851","category":"119","category_name":"商场","address":"\"南京西路1168号中信泰富广场，店铺号221.\r\n\""},{"poiid":"B2094654D565A0FD499C","title":"华敏翰尊国际","lon":"121.44","lat":"31.2219","category":"46","category_name":"楼宇","address":"延安西路726-728号"},{"poiid":"B2094750D76EAAFC4993","title":"小胖龙虾(镇宁店)","lon":"121.435","lat":"31.2239","category":"68","category_name":"快餐厅","address":"静安区镇宁路483号(近万航渡路)"},{"poiid":"B2094750DB6FA0FB469D","title":"八重樱寿喜锅","lon":"121.436347","lat":"31.22504","category":"95","category_name":"日本料理","address":"静安区万航渡路450号2楼(近镇宁路)"},{"poiid":"B2094757D06FAAFE4098","title":"福1088","lon":"121.43641","lat":"31.2213","category":"76","category_name":"上海菜","address":"静安区镇宁路375号(愚园路口)"},{"poiid":"B2094757D068A1FE489B","title":"舜元企业发展大厦","lon":"121.437273","lat":"31.225137","category":"46","category_name":"楼宇","address":"上海江苏路398号"},{"poiid":"B2094757DA6AA4FB449B","title":"自由港ktv","lon":"121.4387163","lat":"31.2237309","category":"170","category_name":"KTV","address":"南京西路1856号4楼"},{"poiid":"B2094750D26DABFE419A","title":"潮辣重庆老火锅","lon":"121.43697","lat":"31.22105","category":"86","category_name":"火锅店","address":"静安区愚园路582号(近镇宁路)"},{"poiid":"B2094757DA6AA4F8429C","title":"iMovie影城＆视听馆","lon":"121.4379081","lat":"31.2254862","category":"178","category_name":"电影院","address":"静安区北京西路1829号4层"},{"poiid":"B2094757D068A7F84599","title":"静安区牙病防治所(愚园路门诊部)","lon":"121.4397","lat":"31.22177","category":"162","category_name":"医院","address":"静安区愚园路507号(近华山路)"},{"poiid":"B2094751D56EA0F44098","title":"黑三娘(万航渡路店)","lon":"121.43937","lat":"31.22548","category":"71","category_name":"四川菜","address":"静安区万航渡路282号(近新闸路)"},{"poiid":"B2094750D26EA4FF4898","title":"庞克咖啡","lon":"121.435745","lat":"31.222717","category":"65","category_name":"咖啡厅","address":"静安区镇宁路425号(近愚园路)"},{"poiid":"B2094757DA64A0FF469C","title":"太平洋企业中心","lon":"121.439","lat":"31.2209","category":"252","category_name":"楼宇机构","address":"上海市长宁区延安西路889号"},{"poiid":"B2094757D56CABF4409C","title":"东北虎烧烤 镇宁路店","lon":"121.435838054","lat":"31.221491793","category":"68","category_name":"快餐厅","address":"静安区镇宁路367号(愚园路口)"},{"poiid":"B2094757D06FA4F54992","title":"沈坚强游泳俱乐部(武宁南路店)","lon":"121.437663702","lat":"31.2264272769","category":"220","category_name":"运动场所","address":"静安区武宁南路48号(近万航渡路)"},{"poiid":"B2094751D464A6FA4993","title":"CAS BAR","lon":"121.4359","lat":"31.22513","category":"260","category_name":"其他","address":"静安区武定路980号(近胶州路)"},{"poiid":"B2094757D068A2F4479B","title":"上海市第一师范附属小学","lon":"121.43876866","lat":"31.22599449","category":"55","category_name":"中学","address":"上海静安区万航渡路299号(近静安寺)"},{"poiid":"B2094654D565A1FB499C","title":"嘉园","lon":"121.43611","lat":"31.224552","category":"47","category_name":"住宅区","address":"上海市静安区万航渡路458弄"},{"poiid":"B2094751D568A4FD429D","title":"上海一号私藏菜（南京西路店）","lon":"121.4392837","lat":"31.2218077","category":"247","category_name":"餐饮美食","address":null},{"poiid":"B2094654D565A0FA4793","title":"振鼎鸡(愚园路)","lon":"121.437","lat":"31.22097","category":"68","category_name":"快餐厅","address":"静安区愚园路631号(近镇宁路)"},{"poiid":"B2094750D664A3FB4893","title":"TZHouse弹指之间音乐酒吧","lon":"121.435","lat":"31.2245","category":"269","category_name":"烧烤","address":"镇宁路525号新东纺大酒店1楼(近万航渡路)"},{"poiid":"B2094757D06BA0F5479B","title":"咪道赞粥面馆","lon":"121.44126","lat":"31.22502","category":"68","category_name":"快餐厅","address":"静安区万航渡路170号(近乌鲁木齐北路)"},{"poiid":"B2094752D66AABFE469B","title":"好好先生","lon":"121.438238","lat":"31.225147","category":"247","category_name":"餐饮美食","address":"愚园路280号"},{"poiid":"B2094757D66FA3FD4598","title":"福来多三国烤鱼","lon":"121.43662528","lat":"31.22507963","category":"71","category_name":"四川菜","address":"静安区万航渡路431号(近镇宁路)"},{"poiid":"B2094757D16BA0FF429C","title":"上海市皮肤病医院","lon":"121.436256586","lat":"31.2217742656","category":"162","category_name":"医院","address":"上海市武夷路"},{"poiid":"B2094757D469A0FE489C","title":"云水肴","lon":"121.4394467","lat":"31.2218878","category":"91","category_name":"台湾菜","address":"静安区愚园路494-1号(乌鲁木齐北路口)"},{"poiid":"B2094654D565A1F44499","title":"上海市计算技术研究所","lon":"121.43814","lat":"31.22196","category":"191","category_name":"科研机构","address":"愚园路546"},{"poiid":"B2094757D16CAAFD4198","title":"红料理","lon":"121.435906586","lat":"31.2244983189","category":"247","category_name":"餐饮美食","address":"上海市静安区万航渡路"},{"poiid":"B2094757DB6FA4FC4492","title":"IMovie影院视听馆（静安店）","lon":"121.43618625","lat":"31.22430014","category":"248","category_name":"生活娱乐","address":"静安区北京西路1829号4楼(近乌鲁木齐路)"},{"poiid":"B2094752DA65A5FA4993","title":"华山医院","lon":"121.438821","lat":"31.222688","category":"162","category_name":"医院","address":"上海市 乌鲁木齐中路12号"},{"poiid":"B2094655D264A7FB479D","title":"嘉御豪庭","lon":"121.43666","lat":"31.22319","category":"47","category_name":"住宅区","address":""},{"poiid":"B2094655D26CABF8429B","title":"新镇宁菜市场","lon":"121.43663","lat":"31.22378","category":"117","category_name":"便民商店/便利店","address":"静安区镇宁路466号(近万航渡路)"},{"poiid":"B2094655D26AA3F44199","title":"一师附小","lon":"121.43870326620095","lat":"31.226002476384966","category":"56","category_name":"小学","address":"静安区万航渡路299号(近乌鲁木齐北路)"},{"poiid":"B2094752D465A1FA419B","title":"CC喵屋","lon":"121.439378","lat":"31.22515","category":"247","category_name":"餐饮美食","address":"愚园路300号申乐大厦2201室"},{"poiid":"B2094750DB65A1F5479F","title":"市三女中","lon":"121.438446","lat":"31.220645","category":"253","category_name":"校园生活","address":"长宁区江苏路愚园路"},{"poiid":"B2094757D06BA3FF4093","title":"红宝石 愚园路店 Ruby","lon":"121.441391054","lat":"31.222798793","category":"67","category_name":"甜品店","address":"静安区愚园路477号(近乌鲁木齐北路)"},{"poiid":"B2094654D565A1F44598","title":"四明体育弄","lon":"121.43854","lat":"31.222313","category":"47","category_name":"住宅区","address":"愚园路520弄2-28号"},{"poiid":"B2094654D565A1F94893","title":"沙利文饼干专卖店(万航渡路)","lon":"121.43872","lat":"31.22536","category":"67","category_name":"甜品店","address":"静安区万航渡路320弄内(近新闸路)"},{"poiid":"B2094654D565A1FB449B","title":"重庆鸡公煲(镇宁路)","lon":"121.43631","lat":"31.22105","category":"71","category_name":"四川菜","address":"静安区愚园路654号(近镇宁路)"},{"poiid":"B2094752DA69ABFD439E","title":"高岛屋百货","lon":"121.438427","lat":"31.2223","category":"249","category_name":"购物服务","address":"上海市 虹桥路1438号"},{"poiid":"B2094757D06AA5F9459F","title":"逸夫职业技术学校","lon":"121.436336","lat":"31.225274","category":"55","category_name":"中学","address":"上海万航渡路435号"},{"poiid":"B2094757D16EAAFB4993","title":"圣松传播","lon":"121.43725859","lat":"31.223964398","category":"263","category_name":"公司","address":"上海市镇宁路200号"},{"poiid":"B2094654DB6BA6FF4292","title":"上海市逸夫职业技术学校静安分部(南门)","lon":"121.43656","lat":"31.22526","category":"678","category_name":"学校大门","address":"万航渡路435"},{"poiid":"B2094655D26EA7FB4693","title":"嘉园健身会所泳池游泳馆","lon":"121.43631","lat":"31.22487","category":"231","category_name":"游泳馆","address":"静安区万航渡路442号(近镇宁路)"},{"poiid":"B2094654D565A1F4439D","title":"天福餐社","lon":"121.43696471794","lat":"31.221139533272","category":"76","category_name":"上海菜","address":"静安区愚园路582号(近镇宁路)"},{"poiid":"B2094757D068A2F84193","title":"MDB桌球会所","lon":"121.4354102","lat":"31.2250695","category":"248","category_name":"生活娱乐","address":"上海镇宁路525号(万航渡路口)"}]