[{"poiid":"B2094757D06FA3FF4793","title":"长兴岛","lon":"121.71900939","lat":"31.38047409","category":"260","category_name":"其他","address":"上海近郊"},{"poiid":"B2094757D06FA6FA449D","title":"长兴岛服务区","lon":"121.71817416","lat":"31.387782845","category":"500","category_name":"未知分类","address":"上海长江隧桥长兴岛出口"},{"poiid":"B2094757D569A7FC429B","title":"上海桔园度假村","lon":"121.71651584","lat":"31.3938661","category":"207","category_name":"度假疗养场所","address":"潘园公路1501"},{"poiid":"B2094757D16AA2F5429A","title":"大风车","lon":"121.731417216","lat":"31.405081806","category":"500","category_name":"未知分类","address":"上海市崇明县长兴岛北海滩"},{"poiid":"B2094757D468A4FD4292","title":"瀛升大酒店","lon":"121.726408","lat":"31.3946801","category":"76","category_name":"上海菜","address":"近郊长兴岛前卫支路158号(近前卫农场)"},{"poiid":"B2094757D065A4FF469D","title":"前卫农场","lon":"121.72397816","lat":"31.389368828","category":"500","category_name":"未知分类","address":"上海长兴岛前卫支路"},{"poiid":"B2094757D064A7F54099","title":"长江隧桥公司","lon":"121.721838","lat":"31.393638","category":"263","category_name":"公司","address":"上海潘园公路1502号"},{"poiid":"B2094757D16EA5FF4292","title":"侬趣小院","lon":"121.73374417","lat":"31.388641842","category":"247","category_name":"餐饮美食","address":"上海长兴岛长明村12队678号"},{"poiid":"B2094655D265A6FA459A","title":"G40长兴岛收费站","lon":"121.71501","lat":"31.38919","category":"267","category_name":"收费站","address":""},{"poiid":"B2094654DB69A6FF4092","title":"上海前卫旅游服务公司(桔园度假村)游泳馆","lon":"121.71796","lat":"31.39031","category":"231","category_name":"游泳馆","address":"宝山区长兴岛"},{"poiid":"B2094757D06AA1FD499C","title":"长兴岛橘园","lon":"121.71724","lat":"31.38278","category":"500","category_name":"未知分类","address":"宝山区长兴岛前卫农场"},{"poiid":"B2094757D06BA5F44698","title":"古瀛饭庄","lon":"121.7215","lat":"31.38704","category":"247","category_name":"餐饮美食","address":"上海近郊崇明县前卫村580号  "},{"poiid":"B2094757D164A6F94998","title":"长兴岛枢纽站","lon":"121.706264019","lat":"31.3941084205","category":"500","category_name":"未知分类","address":"上海长兴车站"},{"poiid":"B2094757D568A4F8419E","title":"G40潘圆公路收费站","lon":"121.715062","lat":"31.389237","category":"267","category_name":"收费站","address":"中国上海市崇明县潘园公路"},{"poiid":"B2094655D26BA1FD469A","title":"潘圆公路前卫场部","lon":"121.70927","lat":"31.39378","category":"38","category_name":"公交车站","address":""},{"poiid":"B2094655D26BA1FD4799","title":"潘圆公路长明村","lon":"121.73559","lat":"31.38394","category":"38","category_name":"公交车站","address":""},{"poiid":"B2094654DB65A0F94598","title":"上海长明中学","lon":"121.73587","lat":"31.38418","category":"55","category_name":"中学","address":"崇明县长兴岛凤圆路1111号"},{"poiid":"B2094757D568A4FE449E","title":"江南造船集团职业技术学校长兴分部","lon":"121.73665582","lat":"31.3842041","category":"54","category_name":"职业技术学校","address":"中国上海市崇明县潘园公路"},{"poiid":"B2094757D568A6FC419B","title":"江南造船集团职业技术学校长兴分部(南门)","lon":"121.73665961","lat":"31.3840918","category":"678","category_name":"学校大门","address":"中国上海市崇明县潘园公路"},{"poiid":"B2094757D165A7F5429E","title":"潘圆公路丰福路","lon":"121.7060984","lat":"31.39338255","category":"38","category_name":"公交车站","address":"上海潘圆公路丰福路"},{"poiid":"B2094757D66FA6FA419E","title":"中正桥永和","lon":"121.706519979","lat":"31.3996152761","category":"247","category_name":"餐饮美食","address":"上海崇明县长兴镇凤滨路191号"},{"poiid":"B2094757D66EA2FF4493","title":"绿地长兴一街区","lon":"121.709936179","lat":"31.3853327717","category":"500","category_name":"未知分类","address":"上海长兴江南大道3888号"},{"poiid":"B2094757D568ABFF459D","title":"上海市江南长兴职业培训学校","lon":"121.73739855","lat":"31.38410346","category":"190","category_name":"培训机构","address":"中国上海市崇明县潘园公路"},{"poiid":"B2094757D069AAFA409C","title":"长兴岛某村镇","lon":"121.70802816","lat":"31.387578876","category":"500","category_name":"未知分类","address":"上海市崇明县潘圆公路"}]