[{"poiid":"B2094757D06FA7F8489F","title":"滨江森林公园","lon":"121.52494953","lat":"31.38177031","category":"196","category_name":"公园","address":"上海凌桥"},{"poiid":"B2094757D06AABF5429E","title":"吴淞口国际邮轮港","lon":"121.50557","lat":"31.404876","category":"500","category_name":"未知分类","address":"上海市宝山区宝杨路１号"},{"poiid":"B2094757D06FA3F5409B","title":"上海公安高等专科学校","lon":"121.51755523","lat":"31.377981185","category":"671","category_name":"高校中心点","address":"浦东新区凌桥崇景路100号(三岔港)"},{"poiid":"B2094757D06FA5F44392","title":"宝杨码头","lon":"121.501694","lat":"31.40562","category":"234","category_name":"海滨浴场","address":"上海宝山区宝杨支路18号"},{"poiid":"B2094757D069A3F8459F","title":"炮台湾湿地森林公园","lon":"121.50571413","lat":"31.393478751","category":"500","category_name":"未知分类","address":"上海宝山区塘后路"},{"poiid":"B2094757D06FABFE459A","title":"海江二村","lon":"121.50371","lat":"31.393312","category":"47","category_name":"住宅区","address":"永乐路222弄"},{"poiid":"B2094757D06AA4FE4499","title":"海军博物馆","lon":"121.50643","lat":"31.3887963487","category":"182","category_name":"博物馆","address":"宝山区塘后路68号(近淞宝路)"},{"poiid":"B2094757D66CA4F54498","title":"众所粥滋(潮州海鲜粥)","lon":"121.50136","lat":"31.38392","category":"72","category_name":"广东菜","address":"宝山区淞宝路268号(近永清路)"},{"poiid":"B2094655D26BA6FB4498","title":"吴淞炮台纪念遗址","lon":"121.5083","lat":"31.39336","category":"250","category_name":"公园户外","address":"塘后路206"},{"poiid":"B2094757D064A1F84793","title":"宝山三村","lon":"121.49794","lat":"31.39304","category":"47","category_name":"住宅区","address":"上海市宝山区永清路双城路"},{"poiid":"B2094654D46AA4FE4198","title":"宝山六村","lon":"121.502","lat":"31.397743","category":"47","category_name":"住宅区","address":"上海市宝山区永乐路115弄"},{"poiid":"B2094654DB6AA6FF4192","title":"海滨八村","lon":"121.507","lat":"31.3884","category":"47","category_name":"住宅区","address":"上海宝山区牡丹江路海滨八村46号"},{"poiid":"B2094654D46AA7FB4099","title":"宝山一村","lon":"121.509","lat":"31.4009","category":"47","category_name":"住宅区","address":"上海双城路宝东路宝山一村4号"},{"poiid":"B209475DD76AABFA4093","title":"吴淞炮台湾湿地森林公园","lon":"121.511054","lat":"31.39783","category":"250","category_name":"公园户外","address":"上海市 上海市宝山区黄浦江"},{"poiid":"B2094757D16FA1FD409F","title":"上海城投污水处理厂","lon":"121.512613631","lat":"31.3954619926","category":"500","category_name":"未知分类","address":"上海海江路1号"},{"poiid":"B2094750D669A4FA459A","title":"上海长江河口科技馆","lon":"121.506713","lat":"31.400457","category":"250","category_name":"公园户外","address":"宝山区塘后路206号吴淞炮台湾湿地公园(近国际邮轮码头)"},{"poiid":"B2094654D46AA4FD4398","title":"上海交通大学医学附属卫生学校宝山分校","lon":"121.49748","lat":"31.3955","category":"52","category_name":"高等院校","address":"永乐路399"},{"poiid":"B2094757DA6FA2FC4998","title":"吴淞炮台湾湿地公园(北门)","lon":"121.501836776732","lat":"31.4026964848086","category":"250","category_name":"公园户外","address":"宝山区宝杨路(近宝杨支路)"},{"poiid":"B2094655D268A3FE499B","title":"前三营房","lon":"121.5051420877","lat":"31.391444050309","category":"47","category_name":"住宅区","address":"永清路98号"},{"poiid":"B2094752D26BABFF449C","title":"上善宝邸","lon":"121.508543","lat":"31.394886","category":"47","category_name":"住宅区","address":"宝山区塘后支路19号"},{"poiid":"B2094757D068A7F44393","title":"宝山七村","lon":"121.49985","lat":"31.396515","category":"252","category_name":"楼宇机构","address":"上海宝山区海江路永乐路"},{"poiid":"B2094654D46BA2FC4498","title":"双城路二弄小区","lon":"121.50777","lat":"31.39484","category":"47","category_name":"住宅区","address":"上海市宝山区双城路塘后路"},{"poiid":"B2094654D46BA2FC4293","title":"新叶公寓","lon":"121.50488","lat":"31.391869","category":"47","category_name":"住宅区","address":"上海市宝山区塘后路231号"},{"poiid":"B2094654D46AA6FA4693","title":"宝杨路码头候船室","lon":"121.50009","lat":"31.40575","category":"34","category_name":"港口码头","address":""},{"poiid":"B2094757D069ABF5409A","title":"万家灯火酒店","lon":"121.502034061","lat":"31.3856950811","category":"75","category_name":"浙江菜","address":"宝山区淞宝路358号"},{"poiid":"B2094654D46AA4FE419F","title":"海江公寓","lon":"121.5037","lat":"31.399063","category":"47","category_name":"住宅区","address":"塘后路285弄"},{"poiid":"B2094654D46AA4FE439C","title":"中艺花园","lon":"121.49869","lat":"31.3999","category":"47","category_name":"住宅区","address":"中艺花园位于宝山海江路9号"},{"poiid":"B2094654D46BA2FC4393","title":"快客NO.6985","lon":"121.50638","lat":"31.39348","category":"117","category_name":"便民商店/便利店","address":""},{"poiid":"B2094750D16BA0F84992","title":"宝山体育中心羽毛球馆","lon":"121.498832","lat":"31.398883","category":"250","category_name":"公园户外","address":"宝山区永清路700号(近海江路)"},{"poiid":"B2094757D06BA4F94298","title":"马拉戈壁","lon":"121.50718433","lat":"31.391325507","category":"247","category_name":"餐饮美食","address":"上海dkkskf"},{"poiid":"B2094757D16CAAFB439B","title":"阿良海鲜","lon":"121.501203","lat":"31.393635","category":"247","category_name":"餐饮美食","address":"上海宝山区双城路116号"},{"poiid":"B2094757D16EABFC4198","title":"小主人幼兒園","lon":"121.503705","lat":"31.393312","category":"57","category_name":"幼儿园","address":"上海海江二村"},{"poiid":"B2094655D26FABFA4899","title":"双城路2弄小区(西门)","lon":"121.50557","lat":"31.39492","category":"47","category_name":"住宅区","address":"双城路2弄1-22号"},{"poiid":"B2094757D06AA0F8499C","title":"宝山二村","lon":"121.507","lat":"31.4014","category":"260","category_name":"其他","address":"上海市宝山区双城路"},{"poiid":"B2094655D268A5F4449B","title":"海江公寓(西门)","lon":"121.5048","lat":"31.39653","category":"47","category_name":"住宅区","address":"塘后路285弄1-21号"},{"poiid":"B2094655D36DA0F44399","title":"永清新村","lon":"121.50102","lat":"31.39143","category":"38","category_name":"公交车站","address":"永清新村54幢188号"},{"poiid":"B2094757D568A5FC4293","title":"宝杨路客运码头","lon":"121.5038789","lat":"31.40380139","category":"35","category_name":"长途汽车站","address":"宝杨支路18号宝杨码头"},{"poiid":"B209475DD365A2FD469C","title":"上海吴淞国际码头","lon":"121.512001","lat":"31.40802","category":"500","category_name":"未知分类","address":"上海宝山区宝杨路"},{"poiid":"B2094757D164A5F5449A","title":"邻家小菜","lon":"121.50175","lat":"31.39066","category":"76","category_name":"上海菜","address":"宝山区淞宝路(淞宝路淞青路)"},{"poiid":"B2094757D169A4FC409C","title":"宝山区建筑业受理服务中心","lon":"121.50640783","lat":"31.394165065","category":"500","category_name":"未知分类","address":"上海牡丹江路1188号7楼"},{"poiid":"B2094655D26FABFA429C","title":"海江二村(一号门)","lon":"121.50415","lat":"31.39466","category":"47","category_name":"住宅区","address":""},{"poiid":"B2094750D26CA3F4429C","title":"老刘野生大鱼坊 宝山店","lon":"121.502523054","lat":"31.385492793","category":"82","category_name":"东北菜","address":"宝山区凇宝路406号(化成路淞宝路)"},{"poiid":"B2094757DB6FA5FE469A","title":"吴淞古炮台公园","lon":"121.5022320674001","lat":"31.39532357457224","category":"196","category_name":"公园","address":"双城路"},{"poiid":"B2094757D769A4FE469C","title":"双城小吃","lon":"121.5001403","lat":"31.3935328","category":"68","category_name":"快餐厅","address":"宝山区双城路139号(近淞宝路)"},{"poiid":"B2094757D568A7FE409B","title":"好乐迪量贩式KTV音乐茶室","lon":"121.50664795","lat":"31.38941352","category":"170","category_name":"KTV","address":"塘后路112号"},{"poiid":"B2094654D46AA5FC459F","title":"农家粗菜馆(淞宝路)","lon":"121.50243","lat":"31.38975","category":"76","category_name":"上海菜","address":"宝山区淞宝路578-582号(水产路淞宝路)"},{"poiid":"B2094654DB6AA5F8499A","title":"快客","lon":"121.50242","lat":"31.39451","category":"117","category_name":"便民商店/便利店","address":"双城路81"},{"poiid":"B2094757D66EA5FD489F","title":"高桥老东街","lon":"121.52687183","lat":"31.403507258","category":"500","category_name":"未知分类","address":"上海季景北路东街"},{"poiid":"B2094757D569A7FA4598","title":"立云汽车服务","lon":"121.50682644","lat":"31.39227132","category":"159","category_name":"汽车维修","address":"塘后路172"},{"poiid":"B2094757D568AAFC409F","title":"美国CAS国家干洗(塘后路店)","lon":"121.50745877","lat":"31.39075412","category":"610","category_name":"干洗店","address":"塘后支路172"},{"poiid":"B2094757D06FA7F8489F","title":"滨江森林公园","lon":"121.52494953","lat":"31.38177031","category":"196","category_name":"公园","address":"上海凌桥"},{"poiid":"B2094757D06AABF5429E","title":"吴淞口国际邮轮港","lon":"121.50557","lat":"31.404876","category":"500","category_name":"未知分类","address":"上海市宝山区宝杨路１号"},{"poiid":"B2094757D06FA3F5409B","title":"上海公安高等专科学校","lon":"121.51755523","lat":"31.377981185","category":"671","category_name":"高校中心点","address":"浦东新区凌桥崇景路100号(三岔港)"},{"poiid":"B2094757D06FA5F44392","title":"宝杨码头","lon":"121.501694","lat":"31.40562","category":"234","category_name":"海滨浴场","address":"上海宝山区宝杨支路18号"},{"poiid":"B2094757D069A3F8459F","title":"炮台湾湿地森林公园","lon":"121.50571413","lat":"31.393478751","category":"500","category_name":"未知分类","address":"上海宝山区塘后路"},{"poiid":"B2094757D06FABFE459A","title":"海江二村","lon":"121.50371","lat":"31.393312","category":"47","category_name":"住宅区","address":"永乐路222弄"},{"poiid":"B2094757D06AA4FE4499","title":"海军博物馆","lon":"121.50643","lat":"31.3887963487","category":"182","category_name":"博物馆","address":"宝山区塘后路68号(近淞宝路)"},{"poiid":"B2094757D66CA4F54498","title":"众所粥滋(潮州海鲜粥)","lon":"121.50136","lat":"31.38392","category":"72","category_name":"广东菜","address":"宝山区淞宝路268号(近永清路)"},{"poiid":"B2094655D26BA6FB4498","title":"吴淞炮台纪念遗址","lon":"121.5083","lat":"31.39336","category":"250","category_name":"公园户外","address":"塘后路206"},{"poiid":"B2094757D064A1F84793","title":"宝山三村","lon":"121.49794","lat":"31.39304","category":"47","category_name":"住宅区","address":"上海市宝山区永清路双城路"},{"poiid":"B2094654D46AA4FE4198","title":"宝山六村","lon":"121.502","lat":"31.397743","category":"47","category_name":"住宅区","address":"上海市宝山区永乐路115弄"},{"poiid":"B2094654DB6AA6FF4192","title":"海滨八村","lon":"121.507","lat":"31.3884","category":"47","category_name":"住宅区","address":"上海宝山区牡丹江路海滨八村46号"},{"poiid":"B2094654D46AA7FB4099","title":"宝山一村","lon":"121.509","lat":"31.4009","category":"47","category_name":"住宅区","address":"上海双城路宝东路宝山一村4号"},{"poiid":"B209475DD76AABFA4093","title":"吴淞炮台湾湿地森林公园","lon":"121.511054","lat":"31.39783","category":"250","category_name":"公园户外","address":"上海市 上海市宝山区黄浦江"},{"poiid":"B2094757D16FA1FD409F","title":"上海城投污水处理厂","lon":"121.512613631","lat":"31.3954619926","category":"500","category_name":"未知分类","address":"上海海江路1号"},{"poiid":"B2094750D669A4FA459A","title":"上海长江河口科技馆","lon":"121.506713","lat":"31.400457","category":"250","category_name":"公园户外","address":"宝山区塘后路206号吴淞炮台湾湿地公园(近国际邮轮码头)"},{"poiid":"B2094654D46AA4FD4398","title":"上海交通大学医学附属卫生学校宝山分校","lon":"121.49748","lat":"31.3955","category":"52","category_name":"高等院校","address":"永乐路399"},{"poiid":"B2094757DA6FA2FC4998","title":"吴淞炮台湾湿地公园(北门)","lon":"121.501836776732","lat":"31.4026964848086","category":"250","category_name":"公园户外","address":"宝山区宝杨路(近宝杨支路)"},{"poiid":"B2094655D268A3FE499B","title":"前三营房","lon":"121.5051420877","lat":"31.391444050309","category":"47","category_name":"住宅区","address":"永清路98号"},{"poiid":"B2094752D26BABFF449C","title":"上善宝邸","lon":"121.508543","lat":"31.394886","category":"47","category_name":"住宅区","address":"宝山区塘后支路19号"},{"poiid":"B2094757D068A7F44393","title":"宝山七村","lon":"121.49985","lat":"31.396515","category":"252","category_name":"楼宇机构","address":"上海宝山区海江路永乐路"},{"poiid":"B2094654D46BA2FC4498","title":"双城路二弄小区","lon":"121.50777","lat":"31.39484","category":"47","category_name":"住宅区","address":"上海市宝山区双城路塘后路"},{"poiid":"B2094654D46BA2FC4293","title":"新叶公寓","lon":"121.50488","lat":"31.391869","category":"47","category_name":"住宅区","address":"上海市宝山区塘后路231号"},{"poiid":"B2094654D46AA6FA4693","title":"宝杨路码头候船室","lon":"121.50009","lat":"31.40575","category":"34","category_name":"港口码头","address":""},{"poiid":"B2094757D069ABF5409A","title":"万家灯火酒店","lon":"121.502034061","lat":"31.3856950811","category":"75","category_name":"浙江菜","address":"宝山区淞宝路358号"},{"poiid":"B2094654D46AA4FE419F","title":"海江公寓","lon":"121.5037","lat":"31.399063","category":"47","category_name":"住宅区","address":"塘后路285弄"},{"poiid":"B2094654D46AA4FE439C","title":"中艺花园","lon":"121.49869","lat":"31.3999","category":"47","category_name":"住宅区","address":"中艺花园位于宝山海江路9号"},{"poiid":"B2094654D46BA2FC4393","title":"快客NO.6985","lon":"121.50638","lat":"31.39348","category":"117","category_name":"便民商店/便利店","address":""},{"poiid":"B2094750D16BA0F84992","title":"宝山体育中心羽毛球馆","lon":"121.498832","lat":"31.398883","category":"250","category_name":"公园户外","address":"宝山区永清路700号(近海江路)"},{"poiid":"B2094757D06BA4F94298","title":"马拉戈壁","lon":"121.50718433","lat":"31.391325507","category":"247","category_name":"餐饮美食","address":"上海dkkskf"},{"poiid":"B2094757D16CAAFB439B","title":"阿良海鲜","lon":"121.501203","lat":"31.393635","category":"247","category_name":"餐饮美食","address":"上海宝山区双城路116号"},{"poiid":"B2094757D16EABFC4198","title":"小主人幼兒園","lon":"121.503705","lat":"31.393312","category":"57","category_name":"幼儿园","address":"上海海江二村"},{"poiid":"B2094655D26FABFA4899","title":"双城路2弄小区(西门)","lon":"121.50557","lat":"31.39492","category":"47","category_name":"住宅区","address":"双城路2弄1-22号"},{"poiid":"B2094757D06AA0F8499C","title":"宝山二村","lon":"121.507","lat":"31.4014","category":"260","category_name":"其他","address":"上海市宝山区双城路"},{"poiid":"B2094655D268A5F4449B","title":"海江公寓(西门)","lon":"121.5048","lat":"31.39653","category":"47","category_name":"住宅区","address":"塘后路285弄1-21号"},{"poiid":"B2094655D36DA0F44399","title":"永清新村","lon":"121.50102","lat":"31.39143","category":"38","category_name":"公交车站","address":"永清新村54幢188号"},{"poiid":"B2094757D568A5FC4293","title":"宝杨路客运码头","lon":"121.5038789","lat":"31.40380139","category":"35","category_name":"长途汽车站","address":"宝杨支路18号宝杨码头"},{"poiid":"B209475DD365A2FD469C","title":"上海吴淞国际码头","lon":"121.512001","lat":"31.40802","category":"500","category_name":"未知分类","address":"上海宝山区宝杨路"},{"poiid":"B2094757D164A5F5449A","title":"邻家小菜","lon":"121.50175","lat":"31.39066","category":"76","category_name":"上海菜","address":"宝山区淞宝路(淞宝路淞青路)"},{"poiid":"B2094757D169A4FC409C","title":"宝山区建筑业受理服务中心","lon":"121.50640783","lat":"31.394165065","category":"500","category_name":"未知分类","address":"上海牡丹江路1188号7楼"},{"poiid":"B2094655D26FABFA429C","title":"海江二村(一号门)","lon":"121.50415","lat":"31.39466","category":"47","category_name":"住宅区","address":""},{"poiid":"B2094750D26CA3F4429C","title":"老刘野生大鱼坊 宝山店","lon":"121.502523054","lat":"31.385492793","category":"82","category_name":"东北菜","address":"宝山区凇宝路406号(化成路淞宝路)"},{"poiid":"B2094757DB6FA5FE469A","title":"吴淞古炮台公园","lon":"121.5022320674001","lat":"31.39532357457224","category":"196","category_name":"公园","address":"双城路"},{"poiid":"B2094757D769A4FE469C","title":"双城小吃","lon":"121.5001403","lat":"31.3935328","category":"68","category_name":"快餐厅","address":"宝山区双城路139号(近淞宝路)"},{"poiid":"B2094757D568A7FE409B","title":"好乐迪量贩式KTV音乐茶室","lon":"121.50664795","lat":"31.38941352","category":"170","category_name":"KTV","address":"塘后路112号"},{"poiid":"B2094654D46AA5FC459F","title":"农家粗菜馆(淞宝路)","lon":"121.50243","lat":"31.38975","category":"76","category_name":"上海菜","address":"宝山区淞宝路578-582号(水产路淞宝路)"},{"poiid":"B2094654DB6AA5F8499A","title":"快客","lon":"121.50242","lat":"31.39451","category":"117","category_name":"便民商店/便利店","address":"双城路81"},{"poiid":"B2094757D66EA5FD489F","title":"高桥老东街","lon":"121.52687183","lat":"31.403507258","category":"500","category_name":"未知分类","address":"上海季景北路东街"},{"poiid":"B2094757D569A7FA4598","title":"立云汽车服务","lon":"121.50682644","lat":"31.39227132","category":"159","category_name":"汽车维修","address":"塘后路172"},{"poiid":"B2094757D568AAFC409F","title":"美国CAS国家干洗(塘后路店)","lon":"121.50745877","lat":"31.39075412","category":"610","category_name":"干洗店","address":"塘后支路172"},{"poiid":"B2094757D06FA7F8489F","title":"滨江森林公园","lon":"121.52494953","lat":"31.38177031","category":"196","category_name":"公园","address":"上海凌桥"},{"poiid":"B2094757D06AABF5429E","title":"吴淞口国际邮轮港","lon":"121.50557","lat":"31.404876","category":"500","category_name":"未知分类","address":"上海市宝山区宝杨路１号"},{"poiid":"B2094757D06FA3F5409B","title":"上海公安高等专科学校","lon":"121.51755523","lat":"31.377981185","category":"671","category_name":"高校中心点","address":"浦东新区凌桥崇景路100号(三岔港)"},{"poiid":"B2094757D06FA5F44392","title":"宝杨码头","lon":"121.501694","lat":"31.40562","category":"234","category_name":"海滨浴场","address":"上海宝山区宝杨支路18号"},{"poiid":"B2094757D069A3F8459F","title":"炮台湾湿地森林公园","lon":"121.50571413","lat":"31.393478751","category":"500","category_name":"未知分类","address":"上海宝山区塘后路"},{"poiid":"B2094757D06FABFE459A","title":"海江二村","lon":"121.50371","lat":"31.393312","category":"47","category_name":"住宅区","address":"永乐路222弄"},{"poiid":"B2094757D06AA4FE4499","title":"海军博物馆","lon":"121.50643","lat":"31.3887963487","category":"182","category_name":"博物馆","address":"宝山区塘后路68号(近淞宝路)"},{"poiid":"B2094757D66CA4F54498","title":"众所粥滋(潮州海鲜粥)","lon":"121.50136","lat":"31.38392","category":"72","category_name":"广东菜","address":"宝山区淞宝路268号(近永清路)"},{"poiid":"B2094655D26BA6FB4498","title":"吴淞炮台纪念遗址","lon":"121.5083","lat":"31.39336","category":"250","category_name":"公园户外","address":"塘后路206"},{"poiid":"B2094757D064A1F84793","title":"宝山三村","lon":"121.49794","lat":"31.39304","category":"47","category_name":"住宅区","address":"上海市宝山区永清路双城路"},{"poiid":"B2094654D46AA4FE4198","title":"宝山六村","lon":"121.502","lat":"31.397743","category":"47","category_name":"住宅区","address":"上海市宝山区永乐路115弄"},{"poiid":"B2094654DB6AA6FF4192","title":"海滨八村","lon":"121.507","lat":"31.3884","category":"47","category_name":"住宅区","address":"上海宝山区牡丹江路海滨八村46号"},{"poiid":"B2094654D46AA7FB4099","title":"宝山一村","lon":"121.509","lat":"31.4009","category":"47","category_name":"住宅区","address":"上海双城路宝东路宝山一村4号"},{"poiid":"B209475DD76AABFA4093","title":"吴淞炮台湾湿地森林公园","lon":"121.511054","lat":"31.39783","category":"250","category_name":"公园户外","address":"上海市 上海市宝山区黄浦江"},{"poiid":"B2094757D16FA1FD409F","title":"上海城投污水处理厂","lon":"121.512613631","lat":"31.3954619926","category":"500","category_name":"未知分类","address":"上海海江路1号"},{"poiid":"B2094750D669A4FA459A","title":"上海长江河口科技馆","lon":"121.506713","lat":"31.400457","category":"250","category_name":"公园户外","address":"宝山区塘后路206号吴淞炮台湾湿地公园(近国际邮轮码头)"},{"poiid":"B2094654D46AA4FD4398","title":"上海交通大学医学附属卫生学校宝山分校","lon":"121.49748","lat":"31.3955","category":"52","category_name":"高等院校","address":"永乐路399"},{"poiid":"B2094757DA6FA2FC4998","title":"吴淞炮台湾湿地公园(北门)","lon":"121.501836776732","lat":"31.4026964848086","category":"250","category_name":"公园户外","address":"宝山区宝杨路(近宝杨支路)"},{"poiid":"B2094655D268A3FE499B","title":"前三营房","lon":"121.5051420877","lat":"31.391444050309","category":"47","category_name":"住宅区","address":"永清路98号"},{"poiid":"B2094752D26BABFF449C","title":"上善宝邸","lon":"121.508543","lat":"31.394886","category":"47","category_name":"住宅区","address":"宝山区塘后支路19号"},{"poiid":"B2094757D068A7F44393","title":"宝山七村","lon":"121.49985","lat":"31.396515","category":"252","category_name":"楼宇机构","address":"上海宝山区海江路永乐路"},{"poiid":"B2094654D46BA2FC4498","title":"双城路二弄小区","lon":"121.50777","lat":"31.39484","category":"47","category_name":"住宅区","address":"上海市宝山区双城路塘后路"},{"poiid":"B2094654D46BA2FC4293","title":"新叶公寓","lon":"121.50488","lat":"31.391869","category":"47","category_name":"住宅区","address":"上海市宝山区塘后路231号"},{"poiid":"B2094654D46AA6FA4693","title":"宝杨路码头候船室","lon":"121.50009","lat":"31.40575","category":"34","category_name":"港口码头","address":""},{"poiid":"B2094757D069ABF5409A","title":"万家灯火酒店","lon":"121.502034061","lat":"31.3856950811","category":"75","category_name":"浙江菜","address":"宝山区淞宝路358号"},{"poiid":"B2094654D46AA4FE419F","title":"海江公寓","lon":"121.5037","lat":"31.399063","category":"47","category_name":"住宅区","address":"塘后路285弄"},{"poiid":"B2094654D46AA4FE439C","title":"中艺花园","lon":"121.49869","lat":"31.3999","category":"47","category_name":"住宅区","address":"中艺花园位于宝山海江路9号"},{"poiid":"B2094654D46BA2FC4393","title":"快客NO.6985","lon":"121.50638","lat":"31.39348","category":"117","category_name":"便民商店/便利店","address":""},{"poiid":"B2094750D16BA0F84992","title":"宝山体育中心羽毛球馆","lon":"121.498832","lat":"31.398883","category":"250","category_name":"公园户外","address":"宝山区永清路700号(近海江路)"},{"poiid":"B2094757D06BA4F94298","title":"马拉戈壁","lon":"121.50718433","lat":"31.391325507","category":"247","category_name":"餐饮美食","address":"上海dkkskf"},{"poiid":"B2094757D16CAAFB439B","title":"阿良海鲜","lon":"121.501203","lat":"31.393635","category":"247","category_name":"餐饮美食","address":"上海宝山区双城路116号"},{"poiid":"B2094757D16EABFC4198","title":"小主人幼兒園","lon":"121.503705","lat":"31.393312","category":"57","category_name":"幼儿园","address":"上海海江二村"},{"poiid":"B2094655D26FABFA4899","title":"双城路2弄小区(西门)","lon":"121.50557","lat":"31.39492","category":"47","category_name":"住宅区","address":"双城路2弄1-22号"},{"poiid":"B2094757D06AA0F8499C","title":"宝山二村","lon":"121.507","lat":"31.4014","category":"260","category_name":"其他","address":"上海市宝山区双城路"},{"poiid":"B2094655D268A5F4449B","title":"海江公寓(西门)","lon":"121.5048","lat":"31.39653","category":"47","category_name":"住宅区","address":"塘后路285弄1-21号"},{"poiid":"B2094655D36DA0F44399","title":"永清新村","lon":"121.50102","lat":"31.39143","category":"38","category_name":"公交车站","address":"永清新村54幢188号"},{"poiid":"B2094757D568A5FC4293","title":"宝杨路客运码头","lon":"121.5038789","lat":"31.40380139","category":"35","category_name":"长途汽车站","address":"宝杨支路18号宝杨码头"},{"poiid":"B209475DD365A2FD469C","title":"上海吴淞国际码头","lon":"121.512001","lat":"31.40802","category":"500","category_name":"未知分类","address":"上海宝山区宝杨路"},{"poiid":"B2094757D164A5F5449A","title":"邻家小菜","lon":"121.50175","lat":"31.39066","category":"76","category_name":"上海菜","address":"宝山区淞宝路(淞宝路淞青路)"},{"poiid":"B2094757D169A4FC409C","title":"宝山区建筑业受理服务中心","lon":"121.50640783","lat":"31.394165065","category":"500","category_name":"未知分类","address":"上海牡丹江路1188号7楼"},{"poiid":"B2094655D26FABFA429C","title":"海江二村(一号门)","lon":"121.50415","lat":"31.39466","category":"47","category_name":"住宅区","address":""},{"poiid":"B2094750D26CA3F4429C","title":"老刘野生大鱼坊 宝山店","lon":"121.502523054","lat":"31.385492793","category":"82","category_name":"东北菜","address":"宝山区凇宝路406号(化成路淞宝路)"},{"poiid":"B2094757DB6FA5FE469A","title":"吴淞古炮台公园","lon":"121.5022320674001","lat":"31.39532357457224","category":"196","category_name":"公园","address":"双城路"},{"poiid":"B2094757D769A4FE469C","title":"双城小吃","lon":"121.5001403","lat":"31.3935328","category":"68","category_name":"快餐厅","address":"宝山区双城路139号(近淞宝路)"},{"poiid":"B2094757D568A7FE409B","title":"好乐迪量贩式KTV音乐茶室","lon":"121.50664795","lat":"31.38941352","category":"170","category_name":"KTV","address":"塘后路112号"},{"poiid":"B2094654D46AA5FC459F","title":"农家粗菜馆(淞宝路)","lon":"121.50243","lat":"31.38975","category":"76","category_name":"上海菜","address":"宝山区淞宝路578-582号(水产路淞宝路)"},{"poiid":"B2094654DB6AA5F8499A","title":"快客","lon":"121.50242","lat":"31.39451","category":"117","category_name":"便民商店/便利店","address":"双城路81"},{"poiid":"B2094757D66EA5FD489F","title":"高桥老东街","lon":"121.52687183","lat":"31.403507258","category":"500","category_name":"未知分类","address":"上海季景北路东街"},{"poiid":"B2094757D569A7FA4598","title":"立云汽车服务","lon":"121.50682644","lat":"31.39227132","category":"159","category_name":"汽车维修","address":"塘后路172"},{"poiid":"B2094757D568AAFC409F","title":"美国CAS国家干洗(塘后路店)","lon":"121.50745877","lat":"31.39075412","category":"610","category_name":"干洗店","address":"塘后支路172"},{"poiid":"B2094757D06FA7F8489F","title":"滨江森林公园","lon":"121.52494953","lat":"31.38177031","category":"196","category_name":"公园","address":"上海凌桥"},{"poiid":"B2094757D06AABF5429E","title":"吴淞口国际邮轮港","lon":"121.50557","lat":"31.404876","category":"500","category_name":"未知分类","address":"上海市宝山区宝杨路１号"},{"poiid":"B2094757D06FA3F5409B","title":"上海公安高等专科学校","lon":"121.51755523","lat":"31.377981185","category":"671","category_name":"高校中心点","address":"浦东新区凌桥崇景路100号(三岔港)"},{"poiid":"B2094757D06FA5F44392","title":"宝杨码头","lon":"121.501694","lat":"31.40562","category":"234","category_name":"海滨浴场","address":"上海宝山区宝杨支路18号"},{"poiid":"B2094757D069A3F8459F","title":"炮台湾湿地森林公园","lon":"121.50571413","lat":"31.393478751","category":"500","category_name":"未知分类","address":"上海宝山区塘后路"},{"poiid":"B2094757D06FABFE459A","title":"海江二村","lon":"121.50371","lat":"31.393312","category":"47","category_name":"住宅区","address":"永乐路222弄"},{"poiid":"B2094757D06AA4FE4499","title":"海军博物馆","lon":"121.50643","lat":"31.3887963487","category":"182","category_name":"博物馆","address":"宝山区塘后路68号(近淞宝路)"},{"poiid":"B2094757D66CA4F54498","title":"众所粥滋(潮州海鲜粥)","lon":"121.50136","lat":"31.38392","category":"72","category_name":"广东菜","address":"宝山区淞宝路268号(近永清路)"},{"poiid":"B2094655D26BA6FB4498","title":"吴淞炮台纪念遗址","lon":"121.5083","lat":"31.39336","category":"250","category_name":"公园户外","address":"塘后路206"},{"poiid":"B2094757D064A1F84793","title":"宝山三村","lon":"121.49794","lat":"31.39304","category":"47","category_name":"住宅区","address":"上海市宝山区永清路双城路"},{"poiid":"B2094654D46AA4FE4198","title":"宝山六村","lon":"121.502","lat":"31.397743","category":"47","category_name":"住宅区","address":"上海市宝山区永乐路115弄"},{"poiid":"B2094654DB6AA6FF4192","title":"海滨八村","lon":"121.507","lat":"31.3884","category":"47","category_name":"住宅区","address":"上海宝山区牡丹江路海滨八村46号"},{"poiid":"B2094654D46AA7FB4099","title":"宝山一村","lon":"121.509","lat":"31.4009","category":"47","category_name":"住宅区","address":"上海双城路宝东路宝山一村4号"},{"poiid":"B209475DD76AABFA4093","title":"吴淞炮台湾湿地森林公园","lon":"121.511054","lat":"31.39783","category":"250","category_name":"公园户外","address":"上海市 上海市宝山区黄浦江"},{"poiid":"B2094757D16FA1FD409F","title":"上海城投污水处理厂","lon":"121.512613631","lat":"31.3954619926","category":"500","category_name":"未知分类","address":"上海海江路1号"},{"poiid":"B2094750D669A4FA459A","title":"上海长江河口科技馆","lon":"121.506713","lat":"31.400457","category":"250","category_name":"公园户外","address":"宝山区塘后路206号吴淞炮台湾湿地公园(近国际邮轮码头)"},{"poiid":"B2094654D46AA4FD4398","title":"上海交通大学医学附属卫生学校宝山分校","lon":"121.49748","lat":"31.3955","category":"52","category_name":"高等院校","address":"永乐路399"},{"poiid":"B2094757DA6FA2FC4998","title":"吴淞炮台湾湿地公园(北门)","lon":"121.501836776732","lat":"31.4026964848086","category":"250","category_name":"公园户外","address":"宝山区宝杨路(近宝杨支路)"},{"poiid":"B2094655D268A3FE499B","title":"前三营房","lon":"121.5051420877","lat":"31.391444050309","category":"47","category_name":"住宅区","address":"永清路98号"},{"poiid":"B2094752D26BABFF449C","title":"上善宝邸","lon":"121.508543","lat":"31.394886","category":"47","category_name":"住宅区","address":"宝山区塘后支路19号"},{"poiid":"B2094757D068A7F44393","title":"宝山七村","lon":"121.49985","lat":"31.396515","category":"252","category_name":"楼宇机构","address":"上海宝山区海江路永乐路"},{"poiid":"B2094654D46BA2FC4498","title":"双城路二弄小区","lon":"121.50777","lat":"31.39484","category":"47","category_name":"住宅区","address":"上海市宝山区双城路塘后路"},{"poiid":"B2094654D46BA2FC4293","title":"新叶公寓","lon":"121.50488","lat":"31.391869","category":"47","category_name":"住宅区","address":"上海市宝山区塘后路231号"},{"poiid":"B2094654D46AA6FA4693","title":"宝杨路码头候船室","lon":"121.50009","lat":"31.40575","category":"34","category_name":"港口码头","address":""},{"poiid":"B2094757D069ABF5409A","title":"万家灯火酒店","lon":"121.502034061","lat":"31.3856950811","category":"75","category_name":"浙江菜","address":"宝山区淞宝路358号"},{"poiid":"B2094654D46AA4FE419F","title":"海江公寓","lon":"121.5037","lat":"31.399063","category":"47","category_name":"住宅区","address":"塘后路285弄"},{"poiid":"B2094654D46AA4FE439C","title":"中艺花园","lon":"121.49869","lat":"31.3999","category":"47","category_name":"住宅区","address":"中艺花园位于宝山海江路9号"},{"poiid":"B2094654D46BA2FC4393","title":"快客NO.6985","lon":"121.50638","lat":"31.39348","category":"117","category_name":"便民商店/便利店","address":""},{"poiid":"B2094750D16BA0F84992","title":"宝山体育中心羽毛球馆","lon":"121.498832","lat":"31.398883","category":"250","category_name":"公园户外","address":"宝山区永清路700号(近海江路)"},{"poiid":"B2094757D06BA4F94298","title":"马拉戈壁","lon":"121.50718433","lat":"31.391325507","category":"247","category_name":"餐饮美食","address":"上海dkkskf"},{"poiid":"B2094757D16CAAFB439B","title":"阿良海鲜","lon":"121.501203","lat":"31.393635","category":"247","category_name":"餐饮美食","address":"上海宝山区双城路116号"},{"poiid":"B2094757D16EABFC4198","title":"小主人幼兒園","lon":"121.503705","lat":"31.393312","category":"57","category_name":"幼儿园","address":"上海海江二村"},{"poiid":"B2094655D26FABFA4899","title":"双城路2弄小区(西门)","lon":"121.50557","lat":"31.39492","category":"47","category_name":"住宅区","address":"双城路2弄1-22号"},{"poiid":"B2094757D06AA0F8499C","title":"宝山二村","lon":"121.507","lat":"31.4014","category":"260","category_name":"其他","address":"上海市宝山区双城路"},{"poiid":"B2094655D268A5F4449B","title":"海江公寓(西门)","lon":"121.5048","lat":"31.39653","category":"47","category_name":"住宅区","address":"塘后路285弄1-21号"},{"poiid":"B2094655D36DA0F44399","title":"永清新村","lon":"121.50102","lat":"31.39143","category":"38","category_name":"公交车站","address":"永清新村54幢188号"},{"poiid":"B2094757D568A5FC4293","title":"宝杨路客运码头","lon":"121.5038789","lat":"31.40380139","category":"35","category_name":"长途汽车站","address":"宝杨支路18号宝杨码头"},{"poiid":"B209475DD365A2FD469C","title":"上海吴淞国际码头","lon":"121.512001","lat":"31.40802","category":"500","category_name":"未知分类","address":"上海宝山区宝杨路"},{"poiid":"B2094757D164A5F5449A","title":"邻家小菜","lon":"121.50175","lat":"31.39066","category":"76","category_name":"上海菜","address":"宝山区淞宝路(淞宝路淞青路)"},{"poiid":"B2094757D169A4FC409C","title":"宝山区建筑业受理服务中心","lon":"121.50640783","lat":"31.394165065","category":"500","category_name":"未知分类","address":"上海牡丹江路1188号7楼"},{"poiid":"B2094655D26FABFA429C","title":"海江二村(一号门)","lon":"121.50415","lat":"31.39466","category":"47","category_name":"住宅区","address":""},{"poiid":"B2094750D26CA3F4429C","title":"老刘野生大鱼坊 宝山店","lon":"121.502523054","lat":"31.385492793","category":"82","category_name":"东北菜","address":"宝山区凇宝路406号(化成路淞宝路)"},{"poiid":"B2094757DB6FA5FE469A","title":"吴淞古炮台公园","lon":"121.5022320674001","lat":"31.39532357457224","category":"196","category_name":"公园","address":"双城路"},{"poiid":"B2094757D769A4FE469C","title":"双城小吃","lon":"121.5001403","lat":"31.3935328","category":"68","category_name":"快餐厅","address":"宝山区双城路139号(近淞宝路)"},{"poiid":"B2094757D568A7FE409B","title":"好乐迪量贩式KTV音乐茶室","lon":"121.50664795","lat":"31.38941352","category":"170","category_name":"KTV","address":"塘后路112号"},{"poiid":"B2094654D46AA5FC459F","title":"农家粗菜馆(淞宝路)","lon":"121.50243","lat":"31.38975","category":"76","category_name":"上海菜","address":"宝山区淞宝路578-582号(水产路淞宝路)"},{"poiid":"B2094654DB6AA5F8499A","title":"快客","lon":"121.50242","lat":"31.39451","category":"117","category_name":"便民商店/便利店","address":"双城路81"},{"poiid":"B2094757D66EA5FD489F","title":"高桥老东街","lon":"121.52687183","lat":"31.403507258","category":"500","category_name":"未知分类","address":"上海季景北路东街"},{"poiid":"B2094757D569A7FA4598","title":"立云汽车服务","lon":"121.50682644","lat":"31.39227132","category":"159","category_name":"汽车维修","address":"塘后路172"},{"poiid":"B2094757D568AAFC409F","title":"美国CAS国家干洗(塘后路店)","lon":"121.50745877","lat":"31.39075412","category":"610","category_name":"干洗店","address":"塘后支路172"}]