[{"poiid":"B2094757D068A3FD409A","title":"上海迪斯尼乐园","lon":"121.65279471","lat":"31.143728456","category":"195","category_name":"游乐场","address":"上海浦东新区沪芦高速秀浦路下匝道处"},{"poiid":"B2094757D065A4FE469F","title":"上海迪士尼项目工地","lon":"121.66061608","lat":"31.15002032","category":"500","category_name":"未知分类","address":"上海市浦东新区Ｓ２沪芦高速"},{"poiid":"B2094757D06BA2F5479D","title":"黄楼嘉缘休闲农庄","lon":"121.67767","lat":"31.15768","category":"76","category_name":"上海菜","address":"浦东新区川沙镇唐黄路155号(近A1唐黄路出口)"},{"poiid":"B2094757D06FAAF94492","title":"S2沪芦高速公路康桥收费站","lon":"121.64817484","lat":"31.145233933","category":"267","category_name":"收费站","address":"上海浦东新区康桥(S2沪芦高速公路)"},{"poiid":"B2094655D36CA0F4439F","title":"黄楼镇","lon":"121.6705","lat":"31.16318","category":"38","category_name":"公交车站","address":""},{"poiid":"B2094655D36CA2FE489F","title":"旗杆","lon":"121.66084","lat":"31.15209","category":"38","category_name":"公交车站","address":""},{"poiid":"B2094654DB6DA6FF4299","title":"杭州华联(川展路)","lon":"121.66979","lat":"31.15413","category":"118","category_name":"超级市场","address":""},{"poiid":"B2094655D26DA6FD419B","title":"赵行公园(黄赵路)","lon":"121.66418","lat":"31.14142","category":"196","category_name":"公园","address":"赵行中心村"},{"poiid":"B2094655D26BA2F94999","title":"唐黄路","lon":"121.67626","lat":"31.15877","category":"38","category_name":"公交车站","address":""},{"poiid":"B2094655D36CA0FF4399","title":"金家村","lon":"121.67837","lat":"31.15612","category":"38","category_name":"公交车站","address":""},{"poiid":"B2094655D36CA6F94992","title":"杜甫亭","lon":"121.65655","lat":"31.15997","category":"38","category_name":"公交车站","address":""},{"poiid":"B2094757D168A5FC4699","title":"爱心动物园","lon":"121.677571","lat":"31.151771","category":"500","category_name":"未知分类","address":"上海薇家"},{"poiid":"B2094655D36CA0F44392","title":"黄楼","lon":"121.67029","lat":"31.16313","category":"38","category_name":"公交车站","address":""},{"poiid":"B2094654DB6DA6FC4498","title":"浦东新区黄楼幼儿园","lon":"121.67042","lat":"31.16168","category":"57","category_name":"幼儿园","address":"浦东新区黄楼栏学路495号"},{"poiid":"B2094654DB6DA7F5479F","title":"宏福商场","lon":"121.66027","lat":"31.16101","category":"119","category_name":"商场","address":"黄镇栏学路"},{"poiid":"B2094654DA6AABFB439C","title":"黄楼花苑","lon":"121.6751","lat":"31.166113","category":"47","category_name":"住宅区","address":"川周公路6561弄"},{"poiid":"B2094757D165A1F8479A","title":"吉祥馄饨(南桥店)","lon":"121.668402","lat":"31.162874","category":"247","category_name":"餐饮美食","address":"上海市浦东新区川沙新镇川黄路195号"},{"poiid":"B2094654DB6DA6FC449A","title":"黄楼影剧院","lon":"121.668791","lat":"31.163573","category":"178","category_name":"电影院","address":"芙蓉路56号"},{"poiid":"B2094654DB65A4FE409A","title":"上海吉龙经济发展有限公司","lon":"121.66991","lat":"31.1622","category":"263","category_name":"公司","address":""},{"poiid":"B2094654DA6AA4FC419B","title":"桂龙商场","lon":"121.66765","lat":"31.16481","category":"119","category_name":"商场","address":"黄镇南首"},{"poiid":"B2094654DB6DA6FF4098","title":"上海嘉毓华工艺礼品有限公司","lon":"121.65405","lat":"31.14354","category":"263","category_name":"公司","address":"浦东川沙镇赵行村庙桥队"},{"poiid":"B2094757D168A3FA459B","title":"界龙数码印刷","lon":"121.6685","lat":"31.1625","category":"500","category_name":"未知分类","address":"浦东新区川周路7077号"},{"poiid":"B2094757D16AA3FB439A","title":"鼎鑫名流苑","lon":"121.669069","lat":"31.162963","category":"500","category_name":"未知分类","address":"上海市浦東新區川沙鎮川黃路"},{"poiid":"B2094655D26FA6FF499D","title":"农工商超市(黄楼店)","lon":"121.67058","lat":"31.16411","category":"118","category_name":"超级市场","address":"浦东新区川沙黄楼迎春街48号"},{"poiid":"B2094654DA6AABFB429F","title":"上海市黄楼中学","lon":"121.66911","lat":"31.166","category":"55","category_name":"中学","address":"浦东川沙黄楼镇栏学路375号"},{"poiid":"B2094655D268ABFF4199","title":"环东二大道立交桥","lon":"121.64802","lat":"31.15553","category":"250","category_name":"公园户外","address":""},{"poiid":"B2094654DA6AA4FD489A","title":"上海市浦东新区黄楼中心小学","lon":"121.67217","lat":"31.16514","category":"56","category_name":"小学","address":"浦东新区黄楼镇迎春街95号"},{"poiid":"B2094655D36CA0F8409B","title":"界龙一路","lon":"121.66792","lat":"31.16859","category":"38","category_name":"公交车站","address":""},{"poiid":"B2094757D164AAFD449C","title":"黄楼社区卫生服务中心","lon":"121.670263085","lat":"31.1649676488","category":"500","category_name":"未知分类","address":"上海川沙镇川周公路6215号"},{"poiid":"B2094757D06AAAF9499F","title":"汇之星奔驰4S店","lon":"121.6834259","lat":"31.154672622","category":"500","category_name":"未知分类","address":"上海南六公路1233弄"},{"poiid":"B2094654DB6DA6FC4098","title":"黄楼派出所","lon":"121.67116","lat":"31.16356","category":"609","category_name":"警察局","address":"川沙镇"},{"poiid":"B2094654DA6AABFB4299","title":"黄楼水果大卖场","lon":"121.66858","lat":"31.16526","category":"117","category_name":"便民商店/便利店","address":""},{"poiid":"B2094655D26BABF5419C","title":"S2沪芦高速康桥收费站","lon":"121.6483","lat":"31.14526","category":"267","category_name":"收费站","address":""},{"poiid":"B2094654DB6DA5FC4092","title":"上海共业制刷有限公司","lon":"121.65267","lat":"31.15852","category":"263","category_name":"公司","address":"川周公路5380"},{"poiid":"B2094654DB6DA5FC4193","title":"上海华新乐器有限公司","lon":"121.65557","lat":"31.16143","category":"263","category_name":"公司","address":""},{"poiid":"B2094655D36DA2FE439A","title":"人民桥","lon":"121.6682","lat":"31.13301","category":"250","category_name":"公园户外","address":""},{"poiid":"B2094655D268ABFF4792","title":"Ａ２康桥收费站","lon":"121.64829","lat":"31.14526","category":"267","category_name":"收费站","address":""}]