[{"poiid":"B2094757D06EAAFF479D","title":"静安新城","lon":"121.38199615","lat":"31.156570434","category":"47","category_name":"住宅区","address":"上海漕宝路龙茗路"},{"poiid":"B2094757D06FA3F54393","title":"易买得(漕宝店)","lon":"121.37822047","lat":"31.156180865","category":"119","category_name":"商场","address":"闵行区虹莘路2988号漕宝购物中心B1楼(近漕宝路)"},{"poiid":"B2094750D26DA4FE449F","title":"捞王猪肚鸡 龙茗路店","lon":"121.3821856","lat":"31.1543499","category":"86","category_name":"火锅店","address":"闵行区龙茗路1939号(近漕宝路)"},{"poiid":"B2094757D66BA3F94898","title":"虾满堂手抓龙虾 龙茗路店","lon":"121.382276","lat":"31.153223","category":"68","category_name":"快餐厅","address":"闵行区龙茗路1658号(近东兰路)"},{"poiid":"B2094757D064A4FE459F","title":"必胜客(漕宝店)","lon":"121.38155144","lat":"31.1569728068","category":"94","category_name":"西餐厅","address":"闵行区龙茗路2131号(近漕宝路口)"},{"poiid":"B2094757D06FA1FC4199","title":"欧风花都","lon":"121.38541","lat":"31.15246","category":"47","category_name":"住宅区","address":"上海东兰路1111弄"},{"poiid":"B2094757D068A4F4479D","title":"蓝色港湾","lon":"121.3858","lat":"31.1476","category":"47","category_name":"住宅区","address":"上海龙茗路1458弄"},{"poiid":"B2094655D26AA6FE419A","title":"香满堂 龙茗路店","lon":"121.383073054","lat":"31.152290793","category":"68","category_name":"快餐厅","address":"闵行区龙茗路1662号欧风新天地内(近东兰路)"},{"poiid":"B2094757D069A3FC439A","title":"闵行九星市场","lon":"121.37886047","lat":"31.151998519","category":"249","category_name":"购物服务","address":"上海东兰西路虹莘路"},{"poiid":"B2094757D069A1FE439F","title":"果果宠物诊所","lon":"121.382719642","lat":"31.1520434455","category":"668","category_name":"诊所","address":"闵行区龙茗路1662号欧风新天地F区110室(近东兰路)"},{"poiid":"B2094655D36CA1FF489A","title":"龙茗路古龙路","lon":"121.38472","lat":"31.14469","category":"38","category_name":"公交车站","address":""},{"poiid":"B2094757D069A1FF4193","title":"新招鲜本地鸡窝 龙茗路店","lon":"121.382521054","lat":"31.154755793","category":"86","category_name":"火锅店","address":"闵行区龙茗路1927号(近漕宝路)"},{"poiid":"B2094757D06AA7F5479F","title":"古美高级中学羽毛球馆","lon":"121.383572856","lat":"31.1498091576","category":"253","category_name":"校园生活","address":"闵行区龙茗路1628号(近平南路)"},{"poiid":"B2094757D06AA5FC4498","title":"东兰雅苑","lon":"121.38109","lat":"31.151621","category":"500","category_name":"未知分类","address":"上海龙茗路1699弄"},{"poiid":"B2094757D66AA6F94192","title":"韩林炭烤 （五角场万达店）","lon":"121.37602","lat":"31.15786","category":"96","category_name":"韩国料理","address":"上海市杨浦区政通路189号 4F"},{"poiid":"B2094757D069A4F44899","title":"虾满堂","lon":"121.38660058","lat":"31.150679876","category":"500","category_name":"未知分类","address":"上海市闵行区龙茗路1658号(漕宝路)"},{"poiid":"B2094655D26FA5FC4398","title":"新时代富嘉花园","lon":"121.38657","lat":"31.144928","category":"47","category_name":"住宅区","address":"上海市普陀区新泉路66弄"},{"poiid":"B2094654DA65A0FF4098","title":"九星茶叶区","lon":"121.37708","lat":"31.14761","category":"117","category_name":"便民商店/便利店","address":""},{"poiid":"B2094757DA65A5FB469B","title":"莫泰168(上海九星店)(原龙茗路店)","lon":"121.383117","lat":"31.151157","category":"216","category_name":"经济型连锁酒店","address":"上海市闵行区龙茗路1650号(近东兰路)"},{"poiid":"B2094654DB64A1FC4098","title":"欧风新天地(龙茗路)","lon":"121.38282","lat":"31.15256","category":"119","category_name":"商场","address":"龙茗路1658-1680号"},{"poiid":"B2094757D164A7F8489D","title":"古美中心幼儿园","lon":"121.38158158","lat":"31.150279868","category":"57","category_name":"幼儿园","address":"闵行区东兰路1111弄欧风花都48号"},{"poiid":"B2094654DB6CA1FD409E","title":"上海市古美高级中学","lon":"121.38357","lat":"31.1498","category":"55","category_name":"中学","address":"龙茗路1628"},{"poiid":"B2094654DB6CA3FA459B","title":"平吉一村(南门)","lon":"121.3828","lat":"31.14497","category":"47","category_name":"住宅区","address":""},{"poiid":"B2094757D66BA4FE439E","title":"台湾永亨大鸡排 龙茗店","lon":"121.38259","lat":"31.15157","category":"68","category_name":"快餐厅","address":"闵行区龙茗路1687号(东兰路龙茗路)"},{"poiid":"B2094757D06AABFD4999","title":"超级鸡车(龙茗店)","lon":"121.382831","lat":"31.152566","category":"68","category_name":"快餐厅","address":"闵行区龙茗路1680号欧风新天地内(近东兰路)"},{"poiid":"B2094757D069A2FA4598","title":"巴黎贝甜(漕宝店)","lon":"121.37609","lat":"31.15785","category":"67","category_name":"甜品店","address":"闵行区漕宝路1574号易买得购物中心1楼(近虹莘路)"},{"poiid":"B2094751D369A3FF499F","title":"南亚湾休闲餐厅","lon":"121.38262","lat":"31.15232","category":"110","category_name":"其他亚洲菜","address":"闵行区龙茗路1670号-3(近东兰路)"},{"poiid":"B2094654DB6AA3FE479B","title":"川居易川菜馆 闵行店","lon":"121.383073054","lat":"31.152290793","category":"71","category_name":"四川菜","address":"闵行区龙茗路1662号欧风新天地(近东兰路)"},{"poiid":"B2094757D168A3FB429A","title":"九星苑","lon":"121.3811","lat":"31.150282","category":"252","category_name":"楼宇机构","address":"上海市闵行区星东路"},{"poiid":"B2094654DB6CA1FD409C","title":"好德No.248(龙茗路)","lon":"121.38299","lat":"31.14946","category":"117","category_name":"便民商店/便利店","address":""},{"poiid":"B2094655D26FA6FA4692","title":"和润家园","lon":"121.38148","lat":"31.15419","category":"47","category_name":"住宅区","address":"上海龙茗路1897弄"},{"poiid":"B2094757D46AABF8449B","title":"龙茗路大胡子烧烤","lon":"121.384584","lat":"31.145686","category":"269","category_name":"烧烤","address":"闵行区龙茗路1408号(近古龙路)"},{"poiid":"B2094654DB64AAF5429D","title":"光明便利No.J561","lon":"121.37966","lat":"31.1498","category":"117","category_name":"便民商店/便利店","address":"虹莘路19号房1-3号"},{"poiid":"B2094655D269AAFE4598","title":"紫燕百味鸡 龙茗路店","lon":"121.383073054","lat":"31.152290793","category":"68","category_name":"快餐厅","address":"闵行区龙茗路1680号欧风新天地内(近东兰路)"},{"poiid":"B2094654DB64A2F5499E","title":"克丽缇娜No.38120","lon":"121.38263","lat":"31.15079","category":"148","category_name":"美容美发店","address":""},{"poiid":"B2094757D16CA7F4489F","title":"大长今正宗韩国料理","lon":"121.378708586","lat":"31.1559649797","category":"247","category_name":"餐饮美食","address":"上海市闵行区漕宝路易•买得"},{"poiid":"B2094757D56CAAFD449C","title":"鸿润兴面馆","lon":"121.385271","lat":"31.144027","category":"68","category_name":"快餐厅","address":"闵行区龙茗路1256号"},{"poiid":"B2094757D06BA4FD479C","title":"金汇豪庭","lon":"121.37957","lat":"31.154713","category":"252","category_name":"楼宇机构","address":"上海市闵行区龙茗路2121弄"},{"poiid":"B2094757D16CA0FB439D","title":"永琪美容美发(龙茗店)","lon":"121.38230845","lat":"31.151716853","category":"148","category_name":"美容美发店","address":"闵行区龙茗路1713号(东兰路口)"},{"poiid":"B2094757D165ABFC4799","title":"龙茗路","lon":"121.381011857","lat":"31.1446962574","category":"500","category_name":"未知分类","address":"上海市闵行区星友路"},{"poiid":"B2094654DB6CA1FE429B","title":"东北美食坊","lon":"121.38271","lat":"31.15186","category":"82","category_name":"东北菜","address":"闵行区龙茗路1680号欧风新天地内(近东兰路)"},{"poiid":"B2094654DB6CA1FE419C","title":"指尖芭蕾造型坊","lon":"121.38259","lat":"31.15107","category":"148","category_name":"美容美发店","address":"龙茗路1661"},{"poiid":"B2094655D36CA6FB429E","title":"东兰路龙茗路","lon":"121.38112","lat":"31.15266","category":"38","category_name":"公交车站","address":""},{"poiid":"B2094654DB6CA1FD4099","title":"诺奇时装连锁","lon":"121.38304","lat":"31.14931","category":"141","category_name":"服装鞋帽皮具店","address":""},{"poiid":"B2094655D265A2F8479E","title":"九星苑(东二门)","lon":"121.38036","lat":"31.15176","category":"47","category_name":"住宅区","address":"东兰路349弄"},{"poiid":"B2094750D76DA7FA419A","title":"阿勇鲁肉饭(龙茗路店)","lon":"121.382","lat":"31.1542","category":"91","category_name":"台湾菜","address":"闵行区龙茗路1780号(近漕宝路)"},{"poiid":"B2094757D66FA1F54399","title":"好德便利(龙茗店)","lon":"121.38266","lat":"31.15153","category":"117","category_name":"便民商店/便利店","address":"闵行区龙茗路1695号(东兰路龙茗路)"},{"poiid":"B2094654DB6CA1FC489C","title":"车之翼(龙茗路)","lon":"121.38281","lat":"31.15011","category":"159","category_name":"汽车维修","address":""},{"poiid":"B2094757D069A2F44993","title":"肯德基 漕宝路店","lon":"121.377062","lat":"31.15776","category":"68","category_name":"快餐厅","address":"闵行区漕宝路1574号易买得购物中心1楼"},{"poiid":"B2094654DB6CA3F94899","title":"平吉一村龙茗公寓(东门)","lon":"121.38378","lat":"31.14699","category":"47","category_name":"住宅区","address":"古美路"},{"poiid":"B2094757D06EAAFF479D","title":"静安新城","lon":"121.38199615","lat":"31.156570434","category":"47","category_name":"住宅区","address":"上海漕宝路龙茗路"},{"poiid":"B2094757D06FA3F54393","title":"易买得(漕宝店)","lon":"121.37822047","lat":"31.156180865","category":"119","category_name":"商场","address":"闵行区虹莘路2988号漕宝购物中心B1楼(近漕宝路)"},{"poiid":"B2094750D26DA4FE449F","title":"捞王猪肚鸡 龙茗路店","lon":"121.3821856","lat":"31.1543499","category":"86","category_name":"火锅店","address":"闵行区龙茗路1939号(近漕宝路)"},{"poiid":"B2094757D66BA3F94898","title":"虾满堂手抓龙虾 龙茗路店","lon":"121.382276","lat":"31.153223","category":"68","category_name":"快餐厅","address":"闵行区龙茗路1658号(近东兰路)"},{"poiid":"B2094757D064A4FE459F","title":"必胜客(漕宝店)","lon":"121.38155144","lat":"31.1569728068","category":"94","category_name":"西餐厅","address":"闵行区龙茗路2131号(近漕宝路口)"},{"poiid":"B2094757D06FA1FC4199","title":"欧风花都","lon":"121.38541","lat":"31.15246","category":"47","category_name":"住宅区","address":"上海东兰路1111弄"},{"poiid":"B2094757D068A4F4479D","title":"蓝色港湾","lon":"121.3858","lat":"31.1476","category":"47","category_name":"住宅区","address":"上海龙茗路1458弄"},{"poiid":"B2094655D26AA6FE419A","title":"香满堂 龙茗路店","lon":"121.383073054","lat":"31.152290793","category":"68","category_name":"快餐厅","address":"闵行区龙茗路1662号欧风新天地内(近东兰路)"},{"poiid":"B2094757D069A3FC439A","title":"闵行九星市场","lon":"121.37886047","lat":"31.151998519","category":"249","category_name":"购物服务","address":"上海东兰西路虹莘路"},{"poiid":"B2094757D069A1FE439F","title":"果果宠物诊所","lon":"121.382719642","lat":"31.1520434455","category":"668","category_name":"诊所","address":"闵行区龙茗路1662号欧风新天地F区110室(近东兰路)"},{"poiid":"B2094655D36CA1FF489A","title":"龙茗路古龙路","lon":"121.38472","lat":"31.14469","category":"38","category_name":"公交车站","address":""},{"poiid":"B2094757D069A1FF4193","title":"新招鲜本地鸡窝 龙茗路店","lon":"121.382521054","lat":"31.154755793","category":"86","category_name":"火锅店","address":"闵行区龙茗路1927号(近漕宝路)"},{"poiid":"B2094757D06AA7F5479F","title":"古美高级中学羽毛球馆","lon":"121.383572856","lat":"31.1498091576","category":"253","category_name":"校园生活","address":"闵行区龙茗路1628号(近平南路)"},{"poiid":"B2094757D06AA5FC4498","title":"东兰雅苑","lon":"121.38109","lat":"31.151621","category":"500","category_name":"未知分类","address":"上海龙茗路1699弄"},{"poiid":"B2094757D66AA6F94192","title":"韩林炭烤 （五角场万达店）","lon":"121.37602","lat":"31.15786","category":"96","category_name":"韩国料理","address":"上海市杨浦区政通路189号 4F"},{"poiid":"B2094757D069A4F44899","title":"虾满堂","lon":"121.38660058","lat":"31.150679876","category":"500","category_name":"未知分类","address":"上海市闵行区龙茗路1658号(漕宝路)"},{"poiid":"B2094655D26FA5FC4398","title":"新时代富嘉花园","lon":"121.38657","lat":"31.144928","category":"47","category_name":"住宅区","address":"上海市普陀区新泉路66弄"},{"poiid":"B2094654DA65A0FF4098","title":"九星茶叶区","lon":"121.37708","lat":"31.14761","category":"117","category_name":"便民商店/便利店","address":""},{"poiid":"B2094757DA65A5FB469B","title":"莫泰168(上海九星店)(原龙茗路店)","lon":"121.383117","lat":"31.151157","category":"216","category_name":"经济型连锁酒店","address":"上海市闵行区龙茗路1650号(近东兰路)"},{"poiid":"B2094654DB64A1FC4098","title":"欧风新天地(龙茗路)","lon":"121.38282","lat":"31.15256","category":"119","category_name":"商场","address":"龙茗路1658-1680号"},{"poiid":"B2094757D164A7F8489D","title":"古美中心幼儿园","lon":"121.38158158","lat":"31.150279868","category":"57","category_name":"幼儿园","address":"闵行区东兰路1111弄欧风花都48号"},{"poiid":"B2094654DB6CA1FD409E","title":"上海市古美高级中学","lon":"121.38357","lat":"31.1498","category":"55","category_name":"中学","address":"龙茗路1628"},{"poiid":"B2094654DB6CA3FA459B","title":"平吉一村(南门)","lon":"121.3828","lat":"31.14497","category":"47","category_name":"住宅区","address":""},{"poiid":"B2094757D66BA4FE439E","title":"台湾永亨大鸡排 龙茗店","lon":"121.38259","lat":"31.15157","category":"68","category_name":"快餐厅","address":"闵行区龙茗路1687号(东兰路龙茗路)"},{"poiid":"B2094757D06AABFD4999","title":"超级鸡车(龙茗店)","lon":"121.382831","lat":"31.152566","category":"68","category_name":"快餐厅","address":"闵行区龙茗路1680号欧风新天地内(近东兰路)"},{"poiid":"B2094757D069A2FA4598","title":"巴黎贝甜(漕宝店)","lon":"121.37609","lat":"31.15785","category":"67","category_name":"甜品店","address":"闵行区漕宝路1574号易买得购物中心1楼(近虹莘路)"},{"poiid":"B2094751D369A3FF499F","title":"南亚湾休闲餐厅","lon":"121.38262","lat":"31.15232","category":"110","category_name":"其他亚洲菜","address":"闵行区龙茗路1670号-3(近东兰路)"},{"poiid":"B2094654DB6AA3FE479B","title":"川居易川菜馆 闵行店","lon":"121.383073054","lat":"31.152290793","category":"71","category_name":"四川菜","address":"闵行区龙茗路1662号欧风新天地(近东兰路)"},{"poiid":"B2094757D168A3FB429A","title":"九星苑","lon":"121.3811","lat":"31.150282","category":"252","category_name":"楼宇机构","address":"上海市闵行区星东路"},{"poiid":"B2094654DB6CA1FD409C","title":"好德No.248(龙茗路)","lon":"121.38299","lat":"31.14946","category":"117","category_name":"便民商店/便利店","address":""},{"poiid":"B2094655D26FA6FA4692","title":"和润家园","lon":"121.38148","lat":"31.15419","category":"47","category_name":"住宅区","address":"上海龙茗路1897弄"},{"poiid":"B2094757D46AABF8449B","title":"龙茗路大胡子烧烤","lon":"121.384584","lat":"31.145686","category":"269","category_name":"烧烤","address":"闵行区龙茗路1408号(近古龙路)"},{"poiid":"B2094654DB64AAF5429D","title":"光明便利No.J561","lon":"121.37966","lat":"31.1498","category":"117","category_name":"便民商店/便利店","address":"虹莘路19号房1-3号"},{"poiid":"B2094655D269AAFE4598","title":"紫燕百味鸡 龙茗路店","lon":"121.383073054","lat":"31.152290793","category":"68","category_name":"快餐厅","address":"闵行区龙茗路1680号欧风新天地内(近东兰路)"},{"poiid":"B2094654DB64A2F5499E","title":"克丽缇娜No.38120","lon":"121.38263","lat":"31.15079","category":"148","category_name":"美容美发店","address":""},{"poiid":"B2094757D16CA7F4489F","title":"大长今正宗韩国料理","lon":"121.378708586","lat":"31.1559649797","category":"247","category_name":"餐饮美食","address":"上海市闵行区漕宝路易•买得"},{"poiid":"B2094757D56CAAFD449C","title":"鸿润兴面馆","lon":"121.385271","lat":"31.144027","category":"68","category_name":"快餐厅","address":"闵行区龙茗路1256号"},{"poiid":"B2094757D06BA4FD479C","title":"金汇豪庭","lon":"121.37957","lat":"31.154713","category":"252","category_name":"楼宇机构","address":"上海市闵行区龙茗路2121弄"},{"poiid":"B2094757D16CA0FB439D","title":"永琪美容美发(龙茗店)","lon":"121.38230845","lat":"31.151716853","category":"148","category_name":"美容美发店","address":"闵行区龙茗路1713号(东兰路口)"},{"poiid":"B2094757D165ABFC4799","title":"龙茗路","lon":"121.381011857","lat":"31.1446962574","category":"500","category_name":"未知分类","address":"上海市闵行区星友路"},{"poiid":"B2094654DB6CA1FE429B","title":"东北美食坊","lon":"121.38271","lat":"31.15186","category":"82","category_name":"东北菜","address":"闵行区龙茗路1680号欧风新天地内(近东兰路)"},{"poiid":"B2094654DB6CA1FE419C","title":"指尖芭蕾造型坊","lon":"121.38259","lat":"31.15107","category":"148","category_name":"美容美发店","address":"龙茗路1661"},{"poiid":"B2094655D36CA6FB429E","title":"东兰路龙茗路","lon":"121.38112","lat":"31.15266","category":"38","category_name":"公交车站","address":""},{"poiid":"B2094654DB6CA1FD4099","title":"诺奇时装连锁","lon":"121.38304","lat":"31.14931","category":"141","category_name":"服装鞋帽皮具店","address":""},{"poiid":"B2094655D265A2F8479E","title":"九星苑(东二门)","lon":"121.38036","lat":"31.15176","category":"47","category_name":"住宅区","address":"东兰路349弄"},{"poiid":"B2094750D76DA7FA419A","title":"阿勇鲁肉饭(龙茗路店)","lon":"121.382","lat":"31.1542","category":"91","category_name":"台湾菜","address":"闵行区龙茗路1780号(近漕宝路)"},{"poiid":"B2094757D66FA1F54399","title":"好德便利(龙茗店)","lon":"121.38266","lat":"31.15153","category":"117","category_name":"便民商店/便利店","address":"闵行区龙茗路1695号(东兰路龙茗路)"},{"poiid":"B2094654DB6CA1FC489C","title":"车之翼(龙茗路)","lon":"121.38281","lat":"31.15011","category":"159","category_name":"汽车维修","address":""},{"poiid":"B2094757D069A2F44993","title":"肯德基 漕宝路店","lon":"121.377062","lat":"31.15776","category":"68","category_name":"快餐厅","address":"闵行区漕宝路1574号易买得购物中心1楼"},{"poiid":"B2094654DB6CA3F94899","title":"平吉一村龙茗公寓(东门)","lon":"121.38378","lat":"31.14699","category":"47","category_name":"住宅区","address":"古美路"},{"poiid":"B2094757D06EAAFF479D","title":"静安新城","lon":"121.38199615","lat":"31.156570434","category":"47","category_name":"住宅区","address":"上海漕宝路龙茗路"},{"poiid":"B2094757D06FA3F54393","title":"易买得(漕宝店)","lon":"121.37822047","lat":"31.156180865","category":"119","category_name":"商场","address":"闵行区虹莘路2988号漕宝购物中心B1楼(近漕宝路)"},{"poiid":"B2094750D26DA4FE449F","title":"捞王猪肚鸡 龙茗路店","lon":"121.3821856","lat":"31.1543499","category":"86","category_name":"火锅店","address":"闵行区龙茗路1939号(近漕宝路)"},{"poiid":"B2094757D66BA3F94898","title":"虾满堂手抓龙虾 龙茗路店","lon":"121.382276","lat":"31.153223","category":"68","category_name":"快餐厅","address":"闵行区龙茗路1658号(近东兰路)"},{"poiid":"B2094757D064A4FE459F","title":"必胜客(漕宝店)","lon":"121.38155144","lat":"31.1569728068","category":"94","category_name":"西餐厅","address":"闵行区龙茗路2131号(近漕宝路口)"},{"poiid":"B2094757D06FA1FC4199","title":"欧风花都","lon":"121.38541","lat":"31.15246","category":"47","category_name":"住宅区","address":"上海东兰路1111弄"},{"poiid":"B2094757D068A4F4479D","title":"蓝色港湾","lon":"121.3858","lat":"31.1476","category":"47","category_name":"住宅区","address":"上海龙茗路1458弄"},{"poiid":"B2094655D26AA6FE419A","title":"香满堂 龙茗路店","lon":"121.383073054","lat":"31.152290793","category":"68","category_name":"快餐厅","address":"闵行区龙茗路1662号欧风新天地内(近东兰路)"},{"poiid":"B2094757D069A3FC439A","title":"闵行九星市场","lon":"121.37886047","lat":"31.151998519","category":"249","category_name":"购物服务","address":"上海东兰西路虹莘路"},{"poiid":"B2094757D069A1FE439F","title":"果果宠物诊所","lon":"121.382719642","lat":"31.1520434455","category":"668","category_name":"诊所","address":"闵行区龙茗路1662号欧风新天地F区110室(近东兰路)"},{"poiid":"B2094655D36CA1FF489A","title":"龙茗路古龙路","lon":"121.38472","lat":"31.14469","category":"38","category_name":"公交车站","address":""},{"poiid":"B2094757D069A1FF4193","title":"新招鲜本地鸡窝 龙茗路店","lon":"121.382521054","lat":"31.154755793","category":"86","category_name":"火锅店","address":"闵行区龙茗路1927号(近漕宝路)"},{"poiid":"B2094757D06AA7F5479F","title":"古美高级中学羽毛球馆","lon":"121.383572856","lat":"31.1498091576","category":"253","category_name":"校园生活","address":"闵行区龙茗路1628号(近平南路)"},{"poiid":"B2094757D06AA5FC4498","title":"东兰雅苑","lon":"121.38109","lat":"31.151621","category":"500","category_name":"未知分类","address":"上海龙茗路1699弄"},{"poiid":"B2094757D66AA6F94192","title":"韩林炭烤 （五角场万达店）","lon":"121.37602","lat":"31.15786","category":"96","category_name":"韩国料理","address":"上海市杨浦区政通路189号 4F"},{"poiid":"B2094757D069A4F44899","title":"虾满堂","lon":"121.38660058","lat":"31.150679876","category":"500","category_name":"未知分类","address":"上海市闵行区龙茗路1658号(漕宝路)"},{"poiid":"B2094655D26FA5FC4398","title":"新时代富嘉花园","lon":"121.38657","lat":"31.144928","category":"47","category_name":"住宅区","address":"上海市普陀区新泉路66弄"},{"poiid":"B2094654DA65A0FF4098","title":"九星茶叶区","lon":"121.37708","lat":"31.14761","category":"117","category_name":"便民商店/便利店","address":""},{"poiid":"B2094757DA65A5FB469B","title":"莫泰168(上海九星店)(原龙茗路店)","lon":"121.383117","lat":"31.151157","category":"216","category_name":"经济型连锁酒店","address":"上海市闵行区龙茗路1650号(近东兰路)"},{"poiid":"B2094654DB64A1FC4098","title":"欧风新天地(龙茗路)","lon":"121.38282","lat":"31.15256","category":"119","category_name":"商场","address":"龙茗路1658-1680号"},{"poiid":"B2094757D164A7F8489D","title":"古美中心幼儿园","lon":"121.38158158","lat":"31.150279868","category":"57","category_name":"幼儿园","address":"闵行区东兰路1111弄欧风花都48号"},{"poiid":"B2094654DB6CA1FD409E","title":"上海市古美高级中学","lon":"121.38357","lat":"31.1498","category":"55","category_name":"中学","address":"龙茗路1628"},{"poiid":"B2094654DB6CA3FA459B","title":"平吉一村(南门)","lon":"121.3828","lat":"31.14497","category":"47","category_name":"住宅区","address":""},{"poiid":"B2094757D66BA4FE439E","title":"台湾永亨大鸡排 龙茗店","lon":"121.38259","lat":"31.15157","category":"68","category_name":"快餐厅","address":"闵行区龙茗路1687号(东兰路龙茗路)"},{"poiid":"B2094757D06AABFD4999","title":"超级鸡车(龙茗店)","lon":"121.382831","lat":"31.152566","category":"68","category_name":"快餐厅","address":"闵行区龙茗路1680号欧风新天地内(近东兰路)"},{"poiid":"B2094757D069A2FA4598","title":"巴黎贝甜(漕宝店)","lon":"121.37609","lat":"31.15785","category":"67","category_name":"甜品店","address":"闵行区漕宝路1574号易买得购物中心1楼(近虹莘路)"},{"poiid":"B2094751D369A3FF499F","title":"南亚湾休闲餐厅","lon":"121.38262","lat":"31.15232","category":"110","category_name":"其他亚洲菜","address":"闵行区龙茗路1670号-3(近东兰路)"},{"poiid":"B2094654DB6AA3FE479B","title":"川居易川菜馆 闵行店","lon":"121.383073054","lat":"31.152290793","category":"71","category_name":"四川菜","address":"闵行区龙茗路1662号欧风新天地(近东兰路)"},{"poiid":"B2094757D168A3FB429A","title":"九星苑","lon":"121.3811","lat":"31.150282","category":"252","category_name":"楼宇机构","address":"上海市闵行区星东路"},{"poiid":"B2094654DB6CA1FD409C","title":"好德No.248(龙茗路)","lon":"121.38299","lat":"31.14946","category":"117","category_name":"便民商店/便利店","address":""},{"poiid":"B2094655D26FA6FA4692","title":"和润家园","lon":"121.38148","lat":"31.15419","category":"47","category_name":"住宅区","address":"上海龙茗路1897弄"},{"poiid":"B2094757D46AABF8449B","title":"龙茗路大胡子烧烤","lon":"121.384584","lat":"31.145686","category":"269","category_name":"烧烤","address":"闵行区龙茗路1408号(近古龙路)"},{"poiid":"B2094654DB64AAF5429D","title":"光明便利No.J561","lon":"121.37966","lat":"31.1498","category":"117","category_name":"便民商店/便利店","address":"虹莘路19号房1-3号"},{"poiid":"B2094655D269AAFE4598","title":"紫燕百味鸡 龙茗路店","lon":"121.383073054","lat":"31.152290793","category":"68","category_name":"快餐厅","address":"闵行区龙茗路1680号欧风新天地内(近东兰路)"},{"poiid":"B2094654DB64A2F5499E","title":"克丽缇娜No.38120","lon":"121.38263","lat":"31.15079","category":"148","category_name":"美容美发店","address":""},{"poiid":"B2094757D16CA7F4489F","title":"大长今正宗韩国料理","lon":"121.378708586","lat":"31.1559649797","category":"247","category_name":"餐饮美食","address":"上海市闵行区漕宝路易•买得"},{"poiid":"B2094757D56CAAFD449C","title":"鸿润兴面馆","lon":"121.385271","lat":"31.144027","category":"68","category_name":"快餐厅","address":"闵行区龙茗路1256号"},{"poiid":"B2094757D06BA4FD479C","title":"金汇豪庭","lon":"121.37957","lat":"31.154713","category":"252","category_name":"楼宇机构","address":"上海市闵行区龙茗路2121弄"},{"poiid":"B2094757D16CA0FB439D","title":"永琪美容美发(龙茗店)","lon":"121.38230845","lat":"31.151716853","category":"148","category_name":"美容美发店","address":"闵行区龙茗路1713号(东兰路口)"},{"poiid":"B2094757D165ABFC4799","title":"龙茗路","lon":"121.381011857","lat":"31.1446962574","category":"500","category_name":"未知分类","address":"上海市闵行区星友路"},{"poiid":"B2094654DB6CA1FE429B","title":"东北美食坊","lon":"121.38271","lat":"31.15186","category":"82","category_name":"东北菜","address":"闵行区龙茗路1680号欧风新天地内(近东兰路)"},{"poiid":"B2094654DB6CA1FE419C","title":"指尖芭蕾造型坊","lon":"121.38259","lat":"31.15107","category":"148","category_name":"美容美发店","address":"龙茗路1661"},{"poiid":"B2094655D36CA6FB429E","title":"东兰路龙茗路","lon":"121.38112","lat":"31.15266","category":"38","category_name":"公交车站","address":""},{"poiid":"B2094654DB6CA1FD4099","title":"诺奇时装连锁","lon":"121.38304","lat":"31.14931","category":"141","category_name":"服装鞋帽皮具店","address":""},{"poiid":"B2094655D265A2F8479E","title":"九星苑(东二门)","lon":"121.38036","lat":"31.15176","category":"47","category_name":"住宅区","address":"东兰路349弄"},{"poiid":"B2094750D76DA7FA419A","title":"阿勇鲁肉饭(龙茗路店)","lon":"121.382","lat":"31.1542","category":"91","category_name":"台湾菜","address":"闵行区龙茗路1780号(近漕宝路)"},{"poiid":"B2094757D66FA1F54399","title":"好德便利(龙茗店)","lon":"121.38266","lat":"31.15153","category":"117","category_name":"便民商店/便利店","address":"闵行区龙茗路1695号(东兰路龙茗路)"},{"poiid":"B2094654DB6CA1FC489C","title":"车之翼(龙茗路)","lon":"121.38281","lat":"31.15011","category":"159","category_name":"汽车维修","address":""},{"poiid":"B2094757D069A2F44993","title":"肯德基 漕宝路店","lon":"121.377062","lat":"31.15776","category":"68","category_name":"快餐厅","address":"闵行区漕宝路1574号易买得购物中心1楼"},{"poiid":"B2094654DB6CA3F94899","title":"平吉一村龙茗公寓(东门)","lon":"121.38378","lat":"31.14699","category":"47","category_name":"住宅区","address":"古美路"},{"poiid":"B2094757D06EAAFF479D","title":"静安新城","lon":"121.38199615","lat":"31.156570434","category":"47","category_name":"住宅区","address":"上海漕宝路龙茗路"},{"poiid":"B2094757D06FA3F54393","title":"易买得(漕宝店)","lon":"121.37822047","lat":"31.156180865","category":"119","category_name":"商场","address":"闵行区虹莘路2988号漕宝购物中心B1楼(近漕宝路)"},{"poiid":"B2094750D26DA4FE449F","title":"捞王猪肚鸡 龙茗路店","lon":"121.3821856","lat":"31.1543499","category":"86","category_name":"火锅店","address":"闵行区龙茗路1939号(近漕宝路)"},{"poiid":"B2094757D66BA3F94898","title":"虾满堂手抓龙虾 龙茗路店","lon":"121.382276","lat":"31.153223","category":"68","category_name":"快餐厅","address":"闵行区龙茗路1658号(近东兰路)"},{"poiid":"B2094757D064A4FE459F","title":"必胜客(漕宝店)","lon":"121.38155144","lat":"31.1569728068","category":"94","category_name":"西餐厅","address":"闵行区龙茗路2131号(近漕宝路口)"},{"poiid":"B2094757D06FA1FC4199","title":"欧风花都","lon":"121.38541","lat":"31.15246","category":"47","category_name":"住宅区","address":"上海东兰路1111弄"},{"poiid":"B2094757D068A4F4479D","title":"蓝色港湾","lon":"121.3858","lat":"31.1476","category":"47","category_name":"住宅区","address":"上海龙茗路1458弄"},{"poiid":"B2094655D26AA6FE419A","title":"香满堂 龙茗路店","lon":"121.383073054","lat":"31.152290793","category":"68","category_name":"快餐厅","address":"闵行区龙茗路1662号欧风新天地内(近东兰路)"},{"poiid":"B2094757D069A3FC439A","title":"闵行九星市场","lon":"121.37886047","lat":"31.151998519","category":"249","category_name":"购物服务","address":"上海东兰西路虹莘路"},{"poiid":"B2094757D069A1FE439F","title":"果果宠物诊所","lon":"121.382719642","lat":"31.1520434455","category":"668","category_name":"诊所","address":"闵行区龙茗路1662号欧风新天地F区110室(近东兰路)"},{"poiid":"B2094655D36CA1FF489A","title":"龙茗路古龙路","lon":"121.38472","lat":"31.14469","category":"38","category_name":"公交车站","address":""},{"poiid":"B2094757D069A1FF4193","title":"新招鲜本地鸡窝 龙茗路店","lon":"121.382521054","lat":"31.154755793","category":"86","category_name":"火锅店","address":"闵行区龙茗路1927号(近漕宝路)"},{"poiid":"B2094757D06AA7F5479F","title":"古美高级中学羽毛球馆","lon":"121.383572856","lat":"31.1498091576","category":"253","category_name":"校园生活","address":"闵行区龙茗路1628号(近平南路)"},{"poiid":"B2094757D06AA5FC4498","title":"东兰雅苑","lon":"121.38109","lat":"31.151621","category":"500","category_name":"未知分类","address":"上海龙茗路1699弄"},{"poiid":"B2094757D66AA6F94192","title":"韩林炭烤 （五角场万达店）","lon":"121.37602","lat":"31.15786","category":"96","category_name":"韩国料理","address":"上海市杨浦区政通路189号 4F"},{"poiid":"B2094757D069A4F44899","title":"虾满堂","lon":"121.38660058","lat":"31.150679876","category":"500","category_name":"未知分类","address":"上海市闵行区龙茗路1658号(漕宝路)"},{"poiid":"B2094655D26FA5FC4398","title":"新时代富嘉花园","lon":"121.38657","lat":"31.144928","category":"47","category_name":"住宅区","address":"上海市普陀区新泉路66弄"},{"poiid":"B2094654DA65A0FF4098","title":"九星茶叶区","lon":"121.37708","lat":"31.14761","category":"117","category_name":"便民商店/便利店","address":""},{"poiid":"B2094757DA65A5FB469B","title":"莫泰168(上海九星店)(原龙茗路店)","lon":"121.383117","lat":"31.151157","category":"216","category_name":"经济型连锁酒店","address":"上海市闵行区龙茗路1650号(近东兰路)"},{"poiid":"B2094654DB64A1FC4098","title":"欧风新天地(龙茗路)","lon":"121.38282","lat":"31.15256","category":"119","category_name":"商场","address":"龙茗路1658-1680号"},{"poiid":"B2094757D164A7F8489D","title":"古美中心幼儿园","lon":"121.38158158","lat":"31.150279868","category":"57","category_name":"幼儿园","address":"闵行区东兰路1111弄欧风花都48号"},{"poiid":"B2094654DB6CA1FD409E","title":"上海市古美高级中学","lon":"121.38357","lat":"31.1498","category":"55","category_name":"中学","address":"龙茗路1628"},{"poiid":"B2094654DB6CA3FA459B","title":"平吉一村(南门)","lon":"121.3828","lat":"31.14497","category":"47","category_name":"住宅区","address":""},{"poiid":"B2094757D66BA4FE439E","title":"台湾永亨大鸡排 龙茗店","lon":"121.38259","lat":"31.15157","category":"68","category_name":"快餐厅","address":"闵行区龙茗路1687号(东兰路龙茗路)"},{"poiid":"B2094757D06AABFD4999","title":"超级鸡车(龙茗店)","lon":"121.382831","lat":"31.152566","category":"68","category_name":"快餐厅","address":"闵行区龙茗路1680号欧风新天地内(近东兰路)"},{"poiid":"B2094757D069A2FA4598","title":"巴黎贝甜(漕宝店)","lon":"121.37609","lat":"31.15785","category":"67","category_name":"甜品店","address":"闵行区漕宝路1574号易买得购物中心1楼(近虹莘路)"},{"poiid":"B2094751D369A3FF499F","title":"南亚湾休闲餐厅","lon":"121.38262","lat":"31.15232","category":"110","category_name":"其他亚洲菜","address":"闵行区龙茗路1670号-3(近东兰路)"},{"poiid":"B2094654DB6AA3FE479B","title":"川居易川菜馆 闵行店","lon":"121.383073054","lat":"31.152290793","category":"71","category_name":"四川菜","address":"闵行区龙茗路1662号欧风新天地(近东兰路)"},{"poiid":"B2094757D168A3FB429A","title":"九星苑","lon":"121.3811","lat":"31.150282","category":"252","category_name":"楼宇机构","address":"上海市闵行区星东路"},{"poiid":"B2094654DB6CA1FD409C","title":"好德No.248(龙茗路)","lon":"121.38299","lat":"31.14946","category":"117","category_name":"便民商店/便利店","address":""},{"poiid":"B2094655D26FA6FA4692","title":"和润家园","lon":"121.38148","lat":"31.15419","category":"47","category_name":"住宅区","address":"上海龙茗路1897弄"},{"poiid":"B2094757D46AABF8449B","title":"龙茗路大胡子烧烤","lon":"121.384584","lat":"31.145686","category":"269","category_name":"烧烤","address":"闵行区龙茗路1408号(近古龙路)"},{"poiid":"B2094654DB64AAF5429D","title":"光明便利No.J561","lon":"121.37966","lat":"31.1498","category":"117","category_name":"便民商店/便利店","address":"虹莘路19号房1-3号"},{"poiid":"B2094655D269AAFE4598","title":"紫燕百味鸡 龙茗路店","lon":"121.383073054","lat":"31.152290793","category":"68","category_name":"快餐厅","address":"闵行区龙茗路1680号欧风新天地内(近东兰路)"},{"poiid":"B2094654DB64A2F5499E","title":"克丽缇娜No.38120","lon":"121.38263","lat":"31.15079","category":"148","category_name":"美容美发店","address":""},{"poiid":"B2094757D16CA7F4489F","title":"大长今正宗韩国料理","lon":"121.378708586","lat":"31.1559649797","category":"247","category_name":"餐饮美食","address":"上海市闵行区漕宝路易•买得"},{"poiid":"B2094757D56CAAFD449C","title":"鸿润兴面馆","lon":"121.385271","lat":"31.144027","category":"68","category_name":"快餐厅","address":"闵行区龙茗路1256号"},{"poiid":"B2094757D06BA4FD479C","title":"金汇豪庭","lon":"121.37957","lat":"31.154713","category":"252","category_name":"楼宇机构","address":"上海市闵行区龙茗路2121弄"},{"poiid":"B2094757D16CA0FB439D","title":"永琪美容美发(龙茗店)","lon":"121.38230845","lat":"31.151716853","category":"148","category_name":"美容美发店","address":"闵行区龙茗路1713号(东兰路口)"},{"poiid":"B2094757D165ABFC4799","title":"龙茗路","lon":"121.381011857","lat":"31.1446962574","category":"500","category_name":"未知分类","address":"上海市闵行区星友路"},{"poiid":"B2094654DB6CA1FE429B","title":"东北美食坊","lon":"121.38271","lat":"31.15186","category":"82","category_name":"东北菜","address":"闵行区龙茗路1680号欧风新天地内(近东兰路)"},{"poiid":"B2094654DB6CA1FE419C","title":"指尖芭蕾造型坊","lon":"121.38259","lat":"31.15107","category":"148","category_name":"美容美发店","address":"龙茗路1661"},{"poiid":"B2094655D36CA6FB429E","title":"东兰路龙茗路","lon":"121.38112","lat":"31.15266","category":"38","category_name":"公交车站","address":""},{"poiid":"B2094654DB6CA1FD4099","title":"诺奇时装连锁","lon":"121.38304","lat":"31.14931","category":"141","category_name":"服装鞋帽皮具店","address":""},{"poiid":"B2094655D265A2F8479E","title":"九星苑(东二门)","lon":"121.38036","lat":"31.15176","category":"47","category_name":"住宅区","address":"东兰路349弄"},{"poiid":"B2094750D76DA7FA419A","title":"阿勇鲁肉饭(龙茗路店)","lon":"121.382","lat":"31.1542","category":"91","category_name":"台湾菜","address":"闵行区龙茗路1780号(近漕宝路)"},{"poiid":"B2094757D66FA1F54399","title":"好德便利(龙茗店)","lon":"121.38266","lat":"31.15153","category":"117","category_name":"便民商店/便利店","address":"闵行区龙茗路1695号(东兰路龙茗路)"},{"poiid":"B2094654DB6CA1FC489C","title":"车之翼(龙茗路)","lon":"121.38281","lat":"31.15011","category":"159","category_name":"汽车维修","address":""},{"poiid":"B2094757D069A2F44993","title":"肯德基 漕宝路店","lon":"121.377062","lat":"31.15776","category":"68","category_name":"快餐厅","address":"闵行区漕宝路1574号易买得购物中心1楼"},{"poiid":"B2094654DB6CA3F94899","title":"平吉一村龙茗公寓(东门)","lon":"121.38378","lat":"31.14699","category":"47","category_name":"住宅区","address":"古美路"}]