[{"poiid":"B2094655D268ABFC4692","title":"仲盛世界商城","lon":"121.394514","lat":"31.114042","category":"119","category_name":"商场","address":"上海闵行区都市路5001号(莘庄地铁站南广场)"},{"poiid":"B2094655D26AA0FA479A","title":"地铁外环路站","lon":"121.39286","lat":"31.12055","category":"36","category_name":"地铁站","address":""},{"poiid":"B2094757D06FA3F5429B","title":"莘庄立交桥","lon":"121.38985762","lat":"31.119303589","category":"260","category_name":"其他","address":"上海S20外环莘庄立交桥"},{"poiid":"B2094655D26BA2FE499C","title":"外环路地铁站","lon":"121.39309","lat":"31.12323","category":"36","category_name":"地铁站","address":""},{"poiid":"B2094757D068A3F9449C","title":"锦江乐园摩天轮","lon":"121.39376546","lat":"31.115948008","category":"195","category_name":"游乐场","address":"上海闵行区虹梅路201号锦江乐园内"},{"poiid":"B2094757D06FA3FD4898","title":"上海映象阳城","lon":"121.39856111","lat":"31.121533659","category":"47","category_name":"住宅区","address":"上海映象(二期)位于闵行罗锦路888弄"},{"poiid":"B2094654DB6CA3FB4399","title":"上海市西南工程学校(梅陇西路)","lon":"121.39411","lat":"31.11976","category":"54","category_name":"职业技术学校","address":"闵行区梅陇西路1566号(近罗锦路)"},{"poiid":"B2094757D165A1F54893","title":"绿地科技岛","lon":"121.39573209529","lat":"31.11807358381","category":"249","category_name":"购物服务","address":"闵行区广通路18号(莘建东路口)"},{"poiid":"B2094757D068A3FD489A","title":"莘城公寓","lon":"121.39272","lat":"31.10881","category":"252","category_name":"楼宇机构","address":"莘城公寓位于闵行宝城路158弄(近莘朱路)"},{"poiid":"B2094757D16CA1FB419F","title":"江南名邸","lon":"121.39625","lat":"31.108831","category":"47","category_name":"住宅区","address":"上海市闵行区高兴路666弄"},{"poiid":"B2094757D068A1FA4693","title":"绿地蓝海","lon":"121.394","lat":"31.1219","category":"119","category_name":"商场","address":"闵行区莘建东路(近莘庄北广场)"},{"poiid":"B2094757D068A5FC459F","title":"红宝石(宝城路店)","lon":"121.39093","lat":"31.11005","category":"67","category_name":"甜品店","address":"闵行区宝城路456号(莘朱路口)"},{"poiid":"B2094654DA65A4FB499C","title":"美泉宫浴场","lon":"121.39096","lat":"31.12196","category":"149","category_name":"洗浴推拿场所","address":"闵行区龙茗路25号(近沪闵路)"},{"poiid":"B2094757D069A0FB4792","title":"塔哈尔-新疆盛宴(莘庄店)","lon":"121.38962","lat":"31.11328","category":"90","category_name":"清真餐馆","address":"闵行区梅陇西路2094号(近莘庄地铁南广场)"},{"poiid":"B2094654DB69A5FF439B","title":"莫泰168连锁旅店(畹町路店)","lon":"121.39817","lat":"31.11209","category":"216","category_name":"经济型连锁酒店","address":"闵行区畹町路479号(近春申路)"},{"poiid":"B2094757D068A0F9429E","title":"上海阳城","lon":"121.3962","lat":"31.120998","category":"47","category_name":"住宅区","address":"上海闵行区罗锦路888弄(近梅陇西路)"},{"poiid":"B2094757D068A6FC449F","title":"莘南花苑","lon":"121.403","lat":"31.1167","category":"47","category_name":"住宅区","address":"上海闵行区莘吉路畹町路"},{"poiid":"B2094654DB6CAAF84593","title":"中城绿苑·西苑","lon":"121.40098","lat":"31.11277","category":"47","category_name":"住宅区","address":"上海闵行区伟业路621弄"},{"poiid":"B2094757D06FA5F8439D","title":"三洲花园","lon":"121.3972668","lat":"31.122852936","category":"47","category_name":"住宅区","address":"上海罗阳路800弄"},{"poiid":"B2094750D269A1F9419A","title":"芋贵人甜品店 莘庄龙之梦店","lon":"121.39147996902","lat":"31.122192759554","category":"67","category_name":"甜品店","address":"闵行区沪闵路6088号莘庄龙之梦购物中心B2楼52号商铺(近莘建路)"},{"poiid":"B2094757D569A6FA479E","title":"名都新城四期","lon":"121.398","lat":"31.1148","category":"47","category_name":"住宅区","address":"上海市闵行区友情路50弄"},{"poiid":"B2094750D66BAAF5459D","title":"塔哈尔羊蝎子火锅","lon":"121.396","lat":"31.1121","category":"86","category_name":"火锅店","address":"闵行区莘朱路751号(近莘吉路)"},{"poiid":"B2094655D264A0FB419C","title":"东苑利景花苑二期","lon":"121.396577","lat":"31.117612","category":"47","category_name":"住宅区","address":"上海市卢湾区徐家汇路515弄"},{"poiid":"B2094757D068ABFE449C","title":"中祥哥德堡","lon":"121.392587","lat":"31.109343","category":"500","category_name":"未知分类","address":"中祥哥德堡位于闵行珠城路99弄"},{"poiid":"B2094753D46FAAFA479C","title":"热带风暴","lon":"121.393112","lat":"31.113943","category":"247","category_name":"餐饮美食","address":"上海市 闵行区"},{"poiid":"B2094655D265A1FA4398","title":"东苑利景花苑三期","lon":"121.398372","lat":"31.116849","category":"47","category_name":"住宅区","address":"上海市闵行区宝城路500号"},{"poiid":"B2094655D36DA6FC449B","title":"畹町路","lon":"121.39903","lat":"31.11112","category":"38","category_name":"公交车站","address":""},{"poiid":"B2094654DB6CA4F8439E","title":"行西村西片二区私营民营企业工业小区","lon":"121.397","lat":"31.11547","category":"47","category_name":"住宅区","address":""},{"poiid":"B2094757D068ABFF4892","title":"塞纳左岸","lon":"121.389952","lat":"31.111849","category":"47","category_name":"住宅区","address":"塞纳左岸(二期)位于闵行宝城路500弄"},{"poiid":"B2094757D66CABFC439D","title":"蜀怡浓酒家","lon":"121.395901054","lat":"31.111994793","category":"71","category_name":"四川菜","address":"闵行区莘朱路763号(近畹町路)"},{"poiid":"B2094655D268A2FF419C","title":"福家小菜","lon":"121.397","lat":"31.11234","category":"76","category_name":"上海菜","address":"闵行区莘朱路775号(近畹町路)"},{"poiid":"B2094757D66DA3FD459F","title":"a20外环高速莲花南路出口","lon":"121.393503017","lat":"31.1182181168","category":"500","category_name":"未知分类","address":"上海a20外环高速莲花南路出口"},{"poiid":"B2094655D26FA3FB4092","title":"中城绿苑东苑","lon":"121.40235","lat":"31.11334","category":"47","category_name":"住宅区","address":"上海市闵行区伟业路620弄"},{"poiid":"B2094757D16CA6FD4498","title":"吉乃川","lon":"121.38842","lat":"31.11169","category":"95","category_name":"日本料理","address":"闵行区梅陇西路2072号(近莘庄地铁南广场)"},{"poiid":"B2094757D068A1FF409A","title":"品家都市星城","lon":"121.39611682655","lat":"31.108100694837","category":"500","category_name":"未知分类","address":"上海闵行区富都路111弄"},{"poiid":"B2094654DB6CAAF8479B","title":"莘南花苑商办楼","lon":"121.39706","lat":"31.11237","category":"46","category_name":"楼宇","address":"莘朱路779"},{"poiid":"B2094655D26EA5F9479B","title":"汤家巷小区","lon":"121.39954","lat":"31.11684","category":"47","category_name":"住宅区","address":""},{"poiid":"B2094654DB6CA4F8419D","title":"行西村西片一区私营民营企业工业小区","lon":"121.39764","lat":"31.11389","category":"47","category_name":"住宅区","address":"莘朱路816弄10号"},{"poiid":"B2094757D66BA3F8459B","title":"新湘驿湘菜馆","lon":"121.391231","lat":"31.110395","category":"77","category_name":"湖南菜","address":"闵行区莘朱路470号(近宝城路)"},{"poiid":"B2094655D265A0FE4099","title":"春申大厦","lon":"121.397763","lat":"31.107486","category":"46","category_name":"楼宇","address":"上海市闵行区春申路3555号"},{"poiid":"B2094655D36DA7F4409F","title":"莘朱路莘吉路","lon":"121.39631","lat":"31.11231","category":"38","category_name":"公交车站","address":""},{"poiid":"B2094654DB6CA4FE4492","title":"快客No.6437","lon":"121.39606","lat":"31.11237","category":"117","category_name":"便民商店/便利店","address":"莘朱路739号"},{"poiid":"B2094757D16DA6FC409D","title":"和禾烧烤","lon":"121.39433","lat":"31.12245","category":"68","category_name":"快餐厅","address":"闵行区罗锦路939号4号门(近梅陇西路)"},{"poiid":"B2094655D36DA6FE479A","title":"外环路","lon":"121.39286","lat":"31.12055","category":"38","category_name":"公交车站","address":""},{"poiid":"B2094654DB6CAAF94098","title":"上海市高兴实验学校","lon":"121.40003","lat":"31.11116","category":"55","category_name":"中学","address":"高兴路389"},{"poiid":"B2094655D26BA6F54198","title":"重庆鸡公煲 罗锦路店","lon":"121.40362","lat":"31.1213","category":"71","category_name":"四川菜","address":"闵行区罗锦路750弄7-2号(近一号线外环路站)"},{"poiid":"B2094654DB6CAAFF499A","title":"新空间家园","lon":"121.3947","lat":"31.110685","category":"47","category_name":"住宅区","address":"上海市闵行区莘朱路651弄"},{"poiid":"B2094655D268A2F44598","title":"静安面包房(罗锦路)","lon":"121.40044","lat":"31.12188","category":"112","category_name":"糕饼店","address":"闵行区罗锦路(莲花南路罗锦路)"},{"poiid":"B2094655D26EA2F4489C","title":"常兴家园","lon":"121.39986","lat":"31.112307","category":"47","category_name":"住宅区","address":"莘朱路851弄"},{"poiid":"B2094654DB6CAAFF4992","title":"莘南花园一村(2号门)","lon":"121.39698","lat":"31.11111","category":"47","category_name":"住宅区","address":""},{"poiid":"B2094655D268ABFC4692","title":"仲盛世界商城","lon":"121.394514","lat":"31.114042","category":"119","category_name":"商场","address":"上海闵行区都市路5001号(莘庄地铁站南广场)"},{"poiid":"B2094655D26AA0FA479A","title":"地铁外环路站","lon":"121.39286","lat":"31.12055","category":"36","category_name":"地铁站","address":""},{"poiid":"B2094757D06FA3F5429B","title":"莘庄立交桥","lon":"121.38985762","lat":"31.119303589","category":"260","category_name":"其他","address":"上海S20外环莘庄立交桥"},{"poiid":"B2094655D26BA2FE499C","title":"外环路地铁站","lon":"121.39309","lat":"31.12323","category":"36","category_name":"地铁站","address":""},{"poiid":"B2094757D068A3F9449C","title":"锦江乐园摩天轮","lon":"121.39376546","lat":"31.115948008","category":"195","category_name":"游乐场","address":"上海闵行区虹梅路201号锦江乐园内"},{"poiid":"B2094757D06FA3FD4898","title":"上海映象阳城","lon":"121.39856111","lat":"31.121533659","category":"47","category_name":"住宅区","address":"上海映象(二期)位于闵行罗锦路888弄"},{"poiid":"B2094654DB6CA3FB4399","title":"上海市西南工程学校(梅陇西路)","lon":"121.39411","lat":"31.11976","category":"54","category_name":"职业技术学校","address":"闵行区梅陇西路1566号(近罗锦路)"},{"poiid":"B2094757D165A1F54893","title":"绿地科技岛","lon":"121.39573209529","lat":"31.11807358381","category":"249","category_name":"购物服务","address":"闵行区广通路18号(莘建东路口)"},{"poiid":"B2094757D068A3FD489A","title":"莘城公寓","lon":"121.39272","lat":"31.10881","category":"252","category_name":"楼宇机构","address":"莘城公寓位于闵行宝城路158弄(近莘朱路)"},{"poiid":"B2094757D16CA1FB419F","title":"江南名邸","lon":"121.39625","lat":"31.108831","category":"47","category_name":"住宅区","address":"上海市闵行区高兴路666弄"},{"poiid":"B2094757D068A1FA4693","title":"绿地蓝海","lon":"121.394","lat":"31.1219","category":"119","category_name":"商场","address":"闵行区莘建东路(近莘庄北广场)"},{"poiid":"B2094757D068A5FC459F","title":"红宝石(宝城路店)","lon":"121.39093","lat":"31.11005","category":"67","category_name":"甜品店","address":"闵行区宝城路456号(莘朱路口)"},{"poiid":"B2094654DA65A4FB499C","title":"美泉宫浴场","lon":"121.39096","lat":"31.12196","category":"149","category_name":"洗浴推拿场所","address":"闵行区龙茗路25号(近沪闵路)"},{"poiid":"B2094757D069A0FB4792","title":"塔哈尔-新疆盛宴(莘庄店)","lon":"121.38962","lat":"31.11328","category":"90","category_name":"清真餐馆","address":"闵行区梅陇西路2094号(近莘庄地铁南广场)"},{"poiid":"B2094654DB69A5FF439B","title":"莫泰168连锁旅店(畹町路店)","lon":"121.39817","lat":"31.11209","category":"216","category_name":"经济型连锁酒店","address":"闵行区畹町路479号(近春申路)"},{"poiid":"B2094757D068A0F9429E","title":"上海阳城","lon":"121.3962","lat":"31.120998","category":"47","category_name":"住宅区","address":"上海闵行区罗锦路888弄(近梅陇西路)"},{"poiid":"B2094757D068A6FC449F","title":"莘南花苑","lon":"121.403","lat":"31.1167","category":"47","category_name":"住宅区","address":"上海闵行区莘吉路畹町路"},{"poiid":"B2094654DB6CAAF84593","title":"中城绿苑·西苑","lon":"121.40098","lat":"31.11277","category":"47","category_name":"住宅区","address":"上海闵行区伟业路621弄"},{"poiid":"B2094757D06FA5F8439D","title":"三洲花园","lon":"121.3972668","lat":"31.122852936","category":"47","category_name":"住宅区","address":"上海罗阳路800弄"},{"poiid":"B2094750D269A1F9419A","title":"芋贵人甜品店 莘庄龙之梦店","lon":"121.39147996902","lat":"31.122192759554","category":"67","category_name":"甜品店","address":"闵行区沪闵路6088号莘庄龙之梦购物中心B2楼52号商铺(近莘建路)"},{"poiid":"B2094757D569A6FA479E","title":"名都新城四期","lon":"121.398","lat":"31.1148","category":"47","category_name":"住宅区","address":"上海市闵行区友情路50弄"},{"poiid":"B2094750D66BAAF5459D","title":"塔哈尔羊蝎子火锅","lon":"121.396","lat":"31.1121","category":"86","category_name":"火锅店","address":"闵行区莘朱路751号(近莘吉路)"},{"poiid":"B2094655D264A0FB419C","title":"东苑利景花苑二期","lon":"121.396577","lat":"31.117612","category":"47","category_name":"住宅区","address":"上海市卢湾区徐家汇路515弄"},{"poiid":"B2094757D068ABFE449C","title":"中祥哥德堡","lon":"121.392587","lat":"31.109343","category":"500","category_name":"未知分类","address":"中祥哥德堡位于闵行珠城路99弄"},{"poiid":"B2094753D46FAAFA479C","title":"热带风暴","lon":"121.393112","lat":"31.113943","category":"247","category_name":"餐饮美食","address":"上海市 闵行区"},{"poiid":"B2094655D265A1FA4398","title":"东苑利景花苑三期","lon":"121.398372","lat":"31.116849","category":"47","category_name":"住宅区","address":"上海市闵行区宝城路500号"},{"poiid":"B2094655D36DA6FC449B","title":"畹町路","lon":"121.39903","lat":"31.11112","category":"38","category_name":"公交车站","address":""},{"poiid":"B2094654DB6CA4F8439E","title":"行西村西片二区私营民营企业工业小区","lon":"121.397","lat":"31.11547","category":"47","category_name":"住宅区","address":""},{"poiid":"B2094757D068ABFF4892","title":"塞纳左岸","lon":"121.389952","lat":"31.111849","category":"47","category_name":"住宅区","address":"塞纳左岸(二期)位于闵行宝城路500弄"},{"poiid":"B2094757D66CABFC439D","title":"蜀怡浓酒家","lon":"121.395901054","lat":"31.111994793","category":"71","category_name":"四川菜","address":"闵行区莘朱路763号(近畹町路)"},{"poiid":"B2094655D268A2FF419C","title":"福家小菜","lon":"121.397","lat":"31.11234","category":"76","category_name":"上海菜","address":"闵行区莘朱路775号(近畹町路)"},{"poiid":"B2094757D66DA3FD459F","title":"a20外环高速莲花南路出口","lon":"121.393503017","lat":"31.1182181168","category":"500","category_name":"未知分类","address":"上海a20外环高速莲花南路出口"},{"poiid":"B2094655D26FA3FB4092","title":"中城绿苑东苑","lon":"121.40235","lat":"31.11334","category":"47","category_name":"住宅区","address":"上海市闵行区伟业路620弄"},{"poiid":"B2094757D16CA6FD4498","title":"吉乃川","lon":"121.38842","lat":"31.11169","category":"95","category_name":"日本料理","address":"闵行区梅陇西路2072号(近莘庄地铁南广场)"},{"poiid":"B2094757D068A1FF409A","title":"品家都市星城","lon":"121.39611682655","lat":"31.108100694837","category":"500","category_name":"未知分类","address":"上海闵行区富都路111弄"},{"poiid":"B2094654DB6CAAF8479B","title":"莘南花苑商办楼","lon":"121.39706","lat":"31.11237","category":"46","category_name":"楼宇","address":"莘朱路779"},{"poiid":"B2094655D26EA5F9479B","title":"汤家巷小区","lon":"121.39954","lat":"31.11684","category":"47","category_name":"住宅区","address":""},{"poiid":"B2094654DB6CA4F8419D","title":"行西村西片一区私营民营企业工业小区","lon":"121.39764","lat":"31.11389","category":"47","category_name":"住宅区","address":"莘朱路816弄10号"},{"poiid":"B2094757D66BA3F8459B","title":"新湘驿湘菜馆","lon":"121.391231","lat":"31.110395","category":"77","category_name":"湖南菜","address":"闵行区莘朱路470号(近宝城路)"},{"poiid":"B2094655D265A0FE4099","title":"春申大厦","lon":"121.397763","lat":"31.107486","category":"46","category_name":"楼宇","address":"上海市闵行区春申路3555号"},{"poiid":"B2094655D36DA7F4409F","title":"莘朱路莘吉路","lon":"121.39631","lat":"31.11231","category":"38","category_name":"公交车站","address":""},{"poiid":"B2094654DB6CA4FE4492","title":"快客No.6437","lon":"121.39606","lat":"31.11237","category":"117","category_name":"便民商店/便利店","address":"莘朱路739号"},{"poiid":"B2094757D16DA6FC409D","title":"和禾烧烤","lon":"121.39433","lat":"31.12245","category":"68","category_name":"快餐厅","address":"闵行区罗锦路939号4号门(近梅陇西路)"},{"poiid":"B2094655D36DA6FE479A","title":"外环路","lon":"121.39286","lat":"31.12055","category":"38","category_name":"公交车站","address":""},{"poiid":"B2094654DB6CAAF94098","title":"上海市高兴实验学校","lon":"121.40003","lat":"31.11116","category":"55","category_name":"中学","address":"高兴路389"},{"poiid":"B2094655D26BA6F54198","title":"重庆鸡公煲 罗锦路店","lon":"121.40362","lat":"31.1213","category":"71","category_name":"四川菜","address":"闵行区罗锦路750弄7-2号(近一号线外环路站)"},{"poiid":"B2094654DB6CAAFF499A","title":"新空间家园","lon":"121.3947","lat":"31.110685","category":"47","category_name":"住宅区","address":"上海市闵行区莘朱路651弄"},{"poiid":"B2094655D268A2F44598","title":"静安面包房(罗锦路)","lon":"121.40044","lat":"31.12188","category":"112","category_name":"糕饼店","address":"闵行区罗锦路(莲花南路罗锦路)"},{"poiid":"B2094655D26EA2F4489C","title":"常兴家园","lon":"121.39986","lat":"31.112307","category":"47","category_name":"住宅区","address":"莘朱路851弄"},{"poiid":"B2094654DB6CAAFF4992","title":"莘南花园一村(2号门)","lon":"121.39698","lat":"31.11111","category":"47","category_name":"住宅区","address":""},{"poiid":"B2094655D268ABFC4692","title":"仲盛世界商城","lon":"121.394514","lat":"31.114042","category":"119","category_name":"商场","address":"上海闵行区都市路5001号(莘庄地铁站南广场)"},{"poiid":"B2094655D26AA0FA479A","title":"地铁外环路站","lon":"121.39286","lat":"31.12055","category":"36","category_name":"地铁站","address":""},{"poiid":"B2094757D06FA3F5429B","title":"莘庄立交桥","lon":"121.38985762","lat":"31.119303589","category":"260","category_name":"其他","address":"上海S20外环莘庄立交桥"},{"poiid":"B2094655D26BA2FE499C","title":"外环路地铁站","lon":"121.39309","lat":"31.12323","category":"36","category_name":"地铁站","address":""},{"poiid":"B2094757D068A3F9449C","title":"锦江乐园摩天轮","lon":"121.39376546","lat":"31.115948008","category":"195","category_name":"游乐场","address":"上海闵行区虹梅路201号锦江乐园内"},{"poiid":"B2094757D06FA3FD4898","title":"上海映象阳城","lon":"121.39856111","lat":"31.121533659","category":"47","category_name":"住宅区","address":"上海映象(二期)位于闵行罗锦路888弄"},{"poiid":"B2094654DB6CA3FB4399","title":"上海市西南工程学校(梅陇西路)","lon":"121.39411","lat":"31.11976","category":"54","category_name":"职业技术学校","address":"闵行区梅陇西路1566号(近罗锦路)"},{"poiid":"B2094757D165A1F54893","title":"绿地科技岛","lon":"121.39573209529","lat":"31.11807358381","category":"249","category_name":"购物服务","address":"闵行区广通路18号(莘建东路口)"},{"poiid":"B2094757D068A3FD489A","title":"莘城公寓","lon":"121.39272","lat":"31.10881","category":"252","category_name":"楼宇机构","address":"莘城公寓位于闵行宝城路158弄(近莘朱路)"},{"poiid":"B2094757D16CA1FB419F","title":"江南名邸","lon":"121.39625","lat":"31.108831","category":"47","category_name":"住宅区","address":"上海市闵行区高兴路666弄"},{"poiid":"B2094757D068A1FA4693","title":"绿地蓝海","lon":"121.394","lat":"31.1219","category":"119","category_name":"商场","address":"闵行区莘建东路(近莘庄北广场)"},{"poiid":"B2094757D068A5FC459F","title":"红宝石(宝城路店)","lon":"121.39093","lat":"31.11005","category":"67","category_name":"甜品店","address":"闵行区宝城路456号(莘朱路口)"},{"poiid":"B2094654DA65A4FB499C","title":"美泉宫浴场","lon":"121.39096","lat":"31.12196","category":"149","category_name":"洗浴推拿场所","address":"闵行区龙茗路25号(近沪闵路)"},{"poiid":"B2094757D069A0FB4792","title":"塔哈尔-新疆盛宴(莘庄店)","lon":"121.38962","lat":"31.11328","category":"90","category_name":"清真餐馆","address":"闵行区梅陇西路2094号(近莘庄地铁南广场)"},{"poiid":"B2094654DB69A5FF439B","title":"莫泰168连锁旅店(畹町路店)","lon":"121.39817","lat":"31.11209","category":"216","category_name":"经济型连锁酒店","address":"闵行区畹町路479号(近春申路)"},{"poiid":"B2094757D068A0F9429E","title":"上海阳城","lon":"121.3962","lat":"31.120998","category":"47","category_name":"住宅区","address":"上海闵行区罗锦路888弄(近梅陇西路)"},{"poiid":"B2094757D068A6FC449F","title":"莘南花苑","lon":"121.403","lat":"31.1167","category":"47","category_name":"住宅区","address":"上海闵行区莘吉路畹町路"},{"poiid":"B2094654DB6CAAF84593","title":"中城绿苑·西苑","lon":"121.40098","lat":"31.11277","category":"47","category_name":"住宅区","address":"上海闵行区伟业路621弄"},{"poiid":"B2094757D06FA5F8439D","title":"三洲花园","lon":"121.3972668","lat":"31.122852936","category":"47","category_name":"住宅区","address":"上海罗阳路800弄"},{"poiid":"B2094750D269A1F9419A","title":"芋贵人甜品店 莘庄龙之梦店","lon":"121.39147996902","lat":"31.122192759554","category":"67","category_name":"甜品店","address":"闵行区沪闵路6088号莘庄龙之梦购物中心B2楼52号商铺(近莘建路)"},{"poiid":"B2094757D569A6FA479E","title":"名都新城四期","lon":"121.398","lat":"31.1148","category":"47","category_name":"住宅区","address":"上海市闵行区友情路50弄"},{"poiid":"B2094750D66BAAF5459D","title":"塔哈尔羊蝎子火锅","lon":"121.396","lat":"31.1121","category":"86","category_name":"火锅店","address":"闵行区莘朱路751号(近莘吉路)"},{"poiid":"B2094655D264A0FB419C","title":"东苑利景花苑二期","lon":"121.396577","lat":"31.117612","category":"47","category_name":"住宅区","address":"上海市卢湾区徐家汇路515弄"},{"poiid":"B2094757D068ABFE449C","title":"中祥哥德堡","lon":"121.392587","lat":"31.109343","category":"500","category_name":"未知分类","address":"中祥哥德堡位于闵行珠城路99弄"},{"poiid":"B2094753D46FAAFA479C","title":"热带风暴","lon":"121.393112","lat":"31.113943","category":"247","category_name":"餐饮美食","address":"上海市 闵行区"},{"poiid":"B2094655D265A1FA4398","title":"东苑利景花苑三期","lon":"121.398372","lat":"31.116849","category":"47","category_name":"住宅区","address":"上海市闵行区宝城路500号"},{"poiid":"B2094655D36DA6FC449B","title":"畹町路","lon":"121.39903","lat":"31.11112","category":"38","category_name":"公交车站","address":""},{"poiid":"B2094654DB6CA4F8439E","title":"行西村西片二区私营民营企业工业小区","lon":"121.397","lat":"31.11547","category":"47","category_name":"住宅区","address":""},{"poiid":"B2094757D068ABFF4892","title":"塞纳左岸","lon":"121.389952","lat":"31.111849","category":"47","category_name":"住宅区","address":"塞纳左岸(二期)位于闵行宝城路500弄"},{"poiid":"B2094757D66CABFC439D","title":"蜀怡浓酒家","lon":"121.395901054","lat":"31.111994793","category":"71","category_name":"四川菜","address":"闵行区莘朱路763号(近畹町路)"},{"poiid":"B2094655D268A2FF419C","title":"福家小菜","lon":"121.397","lat":"31.11234","category":"76","category_name":"上海菜","address":"闵行区莘朱路775号(近畹町路)"},{"poiid":"B2094757D66DA3FD459F","title":"a20外环高速莲花南路出口","lon":"121.393503017","lat":"31.1182181168","category":"500","category_name":"未知分类","address":"上海a20外环高速莲花南路出口"},{"poiid":"B2094655D26FA3FB4092","title":"中城绿苑东苑","lon":"121.40235","lat":"31.11334","category":"47","category_name":"住宅区","address":"上海市闵行区伟业路620弄"},{"poiid":"B2094757D16CA6FD4498","title":"吉乃川","lon":"121.38842","lat":"31.11169","category":"95","category_name":"日本料理","address":"闵行区梅陇西路2072号(近莘庄地铁南广场)"},{"poiid":"B2094757D068A1FF409A","title":"品家都市星城","lon":"121.39611682655","lat":"31.108100694837","category":"500","category_name":"未知分类","address":"上海闵行区富都路111弄"},{"poiid":"B2094654DB6CAAF8479B","title":"莘南花苑商办楼","lon":"121.39706","lat":"31.11237","category":"46","category_name":"楼宇","address":"莘朱路779"},{"poiid":"B2094655D26EA5F9479B","title":"汤家巷小区","lon":"121.39954","lat":"31.11684","category":"47","category_name":"住宅区","address":""},{"poiid":"B2094654DB6CA4F8419D","title":"行西村西片一区私营民营企业工业小区","lon":"121.39764","lat":"31.11389","category":"47","category_name":"住宅区","address":"莘朱路816弄10号"},{"poiid":"B2094757D66BA3F8459B","title":"新湘驿湘菜馆","lon":"121.391231","lat":"31.110395","category":"77","category_name":"湖南菜","address":"闵行区莘朱路470号(近宝城路)"},{"poiid":"B2094655D265A0FE4099","title":"春申大厦","lon":"121.397763","lat":"31.107486","category":"46","category_name":"楼宇","address":"上海市闵行区春申路3555号"},{"poiid":"B2094655D36DA7F4409F","title":"莘朱路莘吉路","lon":"121.39631","lat":"31.11231","category":"38","category_name":"公交车站","address":""},{"poiid":"B2094654DB6CA4FE4492","title":"快客No.6437","lon":"121.39606","lat":"31.11237","category":"117","category_name":"便民商店/便利店","address":"莘朱路739号"},{"poiid":"B2094757D16DA6FC409D","title":"和禾烧烤","lon":"121.39433","lat":"31.12245","category":"68","category_name":"快餐厅","address":"闵行区罗锦路939号4号门(近梅陇西路)"},{"poiid":"B2094655D36DA6FE479A","title":"外环路","lon":"121.39286","lat":"31.12055","category":"38","category_name":"公交车站","address":""},{"poiid":"B2094654DB6CAAF94098","title":"上海市高兴实验学校","lon":"121.40003","lat":"31.11116","category":"55","category_name":"中学","address":"高兴路389"},{"poiid":"B2094655D26BA6F54198","title":"重庆鸡公煲 罗锦路店","lon":"121.40362","lat":"31.1213","category":"71","category_name":"四川菜","address":"闵行区罗锦路750弄7-2号(近一号线外环路站)"},{"poiid":"B2094654DB6CAAFF499A","title":"新空间家园","lon":"121.3947","lat":"31.110685","category":"47","category_name":"住宅区","address":"上海市闵行区莘朱路651弄"},{"poiid":"B2094655D268A2F44598","title":"静安面包房(罗锦路)","lon":"121.40044","lat":"31.12188","category":"112","category_name":"糕饼店","address":"闵行区罗锦路(莲花南路罗锦路)"},{"poiid":"B2094655D26EA2F4489C","title":"常兴家园","lon":"121.39986","lat":"31.112307","category":"47","category_name":"住宅区","address":"莘朱路851弄"},{"poiid":"B2094654DB6CAAFF4992","title":"莘南花园一村(2号门)","lon":"121.39698","lat":"31.11111","category":"47","category_name":"住宅区","address":""},{"poiid":"B2094655D268ABFC4692","title":"仲盛世界商城","lon":"121.394514","lat":"31.114042","category":"119","category_name":"商场","address":"上海闵行区都市路5001号(莘庄地铁站南广场)"},{"poiid":"B2094655D26AA0FA479A","title":"地铁外环路站","lon":"121.39286","lat":"31.12055","category":"36","category_name":"地铁站","address":""},{"poiid":"B2094757D06FA3F5429B","title":"莘庄立交桥","lon":"121.38985762","lat":"31.119303589","category":"260","category_name":"其他","address":"上海S20外环莘庄立交桥"},{"poiid":"B2094655D26BA2FE499C","title":"外环路地铁站","lon":"121.39309","lat":"31.12323","category":"36","category_name":"地铁站","address":""},{"poiid":"B2094757D068A3F9449C","title":"锦江乐园摩天轮","lon":"121.39376546","lat":"31.115948008","category":"195","category_name":"游乐场","address":"上海闵行区虹梅路201号锦江乐园内"},{"poiid":"B2094757D06FA3FD4898","title":"上海映象阳城","lon":"121.39856111","lat":"31.121533659","category":"47","category_name":"住宅区","address":"上海映象(二期)位于闵行罗锦路888弄"},{"poiid":"B2094654DB6CA3FB4399","title":"上海市西南工程学校(梅陇西路)","lon":"121.39411","lat":"31.11976","category":"54","category_name":"职业技术学校","address":"闵行区梅陇西路1566号(近罗锦路)"},{"poiid":"B2094757D165A1F54893","title":"绿地科技岛","lon":"121.39573209529","lat":"31.11807358381","category":"249","category_name":"购物服务","address":"闵行区广通路18号(莘建东路口)"},{"poiid":"B2094757D068A3FD489A","title":"莘城公寓","lon":"121.39272","lat":"31.10881","category":"252","category_name":"楼宇机构","address":"莘城公寓位于闵行宝城路158弄(近莘朱路)"},{"poiid":"B2094757D16CA1FB419F","title":"江南名邸","lon":"121.39625","lat":"31.108831","category":"47","category_name":"住宅区","address":"上海市闵行区高兴路666弄"},{"poiid":"B2094757D068A1FA4693","title":"绿地蓝海","lon":"121.394","lat":"31.1219","category":"119","category_name":"商场","address":"闵行区莘建东路(近莘庄北广场)"},{"poiid":"B2094757D068A5FC459F","title":"红宝石(宝城路店)","lon":"121.39093","lat":"31.11005","category":"67","category_name":"甜品店","address":"闵行区宝城路456号(莘朱路口)"},{"poiid":"B2094654DA65A4FB499C","title":"美泉宫浴场","lon":"121.39096","lat":"31.12196","category":"149","category_name":"洗浴推拿场所","address":"闵行区龙茗路25号(近沪闵路)"},{"poiid":"B2094757D069A0FB4792","title":"塔哈尔-新疆盛宴(莘庄店)","lon":"121.38962","lat":"31.11328","category":"90","category_name":"清真餐馆","address":"闵行区梅陇西路2094号(近莘庄地铁南广场)"},{"poiid":"B2094654DB69A5FF439B","title":"莫泰168连锁旅店(畹町路店)","lon":"121.39817","lat":"31.11209","category":"216","category_name":"经济型连锁酒店","address":"闵行区畹町路479号(近春申路)"},{"poiid":"B2094757D068A0F9429E","title":"上海阳城","lon":"121.3962","lat":"31.120998","category":"47","category_name":"住宅区","address":"上海闵行区罗锦路888弄(近梅陇西路)"},{"poiid":"B2094757D068A6FC449F","title":"莘南花苑","lon":"121.403","lat":"31.1167","category":"47","category_name":"住宅区","address":"上海闵行区莘吉路畹町路"},{"poiid":"B2094654DB6CAAF84593","title":"中城绿苑·西苑","lon":"121.40098","lat":"31.11277","category":"47","category_name":"住宅区","address":"上海闵行区伟业路621弄"},{"poiid":"B2094757D06FA5F8439D","title":"三洲花园","lon":"121.3972668","lat":"31.122852936","category":"47","category_name":"住宅区","address":"上海罗阳路800弄"},{"poiid":"B2094750D269A1F9419A","title":"芋贵人甜品店 莘庄龙之梦店","lon":"121.39147996902","lat":"31.122192759554","category":"67","category_name":"甜品店","address":"闵行区沪闵路6088号莘庄龙之梦购物中心B2楼52号商铺(近莘建路)"},{"poiid":"B2094757D569A6FA479E","title":"名都新城四期","lon":"121.398","lat":"31.1148","category":"47","category_name":"住宅区","address":"上海市闵行区友情路50弄"},{"poiid":"B2094750D66BAAF5459D","title":"塔哈尔羊蝎子火锅","lon":"121.396","lat":"31.1121","category":"86","category_name":"火锅店","address":"闵行区莘朱路751号(近莘吉路)"},{"poiid":"B2094655D264A0FB419C","title":"东苑利景花苑二期","lon":"121.396577","lat":"31.117612","category":"47","category_name":"住宅区","address":"上海市卢湾区徐家汇路515弄"},{"poiid":"B2094757D068ABFE449C","title":"中祥哥德堡","lon":"121.392587","lat":"31.109343","category":"500","category_name":"未知分类","address":"中祥哥德堡位于闵行珠城路99弄"},{"poiid":"B2094753D46FAAFA479C","title":"热带风暴","lon":"121.393112","lat":"31.113943","category":"247","category_name":"餐饮美食","address":"上海市 闵行区"},{"poiid":"B2094655D265A1FA4398","title":"东苑利景花苑三期","lon":"121.398372","lat":"31.116849","category":"47","category_name":"住宅区","address":"上海市闵行区宝城路500号"},{"poiid":"B2094655D36DA6FC449B","title":"畹町路","lon":"121.39903","lat":"31.11112","category":"38","category_name":"公交车站","address":""},{"poiid":"B2094654DB6CA4F8439E","title":"行西村西片二区私营民营企业工业小区","lon":"121.397","lat":"31.11547","category":"47","category_name":"住宅区","address":""},{"poiid":"B2094757D068ABFF4892","title":"塞纳左岸","lon":"121.389952","lat":"31.111849","category":"47","category_name":"住宅区","address":"塞纳左岸(二期)位于闵行宝城路500弄"},{"poiid":"B2094757D66CABFC439D","title":"蜀怡浓酒家","lon":"121.395901054","lat":"31.111994793","category":"71","category_name":"四川菜","address":"闵行区莘朱路763号(近畹町路)"},{"poiid":"B2094655D268A2FF419C","title":"福家小菜","lon":"121.397","lat":"31.11234","category":"76","category_name":"上海菜","address":"闵行区莘朱路775号(近畹町路)"},{"poiid":"B2094757D66DA3FD459F","title":"a20外环高速莲花南路出口","lon":"121.393503017","lat":"31.1182181168","category":"500","category_name":"未知分类","address":"上海a20外环高速莲花南路出口"},{"poiid":"B2094655D26FA3FB4092","title":"中城绿苑东苑","lon":"121.40235","lat":"31.11334","category":"47","category_name":"住宅区","address":"上海市闵行区伟业路620弄"},{"poiid":"B2094757D16CA6FD4498","title":"吉乃川","lon":"121.38842","lat":"31.11169","category":"95","category_name":"日本料理","address":"闵行区梅陇西路2072号(近莘庄地铁南广场)"},{"poiid":"B2094757D068A1FF409A","title":"品家都市星城","lon":"121.39611682655","lat":"31.108100694837","category":"500","category_name":"未知分类","address":"上海闵行区富都路111弄"},{"poiid":"B2094654DB6CAAF8479B","title":"莘南花苑商办楼","lon":"121.39706","lat":"31.11237","category":"46","category_name":"楼宇","address":"莘朱路779"},{"poiid":"B2094655D26EA5F9479B","title":"汤家巷小区","lon":"121.39954","lat":"31.11684","category":"47","category_name":"住宅区","address":""},{"poiid":"B2094654DB6CA4F8419D","title":"行西村西片一区私营民营企业工业小区","lon":"121.39764","lat":"31.11389","category":"47","category_name":"住宅区","address":"莘朱路816弄10号"},{"poiid":"B2094757D66BA3F8459B","title":"新湘驿湘菜馆","lon":"121.391231","lat":"31.110395","category":"77","category_name":"湖南菜","address":"闵行区莘朱路470号(近宝城路)"},{"poiid":"B2094655D265A0FE4099","title":"春申大厦","lon":"121.397763","lat":"31.107486","category":"46","category_name":"楼宇","address":"上海市闵行区春申路3555号"},{"poiid":"B2094655D36DA7F4409F","title":"莘朱路莘吉路","lon":"121.39631","lat":"31.11231","category":"38","category_name":"公交车站","address":""},{"poiid":"B2094654DB6CA4FE4492","title":"快客No.6437","lon":"121.39606","lat":"31.11237","category":"117","category_name":"便民商店/便利店","address":"莘朱路739号"},{"poiid":"B2094757D16DA6FC409D","title":"和禾烧烤","lon":"121.39433","lat":"31.12245","category":"68","category_name":"快餐厅","address":"闵行区罗锦路939号4号门(近梅陇西路)"},{"poiid":"B2094655D36DA6FE479A","title":"外环路","lon":"121.39286","lat":"31.12055","category":"38","category_name":"公交车站","address":""},{"poiid":"B2094654DB6CAAF94098","title":"上海市高兴实验学校","lon":"121.40003","lat":"31.11116","category":"55","category_name":"中学","address":"高兴路389"},{"poiid":"B2094655D26BA6F54198","title":"重庆鸡公煲 罗锦路店","lon":"121.40362","lat":"31.1213","category":"71","category_name":"四川菜","address":"闵行区罗锦路750弄7-2号(近一号线外环路站)"},{"poiid":"B2094654DB6CAAFF499A","title":"新空间家园","lon":"121.3947","lat":"31.110685","category":"47","category_name":"住宅区","address":"上海市闵行区莘朱路651弄"},{"poiid":"B2094655D268A2F44598","title":"静安面包房(罗锦路)","lon":"121.40044","lat":"31.12188","category":"112","category_name":"糕饼店","address":"闵行区罗锦路(莲花南路罗锦路)"},{"poiid":"B2094655D26EA2F4489C","title":"常兴家园","lon":"121.39986","lat":"31.112307","category":"47","category_name":"住宅区","address":"莘朱路851弄"},{"poiid":"B2094654DB6CAAFF4992","title":"莘南花园一村(2号门)","lon":"121.39698","lat":"31.11111","category":"47","category_name":"住宅区","address":""}]