[{"poiid":"B2094757D06FA3FB409C","title":"吴泾","lon":"121.468906","lat":"31.042429","category":"260","category_name":"其他","address":"上海闵行区吴泾镇"},{"poiid":"B2094757D06FA1FB489A","title":"万科花园小城","lon":"121.47425842","lat":"31.036663055","category":"47","category_name":"住宅区","address":"上海市闵行区龙吴路5688号"},{"poiid":"B2094757D06AA5FF4693","title":"紫晶南苑","lon":"121.47682797834","lat":"31.037120845963","category":"47","category_name":"住宅区","address":"上海市闵行区广南路666号"},{"poiid":"B2094757D069A6FC4198","title":"吴泾医院","lon":"121.46771812","lat":"31.041532597","category":"162","category_name":"医院","address":"上海闵行区剑川路155号"},{"poiid":"B2094757D06FA5FB469C","title":"闵浦大桥","lon":"121.48068237","lat":"31.052547454","category":"260","category_name":"其他","address":"上海闵行区S32申嘉湖高速-闵行区S32申嘉湖高速"},{"poiid":"B2094757D06FAAFB4999","title":"肯德基 KFC (吴泾店)","lon":"121.463986","lat":"31.042662","category":"68","category_name":"快餐厅","address":"闵行区吴泾镇宝秀路667号(宝秀路永德路)"},{"poiid":"B2094757D66AA4F44892","title":"部落情 剑川店","lon":"121.46638","lat":"31.04184","category":"86","category_name":"火锅店","address":"闵行区剑川路167号(宝秀路剑川路)"},{"poiid":"B2094757D068A2F84893","title":"吴泾体育场","lon":"121.466128485","lat":"31.0488376885","category":"220","category_name":"运动场所","address":"闵行区龙吴路5347号(近放鹤路)"},{"poiid":"B2094757D16AAAFA409B","title":"派之星量贩式KTV","lon":"121.466659645","lat":"31.0411515709","category":"248","category_name":"生活娱乐","address":"上海闵行区剑川路165号(锦江之星院内)"},{"poiid":"B2094757D069AAF4449D","title":"悦亭酒店","lon":"121.467812508","lat":"31.0427550772","category":"76","category_name":"上海菜","address":"闵行区吴泾镇龙吴路5555号(近剑川路)"},{"poiid":"B2094757D068A1F9409F","title":"龙吴路剑川路","lon":"121.4677658","lat":"31.043998718","category":"500","category_name":"未知分类","address":"上海龙吴路剑川路"},{"poiid":"B2094655D264A7FB4599","title":"双柏小区","lon":"121.47237","lat":"31.044006","category":"47","category_name":"住宅区","address":"上海闵行区剑川路100弄"},{"poiid":"B2094655D36CA0FA419F","title":"剑川路通海路","lon":"121.47386","lat":"31.04336","category":"38","category_name":"公交车站","address":""},{"poiid":"B2094757D16AA5FE4699","title":"虹梅景苑","lon":"121.46727029658","lat":"31.048140770919","category":"47","category_name":"住宅区","address":"上海市闵行区尚义路448弄"},{"poiid":"B2094757D76FA5F9409A","title":"世国烧烤","lon":"121.46617","lat":"31.04155","category":"68","category_name":"快餐厅","address":"闵行区剑川路150号(龙吴路宝秀路间)"},{"poiid":"B2094757D06AA5F44899","title":"阿荣实业片场","lon":"121.462005435","lat":"31.045099269","category":"263","category_name":"公司","address":"上海宝秀路"},{"poiid":"B2094655D26BA2FC4792","title":"吴泾渡口","lon":"121.47852","lat":"31.04586","category":"38","category_name":"公交车站","address":""},{"poiid":"B2094654DB6EAAFA439E","title":"星乐苑","lon":"121.47589","lat":"31.03801","category":"47","category_name":"住宅区","address":"通海路278号"},{"poiid":"B2094757D06AA1F4439E","title":"永德路步行衔","lon":"121.461725645","lat":"31.0425556022","category":"500","category_name":"未知分类","address":"上海市闵行区永德路"},{"poiid":"B2094757D06BA2F84998","title":"氯碱小区","lon":"121.47433994","lat":"31.045272062","category":"47","category_name":"住宅区","address":"上海市闵行区剑川路50弄"},{"poiid":"B2094757D064ABFA479B","title":"家裡","lon":"121.475455345","lat":"31.0462056836","category":"500","category_name":"未知分类","address":"上海窩！"},{"poiid":"B2094654DB6FA3FD4492","title":"伍玲酒楼","lon":"121.471700054","lat":"31.042903793","category":"76","category_name":"上海菜","address":"剑川路110号"},{"poiid":"B2094757D068AAFB4693","title":"新华小区","lon":"121.46481078","lat":"31.038574973","category":"47","category_name":"住宅区","address":"上海市闵行区龙吴路5599弄"},{"poiid":"B2094654DB6EAAF8469F","title":"枫桦景苑(永德路)","lon":"121.46235","lat":"31.04283","category":"47","category_name":"住宅区","address":"剑川路"},{"poiid":"B2094757D16DA5FA479C","title":"川聚餐饮 剑川路店","lon":"121.466789","lat":"31.041522","category":"71","category_name":"四川菜","address":"闵行区吴泾镇剑川路165号(近龙吴路)"},{"poiid":"B2094654DB6EAAFA4393","title":"上海市东方通海物流有限公司","lon":"121.47573","lat":"31.04004","category":"248","category_name":"生活娱乐","address":"通海路315号"},{"poiid":"B2094655D26BA2FF4899","title":"通海路","lon":"121.47385","lat":"31.04337","category":"38","category_name":"公交车站","address":""},{"poiid":"B2094757D169ABF44592","title":"Yumma绎號窩窩","lon":"121.471073645","lat":"31.0389285213","category":"247","category_name":"餐饮美食","address":null},{"poiid":"B2094750D56CA7FC479B","title":"闵行区教育学院","lon":"121.461166","lat":"31.034742","category":"253","category_name":"校园生活","address":"紫龙路835号"},{"poiid":"B2094757D16BA7FA409F","title":"锦江之星(剑川路店)","lon":"121.46709964","lat":"31.042572602","category":"500","category_name":"未知分类","address":"上海市闵行区剑川路165号(近龙吴路)"},{"poiid":"B2094757D16DABFC4693","title":"食尚骨头王 剑川路店","lon":"121.465630054","lat":"31.041129793","category":"86","category_name":"火锅店","address":"闵行区剑川路140弄3号(近龙吴路)"},{"poiid":"B2094654DB6EAAFA449A","title":"上海联存仓储发展有限公司","lon":"121.47546","lat":"31.04116","category":"263","category_name":"公司","address":""},{"poiid":"B2094757D16FA1FF459D","title":"COCO奶茶 都可茶饮 吴泾店","lon":"121.47022764","lat":"31.040294551","category":"247","category_name":"餐饮美食","address":"上海永德路吴泾店"},{"poiid":"B2094757D06AA5F44398","title":"通海小区","lon":"121.469882045","lat":"31.0396134366","category":"47","category_name":"住宅区","address":"上海闵行区剑川路121弄"},{"poiid":"B2094655D26AA2FD449C","title":"盱眙虾趣龙虾城 龙吴路店","lon":"121.467589054","lat":"31.044706793","category":"87","category_name":"特色／地方风味餐厅","address":"闵行区龙吴路5496号(近剑川路)"},{"poiid":"B2094757D065ABF5409D","title":"假日会健身","lon":"121.46912","lat":"31.04094","category":"148","category_name":"美容美发店","address":"闵行区龙吴路5684号万科花园小城(近剑川路)"},{"poiid":"B2094757D66CA3F84698","title":"上岛咖啡","lon":"121.466562645","lat":"31.0411045698","category":"65","category_name":"咖啡厅","address":"上海市闵行区永德路"},{"poiid":"B2094757D16AA2FD449C","title":"上海日冷食品有限公司","lon":"121.475051","lat":"31.042637","category":"500","category_name":"未知分类","address":"上海通海路335号"},{"poiid":"B2094654DB69A5FB469C","title":"重庆鸡公煲 广南路店","lon":"121.466900054","lat":"31.041016793","category":"247","category_name":"餐饮美食","address":"闵行区广南路772号(近虹梅南路)"},{"poiid":"B2094654DB6EAAFE489B","title":"华联超市(星火)","lon":"121.47148","lat":"31.03435","category":"118","category_name":"超级市场","address":""},{"poiid":"B2094654DB6EAAF84992","title":"现代苑","lon":"121.46689","lat":"31.037432","category":"47","category_name":"住宅区","address":"广南路333弄"},{"poiid":"B2094757D465A2F4439D","title":"阿康烧烤 闵行师大店","lon":"121.466789054","lat":"31.037909793","category":"269","category_name":"烧烤","address":"闵行区广南路770号(近虹梅南路)"},{"poiid":"B2094654DB6EAAFA449E","title":"上海中粮粮油进出口吴泾仓储有限公司","lon":"121.47489","lat":"31.04319","category":"263","category_name":"公司","address":"通海路357"},{"poiid":"B2094655D36CA0FA4193","title":"剑川路龙吴路","lon":"121.46945","lat":"31.04251","category":"38","category_name":"公交车站","address":""},{"poiid":"B2094757D06BA6FF499E","title":"苗苗花园","lon":"121.46972544","lat":"31.040942566","category":"47","category_name":"住宅区","address":"上海剑川路"},{"poiid":"B2094654DB6EAAFA449F","title":"吴泾派出所","lon":"121.47301","lat":"31.04339","category":"609","category_name":"警察局","address":"闵行区剑川路80号"},{"poiid":"B2094654DB6EAAF4449E","title":"部落情火锅城","lon":"121.46646","lat":"31.04178","category":"86","category_name":"火锅店","address":"吴泾"},{"poiid":"B2094757D66CA0FC489E","title":"中国电信 泰兴路营业厅","lon":"121.470400645","lat":"31.0384105098","category":"500","category_name":"未知分类","address":"上海市静安区泰兴路230号"},{"poiid":"B2094654DB6FA1FA499F","title":"苹果园(龙吴路)","lon":"121.46747","lat":"31.044","category":"112","category_name":"糕饼店","address":"闵行区龙吴路5525号(近永德路)"},{"poiid":"B2094757D66CA4FA419C","title":"俺の家","lon":"121.47511864","lat":"31.044765651","category":"500","category_name":"未知分类","address":null},{"poiid":"B2094757D06FA3FB409C","title":"吴泾","lon":"121.468906","lat":"31.042429","category":"260","category_name":"其他","address":"上海闵行区吴泾镇"},{"poiid":"B2094757D06FA1FB489A","title":"万科花园小城","lon":"121.47425842","lat":"31.036663055","category":"47","category_name":"住宅区","address":"上海市闵行区龙吴路5688号"},{"poiid":"B2094757D06AA5FF4693","title":"紫晶南苑","lon":"121.47682797834","lat":"31.037120845963","category":"47","category_name":"住宅区","address":"上海市闵行区广南路666号"},{"poiid":"B2094757D069A6FC4198","title":"吴泾医院","lon":"121.46771812","lat":"31.041532597","category":"162","category_name":"医院","address":"上海闵行区剑川路155号"},{"poiid":"B2094757D06FA5FB469C","title":"闵浦大桥","lon":"121.48068237","lat":"31.052547454","category":"260","category_name":"其他","address":"上海闵行区S32申嘉湖高速-闵行区S32申嘉湖高速"},{"poiid":"B2094757D06FAAFB4999","title":"肯德基 KFC (吴泾店)","lon":"121.463986","lat":"31.042662","category":"68","category_name":"快餐厅","address":"闵行区吴泾镇宝秀路667号(宝秀路永德路)"},{"poiid":"B2094757D66AA4F44892","title":"部落情 剑川店","lon":"121.46638","lat":"31.04184","category":"86","category_name":"火锅店","address":"闵行区剑川路167号(宝秀路剑川路)"},{"poiid":"B2094757D068A2F84893","title":"吴泾体育场","lon":"121.466128485","lat":"31.0488376885","category":"220","category_name":"运动场所","address":"闵行区龙吴路5347号(近放鹤路)"},{"poiid":"B2094757D16AAAFA409B","title":"派之星量贩式KTV","lon":"121.466659645","lat":"31.0411515709","category":"248","category_name":"生活娱乐","address":"上海闵行区剑川路165号(锦江之星院内)"},{"poiid":"B2094757D069AAF4449D","title":"悦亭酒店","lon":"121.467812508","lat":"31.0427550772","category":"76","category_name":"上海菜","address":"闵行区吴泾镇龙吴路5555号(近剑川路)"},{"poiid":"B2094757D068A1F9409F","title":"龙吴路剑川路","lon":"121.4677658","lat":"31.043998718","category":"500","category_name":"未知分类","address":"上海龙吴路剑川路"},{"poiid":"B2094655D264A7FB4599","title":"双柏小区","lon":"121.47237","lat":"31.044006","category":"47","category_name":"住宅区","address":"上海闵行区剑川路100弄"},{"poiid":"B2094655D36CA0FA419F","title":"剑川路通海路","lon":"121.47386","lat":"31.04336","category":"38","category_name":"公交车站","address":""},{"poiid":"B2094757D16AA5FE4699","title":"虹梅景苑","lon":"121.46727029658","lat":"31.048140770919","category":"47","category_name":"住宅区","address":"上海市闵行区尚义路448弄"},{"poiid":"B2094757D76FA5F9409A","title":"世国烧烤","lon":"121.46617","lat":"31.04155","category":"68","category_name":"快餐厅","address":"闵行区剑川路150号(龙吴路宝秀路间)"},{"poiid":"B2094757D06AA5F44899","title":"阿荣实业片场","lon":"121.462005435","lat":"31.045099269","category":"263","category_name":"公司","address":"上海宝秀路"},{"poiid":"B2094655D26BA2FC4792","title":"吴泾渡口","lon":"121.47852","lat":"31.04586","category":"38","category_name":"公交车站","address":""},{"poiid":"B2094654DB6EAAFA439E","title":"星乐苑","lon":"121.47589","lat":"31.03801","category":"47","category_name":"住宅区","address":"通海路278号"},{"poiid":"B2094757D06AA1F4439E","title":"永德路步行衔","lon":"121.461725645","lat":"31.0425556022","category":"500","category_name":"未知分类","address":"上海市闵行区永德路"},{"poiid":"B2094757D06BA2F84998","title":"氯碱小区","lon":"121.47433994","lat":"31.045272062","category":"47","category_name":"住宅区","address":"上海市闵行区剑川路50弄"},{"poiid":"B2094757D064ABFA479B","title":"家裡","lon":"121.475455345","lat":"31.0462056836","category":"500","category_name":"未知分类","address":"上海窩！"},{"poiid":"B2094654DB6FA3FD4492","title":"伍玲酒楼","lon":"121.471700054","lat":"31.042903793","category":"76","category_name":"上海菜","address":"剑川路110号"},{"poiid":"B2094757D068AAFB4693","title":"新华小区","lon":"121.46481078","lat":"31.038574973","category":"47","category_name":"住宅区","address":"上海市闵行区龙吴路5599弄"},{"poiid":"B2094654DB6EAAF8469F","title":"枫桦景苑(永德路)","lon":"121.46235","lat":"31.04283","category":"47","category_name":"住宅区","address":"剑川路"},{"poiid":"B2094757D16DA5FA479C","title":"川聚餐饮 剑川路店","lon":"121.466789","lat":"31.041522","category":"71","category_name":"四川菜","address":"闵行区吴泾镇剑川路165号(近龙吴路)"},{"poiid":"B2094654DB6EAAFA4393","title":"上海市东方通海物流有限公司","lon":"121.47573","lat":"31.04004","category":"248","category_name":"生活娱乐","address":"通海路315号"},{"poiid":"B2094655D26BA2FF4899","title":"通海路","lon":"121.47385","lat":"31.04337","category":"38","category_name":"公交车站","address":""},{"poiid":"B2094757D169ABF44592","title":"Yumma绎號窩窩","lon":"121.471073645","lat":"31.0389285213","category":"247","category_name":"餐饮美食","address":null},{"poiid":"B2094750D56CA7FC479B","title":"闵行区教育学院","lon":"121.461166","lat":"31.034742","category":"253","category_name":"校园生活","address":"紫龙路835号"},{"poiid":"B2094757D16BA7FA409F","title":"锦江之星(剑川路店)","lon":"121.46709964","lat":"31.042572602","category":"500","category_name":"未知分类","address":"上海市闵行区剑川路165号(近龙吴路)"},{"poiid":"B2094757D16DABFC4693","title":"食尚骨头王 剑川路店","lon":"121.465630054","lat":"31.041129793","category":"86","category_name":"火锅店","address":"闵行区剑川路140弄3号(近龙吴路)"},{"poiid":"B2094654DB6EAAFA449A","title":"上海联存仓储发展有限公司","lon":"121.47546","lat":"31.04116","category":"263","category_name":"公司","address":""},{"poiid":"B2094757D16FA1FF459D","title":"COCO奶茶 都可茶饮 吴泾店","lon":"121.47022764","lat":"31.040294551","category":"247","category_name":"餐饮美食","address":"上海永德路吴泾店"},{"poiid":"B2094757D06AA5F44398","title":"通海小区","lon":"121.469882045","lat":"31.0396134366","category":"47","category_name":"住宅区","address":"上海闵行区剑川路121弄"},{"poiid":"B2094655D26AA2FD449C","title":"盱眙虾趣龙虾城 龙吴路店","lon":"121.467589054","lat":"31.044706793","category":"87","category_name":"特色／地方风味餐厅","address":"闵行区龙吴路5496号(近剑川路)"},{"poiid":"B2094757D065ABF5409D","title":"假日会健身","lon":"121.46912","lat":"31.04094","category":"148","category_name":"美容美发店","address":"闵行区龙吴路5684号万科花园小城(近剑川路)"},{"poiid":"B2094757D66CA3F84698","title":"上岛咖啡","lon":"121.466562645","lat":"31.0411045698","category":"65","category_name":"咖啡厅","address":"上海市闵行区永德路"},{"poiid":"B2094757D16AA2FD449C","title":"上海日冷食品有限公司","lon":"121.475051","lat":"31.042637","category":"500","category_name":"未知分类","address":"上海通海路335号"},{"poiid":"B2094654DB69A5FB469C","title":"重庆鸡公煲 广南路店","lon":"121.466900054","lat":"31.041016793","category":"247","category_name":"餐饮美食","address":"闵行区广南路772号(近虹梅南路)"},{"poiid":"B2094654DB6EAAFE489B","title":"华联超市(星火)","lon":"121.47148","lat":"31.03435","category":"118","category_name":"超级市场","address":""},{"poiid":"B2094654DB6EAAF84992","title":"现代苑","lon":"121.46689","lat":"31.037432","category":"47","category_name":"住宅区","address":"广南路333弄"},{"poiid":"B2094757D465A2F4439D","title":"阿康烧烤 闵行师大店","lon":"121.466789054","lat":"31.037909793","category":"269","category_name":"烧烤","address":"闵行区广南路770号(近虹梅南路)"},{"poiid":"B2094654DB6EAAFA449E","title":"上海中粮粮油进出口吴泾仓储有限公司","lon":"121.47489","lat":"31.04319","category":"263","category_name":"公司","address":"通海路357"},{"poiid":"B2094655D36CA0FA4193","title":"剑川路龙吴路","lon":"121.46945","lat":"31.04251","category":"38","category_name":"公交车站","address":""},{"poiid":"B2094757D06BA6FF499E","title":"苗苗花园","lon":"121.46972544","lat":"31.040942566","category":"47","category_name":"住宅区","address":"上海剑川路"},{"poiid":"B2094654DB6EAAFA449F","title":"吴泾派出所","lon":"121.47301","lat":"31.04339","category":"609","category_name":"警察局","address":"闵行区剑川路80号"},{"poiid":"B2094654DB6EAAF4449E","title":"部落情火锅城","lon":"121.46646","lat":"31.04178","category":"86","category_name":"火锅店","address":"吴泾"},{"poiid":"B2094757D66CA0FC489E","title":"中国电信 泰兴路营业厅","lon":"121.470400645","lat":"31.0384105098","category":"500","category_name":"未知分类","address":"上海市静安区泰兴路230号"},{"poiid":"B2094654DB6FA1FA499F","title":"苹果园(龙吴路)","lon":"121.46747","lat":"31.044","category":"112","category_name":"糕饼店","address":"闵行区龙吴路5525号(近永德路)"},{"poiid":"B2094757D66CA4FA419C","title":"俺の家","lon":"121.47511864","lat":"31.044765651","category":"500","category_name":"未知分类","address":null},{"poiid":"B2094757D06FA3FB409C","title":"吴泾","lon":"121.468906","lat":"31.042429","category":"260","category_name":"其他","address":"上海闵行区吴泾镇"},{"poiid":"B2094757D06FA1FB489A","title":"万科花园小城","lon":"121.47425842","lat":"31.036663055","category":"47","category_name":"住宅区","address":"上海市闵行区龙吴路5688号"},{"poiid":"B2094757D06AA5FF4693","title":"紫晶南苑","lon":"121.47682797834","lat":"31.037120845963","category":"47","category_name":"住宅区","address":"上海市闵行区广南路666号"},{"poiid":"B2094757D069A6FC4198","title":"吴泾医院","lon":"121.46771812","lat":"31.041532597","category":"162","category_name":"医院","address":"上海闵行区剑川路155号"},{"poiid":"B2094757D06FA5FB469C","title":"闵浦大桥","lon":"121.48068237","lat":"31.052547454","category":"260","category_name":"其他","address":"上海闵行区S32申嘉湖高速-闵行区S32申嘉湖高速"},{"poiid":"B2094757D06FAAFB4999","title":"肯德基 KFC (吴泾店)","lon":"121.463986","lat":"31.042662","category":"68","category_name":"快餐厅","address":"闵行区吴泾镇宝秀路667号(宝秀路永德路)"},{"poiid":"B2094757D66AA4F44892","title":"部落情 剑川店","lon":"121.46638","lat":"31.04184","category":"86","category_name":"火锅店","address":"闵行区剑川路167号(宝秀路剑川路)"},{"poiid":"B2094757D068A2F84893","title":"吴泾体育场","lon":"121.466128485","lat":"31.0488376885","category":"220","category_name":"运动场所","address":"闵行区龙吴路5347号(近放鹤路)"},{"poiid":"B2094757D16AAAFA409B","title":"派之星量贩式KTV","lon":"121.466659645","lat":"31.0411515709","category":"248","category_name":"生活娱乐","address":"上海闵行区剑川路165号(锦江之星院内)"},{"poiid":"B2094757D069AAF4449D","title":"悦亭酒店","lon":"121.467812508","lat":"31.0427550772","category":"76","category_name":"上海菜","address":"闵行区吴泾镇龙吴路5555号(近剑川路)"},{"poiid":"B2094757D068A1F9409F","title":"龙吴路剑川路","lon":"121.4677658","lat":"31.043998718","category":"500","category_name":"未知分类","address":"上海龙吴路剑川路"},{"poiid":"B2094655D264A7FB4599","title":"双柏小区","lon":"121.47237","lat":"31.044006","category":"47","category_name":"住宅区","address":"上海闵行区剑川路100弄"},{"poiid":"B2094655D36CA0FA419F","title":"剑川路通海路","lon":"121.47386","lat":"31.04336","category":"38","category_name":"公交车站","address":""},{"poiid":"B2094757D16AA5FE4699","title":"虹梅景苑","lon":"121.46727029658","lat":"31.048140770919","category":"47","category_name":"住宅区","address":"上海市闵行区尚义路448弄"},{"poiid":"B2094757D76FA5F9409A","title":"世国烧烤","lon":"121.46617","lat":"31.04155","category":"68","category_name":"快餐厅","address":"闵行区剑川路150号(龙吴路宝秀路间)"},{"poiid":"B2094757D06AA5F44899","title":"阿荣实业片场","lon":"121.462005435","lat":"31.045099269","category":"263","category_name":"公司","address":"上海宝秀路"},{"poiid":"B2094655D26BA2FC4792","title":"吴泾渡口","lon":"121.47852","lat":"31.04586","category":"38","category_name":"公交车站","address":""},{"poiid":"B2094654DB6EAAFA439E","title":"星乐苑","lon":"121.47589","lat":"31.03801","category":"47","category_name":"住宅区","address":"通海路278号"},{"poiid":"B2094757D06AA1F4439E","title":"永德路步行衔","lon":"121.461725645","lat":"31.0425556022","category":"500","category_name":"未知分类","address":"上海市闵行区永德路"},{"poiid":"B2094757D06BA2F84998","title":"氯碱小区","lon":"121.47433994","lat":"31.045272062","category":"47","category_name":"住宅区","address":"上海市闵行区剑川路50弄"},{"poiid":"B2094757D064ABFA479B","title":"家裡","lon":"121.475455345","lat":"31.0462056836","category":"500","category_name":"未知分类","address":"上海窩！"},{"poiid":"B2094654DB6FA3FD4492","title":"伍玲酒楼","lon":"121.471700054","lat":"31.042903793","category":"76","category_name":"上海菜","address":"剑川路110号"},{"poiid":"B2094757D068AAFB4693","title":"新华小区","lon":"121.46481078","lat":"31.038574973","category":"47","category_name":"住宅区","address":"上海市闵行区龙吴路5599弄"},{"poiid":"B2094654DB6EAAF8469F","title":"枫桦景苑(永德路)","lon":"121.46235","lat":"31.04283","category":"47","category_name":"住宅区","address":"剑川路"},{"poiid":"B2094757D16DA5FA479C","title":"川聚餐饮 剑川路店","lon":"121.466789","lat":"31.041522","category":"71","category_name":"四川菜","address":"闵行区吴泾镇剑川路165号(近龙吴路)"},{"poiid":"B2094654DB6EAAFA4393","title":"上海市东方通海物流有限公司","lon":"121.47573","lat":"31.04004","category":"248","category_name":"生活娱乐","address":"通海路315号"},{"poiid":"B2094655D26BA2FF4899","title":"通海路","lon":"121.47385","lat":"31.04337","category":"38","category_name":"公交车站","address":""},{"poiid":"B2094757D169ABF44592","title":"Yumma绎號窩窩","lon":"121.471073645","lat":"31.0389285213","category":"247","category_name":"餐饮美食","address":null},{"poiid":"B2094750D56CA7FC479B","title":"闵行区教育学院","lon":"121.461166","lat":"31.034742","category":"253","category_name":"校园生活","address":"紫龙路835号"},{"poiid":"B2094757D16BA7FA409F","title":"锦江之星(剑川路店)","lon":"121.46709964","lat":"31.042572602","category":"500","category_name":"未知分类","address":"上海市闵行区剑川路165号(近龙吴路)"},{"poiid":"B2094757D16DABFC4693","title":"食尚骨头王 剑川路店","lon":"121.465630054","lat":"31.041129793","category":"86","category_name":"火锅店","address":"闵行区剑川路140弄3号(近龙吴路)"},{"poiid":"B2094654DB6EAAFA449A","title":"上海联存仓储发展有限公司","lon":"121.47546","lat":"31.04116","category":"263","category_name":"公司","address":""},{"poiid":"B2094757D16FA1FF459D","title":"COCO奶茶 都可茶饮 吴泾店","lon":"121.47022764","lat":"31.040294551","category":"247","category_name":"餐饮美食","address":"上海永德路吴泾店"},{"poiid":"B2094757D06AA5F44398","title":"通海小区","lon":"121.469882045","lat":"31.0396134366","category":"47","category_name":"住宅区","address":"上海闵行区剑川路121弄"},{"poiid":"B2094655D26AA2FD449C","title":"盱眙虾趣龙虾城 龙吴路店","lon":"121.467589054","lat":"31.044706793","category":"87","category_name":"特色／地方风味餐厅","address":"闵行区龙吴路5496号(近剑川路)"},{"poiid":"B2094757D065ABF5409D","title":"假日会健身","lon":"121.46912","lat":"31.04094","category":"148","category_name":"美容美发店","address":"闵行区龙吴路5684号万科花园小城(近剑川路)"},{"poiid":"B2094757D66CA3F84698","title":"上岛咖啡","lon":"121.466562645","lat":"31.0411045698","category":"65","category_name":"咖啡厅","address":"上海市闵行区永德路"},{"poiid":"B2094757D16AA2FD449C","title":"上海日冷食品有限公司","lon":"121.475051","lat":"31.042637","category":"500","category_name":"未知分类","address":"上海通海路335号"},{"poiid":"B2094654DB69A5FB469C","title":"重庆鸡公煲 广南路店","lon":"121.466900054","lat":"31.041016793","category":"247","category_name":"餐饮美食","address":"闵行区广南路772号(近虹梅南路)"},{"poiid":"B2094654DB6EAAFE489B","title":"华联超市(星火)","lon":"121.47148","lat":"31.03435","category":"118","category_name":"超级市场","address":""},{"poiid":"B2094654DB6EAAF84992","title":"现代苑","lon":"121.46689","lat":"31.037432","category":"47","category_name":"住宅区","address":"广南路333弄"},{"poiid":"B2094757D465A2F4439D","title":"阿康烧烤 闵行师大店","lon":"121.466789054","lat":"31.037909793","category":"269","category_name":"烧烤","address":"闵行区广南路770号(近虹梅南路)"},{"poiid":"B2094654DB6EAAFA449E","title":"上海中粮粮油进出口吴泾仓储有限公司","lon":"121.47489","lat":"31.04319","category":"263","category_name":"公司","address":"通海路357"},{"poiid":"B2094655D36CA0FA4193","title":"剑川路龙吴路","lon":"121.46945","lat":"31.04251","category":"38","category_name":"公交车站","address":""},{"poiid":"B2094757D06BA6FF499E","title":"苗苗花园","lon":"121.46972544","lat":"31.040942566","category":"47","category_name":"住宅区","address":"上海剑川路"},{"poiid":"B2094654DB6EAAFA449F","title":"吴泾派出所","lon":"121.47301","lat":"31.04339","category":"609","category_name":"警察局","address":"闵行区剑川路80号"},{"poiid":"B2094654DB6EAAF4449E","title":"部落情火锅城","lon":"121.46646","lat":"31.04178","category":"86","category_name":"火锅店","address":"吴泾"},{"poiid":"B2094757D66CA0FC489E","title":"中国电信 泰兴路营业厅","lon":"121.470400645","lat":"31.0384105098","category":"500","category_name":"未知分类","address":"上海市静安区泰兴路230号"},{"poiid":"B2094654DB6FA1FA499F","title":"苹果园(龙吴路)","lon":"121.46747","lat":"31.044","category":"112","category_name":"糕饼店","address":"闵行区龙吴路5525号(近永德路)"},{"poiid":"B2094757D66CA4FA419C","title":"俺の家","lon":"121.47511864","lat":"31.044765651","category":"500","category_name":"未知分类","address":null},{"poiid":"B2094757D06FA3FB409C","title":"吴泾","lon":"121.468906","lat":"31.042429","category":"260","category_name":"其他","address":"上海闵行区吴泾镇"},{"poiid":"B2094757D06FA1FB489A","title":"万科花园小城","lon":"121.47425842","lat":"31.036663055","category":"47","category_name":"住宅区","address":"上海市闵行区龙吴路5688号"},{"poiid":"B2094757D06AA5FF4693","title":"紫晶南苑","lon":"121.47682797834","lat":"31.037120845963","category":"47","category_name":"住宅区","address":"上海市闵行区广南路666号"},{"poiid":"B2094757D069A6FC4198","title":"吴泾医院","lon":"121.46771812","lat":"31.041532597","category":"162","category_name":"医院","address":"上海闵行区剑川路155号"},{"poiid":"B2094757D06FA5FB469C","title":"闵浦大桥","lon":"121.48068237","lat":"31.052547454","category":"260","category_name":"其他","address":"上海闵行区S32申嘉湖高速-闵行区S32申嘉湖高速"},{"poiid":"B2094757D06FAAFB4999","title":"肯德基 KFC (吴泾店)","lon":"121.463986","lat":"31.042662","category":"68","category_name":"快餐厅","address":"闵行区吴泾镇宝秀路667号(宝秀路永德路)"},{"poiid":"B2094757D66AA4F44892","title":"部落情 剑川店","lon":"121.46638","lat":"31.04184","category":"86","category_name":"火锅店","address":"闵行区剑川路167号(宝秀路剑川路)"},{"poiid":"B2094757D068A2F84893","title":"吴泾体育场","lon":"121.466128485","lat":"31.0488376885","category":"220","category_name":"运动场所","address":"闵行区龙吴路5347号(近放鹤路)"},{"poiid":"B2094757D16AAAFA409B","title":"派之星量贩式KTV","lon":"121.466659645","lat":"31.0411515709","category":"248","category_name":"生活娱乐","address":"上海闵行区剑川路165号(锦江之星院内)"},{"poiid":"B2094757D069AAF4449D","title":"悦亭酒店","lon":"121.467812508","lat":"31.0427550772","category":"76","category_name":"上海菜","address":"闵行区吴泾镇龙吴路5555号(近剑川路)"},{"poiid":"B2094757D068A1F9409F","title":"龙吴路剑川路","lon":"121.4677658","lat":"31.043998718","category":"500","category_name":"未知分类","address":"上海龙吴路剑川路"},{"poiid":"B2094655D264A7FB4599","title":"双柏小区","lon":"121.47237","lat":"31.044006","category":"47","category_name":"住宅区","address":"上海闵行区剑川路100弄"},{"poiid":"B2094655D36CA0FA419F","title":"剑川路通海路","lon":"121.47386","lat":"31.04336","category":"38","category_name":"公交车站","address":""},{"poiid":"B2094757D16AA5FE4699","title":"虹梅景苑","lon":"121.46727029658","lat":"31.048140770919","category":"47","category_name":"住宅区","address":"上海市闵行区尚义路448弄"},{"poiid":"B2094757D76FA5F9409A","title":"世国烧烤","lon":"121.46617","lat":"31.04155","category":"68","category_name":"快餐厅","address":"闵行区剑川路150号(龙吴路宝秀路间)"},{"poiid":"B2094757D06AA5F44899","title":"阿荣实业片场","lon":"121.462005435","lat":"31.045099269","category":"263","category_name":"公司","address":"上海宝秀路"},{"poiid":"B2094655D26BA2FC4792","title":"吴泾渡口","lon":"121.47852","lat":"31.04586","category":"38","category_name":"公交车站","address":""},{"poiid":"B2094654DB6EAAFA439E","title":"星乐苑","lon":"121.47589","lat":"31.03801","category":"47","category_name":"住宅区","address":"通海路278号"},{"poiid":"B2094757D06AA1F4439E","title":"永德路步行衔","lon":"121.461725645","lat":"31.0425556022","category":"500","category_name":"未知分类","address":"上海市闵行区永德路"},{"poiid":"B2094757D06BA2F84998","title":"氯碱小区","lon":"121.47433994","lat":"31.045272062","category":"47","category_name":"住宅区","address":"上海市闵行区剑川路50弄"},{"poiid":"B2094757D064ABFA479B","title":"家裡","lon":"121.475455345","lat":"31.0462056836","category":"500","category_name":"未知分类","address":"上海窩！"},{"poiid":"B2094654DB6FA3FD4492","title":"伍玲酒楼","lon":"121.471700054","lat":"31.042903793","category":"76","category_name":"上海菜","address":"剑川路110号"},{"poiid":"B2094757D068AAFB4693","title":"新华小区","lon":"121.46481078","lat":"31.038574973","category":"47","category_name":"住宅区","address":"上海市闵行区龙吴路5599弄"},{"poiid":"B2094654DB6EAAF8469F","title":"枫桦景苑(永德路)","lon":"121.46235","lat":"31.04283","category":"47","category_name":"住宅区","address":"剑川路"},{"poiid":"B2094757D16DA5FA479C","title":"川聚餐饮 剑川路店","lon":"121.466789","lat":"31.041522","category":"71","category_name":"四川菜","address":"闵行区吴泾镇剑川路165号(近龙吴路)"},{"poiid":"B2094654DB6EAAFA4393","title":"上海市东方通海物流有限公司","lon":"121.47573","lat":"31.04004","category":"248","category_name":"生活娱乐","address":"通海路315号"},{"poiid":"B2094655D26BA2FF4899","title":"通海路","lon":"121.47385","lat":"31.04337","category":"38","category_name":"公交车站","address":""},{"poiid":"B2094757D169ABF44592","title":"Yumma绎號窩窩","lon":"121.471073645","lat":"31.0389285213","category":"247","category_name":"餐饮美食","address":null},{"poiid":"B2094750D56CA7FC479B","title":"闵行区教育学院","lon":"121.461166","lat":"31.034742","category":"253","category_name":"校园生活","address":"紫龙路835号"},{"poiid":"B2094757D16BA7FA409F","title":"锦江之星(剑川路店)","lon":"121.46709964","lat":"31.042572602","category":"500","category_name":"未知分类","address":"上海市闵行区剑川路165号(近龙吴路)"},{"poiid":"B2094757D16DABFC4693","title":"食尚骨头王 剑川路店","lon":"121.465630054","lat":"31.041129793","category":"86","category_name":"火锅店","address":"闵行区剑川路140弄3号(近龙吴路)"},{"poiid":"B2094654DB6EAAFA449A","title":"上海联存仓储发展有限公司","lon":"121.47546","lat":"31.04116","category":"263","category_name":"公司","address":""},{"poiid":"B2094757D16FA1FF459D","title":"COCO奶茶 都可茶饮 吴泾店","lon":"121.47022764","lat":"31.040294551","category":"247","category_name":"餐饮美食","address":"上海永德路吴泾店"},{"poiid":"B2094757D06AA5F44398","title":"通海小区","lon":"121.469882045","lat":"31.0396134366","category":"47","category_name":"住宅区","address":"上海闵行区剑川路121弄"},{"poiid":"B2094655D26AA2FD449C","title":"盱眙虾趣龙虾城 龙吴路店","lon":"121.467589054","lat":"31.044706793","category":"87","category_name":"特色／地方风味餐厅","address":"闵行区龙吴路5496号(近剑川路)"},{"poiid":"B2094757D065ABF5409D","title":"假日会健身","lon":"121.46912","lat":"31.04094","category":"148","category_name":"美容美发店","address":"闵行区龙吴路5684号万科花园小城(近剑川路)"},{"poiid":"B2094757D66CA3F84698","title":"上岛咖啡","lon":"121.466562645","lat":"31.0411045698","category":"65","category_name":"咖啡厅","address":"上海市闵行区永德路"},{"poiid":"B2094757D16AA2FD449C","title":"上海日冷食品有限公司","lon":"121.475051","lat":"31.042637","category":"500","category_name":"未知分类","address":"上海通海路335号"},{"poiid":"B2094654DB69A5FB469C","title":"重庆鸡公煲 广南路店","lon":"121.466900054","lat":"31.041016793","category":"247","category_name":"餐饮美食","address":"闵行区广南路772号(近虹梅南路)"},{"poiid":"B2094654DB6EAAFE489B","title":"华联超市(星火)","lon":"121.47148","lat":"31.03435","category":"118","category_name":"超级市场","address":""},{"poiid":"B2094654DB6EAAF84992","title":"现代苑","lon":"121.46689","lat":"31.037432","category":"47","category_name":"住宅区","address":"广南路333弄"},{"poiid":"B2094757D465A2F4439D","title":"阿康烧烤 闵行师大店","lon":"121.466789054","lat":"31.037909793","category":"269","category_name":"烧烤","address":"闵行区广南路770号(近虹梅南路)"},{"poiid":"B2094654DB6EAAFA449E","title":"上海中粮粮油进出口吴泾仓储有限公司","lon":"121.47489","lat":"31.04319","category":"263","category_name":"公司","address":"通海路357"},{"poiid":"B2094655D36CA0FA4193","title":"剑川路龙吴路","lon":"121.46945","lat":"31.04251","category":"38","category_name":"公交车站","address":""},{"poiid":"B2094757D06BA6FF499E","title":"苗苗花园","lon":"121.46972544","lat":"31.040942566","category":"47","category_name":"住宅区","address":"上海剑川路"},{"poiid":"B2094654DB6EAAFA449F","title":"吴泾派出所","lon":"121.47301","lat":"31.04339","category":"609","category_name":"警察局","address":"闵行区剑川路80号"},{"poiid":"B2094654DB6EAAF4449E","title":"部落情火锅城","lon":"121.46646","lat":"31.04178","category":"86","category_name":"火锅店","address":"吴泾"},{"poiid":"B2094757D66CA0FC489E","title":"中国电信 泰兴路营业厅","lon":"121.470400645","lat":"31.0384105098","category":"500","category_name":"未知分类","address":"上海市静安区泰兴路230号"},{"poiid":"B2094654DB6FA1FA499F","title":"苹果园(龙吴路)","lon":"121.46747","lat":"31.044","category":"112","category_name":"糕饼店","address":"闵行区龙吴路5525号(近永德路)"},{"poiid":"B2094757D66CA4FA419C","title":"俺の家","lon":"121.47511864","lat":"31.044765651","category":"500","category_name":"未知分类","address":null}]