[{"poiid":"B2094757D06EAAFA469E","title":"东宝兴路地铁站","lon":"121.47995875","lat":"31.260103405","category":"36","category_name":"地铁站","address":"上海轨道交通 三号线 轨交东宝兴路站 轻轨 3"},{"poiid":"B2094654D56DA1F44199","title":"铭德国际广场","lon":"121.477","lat":"31.2568","category":"46","category_name":"楼宇","address":"铁西兴华南街与十马路交汇处"},{"poiid":"B2094655D36CA6F44492","title":"东宝兴路中兴路","lon":"121.47758","lat":"31.26081","category":"38","category_name":"公交车站","address":"上海东宝兴路中兴路"},{"poiid":"B2094655D36CA5F54893","title":"宝山路","lon":"121.477415364418","lat":"31.25733917149673","category":"38","category_name":"公交车站","address":"上海市闸北区"},{"poiid":"B2094757D06EAAFA4098","title":"绿洲雅宾利","lon":"121.478","lat":"31.2615","category":"47","category_name":"住宅区","address":"上海中兴路止园路"},{"poiid":"B2094655D26FA1FB449A","title":"三宝花苑","lon":"121.47641","lat":"31.257627","category":"47","category_name":"住宅区","address":"上海市闸北区宝山路452号"},{"poiid":"B2094757D068A0F94093","title":"市北职业高级中学","lon":"121.47814178","lat":"31.259740829","category":"500","category_name":"未知分类","address":"闸北区宝山路584号(近东宝兴路)"},{"poiid":"B2094655D36CA6F44493","title":"东宝兴路","lon":"121.47783","lat":"31.25832","category":"38","category_name":"公交车站","address":""},{"poiid":"B2094753D469A4FE459A","title":"月星•环球港","lon":"121.478042","lat":"31.259443","category":"500","category_name":"未知分类","address":"上海市 普陀区中山北路3300号"},{"poiid":"B2094757D06AA0FD489C","title":"大桶大足浴(中兴店)","lon":"121.47759","lat":"31.25987","category":"149","category_name":"洗浴推拿场所","address":"闸北区中兴路237号(近东宝兴路)"},{"poiid":"B2094655D36CA5F54899","title":"宝通路","lon":"121.47661","lat":"31.25867","category":"38","category_name":"公交车站","address":"宝通路239弄"},{"poiid":"B2094752D665A2F54098","title":"食之秘（嘉杰国际店）","lon":"121.475081","lat":"31.25984","category":"247","category_name":"餐饮美食","address":"嘉杰国际广场"},{"poiid":"B2094654DB69A4FD4999","title":"锦江之星(四川北路店)","lon":"121.47928","lat":"31.25902","category":"216","category_name":"经济型连锁酒店","address":"上海市虹口区东宝兴路440号(近四川北路)"},{"poiid":"B2094654D56EA1FA4499","title":"宝通公寓","lon":"121.47615","lat":"31.259264","category":"47","category_name":"住宅区","address":"上海市闸北区宝通路425号"},{"poiid":"B2094757D06FA1FB4799","title":"天通庵路客服中心","lon":"121.475173","lat":"31.260955","category":"253","category_name":"校园生活","address":"上海天通庵路423号"},{"poiid":"B2094757D164ABFE439C","title":"达人面馆","lon":"121.476017103","lat":"31.258874181","category":"68","category_name":"快餐厅","address":"闸北区宝通路402号(近中兴路)"},{"poiid":"B2094757D069A2FE499F","title":"虹口区业余大学","lon":"121.479806","lat":"31.258855","category":"52","category_name":"高等院校","address":"上海东宝兴路440号"},{"poiid":"B2094757D069A3FC479E","title":"梦影酒楼","lon":"121.47551","lat":"31.2594","category":"68","category_name":"快餐厅","address":"闸北区宝通路449号(宝通路中华新路)"},{"poiid":"B2094757DB6FAAFF419B","title":"世纪大道地铁站","lon":"121.480201155577","lat":"31.25980006696586","category":"36","category_name":"地铁站","address":"世纪大道"},{"poiid":"B2094757D068AAF8429B","title":"全家便利(宝通店)","lon":"121.4773575","lat":"31.2570752","category":"117","category_name":"便民商店/便利店","address":"上海闸北区宝山路452号(近宝通路)"},{"poiid":"B2094757D66BA3F5409B","title":"潮汕野味馆","lon":"121.477738","lat":"31.256928","category":"72","category_name":"广东菜","address":"闸北区宝通路263号(近宝山路)"},{"poiid":"B2094757D66DA2FD419F","title":"老李涮锅","lon":"121.4789598","lat":"31.257710956","category":"247","category_name":"餐饮美食","address":"上海同心路"},{"poiid":"B2094654DB6BA3FA4599","title":"好德(宝山路)","lon":"121.47787","lat":"31.25802","category":"117","category_name":"便民商店/便利店","address":"宝山路501"},{"poiid":"B2094757D16DA3FF459E","title":"小诸烧烤","lon":"121.4803221","lat":"31.258461172","category":"247","category_name":"餐饮美食","address":"上海东宝兴路轻轨下面"},{"poiid":"B2094655D26BA4F5479D","title":"重庆鸡公煲 宝昌路店","lon":"121.477255054","lat":"31.255787793","category":"71","category_name":"四川菜","address":"闸北区宝昌路151号(近宝山路)"},{"poiid":"B2094757D66BA6FC459B","title":"方鑫酒家","lon":"121.47615072496","lat":"31.256792715464","category":"76","category_name":"上海菜","address":"闸北区宝昌路216号(近宝山路)"},{"poiid":"B2094757D069A6F54498","title":"小东北烧烤","lon":"121.47581","lat":"31.26189","category":"257","category_name":"中餐厅","address":"闸北区东宝兴路714号(近天通庵路)"},{"poiid":"B2094655D26FA7FE4398","title":"宝山路499弄小区(西门)","lon":"121.47785","lat":"31.25791","category":"47","category_name":"住宅区","address":""},{"poiid":"B2094654D56EA2FF449F","title":"老城隍庙小吃 宝山路店","lon":"121.477736054","lat":"31.257835793","category":"68","category_name":"快餐厅","address":"闸北区宝山路393号(宝昌路口)"},{"poiid":"B2094655D26CA0FD449D","title":"良友(宝山路)","lon":"121.47816","lat":"31.25875","category":"117","category_name":"便民商店/便利店","address":"宝山路557"},{"poiid":"B2094655D26AA0F94193","title":"地铁东宝兴路站","lon":"121.47994","lat":"31.26011","category":"36","category_name":"地铁站","address":""},{"poiid":"B2094757D16CA1FF499E","title":"幻维数码","lon":"121.477357","lat":"31.258159","category":"249","category_name":"购物服务","address":"静安区威海路647弄15号3楼(近茂名北路)"},{"poiid":"B2094654D56EA2F84699","title":"老炼咸肉菜饭店","lon":"121.47917","lat":"31.25921","category":"68","category_name":"快餐厅","address":"虹口区东宝兴路460号(近宝山路)"},{"poiid":"B2094654D56CA2F5479E","title":"灵艺大厦","lon":"121.474533","lat":"31.257462","category":"46","category_name":"楼宇","address":"上海市闸北区永兴路525弄"},{"poiid":"B2094654D56EA2FA459D","title":"金宝大厦","lon":"121.47983","lat":"31.260185","category":"47","category_name":"住宅区","address":"上海市虹口区宝山路623,633号"},{"poiid":"B2094757D168A5F44798","title":"世纪烧烤","lon":"121.48002","lat":"31.258313","category":"68","category_name":"快餐厅","address":"虹口区东宝兴路(近轻轨三号线东宝兴路站)"},{"poiid":"B2094654D56EA2FF4698","title":"良友金伴No.450","lon":"121.47755","lat":"31.25708","category":"117","category_name":"便民商店/便利店","address":"宝通路271"},{"poiid":"B2094654D56DA1FB479F","title":"中铁物资大厦","lon":"121.479","lat":"31.2586","category":"46","category_name":"楼宇","address":"上海会文路88号"},{"poiid":"B2094654D56EA1F4419B","title":"中宝大厦","lon":"121.47483","lat":"31.2578","category":"46","category_name":"楼宇","address":"陆丰路100"},{"poiid":"B2094654D56DA0FD469A","title":"申北面馆","lon":"121.4766","lat":"31.25635","category":"268","category_name":"自助","address":"闸北区宝昌路230号(近宝山路)"},{"poiid":"B2094654DB65A3F44693","title":"华东理工大学网络教育学院市北教育中心","lon":"121.47809","lat":"31.25974","category":"52","category_name":"高等院校","address":"宝山路584"},{"poiid":"B2094655D36DA7F94192","title":"中兴路鸿兴路","lon":"121.47477","lat":"31.25727","category":"38","category_name":"公交车站","address":"上海中兴路鸿兴路"},{"poiid":"B2094654D56EA2F84493","title":"香辣麻辣烫","lon":"121.47882","lat":"31.25952","category":"68","category_name":"快餐厅","address":"闸北区东宝兴路480号(近宝山路)"},{"poiid":"B2094757D165ABF4459D","title":"阿英馆","lon":"121.4793805","lat":"31.258081264","category":"76","category_name":"上海菜","address":"虹口区东宝兴路428号(近轻轨3号线)"},{"poiid":"B2094655D26AA1FC459E","title":"好再来河南拉面馆东宝兴路店","lon":"121.479","lat":"31.25936","category":"68","category_name":"快餐厅","address":"闸北区东宝兴路474号(近宝山路)"},{"poiid":"B2094654D56EA1FA429D","title":"长征大厦","lon":"121.47733","lat":"31.260397","category":"47","category_name":"住宅区","address":"中兴路241弄"},{"poiid":"B2094751D26EA6F5469A","title":"星怡汇","lon":"121.477345","lat":"31.257235","category":"500","category_name":"未知分类","address":null},{"poiid":"B2094757D16AA4F5439E","title":"雅格造型","lon":"121.476215303","lat":"31.259020984","category":"148","category_name":"美容美发店","address":"上海市虹口区恒业路408号"},{"poiid":"B2094757D66CA2FB489C","title":"苏小绿","lon":"121.4765031","lat":"31.257512152","category":"500","category_name":"未知分类","address":"上海我心里永远长不大的孩纸"},{"poiid":"B2094654D56EA2F8479E","title":"上海电大虹口分校分部","lon":"121.47933","lat":"31.25877","category":"52","category_name":"高等院校","address":"闸北区东宝兴路440"},{"poiid":"B2094757D06EAAFA469E","title":"东宝兴路地铁站","lon":"121.47995875","lat":"31.260103405","category":"36","category_name":"地铁站","address":"上海轨道交通 三号线 轨交东宝兴路站 轻轨 3"},{"poiid":"B2094654D56DA1F44199","title":"铭德国际广场","lon":"121.477","lat":"31.2568","category":"46","category_name":"楼宇","address":"铁西兴华南街与十马路交汇处"},{"poiid":"B2094655D36CA6F44492","title":"东宝兴路中兴路","lon":"121.47758","lat":"31.26081","category":"38","category_name":"公交车站","address":"上海东宝兴路中兴路"},{"poiid":"B2094655D36CA5F54893","title":"宝山路","lon":"121.477415364418","lat":"31.25733917149673","category":"38","category_name":"公交车站","address":"上海市闸北区"},{"poiid":"B2094757D06EAAFA4098","title":"绿洲雅宾利","lon":"121.478","lat":"31.2615","category":"47","category_name":"住宅区","address":"上海中兴路止园路"},{"poiid":"B2094655D26FA1FB449A","title":"三宝花苑","lon":"121.47641","lat":"31.257627","category":"47","category_name":"住宅区","address":"上海市闸北区宝山路452号"},{"poiid":"B2094757D068A0F94093","title":"市北职业高级中学","lon":"121.47814178","lat":"31.259740829","category":"500","category_name":"未知分类","address":"闸北区宝山路584号(近东宝兴路)"},{"poiid":"B2094655D36CA6F44493","title":"东宝兴路","lon":"121.47783","lat":"31.25832","category":"38","category_name":"公交车站","address":""},{"poiid":"B2094753D469A4FE459A","title":"月星•环球港","lon":"121.478042","lat":"31.259443","category":"500","category_name":"未知分类","address":"上海市 普陀区中山北路3300号"},{"poiid":"B2094757D06AA0FD489C","title":"大桶大足浴(中兴店)","lon":"121.47759","lat":"31.25987","category":"149","category_name":"洗浴推拿场所","address":"闸北区中兴路237号(近东宝兴路)"},{"poiid":"B2094655D36CA5F54899","title":"宝通路","lon":"121.47661","lat":"31.25867","category":"38","category_name":"公交车站","address":"宝通路239弄"},{"poiid":"B2094752D665A2F54098","title":"食之秘（嘉杰国际店）","lon":"121.475081","lat":"31.25984","category":"247","category_name":"餐饮美食","address":"嘉杰国际广场"},{"poiid":"B2094654DB69A4FD4999","title":"锦江之星(四川北路店)","lon":"121.47928","lat":"31.25902","category":"216","category_name":"经济型连锁酒店","address":"上海市虹口区东宝兴路440号(近四川北路)"},{"poiid":"B2094654D56EA1FA4499","title":"宝通公寓","lon":"121.47615","lat":"31.259264","category":"47","category_name":"住宅区","address":"上海市闸北区宝通路425号"},{"poiid":"B2094757D06FA1FB4799","title":"天通庵路客服中心","lon":"121.475173","lat":"31.260955","category":"253","category_name":"校园生活","address":"上海天通庵路423号"},{"poiid":"B2094757D164ABFE439C","title":"达人面馆","lon":"121.476017103","lat":"31.258874181","category":"68","category_name":"快餐厅","address":"闸北区宝通路402号(近中兴路)"},{"poiid":"B2094757D069A2FE499F","title":"虹口区业余大学","lon":"121.479806","lat":"31.258855","category":"52","category_name":"高等院校","address":"上海东宝兴路440号"},{"poiid":"B2094757D069A3FC479E","title":"梦影酒楼","lon":"121.47551","lat":"31.2594","category":"68","category_name":"快餐厅","address":"闸北区宝通路449号(宝通路中华新路)"},{"poiid":"B2094757DB6FAAFF419B","title":"世纪大道地铁站","lon":"121.480201155577","lat":"31.25980006696586","category":"36","category_name":"地铁站","address":"世纪大道"},{"poiid":"B2094757D068AAF8429B","title":"全家便利(宝通店)","lon":"121.4773575","lat":"31.2570752","category":"117","category_name":"便民商店/便利店","address":"上海闸北区宝山路452号(近宝通路)"},{"poiid":"B2094757D66BA3F5409B","title":"潮汕野味馆","lon":"121.477738","lat":"31.256928","category":"72","category_name":"广东菜","address":"闸北区宝通路263号(近宝山路)"},{"poiid":"B2094757D66DA2FD419F","title":"老李涮锅","lon":"121.4789598","lat":"31.257710956","category":"247","category_name":"餐饮美食","address":"上海同心路"},{"poiid":"B2094654DB6BA3FA4599","title":"好德(宝山路)","lon":"121.47787","lat":"31.25802","category":"117","category_name":"便民商店/便利店","address":"宝山路501"},{"poiid":"B2094757D16DA3FF459E","title":"小诸烧烤","lon":"121.4803221","lat":"31.258461172","category":"247","category_name":"餐饮美食","address":"上海东宝兴路轻轨下面"},{"poiid":"B2094655D26BA4F5479D","title":"重庆鸡公煲 宝昌路店","lon":"121.477255054","lat":"31.255787793","category":"71","category_name":"四川菜","address":"闸北区宝昌路151号(近宝山路)"},{"poiid":"B2094757D66BA6FC459B","title":"方鑫酒家","lon":"121.47615072496","lat":"31.256792715464","category":"76","category_name":"上海菜","address":"闸北区宝昌路216号(近宝山路)"},{"poiid":"B2094757D069A6F54498","title":"小东北烧烤","lon":"121.47581","lat":"31.26189","category":"257","category_name":"中餐厅","address":"闸北区东宝兴路714号(近天通庵路)"},{"poiid":"B2094655D26FA7FE4398","title":"宝山路499弄小区(西门)","lon":"121.47785","lat":"31.25791","category":"47","category_name":"住宅区","address":""},{"poiid":"B2094654D56EA2FF449F","title":"老城隍庙小吃 宝山路店","lon":"121.477736054","lat":"31.257835793","category":"68","category_name":"快餐厅","address":"闸北区宝山路393号(宝昌路口)"},{"poiid":"B2094655D26CA0FD449D","title":"良友(宝山路)","lon":"121.47816","lat":"31.25875","category":"117","category_name":"便民商店/便利店","address":"宝山路557"},{"poiid":"B2094655D26AA0F94193","title":"地铁东宝兴路站","lon":"121.47994","lat":"31.26011","category":"36","category_name":"地铁站","address":""},{"poiid":"B2094757D16CA1FF499E","title":"幻维数码","lon":"121.477357","lat":"31.258159","category":"249","category_name":"购物服务","address":"静安区威海路647弄15号3楼(近茂名北路)"},{"poiid":"B2094654D56EA2F84699","title":"老炼咸肉菜饭店","lon":"121.47917","lat":"31.25921","category":"68","category_name":"快餐厅","address":"虹口区东宝兴路460号(近宝山路)"},{"poiid":"B2094654D56CA2F5479E","title":"灵艺大厦","lon":"121.474533","lat":"31.257462","category":"46","category_name":"楼宇","address":"上海市闸北区永兴路525弄"},{"poiid":"B2094654D56EA2FA459D","title":"金宝大厦","lon":"121.47983","lat":"31.260185","category":"47","category_name":"住宅区","address":"上海市虹口区宝山路623,633号"},{"poiid":"B2094757D168A5F44798","title":"世纪烧烤","lon":"121.48002","lat":"31.258313","category":"68","category_name":"快餐厅","address":"虹口区东宝兴路(近轻轨三号线东宝兴路站)"},{"poiid":"B2094654D56EA2FF4698","title":"良友金伴No.450","lon":"121.47755","lat":"31.25708","category":"117","category_name":"便民商店/便利店","address":"宝通路271"},{"poiid":"B2094654D56DA1FB479F","title":"中铁物资大厦","lon":"121.479","lat":"31.2586","category":"46","category_name":"楼宇","address":"上海会文路88号"},{"poiid":"B2094654D56EA1F4419B","title":"中宝大厦","lon":"121.47483","lat":"31.2578","category":"46","category_name":"楼宇","address":"陆丰路100"},{"poiid":"B2094654D56DA0FD469A","title":"申北面馆","lon":"121.4766","lat":"31.25635","category":"268","category_name":"自助","address":"闸北区宝昌路230号(近宝山路)"},{"poiid":"B2094654DB65A3F44693","title":"华东理工大学网络教育学院市北教育中心","lon":"121.47809","lat":"31.25974","category":"52","category_name":"高等院校","address":"宝山路584"},{"poiid":"B2094655D36DA7F94192","title":"中兴路鸿兴路","lon":"121.47477","lat":"31.25727","category":"38","category_name":"公交车站","address":"上海中兴路鸿兴路"},{"poiid":"B2094654D56EA2F84493","title":"香辣麻辣烫","lon":"121.47882","lat":"31.25952","category":"68","category_name":"快餐厅","address":"闸北区东宝兴路480号(近宝山路)"},{"poiid":"B2094757D165ABF4459D","title":"阿英馆","lon":"121.4793805","lat":"31.258081264","category":"76","category_name":"上海菜","address":"虹口区东宝兴路428号(近轻轨3号线)"},{"poiid":"B2094655D26AA1FC459E","title":"好再来河南拉面馆东宝兴路店","lon":"121.479","lat":"31.25936","category":"68","category_name":"快餐厅","address":"闸北区东宝兴路474号(近宝山路)"},{"poiid":"B2094654D56EA1FA429D","title":"长征大厦","lon":"121.47733","lat":"31.260397","category":"47","category_name":"住宅区","address":"中兴路241弄"},{"poiid":"B2094751D26EA6F5469A","title":"星怡汇","lon":"121.477345","lat":"31.257235","category":"500","category_name":"未知分类","address":null},{"poiid":"B2094757D16AA4F5439E","title":"雅格造型","lon":"121.476215303","lat":"31.259020984","category":"148","category_name":"美容美发店","address":"上海市虹口区恒业路408号"},{"poiid":"B2094757D66CA2FB489C","title":"苏小绿","lon":"121.4765031","lat":"31.257512152","category":"500","category_name":"未知分类","address":"上海我心里永远长不大的孩纸"},{"poiid":"B2094654D56EA2F8479E","title":"上海电大虹口分校分部","lon":"121.47933","lat":"31.25877","category":"52","category_name":"高等院校","address":"闸北区东宝兴路440"},{"poiid":"B2094757D06EAAFA469E","title":"东宝兴路地铁站","lon":"121.47995875","lat":"31.260103405","category":"36","category_name":"地铁站","address":"上海轨道交通 三号线 轨交东宝兴路站 轻轨 3"},{"poiid":"B2094654D56DA1F44199","title":"铭德国际广场","lon":"121.477","lat":"31.2568","category":"46","category_name":"楼宇","address":"铁西兴华南街与十马路交汇处"},{"poiid":"B2094655D36CA6F44492","title":"东宝兴路中兴路","lon":"121.47758","lat":"31.26081","category":"38","category_name":"公交车站","address":"上海东宝兴路中兴路"},{"poiid":"B2094655D36CA5F54893","title":"宝山路","lon":"121.477415364418","lat":"31.25733917149673","category":"38","category_name":"公交车站","address":"上海市闸北区"},{"poiid":"B2094757D06EAAFA4098","title":"绿洲雅宾利","lon":"121.478","lat":"31.2615","category":"47","category_name":"住宅区","address":"上海中兴路止园路"},{"poiid":"B2094655D26FA1FB449A","title":"三宝花苑","lon":"121.47641","lat":"31.257627","category":"47","category_name":"住宅区","address":"上海市闸北区宝山路452号"},{"poiid":"B2094757D068A0F94093","title":"市北职业高级中学","lon":"121.47814178","lat":"31.259740829","category":"500","category_name":"未知分类","address":"闸北区宝山路584号(近东宝兴路)"},{"poiid":"B2094655D36CA6F44493","title":"东宝兴路","lon":"121.47783","lat":"31.25832","category":"38","category_name":"公交车站","address":""},{"poiid":"B2094753D469A4FE459A","title":"月星•环球港","lon":"121.478042","lat":"31.259443","category":"500","category_name":"未知分类","address":"上海市 普陀区中山北路3300号"},{"poiid":"B2094757D06AA0FD489C","title":"大桶大足浴(中兴店)","lon":"121.47759","lat":"31.25987","category":"149","category_name":"洗浴推拿场所","address":"闸北区中兴路237号(近东宝兴路)"},{"poiid":"B2094655D36CA5F54899","title":"宝通路","lon":"121.47661","lat":"31.25867","category":"38","category_name":"公交车站","address":"宝通路239弄"},{"poiid":"B2094752D665A2F54098","title":"食之秘（嘉杰国际店）","lon":"121.475081","lat":"31.25984","category":"247","category_name":"餐饮美食","address":"嘉杰国际广场"},{"poiid":"B2094654DB69A4FD4999","title":"锦江之星(四川北路店)","lon":"121.47928","lat":"31.25902","category":"216","category_name":"经济型连锁酒店","address":"上海市虹口区东宝兴路440号(近四川北路)"},{"poiid":"B2094654D56EA1FA4499","title":"宝通公寓","lon":"121.47615","lat":"31.259264","category":"47","category_name":"住宅区","address":"上海市闸北区宝通路425号"},{"poiid":"B2094757D06FA1FB4799","title":"天通庵路客服中心","lon":"121.475173","lat":"31.260955","category":"253","category_name":"校园生活","address":"上海天通庵路423号"},{"poiid":"B2094757D164ABFE439C","title":"达人面馆","lon":"121.476017103","lat":"31.258874181","category":"68","category_name":"快餐厅","address":"闸北区宝通路402号(近中兴路)"},{"poiid":"B2094757D069A2FE499F","title":"虹口区业余大学","lon":"121.479806","lat":"31.258855","category":"52","category_name":"高等院校","address":"上海东宝兴路440号"},{"poiid":"B2094757D069A3FC479E","title":"梦影酒楼","lon":"121.47551","lat":"31.2594","category":"68","category_name":"快餐厅","address":"闸北区宝通路449号(宝通路中华新路)"},{"poiid":"B2094757DB6FAAFF419B","title":"世纪大道地铁站","lon":"121.480201155577","lat":"31.25980006696586","category":"36","category_name":"地铁站","address":"世纪大道"},{"poiid":"B2094757D068AAF8429B","title":"全家便利(宝通店)","lon":"121.4773575","lat":"31.2570752","category":"117","category_name":"便民商店/便利店","address":"上海闸北区宝山路452号(近宝通路)"},{"poiid":"B2094757D66BA3F5409B","title":"潮汕野味馆","lon":"121.477738","lat":"31.256928","category":"72","category_name":"广东菜","address":"闸北区宝通路263号(近宝山路)"},{"poiid":"B2094757D66DA2FD419F","title":"老李涮锅","lon":"121.4789598","lat":"31.257710956","category":"247","category_name":"餐饮美食","address":"上海同心路"},{"poiid":"B2094654DB6BA3FA4599","title":"好德(宝山路)","lon":"121.47787","lat":"31.25802","category":"117","category_name":"便民商店/便利店","address":"宝山路501"},{"poiid":"B2094757D16DA3FF459E","title":"小诸烧烤","lon":"121.4803221","lat":"31.258461172","category":"247","category_name":"餐饮美食","address":"上海东宝兴路轻轨下面"},{"poiid":"B2094655D26BA4F5479D","title":"重庆鸡公煲 宝昌路店","lon":"121.477255054","lat":"31.255787793","category":"71","category_name":"四川菜","address":"闸北区宝昌路151号(近宝山路)"},{"poiid":"B2094757D66BA6FC459B","title":"方鑫酒家","lon":"121.47615072496","lat":"31.256792715464","category":"76","category_name":"上海菜","address":"闸北区宝昌路216号(近宝山路)"},{"poiid":"B2094757D069A6F54498","title":"小东北烧烤","lon":"121.47581","lat":"31.26189","category":"257","category_name":"中餐厅","address":"闸北区东宝兴路714号(近天通庵路)"},{"poiid":"B2094655D26FA7FE4398","title":"宝山路499弄小区(西门)","lon":"121.47785","lat":"31.25791","category":"47","category_name":"住宅区","address":""},{"poiid":"B2094654D56EA2FF449F","title":"老城隍庙小吃 宝山路店","lon":"121.477736054","lat":"31.257835793","category":"68","category_name":"快餐厅","address":"闸北区宝山路393号(宝昌路口)"},{"poiid":"B2094655D26CA0FD449D","title":"良友(宝山路)","lon":"121.47816","lat":"31.25875","category":"117","category_name":"便民商店/便利店","address":"宝山路557"},{"poiid":"B2094655D26AA0F94193","title":"地铁东宝兴路站","lon":"121.47994","lat":"31.26011","category":"36","category_name":"地铁站","address":""},{"poiid":"B2094757D16CA1FF499E","title":"幻维数码","lon":"121.477357","lat":"31.258159","category":"249","category_name":"购物服务","address":"静安区威海路647弄15号3楼(近茂名北路)"},{"poiid":"B2094654D56EA2F84699","title":"老炼咸肉菜饭店","lon":"121.47917","lat":"31.25921","category":"68","category_name":"快餐厅","address":"虹口区东宝兴路460号(近宝山路)"},{"poiid":"B2094654D56CA2F5479E","title":"灵艺大厦","lon":"121.474533","lat":"31.257462","category":"46","category_name":"楼宇","address":"上海市闸北区永兴路525弄"},{"poiid":"B2094654D56EA2FA459D","title":"金宝大厦","lon":"121.47983","lat":"31.260185","category":"47","category_name":"住宅区","address":"上海市虹口区宝山路623,633号"},{"poiid":"B2094757D168A5F44798","title":"世纪烧烤","lon":"121.48002","lat":"31.258313","category":"68","category_name":"快餐厅","address":"虹口区东宝兴路(近轻轨三号线东宝兴路站)"},{"poiid":"B2094654D56EA2FF4698","title":"良友金伴No.450","lon":"121.47755","lat":"31.25708","category":"117","category_name":"便民商店/便利店","address":"宝通路271"},{"poiid":"B2094654D56DA1FB479F","title":"中铁物资大厦","lon":"121.479","lat":"31.2586","category":"46","category_name":"楼宇","address":"上海会文路88号"},{"poiid":"B2094654D56EA1F4419B","title":"中宝大厦","lon":"121.47483","lat":"31.2578","category":"46","category_name":"楼宇","address":"陆丰路100"},{"poiid":"B2094654D56DA0FD469A","title":"申北面馆","lon":"121.4766","lat":"31.25635","category":"268","category_name":"自助","address":"闸北区宝昌路230号(近宝山路)"},{"poiid":"B2094654DB65A3F44693","title":"华东理工大学网络教育学院市北教育中心","lon":"121.47809","lat":"31.25974","category":"52","category_name":"高等院校","address":"宝山路584"},{"poiid":"B2094655D36DA7F94192","title":"中兴路鸿兴路","lon":"121.47477","lat":"31.25727","category":"38","category_name":"公交车站","address":"上海中兴路鸿兴路"},{"poiid":"B2094654D56EA2F84493","title":"香辣麻辣烫","lon":"121.47882","lat":"31.25952","category":"68","category_name":"快餐厅","address":"闸北区东宝兴路480号(近宝山路)"},{"poiid":"B2094757D165ABF4459D","title":"阿英馆","lon":"121.4793805","lat":"31.258081264","category":"76","category_name":"上海菜","address":"虹口区东宝兴路428号(近轻轨3号线)"},{"poiid":"B2094655D26AA1FC459E","title":"好再来河南拉面馆东宝兴路店","lon":"121.479","lat":"31.25936","category":"68","category_name":"快餐厅","address":"闸北区东宝兴路474号(近宝山路)"},{"poiid":"B2094654D56EA1FA429D","title":"长征大厦","lon":"121.47733","lat":"31.260397","category":"47","category_name":"住宅区","address":"中兴路241弄"},{"poiid":"B2094751D26EA6F5469A","title":"星怡汇","lon":"121.477345","lat":"31.257235","category":"500","category_name":"未知分类","address":null},{"poiid":"B2094757D16AA4F5439E","title":"雅格造型","lon":"121.476215303","lat":"31.259020984","category":"148","category_name":"美容美发店","address":"上海市虹口区恒业路408号"},{"poiid":"B2094757D66CA2FB489C","title":"苏小绿","lon":"121.4765031","lat":"31.257512152","category":"500","category_name":"未知分类","address":"上海我心里永远长不大的孩纸"},{"poiid":"B2094654D56EA2F8479E","title":"上海电大虹口分校分部","lon":"121.47933","lat":"31.25877","category":"52","category_name":"高等院校","address":"闸北区东宝兴路440"},{"poiid":"B2094757D06EAAFA469E","title":"东宝兴路地铁站","lon":"121.47995875","lat":"31.260103405","category":"36","category_name":"地铁站","address":"上海轨道交通 三号线 轨交东宝兴路站 轻轨 3"},{"poiid":"B2094654D56DA1F44199","title":"铭德国际广场","lon":"121.477","lat":"31.2568","category":"46","category_name":"楼宇","address":"铁西兴华南街与十马路交汇处"},{"poiid":"B2094655D36CA6F44492","title":"东宝兴路中兴路","lon":"121.47758","lat":"31.26081","category":"38","category_name":"公交车站","address":"上海东宝兴路中兴路"},{"poiid":"B2094655D36CA5F54893","title":"宝山路","lon":"121.477415364418","lat":"31.25733917149673","category":"38","category_name":"公交车站","address":"上海市闸北区"},{"poiid":"B2094757D06EAAFA4098","title":"绿洲雅宾利","lon":"121.478","lat":"31.2615","category":"47","category_name":"住宅区","address":"上海中兴路止园路"},{"poiid":"B2094655D26FA1FB449A","title":"三宝花苑","lon":"121.47641","lat":"31.257627","category":"47","category_name":"住宅区","address":"上海市闸北区宝山路452号"},{"poiid":"B2094757D068A0F94093","title":"市北职业高级中学","lon":"121.47814178","lat":"31.259740829","category":"500","category_name":"未知分类","address":"闸北区宝山路584号(近东宝兴路)"},{"poiid":"B2094655D36CA6F44493","title":"东宝兴路","lon":"121.47783","lat":"31.25832","category":"38","category_name":"公交车站","address":""},{"poiid":"B2094753D469A4FE459A","title":"月星•环球港","lon":"121.478042","lat":"31.259443","category":"500","category_name":"未知分类","address":"上海市 普陀区中山北路3300号"},{"poiid":"B2094757D06AA0FD489C","title":"大桶大足浴(中兴店)","lon":"121.47759","lat":"31.25987","category":"149","category_name":"洗浴推拿场所","address":"闸北区中兴路237号(近东宝兴路)"},{"poiid":"B2094655D36CA5F54899","title":"宝通路","lon":"121.47661","lat":"31.25867","category":"38","category_name":"公交车站","address":"宝通路239弄"},{"poiid":"B2094752D665A2F54098","title":"食之秘（嘉杰国际店）","lon":"121.475081","lat":"31.25984","category":"247","category_name":"餐饮美食","address":"嘉杰国际广场"},{"poiid":"B2094654DB69A4FD4999","title":"锦江之星(四川北路店)","lon":"121.47928","lat":"31.25902","category":"216","category_name":"经济型连锁酒店","address":"上海市虹口区东宝兴路440号(近四川北路)"},{"poiid":"B2094654D56EA1FA4499","title":"宝通公寓","lon":"121.47615","lat":"31.259264","category":"47","category_name":"住宅区","address":"上海市闸北区宝通路425号"},{"poiid":"B2094757D06FA1FB4799","title":"天通庵路客服中心","lon":"121.475173","lat":"31.260955","category":"253","category_name":"校园生活","address":"上海天通庵路423号"},{"poiid":"B2094757D164ABFE439C","title":"达人面馆","lon":"121.476017103","lat":"31.258874181","category":"68","category_name":"快餐厅","address":"闸北区宝通路402号(近中兴路)"},{"poiid":"B2094757D069A2FE499F","title":"虹口区业余大学","lon":"121.479806","lat":"31.258855","category":"52","category_name":"高等院校","address":"上海东宝兴路440号"},{"poiid":"B2094757D069A3FC479E","title":"梦影酒楼","lon":"121.47551","lat":"31.2594","category":"68","category_name":"快餐厅","address":"闸北区宝通路449号(宝通路中华新路)"},{"poiid":"B2094757DB6FAAFF419B","title":"世纪大道地铁站","lon":"121.480201155577","lat":"31.25980006696586","category":"36","category_name":"地铁站","address":"世纪大道"},{"poiid":"B2094757D068AAF8429B","title":"全家便利(宝通店)","lon":"121.4773575","lat":"31.2570752","category":"117","category_name":"便民商店/便利店","address":"上海闸北区宝山路452号(近宝通路)"},{"poiid":"B2094757D66BA3F5409B","title":"潮汕野味馆","lon":"121.477738","lat":"31.256928","category":"72","category_name":"广东菜","address":"闸北区宝通路263号(近宝山路)"},{"poiid":"B2094757D66DA2FD419F","title":"老李涮锅","lon":"121.4789598","lat":"31.257710956","category":"247","category_name":"餐饮美食","address":"上海同心路"},{"poiid":"B2094654DB6BA3FA4599","title":"好德(宝山路)","lon":"121.47787","lat":"31.25802","category":"117","category_name":"便民商店/便利店","address":"宝山路501"},{"poiid":"B2094757D16DA3FF459E","title":"小诸烧烤","lon":"121.4803221","lat":"31.258461172","category":"247","category_name":"餐饮美食","address":"上海东宝兴路轻轨下面"},{"poiid":"B2094655D26BA4F5479D","title":"重庆鸡公煲 宝昌路店","lon":"121.477255054","lat":"31.255787793","category":"71","category_name":"四川菜","address":"闸北区宝昌路151号(近宝山路)"},{"poiid":"B2094757D66BA6FC459B","title":"方鑫酒家","lon":"121.47615072496","lat":"31.256792715464","category":"76","category_name":"上海菜","address":"闸北区宝昌路216号(近宝山路)"},{"poiid":"B2094757D069A6F54498","title":"小东北烧烤","lon":"121.47581","lat":"31.26189","category":"257","category_name":"中餐厅","address":"闸北区东宝兴路714号(近天通庵路)"},{"poiid":"B2094655D26FA7FE4398","title":"宝山路499弄小区(西门)","lon":"121.47785","lat":"31.25791","category":"47","category_name":"住宅区","address":""},{"poiid":"B2094654D56EA2FF449F","title":"老城隍庙小吃 宝山路店","lon":"121.477736054","lat":"31.257835793","category":"68","category_name":"快餐厅","address":"闸北区宝山路393号(宝昌路口)"},{"poiid":"B2094655D26CA0FD449D","title":"良友(宝山路)","lon":"121.47816","lat":"31.25875","category":"117","category_name":"便民商店/便利店","address":"宝山路557"},{"poiid":"B2094655D26AA0F94193","title":"地铁东宝兴路站","lon":"121.47994","lat":"31.26011","category":"36","category_name":"地铁站","address":""},{"poiid":"B2094757D16CA1FF499E","title":"幻维数码","lon":"121.477357","lat":"31.258159","category":"249","category_name":"购物服务","address":"静安区威海路647弄15号3楼(近茂名北路)"},{"poiid":"B2094654D56EA2F84699","title":"老炼咸肉菜饭店","lon":"121.47917","lat":"31.25921","category":"68","category_name":"快餐厅","address":"虹口区东宝兴路460号(近宝山路)"},{"poiid":"B2094654D56CA2F5479E","title":"灵艺大厦","lon":"121.474533","lat":"31.257462","category":"46","category_name":"楼宇","address":"上海市闸北区永兴路525弄"},{"poiid":"B2094654D56EA2FA459D","title":"金宝大厦","lon":"121.47983","lat":"31.260185","category":"47","category_name":"住宅区","address":"上海市虹口区宝山路623,633号"},{"poiid":"B2094757D168A5F44798","title":"世纪烧烤","lon":"121.48002","lat":"31.258313","category":"68","category_name":"快餐厅","address":"虹口区东宝兴路(近轻轨三号线东宝兴路站)"},{"poiid":"B2094654D56EA2FF4698","title":"良友金伴No.450","lon":"121.47755","lat":"31.25708","category":"117","category_name":"便民商店/便利店","address":"宝通路271"},{"poiid":"B2094654D56DA1FB479F","title":"中铁物资大厦","lon":"121.479","lat":"31.2586","category":"46","category_name":"楼宇","address":"上海会文路88号"},{"poiid":"B2094654D56EA1F4419B","title":"中宝大厦","lon":"121.47483","lat":"31.2578","category":"46","category_name":"楼宇","address":"陆丰路100"},{"poiid":"B2094654D56DA0FD469A","title":"申北面馆","lon":"121.4766","lat":"31.25635","category":"268","category_name":"自助","address":"闸北区宝昌路230号(近宝山路)"},{"poiid":"B2094654DB65A3F44693","title":"华东理工大学网络教育学院市北教育中心","lon":"121.47809","lat":"31.25974","category":"52","category_name":"高等院校","address":"宝山路584"},{"poiid":"B2094655D36DA7F94192","title":"中兴路鸿兴路","lon":"121.47477","lat":"31.25727","category":"38","category_name":"公交车站","address":"上海中兴路鸿兴路"},{"poiid":"B2094654D56EA2F84493","title":"香辣麻辣烫","lon":"121.47882","lat":"31.25952","category":"68","category_name":"快餐厅","address":"闸北区东宝兴路480号(近宝山路)"},{"poiid":"B2094757D165ABF4459D","title":"阿英馆","lon":"121.4793805","lat":"31.258081264","category":"76","category_name":"上海菜","address":"虹口区东宝兴路428号(近轻轨3号线)"},{"poiid":"B2094655D26AA1FC459E","title":"好再来河南拉面馆东宝兴路店","lon":"121.479","lat":"31.25936","category":"68","category_name":"快餐厅","address":"闸北区东宝兴路474号(近宝山路)"},{"poiid":"B2094654D56EA1FA429D","title":"长征大厦","lon":"121.47733","lat":"31.260397","category":"47","category_name":"住宅区","address":"中兴路241弄"},{"poiid":"B2094751D26EA6F5469A","title":"星怡汇","lon":"121.477345","lat":"31.257235","category":"500","category_name":"未知分类","address":null},{"poiid":"B2094757D16AA4F5439E","title":"雅格造型","lon":"121.476215303","lat":"31.259020984","category":"148","category_name":"美容美发店","address":"上海市虹口区恒业路408号"},{"poiid":"B2094757D66CA2FB489C","title":"苏小绿","lon":"121.4765031","lat":"31.257512152","category":"500","category_name":"未知分类","address":"上海我心里永远长不大的孩纸"},{"poiid":"B2094654D56EA2F8479E","title":"上海电大虹口分校分部","lon":"121.47933","lat":"31.25877","category":"52","category_name":"高等院校","address":"闸北区东宝兴路440"}]