[{"poiid":"B2094655D26CAAFF4992","title":"静安别墅","lon":"121.464","lat":"31.2349","category":"47","category_name":"住宅区","address":"静安区南京西路1025弄静安别墅81号(近茂名北路)"},{"poiid":"B2094655D36DA0FE409D","title":"新闸路地铁站","lon":"121.46668","lat":"31.23916","category":"36","category_name":"地铁站","address":""},{"poiid":"B2094757D06FA3FC4093","title":"上海苏州河畔国际青年旅舍","lon":"121.4650892","lat":"31.2407474","category":"216","category_name":"经济型连锁酒店","address":"黄浦区南苏州路1307号(近地铁1号线新闸路地铁站)"},{"poiid":"B2094753D76FAAFA449C","title":"上海滩国泰旗舰店","lon":"121.466011","lat":"31.216125","category":"249","category_name":"购物服务","address":"淮海中路868号"},{"poiid":"B209475CD564A7F84292","title":"上海滩新天地店","lon":"121.47463","lat":"31.22164","category":"119","category_name":"商场","address":"\"太仓路181弄新天地北里15号\r\n\""},{"poiid":"B209475CD564A7F8439E","title":"上海滩中信泰富店","lon":"121.45602","lat":"31.22851","category":"119","category_name":"商场","address":"\"南京西路1168号中信泰富广场，店铺号221.\r\n\""},{"poiid":"B2094757D06FAAFD409D","title":"中创大厦","lon":"121.467","lat":"31.2364","category":"46","category_name":"楼宇","address":"上海静安区南京西路819号"},{"poiid":"B2094757D06BA1FC4992","title":"WeeCoffee微咖","lon":"121.467156","lat":"31.239803901236","category":"65","category_name":"咖啡厅","address":"上海静安区新闸路356号102(近乌镇桥)"},{"poiid":"B2094757D069A5FD439F","title":"新闸路成都北路","lon":"121.464829","lat":"31.237632","category":"500","category_name":"未知分类","address":"上海新闸路成都北路"},{"poiid":"B2094654DA68A3F84993","title":"麦当劳(新闸路店)","lon":"121.46753","lat":"31.23901","category":"68","category_name":"快餐厅","address":"黄浦区新闸路245号(近新昌路)"},{"poiid":"B2094757D06FA5FD499F","title":"富春小笼(新闸路店)","lon":"121.463359","lat":"31.237918","category":"68","category_name":"快餐厅","address":"静安区新闸路557号(近成都北路)"},{"poiid":"B2094757D06FA6F84592","title":"黄浦区地方税务局","lon":"121.46609","lat":"31.240098","category":"252","category_name":"楼宇机构","address":"上海黄浦区新桥路68号"},{"poiid":"B2094757D069A2FD489B","title":"北京西路 成都北路 路口","lon":"121.46540683","lat":"31.236365878","category":"500","category_name":"未知分类","address":"上海北京西路 成都北路 路口"},{"poiid":"B2094757D06FA0F4439D","title":"南北高架（新闸路口）","lon":"121.46787262","lat":"31.237960815","category":"500","category_name":"未知分类","address":"上海南北高架（新闸路口）"},{"poiid":"B2094757D06BA2F4429D","title":"苏州河","lon":"121.468566895","lat":"31.2386283875","category":"234","category_name":"海滨浴场","address":"上海黄浦区"},{"poiid":"B2094751D468A4F5469C","title":"小杨生煎黄河路店","lon":"121.4675955718996","lat":"31.23632675273554","category":"247","category_name":"餐饮美食","address":"黄浦区黄河路97号1-3楼(近凤阳路)"},{"poiid":"B2094655D36DA6FE489C","title":"新闸路","lon":"121.46793","lat":"31.23845","category":"38","category_name":"公交车站","address":""},{"poiid":"B2094654DA68A3F9499C","title":"新桥大厦","lon":"121.46598","lat":"31.2402","category":"46","category_name":"楼宇","address":"新桥路68"},{"poiid":"B2094654DB65A2FC409D","title":"静安新时代大厦","lon":"121.467","lat":"31.2366","category":"46","category_name":"楼宇","address":"南京西路881号(吴江路188)"},{"poiid":"B2094655D26AA0FA4792","title":"地铁新闸路站","lon":"121.46793","lat":"31.23845","category":"36","category_name":"地铁站","address":""},{"poiid":"B2094654DA6CA1FF409D","title":"泰兴大楼","lon":"121.4651741425","lat":"31.236332098585","category":"46","category_name":"楼宇","address":"南京西路934号"},{"poiid":"B2094757D064A2FD419D","title":"Rita Drinks","lon":"121.464425","lat":"31.24035","category":"65","category_name":"咖啡厅","address":"静安区新闸路916号(近泰兴路)"},{"poiid":"B2094655D36CA5FF4193","title":"成都北路新闸路","lon":"121.46451","lat":"31.23745","category":"38","category_name":"公交车站","address":""},{"poiid":"B2094757D068A4FE469A","title":"九子公园","lon":"121.46420335","lat":"31.2404103746","category":"196","category_name":"公园","address":"黄浦区成都北路高架东侧(南苏州路)"},{"poiid":"B2094757D165A3F5439E","title":"中国劳动组合书记部旧址陈列馆","lon":"121.4645","lat":"31.23753","category":"182","category_name":"博物馆","address":"静安区成都北路893弄3-7号(成都北路新闸路)"},{"poiid":"B2094757D769A4F54993","title":"云曦小吃","lon":"121.463874054","lat":"31.236463793","category":"68","category_name":"快餐厅","address":"静安区山海关路296号(近成都北路)"},{"poiid":"B209475CD66AA3FD4599","title":"南京路步行街","lon":"121.465988","lat":"31.237194","category":"500","category_name":"未知分类","address":"上海市 南京东路"},{"poiid":"B2094752D669A5F9469E","title":"上海理工大学","lon":"121.462265","lat":"31.236358","category":"500","category_name":"未知分类","address":"军工路580号"},{"poiid":"B2094751D56DA5FC4992","title":"大悦城","lon":"121.466088","lat":"31.239219","category":"500","category_name":"未知分类","address":null},{"poiid":"B2094757D469A0FC409A","title":"阿牛嫂桂林米粉 新闸路店","lon":"121.4662106","lat":"31.2390461","category":"68","category_name":"快餐厅","address":"黄浦区新闸路392号(近新昌路)"},{"poiid":"B2094757D06FABF5429D","title":"南泰大厦","lon":"121.466","lat":"31.2367","category":"252","category_name":"楼宇机构","address":"上海南京西路920号"},{"poiid":"B2094757D66CA0FF4199","title":"成都北路","lon":"121.465531738","lat":"31.2359084211","category":"500","category_name":"未知分类","address":"上海市黄浦区"},{"poiid":"B2094750D26CA2F4489B","title":"新世界","lon":"121.467319","lat":"31.238781","category":"248","category_name":"生活娱乐","address":null},{"poiid":"B2094654DA6CA2F8479C","title":"长春藤运通大厦","lon":"121.46723175256","lat":"31.237013536146","category":"46","category_name":"楼宇","address":"卢湾区复兴中路369号(马当路口)"},{"poiid":"B2094757D069A0FD4193","title":"丽都新贵","lon":"121.466","lat":"31.2407","category":"500","category_name":"未知分类","address":"北一环与亳州路交叉口(庐阳区政府对面)"},{"poiid":"B2094654DA6CA5F44292","title":"康乐大楼","lon":"121.464","lat":"31.2378","category":"47","category_name":"住宅区","address":"北京西路940号"},{"poiid":"B2094654DB6BABFE449D","title":"可的","lon":"121.46517","lat":"31.23865","category":"117","category_name":"便民商店/便利店","address":"新闸路452"},{"poiid":"B2094751DA6FAAFA4598","title":"第一笼（黄河路店）","lon":"121.4665328","lat":"31.2365944","category":"247","category_name":"餐饮美食","address":"黄河路86号"},{"poiid":"B2094757D06AA0FD459C","title":"新东方人民广场校区","lon":"121.46692657","lat":"31.239282608","category":"500","category_name":"未知分类","address":"上海新闸路355号"},{"poiid":"B2094757D568A5FE419C","title":"平德里(东二门)","lon":"121.46423557","lat":"31.23761637","category":"47","category_name":"住宅区","address":"中国上海市静安区成都北路881"},{"poiid":"B2094655D26CAAFC4792","title":"三德小区","lon":"121.46624","lat":"31.236679","category":"47","category_name":"住宅区","address":"山海关路201弄"},{"poiid":"B2094654DB6BABFE449C","title":"良友(成都北路)","lon":"121.46549","lat":"31.23658","category":"117","category_name":"便民商店/便利店","address":"成都北路794"},{"poiid":"B2094757D16AA7F4439D","title":"国际贸易促进委员会","lon":"121.464686738","lat":"31.2376684586","category":"500","category_name":"未知分类","address":"上海市金陵西路28号"},{"poiid":"B209475CD469A1F4479C","title":"上海外滩","lon":"121.465995","lat":"31.236091","category":"500","category_name":"未知分类","address":"上海市 上海外滩"},{"poiid":"B2094752D06AA4FF4798","title":"杨浦公园","lon":"121.463638","lat":"31.239757","category":"250","category_name":"公园户外","address":null},{"poiid":"B2094757D56CA1F9469C","title":"福建千里香馄饨 新昌路","lon":"121.46381091419","lat":"31.23681111971","category":"247","category_name":"餐饮美食","address":"黄浦区新昌路285号(近北京西路)"},{"poiid":"B2094654DA6CA4FB479A","title":"上海市静安区第三中心小学","lon":"121.46327","lat":"31.2397","category":"56","category_name":"小学","address":"静安区成都北路997号(成都北路新闸路)"},{"poiid":"B2094757D064A1F5419B","title":"金色家园","lon":"121.46828","lat":"31.237923","category":"500","category_name":"未知分类","address":"上海市浦东新区上南路3024号"},{"poiid":"B2094757D064A7FE429F","title":"新闸路大田路","lon":"121.46358073","lat":"31.239127489","category":"500","category_name":"未知分类","address":"上海市静安区新闸路"},{"poiid":"B2094757D66EA2FD409E","title":"山海关路菜场","lon":"121.46550273","lat":"31.236939443","category":"249","category_name":"购物服务","address":"上海山海关路"},{"poiid":"B2094655D26CAAFF4992","title":"静安别墅","lon":"121.464","lat":"31.2349","category":"47","category_name":"住宅区","address":"静安区南京西路1025弄静安别墅81号(近茂名北路)"},{"poiid":"B2094655D36DA0FE409D","title":"新闸路地铁站","lon":"121.46668","lat":"31.23916","category":"36","category_name":"地铁站","address":""},{"poiid":"B2094757D06FA3FC4093","title":"上海苏州河畔国际青年旅舍","lon":"121.4650892","lat":"31.2407474","category":"216","category_name":"经济型连锁酒店","address":"黄浦区南苏州路1307号(近地铁1号线新闸路地铁站)"},{"poiid":"B2094753D76FAAFA449C","title":"上海滩国泰旗舰店","lon":"121.466011","lat":"31.216125","category":"249","category_name":"购物服务","address":"淮海中路868号"},{"poiid":"B209475CD564A7F84292","title":"上海滩新天地店","lon":"121.47463","lat":"31.22164","category":"119","category_name":"商场","address":"\"太仓路181弄新天地北里15号\r\n\""},{"poiid":"B209475CD564A7F8439E","title":"上海滩中信泰富店","lon":"121.45602","lat":"31.22851","category":"119","category_name":"商场","address":"\"南京西路1168号中信泰富广场，店铺号221.\r\n\""},{"poiid":"B2094757D06FAAFD409D","title":"中创大厦","lon":"121.467","lat":"31.2364","category":"46","category_name":"楼宇","address":"上海静安区南京西路819号"},{"poiid":"B2094757D06BA1FC4992","title":"WeeCoffee微咖","lon":"121.467156","lat":"31.239803901236","category":"65","category_name":"咖啡厅","address":"上海静安区新闸路356号102(近乌镇桥)"},{"poiid":"B2094757D069A5FD439F","title":"新闸路成都北路","lon":"121.464829","lat":"31.237632","category":"500","category_name":"未知分类","address":"上海新闸路成都北路"},{"poiid":"B2094654DA68A3F84993","title":"麦当劳(新闸路店)","lon":"121.46753","lat":"31.23901","category":"68","category_name":"快餐厅","address":"黄浦区新闸路245号(近新昌路)"},{"poiid":"B2094757D06FA5FD499F","title":"富春小笼(新闸路店)","lon":"121.463359","lat":"31.237918","category":"68","category_name":"快餐厅","address":"静安区新闸路557号(近成都北路)"},{"poiid":"B2094757D06FA6F84592","title":"黄浦区地方税务局","lon":"121.46609","lat":"31.240098","category":"252","category_name":"楼宇机构","address":"上海黄浦区新桥路68号"},{"poiid":"B2094757D069A2FD489B","title":"北京西路 成都北路 路口","lon":"121.46540683","lat":"31.236365878","category":"500","category_name":"未知分类","address":"上海北京西路 成都北路 路口"},{"poiid":"B2094757D06FA0F4439D","title":"南北高架（新闸路口）","lon":"121.46787262","lat":"31.237960815","category":"500","category_name":"未知分类","address":"上海南北高架（新闸路口）"},{"poiid":"B2094757D06BA2F4429D","title":"苏州河","lon":"121.468566895","lat":"31.2386283875","category":"234","category_name":"海滨浴场","address":"上海黄浦区"},{"poiid":"B2094751D468A4F5469C","title":"小杨生煎黄河路店","lon":"121.4675955718996","lat":"31.23632675273554","category":"247","category_name":"餐饮美食","address":"黄浦区黄河路97号1-3楼(近凤阳路)"},{"poiid":"B2094655D36DA6FE489C","title":"新闸路","lon":"121.46793","lat":"31.23845","category":"38","category_name":"公交车站","address":""},{"poiid":"B2094654DA68A3F9499C","title":"新桥大厦","lon":"121.46598","lat":"31.2402","category":"46","category_name":"楼宇","address":"新桥路68"},{"poiid":"B2094654DB65A2FC409D","title":"静安新时代大厦","lon":"121.467","lat":"31.2366","category":"46","category_name":"楼宇","address":"南京西路881号(吴江路188)"},{"poiid":"B2094655D26AA0FA4792","title":"地铁新闸路站","lon":"121.46793","lat":"31.23845","category":"36","category_name":"地铁站","address":""},{"poiid":"B2094654DA6CA1FF409D","title":"泰兴大楼","lon":"121.4651741425","lat":"31.236332098585","category":"46","category_name":"楼宇","address":"南京西路934号"},{"poiid":"B2094757D064A2FD419D","title":"Rita Drinks","lon":"121.464425","lat":"31.24035","category":"65","category_name":"咖啡厅","address":"静安区新闸路916号(近泰兴路)"},{"poiid":"B2094655D36CA5FF4193","title":"成都北路新闸路","lon":"121.46451","lat":"31.23745","category":"38","category_name":"公交车站","address":""},{"poiid":"B2094757D068A4FE469A","title":"九子公园","lon":"121.46420335","lat":"31.2404103746","category":"196","category_name":"公园","address":"黄浦区成都北路高架东侧(南苏州路)"},{"poiid":"B2094757D165A3F5439E","title":"中国劳动组合书记部旧址陈列馆","lon":"121.4645","lat":"31.23753","category":"182","category_name":"博物馆","address":"静安区成都北路893弄3-7号(成都北路新闸路)"},{"poiid":"B2094757D769A4F54993","title":"云曦小吃","lon":"121.463874054","lat":"31.236463793","category":"68","category_name":"快餐厅","address":"静安区山海关路296号(近成都北路)"},{"poiid":"B209475CD66AA3FD4599","title":"南京路步行街","lon":"121.465988","lat":"31.237194","category":"500","category_name":"未知分类","address":"上海市 南京东路"},{"poiid":"B2094752D669A5F9469E","title":"上海理工大学","lon":"121.462265","lat":"31.236358","category":"500","category_name":"未知分类","address":"军工路580号"},{"poiid":"B2094751D56DA5FC4992","title":"大悦城","lon":"121.466088","lat":"31.239219","category":"500","category_name":"未知分类","address":null},{"poiid":"B2094757D469A0FC409A","title":"阿牛嫂桂林米粉 新闸路店","lon":"121.4662106","lat":"31.2390461","category":"68","category_name":"快餐厅","address":"黄浦区新闸路392号(近新昌路)"},{"poiid":"B2094757D06FABF5429D","title":"南泰大厦","lon":"121.466","lat":"31.2367","category":"252","category_name":"楼宇机构","address":"上海南京西路920号"},{"poiid":"B2094757D66CA0FF4199","title":"成都北路","lon":"121.465531738","lat":"31.2359084211","category":"500","category_name":"未知分类","address":"上海市黄浦区"},{"poiid":"B2094750D26CA2F4489B","title":"新世界","lon":"121.467319","lat":"31.238781","category":"248","category_name":"生活娱乐","address":null},{"poiid":"B2094654DA6CA2F8479C","title":"长春藤运通大厦","lon":"121.46723175256","lat":"31.237013536146","category":"46","category_name":"楼宇","address":"卢湾区复兴中路369号(马当路口)"},{"poiid":"B2094757D069A0FD4193","title":"丽都新贵","lon":"121.466","lat":"31.2407","category":"500","category_name":"未知分类","address":"北一环与亳州路交叉口(庐阳区政府对面)"},{"poiid":"B2094654DA6CA5F44292","title":"康乐大楼","lon":"121.464","lat":"31.2378","category":"47","category_name":"住宅区","address":"北京西路940号"},{"poiid":"B2094654DB6BABFE449D","title":"可的","lon":"121.46517","lat":"31.23865","category":"117","category_name":"便民商店/便利店","address":"新闸路452"},{"poiid":"B2094751DA6FAAFA4598","title":"第一笼（黄河路店）","lon":"121.4665328","lat":"31.2365944","category":"247","category_name":"餐饮美食","address":"黄河路86号"},{"poiid":"B2094757D06AA0FD459C","title":"新东方人民广场校区","lon":"121.46692657","lat":"31.239282608","category":"500","category_name":"未知分类","address":"上海新闸路355号"},{"poiid":"B2094757D568A5FE419C","title":"平德里(东二门)","lon":"121.46423557","lat":"31.23761637","category":"47","category_name":"住宅区","address":"中国上海市静安区成都北路881"},{"poiid":"B2094655D26CAAFC4792","title":"三德小区","lon":"121.46624","lat":"31.236679","category":"47","category_name":"住宅区","address":"山海关路201弄"},{"poiid":"B2094654DB6BABFE449C","title":"良友(成都北路)","lon":"121.46549","lat":"31.23658","category":"117","category_name":"便民商店/便利店","address":"成都北路794"},{"poiid":"B2094757D16AA7F4439D","title":"国际贸易促进委员会","lon":"121.464686738","lat":"31.2376684586","category":"500","category_name":"未知分类","address":"上海市金陵西路28号"},{"poiid":"B209475CD469A1F4479C","title":"上海外滩","lon":"121.465995","lat":"31.236091","category":"500","category_name":"未知分类","address":"上海市 上海外滩"},{"poiid":"B2094752D06AA4FF4798","title":"杨浦公园","lon":"121.463638","lat":"31.239757","category":"250","category_name":"公园户外","address":null},{"poiid":"B2094757D56CA1F9469C","title":"福建千里香馄饨 新昌路","lon":"121.46381091419","lat":"31.23681111971","category":"247","category_name":"餐饮美食","address":"黄浦区新昌路285号(近北京西路)"},{"poiid":"B2094654DA6CA4FB479A","title":"上海市静安区第三中心小学","lon":"121.46327","lat":"31.2397","category":"56","category_name":"小学","address":"静安区成都北路997号(成都北路新闸路)"},{"poiid":"B2094757D064A1F5419B","title":"金色家园","lon":"121.46828","lat":"31.237923","category":"500","category_name":"未知分类","address":"上海市浦东新区上南路3024号"},{"poiid":"B2094757D064A7FE429F","title":"新闸路大田路","lon":"121.46358073","lat":"31.239127489","category":"500","category_name":"未知分类","address":"上海市静安区新闸路"},{"poiid":"B2094757D66EA2FD409E","title":"山海关路菜场","lon":"121.46550273","lat":"31.236939443","category":"249","category_name":"购物服务","address":"上海山海关路"},{"poiid":"B2094655D26CAAFF4992","title":"静安别墅","lon":"121.464","lat":"31.2349","category":"47","category_name":"住宅区","address":"静安区南京西路1025弄静安别墅81号(近茂名北路)"},{"poiid":"B2094655D36DA0FE409D","title":"新闸路地铁站","lon":"121.46668","lat":"31.23916","category":"36","category_name":"地铁站","address":""},{"poiid":"B2094757D06FA3FC4093","title":"上海苏州河畔国际青年旅舍","lon":"121.4650892","lat":"31.2407474","category":"216","category_name":"经济型连锁酒店","address":"黄浦区南苏州路1307号(近地铁1号线新闸路地铁站)"},{"poiid":"B2094753D76FAAFA449C","title":"上海滩国泰旗舰店","lon":"121.466011","lat":"31.216125","category":"249","category_name":"购物服务","address":"淮海中路868号"},{"poiid":"B209475CD564A7F84292","title":"上海滩新天地店","lon":"121.47463","lat":"31.22164","category":"119","category_name":"商场","address":"\"太仓路181弄新天地北里15号\r\n\""},{"poiid":"B209475CD564A7F8439E","title":"上海滩中信泰富店","lon":"121.45602","lat":"31.22851","category":"119","category_name":"商场","address":"\"南京西路1168号中信泰富广场，店铺号221.\r\n\""},{"poiid":"B2094757D06FAAFD409D","title":"中创大厦","lon":"121.467","lat":"31.2364","category":"46","category_name":"楼宇","address":"上海静安区南京西路819号"},{"poiid":"B2094757D06BA1FC4992","title":"WeeCoffee微咖","lon":"121.467156","lat":"31.239803901236","category":"65","category_name":"咖啡厅","address":"上海静安区新闸路356号102(近乌镇桥)"},{"poiid":"B2094757D069A5FD439F","title":"新闸路成都北路","lon":"121.464829","lat":"31.237632","category":"500","category_name":"未知分类","address":"上海新闸路成都北路"},{"poiid":"B2094654DA68A3F84993","title":"麦当劳(新闸路店)","lon":"121.46753","lat":"31.23901","category":"68","category_name":"快餐厅","address":"黄浦区新闸路245号(近新昌路)"},{"poiid":"B2094757D06FA5FD499F","title":"富春小笼(新闸路店)","lon":"121.463359","lat":"31.237918","category":"68","category_name":"快餐厅","address":"静安区新闸路557号(近成都北路)"},{"poiid":"B2094757D06FA6F84592","title":"黄浦区地方税务局","lon":"121.46609","lat":"31.240098","category":"252","category_name":"楼宇机构","address":"上海黄浦区新桥路68号"},{"poiid":"B2094757D069A2FD489B","title":"北京西路 成都北路 路口","lon":"121.46540683","lat":"31.236365878","category":"500","category_name":"未知分类","address":"上海北京西路 成都北路 路口"},{"poiid":"B2094757D06FA0F4439D","title":"南北高架（新闸路口）","lon":"121.46787262","lat":"31.237960815","category":"500","category_name":"未知分类","address":"上海南北高架（新闸路口）"},{"poiid":"B2094757D06BA2F4429D","title":"苏州河","lon":"121.468566895","lat":"31.2386283875","category":"234","category_name":"海滨浴场","address":"上海黄浦区"},{"poiid":"B2094751D468A4F5469C","title":"小杨生煎黄河路店","lon":"121.4675955718996","lat":"31.23632675273554","category":"247","category_name":"餐饮美食","address":"黄浦区黄河路97号1-3楼(近凤阳路)"},{"poiid":"B2094655D36DA6FE489C","title":"新闸路","lon":"121.46793","lat":"31.23845","category":"38","category_name":"公交车站","address":""},{"poiid":"B2094654DA68A3F9499C","title":"新桥大厦","lon":"121.46598","lat":"31.2402","category":"46","category_name":"楼宇","address":"新桥路68"},{"poiid":"B2094654DB65A2FC409D","title":"静安新时代大厦","lon":"121.467","lat":"31.2366","category":"46","category_name":"楼宇","address":"南京西路881号(吴江路188)"},{"poiid":"B2094655D26AA0FA4792","title":"地铁新闸路站","lon":"121.46793","lat":"31.23845","category":"36","category_name":"地铁站","address":""},{"poiid":"B2094654DA6CA1FF409D","title":"泰兴大楼","lon":"121.4651741425","lat":"31.236332098585","category":"46","category_name":"楼宇","address":"南京西路934号"},{"poiid":"B2094757D064A2FD419D","title":"Rita Drinks","lon":"121.464425","lat":"31.24035","category":"65","category_name":"咖啡厅","address":"静安区新闸路916号(近泰兴路)"},{"poiid":"B2094655D36CA5FF4193","title":"成都北路新闸路","lon":"121.46451","lat":"31.23745","category":"38","category_name":"公交车站","address":""},{"poiid":"B2094757D068A4FE469A","title":"九子公园","lon":"121.46420335","lat":"31.2404103746","category":"196","category_name":"公园","address":"黄浦区成都北路高架东侧(南苏州路)"},{"poiid":"B2094757D165A3F5439E","title":"中国劳动组合书记部旧址陈列馆","lon":"121.4645","lat":"31.23753","category":"182","category_name":"博物馆","address":"静安区成都北路893弄3-7号(成都北路新闸路)"},{"poiid":"B2094757D769A4F54993","title":"云曦小吃","lon":"121.463874054","lat":"31.236463793","category":"68","category_name":"快餐厅","address":"静安区山海关路296号(近成都北路)"},{"poiid":"B209475CD66AA3FD4599","title":"南京路步行街","lon":"121.465988","lat":"31.237194","category":"500","category_name":"未知分类","address":"上海市 南京东路"},{"poiid":"B2094752D669A5F9469E","title":"上海理工大学","lon":"121.462265","lat":"31.236358","category":"500","category_name":"未知分类","address":"军工路580号"},{"poiid":"B2094751D56DA5FC4992","title":"大悦城","lon":"121.466088","lat":"31.239219","category":"500","category_name":"未知分类","address":null},{"poiid":"B2094757D469A0FC409A","title":"阿牛嫂桂林米粉 新闸路店","lon":"121.4662106","lat":"31.2390461","category":"68","category_name":"快餐厅","address":"黄浦区新闸路392号(近新昌路)"},{"poiid":"B2094757D06FABF5429D","title":"南泰大厦","lon":"121.466","lat":"31.2367","category":"252","category_name":"楼宇机构","address":"上海南京西路920号"},{"poiid":"B2094757D66CA0FF4199","title":"成都北路","lon":"121.465531738","lat":"31.2359084211","category":"500","category_name":"未知分类","address":"上海市黄浦区"},{"poiid":"B2094750D26CA2F4489B","title":"新世界","lon":"121.467319","lat":"31.238781","category":"248","category_name":"生活娱乐","address":null},{"poiid":"B2094654DA6CA2F8479C","title":"长春藤运通大厦","lon":"121.46723175256","lat":"31.237013536146","category":"46","category_name":"楼宇","address":"卢湾区复兴中路369号(马当路口)"},{"poiid":"B2094757D069A0FD4193","title":"丽都新贵","lon":"121.466","lat":"31.2407","category":"500","category_name":"未知分类","address":"北一环与亳州路交叉口(庐阳区政府对面)"},{"poiid":"B2094654DA6CA5F44292","title":"康乐大楼","lon":"121.464","lat":"31.2378","category":"47","category_name":"住宅区","address":"北京西路940号"},{"poiid":"B2094654DB6BABFE449D","title":"可的","lon":"121.46517","lat":"31.23865","category":"117","category_name":"便民商店/便利店","address":"新闸路452"},{"poiid":"B2094751DA6FAAFA4598","title":"第一笼（黄河路店）","lon":"121.4665328","lat":"31.2365944","category":"247","category_name":"餐饮美食","address":"黄河路86号"},{"poiid":"B2094757D06AA0FD459C","title":"新东方人民广场校区","lon":"121.46692657","lat":"31.239282608","category":"500","category_name":"未知分类","address":"上海新闸路355号"},{"poiid":"B2094757D568A5FE419C","title":"平德里(东二门)","lon":"121.46423557","lat":"31.23761637","category":"47","category_name":"住宅区","address":"中国上海市静安区成都北路881"},{"poiid":"B2094655D26CAAFC4792","title":"三德小区","lon":"121.46624","lat":"31.236679","category":"47","category_name":"住宅区","address":"山海关路201弄"},{"poiid":"B2094654DB6BABFE449C","title":"良友(成都北路)","lon":"121.46549","lat":"31.23658","category":"117","category_name":"便民商店/便利店","address":"成都北路794"},{"poiid":"B2094757D16AA7F4439D","title":"国际贸易促进委员会","lon":"121.464686738","lat":"31.2376684586","category":"500","category_name":"未知分类","address":"上海市金陵西路28号"},{"poiid":"B209475CD469A1F4479C","title":"上海外滩","lon":"121.465995","lat":"31.236091","category":"500","category_name":"未知分类","address":"上海市 上海外滩"},{"poiid":"B2094752D06AA4FF4798","title":"杨浦公园","lon":"121.463638","lat":"31.239757","category":"250","category_name":"公园户外","address":null},{"poiid":"B2094757D56CA1F9469C","title":"福建千里香馄饨 新昌路","lon":"121.46381091419","lat":"31.23681111971","category":"247","category_name":"餐饮美食","address":"黄浦区新昌路285号(近北京西路)"},{"poiid":"B2094654DA6CA4FB479A","title":"上海市静安区第三中心小学","lon":"121.46327","lat":"31.2397","category":"56","category_name":"小学","address":"静安区成都北路997号(成都北路新闸路)"},{"poiid":"B2094757D064A1F5419B","title":"金色家园","lon":"121.46828","lat":"31.237923","category":"500","category_name":"未知分类","address":"上海市浦东新区上南路3024号"},{"poiid":"B2094757D064A7FE429F","title":"新闸路大田路","lon":"121.46358073","lat":"31.239127489","category":"500","category_name":"未知分类","address":"上海市静安区新闸路"},{"poiid":"B2094757D66EA2FD409E","title":"山海关路菜场","lon":"121.46550273","lat":"31.236939443","category":"249","category_name":"购物服务","address":"上海山海关路"},{"poiid":"B2094655D26CAAFF4992","title":"静安别墅","lon":"121.464","lat":"31.2349","category":"47","category_name":"住宅区","address":"静安区南京西路1025弄静安别墅81号(近茂名北路)"},{"poiid":"B2094655D36DA0FE409D","title":"新闸路地铁站","lon":"121.46668","lat":"31.23916","category":"36","category_name":"地铁站","address":""},{"poiid":"B2094757D06FA3FC4093","title":"上海苏州河畔国际青年旅舍","lon":"121.4650892","lat":"31.2407474","category":"216","category_name":"经济型连锁酒店","address":"黄浦区南苏州路1307号(近地铁1号线新闸路地铁站)"},{"poiid":"B2094753D76FAAFA449C","title":"上海滩国泰旗舰店","lon":"121.466011","lat":"31.216125","category":"249","category_name":"购物服务","address":"淮海中路868号"},{"poiid":"B209475CD564A7F84292","title":"上海滩新天地店","lon":"121.47463","lat":"31.22164","category":"119","category_name":"商场","address":"\"太仓路181弄新天地北里15号\r\n\""},{"poiid":"B209475CD564A7F8439E","title":"上海滩中信泰富店","lon":"121.45602","lat":"31.22851","category":"119","category_name":"商场","address":"\"南京西路1168号中信泰富广场，店铺号221.\r\n\""},{"poiid":"B2094757D06FAAFD409D","title":"中创大厦","lon":"121.467","lat":"31.2364","category":"46","category_name":"楼宇","address":"上海静安区南京西路819号"},{"poiid":"B2094757D06BA1FC4992","title":"WeeCoffee微咖","lon":"121.467156","lat":"31.239803901236","category":"65","category_name":"咖啡厅","address":"上海静安区新闸路356号102(近乌镇桥)"},{"poiid":"B2094757D069A5FD439F","title":"新闸路成都北路","lon":"121.464829","lat":"31.237632","category":"500","category_name":"未知分类","address":"上海新闸路成都北路"},{"poiid":"B2094654DA68A3F84993","title":"麦当劳(新闸路店)","lon":"121.46753","lat":"31.23901","category":"68","category_name":"快餐厅","address":"黄浦区新闸路245号(近新昌路)"},{"poiid":"B2094757D06FA5FD499F","title":"富春小笼(新闸路店)","lon":"121.463359","lat":"31.237918","category":"68","category_name":"快餐厅","address":"静安区新闸路557号(近成都北路)"},{"poiid":"B2094757D06FA6F84592","title":"黄浦区地方税务局","lon":"121.46609","lat":"31.240098","category":"252","category_name":"楼宇机构","address":"上海黄浦区新桥路68号"},{"poiid":"B2094757D069A2FD489B","title":"北京西路 成都北路 路口","lon":"121.46540683","lat":"31.236365878","category":"500","category_name":"未知分类","address":"上海北京西路 成都北路 路口"},{"poiid":"B2094757D06FA0F4439D","title":"南北高架（新闸路口）","lon":"121.46787262","lat":"31.237960815","category":"500","category_name":"未知分类","address":"上海南北高架（新闸路口）"},{"poiid":"B2094757D06BA2F4429D","title":"苏州河","lon":"121.468566895","lat":"31.2386283875","category":"234","category_name":"海滨浴场","address":"上海黄浦区"},{"poiid":"B2094751D468A4F5469C","title":"小杨生煎黄河路店","lon":"121.4675955718996","lat":"31.23632675273554","category":"247","category_name":"餐饮美食","address":"黄浦区黄河路97号1-3楼(近凤阳路)"},{"poiid":"B2094655D36DA6FE489C","title":"新闸路","lon":"121.46793","lat":"31.23845","category":"38","category_name":"公交车站","address":""},{"poiid":"B2094654DA68A3F9499C","title":"新桥大厦","lon":"121.46598","lat":"31.2402","category":"46","category_name":"楼宇","address":"新桥路68"},{"poiid":"B2094654DB65A2FC409D","title":"静安新时代大厦","lon":"121.467","lat":"31.2366","category":"46","category_name":"楼宇","address":"南京西路881号(吴江路188)"},{"poiid":"B2094655D26AA0FA4792","title":"地铁新闸路站","lon":"121.46793","lat":"31.23845","category":"36","category_name":"地铁站","address":""},{"poiid":"B2094654DA6CA1FF409D","title":"泰兴大楼","lon":"121.4651741425","lat":"31.236332098585","category":"46","category_name":"楼宇","address":"南京西路934号"},{"poiid":"B2094757D064A2FD419D","title":"Rita Drinks","lon":"121.464425","lat":"31.24035","category":"65","category_name":"咖啡厅","address":"静安区新闸路916号(近泰兴路)"},{"poiid":"B2094655D36CA5FF4193","title":"成都北路新闸路","lon":"121.46451","lat":"31.23745","category":"38","category_name":"公交车站","address":""},{"poiid":"B2094757D068A4FE469A","title":"九子公园","lon":"121.46420335","lat":"31.2404103746","category":"196","category_name":"公园","address":"黄浦区成都北路高架东侧(南苏州路)"},{"poiid":"B2094757D165A3F5439E","title":"中国劳动组合书记部旧址陈列馆","lon":"121.4645","lat":"31.23753","category":"182","category_name":"博物馆","address":"静安区成都北路893弄3-7号(成都北路新闸路)"},{"poiid":"B2094757D769A4F54993","title":"云曦小吃","lon":"121.463874054","lat":"31.236463793","category":"68","category_name":"快餐厅","address":"静安区山海关路296号(近成都北路)"},{"poiid":"B209475CD66AA3FD4599","title":"南京路步行街","lon":"121.465988","lat":"31.237194","category":"500","category_name":"未知分类","address":"上海市 南京东路"},{"poiid":"B2094752D669A5F9469E","title":"上海理工大学","lon":"121.462265","lat":"31.236358","category":"500","category_name":"未知分类","address":"军工路580号"},{"poiid":"B2094751D56DA5FC4992","title":"大悦城","lon":"121.466088","lat":"31.239219","category":"500","category_name":"未知分类","address":null},{"poiid":"B2094757D469A0FC409A","title":"阿牛嫂桂林米粉 新闸路店","lon":"121.4662106","lat":"31.2390461","category":"68","category_name":"快餐厅","address":"黄浦区新闸路392号(近新昌路)"},{"poiid":"B2094757D06FABF5429D","title":"南泰大厦","lon":"121.466","lat":"31.2367","category":"252","category_name":"楼宇机构","address":"上海南京西路920号"},{"poiid":"B2094757D66CA0FF4199","title":"成都北路","lon":"121.465531738","lat":"31.2359084211","category":"500","category_name":"未知分类","address":"上海市黄浦区"},{"poiid":"B2094750D26CA2F4489B","title":"新世界","lon":"121.467319","lat":"31.238781","category":"248","category_name":"生活娱乐","address":null},{"poiid":"B2094654DA6CA2F8479C","title":"长春藤运通大厦","lon":"121.46723175256","lat":"31.237013536146","category":"46","category_name":"楼宇","address":"卢湾区复兴中路369号(马当路口)"},{"poiid":"B2094757D069A0FD4193","title":"丽都新贵","lon":"121.466","lat":"31.2407","category":"500","category_name":"未知分类","address":"北一环与亳州路交叉口(庐阳区政府对面)"},{"poiid":"B2094654DA6CA5F44292","title":"康乐大楼","lon":"121.464","lat":"31.2378","category":"47","category_name":"住宅区","address":"北京西路940号"},{"poiid":"B2094654DB6BABFE449D","title":"可的","lon":"121.46517","lat":"31.23865","category":"117","category_name":"便民商店/便利店","address":"新闸路452"},{"poiid":"B2094751DA6FAAFA4598","title":"第一笼（黄河路店）","lon":"121.4665328","lat":"31.2365944","category":"247","category_name":"餐饮美食","address":"黄河路86号"},{"poiid":"B2094757D06AA0FD459C","title":"新东方人民广场校区","lon":"121.46692657","lat":"31.239282608","category":"500","category_name":"未知分类","address":"上海新闸路355号"},{"poiid":"B2094757D568A5FE419C","title":"平德里(东二门)","lon":"121.46423557","lat":"31.23761637","category":"47","category_name":"住宅区","address":"中国上海市静安区成都北路881"},{"poiid":"B2094655D26CAAFC4792","title":"三德小区","lon":"121.46624","lat":"31.236679","category":"47","category_name":"住宅区","address":"山海关路201弄"},{"poiid":"B2094654DB6BABFE449C","title":"良友(成都北路)","lon":"121.46549","lat":"31.23658","category":"117","category_name":"便民商店/便利店","address":"成都北路794"},{"poiid":"B2094757D16AA7F4439D","title":"国际贸易促进委员会","lon":"121.464686738","lat":"31.2376684586","category":"500","category_name":"未知分类","address":"上海市金陵西路28号"},{"poiid":"B209475CD469A1F4479C","title":"上海外滩","lon":"121.465995","lat":"31.236091","category":"500","category_name":"未知分类","address":"上海市 上海外滩"},{"poiid":"B2094752D06AA4FF4798","title":"杨浦公园","lon":"121.463638","lat":"31.239757","category":"250","category_name":"公园户外","address":null},{"poiid":"B2094757D56CA1F9469C","title":"福建千里香馄饨 新昌路","lon":"121.46381091419","lat":"31.23681111971","category":"247","category_name":"餐饮美食","address":"黄浦区新昌路285号(近北京西路)"},{"poiid":"B2094654DA6CA4FB479A","title":"上海市静安区第三中心小学","lon":"121.46327","lat":"31.2397","category":"56","category_name":"小学","address":"静安区成都北路997号(成都北路新闸路)"},{"poiid":"B2094757D064A1F5419B","title":"金色家园","lon":"121.46828","lat":"31.237923","category":"500","category_name":"未知分类","address":"上海市浦东新区上南路3024号"},{"poiid":"B2094757D064A7FE429F","title":"新闸路大田路","lon":"121.46358073","lat":"31.239127489","category":"500","category_name":"未知分类","address":"上海市静安区新闸路"},{"poiid":"B2094757D66EA2FD409E","title":"山海关路菜场","lon":"121.46550273","lat":"31.236939443","category":"249","category_name":"购物服务","address":"上海山海关路"}]