[{"poiid":"B2094757D06FA0F94692","title":"上海金融学院","lon":"121.6536383","lat":"31.2764308","category":"671","category_name":"高校中心点","address":"上海上川路995号"},{"poiid":"B2094654D569A2F9449E","title":"上海金融学院学生公寓","lon":"121.65841","lat":"31.27462","category":"47","category_name":"住宅区","address":"上海浦东新区民雪路108号"},{"poiid":"B2094655D26BA7F84499","title":"上海杉达学院","lon":"121.6587244618845","lat":"31.266664708677787","category":"253","category_name":"校园生活","address":"浦东新区金海路2727号"},{"poiid":"B2094752D56CA6F9459A","title":"宝龙城市广场","lon":"121.659509","lat":"31.272171","category":"47","category_name":"住宅区","address":"金海路2505弄近民耀路"},{"poiid":"B2094757D068A1F84599","title":"曹路","lon":"121.668468","lat":"31.278657","category":"500","category_name":"未知分类","address":"上海上川路川沙路"},{"poiid":"B2094654D569A3F5479E","title":"上海第二工业大学学生公寓","lon":"121.65776","lat":"31.26113","category":"47","category_name":"住宅区","address":""},{"poiid":"B2094757D06AA1FE419B","title":"杉达学院女生寝室","lon":"121.6590271","lat":"31.267677307","category":"500","category_name":"未知分类","address":null},{"poiid":"B2094757D16EABF9479D","title":"阳光苑","lon":"121.65295731","lat":"31.272371545","category":"47","category_name":"住宅区","address":"上海浦东新区民耀路268弄"},{"poiid":"B2094757D069A0F4419B","title":"梦奇园海鲜大酒店","lon":"121.66341","lat":"31.2742","category":"260","category_name":"其他","address":"浦东新区曹路镇民雨路390号(民春路)"},{"poiid":"B2094757D068A4FB489E","title":"上海金融学院图书馆","lon":"121.65375","lat":"31.27627","category":"253","category_name":"校园生活","address":"浦东新区上川路995号"},{"poiid":"B2094757D068A6FB409D","title":"上海第二工业大学图书馆","lon":"121.65252","lat":"31.26446","category":"253","category_name":"校园生活","address":"上海浦东新区金海路2360号"},{"poiid":"B2094757D168A2FD449F","title":"上海金融学院文博楼","lon":"121.65687445","lat":"31.275942651","category":"500","category_name":"未知分类","address":"上海上川路995号"},{"poiid":"B2094757D069A7FA4293","title":"上海金融学院六号教学楼","lon":"121.65058533","lat":"31.278383449","category":"500","category_name":"未知分类","address":"上海上川路995号"},{"poiid":"B2094757D069AAF94393","title":"万科蓝山别墅","lon":"121.6731491","lat":"31.269880294","category":"47","category_name":"住宅区","address":"中国上海市浦东新区金海路3333弄"},{"poiid":"B2094654D569A3FF419E","title":"杉达大学(金海路)","lon":"121.66515","lat":"31.26829","category":"671","category_name":"高校中心点","address":"浦东新区金海路2727号"},{"poiid":"B2094757D164A1F44298","title":"上海金融学院新苑二号","lon":"121.65838545","lat":"31.2812884666","category":"500","category_name":"未知分类","address":"上海市浦东新区民雪路"},{"poiid":"B2094655D26BA1F94099","title":"民耀路民区路","lon":"121.65265","lat":"31.27339","category":"38","category_name":"公交车站","address":""},{"poiid":"B2094757D168AAFD429B","title":"爱法花园二期","lon":"121.661","lat":"31.2763","category":"47","category_name":"住宅区","address":"民耀路423弄"},{"poiid":"B2094757D16CA3FC429F","title":"赵记麻辣烫","lon":"121.65879","lat":"31.27452","category":"68","category_name":"快餐厅","address":"浦东新区民雪路(金融学院宿舍对面)"},{"poiid":"B2094757D069A4FE479C","title":"蜀膳传火锅传奇 民耀路店","lon":"121.65199069654","lat":"31.27541289843","category":"86","category_name":"火锅店","address":"浦东新区民耀路217-219号(民区路民耀路)"},{"poiid":"B2094757D16FA5FE409E","title":"溢佳香","lon":"121.66238272","lat":"31.275625904","category":"68","category_name":"快餐厅","address":"浦东新区民雨路327-331号(近民雪路)"},{"poiid":"B2094757D064A4FD4099","title":"上海金融学院食堂","lon":"121.65265","lat":"31.27685","category":"68","category_name":"快餐厅","address":"浦东新区上海金融学院内"},{"poiid":"B2094757D16DAAFF429D","title":"中虹家园","lon":"121.66749805","lat":"31.2785678078","category":"500","category_name":"未知分类","address":"上海海鸣路98号"},{"poiid":"B2094757D06AA6F44798","title":"杉达黑暗料理街","lon":"121.65786","lat":"31.26612","category":"111","category_name":"休闲餐饮场所","address":"浦东新区金海路2727号杉达学院附近(近民耀路)"},{"poiid":"B2094655D264A5FA419D","title":"上海金融学院6号7号8号9号楼","lon":"121.66251","lat":"31.2766","category":"46","category_name":"楼宇","address":"曹路镇民雪路108号"},{"poiid":"B2094655D26BAAFF439F","title":"上海金融学院12号13号16号楼","lon":"121.66251","lat":"31.2766","category":"46","category_name":"楼宇","address":"曹路镇民雪路108号"},{"poiid":"B2094655D26BA1F5439B","title":"上海金融学院17号18号19号楼","lon":"121.66251","lat":"31.2766","category":"46","category_name":"楼宇","address":"曹路镇民雪路108号"},{"poiid":"B2094757D164A5FC499F","title":"佳室鸣香","lon":"121.65844","lat":"31.27527","category":"68","category_name":"快餐厅","address":"浦东新区民雪路108号(近上川路)"},{"poiid":"B2094757D164AAF5479A","title":"丰舍西苑","lon":"121.66266","lat":"31.2757","category":"47","category_name":"住宅区","address":"上海市浦东新区民雨路336弄"},{"poiid":"B2094757D065A4F54099","title":"民胜苑","lon":"121.66054879769","lat":"31.27680370356","category":"252","category_name":"楼宇机构","address":"民同路290弄"},{"poiid":"B2094757D76CA3F8439A","title":"都可茶饮 民雪路店 CoCo","lon":"121.65813","lat":"31.27536","category":"113","category_name":"冷饮店","address":"浦东新区民雪路108号(近上海金融学院)"},{"poiid":"B2094757D064A7F44298","title":"盛世春晓苑","lon":"121.66705","lat":"31.275658","category":"47","category_name":"住宅区","address":"上海市浦东新区民春路"},{"poiid":"B2094654D569A2F9459E","title":"爱晚亭湘菜馆","lon":"121.65917","lat":"31.27359","category":"77","category_name":"湖南菜","address":"浦东新区民春路125号(近上海金融学院学生公寓)"},{"poiid":"B2094757D465A4F8419A","title":"谷美法式西餐厅 LeGourmetBistro","lon":"121.662225","lat":"31.27828","category":"97","category_name":"法式菜品餐厅","address":"民雨路333弄1号近民春路"},{"poiid":"B2094757D66FA0FB4198","title":"台达能源技术(上海)有限公司","lon":"121.66121","lat":"31.279251","category":"500","category_name":"未知分类","address":"上海市浦东新区民夏路238号"},{"poiid":"B2094654D569A3FF4293","title":"上海金属高专学生公寓","lon":"121.6625","lat":"31.27659","category":"47","category_name":"住宅区","address":"民雪路108号"},{"poiid":"B2094655D265A6FA409E","title":"上海金融学院3号5号宿舍楼","lon":"121.66251","lat":"31.2766","category":"47","category_name":"住宅区","address":"曹路镇民雪路108号"},{"poiid":"B2094655D264A5FA419F","title":"上海金融学院1号2号4号宿舍楼","lon":"121.66251","lat":"31.2766","category":"47","category_name":"住宅区","address":"曹路镇民雪路108号"},{"poiid":"B2094655D265AAFC4193","title":"上海金融学院10号11号14号15号楼宿舍","lon":"121.66251","lat":"31.2766","category":"47","category_name":"住宅区","address":"曹路镇民雪路108号"},{"poiid":"B2094757D064A3F84399","title":"上海金融学院体育馆","lon":"121.65348815","lat":"31.276546478","category":"500","category_name":"未知分类","address":"浦东新区上川路995号上海金融学院内"},{"poiid":"B2094752D065A6FF409E","title":"上海浦东国际机场T1国际出口","lon":"121.661304","lat":"31.27601","category":"500","category_name":"未知分类","address":"上海浦东国际机场T1国际出口"},{"poiid":"B2094655D36CA2F4429F","title":"上川路华东路","lon":"121.65701","lat":"31.27666","category":"38","category_name":"公交车站","address":""},{"poiid":"B2094757D169A4FB4992","title":"曹路镇","lon":"121.66704745","lat":"31.278432404","category":"500","category_name":"未知分类","address":"上海市浦东新区上川路1639号"},{"poiid":"B2094655D36CA2F4429C","title":"上川路民雪路","lon":"121.65757","lat":"31.2768","category":"38","category_name":"公交车站","address":""},{"poiid":"B2094757D568A0FE4498","title":"Q & T Cafe(民雨路店)","lon":"121.6631","lat":"31.27535","category":"112","category_name":"糕饼店","address":"浦东新区民雨路380号(近上川路)"},{"poiid":"B2094654DB65A7F44893","title":"阿康烧烤(金融学院店)","lon":"121.65842","lat":"31.27473","category":"87","category_name":"特色／地方风味餐厅","address":"浦东新区民雪路"},{"poiid":"B2094654D569A2F9469B","title":"福建千里香馄饨民雪店","lon":"121.6584","lat":"31.27507","category":"257","category_name":"中餐厅","address":""},{"poiid":"B2094757D165A7FA4993","title":"タケの部屋","lon":"121.66219465","lat":"31.27590625","category":"500","category_name":"未知分类","address":null},{"poiid":"B2094654D569A2F8439D","title":"百味楼","lon":"121.65481","lat":"31.26933","category":"68","category_name":"快餐厅","address":"浦东新区曹路镇民耀路191号(阳光苑旁)"},{"poiid":"B2094654D569A2F9429C","title":"芭比镘头先锋服务社民雪分店","lon":"121.65788","lat":"31.27571","category":"247","category_name":"餐饮美食","address":""},{"poiid":"B2094757D06FA0F94692","title":"上海金融学院","lon":"121.6536383","lat":"31.2764308","category":"671","category_name":"高校中心点","address":"上海上川路995号"},{"poiid":"B2094654D569A2F9449E","title":"上海金融学院学生公寓","lon":"121.65841","lat":"31.27462","category":"47","category_name":"住宅区","address":"上海浦东新区民雪路108号"},{"poiid":"B2094655D26BA7F84499","title":"上海杉达学院","lon":"121.6587244618845","lat":"31.266664708677787","category":"253","category_name":"校园生活","address":"浦东新区金海路2727号"},{"poiid":"B2094752D56CA6F9459A","title":"宝龙城市广场","lon":"121.659509","lat":"31.272171","category":"47","category_name":"住宅区","address":"金海路2505弄近民耀路"},{"poiid":"B2094757D068A1F84599","title":"曹路","lon":"121.668468","lat":"31.278657","category":"500","category_name":"未知分类","address":"上海上川路川沙路"},{"poiid":"B2094654D569A3F5479E","title":"上海第二工业大学学生公寓","lon":"121.65776","lat":"31.26113","category":"47","category_name":"住宅区","address":""},{"poiid":"B2094757D06AA1FE419B","title":"杉达学院女生寝室","lon":"121.6590271","lat":"31.267677307","category":"500","category_name":"未知分类","address":null},{"poiid":"B2094757D16EABF9479D","title":"阳光苑","lon":"121.65295731","lat":"31.272371545","category":"47","category_name":"住宅区","address":"上海浦东新区民耀路268弄"},{"poiid":"B2094757D069A0F4419B","title":"梦奇园海鲜大酒店","lon":"121.66341","lat":"31.2742","category":"260","category_name":"其他","address":"浦东新区曹路镇民雨路390号(民春路)"},{"poiid":"B2094757D068A4FB489E","title":"上海金融学院图书馆","lon":"121.65375","lat":"31.27627","category":"253","category_name":"校园生活","address":"浦东新区上川路995号"},{"poiid":"B2094757D068A6FB409D","title":"上海第二工业大学图书馆","lon":"121.65252","lat":"31.26446","category":"253","category_name":"校园生活","address":"上海浦东新区金海路2360号"},{"poiid":"B2094757D168A2FD449F","title":"上海金融学院文博楼","lon":"121.65687445","lat":"31.275942651","category":"500","category_name":"未知分类","address":"上海上川路995号"},{"poiid":"B2094757D069A7FA4293","title":"上海金融学院六号教学楼","lon":"121.65058533","lat":"31.278383449","category":"500","category_name":"未知分类","address":"上海上川路995号"},{"poiid":"B2094757D069AAF94393","title":"万科蓝山别墅","lon":"121.6731491","lat":"31.269880294","category":"47","category_name":"住宅区","address":"中国上海市浦东新区金海路3333弄"},{"poiid":"B2094654D569A3FF419E","title":"杉达大学(金海路)","lon":"121.66515","lat":"31.26829","category":"671","category_name":"高校中心点","address":"浦东新区金海路2727号"},{"poiid":"B2094757D164A1F44298","title":"上海金融学院新苑二号","lon":"121.65838545","lat":"31.2812884666","category":"500","category_name":"未知分类","address":"上海市浦东新区民雪路"},{"poiid":"B2094655D26BA1F94099","title":"民耀路民区路","lon":"121.65265","lat":"31.27339","category":"38","category_name":"公交车站","address":""},{"poiid":"B2094757D168AAFD429B","title":"爱法花园二期","lon":"121.661","lat":"31.2763","category":"47","category_name":"住宅区","address":"民耀路423弄"},{"poiid":"B2094757D16CA3FC429F","title":"赵记麻辣烫","lon":"121.65879","lat":"31.27452","category":"68","category_name":"快餐厅","address":"浦东新区民雪路(金融学院宿舍对面)"},{"poiid":"B2094757D069A4FE479C","title":"蜀膳传火锅传奇 民耀路店","lon":"121.65199069654","lat":"31.27541289843","category":"86","category_name":"火锅店","address":"浦东新区民耀路217-219号(民区路民耀路)"},{"poiid":"B2094757D16FA5FE409E","title":"溢佳香","lon":"121.66238272","lat":"31.275625904","category":"68","category_name":"快餐厅","address":"浦东新区民雨路327-331号(近民雪路)"},{"poiid":"B2094757D064A4FD4099","title":"上海金融学院食堂","lon":"121.65265","lat":"31.27685","category":"68","category_name":"快餐厅","address":"浦东新区上海金融学院内"},{"poiid":"B2094757D16DAAFF429D","title":"中虹家园","lon":"121.66749805","lat":"31.2785678078","category":"500","category_name":"未知分类","address":"上海海鸣路98号"},{"poiid":"B2094757D06AA6F44798","title":"杉达黑暗料理街","lon":"121.65786","lat":"31.26612","category":"111","category_name":"休闲餐饮场所","address":"浦东新区金海路2727号杉达学院附近(近民耀路)"},{"poiid":"B2094655D264A5FA419D","title":"上海金融学院6号7号8号9号楼","lon":"121.66251","lat":"31.2766","category":"46","category_name":"楼宇","address":"曹路镇民雪路108号"},{"poiid":"B2094655D26BAAFF439F","title":"上海金融学院12号13号16号楼","lon":"121.66251","lat":"31.2766","category":"46","category_name":"楼宇","address":"曹路镇民雪路108号"},{"poiid":"B2094655D26BA1F5439B","title":"上海金融学院17号18号19号楼","lon":"121.66251","lat":"31.2766","category":"46","category_name":"楼宇","address":"曹路镇民雪路108号"},{"poiid":"B2094757D164A5FC499F","title":"佳室鸣香","lon":"121.65844","lat":"31.27527","category":"68","category_name":"快餐厅","address":"浦东新区民雪路108号(近上川路)"},{"poiid":"B2094757D164AAF5479A","title":"丰舍西苑","lon":"121.66266","lat":"31.2757","category":"47","category_name":"住宅区","address":"上海市浦东新区民雨路336弄"},{"poiid":"B2094757D065A4F54099","title":"民胜苑","lon":"121.66054879769","lat":"31.27680370356","category":"252","category_name":"楼宇机构","address":"民同路290弄"},{"poiid":"B2094757D76CA3F8439A","title":"都可茶饮 民雪路店 CoCo","lon":"121.65813","lat":"31.27536","category":"113","category_name":"冷饮店","address":"浦东新区民雪路108号(近上海金融学院)"},{"poiid":"B2094757D064A7F44298","title":"盛世春晓苑","lon":"121.66705","lat":"31.275658","category":"47","category_name":"住宅区","address":"上海市浦东新区民春路"},{"poiid":"B2094654D569A2F9459E","title":"爱晚亭湘菜馆","lon":"121.65917","lat":"31.27359","category":"77","category_name":"湖南菜","address":"浦东新区民春路125号(近上海金融学院学生公寓)"},{"poiid":"B2094757D465A4F8419A","title":"谷美法式西餐厅 LeGourmetBistro","lon":"121.662225","lat":"31.27828","category":"97","category_name":"法式菜品餐厅","address":"民雨路333弄1号近民春路"},{"poiid":"B2094757D66FA0FB4198","title":"台达能源技术(上海)有限公司","lon":"121.66121","lat":"31.279251","category":"500","category_name":"未知分类","address":"上海市浦东新区民夏路238号"},{"poiid":"B2094654D569A3FF4293","title":"上海金属高专学生公寓","lon":"121.6625","lat":"31.27659","category":"47","category_name":"住宅区","address":"民雪路108号"},{"poiid":"B2094655D265A6FA409E","title":"上海金融学院3号5号宿舍楼","lon":"121.66251","lat":"31.2766","category":"47","category_name":"住宅区","address":"曹路镇民雪路108号"},{"poiid":"B2094655D264A5FA419F","title":"上海金融学院1号2号4号宿舍楼","lon":"121.66251","lat":"31.2766","category":"47","category_name":"住宅区","address":"曹路镇民雪路108号"},{"poiid":"B2094655D265AAFC4193","title":"上海金融学院10号11号14号15号楼宿舍","lon":"121.66251","lat":"31.2766","category":"47","category_name":"住宅区","address":"曹路镇民雪路108号"},{"poiid":"B2094757D064A3F84399","title":"上海金融学院体育馆","lon":"121.65348815","lat":"31.276546478","category":"500","category_name":"未知分类","address":"浦东新区上川路995号上海金融学院内"},{"poiid":"B2094752D065A6FF409E","title":"上海浦东国际机场T1国际出口","lon":"121.661304","lat":"31.27601","category":"500","category_name":"未知分类","address":"上海浦东国际机场T1国际出口"},{"poiid":"B2094655D36CA2F4429F","title":"上川路华东路","lon":"121.65701","lat":"31.27666","category":"38","category_name":"公交车站","address":""},{"poiid":"B2094757D169A4FB4992","title":"曹路镇","lon":"121.66704745","lat":"31.278432404","category":"500","category_name":"未知分类","address":"上海市浦东新区上川路1639号"},{"poiid":"B2094655D36CA2F4429C","title":"上川路民雪路","lon":"121.65757","lat":"31.2768","category":"38","category_name":"公交车站","address":""},{"poiid":"B2094757D568A0FE4498","title":"Q & T Cafe(民雨路店)","lon":"121.6631","lat":"31.27535","category":"112","category_name":"糕饼店","address":"浦东新区民雨路380号(近上川路)"},{"poiid":"B2094654DB65A7F44893","title":"阿康烧烤(金融学院店)","lon":"121.65842","lat":"31.27473","category":"87","category_name":"特色／地方风味餐厅","address":"浦东新区民雪路"},{"poiid":"B2094654D569A2F9469B","title":"福建千里香馄饨民雪店","lon":"121.6584","lat":"31.27507","category":"257","category_name":"中餐厅","address":""},{"poiid":"B2094757D165A7FA4993","title":"タケの部屋","lon":"121.66219465","lat":"31.27590625","category":"500","category_name":"未知分类","address":null},{"poiid":"B2094654D569A2F8439D","title":"百味楼","lon":"121.65481","lat":"31.26933","category":"68","category_name":"快餐厅","address":"浦东新区曹路镇民耀路191号(阳光苑旁)"},{"poiid":"B2094654D569A2F9429C","title":"芭比镘头先锋服务社民雪分店","lon":"121.65788","lat":"31.27571","category":"247","category_name":"餐饮美食","address":""},{"poiid":"B2094757D06FA0F94692","title":"上海金融学院","lon":"121.6536383","lat":"31.2764308","category":"671","category_name":"高校中心点","address":"上海上川路995号"},{"poiid":"B2094654D569A2F9449E","title":"上海金融学院学生公寓","lon":"121.65841","lat":"31.27462","category":"47","category_name":"住宅区","address":"上海浦东新区民雪路108号"},{"poiid":"B2094655D26BA7F84499","title":"上海杉达学院","lon":"121.6587244618845","lat":"31.266664708677787","category":"253","category_name":"校园生活","address":"浦东新区金海路2727号"},{"poiid":"B2094752D56CA6F9459A","title":"宝龙城市广场","lon":"121.659509","lat":"31.272171","category":"47","category_name":"住宅区","address":"金海路2505弄近民耀路"},{"poiid":"B2094757D068A1F84599","title":"曹路","lon":"121.668468","lat":"31.278657","category":"500","category_name":"未知分类","address":"上海上川路川沙路"},{"poiid":"B2094654D569A3F5479E","title":"上海第二工业大学学生公寓","lon":"121.65776","lat":"31.26113","category":"47","category_name":"住宅区","address":""},{"poiid":"B2094757D06AA1FE419B","title":"杉达学院女生寝室","lon":"121.6590271","lat":"31.267677307","category":"500","category_name":"未知分类","address":null},{"poiid":"B2094757D16EABF9479D","title":"阳光苑","lon":"121.65295731","lat":"31.272371545","category":"47","category_name":"住宅区","address":"上海浦东新区民耀路268弄"},{"poiid":"B2094757D069A0F4419B","title":"梦奇园海鲜大酒店","lon":"121.66341","lat":"31.2742","category":"260","category_name":"其他","address":"浦东新区曹路镇民雨路390号(民春路)"},{"poiid":"B2094757D068A4FB489E","title":"上海金融学院图书馆","lon":"121.65375","lat":"31.27627","category":"253","category_name":"校园生活","address":"浦东新区上川路995号"},{"poiid":"B2094757D068A6FB409D","title":"上海第二工业大学图书馆","lon":"121.65252","lat":"31.26446","category":"253","category_name":"校园生活","address":"上海浦东新区金海路2360号"},{"poiid":"B2094757D168A2FD449F","title":"上海金融学院文博楼","lon":"121.65687445","lat":"31.275942651","category":"500","category_name":"未知分类","address":"上海上川路995号"},{"poiid":"B2094757D069A7FA4293","title":"上海金融学院六号教学楼","lon":"121.65058533","lat":"31.278383449","category":"500","category_name":"未知分类","address":"上海上川路995号"},{"poiid":"B2094757D069AAF94393","title":"万科蓝山别墅","lon":"121.6731491","lat":"31.269880294","category":"47","category_name":"住宅区","address":"中国上海市浦东新区金海路3333弄"},{"poiid":"B2094654D569A3FF419E","title":"杉达大学(金海路)","lon":"121.66515","lat":"31.26829","category":"671","category_name":"高校中心点","address":"浦东新区金海路2727号"},{"poiid":"B2094757D164A1F44298","title":"上海金融学院新苑二号","lon":"121.65838545","lat":"31.2812884666","category":"500","category_name":"未知分类","address":"上海市浦东新区民雪路"},{"poiid":"B2094655D26BA1F94099","title":"民耀路民区路","lon":"121.65265","lat":"31.27339","category":"38","category_name":"公交车站","address":""},{"poiid":"B2094757D168AAFD429B","title":"爱法花园二期","lon":"121.661","lat":"31.2763","category":"47","category_name":"住宅区","address":"民耀路423弄"},{"poiid":"B2094757D16CA3FC429F","title":"赵记麻辣烫","lon":"121.65879","lat":"31.27452","category":"68","category_name":"快餐厅","address":"浦东新区民雪路(金融学院宿舍对面)"},{"poiid":"B2094757D069A4FE479C","title":"蜀膳传火锅传奇 民耀路店","lon":"121.65199069654","lat":"31.27541289843","category":"86","category_name":"火锅店","address":"浦东新区民耀路217-219号(民区路民耀路)"},{"poiid":"B2094757D16FA5FE409E","title":"溢佳香","lon":"121.66238272","lat":"31.275625904","category":"68","category_name":"快餐厅","address":"浦东新区民雨路327-331号(近民雪路)"},{"poiid":"B2094757D064A4FD4099","title":"上海金融学院食堂","lon":"121.65265","lat":"31.27685","category":"68","category_name":"快餐厅","address":"浦东新区上海金融学院内"},{"poiid":"B2094757D16DAAFF429D","title":"中虹家园","lon":"121.66749805","lat":"31.2785678078","category":"500","category_name":"未知分类","address":"上海海鸣路98号"},{"poiid":"B2094757D06AA6F44798","title":"杉达黑暗料理街","lon":"121.65786","lat":"31.26612","category":"111","category_name":"休闲餐饮场所","address":"浦东新区金海路2727号杉达学院附近(近民耀路)"},{"poiid":"B2094655D264A5FA419D","title":"上海金融学院6号7号8号9号楼","lon":"121.66251","lat":"31.2766","category":"46","category_name":"楼宇","address":"曹路镇民雪路108号"},{"poiid":"B2094655D26BAAFF439F","title":"上海金融学院12号13号16号楼","lon":"121.66251","lat":"31.2766","category":"46","category_name":"楼宇","address":"曹路镇民雪路108号"},{"poiid":"B2094655D26BA1F5439B","title":"上海金融学院17号18号19号楼","lon":"121.66251","lat":"31.2766","category":"46","category_name":"楼宇","address":"曹路镇民雪路108号"},{"poiid":"B2094757D164A5FC499F","title":"佳室鸣香","lon":"121.65844","lat":"31.27527","category":"68","category_name":"快餐厅","address":"浦东新区民雪路108号(近上川路)"},{"poiid":"B2094757D164AAF5479A","title":"丰舍西苑","lon":"121.66266","lat":"31.2757","category":"47","category_name":"住宅区","address":"上海市浦东新区民雨路336弄"},{"poiid":"B2094757D065A4F54099","title":"民胜苑","lon":"121.66054879769","lat":"31.27680370356","category":"252","category_name":"楼宇机构","address":"民同路290弄"},{"poiid":"B2094757D76CA3F8439A","title":"都可茶饮 民雪路店 CoCo","lon":"121.65813","lat":"31.27536","category":"113","category_name":"冷饮店","address":"浦东新区民雪路108号(近上海金融学院)"},{"poiid":"B2094757D064A7F44298","title":"盛世春晓苑","lon":"121.66705","lat":"31.275658","category":"47","category_name":"住宅区","address":"上海市浦东新区民春路"},{"poiid":"B2094654D569A2F9459E","title":"爱晚亭湘菜馆","lon":"121.65917","lat":"31.27359","category":"77","category_name":"湖南菜","address":"浦东新区民春路125号(近上海金融学院学生公寓)"},{"poiid":"B2094757D465A4F8419A","title":"谷美法式西餐厅 LeGourmetBistro","lon":"121.662225","lat":"31.27828","category":"97","category_name":"法式菜品餐厅","address":"民雨路333弄1号近民春路"},{"poiid":"B2094757D66FA0FB4198","title":"台达能源技术(上海)有限公司","lon":"121.66121","lat":"31.279251","category":"500","category_name":"未知分类","address":"上海市浦东新区民夏路238号"},{"poiid":"B2094654D569A3FF4293","title":"上海金属高专学生公寓","lon":"121.6625","lat":"31.27659","category":"47","category_name":"住宅区","address":"民雪路108号"},{"poiid":"B2094655D265A6FA409E","title":"上海金融学院3号5号宿舍楼","lon":"121.66251","lat":"31.2766","category":"47","category_name":"住宅区","address":"曹路镇民雪路108号"},{"poiid":"B2094655D264A5FA419F","title":"上海金融学院1号2号4号宿舍楼","lon":"121.66251","lat":"31.2766","category":"47","category_name":"住宅区","address":"曹路镇民雪路108号"},{"poiid":"B2094655D265AAFC4193","title":"上海金融学院10号11号14号15号楼宿舍","lon":"121.66251","lat":"31.2766","category":"47","category_name":"住宅区","address":"曹路镇民雪路108号"},{"poiid":"B2094757D064A3F84399","title":"上海金融学院体育馆","lon":"121.65348815","lat":"31.276546478","category":"500","category_name":"未知分类","address":"浦东新区上川路995号上海金融学院内"},{"poiid":"B2094752D065A6FF409E","title":"上海浦东国际机场T1国际出口","lon":"121.661304","lat":"31.27601","category":"500","category_name":"未知分类","address":"上海浦东国际机场T1国际出口"},{"poiid":"B2094655D36CA2F4429F","title":"上川路华东路","lon":"121.65701","lat":"31.27666","category":"38","category_name":"公交车站","address":""},{"poiid":"B2094757D169A4FB4992","title":"曹路镇","lon":"121.66704745","lat":"31.278432404","category":"500","category_name":"未知分类","address":"上海市浦东新区上川路1639号"},{"poiid":"B2094655D36CA2F4429C","title":"上川路民雪路","lon":"121.65757","lat":"31.2768","category":"38","category_name":"公交车站","address":""},{"poiid":"B2094757D568A0FE4498","title":"Q & T Cafe(民雨路店)","lon":"121.6631","lat":"31.27535","category":"112","category_name":"糕饼店","address":"浦东新区民雨路380号(近上川路)"},{"poiid":"B2094654DB65A7F44893","title":"阿康烧烤(金融学院店)","lon":"121.65842","lat":"31.27473","category":"87","category_name":"特色／地方风味餐厅","address":"浦东新区民雪路"},{"poiid":"B2094654D569A2F9469B","title":"福建千里香馄饨民雪店","lon":"121.6584","lat":"31.27507","category":"257","category_name":"中餐厅","address":""},{"poiid":"B2094757D165A7FA4993","title":"タケの部屋","lon":"121.66219465","lat":"31.27590625","category":"500","category_name":"未知分类","address":null},{"poiid":"B2094654D569A2F8439D","title":"百味楼","lon":"121.65481","lat":"31.26933","category":"68","category_name":"快餐厅","address":"浦东新区曹路镇民耀路191号(阳光苑旁)"},{"poiid":"B2094654D569A2F9429C","title":"芭比镘头先锋服务社民雪分店","lon":"121.65788","lat":"31.27571","category":"247","category_name":"餐饮美食","address":""},{"poiid":"B2094757D06FA0F94692","title":"上海金融学院","lon":"121.6536383","lat":"31.2764308","category":"671","category_name":"高校中心点","address":"上海上川路995号"},{"poiid":"B2094654D569A2F9449E","title":"上海金融学院学生公寓","lon":"121.65841","lat":"31.27462","category":"47","category_name":"住宅区","address":"上海浦东新区民雪路108号"},{"poiid":"B2094655D26BA7F84499","title":"上海杉达学院","lon":"121.6587244618845","lat":"31.266664708677787","category":"253","category_name":"校园生活","address":"浦东新区金海路2727号"},{"poiid":"B2094752D56CA6F9459A","title":"宝龙城市广场","lon":"121.659509","lat":"31.272171","category":"47","category_name":"住宅区","address":"金海路2505弄近民耀路"},{"poiid":"B2094757D068A1F84599","title":"曹路","lon":"121.668468","lat":"31.278657","category":"500","category_name":"未知分类","address":"上海上川路川沙路"},{"poiid":"B2094654D569A3F5479E","title":"上海第二工业大学学生公寓","lon":"121.65776","lat":"31.26113","category":"47","category_name":"住宅区","address":""},{"poiid":"B2094757D06AA1FE419B","title":"杉达学院女生寝室","lon":"121.6590271","lat":"31.267677307","category":"500","category_name":"未知分类","address":null},{"poiid":"B2094757D16EABF9479D","title":"阳光苑","lon":"121.65295731","lat":"31.272371545","category":"47","category_name":"住宅区","address":"上海浦东新区民耀路268弄"},{"poiid":"B2094757D069A0F4419B","title":"梦奇园海鲜大酒店","lon":"121.66341","lat":"31.2742","category":"260","category_name":"其他","address":"浦东新区曹路镇民雨路390号(民春路)"},{"poiid":"B2094757D068A4FB489E","title":"上海金融学院图书馆","lon":"121.65375","lat":"31.27627","category":"253","category_name":"校园生活","address":"浦东新区上川路995号"},{"poiid":"B2094757D068A6FB409D","title":"上海第二工业大学图书馆","lon":"121.65252","lat":"31.26446","category":"253","category_name":"校园生活","address":"上海浦东新区金海路2360号"},{"poiid":"B2094757D168A2FD449F","title":"上海金融学院文博楼","lon":"121.65687445","lat":"31.275942651","category":"500","category_name":"未知分类","address":"上海上川路995号"},{"poiid":"B2094757D069A7FA4293","title":"上海金融学院六号教学楼","lon":"121.65058533","lat":"31.278383449","category":"500","category_name":"未知分类","address":"上海上川路995号"},{"poiid":"B2094757D069AAF94393","title":"万科蓝山别墅","lon":"121.6731491","lat":"31.269880294","category":"47","category_name":"住宅区","address":"中国上海市浦东新区金海路3333弄"},{"poiid":"B2094654D569A3FF419E","title":"杉达大学(金海路)","lon":"121.66515","lat":"31.26829","category":"671","category_name":"高校中心点","address":"浦东新区金海路2727号"},{"poiid":"B2094757D164A1F44298","title":"上海金融学院新苑二号","lon":"121.65838545","lat":"31.2812884666","category":"500","category_name":"未知分类","address":"上海市浦东新区民雪路"},{"poiid":"B2094655D26BA1F94099","title":"民耀路民区路","lon":"121.65265","lat":"31.27339","category":"38","category_name":"公交车站","address":""},{"poiid":"B2094757D168AAFD429B","title":"爱法花园二期","lon":"121.661","lat":"31.2763","category":"47","category_name":"住宅区","address":"民耀路423弄"},{"poiid":"B2094757D16CA3FC429F","title":"赵记麻辣烫","lon":"121.65879","lat":"31.27452","category":"68","category_name":"快餐厅","address":"浦东新区民雪路(金融学院宿舍对面)"},{"poiid":"B2094757D069A4FE479C","title":"蜀膳传火锅传奇 民耀路店","lon":"121.65199069654","lat":"31.27541289843","category":"86","category_name":"火锅店","address":"浦东新区民耀路217-219号(民区路民耀路)"},{"poiid":"B2094757D16FA5FE409E","title":"溢佳香","lon":"121.66238272","lat":"31.275625904","category":"68","category_name":"快餐厅","address":"浦东新区民雨路327-331号(近民雪路)"},{"poiid":"B2094757D064A4FD4099","title":"上海金融学院食堂","lon":"121.65265","lat":"31.27685","category":"68","category_name":"快餐厅","address":"浦东新区上海金融学院内"},{"poiid":"B2094757D16DAAFF429D","title":"中虹家园","lon":"121.66749805","lat":"31.2785678078","category":"500","category_name":"未知分类","address":"上海海鸣路98号"},{"poiid":"B2094757D06AA6F44798","title":"杉达黑暗料理街","lon":"121.65786","lat":"31.26612","category":"111","category_name":"休闲餐饮场所","address":"浦东新区金海路2727号杉达学院附近(近民耀路)"},{"poiid":"B2094655D264A5FA419D","title":"上海金融学院6号7号8号9号楼","lon":"121.66251","lat":"31.2766","category":"46","category_name":"楼宇","address":"曹路镇民雪路108号"},{"poiid":"B2094655D26BAAFF439F","title":"上海金融学院12号13号16号楼","lon":"121.66251","lat":"31.2766","category":"46","category_name":"楼宇","address":"曹路镇民雪路108号"},{"poiid":"B2094655D26BA1F5439B","title":"上海金融学院17号18号19号楼","lon":"121.66251","lat":"31.2766","category":"46","category_name":"楼宇","address":"曹路镇民雪路108号"},{"poiid":"B2094757D164A5FC499F","title":"佳室鸣香","lon":"121.65844","lat":"31.27527","category":"68","category_name":"快餐厅","address":"浦东新区民雪路108号(近上川路)"},{"poiid":"B2094757D164AAF5479A","title":"丰舍西苑","lon":"121.66266","lat":"31.2757","category":"47","category_name":"住宅区","address":"上海市浦东新区民雨路336弄"},{"poiid":"B2094757D065A4F54099","title":"民胜苑","lon":"121.66054879769","lat":"31.27680370356","category":"252","category_name":"楼宇机构","address":"民同路290弄"},{"poiid":"B2094757D76CA3F8439A","title":"都可茶饮 民雪路店 CoCo","lon":"121.65813","lat":"31.27536","category":"113","category_name":"冷饮店","address":"浦东新区民雪路108号(近上海金融学院)"},{"poiid":"B2094757D064A7F44298","title":"盛世春晓苑","lon":"121.66705","lat":"31.275658","category":"47","category_name":"住宅区","address":"上海市浦东新区民春路"},{"poiid":"B2094654D569A2F9459E","title":"爱晚亭湘菜馆","lon":"121.65917","lat":"31.27359","category":"77","category_name":"湖南菜","address":"浦东新区民春路125号(近上海金融学院学生公寓)"},{"poiid":"B2094757D465A4F8419A","title":"谷美法式西餐厅 LeGourmetBistro","lon":"121.662225","lat":"31.27828","category":"97","category_name":"法式菜品餐厅","address":"民雨路333弄1号近民春路"},{"poiid":"B2094757D66FA0FB4198","title":"台达能源技术(上海)有限公司","lon":"121.66121","lat":"31.279251","category":"500","category_name":"未知分类","address":"上海市浦东新区民夏路238号"},{"poiid":"B2094654D569A3FF4293","title":"上海金属高专学生公寓","lon":"121.6625","lat":"31.27659","category":"47","category_name":"住宅区","address":"民雪路108号"},{"poiid":"B2094655D265A6FA409E","title":"上海金融学院3号5号宿舍楼","lon":"121.66251","lat":"31.2766","category":"47","category_name":"住宅区","address":"曹路镇民雪路108号"},{"poiid":"B2094655D264A5FA419F","title":"上海金融学院1号2号4号宿舍楼","lon":"121.66251","lat":"31.2766","category":"47","category_name":"住宅区","address":"曹路镇民雪路108号"},{"poiid":"B2094655D265AAFC4193","title":"上海金融学院10号11号14号15号楼宿舍","lon":"121.66251","lat":"31.2766","category":"47","category_name":"住宅区","address":"曹路镇民雪路108号"},{"poiid":"B2094757D064A3F84399","title":"上海金融学院体育馆","lon":"121.65348815","lat":"31.276546478","category":"500","category_name":"未知分类","address":"浦东新区上川路995号上海金融学院内"},{"poiid":"B2094752D065A6FF409E","title":"上海浦东国际机场T1国际出口","lon":"121.661304","lat":"31.27601","category":"500","category_name":"未知分类","address":"上海浦东国际机场T1国际出口"},{"poiid":"B2094655D36CA2F4429F","title":"上川路华东路","lon":"121.65701","lat":"31.27666","category":"38","category_name":"公交车站","address":""},{"poiid":"B2094757D169A4FB4992","title":"曹路镇","lon":"121.66704745","lat":"31.278432404","category":"500","category_name":"未知分类","address":"上海市浦东新区上川路1639号"},{"poiid":"B2094655D36CA2F4429C","title":"上川路民雪路","lon":"121.65757","lat":"31.2768","category":"38","category_name":"公交车站","address":""},{"poiid":"B2094757D568A0FE4498","title":"Q & T Cafe(民雨路店)","lon":"121.6631","lat":"31.27535","category":"112","category_name":"糕饼店","address":"浦东新区民雨路380号(近上川路)"},{"poiid":"B2094654DB65A7F44893","title":"阿康烧烤(金融学院店)","lon":"121.65842","lat":"31.27473","category":"87","category_name":"特色／地方风味餐厅","address":"浦东新区民雪路"},{"poiid":"B2094654D569A2F9469B","title":"福建千里香馄饨民雪店","lon":"121.6584","lat":"31.27507","category":"257","category_name":"中餐厅","address":""},{"poiid":"B2094757D165A7FA4993","title":"タケの部屋","lon":"121.66219465","lat":"31.27590625","category":"500","category_name":"未知分类","address":null},{"poiid":"B2094654D569A2F8439D","title":"百味楼","lon":"121.65481","lat":"31.26933","category":"68","category_name":"快餐厅","address":"浦东新区曹路镇民耀路191号(阳光苑旁)"},{"poiid":"B2094654D569A2F9429C","title":"芭比镘头先锋服务社民雪分店","lon":"121.65788","lat":"31.27571","category":"247","category_name":"餐饮美食","address":""}]