[{"poiid":"B2094654D568AAFB489F","title":"上海通用汽车有限公司","lon":"121.62227","lat":"31.27651","category":"263","category_name":"公司","address":"浦东新区申江路1500号"},{"poiid":"B2094757D06FAAF4479F","title":"金桥文体中心","lon":"121.6099030083983","lat":"31.267896413802113","category":"221","category_name":"健身中心","address":"浦东新区金桥镇金高路1777号(近佳林路)"},{"poiid":"B2094757D06FA5FC459D","title":"廊亦舫酒楼(金桥店)","lon":"121.61029","lat":"31.26954","category":"76","category_name":"上海菜","address":"浦东新区金高路1757号(佳京路金高路)"},{"poiid":"B2094654D568A0FE4098","title":"魏记小厨","lon":"121.60855","lat":"31.26805","category":"257","category_name":"中餐厅","address":"浦东新区佳林路157号(近金高路)"},{"poiid":"B2094757D069A5FA459D","title":"上海通用汽车 南厂车身","lon":"121.619228339","lat":"31.2691012364","category":"500","category_name":"未知分类","address":"上海申江路1500"},{"poiid":"B2094751D36AA7FC4199","title":"玛格萝妮比萨屋(金高路店)","lon":"121.60959","lat":"31.26826","category":"94","category_name":"西餐厅","address":"浦东新区金高路1807号(近金桥文体中心)"},{"poiid":"B2094757D06FA6F84198","title":"上海通用汽车八号停车场","lon":"121.614784","lat":"31.279944","category":"500","category_name":"未知分类","address":"上海巨峰路  金京路"},{"poiid":"B2094655D265A6FF419A","title":"阳光城市家园","lon":"121.61479","lat":"31.272135","category":"47","category_name":"住宅区","address":"永宁路33弄"},{"poiid":"B2094757D46EAAF5459C","title":"光头烧烤 金高路店","lon":"121.608973","lat":"31.266761","category":"269","category_name":"烧烤","address":"金高路1895号近佳林路"},{"poiid":"B2094654D568A0FC4198","title":"上海通用汽车有限公司售后服务办公楼","lon":"121.61265","lat":"31.27379","category":"46","category_name":"楼宇","address":"佳桥路199"},{"poiid":"B2094654D568A0FD479F","title":"新金桥商业中心","lon":"121.61033","lat":"31.26948","category":"119","category_name":"商场","address":"佳林路78号"},{"poiid":"B2094757D069A2F4489A","title":"金苹果学校","lon":"121.61986","lat":"31.28107","category":"253","category_name":"校园生活","address":"浦东新区巨峰路1555号"},{"poiid":"B2094757D06AA0FB449C","title":"上海通用北厂总装","lon":"121.62230717","lat":"31.275640826","category":"46","category_name":"楼宇","address":"上海申江路1500号"},{"poiid":"B2094654D568A0FD439B","title":"阳光欧洲城蔷薇绅邻","lon":"121.61138","lat":"31.27231","category":"47","category_name":"住宅区","address":"金高路1617弄1-336号"},{"poiid":"B2094654D568A0F8449E","title":"金色米兰苑","lon":"121.62175757199","lat":"31.275163350192","category":"47","category_name":"住宅区","address":"佳乐路255弄1-53号"},{"poiid":"B2094757D065A1FB449F","title":"阳光欧洲城二期","lon":"121.615","lat":"31.2739","category":"47","category_name":"住宅区","address":"上海佳林路82弄"},{"poiid":"B2094655D26FA6F4419A","title":"阳光欧洲城","lon":"121.60782","lat":"31.271988","category":"47","category_name":"住宅区","address":"家京路99弄1-284号"},{"poiid":"B2094655D26CA7FE479E","title":"永业小区","lon":"121.61426","lat":"31.26496","category":"47","category_name":"住宅区","address":"佳虹路50弄1-30号"},{"poiid":"B2094655D26BA4FB439E","title":"上海通用汽车金京路5号门","lon":"121.61708","lat":"31.27238","category":"263","category_name":"公司","address":""},{"poiid":"B2094655D264AAFA459D","title":"阳光城市家园(西门)","lon":"121.61364","lat":"31.2721","category":"47","category_name":"住宅区","address":"永宁路33弄"},{"poiid":"B2094655D26FA1F44699","title":"莫泰168连锁旅店(张桥店)","lon":"121.60953","lat":"31.27474","category":"216","category_name":"经济型连锁酒店","address":"上海市浦东新区金高路1398号（近杨高北路）"},{"poiid":"B2094757D569A1FD419D","title":"金桥新城一期","lon":"121.61308","lat":"31.270317","category":"47","category_name":"住宅区","address":"上海市浦东新区杨高北路5291弄"},{"poiid":"B2094757D16AA0FF469F","title":"通用汽车售后大楼","lon":"121.612072","lat":"31.273807","category":"46","category_name":"楼宇","address":"上海佳桥路199号"},{"poiid":"B2094757D66EA7FB439B","title":"易初莲花","lon":"121.615884899","lat":"31.27578137","category":"249","category_name":"购物服务","address":"上海金高路1256号"},{"poiid":"B2094655D265A3FD4499","title":"上海通用汽车金京路6号门","lon":"121.61706","lat":"31.27122","category":"263","category_name":"公司","address":""},{"poiid":"B2094752D068AAFF469E","title":"浦东机场1号航站楼","lon":"121.615067","lat":"31.273117","category":"500","category_name":"未知分类","address":null},{"poiid":"B2094757D064A3FA4098","title":"上海通汇零部件配送中心有限公司","lon":"121.61429433","lat":"31.274672364","category":"500","category_name":"未知分类","address":"上海市浦东新区金京路1500号"},{"poiid":"B2094655D36CA0FA4498","title":"佳虹路永业路","lon":"121.61359","lat":"31.26737","category":"38","category_name":"公交车站","address":""},{"poiid":"B2094757D568A7FF459B","title":"金桥新城二期","lon":"121.617","lat":"31.2687","category":"47","category_name":"住宅区","address":"上海市浦东新区东陆路2000弄"},{"poiid":"B2094655D26FA0FC499F","title":"阳光欧洲城金色米兰苑(南门)","lon":"121.61508","lat":"31.26881","category":"47","category_name":"住宅区","address":"佳乐路255弄1-53号"},{"poiid":"B2094655D36DA0F4429B","title":"永宁路佳京路","lon":"121.61333","lat":"31.26945","category":"38","category_name":"公交车站","address":""},{"poiid":"B2094757D069A0FB429A","title":"Volvo Group (TTSC Building)","lon":"121.61422341","lat":"31.266951517","category":"500","category_name":"未知分类","address":"上海金京路2095号"},{"poiid":"B2094757D665A0FB489E","title":"DQ冰雪皇后 金高路店 Dairy Queen","lon":"121.610019054","lat":"31.279228793","category":"113","category_name":"冷饮店","address":"浦东新区金高路1256号卜蜂莲花内(近巨峰路)"},{"poiid":"B2094757D169A1FD4093","title":"T.S.烧烤","lon":"121.6161158","lat":"31.2684958","category":"247","category_name":"餐饮美食","address":"上海佳乐路永业路"},{"poiid":"B2094655D26CA6FD449F","title":"佳虹小区","lon":"121.61494","lat":"31.267649","category":"47","category_name":"住宅区","address":"永业路225弄"},{"poiid":"B2094757D068A4F5489A","title":"沃尔沃建筑设备(中国)有限公司","lon":"121.617134","lat":"31.266635","category":"263","category_name":"公司","address":"上海金京路2045号"},{"poiid":"B2094757D064A1F84399","title":"金达莱韩式料理店","lon":"121.60998","lat":"31.27776","category":"96","category_name":"韩国料理","address":"浦东新区金高路1296弄30号(近乐园路)"},{"poiid":"B2094757D069A2F5489C","title":"香啡缤(通用汽车店)","lon":"121.622680864","lat":"31.27630421","category":"260","category_name":"其他","address":"浦东新区申江路1500号上海通用汽车行政楼新楼M楼(近巨峰路)"},{"poiid":"B2094757D068A7F8439A","title":"金色米兰","lon":"121.615085","lat":"31.268814","category":"249","category_name":"购物服务","address":"上海佳乐路255"},{"poiid":"B2094654D568A0F8449C","title":"上海通用汽车榕桥路2号门(南2)","lon":"121.61855","lat":"31.26897","category":"263","category_name":"公司","address":"榕桥路"},{"poiid":"B2094751D26EA4FC4492","title":"上海通用汽车南厂总装","lon":"121.615417","lat":"31.267837","category":"259","category_name":"工厂","address":"浦东新区申江路1500号"},{"poiid":"B2094757D065A2F9449A","title":"乡村基 金桥易初店","lon":"121.609808054","lat":"31.279218793","category":"68","category_name":"快餐厅","address":"浦东新区金高路1256号卜蜂莲花超市旁(近巨峰路)"},{"poiid":"B2094654D568A0F84592","title":"上海通用汽车榕桥路1号门(南1)","lon":"121.6215","lat":"31.26862","category":"263","category_name":"公司","address":"榕桥路"},{"poiid":"B2094654DB6BA1FC4398","title":"上海通汇汽车零部件配送中心有限公司(一号门)","lon":"121.61588","lat":"31.27599","category":"263","category_name":"公司","address":"金京路1500"},{"poiid":"B2094757D165A3FE469E","title":"阳光欧洲城四期","lon":"121.617997","lat":"31.277438","category":"47","category_name":"住宅区","address":"上海市闵行区罗秀路1869号"},{"poiid":"B2094757D06BA3F84992","title":"张桥中心小学","lon":"121.612729","lat":"31.267781","category":"56","category_name":"小学","address":"浦东新区永宁路114-118号(佳虹路永宁路)"},{"poiid":"B2094757D16CA1F44693","title":"上海通用","lon":"121.622276306","lat":"31.276512146","category":"500","category_name":"未知分类","address":"上海申江路1500号"},{"poiid":"B2094753D56DABF94499","title":"巫山烤全鱼","lon":"121.60984","lat":"31.271471","category":"247","category_name":"餐饮美食","address":"上海市 凌河路813号"},{"poiid":"B2094655D26DA5F44098","title":"佳虹小区2期","lon":"121.61579","lat":"31.26699","category":"47","category_name":"住宅区","address":"永业路188弄、218弄"},{"poiid":"B2094654D568A0FD419D","title":"美林阁 金高路店","lon":"121.610083054","lat":"31.277976793","category":"76","category_name":"上海菜","address":"浦东新区金高路1398号(近花园路)"},{"poiid":"B2094654D568AAFB489F","title":"上海通用汽车有限公司","lon":"121.62227","lat":"31.27651","category":"263","category_name":"公司","address":"浦东新区申江路1500号"},{"poiid":"B2094757D06FAAF4479F","title":"金桥文体中心","lon":"121.6099030083983","lat":"31.267896413802113","category":"221","category_name":"健身中心","address":"浦东新区金桥镇金高路1777号(近佳林路)"},{"poiid":"B2094757D06FA5FC459D","title":"廊亦舫酒楼(金桥店)","lon":"121.61029","lat":"31.26954","category":"76","category_name":"上海菜","address":"浦东新区金高路1757号(佳京路金高路)"},{"poiid":"B2094654D568A0FE4098","title":"魏记小厨","lon":"121.60855","lat":"31.26805","category":"257","category_name":"中餐厅","address":"浦东新区佳林路157号(近金高路)"},{"poiid":"B2094757D069A5FA459D","title":"上海通用汽车 南厂车身","lon":"121.619228339","lat":"31.2691012364","category":"500","category_name":"未知分类","address":"上海申江路1500"},{"poiid":"B2094751D36AA7FC4199","title":"玛格萝妮比萨屋(金高路店)","lon":"121.60959","lat":"31.26826","category":"94","category_name":"西餐厅","address":"浦东新区金高路1807号(近金桥文体中心)"},{"poiid":"B2094757D06FA6F84198","title":"上海通用汽车八号停车场","lon":"121.614784","lat":"31.279944","category":"500","category_name":"未知分类","address":"上海巨峰路  金京路"},{"poiid":"B2094655D265A6FF419A","title":"阳光城市家园","lon":"121.61479","lat":"31.272135","category":"47","category_name":"住宅区","address":"永宁路33弄"},{"poiid":"B2094757D46EAAF5459C","title":"光头烧烤 金高路店","lon":"121.608973","lat":"31.266761","category":"269","category_name":"烧烤","address":"金高路1895号近佳林路"},{"poiid":"B2094654D568A0FC4198","title":"上海通用汽车有限公司售后服务办公楼","lon":"121.61265","lat":"31.27379","category":"46","category_name":"楼宇","address":"佳桥路199"},{"poiid":"B2094654D568A0FD479F","title":"新金桥商业中心","lon":"121.61033","lat":"31.26948","category":"119","category_name":"商场","address":"佳林路78号"},{"poiid":"B2094757D069A2F4489A","title":"金苹果学校","lon":"121.61986","lat":"31.28107","category":"253","category_name":"校园生活","address":"浦东新区巨峰路1555号"},{"poiid":"B2094757D06AA0FB449C","title":"上海通用北厂总装","lon":"121.62230717","lat":"31.275640826","category":"46","category_name":"楼宇","address":"上海申江路1500号"},{"poiid":"B2094654D568A0FD439B","title":"阳光欧洲城蔷薇绅邻","lon":"121.61138","lat":"31.27231","category":"47","category_name":"住宅区","address":"金高路1617弄1-336号"},{"poiid":"B2094654D568A0F8449E","title":"金色米兰苑","lon":"121.62175757199","lat":"31.275163350192","category":"47","category_name":"住宅区","address":"佳乐路255弄1-53号"},{"poiid":"B2094757D065A1FB449F","title":"阳光欧洲城二期","lon":"121.615","lat":"31.2739","category":"47","category_name":"住宅区","address":"上海佳林路82弄"},{"poiid":"B2094655D26FA6F4419A","title":"阳光欧洲城","lon":"121.60782","lat":"31.271988","category":"47","category_name":"住宅区","address":"家京路99弄1-284号"},{"poiid":"B2094655D26CA7FE479E","title":"永业小区","lon":"121.61426","lat":"31.26496","category":"47","category_name":"住宅区","address":"佳虹路50弄1-30号"},{"poiid":"B2094655D26BA4FB439E","title":"上海通用汽车金京路5号门","lon":"121.61708","lat":"31.27238","category":"263","category_name":"公司","address":""},{"poiid":"B2094655D264AAFA459D","title":"阳光城市家园(西门)","lon":"121.61364","lat":"31.2721","category":"47","category_name":"住宅区","address":"永宁路33弄"},{"poiid":"B2094655D26FA1F44699","title":"莫泰168连锁旅店(张桥店)","lon":"121.60953","lat":"31.27474","category":"216","category_name":"经济型连锁酒店","address":"上海市浦东新区金高路1398号（近杨高北路）"},{"poiid":"B2094757D569A1FD419D","title":"金桥新城一期","lon":"121.61308","lat":"31.270317","category":"47","category_name":"住宅区","address":"上海市浦东新区杨高北路5291弄"},{"poiid":"B2094757D16AA0FF469F","title":"通用汽车售后大楼","lon":"121.612072","lat":"31.273807","category":"46","category_name":"楼宇","address":"上海佳桥路199号"},{"poiid":"B2094757D66EA7FB439B","title":"易初莲花","lon":"121.615884899","lat":"31.27578137","category":"249","category_name":"购物服务","address":"上海金高路1256号"},{"poiid":"B2094655D265A3FD4499","title":"上海通用汽车金京路6号门","lon":"121.61706","lat":"31.27122","category":"263","category_name":"公司","address":""},{"poiid":"B2094752D068AAFF469E","title":"浦东机场1号航站楼","lon":"121.615067","lat":"31.273117","category":"500","category_name":"未知分类","address":null},{"poiid":"B2094757D064A3FA4098","title":"上海通汇零部件配送中心有限公司","lon":"121.61429433","lat":"31.274672364","category":"500","category_name":"未知分类","address":"上海市浦东新区金京路1500号"},{"poiid":"B2094655D36CA0FA4498","title":"佳虹路永业路","lon":"121.61359","lat":"31.26737","category":"38","category_name":"公交车站","address":""},{"poiid":"B2094757D568A7FF459B","title":"金桥新城二期","lon":"121.617","lat":"31.2687","category":"47","category_name":"住宅区","address":"上海市浦东新区东陆路2000弄"},{"poiid":"B2094655D26FA0FC499F","title":"阳光欧洲城金色米兰苑(南门)","lon":"121.61508","lat":"31.26881","category":"47","category_name":"住宅区","address":"佳乐路255弄1-53号"},{"poiid":"B2094655D36DA0F4429B","title":"永宁路佳京路","lon":"121.61333","lat":"31.26945","category":"38","category_name":"公交车站","address":""},{"poiid":"B2094757D069A0FB429A","title":"Volvo Group (TTSC Building)","lon":"121.61422341","lat":"31.266951517","category":"500","category_name":"未知分类","address":"上海金京路2095号"},{"poiid":"B2094757D665A0FB489E","title":"DQ冰雪皇后 金高路店 Dairy Queen","lon":"121.610019054","lat":"31.279228793","category":"113","category_name":"冷饮店","address":"浦东新区金高路1256号卜蜂莲花内(近巨峰路)"},{"poiid":"B2094757D169A1FD4093","title":"T.S.烧烤","lon":"121.6161158","lat":"31.2684958","category":"247","category_name":"餐饮美食","address":"上海佳乐路永业路"},{"poiid":"B2094655D26CA6FD449F","title":"佳虹小区","lon":"121.61494","lat":"31.267649","category":"47","category_name":"住宅区","address":"永业路225弄"},{"poiid":"B2094757D068A4F5489A","title":"沃尔沃建筑设备(中国)有限公司","lon":"121.617134","lat":"31.266635","category":"263","category_name":"公司","address":"上海金京路2045号"},{"poiid":"B2094757D064A1F84399","title":"金达莱韩式料理店","lon":"121.60998","lat":"31.27776","category":"96","category_name":"韩国料理","address":"浦东新区金高路1296弄30号(近乐园路)"},{"poiid":"B2094757D069A2F5489C","title":"香啡缤(通用汽车店)","lon":"121.622680864","lat":"31.27630421","category":"260","category_name":"其他","address":"浦东新区申江路1500号上海通用汽车行政楼新楼M楼(近巨峰路)"},{"poiid":"B2094757D068A7F8439A","title":"金色米兰","lon":"121.615085","lat":"31.268814","category":"249","category_name":"购物服务","address":"上海佳乐路255"},{"poiid":"B2094654D568A0F8449C","title":"上海通用汽车榕桥路2号门(南2)","lon":"121.61855","lat":"31.26897","category":"263","category_name":"公司","address":"榕桥路"},{"poiid":"B2094751D26EA4FC4492","title":"上海通用汽车南厂总装","lon":"121.615417","lat":"31.267837","category":"259","category_name":"工厂","address":"浦东新区申江路1500号"},{"poiid":"B2094757D065A2F9449A","title":"乡村基 金桥易初店","lon":"121.609808054","lat":"31.279218793","category":"68","category_name":"快餐厅","address":"浦东新区金高路1256号卜蜂莲花超市旁(近巨峰路)"},{"poiid":"B2094654D568A0F84592","title":"上海通用汽车榕桥路1号门(南1)","lon":"121.6215","lat":"31.26862","category":"263","category_name":"公司","address":"榕桥路"},{"poiid":"B2094654DB6BA1FC4398","title":"上海通汇汽车零部件配送中心有限公司(一号门)","lon":"121.61588","lat":"31.27599","category":"263","category_name":"公司","address":"金京路1500"},{"poiid":"B2094757D165A3FE469E","title":"阳光欧洲城四期","lon":"121.617997","lat":"31.277438","category":"47","category_name":"住宅区","address":"上海市闵行区罗秀路1869号"},{"poiid":"B2094757D06BA3F84992","title":"张桥中心小学","lon":"121.612729","lat":"31.267781","category":"56","category_name":"小学","address":"浦东新区永宁路114-118号(佳虹路永宁路)"},{"poiid":"B2094757D16CA1F44693","title":"上海通用","lon":"121.622276306","lat":"31.276512146","category":"500","category_name":"未知分类","address":"上海申江路1500号"},{"poiid":"B2094753D56DABF94499","title":"巫山烤全鱼","lon":"121.60984","lat":"31.271471","category":"247","category_name":"餐饮美食","address":"上海市 凌河路813号"},{"poiid":"B2094655D26DA5F44098","title":"佳虹小区2期","lon":"121.61579","lat":"31.26699","category":"47","category_name":"住宅区","address":"永业路188弄、218弄"},{"poiid":"B2094654D568A0FD419D","title":"美林阁 金高路店","lon":"121.610083054","lat":"31.277976793","category":"76","category_name":"上海菜","address":"浦东新区金高路1398号(近花园路)"},{"poiid":"B2094654D568AAFB489F","title":"上海通用汽车有限公司","lon":"121.62227","lat":"31.27651","category":"263","category_name":"公司","address":"浦东新区申江路1500号"},{"poiid":"B2094757D06FAAF4479F","title":"金桥文体中心","lon":"121.6099030083983","lat":"31.267896413802113","category":"221","category_name":"健身中心","address":"浦东新区金桥镇金高路1777号(近佳林路)"},{"poiid":"B2094757D06FA5FC459D","title":"廊亦舫酒楼(金桥店)","lon":"121.61029","lat":"31.26954","category":"76","category_name":"上海菜","address":"浦东新区金高路1757号(佳京路金高路)"},{"poiid":"B2094654D568A0FE4098","title":"魏记小厨","lon":"121.60855","lat":"31.26805","category":"257","category_name":"中餐厅","address":"浦东新区佳林路157号(近金高路)"},{"poiid":"B2094757D069A5FA459D","title":"上海通用汽车 南厂车身","lon":"121.619228339","lat":"31.2691012364","category":"500","category_name":"未知分类","address":"上海申江路1500"},{"poiid":"B2094751D36AA7FC4199","title":"玛格萝妮比萨屋(金高路店)","lon":"121.60959","lat":"31.26826","category":"94","category_name":"西餐厅","address":"浦东新区金高路1807号(近金桥文体中心)"},{"poiid":"B2094757D06FA6F84198","title":"上海通用汽车八号停车场","lon":"121.614784","lat":"31.279944","category":"500","category_name":"未知分类","address":"上海巨峰路  金京路"},{"poiid":"B2094655D265A6FF419A","title":"阳光城市家园","lon":"121.61479","lat":"31.272135","category":"47","category_name":"住宅区","address":"永宁路33弄"},{"poiid":"B2094757D46EAAF5459C","title":"光头烧烤 金高路店","lon":"121.608973","lat":"31.266761","category":"269","category_name":"烧烤","address":"金高路1895号近佳林路"},{"poiid":"B2094654D568A0FC4198","title":"上海通用汽车有限公司售后服务办公楼","lon":"121.61265","lat":"31.27379","category":"46","category_name":"楼宇","address":"佳桥路199"},{"poiid":"B2094654D568A0FD479F","title":"新金桥商业中心","lon":"121.61033","lat":"31.26948","category":"119","category_name":"商场","address":"佳林路78号"},{"poiid":"B2094757D069A2F4489A","title":"金苹果学校","lon":"121.61986","lat":"31.28107","category":"253","category_name":"校园生活","address":"浦东新区巨峰路1555号"},{"poiid":"B2094757D06AA0FB449C","title":"上海通用北厂总装","lon":"121.62230717","lat":"31.275640826","category":"46","category_name":"楼宇","address":"上海申江路1500号"},{"poiid":"B2094654D568A0FD439B","title":"阳光欧洲城蔷薇绅邻","lon":"121.61138","lat":"31.27231","category":"47","category_name":"住宅区","address":"金高路1617弄1-336号"},{"poiid":"B2094654D568A0F8449E","title":"金色米兰苑","lon":"121.62175757199","lat":"31.275163350192","category":"47","category_name":"住宅区","address":"佳乐路255弄1-53号"},{"poiid":"B2094757D065A1FB449F","title":"阳光欧洲城二期","lon":"121.615","lat":"31.2739","category":"47","category_name":"住宅区","address":"上海佳林路82弄"},{"poiid":"B2094655D26FA6F4419A","title":"阳光欧洲城","lon":"121.60782","lat":"31.271988","category":"47","category_name":"住宅区","address":"家京路99弄1-284号"},{"poiid":"B2094655D26CA7FE479E","title":"永业小区","lon":"121.61426","lat":"31.26496","category":"47","category_name":"住宅区","address":"佳虹路50弄1-30号"},{"poiid":"B2094655D26BA4FB439E","title":"上海通用汽车金京路5号门","lon":"121.61708","lat":"31.27238","category":"263","category_name":"公司","address":""},{"poiid":"B2094655D264AAFA459D","title":"阳光城市家园(西门)","lon":"121.61364","lat":"31.2721","category":"47","category_name":"住宅区","address":"永宁路33弄"},{"poiid":"B2094655D26FA1F44699","title":"莫泰168连锁旅店(张桥店)","lon":"121.60953","lat":"31.27474","category":"216","category_name":"经济型连锁酒店","address":"上海市浦东新区金高路1398号（近杨高北路）"},{"poiid":"B2094757D569A1FD419D","title":"金桥新城一期","lon":"121.61308","lat":"31.270317","category":"47","category_name":"住宅区","address":"上海市浦东新区杨高北路5291弄"},{"poiid":"B2094757D16AA0FF469F","title":"通用汽车售后大楼","lon":"121.612072","lat":"31.273807","category":"46","category_name":"楼宇","address":"上海佳桥路199号"},{"poiid":"B2094757D66EA7FB439B","title":"易初莲花","lon":"121.615884899","lat":"31.27578137","category":"249","category_name":"购物服务","address":"上海金高路1256号"},{"poiid":"B2094655D265A3FD4499","title":"上海通用汽车金京路6号门","lon":"121.61706","lat":"31.27122","category":"263","category_name":"公司","address":""},{"poiid":"B2094752D068AAFF469E","title":"浦东机场1号航站楼","lon":"121.615067","lat":"31.273117","category":"500","category_name":"未知分类","address":null},{"poiid":"B2094757D064A3FA4098","title":"上海通汇零部件配送中心有限公司","lon":"121.61429433","lat":"31.274672364","category":"500","category_name":"未知分类","address":"上海市浦东新区金京路1500号"},{"poiid":"B2094655D36CA0FA4498","title":"佳虹路永业路","lon":"121.61359","lat":"31.26737","category":"38","category_name":"公交车站","address":""},{"poiid":"B2094757D568A7FF459B","title":"金桥新城二期","lon":"121.617","lat":"31.2687","category":"47","category_name":"住宅区","address":"上海市浦东新区东陆路2000弄"},{"poiid":"B2094655D26FA0FC499F","title":"阳光欧洲城金色米兰苑(南门)","lon":"121.61508","lat":"31.26881","category":"47","category_name":"住宅区","address":"佳乐路255弄1-53号"},{"poiid":"B2094655D36DA0F4429B","title":"永宁路佳京路","lon":"121.61333","lat":"31.26945","category":"38","category_name":"公交车站","address":""},{"poiid":"B2094757D069A0FB429A","title":"Volvo Group (TTSC Building)","lon":"121.61422341","lat":"31.266951517","category":"500","category_name":"未知分类","address":"上海金京路2095号"},{"poiid":"B2094757D665A0FB489E","title":"DQ冰雪皇后 金高路店 Dairy Queen","lon":"121.610019054","lat":"31.279228793","category":"113","category_name":"冷饮店","address":"浦东新区金高路1256号卜蜂莲花内(近巨峰路)"},{"poiid":"B2094757D169A1FD4093","title":"T.S.烧烤","lon":"121.6161158","lat":"31.2684958","category":"247","category_name":"餐饮美食","address":"上海佳乐路永业路"},{"poiid":"B2094655D26CA6FD449F","title":"佳虹小区","lon":"121.61494","lat":"31.267649","category":"47","category_name":"住宅区","address":"永业路225弄"},{"poiid":"B2094757D068A4F5489A","title":"沃尔沃建筑设备(中国)有限公司","lon":"121.617134","lat":"31.266635","category":"263","category_name":"公司","address":"上海金京路2045号"},{"poiid":"B2094757D064A1F84399","title":"金达莱韩式料理店","lon":"121.60998","lat":"31.27776","category":"96","category_name":"韩国料理","address":"浦东新区金高路1296弄30号(近乐园路)"},{"poiid":"B2094757D069A2F5489C","title":"香啡缤(通用汽车店)","lon":"121.622680864","lat":"31.27630421","category":"260","category_name":"其他","address":"浦东新区申江路1500号上海通用汽车行政楼新楼M楼(近巨峰路)"},{"poiid":"B2094757D068A7F8439A","title":"金色米兰","lon":"121.615085","lat":"31.268814","category":"249","category_name":"购物服务","address":"上海佳乐路255"},{"poiid":"B2094654D568A0F8449C","title":"上海通用汽车榕桥路2号门(南2)","lon":"121.61855","lat":"31.26897","category":"263","category_name":"公司","address":"榕桥路"},{"poiid":"B2094751D26EA4FC4492","title":"上海通用汽车南厂总装","lon":"121.615417","lat":"31.267837","category":"259","category_name":"工厂","address":"浦东新区申江路1500号"},{"poiid":"B2094757D065A2F9449A","title":"乡村基 金桥易初店","lon":"121.609808054","lat":"31.279218793","category":"68","category_name":"快餐厅","address":"浦东新区金高路1256号卜蜂莲花超市旁(近巨峰路)"},{"poiid":"B2094654D568A0F84592","title":"上海通用汽车榕桥路1号门(南1)","lon":"121.6215","lat":"31.26862","category":"263","category_name":"公司","address":"榕桥路"},{"poiid":"B2094654DB6BA1FC4398","title":"上海通汇汽车零部件配送中心有限公司(一号门)","lon":"121.61588","lat":"31.27599","category":"263","category_name":"公司","address":"金京路1500"},{"poiid":"B2094757D165A3FE469E","title":"阳光欧洲城四期","lon":"121.617997","lat":"31.277438","category":"47","category_name":"住宅区","address":"上海市闵行区罗秀路1869号"},{"poiid":"B2094757D06BA3F84992","title":"张桥中心小学","lon":"121.612729","lat":"31.267781","category":"56","category_name":"小学","address":"浦东新区永宁路114-118号(佳虹路永宁路)"},{"poiid":"B2094757D16CA1F44693","title":"上海通用","lon":"121.622276306","lat":"31.276512146","category":"500","category_name":"未知分类","address":"上海申江路1500号"},{"poiid":"B2094753D56DABF94499","title":"巫山烤全鱼","lon":"121.60984","lat":"31.271471","category":"247","category_name":"餐饮美食","address":"上海市 凌河路813号"},{"poiid":"B2094655D26DA5F44098","title":"佳虹小区2期","lon":"121.61579","lat":"31.26699","category":"47","category_name":"住宅区","address":"永业路188弄、218弄"},{"poiid":"B2094654D568A0FD419D","title":"美林阁 金高路店","lon":"121.610083054","lat":"31.277976793","category":"76","category_name":"上海菜","address":"浦东新区金高路1398号(近花园路)"},{"poiid":"B2094654D568AAFB489F","title":"上海通用汽车有限公司","lon":"121.62227","lat":"31.27651","category":"263","category_name":"公司","address":"浦东新区申江路1500号"},{"poiid":"B2094757D06FAAF4479F","title":"金桥文体中心","lon":"121.6099030083983","lat":"31.267896413802113","category":"221","category_name":"健身中心","address":"浦东新区金桥镇金高路1777号(近佳林路)"},{"poiid":"B2094757D06FA5FC459D","title":"廊亦舫酒楼(金桥店)","lon":"121.61029","lat":"31.26954","category":"76","category_name":"上海菜","address":"浦东新区金高路1757号(佳京路金高路)"},{"poiid":"B2094654D568A0FE4098","title":"魏记小厨","lon":"121.60855","lat":"31.26805","category":"257","category_name":"中餐厅","address":"浦东新区佳林路157号(近金高路)"},{"poiid":"B2094757D069A5FA459D","title":"上海通用汽车 南厂车身","lon":"121.619228339","lat":"31.2691012364","category":"500","category_name":"未知分类","address":"上海申江路1500"},{"poiid":"B2094751D36AA7FC4199","title":"玛格萝妮比萨屋(金高路店)","lon":"121.60959","lat":"31.26826","category":"94","category_name":"西餐厅","address":"浦东新区金高路1807号(近金桥文体中心)"},{"poiid":"B2094757D06FA6F84198","title":"上海通用汽车八号停车场","lon":"121.614784","lat":"31.279944","category":"500","category_name":"未知分类","address":"上海巨峰路  金京路"},{"poiid":"B2094655D265A6FF419A","title":"阳光城市家园","lon":"121.61479","lat":"31.272135","category":"47","category_name":"住宅区","address":"永宁路33弄"},{"poiid":"B2094757D46EAAF5459C","title":"光头烧烤 金高路店","lon":"121.608973","lat":"31.266761","category":"269","category_name":"烧烤","address":"金高路1895号近佳林路"},{"poiid":"B2094654D568A0FC4198","title":"上海通用汽车有限公司售后服务办公楼","lon":"121.61265","lat":"31.27379","category":"46","category_name":"楼宇","address":"佳桥路199"},{"poiid":"B2094654D568A0FD479F","title":"新金桥商业中心","lon":"121.61033","lat":"31.26948","category":"119","category_name":"商场","address":"佳林路78号"},{"poiid":"B2094757D069A2F4489A","title":"金苹果学校","lon":"121.61986","lat":"31.28107","category":"253","category_name":"校园生活","address":"浦东新区巨峰路1555号"},{"poiid":"B2094757D06AA0FB449C","title":"上海通用北厂总装","lon":"121.62230717","lat":"31.275640826","category":"46","category_name":"楼宇","address":"上海申江路1500号"},{"poiid":"B2094654D568A0FD439B","title":"阳光欧洲城蔷薇绅邻","lon":"121.61138","lat":"31.27231","category":"47","category_name":"住宅区","address":"金高路1617弄1-336号"},{"poiid":"B2094654D568A0F8449E","title":"金色米兰苑","lon":"121.62175757199","lat":"31.275163350192","category":"47","category_name":"住宅区","address":"佳乐路255弄1-53号"},{"poiid":"B2094757D065A1FB449F","title":"阳光欧洲城二期","lon":"121.615","lat":"31.2739","category":"47","category_name":"住宅区","address":"上海佳林路82弄"},{"poiid":"B2094655D26FA6F4419A","title":"阳光欧洲城","lon":"121.60782","lat":"31.271988","category":"47","category_name":"住宅区","address":"家京路99弄1-284号"},{"poiid":"B2094655D26CA7FE479E","title":"永业小区","lon":"121.61426","lat":"31.26496","category":"47","category_name":"住宅区","address":"佳虹路50弄1-30号"},{"poiid":"B2094655D26BA4FB439E","title":"上海通用汽车金京路5号门","lon":"121.61708","lat":"31.27238","category":"263","category_name":"公司","address":""},{"poiid":"B2094655D264AAFA459D","title":"阳光城市家园(西门)","lon":"121.61364","lat":"31.2721","category":"47","category_name":"住宅区","address":"永宁路33弄"},{"poiid":"B2094655D26FA1F44699","title":"莫泰168连锁旅店(张桥店)","lon":"121.60953","lat":"31.27474","category":"216","category_name":"经济型连锁酒店","address":"上海市浦东新区金高路1398号（近杨高北路）"},{"poiid":"B2094757D569A1FD419D","title":"金桥新城一期","lon":"121.61308","lat":"31.270317","category":"47","category_name":"住宅区","address":"上海市浦东新区杨高北路5291弄"},{"poiid":"B2094757D16AA0FF469F","title":"通用汽车售后大楼","lon":"121.612072","lat":"31.273807","category":"46","category_name":"楼宇","address":"上海佳桥路199号"},{"poiid":"B2094757D66EA7FB439B","title":"易初莲花","lon":"121.615884899","lat":"31.27578137","category":"249","category_name":"购物服务","address":"上海金高路1256号"},{"poiid":"B2094655D265A3FD4499","title":"上海通用汽车金京路6号门","lon":"121.61706","lat":"31.27122","category":"263","category_name":"公司","address":""},{"poiid":"B2094752D068AAFF469E","title":"浦东机场1号航站楼","lon":"121.615067","lat":"31.273117","category":"500","category_name":"未知分类","address":null},{"poiid":"B2094757D064A3FA4098","title":"上海通汇零部件配送中心有限公司","lon":"121.61429433","lat":"31.274672364","category":"500","category_name":"未知分类","address":"上海市浦东新区金京路1500号"},{"poiid":"B2094655D36CA0FA4498","title":"佳虹路永业路","lon":"121.61359","lat":"31.26737","category":"38","category_name":"公交车站","address":""},{"poiid":"B2094757D568A7FF459B","title":"金桥新城二期","lon":"121.617","lat":"31.2687","category":"47","category_name":"住宅区","address":"上海市浦东新区东陆路2000弄"},{"poiid":"B2094655D26FA0FC499F","title":"阳光欧洲城金色米兰苑(南门)","lon":"121.61508","lat":"31.26881","category":"47","category_name":"住宅区","address":"佳乐路255弄1-53号"},{"poiid":"B2094655D36DA0F4429B","title":"永宁路佳京路","lon":"121.61333","lat":"31.26945","category":"38","category_name":"公交车站","address":""},{"poiid":"B2094757D069A0FB429A","title":"Volvo Group (TTSC Building)","lon":"121.61422341","lat":"31.266951517","category":"500","category_name":"未知分类","address":"上海金京路2095号"},{"poiid":"B2094757D665A0FB489E","title":"DQ冰雪皇后 金高路店 Dairy Queen","lon":"121.610019054","lat":"31.279228793","category":"113","category_name":"冷饮店","address":"浦东新区金高路1256号卜蜂莲花内(近巨峰路)"},{"poiid":"B2094757D169A1FD4093","title":"T.S.烧烤","lon":"121.6161158","lat":"31.2684958","category":"247","category_name":"餐饮美食","address":"上海佳乐路永业路"},{"poiid":"B2094655D26CA6FD449F","title":"佳虹小区","lon":"121.61494","lat":"31.267649","category":"47","category_name":"住宅区","address":"永业路225弄"},{"poiid":"B2094757D068A4F5489A","title":"沃尔沃建筑设备(中国)有限公司","lon":"121.617134","lat":"31.266635","category":"263","category_name":"公司","address":"上海金京路2045号"},{"poiid":"B2094757D064A1F84399","title":"金达莱韩式料理店","lon":"121.60998","lat":"31.27776","category":"96","category_name":"韩国料理","address":"浦东新区金高路1296弄30号(近乐园路)"},{"poiid":"B2094757D069A2F5489C","title":"香啡缤(通用汽车店)","lon":"121.622680864","lat":"31.27630421","category":"260","category_name":"其他","address":"浦东新区申江路1500号上海通用汽车行政楼新楼M楼(近巨峰路)"},{"poiid":"B2094757D068A7F8439A","title":"金色米兰","lon":"121.615085","lat":"31.268814","category":"249","category_name":"购物服务","address":"上海佳乐路255"},{"poiid":"B2094654D568A0F8449C","title":"上海通用汽车榕桥路2号门(南2)","lon":"121.61855","lat":"31.26897","category":"263","category_name":"公司","address":"榕桥路"},{"poiid":"B2094751D26EA4FC4492","title":"上海通用汽车南厂总装","lon":"121.615417","lat":"31.267837","category":"259","category_name":"工厂","address":"浦东新区申江路1500号"},{"poiid":"B2094757D065A2F9449A","title":"乡村基 金桥易初店","lon":"121.609808054","lat":"31.279218793","category":"68","category_name":"快餐厅","address":"浦东新区金高路1256号卜蜂莲花超市旁(近巨峰路)"},{"poiid":"B2094654D568A0F84592","title":"上海通用汽车榕桥路1号门(南1)","lon":"121.6215","lat":"31.26862","category":"263","category_name":"公司","address":"榕桥路"},{"poiid":"B2094654DB6BA1FC4398","title":"上海通汇汽车零部件配送中心有限公司(一号门)","lon":"121.61588","lat":"31.27599","category":"263","category_name":"公司","address":"金京路1500"},{"poiid":"B2094757D165A3FE469E","title":"阳光欧洲城四期","lon":"121.617997","lat":"31.277438","category":"47","category_name":"住宅区","address":"上海市闵行区罗秀路1869号"},{"poiid":"B2094757D06BA3F84992","title":"张桥中心小学","lon":"121.612729","lat":"31.267781","category":"56","category_name":"小学","address":"浦东新区永宁路114-118号(佳虹路永宁路)"},{"poiid":"B2094757D16CA1F44693","title":"上海通用","lon":"121.622276306","lat":"31.276512146","category":"500","category_name":"未知分类","address":"上海申江路1500号"},{"poiid":"B2094753D56DABF94499","title":"巫山烤全鱼","lon":"121.60984","lat":"31.271471","category":"247","category_name":"餐饮美食","address":"上海市 凌河路813号"},{"poiid":"B2094655D26DA5F44098","title":"佳虹小区2期","lon":"121.61579","lat":"31.26699","category":"47","category_name":"住宅区","address":"永业路188弄、218弄"},{"poiid":"B2094654D568A0FD419D","title":"美林阁 金高路店","lon":"121.610083054","lat":"31.277976793","category":"76","category_name":"上海菜","address":"浦东新区金高路1398号(近花园路)"}]