[{"poiid":"B2094654DB64A2FD419C","title":"上海康城","lon":"121.35881","lat":"31.10166","category":"47","category_name":"住宅区","address":"上海市闵行区莘松路980弄"},{"poiid":"B2094654DA64A2FA469A","title":"乔爱别墅城","lon":"121.35771","lat":"31.08633","category":"47","category_name":"住宅区","address":"春九路88弄"},{"poiid":"B2094757D069AAFD479B","title":"上海康城瀑布弯道","lon":"121.35294708","lat":"31.101292104","category":"500","category_name":"未知分类","address":"上海莘松路958弄"},{"poiid":"B2094757D068AAF4409F","title":"浅水湾花园","lon":"121.36124","lat":"31.097576","category":"47","category_name":"住宅区","address":"上海市松江区莘松路999弄"},{"poiid":"B2094654DA64A2F5419E","title":"雅阁花园","lon":"121.36195","lat":"31.091791","category":"47","category_name":"住宅区","address":"上海市松江区场东路168弄"},{"poiid":"B2094757D168A1FD4092","title":"莘松路西环路","lon":"121.367515257","lat":"31.103149725","category":"500","category_name":"未知分类","address":"上海莘松路西环路"},{"poiid":"B2094655D26AA2FA479A","title":"麦当劳康城店","lon":"121.35682","lat":"31.09989","category":"68","category_name":"快餐厅","address":"闵行区莘松路1028号巴比伦广场内(近上海康城)"},{"poiid":"B2094654DB69ABF94992","title":"今海明珠大酒楼(松江店)","lon":"121.35432","lat":"31.09911","category":"70","category_name":"综合酒楼","address":"闵行区莘松路1098号(巴比伦生活恒泰生活广场西侧)"},{"poiid":"B2094654DA64ABFA4893","title":"乔爱别墅","lon":"121.360401","lat":"31.09107","category":"47","category_name":"住宅区","address":"上海市闵行区莲花南路1288弄"},{"poiid":"B2094757D16DA4FB4493","title":"上海康城维园道","lon":"121.35380697","lat":"31.103291268","category":"252","category_name":"楼宇机构","address":"上海市闵行区莘松路958弄"},{"poiid":"B2094654DA64A2FA4492","title":"同润加州","lon":"121.35078","lat":"31.08993","category":"47","category_name":"住宅区","address":"上海市松江区新南路501号"},{"poiid":"B2094757D66CAAFA4199","title":"青春农庄","lon":"121.366871757","lat":"31.0982198263","category":"87","category_name":"特色／地方风味餐厅","address":"闵行区中春路4755弄98号(近青春路)"},{"poiid":"B2094654DA65A3FD4898","title":"沁春园三村","lon":"121.373374","lat":"31.094646","category":"47","category_name":"住宅区","address":"上海市闵行区沁春路1366号"},{"poiid":"B2094654DB64A2FD429B","title":"同润家园(一号门)","lon":"121.35972","lat":"31.09207","category":"47","category_name":"住宅区","address":"场南路1弄"},{"poiid":"B2094655D26EA2FB489B","title":"伊莎士花园","lon":"121.35349","lat":"31.09307","category":"47","category_name":"住宅区","address":"上海市松江区新桥春九路188号"},{"poiid":"B2094654DA64A2FA459A","title":"雅仕居","lon":"121.35769","lat":"31.094622","category":"47","category_name":"住宅区","address":"新南路99弄"},{"poiid":"B2094757D06AA0FC4698","title":"吴记老锅底麻辣火锅(巴比伦店)","lon":"121.35562","lat":"31.09937","category":"86","category_name":"火锅店","address":"上海闵行区莘松路1078弄3号(近春九路)  "},{"poiid":"B2094757D069A3F5449E","title":"肯德基 KFC (莘松店)","lon":"121.364028","lat":"31.097723","category":"68","category_name":"快餐厅","address":"闵行区莘松路855号乐购内(莘松地道旁)"},{"poiid":"B2094757D165ABF9439D","title":"雅士居","lon":"121.35970685","lat":"31.092690215","category":"500","category_name":"未知分类","address":"上海市松江区新南路"},{"poiid":"B2094655D26EA2FB429B","title":"场东公寓","lon":"121.36281","lat":"31.08919","category":"47","category_name":"住宅区","address":""},{"poiid":"B2094654DB64A2FF419A","title":"同润家园","lon":"121.3596","lat":"31.086287","category":"47","category_name":"住宅区","address":"上海市松江区场南路1弄"},{"poiid":"B2094757D069A0F94899","title":"红蜘蛛烧烤(莘松路店)","lon":"121.356","lat":"31.09928","category":"68","category_name":"快餐厅","address":"闵行区莘松路1028号巴比伦广场内(近上海康城)"},{"poiid":"B2094655D26EA2FB429A","title":"场东公寓(西南门)","lon":"121.36253","lat":"31.08908","category":"47","category_name":"住宅区","address":""},{"poiid":"B2094654DB64A2FD429F","title":"锦江之星(莘松路店)","lon":"121.36436","lat":"31.10051","category":"216","category_name":"经济型连锁酒店","address":"上海市闵行区莘松路855号(乐购超市旁)"},{"poiid":"B2094757D16FA6FC459C","title":"全家超市","lon":"121.359275818","lat":"31.0894851685","category":"249","category_name":"购物服务","address":"上海莘松路1288弄"},{"poiid":"B2094655D26FA3FB4893","title":"雅阁花园(西南门)","lon":"121.36183","lat":"31.0916","category":"48","category_name":"楼宇大门","address":"场东路168弄"},{"poiid":"B2094654DA64A2FA409B","title":"百佳花园","lon":"121.35724","lat":"31.097345","category":"47","category_name":"住宅区","address":"上海市松江区场东路333弄"},{"poiid":"B2094655D26EABFE419F","title":"龙祥公寓","lon":"121.3523","lat":"31.098312","category":"47","category_name":"住宅区","address":"松江莘松路1150弄"},{"poiid":"B2094654DB64A2FF419B","title":"同润家园(五号门)","lon":"121.35863","lat":"31.08748","category":"47","category_name":"住宅区","address":""},{"poiid":"B2094757D06FA3FD489F","title":"绿洲长岛花园","lon":"121.354833","lat":"31.103406","category":"47","category_name":"住宅区","address":"上海市松江区莘松路1288弄"},{"poiid":"B2094654DA64A2FA499A","title":"上海电气电站集团","lon":"121.37023","lat":"31.09074","category":"263","category_name":"公司","address":"中春路3999弄188"},{"poiid":"B2094757D06BAAF5479F","title":"棒约翰比萨(莘松店)","lon":"121.3632","lat":"31.10044","category":"94","category_name":"西餐厅","address":"闵行区莘松路855号乐购莘松店内(莘松地道旁)"},{"poiid":"B2094655D26FA3FB409A","title":"同润家园(西二门)","lon":"121.35768","lat":"31.08975","category":"48","category_name":"楼宇大门","address":""},{"poiid":"B2094750D768AAFE4393","title":"逸东华酒店","lon":"121.354","lat":"31.0935","category":"72","category_name":"广东菜","address":"明兴路528号(近明中路)"},{"poiid":"B2094757D068A7F5459B","title":"乐购莘松店","lon":"121.36471455","lat":"31.099643024","category":"500","category_name":"未知分类","address":"上海莘松路958弄"},{"poiid":"B2094752DB6EA5FA4199","title":"上海外滩","lon":"121.355103","lat":"31.095184","category":"500","category_name":"未知分类","address":"上海市 徐家汇"},{"poiid":"B2094757D06AAAFA4893","title":"口吅品牛肉面馆 莘松路","lon":"121.35775","lat":"31.10022","category":"68","category_name":"快餐厅","address":"闵行区莘松路1028号巴比伦广场二区(近上海康城)"},{"poiid":"B2094655D26EABFA429D","title":"乐购超市(莘松店)","lon":"121.3644","lat":"31.09795","category":"118","category_name":"超级市场","address":"闵行区莘松路855号"},{"poiid":"B2094654DB64A2FD429A","title":"伊莎士花园(东南门)","lon":"121.35653","lat":"31.09123","category":"656","category_name":"大门","address":"春九路188弄"},{"poiid":"B2094757D46FA6FF429D","title":"火云轩 莘松店","lon":"121.365049054","lat":"31.096239793","category":"86","category_name":"火锅店","address":"闵行区莘松路1494号(近场西路)"},{"poiid":"B2094757D16DAAF94993","title":"欣绿名苑","lon":"121.35426","lat":"31.082651","category":"47","category_name":"住宅区","address":"上海明中路275弄"},{"poiid":"B2094654DA64A2FB479F","title":"雅阁游泳池","lon":"121.362","lat":"31.09509","category":"149","category_name":"洗浴推拿场所","address":"场东路168弄387号"},{"poiid":"B2094654DA64A2F9499E","title":"上海师范大学康城实验学校","lon":"121.35532","lat":"31.10125","category":"55","category_name":"中学","address":"闵行区莘松路958弄瀑布弯道18号"},{"poiid":"B2094655D26EA2FB4793","title":"云间苑(南门)","lon":"121.35479","lat":"31.09427","category":"47","category_name":"住宅区","address":"新桥镇"},{"poiid":"B2094750D569A4FE4598","title":"同润别庄","lon":"121.35597435263","lat":"31.097496985785","category":"47","category_name":"住宅区","address":"上海市松江区新南路555号"},{"poiid":"B2094654DA64A2FA4098","title":"云间苑","lon":"121.35472","lat":"31.094482","category":"47","category_name":"住宅区","address":"新南路242弄"},{"poiid":"B2094654DA64A2FB479D","title":"上海陆家嘴物业管理有限公司","lon":"121.36201","lat":"31.09509","category":"263","category_name":"公司","address":"场东路168弄387号"},{"poiid":"B2094757D469A5F94592","title":"七欣天迷宗蟹 莘庄店","lon":"121.361126","lat":"31.100904","category":"257","category_name":"中餐厅","address":"闵行区莘松路1028号巴比伦广场101室(近上海康城)"},{"poiid":"B2094655D26EA2FB489A","title":"桃花源田庄(南门)","lon":"121.3537","lat":"31.09383","category":"47","category_name":"住宅区","address":"新南路"},{"poiid":"B2094757D16FABFA469F","title":"小白宫酒店","lon":"121.36136","lat":"31.08055","category":"76","category_name":"上海菜","address":"闵行区银都西路333号(近申南三路)"},{"poiid":"B2094654DB64A2FD419C","title":"上海康城","lon":"121.35881","lat":"31.10166","category":"47","category_name":"住宅区","address":"上海市闵行区莘松路980弄"},{"poiid":"B2094654DA64A2FA469A","title":"乔爱别墅城","lon":"121.35771","lat":"31.08633","category":"47","category_name":"住宅区","address":"春九路88弄"},{"poiid":"B2094757D069AAFD479B","title":"上海康城瀑布弯道","lon":"121.35294708","lat":"31.101292104","category":"500","category_name":"未知分类","address":"上海莘松路958弄"},{"poiid":"B2094757D068AAF4409F","title":"浅水湾花园","lon":"121.36124","lat":"31.097576","category":"47","category_name":"住宅区","address":"上海市松江区莘松路999弄"},{"poiid":"B2094654DA64A2F5419E","title":"雅阁花园","lon":"121.36195","lat":"31.091791","category":"47","category_name":"住宅区","address":"上海市松江区场东路168弄"},{"poiid":"B2094757D168A1FD4092","title":"莘松路西环路","lon":"121.367515257","lat":"31.103149725","category":"500","category_name":"未知分类","address":"上海莘松路西环路"},{"poiid":"B2094655D26AA2FA479A","title":"麦当劳康城店","lon":"121.35682","lat":"31.09989","category":"68","category_name":"快餐厅","address":"闵行区莘松路1028号巴比伦广场内(近上海康城)"},{"poiid":"B2094654DB69ABF94992","title":"今海明珠大酒楼(松江店)","lon":"121.35432","lat":"31.09911","category":"70","category_name":"综合酒楼","address":"闵行区莘松路1098号(巴比伦生活恒泰生活广场西侧)"},{"poiid":"B2094654DA64ABFA4893","title":"乔爱别墅","lon":"121.360401","lat":"31.09107","category":"47","category_name":"住宅区","address":"上海市闵行区莲花南路1288弄"},{"poiid":"B2094757D16DA4FB4493","title":"上海康城维园道","lon":"121.35380697","lat":"31.103291268","category":"252","category_name":"楼宇机构","address":"上海市闵行区莘松路958弄"},{"poiid":"B2094654DA64A2FA4492","title":"同润加州","lon":"121.35078","lat":"31.08993","category":"47","category_name":"住宅区","address":"上海市松江区新南路501号"},{"poiid":"B2094757D66CAAFA4199","title":"青春农庄","lon":"121.366871757","lat":"31.0982198263","category":"87","category_name":"特色／地方风味餐厅","address":"闵行区中春路4755弄98号(近青春路)"},{"poiid":"B2094654DA65A3FD4898","title":"沁春园三村","lon":"121.373374","lat":"31.094646","category":"47","category_name":"住宅区","address":"上海市闵行区沁春路1366号"},{"poiid":"B2094654DB64A2FD429B","title":"同润家园(一号门)","lon":"121.35972","lat":"31.09207","category":"47","category_name":"住宅区","address":"场南路1弄"},{"poiid":"B2094655D26EA2FB489B","title":"伊莎士花园","lon":"121.35349","lat":"31.09307","category":"47","category_name":"住宅区","address":"上海市松江区新桥春九路188号"},{"poiid":"B2094654DA64A2FA459A","title":"雅仕居","lon":"121.35769","lat":"31.094622","category":"47","category_name":"住宅区","address":"新南路99弄"},{"poiid":"B2094757D06AA0FC4698","title":"吴记老锅底麻辣火锅(巴比伦店)","lon":"121.35562","lat":"31.09937","category":"86","category_name":"火锅店","address":"上海闵行区莘松路1078弄3号(近春九路)  "},{"poiid":"B2094757D069A3F5449E","title":"肯德基 KFC (莘松店)","lon":"121.364028","lat":"31.097723","category":"68","category_name":"快餐厅","address":"闵行区莘松路855号乐购内(莘松地道旁)"},{"poiid":"B2094757D165ABF9439D","title":"雅士居","lon":"121.35970685","lat":"31.092690215","category":"500","category_name":"未知分类","address":"上海市松江区新南路"},{"poiid":"B2094655D26EA2FB429B","title":"场东公寓","lon":"121.36281","lat":"31.08919","category":"47","category_name":"住宅区","address":""},{"poiid":"B2094654DB64A2FF419A","title":"同润家园","lon":"121.3596","lat":"31.086287","category":"47","category_name":"住宅区","address":"上海市松江区场南路1弄"},{"poiid":"B2094757D069A0F94899","title":"红蜘蛛烧烤(莘松路店)","lon":"121.356","lat":"31.09928","category":"68","category_name":"快餐厅","address":"闵行区莘松路1028号巴比伦广场内(近上海康城)"},{"poiid":"B2094655D26EA2FB429A","title":"场东公寓(西南门)","lon":"121.36253","lat":"31.08908","category":"47","category_name":"住宅区","address":""},{"poiid":"B2094654DB64A2FD429F","title":"锦江之星(莘松路店)","lon":"121.36436","lat":"31.10051","category":"216","category_name":"经济型连锁酒店","address":"上海市闵行区莘松路855号(乐购超市旁)"},{"poiid":"B2094757D16FA6FC459C","title":"全家超市","lon":"121.359275818","lat":"31.0894851685","category":"249","category_name":"购物服务","address":"上海莘松路1288弄"},{"poiid":"B2094655D26FA3FB4893","title":"雅阁花园(西南门)","lon":"121.36183","lat":"31.0916","category":"48","category_name":"楼宇大门","address":"场东路168弄"},{"poiid":"B2094654DA64A2FA409B","title":"百佳花园","lon":"121.35724","lat":"31.097345","category":"47","category_name":"住宅区","address":"上海市松江区场东路333弄"},{"poiid":"B2094655D26EABFE419F","title":"龙祥公寓","lon":"121.3523","lat":"31.098312","category":"47","category_name":"住宅区","address":"松江莘松路1150弄"},{"poiid":"B2094654DB64A2FF419B","title":"同润家园(五号门)","lon":"121.35863","lat":"31.08748","category":"47","category_name":"住宅区","address":""},{"poiid":"B2094757D06FA3FD489F","title":"绿洲长岛花园","lon":"121.354833","lat":"31.103406","category":"47","category_name":"住宅区","address":"上海市松江区莘松路1288弄"},{"poiid":"B2094654DA64A2FA499A","title":"上海电气电站集团","lon":"121.37023","lat":"31.09074","category":"263","category_name":"公司","address":"中春路3999弄188"},{"poiid":"B2094757D06BAAF5479F","title":"棒约翰比萨(莘松店)","lon":"121.3632","lat":"31.10044","category":"94","category_name":"西餐厅","address":"闵行区莘松路855号乐购莘松店内(莘松地道旁)"},{"poiid":"B2094655D26FA3FB409A","title":"同润家园(西二门)","lon":"121.35768","lat":"31.08975","category":"48","category_name":"楼宇大门","address":""},{"poiid":"B2094750D768AAFE4393","title":"逸东华酒店","lon":"121.354","lat":"31.0935","category":"72","category_name":"广东菜","address":"明兴路528号(近明中路)"},{"poiid":"B2094757D068A7F5459B","title":"乐购莘松店","lon":"121.36471455","lat":"31.099643024","category":"500","category_name":"未知分类","address":"上海莘松路958弄"},{"poiid":"B2094752DB6EA5FA4199","title":"上海外滩","lon":"121.355103","lat":"31.095184","category":"500","category_name":"未知分类","address":"上海市 徐家汇"},{"poiid":"B2094757D06AAAFA4893","title":"口吅品牛肉面馆 莘松路","lon":"121.35775","lat":"31.10022","category":"68","category_name":"快餐厅","address":"闵行区莘松路1028号巴比伦广场二区(近上海康城)"},{"poiid":"B2094655D26EABFA429D","title":"乐购超市(莘松店)","lon":"121.3644","lat":"31.09795","category":"118","category_name":"超级市场","address":"闵行区莘松路855号"},{"poiid":"B2094654DB64A2FD429A","title":"伊莎士花园(东南门)","lon":"121.35653","lat":"31.09123","category":"656","category_name":"大门","address":"春九路188弄"},{"poiid":"B2094757D46FA6FF429D","title":"火云轩 莘松店","lon":"121.365049054","lat":"31.096239793","category":"86","category_name":"火锅店","address":"闵行区莘松路1494号(近场西路)"},{"poiid":"B2094757D16DAAF94993","title":"欣绿名苑","lon":"121.35426","lat":"31.082651","category":"47","category_name":"住宅区","address":"上海明中路275弄"},{"poiid":"B2094654DA64A2FB479F","title":"雅阁游泳池","lon":"121.362","lat":"31.09509","category":"149","category_name":"洗浴推拿场所","address":"场东路168弄387号"},{"poiid":"B2094654DA64A2F9499E","title":"上海师范大学康城实验学校","lon":"121.35532","lat":"31.10125","category":"55","category_name":"中学","address":"闵行区莘松路958弄瀑布弯道18号"},{"poiid":"B2094655D26EA2FB4793","title":"云间苑(南门)","lon":"121.35479","lat":"31.09427","category":"47","category_name":"住宅区","address":"新桥镇"},{"poiid":"B2094750D569A4FE4598","title":"同润别庄","lon":"121.35597435263","lat":"31.097496985785","category":"47","category_name":"住宅区","address":"上海市松江区新南路555号"},{"poiid":"B2094654DA64A2FA4098","title":"云间苑","lon":"121.35472","lat":"31.094482","category":"47","category_name":"住宅区","address":"新南路242弄"},{"poiid":"B2094654DA64A2FB479D","title":"上海陆家嘴物业管理有限公司","lon":"121.36201","lat":"31.09509","category":"263","category_name":"公司","address":"场东路168弄387号"},{"poiid":"B2094757D469A5F94592","title":"七欣天迷宗蟹 莘庄店","lon":"121.361126","lat":"31.100904","category":"257","category_name":"中餐厅","address":"闵行区莘松路1028号巴比伦广场101室(近上海康城)"},{"poiid":"B2094655D26EA2FB489A","title":"桃花源田庄(南门)","lon":"121.3537","lat":"31.09383","category":"47","category_name":"住宅区","address":"新南路"},{"poiid":"B2094757D16FABFA469F","title":"小白宫酒店","lon":"121.36136","lat":"31.08055","category":"76","category_name":"上海菜","address":"闵行区银都西路333号(近申南三路)"},{"poiid":"B2094654DB64A2FD419C","title":"上海康城","lon":"121.35881","lat":"31.10166","category":"47","category_name":"住宅区","address":"上海市闵行区莘松路980弄"},{"poiid":"B2094654DA64A2FA469A","title":"乔爱别墅城","lon":"121.35771","lat":"31.08633","category":"47","category_name":"住宅区","address":"春九路88弄"},{"poiid":"B2094757D069AAFD479B","title":"上海康城瀑布弯道","lon":"121.35294708","lat":"31.101292104","category":"500","category_name":"未知分类","address":"上海莘松路958弄"},{"poiid":"B2094757D068AAF4409F","title":"浅水湾花园","lon":"121.36124","lat":"31.097576","category":"47","category_name":"住宅区","address":"上海市松江区莘松路999弄"},{"poiid":"B2094654DA64A2F5419E","title":"雅阁花园","lon":"121.36195","lat":"31.091791","category":"47","category_name":"住宅区","address":"上海市松江区场东路168弄"},{"poiid":"B2094757D168A1FD4092","title":"莘松路西环路","lon":"121.367515257","lat":"31.103149725","category":"500","category_name":"未知分类","address":"上海莘松路西环路"},{"poiid":"B2094655D26AA2FA479A","title":"麦当劳康城店","lon":"121.35682","lat":"31.09989","category":"68","category_name":"快餐厅","address":"闵行区莘松路1028号巴比伦广场内(近上海康城)"},{"poiid":"B2094654DB69ABF94992","title":"今海明珠大酒楼(松江店)","lon":"121.35432","lat":"31.09911","category":"70","category_name":"综合酒楼","address":"闵行区莘松路1098号(巴比伦生活恒泰生活广场西侧)"},{"poiid":"B2094654DA64ABFA4893","title":"乔爱别墅","lon":"121.360401","lat":"31.09107","category":"47","category_name":"住宅区","address":"上海市闵行区莲花南路1288弄"},{"poiid":"B2094757D16DA4FB4493","title":"上海康城维园道","lon":"121.35380697","lat":"31.103291268","category":"252","category_name":"楼宇机构","address":"上海市闵行区莘松路958弄"},{"poiid":"B2094654DA64A2FA4492","title":"同润加州","lon":"121.35078","lat":"31.08993","category":"47","category_name":"住宅区","address":"上海市松江区新南路501号"},{"poiid":"B2094757D66CAAFA4199","title":"青春农庄","lon":"121.366871757","lat":"31.0982198263","category":"87","category_name":"特色／地方风味餐厅","address":"闵行区中春路4755弄98号(近青春路)"},{"poiid":"B2094654DA65A3FD4898","title":"沁春园三村","lon":"121.373374","lat":"31.094646","category":"47","category_name":"住宅区","address":"上海市闵行区沁春路1366号"},{"poiid":"B2094654DB64A2FD429B","title":"同润家园(一号门)","lon":"121.35972","lat":"31.09207","category":"47","category_name":"住宅区","address":"场南路1弄"},{"poiid":"B2094655D26EA2FB489B","title":"伊莎士花园","lon":"121.35349","lat":"31.09307","category":"47","category_name":"住宅区","address":"上海市松江区新桥春九路188号"},{"poiid":"B2094654DA64A2FA459A","title":"雅仕居","lon":"121.35769","lat":"31.094622","category":"47","category_name":"住宅区","address":"新南路99弄"},{"poiid":"B2094757D06AA0FC4698","title":"吴记老锅底麻辣火锅(巴比伦店)","lon":"121.35562","lat":"31.09937","category":"86","category_name":"火锅店","address":"上海闵行区莘松路1078弄3号(近春九路)  "},{"poiid":"B2094757D069A3F5449E","title":"肯德基 KFC (莘松店)","lon":"121.364028","lat":"31.097723","category":"68","category_name":"快餐厅","address":"闵行区莘松路855号乐购内(莘松地道旁)"},{"poiid":"B2094757D165ABF9439D","title":"雅士居","lon":"121.35970685","lat":"31.092690215","category":"500","category_name":"未知分类","address":"上海市松江区新南路"},{"poiid":"B2094655D26EA2FB429B","title":"场东公寓","lon":"121.36281","lat":"31.08919","category":"47","category_name":"住宅区","address":""},{"poiid":"B2094654DB64A2FF419A","title":"同润家园","lon":"121.3596","lat":"31.086287","category":"47","category_name":"住宅区","address":"上海市松江区场南路1弄"},{"poiid":"B2094757D069A0F94899","title":"红蜘蛛烧烤(莘松路店)","lon":"121.356","lat":"31.09928","category":"68","category_name":"快餐厅","address":"闵行区莘松路1028号巴比伦广场内(近上海康城)"},{"poiid":"B2094655D26EA2FB429A","title":"场东公寓(西南门)","lon":"121.36253","lat":"31.08908","category":"47","category_name":"住宅区","address":""},{"poiid":"B2094654DB64A2FD429F","title":"锦江之星(莘松路店)","lon":"121.36436","lat":"31.10051","category":"216","category_name":"经济型连锁酒店","address":"上海市闵行区莘松路855号(乐购超市旁)"},{"poiid":"B2094757D16FA6FC459C","title":"全家超市","lon":"121.359275818","lat":"31.0894851685","category":"249","category_name":"购物服务","address":"上海莘松路1288弄"},{"poiid":"B2094655D26FA3FB4893","title":"雅阁花园(西南门)","lon":"121.36183","lat":"31.0916","category":"48","category_name":"楼宇大门","address":"场东路168弄"},{"poiid":"B2094654DA64A2FA409B","title":"百佳花园","lon":"121.35724","lat":"31.097345","category":"47","category_name":"住宅区","address":"上海市松江区场东路333弄"},{"poiid":"B2094655D26EABFE419F","title":"龙祥公寓","lon":"121.3523","lat":"31.098312","category":"47","category_name":"住宅区","address":"松江莘松路1150弄"},{"poiid":"B2094654DB64A2FF419B","title":"同润家园(五号门)","lon":"121.35863","lat":"31.08748","category":"47","category_name":"住宅区","address":""},{"poiid":"B2094757D06FA3FD489F","title":"绿洲长岛花园","lon":"121.354833","lat":"31.103406","category":"47","category_name":"住宅区","address":"上海市松江区莘松路1288弄"},{"poiid":"B2094654DA64A2FA499A","title":"上海电气电站集团","lon":"121.37023","lat":"31.09074","category":"263","category_name":"公司","address":"中春路3999弄188"},{"poiid":"B2094757D06BAAF5479F","title":"棒约翰比萨(莘松店)","lon":"121.3632","lat":"31.10044","category":"94","category_name":"西餐厅","address":"闵行区莘松路855号乐购莘松店内(莘松地道旁)"},{"poiid":"B2094655D26FA3FB409A","title":"同润家园(西二门)","lon":"121.35768","lat":"31.08975","category":"48","category_name":"楼宇大门","address":""},{"poiid":"B2094750D768AAFE4393","title":"逸东华酒店","lon":"121.354","lat":"31.0935","category":"72","category_name":"广东菜","address":"明兴路528号(近明中路)"},{"poiid":"B2094757D068A7F5459B","title":"乐购莘松店","lon":"121.36471455","lat":"31.099643024","category":"500","category_name":"未知分类","address":"上海莘松路958弄"},{"poiid":"B2094752DB6EA5FA4199","title":"上海外滩","lon":"121.355103","lat":"31.095184","category":"500","category_name":"未知分类","address":"上海市 徐家汇"},{"poiid":"B2094757D06AAAFA4893","title":"口吅品牛肉面馆 莘松路","lon":"121.35775","lat":"31.10022","category":"68","category_name":"快餐厅","address":"闵行区莘松路1028号巴比伦广场二区(近上海康城)"},{"poiid":"B2094655D26EABFA429D","title":"乐购超市(莘松店)","lon":"121.3644","lat":"31.09795","category":"118","category_name":"超级市场","address":"闵行区莘松路855号"},{"poiid":"B2094654DB64A2FD429A","title":"伊莎士花园(东南门)","lon":"121.35653","lat":"31.09123","category":"656","category_name":"大门","address":"春九路188弄"},{"poiid":"B2094757D46FA6FF429D","title":"火云轩 莘松店","lon":"121.365049054","lat":"31.096239793","category":"86","category_name":"火锅店","address":"闵行区莘松路1494号(近场西路)"},{"poiid":"B2094757D16DAAF94993","title":"欣绿名苑","lon":"121.35426","lat":"31.082651","category":"47","category_name":"住宅区","address":"上海明中路275弄"},{"poiid":"B2094654DA64A2FB479F","title":"雅阁游泳池","lon":"121.362","lat":"31.09509","category":"149","category_name":"洗浴推拿场所","address":"场东路168弄387号"},{"poiid":"B2094654DA64A2F9499E","title":"上海师范大学康城实验学校","lon":"121.35532","lat":"31.10125","category":"55","category_name":"中学","address":"闵行区莘松路958弄瀑布弯道18号"},{"poiid":"B2094655D26EA2FB4793","title":"云间苑(南门)","lon":"121.35479","lat":"31.09427","category":"47","category_name":"住宅区","address":"新桥镇"},{"poiid":"B2094750D569A4FE4598","title":"同润别庄","lon":"121.35597435263","lat":"31.097496985785","category":"47","category_name":"住宅区","address":"上海市松江区新南路555号"},{"poiid":"B2094654DA64A2FA4098","title":"云间苑","lon":"121.35472","lat":"31.094482","category":"47","category_name":"住宅区","address":"新南路242弄"},{"poiid":"B2094654DA64A2FB479D","title":"上海陆家嘴物业管理有限公司","lon":"121.36201","lat":"31.09509","category":"263","category_name":"公司","address":"场东路168弄387号"},{"poiid":"B2094757D469A5F94592","title":"七欣天迷宗蟹 莘庄店","lon":"121.361126","lat":"31.100904","category":"257","category_name":"中餐厅","address":"闵行区莘松路1028号巴比伦广场101室(近上海康城)"},{"poiid":"B2094655D26EA2FB489A","title":"桃花源田庄(南门)","lon":"121.3537","lat":"31.09383","category":"47","category_name":"住宅区","address":"新南路"},{"poiid":"B2094757D16FABFA469F","title":"小白宫酒店","lon":"121.36136","lat":"31.08055","category":"76","category_name":"上海菜","address":"闵行区银都西路333号(近申南三路)"},{"poiid":"B2094654DB64A2FD419C","title":"上海康城","lon":"121.35881","lat":"31.10166","category":"47","category_name":"住宅区","address":"上海市闵行区莘松路980弄"},{"poiid":"B2094654DA64A2FA469A","title":"乔爱别墅城","lon":"121.35771","lat":"31.08633","category":"47","category_name":"住宅区","address":"春九路88弄"},{"poiid":"B2094757D069AAFD479B","title":"上海康城瀑布弯道","lon":"121.35294708","lat":"31.101292104","category":"500","category_name":"未知分类","address":"上海莘松路958弄"},{"poiid":"B2094757D068AAF4409F","title":"浅水湾花园","lon":"121.36124","lat":"31.097576","category":"47","category_name":"住宅区","address":"上海市松江区莘松路999弄"},{"poiid":"B2094654DA64A2F5419E","title":"雅阁花园","lon":"121.36195","lat":"31.091791","category":"47","category_name":"住宅区","address":"上海市松江区场东路168弄"},{"poiid":"B2094757D168A1FD4092","title":"莘松路西环路","lon":"121.367515257","lat":"31.103149725","category":"500","category_name":"未知分类","address":"上海莘松路西环路"},{"poiid":"B2094655D26AA2FA479A","title":"麦当劳康城店","lon":"121.35682","lat":"31.09989","category":"68","category_name":"快餐厅","address":"闵行区莘松路1028号巴比伦广场内(近上海康城)"},{"poiid":"B2094654DB69ABF94992","title":"今海明珠大酒楼(松江店)","lon":"121.35432","lat":"31.09911","category":"70","category_name":"综合酒楼","address":"闵行区莘松路1098号(巴比伦生活恒泰生活广场西侧)"},{"poiid":"B2094654DA64ABFA4893","title":"乔爱别墅","lon":"121.360401","lat":"31.09107","category":"47","category_name":"住宅区","address":"上海市闵行区莲花南路1288弄"},{"poiid":"B2094757D16DA4FB4493","title":"上海康城维园道","lon":"121.35380697","lat":"31.103291268","category":"252","category_name":"楼宇机构","address":"上海市闵行区莘松路958弄"},{"poiid":"B2094654DA64A2FA4492","title":"同润加州","lon":"121.35078","lat":"31.08993","category":"47","category_name":"住宅区","address":"上海市松江区新南路501号"},{"poiid":"B2094757D66CAAFA4199","title":"青春农庄","lon":"121.366871757","lat":"31.0982198263","category":"87","category_name":"特色／地方风味餐厅","address":"闵行区中春路4755弄98号(近青春路)"},{"poiid":"B2094654DA65A3FD4898","title":"沁春园三村","lon":"121.373374","lat":"31.094646","category":"47","category_name":"住宅区","address":"上海市闵行区沁春路1366号"},{"poiid":"B2094654DB64A2FD429B","title":"同润家园(一号门)","lon":"121.35972","lat":"31.09207","category":"47","category_name":"住宅区","address":"场南路1弄"},{"poiid":"B2094655D26EA2FB489B","title":"伊莎士花园","lon":"121.35349","lat":"31.09307","category":"47","category_name":"住宅区","address":"上海市松江区新桥春九路188号"},{"poiid":"B2094654DA64A2FA459A","title":"雅仕居","lon":"121.35769","lat":"31.094622","category":"47","category_name":"住宅区","address":"新南路99弄"},{"poiid":"B2094757D06AA0FC4698","title":"吴记老锅底麻辣火锅(巴比伦店)","lon":"121.35562","lat":"31.09937","category":"86","category_name":"火锅店","address":"上海闵行区莘松路1078弄3号(近春九路)  "},{"poiid":"B2094757D069A3F5449E","title":"肯德基 KFC (莘松店)","lon":"121.364028","lat":"31.097723","category":"68","category_name":"快餐厅","address":"闵行区莘松路855号乐购内(莘松地道旁)"},{"poiid":"B2094757D165ABF9439D","title":"雅士居","lon":"121.35970685","lat":"31.092690215","category":"500","category_name":"未知分类","address":"上海市松江区新南路"},{"poiid":"B2094655D26EA2FB429B","title":"场东公寓","lon":"121.36281","lat":"31.08919","category":"47","category_name":"住宅区","address":""},{"poiid":"B2094654DB64A2FF419A","title":"同润家园","lon":"121.3596","lat":"31.086287","category":"47","category_name":"住宅区","address":"上海市松江区场南路1弄"},{"poiid":"B2094757D069A0F94899","title":"红蜘蛛烧烤(莘松路店)","lon":"121.356","lat":"31.09928","category":"68","category_name":"快餐厅","address":"闵行区莘松路1028号巴比伦广场内(近上海康城)"},{"poiid":"B2094655D26EA2FB429A","title":"场东公寓(西南门)","lon":"121.36253","lat":"31.08908","category":"47","category_name":"住宅区","address":""},{"poiid":"B2094654DB64A2FD429F","title":"锦江之星(莘松路店)","lon":"121.36436","lat":"31.10051","category":"216","category_name":"经济型连锁酒店","address":"上海市闵行区莘松路855号(乐购超市旁)"},{"poiid":"B2094757D16FA6FC459C","title":"全家超市","lon":"121.359275818","lat":"31.0894851685","category":"249","category_name":"购物服务","address":"上海莘松路1288弄"},{"poiid":"B2094655D26FA3FB4893","title":"雅阁花园(西南门)","lon":"121.36183","lat":"31.0916","category":"48","category_name":"楼宇大门","address":"场东路168弄"},{"poiid":"B2094654DA64A2FA409B","title":"百佳花园","lon":"121.35724","lat":"31.097345","category":"47","category_name":"住宅区","address":"上海市松江区场东路333弄"},{"poiid":"B2094655D26EABFE419F","title":"龙祥公寓","lon":"121.3523","lat":"31.098312","category":"47","category_name":"住宅区","address":"松江莘松路1150弄"},{"poiid":"B2094654DB64A2FF419B","title":"同润家园(五号门)","lon":"121.35863","lat":"31.08748","category":"47","category_name":"住宅区","address":""},{"poiid":"B2094757D06FA3FD489F","title":"绿洲长岛花园","lon":"121.354833","lat":"31.103406","category":"47","category_name":"住宅区","address":"上海市松江区莘松路1288弄"},{"poiid":"B2094654DA64A2FA499A","title":"上海电气电站集团","lon":"121.37023","lat":"31.09074","category":"263","category_name":"公司","address":"中春路3999弄188"},{"poiid":"B2094757D06BAAF5479F","title":"棒约翰比萨(莘松店)","lon":"121.3632","lat":"31.10044","category":"94","category_name":"西餐厅","address":"闵行区莘松路855号乐购莘松店内(莘松地道旁)"},{"poiid":"B2094655D26FA3FB409A","title":"同润家园(西二门)","lon":"121.35768","lat":"31.08975","category":"48","category_name":"楼宇大门","address":""},{"poiid":"B2094750D768AAFE4393","title":"逸东华酒店","lon":"121.354","lat":"31.0935","category":"72","category_name":"广东菜","address":"明兴路528号(近明中路)"},{"poiid":"B2094757D068A7F5459B","title":"乐购莘松店","lon":"121.36471455","lat":"31.099643024","category":"500","category_name":"未知分类","address":"上海莘松路958弄"},{"poiid":"B2094752DB6EA5FA4199","title":"上海外滩","lon":"121.355103","lat":"31.095184","category":"500","category_name":"未知分类","address":"上海市 徐家汇"},{"poiid":"B2094757D06AAAFA4893","title":"口吅品牛肉面馆 莘松路","lon":"121.35775","lat":"31.10022","category":"68","category_name":"快餐厅","address":"闵行区莘松路1028号巴比伦广场二区(近上海康城)"},{"poiid":"B2094655D26EABFA429D","title":"乐购超市(莘松店)","lon":"121.3644","lat":"31.09795","category":"118","category_name":"超级市场","address":"闵行区莘松路855号"},{"poiid":"B2094654DB64A2FD429A","title":"伊莎士花园(东南门)","lon":"121.35653","lat":"31.09123","category":"656","category_name":"大门","address":"春九路188弄"},{"poiid":"B2094757D46FA6FF429D","title":"火云轩 莘松店","lon":"121.365049054","lat":"31.096239793","category":"86","category_name":"火锅店","address":"闵行区莘松路1494号(近场西路)"},{"poiid":"B2094757D16DAAF94993","title":"欣绿名苑","lon":"121.35426","lat":"31.082651","category":"47","category_name":"住宅区","address":"上海明中路275弄"},{"poiid":"B2094654DA64A2FB479F","title":"雅阁游泳池","lon":"121.362","lat":"31.09509","category":"149","category_name":"洗浴推拿场所","address":"场东路168弄387号"},{"poiid":"B2094654DA64A2F9499E","title":"上海师范大学康城实验学校","lon":"121.35532","lat":"31.10125","category":"55","category_name":"中学","address":"闵行区莘松路958弄瀑布弯道18号"},{"poiid":"B2094655D26EA2FB4793","title":"云间苑(南门)","lon":"121.35479","lat":"31.09427","category":"47","category_name":"住宅区","address":"新桥镇"},{"poiid":"B2094750D569A4FE4598","title":"同润别庄","lon":"121.35597435263","lat":"31.097496985785","category":"47","category_name":"住宅区","address":"上海市松江区新南路555号"},{"poiid":"B2094654DA64A2FA4098","title":"云间苑","lon":"121.35472","lat":"31.094482","category":"47","category_name":"住宅区","address":"新南路242弄"},{"poiid":"B2094654DA64A2FB479D","title":"上海陆家嘴物业管理有限公司","lon":"121.36201","lat":"31.09509","category":"263","category_name":"公司","address":"场东路168弄387号"},{"poiid":"B2094757D469A5F94592","title":"七欣天迷宗蟹 莘庄店","lon":"121.361126","lat":"31.100904","category":"257","category_name":"中餐厅","address":"闵行区莘松路1028号巴比伦广场101室(近上海康城)"},{"poiid":"B2094655D26EA2FB489A","title":"桃花源田庄(南门)","lon":"121.3537","lat":"31.09383","category":"47","category_name":"住宅区","address":"新南路"},{"poiid":"B2094757D16FABFA469F","title":"小白宫酒店","lon":"121.36136","lat":"31.08055","category":"76","category_name":"上海菜","address":"闵行区银都西路333号(近申南三路)"}]