[{"poiid":"B2094654DA69A7F4429F","title":"陆家嘴中心绿地","lon":"121.50614","lat":"31.23796","category":"202","category_name":"公园广场","address":"浦东新区陆家嘴东路160号(金茂大厦对面)"},{"poiid":"B2094757D06EAAF8419D","title":"国金百丽宫影院","lon":"121.504060766","lat":"31.2365280728","category":"178","category_name":"电影院","address":"上海浦东新区世纪大道8号国际金融中心B1-B2楼(东泰路世纪大道)"},{"poiid":"B2094654DB6AA6FF459C","title":"上海金茂君悦大酒店","lon":"121.50588","lat":"31.23522","category":"213","category_name":"五星级宾馆","address":"浦东新区世纪大道88号金茂大厦53-87楼(近二号线陆家嘴站)"},{"poiid":"B209475CD564A7F84392","title":"上海滩浦东香格里拉店","lon":"121.50058","lat":"31.23634","category":"119","category_name":"商场","address":"浦东富成路33号香格里拉酒店内大堂层"},{"poiid":"B2094654DA6FA7FF419A","title":"花旗集团大厦","lon":"121.507","lat":"31.2397","category":"46","category_name":"楼宇","address":"行宫位于沈河北站一路41号"},{"poiid":"B2094757D06EAAFC429A","title":"恒生银行大厦","lon":"121.50714642","lat":"31.240029324","category":"46","category_name":"楼宇","address":"浦东新区金湘路225弄"},{"poiid":"B2094757D06FA1F9449F","title":"王朝大酒店(浦东店)","lon":"121.50810175","lat":"31.2391448509","category":"76","category_name":"上海菜","address":"浦东新区陆家嘴环路958号华能大厦3楼(近银城中路)"},{"poiid":"B2094750DA6AA4F4489F","title":"一风堂拉面","lon":"121.505241","lat":"31.235317","category":"247","category_name":"餐饮美食","address":"国金商场LG1"},{"poiid":"B2094757D464ABF94093","title":"柏悦酒店91楼餐厅","lon":"121.507506","lat":"31.235597","category":"257","category_name":"中餐厅","address":"世纪大道100号环球金融中心87楼（柏悦酒店）近陆家嘴环路"},{"poiid":"B2094757D06FA3F94593","title":"屯京拉面","lon":"121.50823373","lat":"31.236297429","category":"95","category_name":"日本料理","address":"浦东新区世纪大道100号环球金融中心B1楼(东泰路口)"},{"poiid":"B2094757D06FA2FD4698","title":"星巴克 STARBUCKS (金茂大厦店)","lon":"121.505466","lat":"31.235254","category":"65","category_name":"咖啡厅","address":"浦东新区世纪大道88号金茂大厦JLIFE时尚生活中心2楼(近二号线陆家嘴站)"},{"poiid":"B2094757D66EA0F9489C","title":"金茂大厦88层","lon":"121.50547323","lat":"31.236578735","category":"252","category_name":"楼宇机构","address":"上海金茂大厦"},{"poiid":"B2094757D06FA2FE4099","title":"Ritz-Carlton Flair Pub","lon":"121.505996","lat":"31.235922","category":"172","category_name":"酒吧","address":"上海浦东新区世纪大道8号丽思卡尔顿酒店58层"},{"poiid":"B2094757D06FA3FC439A","title":"金牛苑(国金中心店)","lon":"121.50623","lat":"31.23564","category":"47","category_name":"住宅区","address":"浦东新区世纪大道8号世纪大道8号上海国金中心L3-19"},{"poiid":"B2094757D06FA2FF4092","title":"建设银行(陆家嘴分行)","lon":"121.50870513","lat":"31.238155365","category":"150","category_name":"银行","address":"上海浦东新区陆家嘴环路900号"},{"poiid":"B2094757DB68A3F9419D","title":"梅赛德斯-奔驰文化中心","lon":"121.50617587","lat":"31.23635451999999","category":"500","category_name":"未知分类","address":"世博大道1200号"},{"poiid":"B2094757D06FA6FC459C","title":"Isola Bar & Grill","lon":"121.506157","lat":"31.235234","category":"94","category_name":"西餐厅","address":"浦东新区世纪大道8号上海国金中心L4楼17号铺(近银城中路)"},{"poiid":"B2094654DA69A7FB459E","title":"上海金茂大厦88层观光厅","lon":"121.50562","lat":"31.23524","category":"240","category_name":"国家级景点","address":"上海市浦东新区世纪大道88号金茂大厦"},{"poiid":"B2094757D16CA2FF4899","title":"麦当劳国金中心店","lon":"121.50513081","lat":"31.236093145","category":"68","category_name":"快餐厅","address":"浦东新区世纪大道8号国金中心商场LG1-17号商铺(近东泰路)"},{"poiid":"B2094757D468A7F54892","title":"丽思卡尔顿大堂酒廊 Aura","lon":"121.50596","lat":"31.23591","category":"172","category_name":"酒吧","address":"浦东新区世纪大道8号上海国金中心丽思卡尔顿酒店(东泰路世纪大道)"},{"poiid":"B2094757D06FA1FD419B","title":"延安东路隧道浦东段入口","lon":"121.508623058","lat":"31.2366004965","category":"500","category_name":"未知分类","address":"上海浦东新区世纪大道(近银城中路)"},{"poiid":"B2094757D06FA2FC419C","title":"星巴克(森茂店)","lon":"121.507817","lat":"31.240365","category":"260","category_name":"其他","address":"浦东新区陆家嘴环路1000号恒生大厦1楼(金洲街银城中路)"},{"poiid":"B2094655D26DA1F8439E","title":"世界金融大厦","lon":"121.50865","lat":"31.23839","category":"46","category_name":"楼宇","address":"上海陆家嘴环路900号"},{"poiid":"B2094655D26EA6FF409F","title":"金茂君悦宴会厅","lon":"121.50546","lat":"31.23525","category":"257","category_name":"中餐厅","address":"浦东新区世纪大道88号金茂大厦裙楼2楼(近陆家嘴东路)查看地图"},{"poiid":"B2094757D16CA2FD4493","title":"洋食寅八轩","lon":"121.50768","lat":"31.23495","category":"68","category_name":"快餐厅","address":"浦东新区世纪大道100号环球金融中心B1楼B106-2(近东泰路)"},{"poiid":"B2094654DB69A7FE409C","title":"日珍日本餐厅","lon":"121.505615054","lat":"31.235306793","category":"95","category_name":"日本料理","address":"浦东新区世纪大道88号金茂君悦大酒店56楼(近二号线陆家嘴站)"},{"poiid":"B2094757D068AAFC459E","title":"DQ(冰雪皇后)陆家嘴店","lon":"121.506171738","lat":"31.2361194256","category":"113","category_name":"冷饮店","address":"上海市浦东新区世纪大道2F-55(陆家嘴天桥)"},{"poiid":"B2094757D06BA0FD4692","title":"丽豪港式茶餐厅","lon":"121.506884838","lat":"31.2355587137","category":"72","category_name":"广东菜","address":"浦东新区世纪大道100号环球金融中心B1楼(近东泰路)"},{"poiid":"B2094757D76AA1FF4193","title":"大阪章鱼小丸子","lon":"121.50097","lat":"31.23665","category":"68","category_name":"快餐厅","address":"浦东新区世纪大道8号国金中心商场LG2楼B-7室(近东泰路)"},{"poiid":"B2094757D06BA1FC429F","title":"科瓦齿科(金茂店)","lon":"121.505166736","lat":"31.235647382","category":"162","category_name":"医院","address":"浦东新区世纪大道88号金茂大厦裙房时尚生活中心3N1-3N3(近二号线陆家嘴站)"},{"poiid":"B2094757D469A2FD499B","title":"天庭 Patio Lounge","lon":"121.505615054","lat":"31.235306793","category":"65","category_name":"咖啡厅","address":"世纪大道88号金茂大厦56楼近东泰路"},{"poiid":"B2094655D26DA7F4489D","title":"陆家嘴中心绿地(东门)","lon":"121.50744","lat":"31.23808","category":"202","category_name":"公园广场","address":""},{"poiid":"B2094757D068A5FA4492","title":"苏浙总会","lon":"121.50131","lat":"31.23663","category":"74","category_name":"江苏菜","address":"浦东新区世纪大道8号国金中心4楼(近银城中路)"},{"poiid":"B2094757D16EA2F9409A","title":"老上海8","lon":"121.50620269","lat":"31.237758636","category":"260","category_name":"其他","address":"上海浦东世纪大道1号东方明珠8号门"},{"poiid":"B2094750D665A4F8449F","title":"花丸乌冬面(环球金融中心店)","lon":"121.507","lat":"31.2353","category":"95","category_name":"日本料理","address":"浦东新区世纪大道100号环球金融中心B1楼"},{"poiid":"B2094654DB69A0F94493","title":"金茂俱乐部上海餐厅","lon":"121.50546","lat":"31.23525","category":"76","category_name":"上海菜","address":"浦东新区世纪大道88号金茂君悦大酒店86楼(近二号线陆家嘴站)"},{"poiid":"B2094757D06FA5F9499D","title":"i.t(国金中心店)","lon":"121.5059623","lat":"31.2359135","category":"141","category_name":"服装鞋帽皮具店","address":"浦东新区世纪大道8号国金中心商场LG1楼(近东泰路)"},{"poiid":"B2094654DB69A6FC4492","title":"浦东公园","lon":"121.50651","lat":"31.23806","category":"196","category_name":"公园","address":"浦东新区陆家嘴路480号"},{"poiid":"B2094750D665A1FB499C","title":"天厨日式料理","lon":"121.507","lat":"31.2402","category":"95","category_name":"日本料理","address":"浦东新区陆家嘴环路1000号恒生银行大厦2楼(近银城中路)"},{"poiid":"B2094654DB69A6FE489B","title":"银都大厦","lon":"121.50748","lat":"31.23738","category":"46","category_name":"楼宇","address":"浦东区陆家嘴西路153号"},{"poiid":"B2094655D268A4F4429F","title":"陆家嘴中心绿地(北门)","lon":"121.50523","lat":"31.23914","category":"202","category_name":"公园广场","address":""},{"poiid":"B2094757D069A2FB449E","title":"丽思卡尔顿酒店三层宴会厅","lon":"121.50653076","lat":"31.235332489","category":"217","category_name":"旅馆招待所","address":"上海陆家嘴世纪大道8号国金中心"},{"poiid":"B2094750D36BA7F84898","title":"上海一圈","lon":"121.50616503135","lat":"31.237966042997","category":"617","category_name":"政府机构","address":"浦东新区陆家嘴中心绿地公园"},{"poiid":"B2094757D16EA3FD4298","title":"Piano Bar","lon":"121.50636","lat":"31.23572","category":"260","category_name":"其他","address":"浦东新区世纪大道88号金茂君悦大酒店53楼(近二号线陆家嘴站)"},{"poiid":"B2094751D06CA1FA479F","title":"汤姆熊","lon":"121.50639427","lat":"31.23721478999999","category":"500","category_name":"未知分类","address":null},{"poiid":"B2094655D26BA4FA4299","title":"陆家嘴开发陈列馆","lon":"121.50691","lat":"31.2368","category":"182","category_name":"博物馆","address":"陆家嘴东路15号"},{"poiid":"B2094757D16DA3FC479C","title":"方方面面","lon":"121.506746838","lat":"31.2391964912","category":"68","category_name":"快餐厅","address":"浦东新区银城东路15号陆家嘴中心绿地内"},{"poiid":"B2094757D16CA3FF489F","title":"洋葱餐厅","lon":"121.50523376","lat":"31.236677169","category":"500","category_name":"未知分类","address":"上海正大广场8楼"},{"poiid":"B2094750D26FA3F5499A","title":"利苑 Lei Garden","lon":"121.50495","lat":"31.23659","category":"72","category_name":"广东菜","address":"世纪大道8号上海国际金融中心（国金中心）3楼近银城中路"},{"poiid":"B2094757D068ABFA409A","title":"五芳面馆 森茂店","lon":"121.50692728121","lat":"31.240418848214","category":"68","category_name":"快餐厅","address":"浦东新区陆家嘴环路1000号恒生大厦2楼(东城路陆家嘴环路)"},{"poiid":"B2094654DA69A7F4429F","title":"陆家嘴中心绿地","lon":"121.50614","lat":"31.23796","category":"202","category_name":"公园广场","address":"浦东新区陆家嘴东路160号(金茂大厦对面)"},{"poiid":"B2094757D06EAAF8419D","title":"国金百丽宫影院","lon":"121.504060766","lat":"31.2365280728","category":"178","category_name":"电影院","address":"上海浦东新区世纪大道8号国际金融中心B1-B2楼(东泰路世纪大道)"},{"poiid":"B2094654DB6AA6FF459C","title":"上海金茂君悦大酒店","lon":"121.50588","lat":"31.23522","category":"213","category_name":"五星级宾馆","address":"浦东新区世纪大道88号金茂大厦53-87楼(近二号线陆家嘴站)"},{"poiid":"B209475CD564A7F84392","title":"上海滩浦东香格里拉店","lon":"121.50058","lat":"31.23634","category":"119","category_name":"商场","address":"浦东富成路33号香格里拉酒店内大堂层"},{"poiid":"B2094654DA6FA7FF419A","title":"花旗集团大厦","lon":"121.507","lat":"31.2397","category":"46","category_name":"楼宇","address":"行宫位于沈河北站一路41号"},{"poiid":"B2094757D06EAAFC429A","title":"恒生银行大厦","lon":"121.50714642","lat":"31.240029324","category":"46","category_name":"楼宇","address":"浦东新区金湘路225弄"},{"poiid":"B2094757D06FA1F9449F","title":"王朝大酒店(浦东店)","lon":"121.50810175","lat":"31.2391448509","category":"76","category_name":"上海菜","address":"浦东新区陆家嘴环路958号华能大厦3楼(近银城中路)"},{"poiid":"B2094750DA6AA4F4489F","title":"一风堂拉面","lon":"121.505241","lat":"31.235317","category":"247","category_name":"餐饮美食","address":"国金商场LG1"},{"poiid":"B2094757D464ABF94093","title":"柏悦酒店91楼餐厅","lon":"121.507506","lat":"31.235597","category":"257","category_name":"中餐厅","address":"世纪大道100号环球金融中心87楼（柏悦酒店）近陆家嘴环路"},{"poiid":"B2094757D06FA3F94593","title":"屯京拉面","lon":"121.50823373","lat":"31.236297429","category":"95","category_name":"日本料理","address":"浦东新区世纪大道100号环球金融中心B1楼(东泰路口)"},{"poiid":"B2094757D06FA2FD4698","title":"星巴克 STARBUCKS (金茂大厦店)","lon":"121.505466","lat":"31.235254","category":"65","category_name":"咖啡厅","address":"浦东新区世纪大道88号金茂大厦JLIFE时尚生活中心2楼(近二号线陆家嘴站)"},{"poiid":"B2094757D66EA0F9489C","title":"金茂大厦88层","lon":"121.50547323","lat":"31.236578735","category":"252","category_name":"楼宇机构","address":"上海金茂大厦"},{"poiid":"B2094757D06FA2FE4099","title":"Ritz-Carlton Flair Pub","lon":"121.505996","lat":"31.235922","category":"172","category_name":"酒吧","address":"上海浦东新区世纪大道8号丽思卡尔顿酒店58层"},{"poiid":"B2094757D06FA3FC439A","title":"金牛苑(国金中心店)","lon":"121.50623","lat":"31.23564","category":"47","category_name":"住宅区","address":"浦东新区世纪大道8号世纪大道8号上海国金中心L3-19"},{"poiid":"B2094757D06FA2FF4092","title":"建设银行(陆家嘴分行)","lon":"121.50870513","lat":"31.238155365","category":"150","category_name":"银行","address":"上海浦东新区陆家嘴环路900号"},{"poiid":"B2094757DB68A3F9419D","title":"梅赛德斯-奔驰文化中心","lon":"121.50617587","lat":"31.23635451999999","category":"500","category_name":"未知分类","address":"世博大道1200号"},{"poiid":"B2094757D06FA6FC459C","title":"Isola Bar & Grill","lon":"121.506157","lat":"31.235234","category":"94","category_name":"西餐厅","address":"浦东新区世纪大道8号上海国金中心L4楼17号铺(近银城中路)"},{"poiid":"B2094654DA69A7FB459E","title":"上海金茂大厦88层观光厅","lon":"121.50562","lat":"31.23524","category":"240","category_name":"国家级景点","address":"上海市浦东新区世纪大道88号金茂大厦"},{"poiid":"B2094757D16CA2FF4899","title":"麦当劳国金中心店","lon":"121.50513081","lat":"31.236093145","category":"68","category_name":"快餐厅","address":"浦东新区世纪大道8号国金中心商场LG1-17号商铺(近东泰路)"},{"poiid":"B2094757D468A7F54892","title":"丽思卡尔顿大堂酒廊 Aura","lon":"121.50596","lat":"31.23591","category":"172","category_name":"酒吧","address":"浦东新区世纪大道8号上海国金中心丽思卡尔顿酒店(东泰路世纪大道)"},{"poiid":"B2094757D06FA1FD419B","title":"延安东路隧道浦东段入口","lon":"121.508623058","lat":"31.2366004965","category":"500","category_name":"未知分类","address":"上海浦东新区世纪大道(近银城中路)"},{"poiid":"B2094757D06FA2FC419C","title":"星巴克(森茂店)","lon":"121.507817","lat":"31.240365","category":"260","category_name":"其他","address":"浦东新区陆家嘴环路1000号恒生大厦1楼(金洲街银城中路)"},{"poiid":"B2094655D26DA1F8439E","title":"世界金融大厦","lon":"121.50865","lat":"31.23839","category":"46","category_name":"楼宇","address":"上海陆家嘴环路900号"},{"poiid":"B2094655D26EA6FF409F","title":"金茂君悦宴会厅","lon":"121.50546","lat":"31.23525","category":"257","category_name":"中餐厅","address":"浦东新区世纪大道88号金茂大厦裙楼2楼(近陆家嘴东路)查看地图"},{"poiid":"B2094757D16CA2FD4493","title":"洋食寅八轩","lon":"121.50768","lat":"31.23495","category":"68","category_name":"快餐厅","address":"浦东新区世纪大道100号环球金融中心B1楼B106-2(近东泰路)"},{"poiid":"B2094654DB69A7FE409C","title":"日珍日本餐厅","lon":"121.505615054","lat":"31.235306793","category":"95","category_name":"日本料理","address":"浦东新区世纪大道88号金茂君悦大酒店56楼(近二号线陆家嘴站)"},{"poiid":"B2094757D068AAFC459E","title":"DQ(冰雪皇后)陆家嘴店","lon":"121.506171738","lat":"31.2361194256","category":"113","category_name":"冷饮店","address":"上海市浦东新区世纪大道2F-55(陆家嘴天桥)"},{"poiid":"B2094757D06BA0FD4692","title":"丽豪港式茶餐厅","lon":"121.506884838","lat":"31.2355587137","category":"72","category_name":"广东菜","address":"浦东新区世纪大道100号环球金融中心B1楼(近东泰路)"},{"poiid":"B2094757D76AA1FF4193","title":"大阪章鱼小丸子","lon":"121.50097","lat":"31.23665","category":"68","category_name":"快餐厅","address":"浦东新区世纪大道8号国金中心商场LG2楼B-7室(近东泰路)"},{"poiid":"B2094757D06BA1FC429F","title":"科瓦齿科(金茂店)","lon":"121.505166736","lat":"31.235647382","category":"162","category_name":"医院","address":"浦东新区世纪大道88号金茂大厦裙房时尚生活中心3N1-3N3(近二号线陆家嘴站)"},{"poiid":"B2094757D469A2FD499B","title":"天庭 Patio Lounge","lon":"121.505615054","lat":"31.235306793","category":"65","category_name":"咖啡厅","address":"世纪大道88号金茂大厦56楼近东泰路"},{"poiid":"B2094655D26DA7F4489D","title":"陆家嘴中心绿地(东门)","lon":"121.50744","lat":"31.23808","category":"202","category_name":"公园广场","address":""},{"poiid":"B2094757D068A5FA4492","title":"苏浙总会","lon":"121.50131","lat":"31.23663","category":"74","category_name":"江苏菜","address":"浦东新区世纪大道8号国金中心4楼(近银城中路)"},{"poiid":"B2094757D16EA2F9409A","title":"老上海8","lon":"121.50620269","lat":"31.237758636","category":"260","category_name":"其他","address":"上海浦东世纪大道1号东方明珠8号门"},{"poiid":"B2094750D665A4F8449F","title":"花丸乌冬面(环球金融中心店)","lon":"121.507","lat":"31.2353","category":"95","category_name":"日本料理","address":"浦东新区世纪大道100号环球金融中心B1楼"},{"poiid":"B2094654DB69A0F94493","title":"金茂俱乐部上海餐厅","lon":"121.50546","lat":"31.23525","category":"76","category_name":"上海菜","address":"浦东新区世纪大道88号金茂君悦大酒店86楼(近二号线陆家嘴站)"},{"poiid":"B2094757D06FA5F9499D","title":"i.t(国金中心店)","lon":"121.5059623","lat":"31.2359135","category":"141","category_name":"服装鞋帽皮具店","address":"浦东新区世纪大道8号国金中心商场LG1楼(近东泰路)"},{"poiid":"B2094654DB69A6FC4492","title":"浦东公园","lon":"121.50651","lat":"31.23806","category":"196","category_name":"公园","address":"浦东新区陆家嘴路480号"},{"poiid":"B2094750D665A1FB499C","title":"天厨日式料理","lon":"121.507","lat":"31.2402","category":"95","category_name":"日本料理","address":"浦东新区陆家嘴环路1000号恒生银行大厦2楼(近银城中路)"},{"poiid":"B2094654DB69A6FE489B","title":"银都大厦","lon":"121.50748","lat":"31.23738","category":"46","category_name":"楼宇","address":"浦东区陆家嘴西路153号"},{"poiid":"B2094655D268A4F4429F","title":"陆家嘴中心绿地(北门)","lon":"121.50523","lat":"31.23914","category":"202","category_name":"公园广场","address":""},{"poiid":"B2094757D069A2FB449E","title":"丽思卡尔顿酒店三层宴会厅","lon":"121.50653076","lat":"31.235332489","category":"217","category_name":"旅馆招待所","address":"上海陆家嘴世纪大道8号国金中心"},{"poiid":"B2094750D36BA7F84898","title":"上海一圈","lon":"121.50616503135","lat":"31.237966042997","category":"617","category_name":"政府机构","address":"浦东新区陆家嘴中心绿地公园"},{"poiid":"B2094757D16EA3FD4298","title":"Piano Bar","lon":"121.50636","lat":"31.23572","category":"260","category_name":"其他","address":"浦东新区世纪大道88号金茂君悦大酒店53楼(近二号线陆家嘴站)"},{"poiid":"B2094751D06CA1FA479F","title":"汤姆熊","lon":"121.50639427","lat":"31.23721478999999","category":"500","category_name":"未知分类","address":null},{"poiid":"B2094655D26BA4FA4299","title":"陆家嘴开发陈列馆","lon":"121.50691","lat":"31.2368","category":"182","category_name":"博物馆","address":"陆家嘴东路15号"},{"poiid":"B2094757D16DA3FC479C","title":"方方面面","lon":"121.506746838","lat":"31.2391964912","category":"68","category_name":"快餐厅","address":"浦东新区银城东路15号陆家嘴中心绿地内"},{"poiid":"B2094757D16CA3FF489F","title":"洋葱餐厅","lon":"121.50523376","lat":"31.236677169","category":"500","category_name":"未知分类","address":"上海正大广场8楼"},{"poiid":"B2094750D26FA3F5499A","title":"利苑 Lei Garden","lon":"121.50495","lat":"31.23659","category":"72","category_name":"广东菜","address":"世纪大道8号上海国际金融中心（国金中心）3楼近银城中路"},{"poiid":"B2094757D068ABFA409A","title":"五芳面馆 森茂店","lon":"121.50692728121","lat":"31.240418848214","category":"68","category_name":"快餐厅","address":"浦东新区陆家嘴环路1000号恒生大厦2楼(东城路陆家嘴环路)"},{"poiid":"B2094654DA69A7F4429F","title":"陆家嘴中心绿地","lon":"121.50614","lat":"31.23796","category":"202","category_name":"公园广场","address":"浦东新区陆家嘴东路160号(金茂大厦对面)"},{"poiid":"B2094757D06EAAF8419D","title":"国金百丽宫影院","lon":"121.504060766","lat":"31.2365280728","category":"178","category_name":"电影院","address":"上海浦东新区世纪大道8号国际金融中心B1-B2楼(东泰路世纪大道)"},{"poiid":"B2094654DB6AA6FF459C","title":"上海金茂君悦大酒店","lon":"121.50588","lat":"31.23522","category":"213","category_name":"五星级宾馆","address":"浦东新区世纪大道88号金茂大厦53-87楼(近二号线陆家嘴站)"},{"poiid":"B209475CD564A7F84392","title":"上海滩浦东香格里拉店","lon":"121.50058","lat":"31.23634","category":"119","category_name":"商场","address":"浦东富成路33号香格里拉酒店内大堂层"},{"poiid":"B2094654DA6FA7FF419A","title":"花旗集团大厦","lon":"121.507","lat":"31.2397","category":"46","category_name":"楼宇","address":"行宫位于沈河北站一路41号"},{"poiid":"B2094757D06EAAFC429A","title":"恒生银行大厦","lon":"121.50714642","lat":"31.240029324","category":"46","category_name":"楼宇","address":"浦东新区金湘路225弄"},{"poiid":"B2094757D06FA1F9449F","title":"王朝大酒店(浦东店)","lon":"121.50810175","lat":"31.2391448509","category":"76","category_name":"上海菜","address":"浦东新区陆家嘴环路958号华能大厦3楼(近银城中路)"},{"poiid":"B2094750DA6AA4F4489F","title":"一风堂拉面","lon":"121.505241","lat":"31.235317","category":"247","category_name":"餐饮美食","address":"国金商场LG1"},{"poiid":"B2094757D464ABF94093","title":"柏悦酒店91楼餐厅","lon":"121.507506","lat":"31.235597","category":"257","category_name":"中餐厅","address":"世纪大道100号环球金融中心87楼（柏悦酒店）近陆家嘴环路"},{"poiid":"B2094757D06FA3F94593","title":"屯京拉面","lon":"121.50823373","lat":"31.236297429","category":"95","category_name":"日本料理","address":"浦东新区世纪大道100号环球金融中心B1楼(东泰路口)"},{"poiid":"B2094757D06FA2FD4698","title":"星巴克 STARBUCKS (金茂大厦店)","lon":"121.505466","lat":"31.235254","category":"65","category_name":"咖啡厅","address":"浦东新区世纪大道88号金茂大厦JLIFE时尚生活中心2楼(近二号线陆家嘴站)"},{"poiid":"B2094757D66EA0F9489C","title":"金茂大厦88层","lon":"121.50547323","lat":"31.236578735","category":"252","category_name":"楼宇机构","address":"上海金茂大厦"},{"poiid":"B2094757D06FA2FE4099","title":"Ritz-Carlton Flair Pub","lon":"121.505996","lat":"31.235922","category":"172","category_name":"酒吧","address":"上海浦东新区世纪大道8号丽思卡尔顿酒店58层"},{"poiid":"B2094757D06FA3FC439A","title":"金牛苑(国金中心店)","lon":"121.50623","lat":"31.23564","category":"47","category_name":"住宅区","address":"浦东新区世纪大道8号世纪大道8号上海国金中心L3-19"},{"poiid":"B2094757D06FA2FF4092","title":"建设银行(陆家嘴分行)","lon":"121.50870513","lat":"31.238155365","category":"150","category_name":"银行","address":"上海浦东新区陆家嘴环路900号"},{"poiid":"B2094757DB68A3F9419D","title":"梅赛德斯-奔驰文化中心","lon":"121.50617587","lat":"31.23635451999999","category":"500","category_name":"未知分类","address":"世博大道1200号"},{"poiid":"B2094757D06FA6FC459C","title":"Isola Bar & Grill","lon":"121.506157","lat":"31.235234","category":"94","category_name":"西餐厅","address":"浦东新区世纪大道8号上海国金中心L4楼17号铺(近银城中路)"},{"poiid":"B2094654DA69A7FB459E","title":"上海金茂大厦88层观光厅","lon":"121.50562","lat":"31.23524","category":"240","category_name":"国家级景点","address":"上海市浦东新区世纪大道88号金茂大厦"},{"poiid":"B2094757D16CA2FF4899","title":"麦当劳国金中心店","lon":"121.50513081","lat":"31.236093145","category":"68","category_name":"快餐厅","address":"浦东新区世纪大道8号国金中心商场LG1-17号商铺(近东泰路)"},{"poiid":"B2094757D468A7F54892","title":"丽思卡尔顿大堂酒廊 Aura","lon":"121.50596","lat":"31.23591","category":"172","category_name":"酒吧","address":"浦东新区世纪大道8号上海国金中心丽思卡尔顿酒店(东泰路世纪大道)"},{"poiid":"B2094757D06FA1FD419B","title":"延安东路隧道浦东段入口","lon":"121.508623058","lat":"31.2366004965","category":"500","category_name":"未知分类","address":"上海浦东新区世纪大道(近银城中路)"},{"poiid":"B2094757D06FA2FC419C","title":"星巴克(森茂店)","lon":"121.507817","lat":"31.240365","category":"260","category_name":"其他","address":"浦东新区陆家嘴环路1000号恒生大厦1楼(金洲街银城中路)"},{"poiid":"B2094655D26DA1F8439E","title":"世界金融大厦","lon":"121.50865","lat":"31.23839","category":"46","category_name":"楼宇","address":"上海陆家嘴环路900号"},{"poiid":"B2094655D26EA6FF409F","title":"金茂君悦宴会厅","lon":"121.50546","lat":"31.23525","category":"257","category_name":"中餐厅","address":"浦东新区世纪大道88号金茂大厦裙楼2楼(近陆家嘴东路)查看地图"},{"poiid":"B2094757D16CA2FD4493","title":"洋食寅八轩","lon":"121.50768","lat":"31.23495","category":"68","category_name":"快餐厅","address":"浦东新区世纪大道100号环球金融中心B1楼B106-2(近东泰路)"},{"poiid":"B2094654DB69A7FE409C","title":"日珍日本餐厅","lon":"121.505615054","lat":"31.235306793","category":"95","category_name":"日本料理","address":"浦东新区世纪大道88号金茂君悦大酒店56楼(近二号线陆家嘴站)"},{"poiid":"B2094757D068AAFC459E","title":"DQ(冰雪皇后)陆家嘴店","lon":"121.506171738","lat":"31.2361194256","category":"113","category_name":"冷饮店","address":"上海市浦东新区世纪大道2F-55(陆家嘴天桥)"},{"poiid":"B2094757D06BA0FD4692","title":"丽豪港式茶餐厅","lon":"121.506884838","lat":"31.2355587137","category":"72","category_name":"广东菜","address":"浦东新区世纪大道100号环球金融中心B1楼(近东泰路)"},{"poiid":"B2094757D76AA1FF4193","title":"大阪章鱼小丸子","lon":"121.50097","lat":"31.23665","category":"68","category_name":"快餐厅","address":"浦东新区世纪大道8号国金中心商场LG2楼B-7室(近东泰路)"},{"poiid":"B2094757D06BA1FC429F","title":"科瓦齿科(金茂店)","lon":"121.505166736","lat":"31.235647382","category":"162","category_name":"医院","address":"浦东新区世纪大道88号金茂大厦裙房时尚生活中心3N1-3N3(近二号线陆家嘴站)"},{"poiid":"B2094757D469A2FD499B","title":"天庭 Patio Lounge","lon":"121.505615054","lat":"31.235306793","category":"65","category_name":"咖啡厅","address":"世纪大道88号金茂大厦56楼近东泰路"},{"poiid":"B2094655D26DA7F4489D","title":"陆家嘴中心绿地(东门)","lon":"121.50744","lat":"31.23808","category":"202","category_name":"公园广场","address":""},{"poiid":"B2094757D068A5FA4492","title":"苏浙总会","lon":"121.50131","lat":"31.23663","category":"74","category_name":"江苏菜","address":"浦东新区世纪大道8号国金中心4楼(近银城中路)"},{"poiid":"B2094757D16EA2F9409A","title":"老上海8","lon":"121.50620269","lat":"31.237758636","category":"260","category_name":"其他","address":"上海浦东世纪大道1号东方明珠8号门"},{"poiid":"B2094750D665A4F8449F","title":"花丸乌冬面(环球金融中心店)","lon":"121.507","lat":"31.2353","category":"95","category_name":"日本料理","address":"浦东新区世纪大道100号环球金融中心B1楼"},{"poiid":"B2094654DB69A0F94493","title":"金茂俱乐部上海餐厅","lon":"121.50546","lat":"31.23525","category":"76","category_name":"上海菜","address":"浦东新区世纪大道88号金茂君悦大酒店86楼(近二号线陆家嘴站)"},{"poiid":"B2094757D06FA5F9499D","title":"i.t(国金中心店)","lon":"121.5059623","lat":"31.2359135","category":"141","category_name":"服装鞋帽皮具店","address":"浦东新区世纪大道8号国金中心商场LG1楼(近东泰路)"},{"poiid":"B2094654DB69A6FC4492","title":"浦东公园","lon":"121.50651","lat":"31.23806","category":"196","category_name":"公园","address":"浦东新区陆家嘴路480号"},{"poiid":"B2094750D665A1FB499C","title":"天厨日式料理","lon":"121.507","lat":"31.2402","category":"95","category_name":"日本料理","address":"浦东新区陆家嘴环路1000号恒生银行大厦2楼(近银城中路)"},{"poiid":"B2094654DB69A6FE489B","title":"银都大厦","lon":"121.50748","lat":"31.23738","category":"46","category_name":"楼宇","address":"浦东区陆家嘴西路153号"},{"poiid":"B2094655D268A4F4429F","title":"陆家嘴中心绿地(北门)","lon":"121.50523","lat":"31.23914","category":"202","category_name":"公园广场","address":""},{"poiid":"B2094757D069A2FB449E","title":"丽思卡尔顿酒店三层宴会厅","lon":"121.50653076","lat":"31.235332489","category":"217","category_name":"旅馆招待所","address":"上海陆家嘴世纪大道8号国金中心"},{"poiid":"B2094750D36BA7F84898","title":"上海一圈","lon":"121.50616503135","lat":"31.237966042997","category":"617","category_name":"政府机构","address":"浦东新区陆家嘴中心绿地公园"},{"poiid":"B2094757D16EA3FD4298","title":"Piano Bar","lon":"121.50636","lat":"31.23572","category":"260","category_name":"其他","address":"浦东新区世纪大道88号金茂君悦大酒店53楼(近二号线陆家嘴站)"},{"poiid":"B2094751D06CA1FA479F","title":"汤姆熊","lon":"121.50639427","lat":"31.23721478999999","category":"500","category_name":"未知分类","address":null},{"poiid":"B2094655D26BA4FA4299","title":"陆家嘴开发陈列馆","lon":"121.50691","lat":"31.2368","category":"182","category_name":"博物馆","address":"陆家嘴东路15号"},{"poiid":"B2094757D16DA3FC479C","title":"方方面面","lon":"121.506746838","lat":"31.2391964912","category":"68","category_name":"快餐厅","address":"浦东新区银城东路15号陆家嘴中心绿地内"},{"poiid":"B2094757D16CA3FF489F","title":"洋葱餐厅","lon":"121.50523376","lat":"31.236677169","category":"500","category_name":"未知分类","address":"上海正大广场8楼"},{"poiid":"B2094750D26FA3F5499A","title":"利苑 Lei Garden","lon":"121.50495","lat":"31.23659","category":"72","category_name":"广东菜","address":"世纪大道8号上海国际金融中心（国金中心）3楼近银城中路"},{"poiid":"B2094757D068ABFA409A","title":"五芳面馆 森茂店","lon":"121.50692728121","lat":"31.240418848214","category":"68","category_name":"快餐厅","address":"浦东新区陆家嘴环路1000号恒生大厦2楼(东城路陆家嘴环路)"},{"poiid":"B2094654DA69A7F4429F","title":"陆家嘴中心绿地","lon":"121.50614","lat":"31.23796","category":"202","category_name":"公园广场","address":"浦东新区陆家嘴东路160号(金茂大厦对面)"},{"poiid":"B2094757D06EAAF8419D","title":"国金百丽宫影院","lon":"121.504060766","lat":"31.2365280728","category":"178","category_name":"电影院","address":"上海浦东新区世纪大道8号国际金融中心B1-B2楼(东泰路世纪大道)"},{"poiid":"B2094654DB6AA6FF459C","title":"上海金茂君悦大酒店","lon":"121.50588","lat":"31.23522","category":"213","category_name":"五星级宾馆","address":"浦东新区世纪大道88号金茂大厦53-87楼(近二号线陆家嘴站)"},{"poiid":"B209475CD564A7F84392","title":"上海滩浦东香格里拉店","lon":"121.50058","lat":"31.23634","category":"119","category_name":"商场","address":"浦东富成路33号香格里拉酒店内大堂层"},{"poiid":"B2094654DA6FA7FF419A","title":"花旗集团大厦","lon":"121.507","lat":"31.2397","category":"46","category_name":"楼宇","address":"行宫位于沈河北站一路41号"},{"poiid":"B2094757D06EAAFC429A","title":"恒生银行大厦","lon":"121.50714642","lat":"31.240029324","category":"46","category_name":"楼宇","address":"浦东新区金湘路225弄"},{"poiid":"B2094757D06FA1F9449F","title":"王朝大酒店(浦东店)","lon":"121.50810175","lat":"31.2391448509","category":"76","category_name":"上海菜","address":"浦东新区陆家嘴环路958号华能大厦3楼(近银城中路)"},{"poiid":"B2094750DA6AA4F4489F","title":"一风堂拉面","lon":"121.505241","lat":"31.235317","category":"247","category_name":"餐饮美食","address":"国金商场LG1"},{"poiid":"B2094757D464ABF94093","title":"柏悦酒店91楼餐厅","lon":"121.507506","lat":"31.235597","category":"257","category_name":"中餐厅","address":"世纪大道100号环球金融中心87楼（柏悦酒店）近陆家嘴环路"},{"poiid":"B2094757D06FA3F94593","title":"屯京拉面","lon":"121.50823373","lat":"31.236297429","category":"95","category_name":"日本料理","address":"浦东新区世纪大道100号环球金融中心B1楼(东泰路口)"},{"poiid":"B2094757D06FA2FD4698","title":"星巴克 STARBUCKS (金茂大厦店)","lon":"121.505466","lat":"31.235254","category":"65","category_name":"咖啡厅","address":"浦东新区世纪大道88号金茂大厦JLIFE时尚生活中心2楼(近二号线陆家嘴站)"},{"poiid":"B2094757D66EA0F9489C","title":"金茂大厦88层","lon":"121.50547323","lat":"31.236578735","category":"252","category_name":"楼宇机构","address":"上海金茂大厦"},{"poiid":"B2094757D06FA2FE4099","title":"Ritz-Carlton Flair Pub","lon":"121.505996","lat":"31.235922","category":"172","category_name":"酒吧","address":"上海浦东新区世纪大道8号丽思卡尔顿酒店58层"},{"poiid":"B2094757D06FA3FC439A","title":"金牛苑(国金中心店)","lon":"121.50623","lat":"31.23564","category":"47","category_name":"住宅区","address":"浦东新区世纪大道8号世纪大道8号上海国金中心L3-19"},{"poiid":"B2094757D06FA2FF4092","title":"建设银行(陆家嘴分行)","lon":"121.50870513","lat":"31.238155365","category":"150","category_name":"银行","address":"上海浦东新区陆家嘴环路900号"},{"poiid":"B2094757DB68A3F9419D","title":"梅赛德斯-奔驰文化中心","lon":"121.50617587","lat":"31.23635451999999","category":"500","category_name":"未知分类","address":"世博大道1200号"},{"poiid":"B2094757D06FA6FC459C","title":"Isola Bar & Grill","lon":"121.506157","lat":"31.235234","category":"94","category_name":"西餐厅","address":"浦东新区世纪大道8号上海国金中心L4楼17号铺(近银城中路)"},{"poiid":"B2094654DA69A7FB459E","title":"上海金茂大厦88层观光厅","lon":"121.50562","lat":"31.23524","category":"240","category_name":"国家级景点","address":"上海市浦东新区世纪大道88号金茂大厦"},{"poiid":"B2094757D16CA2FF4899","title":"麦当劳国金中心店","lon":"121.50513081","lat":"31.236093145","category":"68","category_name":"快餐厅","address":"浦东新区世纪大道8号国金中心商场LG1-17号商铺(近东泰路)"},{"poiid":"B2094757D468A7F54892","title":"丽思卡尔顿大堂酒廊 Aura","lon":"121.50596","lat":"31.23591","category":"172","category_name":"酒吧","address":"浦东新区世纪大道8号上海国金中心丽思卡尔顿酒店(东泰路世纪大道)"},{"poiid":"B2094757D06FA1FD419B","title":"延安东路隧道浦东段入口","lon":"121.508623058","lat":"31.2366004965","category":"500","category_name":"未知分类","address":"上海浦东新区世纪大道(近银城中路)"},{"poiid":"B2094757D06FA2FC419C","title":"星巴克(森茂店)","lon":"121.507817","lat":"31.240365","category":"260","category_name":"其他","address":"浦东新区陆家嘴环路1000号恒生大厦1楼(金洲街银城中路)"},{"poiid":"B2094655D26DA1F8439E","title":"世界金融大厦","lon":"121.50865","lat":"31.23839","category":"46","category_name":"楼宇","address":"上海陆家嘴环路900号"},{"poiid":"B2094655D26EA6FF409F","title":"金茂君悦宴会厅","lon":"121.50546","lat":"31.23525","category":"257","category_name":"中餐厅","address":"浦东新区世纪大道88号金茂大厦裙楼2楼(近陆家嘴东路)查看地图"},{"poiid":"B2094757D16CA2FD4493","title":"洋食寅八轩","lon":"121.50768","lat":"31.23495","category":"68","category_name":"快餐厅","address":"浦东新区世纪大道100号环球金融中心B1楼B106-2(近东泰路)"},{"poiid":"B2094654DB69A7FE409C","title":"日珍日本餐厅","lon":"121.505615054","lat":"31.235306793","category":"95","category_name":"日本料理","address":"浦东新区世纪大道88号金茂君悦大酒店56楼(近二号线陆家嘴站)"},{"poiid":"B2094757D068AAFC459E","title":"DQ(冰雪皇后)陆家嘴店","lon":"121.506171738","lat":"31.2361194256","category":"113","category_name":"冷饮店","address":"上海市浦东新区世纪大道2F-55(陆家嘴天桥)"},{"poiid":"B2094757D06BA0FD4692","title":"丽豪港式茶餐厅","lon":"121.506884838","lat":"31.2355587137","category":"72","category_name":"广东菜","address":"浦东新区世纪大道100号环球金融中心B1楼(近东泰路)"},{"poiid":"B2094757D76AA1FF4193","title":"大阪章鱼小丸子","lon":"121.50097","lat":"31.23665","category":"68","category_name":"快餐厅","address":"浦东新区世纪大道8号国金中心商场LG2楼B-7室(近东泰路)"},{"poiid":"B2094757D06BA1FC429F","title":"科瓦齿科(金茂店)","lon":"121.505166736","lat":"31.235647382","category":"162","category_name":"医院","address":"浦东新区世纪大道88号金茂大厦裙房时尚生活中心3N1-3N3(近二号线陆家嘴站)"},{"poiid":"B2094757D469A2FD499B","title":"天庭 Patio Lounge","lon":"121.505615054","lat":"31.235306793","category":"65","category_name":"咖啡厅","address":"世纪大道88号金茂大厦56楼近东泰路"},{"poiid":"B2094655D26DA7F4489D","title":"陆家嘴中心绿地(东门)","lon":"121.50744","lat":"31.23808","category":"202","category_name":"公园广场","address":""},{"poiid":"B2094757D068A5FA4492","title":"苏浙总会","lon":"121.50131","lat":"31.23663","category":"74","category_name":"江苏菜","address":"浦东新区世纪大道8号国金中心4楼(近银城中路)"},{"poiid":"B2094757D16EA2F9409A","title":"老上海8","lon":"121.50620269","lat":"31.237758636","category":"260","category_name":"其他","address":"上海浦东世纪大道1号东方明珠8号门"},{"poiid":"B2094750D665A4F8449F","title":"花丸乌冬面(环球金融中心店)","lon":"121.507","lat":"31.2353","category":"95","category_name":"日本料理","address":"浦东新区世纪大道100号环球金融中心B1楼"},{"poiid":"B2094654DB69A0F94493","title":"金茂俱乐部上海餐厅","lon":"121.50546","lat":"31.23525","category":"76","category_name":"上海菜","address":"浦东新区世纪大道88号金茂君悦大酒店86楼(近二号线陆家嘴站)"},{"poiid":"B2094757D06FA5F9499D","title":"i.t(国金中心店)","lon":"121.5059623","lat":"31.2359135","category":"141","category_name":"服装鞋帽皮具店","address":"浦东新区世纪大道8号国金中心商场LG1楼(近东泰路)"},{"poiid":"B2094654DB69A6FC4492","title":"浦东公园","lon":"121.50651","lat":"31.23806","category":"196","category_name":"公园","address":"浦东新区陆家嘴路480号"},{"poiid":"B2094750D665A1FB499C","title":"天厨日式料理","lon":"121.507","lat":"31.2402","category":"95","category_name":"日本料理","address":"浦东新区陆家嘴环路1000号恒生银行大厦2楼(近银城中路)"},{"poiid":"B2094654DB69A6FE489B","title":"银都大厦","lon":"121.50748","lat":"31.23738","category":"46","category_name":"楼宇","address":"浦东区陆家嘴西路153号"},{"poiid":"B2094655D268A4F4429F","title":"陆家嘴中心绿地(北门)","lon":"121.50523","lat":"31.23914","category":"202","category_name":"公园广场","address":""},{"poiid":"B2094757D069A2FB449E","title":"丽思卡尔顿酒店三层宴会厅","lon":"121.50653076","lat":"31.235332489","category":"217","category_name":"旅馆招待所","address":"上海陆家嘴世纪大道8号国金中心"},{"poiid":"B2094750D36BA7F84898","title":"上海一圈","lon":"121.50616503135","lat":"31.237966042997","category":"617","category_name":"政府机构","address":"浦东新区陆家嘴中心绿地公园"},{"poiid":"B2094757D16EA3FD4298","title":"Piano Bar","lon":"121.50636","lat":"31.23572","category":"260","category_name":"其他","address":"浦东新区世纪大道88号金茂君悦大酒店53楼(近二号线陆家嘴站)"},{"poiid":"B2094751D06CA1FA479F","title":"汤姆熊","lon":"121.50639427","lat":"31.23721478999999","category":"500","category_name":"未知分类","address":null},{"poiid":"B2094655D26BA4FA4299","title":"陆家嘴开发陈列馆","lon":"121.50691","lat":"31.2368","category":"182","category_name":"博物馆","address":"陆家嘴东路15号"},{"poiid":"B2094757D16DA3FC479C","title":"方方面面","lon":"121.506746838","lat":"31.2391964912","category":"68","category_name":"快餐厅","address":"浦东新区银城东路15号陆家嘴中心绿地内"},{"poiid":"B2094757D16CA3FF489F","title":"洋葱餐厅","lon":"121.50523376","lat":"31.236677169","category":"500","category_name":"未知分类","address":"上海正大广场8楼"},{"poiid":"B2094750D26FA3F5499A","title":"利苑 Lei Garden","lon":"121.50495","lat":"31.23659","category":"72","category_name":"广东菜","address":"世纪大道8号上海国际金融中心（国金中心）3楼近银城中路"},{"poiid":"B2094757D068ABFA409A","title":"五芳面馆 森茂店","lon":"121.50692728121","lat":"31.240418848214","category":"68","category_name":"快餐厅","address":"浦东新区陆家嘴环路1000号恒生大厦2楼(东城路陆家嘴环路)"}]