[{"poiid":"B2094654DB6BAAF8479D","title":"环球金融中心","lon":"121.514","lat":"31.241","category":"46","category_name":"楼宇","address":"上海市浦东新区陆家嘴世纪大道8号"},{"poiid":"B2094757D06FA3F8439A","title":"时代金融中心","lon":"121.513","lat":"31.2467","category":"46","category_name":"楼宇","address":"上海市浦东新区银城中路68号"},{"poiid":"B2094654DA69AAFB4799","title":"裕景大饭店","lon":"121.52018","lat":"31.2409","category":"213","category_name":"五星级宾馆","address":"上海市浦东新区浦东大道535号(近东方路)"},{"poiid":"B209475CD564A7F84392","title":"上海滩浦东香格里拉店","lon":"121.50058","lat":"31.23634","category":"119","category_name":"商场","address":"浦东富成路33号香格里拉酒店内大堂层"},{"poiid":"B2094654DA69A7FB489A","title":"渣打银行大厦","lon":"121.516","lat":"31.2415","category":"46","category_name":"楼宇","address":"浦东区金融贸易区D3-5"},{"poiid":"B2094655D26FA5F9439B","title":"上海证券大厦","lon":"121.517707","lat":"31.241749","category":"46","category_name":"楼宇","address":"浦东新区浦东南路528号"},{"poiid":"B2094757D06EAAFF479A","title":"杨树浦路地铁站","lon":"121.51719604","lat":"31.252407847","category":"36","category_name":"地铁站","address":"上海轨道交通 四号线 轨交杨树浦路站 轻轨 4"},{"poiid":"B2094757D06FA0FA489F","title":"秦皇岛路轮渡站","lon":"121.51639044","lat":"31.249174771","category":"35","category_name":"长途汽车站","address":"上海虹口区秦皇岛路1号"},{"poiid":"B2094757D06FA5FA479F","title":"华夏银行大厦","lon":"121.5152","lat":"31.245346","category":"46","category_name":"楼宇","address":"上海浦东新区浦东南路256号"},{"poiid":"B2094655D36DA6FE429A","title":"浦东大道","lon":"121.51984","lat":"31.24032","category":"38","category_name":"公交车站","address":""},{"poiid":"B2094757D06FA1FA4498","title":"招商局大厦","lon":"121.515135","lat":"31.242879","category":"46","category_name":"楼宇","address":"浦东新区陆家嘴东路161号"},{"poiid":"B2094654D56FA3F44099","title":"上海瑞丰国际大厦","lon":"121.51557","lat":"31.25078","category":"46","category_name":"楼宇","address":"上海市奉贤区环城东路455、465弄"},{"poiid":"B2094655D26AA0F9409A","title":"地铁浦东大道站","lon":"121.51984","lat":"31.24032","category":"36","category_name":"地铁站","address":""},{"poiid":"B2094655D26FA5FF479B","title":"华能联合大厦","lon":"121.515","lat":"31.245","category":"46","category_name":"楼宇","address":"朝阳华威桥东北角"},{"poiid":"B2094757D068A1FA489C","title":"其昌栈渡口","lon":"121.51963307","lat":"31.242515608","category":"500","category_name":"未知分类","address":"上海东方路滨江大道"},{"poiid":"B2094757D068AAFC469B","title":"保利广场","lon":"121.514956916","lat":"31.2433600232","category":"500","category_name":"未知分类","address":"闸北区共和新路3703,3737号"},{"poiid":"B2094757D065A5FA449E","title":"阿根廷庄园","lon":"121.517910103","lat":"31.2503280024","category":"94","category_name":"西餐厅","address":"杨浦区秦皇岛路32号19幢(近北外滩东码头)"},{"poiid":"B2094757D06FA2FF4099","title":"中国保险大厦","lon":"121.516","lat":"31.2421","category":"46","category_name":"楼宇","address":"浦东临港新城主城区申港大道200号"},{"poiid":"B2094757D16CABFF429D","title":"雅典皇宫","lon":"121.51895673","lat":"31.242752567","category":"500","category_name":"未知分类","address":"上海浦东新区东方路8号(近浦东大道)  "},{"poiid":"B2094757D06FA3FC479F","title":"上海航运交易所","lon":"121.51347327","lat":"31.250775518","category":"260","category_name":"其他","address":"上海杨树浦路88号(近惠民路)"},{"poiid":"B2094757D16DABF9429A","title":"浦江游览","lon":"121.516154","lat":"31.249603","category":"607","category_name":"一般景点","address":"上海秦皇岛"},{"poiid":"B2094655D36DA2FB459B","title":"大连路隧道","lon":"121.51973","lat":"31.2428","category":"250","category_name":"公园户外","address":"上海市杨浦区大连路-浦东新区东方路"},{"poiid":"B2094654DA69A1F54992","title":"金穗大厦","lon":"121.517","lat":"31.245","category":"46","category_name":"楼宇","address":"上海市奉贤区环城东路455,465弄"},{"poiid":"B2094750D66CABFB4693","title":"Mio Ita","lon":"121.517906","lat":"31.243383","category":"94","category_name":"西餐厅","address":"浦东新区东方路18号保利大厦E栋2楼"},{"poiid":"B2094757DB69A3F44599","title":"富淳饭店 保利店","lon":"121.5189019","lat":"31.242405","category":"72","category_name":"广东菜","address":"浦东新区东方路18号保利广场E座G楼"},{"poiid":"B2094757D064AAF5409A","title":"浦东陆家嘴图书馆","lon":"121.518913","lat":"31.241753","category":"181","category_name":"图书馆","address":"上海浦东新区东方路38号"},{"poiid":"B2094655D26FA5FE4498","title":"汇丰大厦","lon":"121.514","lat":"31.2458","category":"46","category_name":"楼宇","address":"上海陆家嘴环路1000号"},{"poiid":"B2094757D06AA3FC409B","title":"浦东大道钱仓路","lon":"121.520092738","lat":"31.2396905017","category":"500","category_name":"未知分类","address":"上海浦东大道"},{"poiid":"B2094757D06AA4F9459C","title":"豪德万源大酒店","lon":"121.52222823","lat":"31.24150209","category":"217","category_name":"旅馆招待所","address":"浦东新区浦东大道599号(近东方路)"},{"poiid":"B2094757D469A5F9409A","title":"松临日本料理 保利广场店","lon":"121.5189019","lat":"31.242405","category":"95","category_name":"日本料理","address":"浦东新区东方路18号保利广场E座2楼(近地铁四号线浦东大道站)"},{"poiid":"B2094655D264ABF8459A","title":"马登国际航运商务中心","lon":"121.51322","lat":"31.25147","category":"46","category_name":"楼宇","address":"杨树浦路147号"},{"poiid":"B2094757D16EA4F44799","title":"秦皇岛路水门码头","lon":"121.518441738","lat":"31.2456866296","category":"260","category_name":"其他","address":"杨浦区秦皇岛路32号(近杨树浦路)"},{"poiid":"B2094757D068A5F44392","title":"裕景咖啡厅","lon":"121.52051","lat":"31.2408","category":"268","category_name":"自助","address":"浦东新区浦东大道535号裕景大饭店3楼(近东方路)"},{"poiid":"B2094757D06EAAFF4993","title":"浦电路地铁站(四号线)","lon":"121.519854","lat":"31.240301","category":"36","category_name":"地铁站","address":"上海轨道交通 四号线 轨交浦东大道站 轻轨 4"},{"poiid":"B2094750DB6EAAF5489D","title":"滨江大道","lon":"121.518669","lat":"31.245016","category":"250","category_name":"公园户外","address":"东方路"},{"poiid":"B2094753D76DA4F8439D","title":"上海电影博物馆","lon":"121.520019","lat":"31.240804","category":"500","category_name":"未知分类","address":"上海市 上海电影制片厂漕溪北路595号"},{"poiid":"B2094655D36CA0FB4799","title":"霍山路临潼路","lon":"121.51298","lat":"31.25114","category":"38","category_name":"公交车站","address":"霍山路临潼路"},{"poiid":"B2094753D76BA0FF4898","title":"伊秀手握寿司","lon":"121.520011","lat":"31.240814","category":"247","category_name":"餐饮美食","address":"上海市 上海市第一食品商店"},{"poiid":"B2094654DB64A6F44092","title":"如家快捷酒店(上海陆家嘴店)","lon":"121.52216","lat":"31.24182","category":"216","category_name":"经济型连锁酒店","address":"上海市浦东新区昌邑路569号(近东方路)"},{"poiid":"B2094750DB6BA3FF479B","title":"浦东滨江大道","lon":"121.515625","lat":"31.248435","category":"500","category_name":"未知分类","address":null},{"poiid":"B2094655D26AA0F9409B","title":"地铁杨树浦路站","lon":"121.5172","lat":"31.25241","category":"36","category_name":"地铁站","address":""},{"poiid":"B2094654DA69A0FC499D","title":"荣城花苑","lon":"121.51794","lat":"31.242142","category":"47","category_name":"住宅区","address":"荣城路9弄"},{"poiid":"B2094753D668A6F54393","title":"黃記煌三汁燜鍋（第一食品商店）","lon":"121.515002","lat":"31.2428","category":"247","category_name":"餐饮美食","address":"上海市 第一食品商店"},{"poiid":"B2094757D169A2F4479D","title":"翡翠公主号","lon":"121.5164","lat":"31.2507","category":"76","category_name":"上海菜","address":"杨浦区秦皇岛路码头(近杨树浦路)"},{"poiid":"B2094752DB69A3FB4999","title":"东方私宴","lon":"121.520776","lat":"31.243821","category":"500","category_name":"未知分类","address":"上海市 上海市滨江大道1658号"},{"poiid":"B2094757D069A6F8419A","title":"沁源茶楼","lon":"121.52162933","lat":"31.240867614","category":"260","category_name":"其他","address":"浦东新区浦东大道569号(近东方路)"},{"poiid":"B2094750DA6AA0F9409A","title":"北外滩滨江大道","lon":"121.512023","lat":"31.244825","category":"250","category_name":"公园户外","address":null},{"poiid":"B2094654DB69A0F9499C","title":"泰和茶馆","lon":"121.52159","lat":"31.24083","category":"66","category_name":"茶艺馆","address":"浦东新区浦东大道569号"},{"poiid":"B2094757D464A7FD4298","title":"御庭","lon":"121.519856064","lat":"31.242143345783","category":"72","category_name":"广东菜","address":"浦东新区浦东大道535号裕景大饭店5楼(近东方路)"},{"poiid":"B2094757D065A4FB449B","title":"老头菜饭","lon":"121.51482053","lat":"31.25163419","category":"68","category_name":"快餐厅","address":"杨浦区杨树浦路205号(临潼路口)"},{"poiid":"B2094654DB6BAAF8479D","title":"环球金融中心","lon":"121.514","lat":"31.241","category":"46","category_name":"楼宇","address":"上海市浦东新区陆家嘴世纪大道8号"},{"poiid":"B2094757D06FA3F8439A","title":"时代金融中心","lon":"121.513","lat":"31.2467","category":"46","category_name":"楼宇","address":"上海市浦东新区银城中路68号"},{"poiid":"B2094654DA69AAFB4799","title":"裕景大饭店","lon":"121.52018","lat":"31.2409","category":"213","category_name":"五星级宾馆","address":"上海市浦东新区浦东大道535号(近东方路)"},{"poiid":"B209475CD564A7F84392","title":"上海滩浦东香格里拉店","lon":"121.50058","lat":"31.23634","category":"119","category_name":"商场","address":"浦东富成路33号香格里拉酒店内大堂层"},{"poiid":"B2094654DA69A7FB489A","title":"渣打银行大厦","lon":"121.516","lat":"31.2415","category":"46","category_name":"楼宇","address":"浦东区金融贸易区D3-5"},{"poiid":"B2094655D26FA5F9439B","title":"上海证券大厦","lon":"121.517707","lat":"31.241749","category":"46","category_name":"楼宇","address":"浦东新区浦东南路528号"},{"poiid":"B2094757D06EAAFF479A","title":"杨树浦路地铁站","lon":"121.51719604","lat":"31.252407847","category":"36","category_name":"地铁站","address":"上海轨道交通 四号线 轨交杨树浦路站 轻轨 4"},{"poiid":"B2094757D06FA0FA489F","title":"秦皇岛路轮渡站","lon":"121.51639044","lat":"31.249174771","category":"35","category_name":"长途汽车站","address":"上海虹口区秦皇岛路1号"},{"poiid":"B2094757D06FA5FA479F","title":"华夏银行大厦","lon":"121.5152","lat":"31.245346","category":"46","category_name":"楼宇","address":"上海浦东新区浦东南路256号"},{"poiid":"B2094655D36DA6FE429A","title":"浦东大道","lon":"121.51984","lat":"31.24032","category":"38","category_name":"公交车站","address":""},{"poiid":"B2094757D06FA1FA4498","title":"招商局大厦","lon":"121.515135","lat":"31.242879","category":"46","category_name":"楼宇","address":"浦东新区陆家嘴东路161号"},{"poiid":"B2094654D56FA3F44099","title":"上海瑞丰国际大厦","lon":"121.51557","lat":"31.25078","category":"46","category_name":"楼宇","address":"上海市奉贤区环城东路455、465弄"},{"poiid":"B2094655D26AA0F9409A","title":"地铁浦东大道站","lon":"121.51984","lat":"31.24032","category":"36","category_name":"地铁站","address":""},{"poiid":"B2094655D26FA5FF479B","title":"华能联合大厦","lon":"121.515","lat":"31.245","category":"46","category_name":"楼宇","address":"朝阳华威桥东北角"},{"poiid":"B2094757D068A1FA489C","title":"其昌栈渡口","lon":"121.51963307","lat":"31.242515608","category":"500","category_name":"未知分类","address":"上海东方路滨江大道"},{"poiid":"B2094757D068AAFC469B","title":"保利广场","lon":"121.514956916","lat":"31.2433600232","category":"500","category_name":"未知分类","address":"闸北区共和新路3703,3737号"},{"poiid":"B2094757D065A5FA449E","title":"阿根廷庄园","lon":"121.517910103","lat":"31.2503280024","category":"94","category_name":"西餐厅","address":"杨浦区秦皇岛路32号19幢(近北外滩东码头)"},{"poiid":"B2094757D06FA2FF4099","title":"中国保险大厦","lon":"121.516","lat":"31.2421","category":"46","category_name":"楼宇","address":"浦东临港新城主城区申港大道200号"},{"poiid":"B2094757D16CABFF429D","title":"雅典皇宫","lon":"121.51895673","lat":"31.242752567","category":"500","category_name":"未知分类","address":"上海浦东新区东方路8号(近浦东大道)  "},{"poiid":"B2094757D06FA3FC479F","title":"上海航运交易所","lon":"121.51347327","lat":"31.250775518","category":"260","category_name":"其他","address":"上海杨树浦路88号(近惠民路)"},{"poiid":"B2094757D16DABF9429A","title":"浦江游览","lon":"121.516154","lat":"31.249603","category":"607","category_name":"一般景点","address":"上海秦皇岛"},{"poiid":"B2094655D36DA2FB459B","title":"大连路隧道","lon":"121.51973","lat":"31.2428","category":"250","category_name":"公园户外","address":"上海市杨浦区大连路-浦东新区东方路"},{"poiid":"B2094654DA69A1F54992","title":"金穗大厦","lon":"121.517","lat":"31.245","category":"46","category_name":"楼宇","address":"上海市奉贤区环城东路455,465弄"},{"poiid":"B2094750D66CABFB4693","title":"Mio Ita","lon":"121.517906","lat":"31.243383","category":"94","category_name":"西餐厅","address":"浦东新区东方路18号保利大厦E栋2楼"},{"poiid":"B2094757DB69A3F44599","title":"富淳饭店 保利店","lon":"121.5189019","lat":"31.242405","category":"72","category_name":"广东菜","address":"浦东新区东方路18号保利广场E座G楼"},{"poiid":"B2094757D064AAF5409A","title":"浦东陆家嘴图书馆","lon":"121.518913","lat":"31.241753","category":"181","category_name":"图书馆","address":"上海浦东新区东方路38号"},{"poiid":"B2094655D26FA5FE4498","title":"汇丰大厦","lon":"121.514","lat":"31.2458","category":"46","category_name":"楼宇","address":"上海陆家嘴环路1000号"},{"poiid":"B2094757D06AA3FC409B","title":"浦东大道钱仓路","lon":"121.520092738","lat":"31.2396905017","category":"500","category_name":"未知分类","address":"上海浦东大道"},{"poiid":"B2094757D06AA4F9459C","title":"豪德万源大酒店","lon":"121.52222823","lat":"31.24150209","category":"217","category_name":"旅馆招待所","address":"浦东新区浦东大道599号(近东方路)"},{"poiid":"B2094757D469A5F9409A","title":"松临日本料理 保利广场店","lon":"121.5189019","lat":"31.242405","category":"95","category_name":"日本料理","address":"浦东新区东方路18号保利广场E座2楼(近地铁四号线浦东大道站)"},{"poiid":"B2094655D264ABF8459A","title":"马登国际航运商务中心","lon":"121.51322","lat":"31.25147","category":"46","category_name":"楼宇","address":"杨树浦路147号"},{"poiid":"B2094757D16EA4F44799","title":"秦皇岛路水门码头","lon":"121.518441738","lat":"31.2456866296","category":"260","category_name":"其他","address":"杨浦区秦皇岛路32号(近杨树浦路)"},{"poiid":"B2094757D068A5F44392","title":"裕景咖啡厅","lon":"121.52051","lat":"31.2408","category":"268","category_name":"自助","address":"浦东新区浦东大道535号裕景大饭店3楼(近东方路)"},{"poiid":"B2094757D06EAAFF4993","title":"浦电路地铁站(四号线)","lon":"121.519854","lat":"31.240301","category":"36","category_name":"地铁站","address":"上海轨道交通 四号线 轨交浦东大道站 轻轨 4"},{"poiid":"B2094750DB6EAAF5489D","title":"滨江大道","lon":"121.518669","lat":"31.245016","category":"250","category_name":"公园户外","address":"东方路"},{"poiid":"B2094753D76DA4F8439D","title":"上海电影博物馆","lon":"121.520019","lat":"31.240804","category":"500","category_name":"未知分类","address":"上海市 上海电影制片厂漕溪北路595号"},{"poiid":"B2094655D36CA0FB4799","title":"霍山路临潼路","lon":"121.51298","lat":"31.25114","category":"38","category_name":"公交车站","address":"霍山路临潼路"},{"poiid":"B2094753D76BA0FF4898","title":"伊秀手握寿司","lon":"121.520011","lat":"31.240814","category":"247","category_name":"餐饮美食","address":"上海市 上海市第一食品商店"},{"poiid":"B2094654DB64A6F44092","title":"如家快捷酒店(上海陆家嘴店)","lon":"121.52216","lat":"31.24182","category":"216","category_name":"经济型连锁酒店","address":"上海市浦东新区昌邑路569号(近东方路)"},{"poiid":"B2094750DB6BA3FF479B","title":"浦东滨江大道","lon":"121.515625","lat":"31.248435","category":"500","category_name":"未知分类","address":null},{"poiid":"B2094655D26AA0F9409B","title":"地铁杨树浦路站","lon":"121.5172","lat":"31.25241","category":"36","category_name":"地铁站","address":""},{"poiid":"B2094654DA69A0FC499D","title":"荣城花苑","lon":"121.51794","lat":"31.242142","category":"47","category_name":"住宅区","address":"荣城路9弄"},{"poiid":"B2094753D668A6F54393","title":"黃記煌三汁燜鍋（第一食品商店）","lon":"121.515002","lat":"31.2428","category":"247","category_name":"餐饮美食","address":"上海市 第一食品商店"},{"poiid":"B2094757D169A2F4479D","title":"翡翠公主号","lon":"121.5164","lat":"31.2507","category":"76","category_name":"上海菜","address":"杨浦区秦皇岛路码头(近杨树浦路)"},{"poiid":"B2094752DB69A3FB4999","title":"东方私宴","lon":"121.520776","lat":"31.243821","category":"500","category_name":"未知分类","address":"上海市 上海市滨江大道1658号"},{"poiid":"B2094757D069A6F8419A","title":"沁源茶楼","lon":"121.52162933","lat":"31.240867614","category":"260","category_name":"其他","address":"浦东新区浦东大道569号(近东方路)"},{"poiid":"B2094750DA6AA0F9409A","title":"北外滩滨江大道","lon":"121.512023","lat":"31.244825","category":"250","category_name":"公园户外","address":null},{"poiid":"B2094654DB69A0F9499C","title":"泰和茶馆","lon":"121.52159","lat":"31.24083","category":"66","category_name":"茶艺馆","address":"浦东新区浦东大道569号"},{"poiid":"B2094757D464A7FD4298","title":"御庭","lon":"121.519856064","lat":"31.242143345783","category":"72","category_name":"广东菜","address":"浦东新区浦东大道535号裕景大饭店5楼(近东方路)"},{"poiid":"B2094757D065A4FB449B","title":"老头菜饭","lon":"121.51482053","lat":"31.25163419","category":"68","category_name":"快餐厅","address":"杨浦区杨树浦路205号(临潼路口)"},{"poiid":"B2094654DB6BAAF8479D","title":"环球金融中心","lon":"121.514","lat":"31.241","category":"46","category_name":"楼宇","address":"上海市浦东新区陆家嘴世纪大道8号"},{"poiid":"B2094757D06FA3F8439A","title":"时代金融中心","lon":"121.513","lat":"31.2467","category":"46","category_name":"楼宇","address":"上海市浦东新区银城中路68号"},{"poiid":"B2094654DA69AAFB4799","title":"裕景大饭店","lon":"121.52018","lat":"31.2409","category":"213","category_name":"五星级宾馆","address":"上海市浦东新区浦东大道535号(近东方路)"},{"poiid":"B209475CD564A7F84392","title":"上海滩浦东香格里拉店","lon":"121.50058","lat":"31.23634","category":"119","category_name":"商场","address":"浦东富成路33号香格里拉酒店内大堂层"},{"poiid":"B2094654DA69A7FB489A","title":"渣打银行大厦","lon":"121.516","lat":"31.2415","category":"46","category_name":"楼宇","address":"浦东区金融贸易区D3-5"},{"poiid":"B2094655D26FA5F9439B","title":"上海证券大厦","lon":"121.517707","lat":"31.241749","category":"46","category_name":"楼宇","address":"浦东新区浦东南路528号"},{"poiid":"B2094757D06EAAFF479A","title":"杨树浦路地铁站","lon":"121.51719604","lat":"31.252407847","category":"36","category_name":"地铁站","address":"上海轨道交通 四号线 轨交杨树浦路站 轻轨 4"},{"poiid":"B2094757D06FA0FA489F","title":"秦皇岛路轮渡站","lon":"121.51639044","lat":"31.249174771","category":"35","category_name":"长途汽车站","address":"上海虹口区秦皇岛路1号"},{"poiid":"B2094757D06FA5FA479F","title":"华夏银行大厦","lon":"121.5152","lat":"31.245346","category":"46","category_name":"楼宇","address":"上海浦东新区浦东南路256号"},{"poiid":"B2094655D36DA6FE429A","title":"浦东大道","lon":"121.51984","lat":"31.24032","category":"38","category_name":"公交车站","address":""},{"poiid":"B2094757D06FA1FA4498","title":"招商局大厦","lon":"121.515135","lat":"31.242879","category":"46","category_name":"楼宇","address":"浦东新区陆家嘴东路161号"},{"poiid":"B2094654D56FA3F44099","title":"上海瑞丰国际大厦","lon":"121.51557","lat":"31.25078","category":"46","category_name":"楼宇","address":"上海市奉贤区环城东路455、465弄"},{"poiid":"B2094655D26AA0F9409A","title":"地铁浦东大道站","lon":"121.51984","lat":"31.24032","category":"36","category_name":"地铁站","address":""},{"poiid":"B2094655D26FA5FF479B","title":"华能联合大厦","lon":"121.515","lat":"31.245","category":"46","category_name":"楼宇","address":"朝阳华威桥东北角"},{"poiid":"B2094757D068A1FA489C","title":"其昌栈渡口","lon":"121.51963307","lat":"31.242515608","category":"500","category_name":"未知分类","address":"上海东方路滨江大道"},{"poiid":"B2094757D068AAFC469B","title":"保利广场","lon":"121.514956916","lat":"31.2433600232","category":"500","category_name":"未知分类","address":"闸北区共和新路3703,3737号"},{"poiid":"B2094757D065A5FA449E","title":"阿根廷庄园","lon":"121.517910103","lat":"31.2503280024","category":"94","category_name":"西餐厅","address":"杨浦区秦皇岛路32号19幢(近北外滩东码头)"},{"poiid":"B2094757D06FA2FF4099","title":"中国保险大厦","lon":"121.516","lat":"31.2421","category":"46","category_name":"楼宇","address":"浦东临港新城主城区申港大道200号"},{"poiid":"B2094757D16CABFF429D","title":"雅典皇宫","lon":"121.51895673","lat":"31.242752567","category":"500","category_name":"未知分类","address":"上海浦东新区东方路8号(近浦东大道)  "},{"poiid":"B2094757D06FA3FC479F","title":"上海航运交易所","lon":"121.51347327","lat":"31.250775518","category":"260","category_name":"其他","address":"上海杨树浦路88号(近惠民路)"},{"poiid":"B2094757D16DABF9429A","title":"浦江游览","lon":"121.516154","lat":"31.249603","category":"607","category_name":"一般景点","address":"上海秦皇岛"},{"poiid":"B2094655D36DA2FB459B","title":"大连路隧道","lon":"121.51973","lat":"31.2428","category":"250","category_name":"公园户外","address":"上海市杨浦区大连路-浦东新区东方路"},{"poiid":"B2094654DA69A1F54992","title":"金穗大厦","lon":"121.517","lat":"31.245","category":"46","category_name":"楼宇","address":"上海市奉贤区环城东路455,465弄"},{"poiid":"B2094750D66CABFB4693","title":"Mio Ita","lon":"121.517906","lat":"31.243383","category":"94","category_name":"西餐厅","address":"浦东新区东方路18号保利大厦E栋2楼"},{"poiid":"B2094757DB69A3F44599","title":"富淳饭店 保利店","lon":"121.5189019","lat":"31.242405","category":"72","category_name":"广东菜","address":"浦东新区东方路18号保利广场E座G楼"},{"poiid":"B2094757D064AAF5409A","title":"浦东陆家嘴图书馆","lon":"121.518913","lat":"31.241753","category":"181","category_name":"图书馆","address":"上海浦东新区东方路38号"},{"poiid":"B2094655D26FA5FE4498","title":"汇丰大厦","lon":"121.514","lat":"31.2458","category":"46","category_name":"楼宇","address":"上海陆家嘴环路1000号"},{"poiid":"B2094757D06AA3FC409B","title":"浦东大道钱仓路","lon":"121.520092738","lat":"31.2396905017","category":"500","category_name":"未知分类","address":"上海浦东大道"},{"poiid":"B2094757D06AA4F9459C","title":"豪德万源大酒店","lon":"121.52222823","lat":"31.24150209","category":"217","category_name":"旅馆招待所","address":"浦东新区浦东大道599号(近东方路)"},{"poiid":"B2094757D469A5F9409A","title":"松临日本料理 保利广场店","lon":"121.5189019","lat":"31.242405","category":"95","category_name":"日本料理","address":"浦东新区东方路18号保利广场E座2楼(近地铁四号线浦东大道站)"},{"poiid":"B2094655D264ABF8459A","title":"马登国际航运商务中心","lon":"121.51322","lat":"31.25147","category":"46","category_name":"楼宇","address":"杨树浦路147号"},{"poiid":"B2094757D16EA4F44799","title":"秦皇岛路水门码头","lon":"121.518441738","lat":"31.2456866296","category":"260","category_name":"其他","address":"杨浦区秦皇岛路32号(近杨树浦路)"},{"poiid":"B2094757D068A5F44392","title":"裕景咖啡厅","lon":"121.52051","lat":"31.2408","category":"268","category_name":"自助","address":"浦东新区浦东大道535号裕景大饭店3楼(近东方路)"},{"poiid":"B2094757D06EAAFF4993","title":"浦电路地铁站(四号线)","lon":"121.519854","lat":"31.240301","category":"36","category_name":"地铁站","address":"上海轨道交通 四号线 轨交浦东大道站 轻轨 4"},{"poiid":"B2094750DB6EAAF5489D","title":"滨江大道","lon":"121.518669","lat":"31.245016","category":"250","category_name":"公园户外","address":"东方路"},{"poiid":"B2094753D76DA4F8439D","title":"上海电影博物馆","lon":"121.520019","lat":"31.240804","category":"500","category_name":"未知分类","address":"上海市 上海电影制片厂漕溪北路595号"},{"poiid":"B2094655D36CA0FB4799","title":"霍山路临潼路","lon":"121.51298","lat":"31.25114","category":"38","category_name":"公交车站","address":"霍山路临潼路"},{"poiid":"B2094753D76BA0FF4898","title":"伊秀手握寿司","lon":"121.520011","lat":"31.240814","category":"247","category_name":"餐饮美食","address":"上海市 上海市第一食品商店"},{"poiid":"B2094654DB64A6F44092","title":"如家快捷酒店(上海陆家嘴店)","lon":"121.52216","lat":"31.24182","category":"216","category_name":"经济型连锁酒店","address":"上海市浦东新区昌邑路569号(近东方路)"},{"poiid":"B2094750DB6BA3FF479B","title":"浦东滨江大道","lon":"121.515625","lat":"31.248435","category":"500","category_name":"未知分类","address":null},{"poiid":"B2094655D26AA0F9409B","title":"地铁杨树浦路站","lon":"121.5172","lat":"31.25241","category":"36","category_name":"地铁站","address":""},{"poiid":"B2094654DA69A0FC499D","title":"荣城花苑","lon":"121.51794","lat":"31.242142","category":"47","category_name":"住宅区","address":"荣城路9弄"},{"poiid":"B2094753D668A6F54393","title":"黃記煌三汁燜鍋（第一食品商店）","lon":"121.515002","lat":"31.2428","category":"247","category_name":"餐饮美食","address":"上海市 第一食品商店"},{"poiid":"B2094757D169A2F4479D","title":"翡翠公主号","lon":"121.5164","lat":"31.2507","category":"76","category_name":"上海菜","address":"杨浦区秦皇岛路码头(近杨树浦路)"},{"poiid":"B2094752DB69A3FB4999","title":"东方私宴","lon":"121.520776","lat":"31.243821","category":"500","category_name":"未知分类","address":"上海市 上海市滨江大道1658号"},{"poiid":"B2094757D069A6F8419A","title":"沁源茶楼","lon":"121.52162933","lat":"31.240867614","category":"260","category_name":"其他","address":"浦东新区浦东大道569号(近东方路)"},{"poiid":"B2094750DA6AA0F9409A","title":"北外滩滨江大道","lon":"121.512023","lat":"31.244825","category":"250","category_name":"公园户外","address":null},{"poiid":"B2094654DB69A0F9499C","title":"泰和茶馆","lon":"121.52159","lat":"31.24083","category":"66","category_name":"茶艺馆","address":"浦东新区浦东大道569号"},{"poiid":"B2094757D464A7FD4298","title":"御庭","lon":"121.519856064","lat":"31.242143345783","category":"72","category_name":"广东菜","address":"浦东新区浦东大道535号裕景大饭店5楼(近东方路)"},{"poiid":"B2094757D065A4FB449B","title":"老头菜饭","lon":"121.51482053","lat":"31.25163419","category":"68","category_name":"快餐厅","address":"杨浦区杨树浦路205号(临潼路口)"},{"poiid":"B2094654DB6BAAF8479D","title":"环球金融中心","lon":"121.514","lat":"31.241","category":"46","category_name":"楼宇","address":"上海市浦东新区陆家嘴世纪大道8号"},{"poiid":"B2094757D06FA3F8439A","title":"时代金融中心","lon":"121.513","lat":"31.2467","category":"46","category_name":"楼宇","address":"上海市浦东新区银城中路68号"},{"poiid":"B2094654DA69AAFB4799","title":"裕景大饭店","lon":"121.52018","lat":"31.2409","category":"213","category_name":"五星级宾馆","address":"上海市浦东新区浦东大道535号(近东方路)"},{"poiid":"B209475CD564A7F84392","title":"上海滩浦东香格里拉店","lon":"121.50058","lat":"31.23634","category":"119","category_name":"商场","address":"浦东富成路33号香格里拉酒店内大堂层"},{"poiid":"B2094654DA69A7FB489A","title":"渣打银行大厦","lon":"121.516","lat":"31.2415","category":"46","category_name":"楼宇","address":"浦东区金融贸易区D3-5"},{"poiid":"B2094655D26FA5F9439B","title":"上海证券大厦","lon":"121.517707","lat":"31.241749","category":"46","category_name":"楼宇","address":"浦东新区浦东南路528号"},{"poiid":"B2094757D06EAAFF479A","title":"杨树浦路地铁站","lon":"121.51719604","lat":"31.252407847","category":"36","category_name":"地铁站","address":"上海轨道交通 四号线 轨交杨树浦路站 轻轨 4"},{"poiid":"B2094757D06FA0FA489F","title":"秦皇岛路轮渡站","lon":"121.51639044","lat":"31.249174771","category":"35","category_name":"长途汽车站","address":"上海虹口区秦皇岛路1号"},{"poiid":"B2094757D06FA5FA479F","title":"华夏银行大厦","lon":"121.5152","lat":"31.245346","category":"46","category_name":"楼宇","address":"上海浦东新区浦东南路256号"},{"poiid":"B2094655D36DA6FE429A","title":"浦东大道","lon":"121.51984","lat":"31.24032","category":"38","category_name":"公交车站","address":""},{"poiid":"B2094757D06FA1FA4498","title":"招商局大厦","lon":"121.515135","lat":"31.242879","category":"46","category_name":"楼宇","address":"浦东新区陆家嘴东路161号"},{"poiid":"B2094654D56FA3F44099","title":"上海瑞丰国际大厦","lon":"121.51557","lat":"31.25078","category":"46","category_name":"楼宇","address":"上海市奉贤区环城东路455、465弄"},{"poiid":"B2094655D26AA0F9409A","title":"地铁浦东大道站","lon":"121.51984","lat":"31.24032","category":"36","category_name":"地铁站","address":""},{"poiid":"B2094655D26FA5FF479B","title":"华能联合大厦","lon":"121.515","lat":"31.245","category":"46","category_name":"楼宇","address":"朝阳华威桥东北角"},{"poiid":"B2094757D068A1FA489C","title":"其昌栈渡口","lon":"121.51963307","lat":"31.242515608","category":"500","category_name":"未知分类","address":"上海东方路滨江大道"},{"poiid":"B2094757D068AAFC469B","title":"保利广场","lon":"121.514956916","lat":"31.2433600232","category":"500","category_name":"未知分类","address":"闸北区共和新路3703,3737号"},{"poiid":"B2094757D065A5FA449E","title":"阿根廷庄园","lon":"121.517910103","lat":"31.2503280024","category":"94","category_name":"西餐厅","address":"杨浦区秦皇岛路32号19幢(近北外滩东码头)"},{"poiid":"B2094757D06FA2FF4099","title":"中国保险大厦","lon":"121.516","lat":"31.2421","category":"46","category_name":"楼宇","address":"浦东临港新城主城区申港大道200号"},{"poiid":"B2094757D16CABFF429D","title":"雅典皇宫","lon":"121.51895673","lat":"31.242752567","category":"500","category_name":"未知分类","address":"上海浦东新区东方路8号(近浦东大道)  "},{"poiid":"B2094757D06FA3FC479F","title":"上海航运交易所","lon":"121.51347327","lat":"31.250775518","category":"260","category_name":"其他","address":"上海杨树浦路88号(近惠民路)"},{"poiid":"B2094757D16DABF9429A","title":"浦江游览","lon":"121.516154","lat":"31.249603","category":"607","category_name":"一般景点","address":"上海秦皇岛"},{"poiid":"B2094655D36DA2FB459B","title":"大连路隧道","lon":"121.51973","lat":"31.2428","category":"250","category_name":"公园户外","address":"上海市杨浦区大连路-浦东新区东方路"},{"poiid":"B2094654DA69A1F54992","title":"金穗大厦","lon":"121.517","lat":"31.245","category":"46","category_name":"楼宇","address":"上海市奉贤区环城东路455,465弄"},{"poiid":"B2094750D66CABFB4693","title":"Mio Ita","lon":"121.517906","lat":"31.243383","category":"94","category_name":"西餐厅","address":"浦东新区东方路18号保利大厦E栋2楼"},{"poiid":"B2094757DB69A3F44599","title":"富淳饭店 保利店","lon":"121.5189019","lat":"31.242405","category":"72","category_name":"广东菜","address":"浦东新区东方路18号保利广场E座G楼"},{"poiid":"B2094757D064AAF5409A","title":"浦东陆家嘴图书馆","lon":"121.518913","lat":"31.241753","category":"181","category_name":"图书馆","address":"上海浦东新区东方路38号"},{"poiid":"B2094655D26FA5FE4498","title":"汇丰大厦","lon":"121.514","lat":"31.2458","category":"46","category_name":"楼宇","address":"上海陆家嘴环路1000号"},{"poiid":"B2094757D06AA3FC409B","title":"浦东大道钱仓路","lon":"121.520092738","lat":"31.2396905017","category":"500","category_name":"未知分类","address":"上海浦东大道"},{"poiid":"B2094757D06AA4F9459C","title":"豪德万源大酒店","lon":"121.52222823","lat":"31.24150209","category":"217","category_name":"旅馆招待所","address":"浦东新区浦东大道599号(近东方路)"},{"poiid":"B2094757D469A5F9409A","title":"松临日本料理 保利广场店","lon":"121.5189019","lat":"31.242405","category":"95","category_name":"日本料理","address":"浦东新区东方路18号保利广场E座2楼(近地铁四号线浦东大道站)"},{"poiid":"B2094655D264ABF8459A","title":"马登国际航运商务中心","lon":"121.51322","lat":"31.25147","category":"46","category_name":"楼宇","address":"杨树浦路147号"},{"poiid":"B2094757D16EA4F44799","title":"秦皇岛路水门码头","lon":"121.518441738","lat":"31.2456866296","category":"260","category_name":"其他","address":"杨浦区秦皇岛路32号(近杨树浦路)"},{"poiid":"B2094757D068A5F44392","title":"裕景咖啡厅","lon":"121.52051","lat":"31.2408","category":"268","category_name":"自助","address":"浦东新区浦东大道535号裕景大饭店3楼(近东方路)"},{"poiid":"B2094757D06EAAFF4993","title":"浦电路地铁站(四号线)","lon":"121.519854","lat":"31.240301","category":"36","category_name":"地铁站","address":"上海轨道交通 四号线 轨交浦东大道站 轻轨 4"},{"poiid":"B2094750DB6EAAF5489D","title":"滨江大道","lon":"121.518669","lat":"31.245016","category":"250","category_name":"公园户外","address":"东方路"},{"poiid":"B2094753D76DA4F8439D","title":"上海电影博物馆","lon":"121.520019","lat":"31.240804","category":"500","category_name":"未知分类","address":"上海市 上海电影制片厂漕溪北路595号"},{"poiid":"B2094655D36CA0FB4799","title":"霍山路临潼路","lon":"121.51298","lat":"31.25114","category":"38","category_name":"公交车站","address":"霍山路临潼路"},{"poiid":"B2094753D76BA0FF4898","title":"伊秀手握寿司","lon":"121.520011","lat":"31.240814","category":"247","category_name":"餐饮美食","address":"上海市 上海市第一食品商店"},{"poiid":"B2094654DB64A6F44092","title":"如家快捷酒店(上海陆家嘴店)","lon":"121.52216","lat":"31.24182","category":"216","category_name":"经济型连锁酒店","address":"上海市浦东新区昌邑路569号(近东方路)"},{"poiid":"B2094750DB6BA3FF479B","title":"浦东滨江大道","lon":"121.515625","lat":"31.248435","category":"500","category_name":"未知分类","address":null},{"poiid":"B2094655D26AA0F9409B","title":"地铁杨树浦路站","lon":"121.5172","lat":"31.25241","category":"36","category_name":"地铁站","address":""},{"poiid":"B2094654DA69A0FC499D","title":"荣城花苑","lon":"121.51794","lat":"31.242142","category":"47","category_name":"住宅区","address":"荣城路9弄"},{"poiid":"B2094753D668A6F54393","title":"黃記煌三汁燜鍋（第一食品商店）","lon":"121.515002","lat":"31.2428","category":"247","category_name":"餐饮美食","address":"上海市 第一食品商店"},{"poiid":"B2094757D169A2F4479D","title":"翡翠公主号","lon":"121.5164","lat":"31.2507","category":"76","category_name":"上海菜","address":"杨浦区秦皇岛路码头(近杨树浦路)"},{"poiid":"B2094752DB69A3FB4999","title":"东方私宴","lon":"121.520776","lat":"31.243821","category":"500","category_name":"未知分类","address":"上海市 上海市滨江大道1658号"},{"poiid":"B2094757D069A6F8419A","title":"沁源茶楼","lon":"121.52162933","lat":"31.240867614","category":"260","category_name":"其他","address":"浦东新区浦东大道569号(近东方路)"},{"poiid":"B2094750DA6AA0F9409A","title":"北外滩滨江大道","lon":"121.512023","lat":"31.244825","category":"250","category_name":"公园户外","address":null},{"poiid":"B2094654DB69A0F9499C","title":"泰和茶馆","lon":"121.52159","lat":"31.24083","category":"66","category_name":"茶艺馆","address":"浦东新区浦东大道569号"},{"poiid":"B2094757D464A7FD4298","title":"御庭","lon":"121.519856064","lat":"31.242143345783","category":"72","category_name":"广东菜","address":"浦东新区浦东大道535号裕景大饭店5楼(近东方路)"},{"poiid":"B2094757D065A4FB449B","title":"老头菜饭","lon":"121.51482053","lat":"31.25163419","category":"68","category_name":"快餐厅","address":"杨浦区杨树浦路205号(临潼路口)"},{"poiid":"B2094654DB6BAAF8479D","title":"环球金融中心","lon":"121.514","lat":"31.241","category":"46","category_name":"楼宇","address":"上海市浦东新区陆家嘴世纪大道8号"},{"poiid":"B2094757D06FA3F8439A","title":"时代金融中心","lon":"121.513","lat":"31.2467","category":"46","category_name":"楼宇","address":"上海市浦东新区银城中路68号"},{"poiid":"B2094654DA69AAFB4799","title":"裕景大饭店","lon":"121.52018","lat":"31.2409","category":"213","category_name":"五星级宾馆","address":"上海市浦东新区浦东大道535号(近东方路)"},{"poiid":"B209475CD564A7F84392","title":"上海滩浦东香格里拉店","lon":"121.50058","lat":"31.23634","category":"119","category_name":"商场","address":"浦东富成路33号香格里拉酒店内大堂层"},{"poiid":"B2094654DA69A7FB489A","title":"渣打银行大厦","lon":"121.516","lat":"31.2415","category":"46","category_name":"楼宇","address":"浦东区金融贸易区D3-5"},{"poiid":"B2094655D26FA5F9439B","title":"上海证券大厦","lon":"121.517707","lat":"31.241749","category":"46","category_name":"楼宇","address":"浦东新区浦东南路528号"},{"poiid":"B2094757D06EAAFF479A","title":"杨树浦路地铁站","lon":"121.51719604","lat":"31.252407847","category":"36","category_name":"地铁站","address":"上海轨道交通 四号线 轨交杨树浦路站 轻轨 4"},{"poiid":"B2094757D06FA0FA489F","title":"秦皇岛路轮渡站","lon":"121.51639044","lat":"31.249174771","category":"35","category_name":"长途汽车站","address":"上海虹口区秦皇岛路1号"},{"poiid":"B2094757D06FA5FA479F","title":"华夏银行大厦","lon":"121.5152","lat":"31.245346","category":"46","category_name":"楼宇","address":"上海浦东新区浦东南路256号"},{"poiid":"B2094655D36DA6FE429A","title":"浦东大道","lon":"121.51984","lat":"31.24032","category":"38","category_name":"公交车站","address":""},{"poiid":"B2094757D06FA1FA4498","title":"招商局大厦","lon":"121.515135","lat":"31.242879","category":"46","category_name":"楼宇","address":"浦东新区陆家嘴东路161号"},{"poiid":"B2094654D56FA3F44099","title":"上海瑞丰国际大厦","lon":"121.51557","lat":"31.25078","category":"46","category_name":"楼宇","address":"上海市奉贤区环城东路455、465弄"},{"poiid":"B2094655D26AA0F9409A","title":"地铁浦东大道站","lon":"121.51984","lat":"31.24032","category":"36","category_name":"地铁站","address":""},{"poiid":"B2094655D26FA5FF479B","title":"华能联合大厦","lon":"121.515","lat":"31.245","category":"46","category_name":"楼宇","address":"朝阳华威桥东北角"},{"poiid":"B2094757D068A1FA489C","title":"其昌栈渡口","lon":"121.51963307","lat":"31.242515608","category":"500","category_name":"未知分类","address":"上海东方路滨江大道"},{"poiid":"B2094757D068AAFC469B","title":"保利广场","lon":"121.514956916","lat":"31.2433600232","category":"500","category_name":"未知分类","address":"闸北区共和新路3703,3737号"},{"poiid":"B2094757D065A5FA449E","title":"阿根廷庄园","lon":"121.517910103","lat":"31.2503280024","category":"94","category_name":"西餐厅","address":"杨浦区秦皇岛路32号19幢(近北外滩东码头)"},{"poiid":"B2094757D06FA2FF4099","title":"中国保险大厦","lon":"121.516","lat":"31.2421","category":"46","category_name":"楼宇","address":"浦东临港新城主城区申港大道200号"},{"poiid":"B2094757D16CABFF429D","title":"雅典皇宫","lon":"121.51895673","lat":"31.242752567","category":"500","category_name":"未知分类","address":"上海浦东新区东方路8号(近浦东大道)  "},{"poiid":"B2094757D06FA3FC479F","title":"上海航运交易所","lon":"121.51347327","lat":"31.250775518","category":"260","category_name":"其他","address":"上海杨树浦路88号(近惠民路)"},{"poiid":"B2094757D16DABF9429A","title":"浦江游览","lon":"121.516154","lat":"31.249603","category":"607","category_name":"一般景点","address":"上海秦皇岛"},{"poiid":"B2094655D36DA2FB459B","title":"大连路隧道","lon":"121.51973","lat":"31.2428","category":"250","category_name":"公园户外","address":"上海市杨浦区大连路-浦东新区东方路"},{"poiid":"B2094654DA69A1F54992","title":"金穗大厦","lon":"121.517","lat":"31.245","category":"46","category_name":"楼宇","address":"上海市奉贤区环城东路455,465弄"},{"poiid":"B2094750D66CABFB4693","title":"Mio Ita","lon":"121.517906","lat":"31.243383","category":"94","category_name":"西餐厅","address":"浦东新区东方路18号保利大厦E栋2楼"},{"poiid":"B2094757DB69A3F44599","title":"富淳饭店 保利店","lon":"121.5189019","lat":"31.242405","category":"72","category_name":"广东菜","address":"浦东新区东方路18号保利广场E座G楼"},{"poiid":"B2094757D064AAF5409A","title":"浦东陆家嘴图书馆","lon":"121.518913","lat":"31.241753","category":"181","category_name":"图书馆","address":"上海浦东新区东方路38号"},{"poiid":"B2094655D26FA5FE4498","title":"汇丰大厦","lon":"121.514","lat":"31.2458","category":"46","category_name":"楼宇","address":"上海陆家嘴环路1000号"},{"poiid":"B2094757D06AA3FC409B","title":"浦东大道钱仓路","lon":"121.520092738","lat":"31.2396905017","category":"500","category_name":"未知分类","address":"上海浦东大道"},{"poiid":"B2094757D06AA4F9459C","title":"豪德万源大酒店","lon":"121.52222823","lat":"31.24150209","category":"217","category_name":"旅馆招待所","address":"浦东新区浦东大道599号(近东方路)"},{"poiid":"B2094757D469A5F9409A","title":"松临日本料理 保利广场店","lon":"121.5189019","lat":"31.242405","category":"95","category_name":"日本料理","address":"浦东新区东方路18号保利广场E座2楼(近地铁四号线浦东大道站)"},{"poiid":"B2094655D264ABF8459A","title":"马登国际航运商务中心","lon":"121.51322","lat":"31.25147","category":"46","category_name":"楼宇","address":"杨树浦路147号"},{"poiid":"B2094757D16EA4F44799","title":"秦皇岛路水门码头","lon":"121.518441738","lat":"31.2456866296","category":"260","category_name":"其他","address":"杨浦区秦皇岛路32号(近杨树浦路)"},{"poiid":"B2094757D068A5F44392","title":"裕景咖啡厅","lon":"121.52051","lat":"31.2408","category":"268","category_name":"自助","address":"浦东新区浦东大道535号裕景大饭店3楼(近东方路)"},{"poiid":"B2094757D06EAAFF4993","title":"浦电路地铁站(四号线)","lon":"121.519854","lat":"31.240301","category":"36","category_name":"地铁站","address":"上海轨道交通 四号线 轨交浦东大道站 轻轨 4"},{"poiid":"B2094750DB6EAAF5489D","title":"滨江大道","lon":"121.518669","lat":"31.245016","category":"250","category_name":"公园户外","address":"东方路"},{"poiid":"B2094753D76DA4F8439D","title":"上海电影博物馆","lon":"121.520019","lat":"31.240804","category":"500","category_name":"未知分类","address":"上海市 上海电影制片厂漕溪北路595号"},{"poiid":"B2094655D36CA0FB4799","title":"霍山路临潼路","lon":"121.51298","lat":"31.25114","category":"38","category_name":"公交车站","address":"霍山路临潼路"},{"poiid":"B2094753D76BA0FF4898","title":"伊秀手握寿司","lon":"121.520011","lat":"31.240814","category":"247","category_name":"餐饮美食","address":"上海市 上海市第一食品商店"},{"poiid":"B2094654DB64A6F44092","title":"如家快捷酒店(上海陆家嘴店)","lon":"121.52216","lat":"31.24182","category":"216","category_name":"经济型连锁酒店","address":"上海市浦东新区昌邑路569号(近东方路)"},{"poiid":"B2094750DB6BA3FF479B","title":"浦东滨江大道","lon":"121.515625","lat":"31.248435","category":"500","category_name":"未知分类","address":null},{"poiid":"B2094655D26AA0F9409B","title":"地铁杨树浦路站","lon":"121.5172","lat":"31.25241","category":"36","category_name":"地铁站","address":""},{"poiid":"B2094654DA69A0FC499D","title":"荣城花苑","lon":"121.51794","lat":"31.242142","category":"47","category_name":"住宅区","address":"荣城路9弄"},{"poiid":"B2094753D668A6F54393","title":"黃記煌三汁燜鍋（第一食品商店）","lon":"121.515002","lat":"31.2428","category":"247","category_name":"餐饮美食","address":"上海市 第一食品商店"},{"poiid":"B2094757D169A2F4479D","title":"翡翠公主号","lon":"121.5164","lat":"31.2507","category":"76","category_name":"上海菜","address":"杨浦区秦皇岛路码头(近杨树浦路)"},{"poiid":"B2094752DB69A3FB4999","title":"东方私宴","lon":"121.520776","lat":"31.243821","category":"500","category_name":"未知分类","address":"上海市 上海市滨江大道1658号"},{"poiid":"B2094757D069A6F8419A","title":"沁源茶楼","lon":"121.52162933","lat":"31.240867614","category":"260","category_name":"其他","address":"浦东新区浦东大道569号(近东方路)"},{"poiid":"B2094750DA6AA0F9409A","title":"北外滩滨江大道","lon":"121.512023","lat":"31.244825","category":"250","category_name":"公园户外","address":null},{"poiid":"B2094654DB69A0F9499C","title":"泰和茶馆","lon":"121.52159","lat":"31.24083","category":"66","category_name":"茶艺馆","address":"浦东新区浦东大道569号"},{"poiid":"B2094757D464A7FD4298","title":"御庭","lon":"121.519856064","lat":"31.242143345783","category":"72","category_name":"广东菜","address":"浦东新区浦东大道535号裕景大饭店5楼(近东方路)"},{"poiid":"B2094757D065A4FB449B","title":"老头菜饭","lon":"121.51482053","lat":"31.25163419","category":"68","category_name":"快餐厅","address":"杨浦区杨树浦路205号(临潼路口)"}]