[{"poiid":"B2094757D069ABF9499D","title":"小肥羊(陆家浜店)","lon":"121.48257546","lat":"31.211537301","category":"86","category_name":"火锅店","address":"黄浦区陆家浜路1390号(近制造局路)"},{"poiid":"B2094757D66FA7FA4499","title":"阿婆粢饭糕","lon":"121.482015738","lat":"31.2140172676","category":"247","category_name":"餐饮美食","address":"上海市卢湾区肇周路近合肥路"},{"poiid":"B2094654DB65A3F84599","title":"上海市红房子妇产科医院门诊部","lon":"121.48278","lat":"31.21204","category":"162","category_name":"医院","address":"方斜路566号"},{"poiid":"B2094753D76FAAFA449C","title":"上海滩国泰旗舰店","lon":"121.466011","lat":"31.216125","category":"249","category_name":"购物服务","address":"淮海中路868号"},{"poiid":"B209475CD564A7F84292","title":"上海滩新天地店","lon":"121.47463","lat":"31.22164","category":"119","category_name":"商场","address":"\"太仓路181弄新天地北里15号\r\n\""},{"poiid":"B209475CD564A7F8439E","title":"上海滩中信泰富店","lon":"121.45602","lat":"31.22851","category":"119","category_name":"商场","address":"\"南京西路1168号中信泰富广场，店铺号221.\r\n\""},{"poiid":"B2094757D16CA7F84792","title":"肇周路","lon":"121.480401738","lat":"31.2139469532","category":"500","category_name":"未知分类","address":"上海市卢湾区"},{"poiid":"B2094757D06FA1FF4392","title":"麟笼坊特色小笼包(建国东路店)","lon":"121.48073","lat":"31.21366","category":"68","category_name":"快餐厅","address":"卢湾区建国东路10号(近肇周路口)"},{"poiid":"B2094757D06AA6FE469C","title":"新天地style","lon":"121.47919464","lat":"31.214149475","category":"500","category_name":"未知分类","address":"上海复兴中路马当路"},{"poiid":"B2094757D16CABFB409C","title":"红房子医院","lon":"121.482140338","lat":"31.2112135949","category":"162","category_name":"医院","address":"上海大林路358号"},{"poiid":"B2094757D068A1FD409A","title":"盛兴点心店","lon":"121.479443054","lat":"31.212018793","category":"87","category_name":"特色／地方风味餐厅","address":"卢湾区顺昌路528号(近永年路)"},{"poiid":"B2094757D16CA5FC459F","title":"肇州路馄饨","lon":"121.48104573","lat":"31.215022976","category":"500","category_name":"未知分类","address":"上海肇州路合肥路"},{"poiid":"B2094757D069A7FC409A","title":"一品居热气羊肉馆(顺昌店)","lon":"121.47938","lat":"31.21213","category":"86","category_name":"火锅店","address":"卢湾区顺昌路512号(近永年路)"},{"poiid":"B2094655D26EA5F4429B","title":"夜上海(新天地店)","lon":"121.47749","lat":"31.21282","category":"248","category_name":"生活娱乐","address":"卢湾区黄陂南路338号"},{"poiid":"B2094757D06FAAF4419B","title":"沪南体育活动中心","lon":"121.48268","lat":"31.21256","category":"220","category_name":"运动场所","address":"黄浦区方斜路515号(近大吉路)"},{"poiid":"B2094750D365A5FE4698","title":"阿婆豆浆油条","lon":"121.482063","lat":"31.214328","category":"247","category_name":"餐饮美食","address":"卢湾区肇周路309号(建国新路口)"},{"poiid":"B2094654DA6EAAF54793","title":"上海社会科学院研究生部","lon":"121.47963","lat":"31.21081","category":"52","category_name":"高等院校","address":"顺昌路622"},{"poiid":"B2094757D068A1F5429E","title":"顺昌路","lon":"121.478856","lat":"31.214754","category":"500","category_name":"未知分类","address":"上海卢湾区顺昌路"},{"poiid":"B2094655D26FA3FF4399","title":"莫泰168连锁旅店(徐家汇路店)","lon":"121.48146","lat":"31.21081","category":"216","category_name":"经济型连锁酒店","address":"上海市黄浦区徐家汇路3-7号（近制造局路）"},{"poiid":"B2094654DB64A5F5439E","title":"如家快捷酒店(上海陆家浜路店)","lon":"121.48309","lat":"31.21245","category":"216","category_name":"经济型连锁酒店","address":"上海市黄浦区大林路265号(近方斜路红房子医院)"},{"poiid":"B2094654DB69A5F4409A","title":"重庆鸡公煲 顺昌路店","lon":"121.479501054","lat":"31.212284793","category":"71","category_name":"四川菜","address":"卢湾区顺昌路530号(近永年路)"},{"poiid":"B2094757D06AA6FE479B","title":"黄陂南路徐家汇路","lon":"121.47800445","lat":"31.210878372","category":"500","category_name":"未知分类","address":"上海黄陂南路徐家汇路"},{"poiid":"B2094757D06AA4F5499E","title":"central studios奂镜","lon":"121.477864","lat":"31.213331","category":"500","category_name":"未知分类","address":"上海市黄陂南路751号1号楼1楼"},{"poiid":"B2094654DA6EA7FB439D","title":"上海市李惠利中学","lon":"121.48121","lat":"31.21181","category":"55","category_name":"中学","address":"卢湾区肇周路420号(陆家浜路徐家汇路)"},{"poiid":"B2094753D76AA7F8459F","title":"韵色","lon":"121.482657","lat":"31.213799","category":"76","category_name":"上海菜","address":"上海市黄浦区方斜路446号(近建国新路)"},{"poiid":"B2094757D66AA4F44198","title":"鼎乐酒家","lon":"121.48018955369","lat":"31.212505124381","category":"76","category_name":"上海菜","address":"卢湾区永年路54号(永年路肇周路)"},{"poiid":"B2094654DB6BA4FF4898","title":"老北京涮锅(顺昌路)","lon":"121.47952","lat":"31.2125","category":"86","category_name":"火锅店","address":"卢湾区顺昌路531号(近永年路)"},{"poiid":"B2094655D265A7FF4499","title":"梦奇屋","lon":"121.47967","lat":"31.21183","category":"68","category_name":"快餐厅","address":"卢湾区顺昌路563号(近徐家汇路)"},{"poiid":"B2094654DB6BA4FF489B","title":"森绿温馨小吃(顺昌路)","lon":"121.47945","lat":"31.21288","category":"76","category_name":"上海菜","address":"卢湾区顺昌路503号(近建国东路)"},{"poiid":"B2094654DB6BA4FF489D","title":"上海市基督教惠中堂(肇周路)","lon":"121.48094","lat":"31.21129","category":"245","category_name":"教堂","address":"卢湾区徐家汇路40-2号(肇周路口)"},{"poiid":"B2094757D464ABF54098","title":"巴弟鸡排 顺昌路店","lon":"121.479773054","lat":"31.211614793","category":"68","category_name":"快餐厅","address":"卢湾区顺昌路563号(近徐家汇路)"},{"poiid":"B2094654DA6EA7F5489C","title":"复旦大学上海市红房子妇产科医院","lon":"121.48274","lat":"31.21366","category":"162","category_name":"医院","address":"方斜路419"},{"poiid":"B2094654DA6EA7FA499D","title":"长顺来","lon":"121.4795","lat":"31.2126","category":"76","category_name":"上海菜","address":"卢湾区顺昌路517号(近建国东路)"},{"poiid":"B2094750D768A0F5439D","title":"老刘烧烤","lon":"121.482","lat":"31.2135","category":"68","category_name":"快餐厅","address":"黄浦区大吉路华联超市门口(方斜路口)"},{"poiid":"B2094654DA6EAAF54493","title":"南京金陵汤包店","lon":"121.47932","lat":"31.21225","category":"87","category_name":"特色／地方风味餐厅","address":"卢湾区永年路114号(顺昌路口)"},{"poiid":"B2094757D66BA4FC439B","title":"集宾酒楼","lon":"121.48026588107","lat":"31.213340264741","category":"76","category_name":"上海菜","address":"卢湾区建国东路23号(近顺昌路)"},{"poiid":"B2094752D66FAAFC4993","title":"必胜客","lon":"121.479057","lat":"31.211943","category":"500","category_name":"未知分类","address":"徐家汇路618号日月光中心广场B2楼(近瑞金二路)"},{"poiid":"B2094757D164A5FC429F","title":"小车扦脚","lon":"121.480633","lat":"31.212189","category":"148","category_name":"美容美发店","address":"卢湾区永年路55号(近顺昌路)"},{"poiid":"B2094750D768A0F4439D","title":"川香阁鱼庄","lon":"121.481","lat":"31.2131","category":"71","category_name":"四川菜","address":"卢湾区肇周路348号(建国东路建国新路)"},{"poiid":"B2094757D568AAFC4999","title":"京世造型","lon":"121.48242459","lat":"31.21159939","category":"148","category_name":"美容美发店","address":"陆家浜路1527"},{"poiid":"B2094757D069A1F8479C","title":"斜桥游泳馆","lon":"121.48246373","lat":"31.211333897","category":"220","category_name":"运动场所","address":"黄浦区大吉路218号(近西藏南路)"},{"poiid":"B2094757D064A6F9489F","title":"卢浦大桥(徐家汇路口)","lon":"121.480679","lat":"31.210989","category":"500","category_name":"未知分类","address":"上海徐家汇路重庆南路"},{"poiid":"B2094757D66BA5F4489E","title":"亦熠餐厅","lon":"121.481064054","lat":"31.213391793","category":"76","category_name":"上海菜","address":"黄浦区肇周路340号(近建国中路)"},{"poiid":"B2094757D06AAAFC4892","title":"永年别墅","lon":"121.47986173","lat":"31.21191891","category":"47","category_name":"住宅区","address":"上海永年路162号"},{"poiid":"B2094655D265A6F94193","title":"光明牛奶","lon":"121.47958","lat":"31.21215","category":"117","category_name":"便民商店/便利店","address":"顺昌路543"},{"poiid":"B2094757D068ABFB419A","title":"泰煌鸡 黄陂南路店","lon":"121.477455054","lat":"31.213034793","category":"72","category_name":"广东菜","address":"卢湾区黄陂南路807号(近永年路)"},{"poiid":"B2094655D265A6FD459C","title":"东成饮食店","lon":"121.47938","lat":"31.21316","category":"68","category_name":"快餐厅","address":"卢湾区顺昌路485号"},{"poiid":"B2094757D16EAAFE4498","title":"迈阿密汉堡(肇周路店)","lon":"121.4816","lat":"31.21211","category":"68","category_name":"快餐厅","address":"黄浦区肇周路400号(近永年路)"},{"poiid":"B2094655D36DA1F54693","title":"斜桥(制造局路陆家浜路)","lon":"121.4815","lat":"31.21258","category":"38","category_name":"公交车站","address":""},{"poiid":"B2094757D068A7F84092","title":"广东小厨粤菜馆","lon":"121.48101692673","lat":"31.212828028012","category":"72","category_name":"广东菜","address":"黄浦区肇周路368号(近徐家汇路)"},{"poiid":"B2094757D46DA4F5489A","title":"屋里厢农家小菜","lon":"121.479457","lat":"31.212536","category":"87","category_name":"特色／地方风味餐厅","address":"卢湾区顺昌路500号(近建国东路路口)"},{"poiid":"B2094654DA6EA7F44192","title":"品客小站","lon":"121.4816","lat":"31.21273","category":"68","category_name":"快餐厅","address":"黄浦区肇周路395号(近徐家汇路)"},{"poiid":"B2094655D268A2FD4993","title":"打浦社区(西门)","lon":"121.47966","lat":"31.21198","category":"47","category_name":"住宅区","address":"顺昌路557弄1-13号"},{"poiid":"B2094654DA6EA7FA4598","title":"上海市卢湾区顺昌医院(建国东路)","lon":"121.47956","lat":"31.21347","category":"162","category_name":"医院","address":"建国东路80号"},{"poiid":"B2094655D36CA1FF4198","title":"顺昌路徐家汇路","lon":"121.47971","lat":"31.21123","category":"38","category_name":"公交车站","address":""},{"poiid":"B2094654DB6BA4FF4893","title":"快客(肇周路)","lon":"121.4813","lat":"31.2126","category":"117","category_name":"便民商店/便利店","address":"肇周路386"},{"poiid":"B2094654DA6EA7FB4099","title":"程晨理发店","lon":"121.47966","lat":"31.21194","category":"148","category_name":"美容美发店","address":"顺昌路553"},{"poiid":"B2094655D268A2FD499C","title":"永理第三小区南门(永年路)","lon":"121.4811","lat":"31.21235","category":"47","category_name":"住宅区","address":"永年路24弄2-10号"},{"poiid":"B2094654DB6BA4FF4792","title":"思家公寓","lon":"121.48029","lat":"31.213007","category":"47","category_name":"住宅区","address":"建国东路37弄1-2号"},{"poiid":"B2094655D26DA4FA4399","title":"永理第三小区(肇周路)","lon":"121.48107","lat":"31.21263","category":"47","category_name":"住宅区","address":"肇周路384弄1号"},{"poiid":"B2094655D268A7F8429B","title":"顺昌路550弄小区(东门)","lon":"121.47942","lat":"31.21198","category":"47","category_name":"住宅区","address":"顺昌路550弄1-23号"},{"poiid":"B2094654DA6EA7FA4999","title":"侃侃餐厅","lon":"121.47946","lat":"31.21284","category":"257","category_name":"中餐厅","address":"卢湾区顺昌路505号(近永年路)"},{"poiid":"B2094757D164A2FD469C","title":"马当菜场","lon":"121.480084485","lat":"31.21193107","category":"249","category_name":"购物服务","address":"上海合肥路223弄54号"},{"poiid":"B2094654DA6EA7FA479B","title":"建国电影院","lon":"121.48078","lat":"31.21367","category":"178","category_name":"电影院","address":"建国东路11"},{"poiid":"B2094655D268A7F8429A","title":"顺昌路550弄小区","lon":"121.47929","lat":"31.21195","category":"47","category_name":"住宅区","address":"顺昌路550弄1-23号"},{"poiid":"B2094757D068A3FC479B","title":"斜桥","lon":"121.482611","lat":"31.21348","category":"500","category_name":"未知分类","address":"上海斜桥"},{"poiid":"B2094757D66DA4F84192","title":"豪菜馆","lon":"121.47951697","lat":"31.211657584","category":"247","category_name":"餐饮美食","address":"上海顺昌路563弄1号"},{"poiid":"B2094655D36CA0F94992","title":"建国东路","lon":"121.48","lat":"31.21353","category":"38","category_name":"公交车站","address":"上海建国东路39弄"},{"poiid":"B209475DD66DA1FC429F","title":"吉友粥底火锅","lon":"121.480743","lat":"31.213748","category":"247","category_name":"餐饮美食","address":"上海市 上海市建国东路23号(近肇周路)"},{"poiid":"B2094655D36CA0F9499F","title":"建国东路肇周路","lon":"121.48026","lat":"31.21362","category":"38","category_name":"公交车站","address":""},{"poiid":"B2094655D268A7F84193","title":"顺昌路504弄小区(东门)","lon":"121.47928","lat":"31.21276","category":"47","category_name":"住宅区","address":"顺昌路504弄1-8号"},{"poiid":"B2094750DA6EA1F5469D","title":"哈尼甜品","lon":"121.482162","lat":"31.213146","category":"67","category_name":"甜品店","address":"黄浦区大吉路283号(近方斜路)"},{"poiid":"B2094757D06BABFF439B","title":"恒升大厦","lon":"121.4824","lat":"31.21172","category":"252","category_name":"楼宇机构","address":"上海市黄浦区陆家浜路1396-1398号"},{"poiid":"B2094654DB6BA4FF489A","title":"可的(常盛酒楼西)","lon":"121.48008","lat":"31.21346","category":"117","category_name":"便民商店/便利店","address":"建国东路43-47"},{"poiid":"B2094655D36DA0FF4193","title":"徐家汇路重庆南路","lon":"121.48067","lat":"31.21098","category":"38","category_name":"公交车站","address":""},{"poiid":"B2094655D36CA1FF419B","title":"顺昌路建国东路","lon":"121.47906","lat":"31.21428","category":"38","category_name":"公交车站","address":""},{"poiid":"B2094757D769A4F94699","title":"上海砂锅饭店","lon":"121.47780999365","lat":"31.21249952881","category":"76","category_name":"上海菜","address":"卢湾区建国东路125号(顺昌路)"},{"poiid":"B2094655D36DA7F94599","title":"重庆南路","lon":"121.48058","lat":"31.21079","category":"38","category_name":"公交车站","address":""},{"poiid":"B2094752DB6FA1FE409A","title":"新天地","lon":"121.482559","lat":"31.212128","category":"500","category_name":"未知分类","address":"上海市 复兴中路"},{"poiid":"B2094654DA6EA7F44299","title":"上海医学院妇产科学系","lon":"121.48178","lat":"31.21224","category":"52","category_name":"高等院校","address":"肇周路413"},{"poiid":"B2094655D268A7F84192","title":"顺昌路504弄小区","lon":"121.47912","lat":"31.2128","category":"47","category_name":"住宅区","address":"顺昌路504弄1-8号"},{"poiid":"B2094757D065A3FA419E","title":"黄浦学校","lon":"121.48299705","lat":"31.212104623","category":"253","category_name":"校园生活","address":"黄浦区大吉路208号(近西藏南路)"},{"poiid":"B2094655D268A6F8429B","title":"肇周大楼","lon":"121.48229","lat":"31.21171","category":"46","category_name":"楼宇","address":"肇周路421弄"},{"poiid":"B2094654DA6EA7FA459B","title":"良友金伴(建国东路)","lon":"121.47935","lat":"31.2134","category":"117","category_name":"便民商店/便利店","address":"建国东路92"},{"poiid":"B2094757D16AA4FD489E","title":"上海社科院","lon":"121.479635","lat":"31.210817","category":"500","category_name":"未知分类","address":"卢湾区顺昌路622号"},{"poiid":"B2094655D268A2FD499F","title":"梨园坊(北门)","lon":"121.4804","lat":"31.21356","category":"47","category_name":"住宅区","address":"建国东路31弄1-12号"},{"poiid":"B2094654DA6EA7FA4593","title":"龙妹保健品连锁店","lon":"121.47991","lat":"31.21359","category":"162","category_name":"医院","address":"建国东路56"},{"poiid":"B2094654DB6BA4FF479E","title":"大康里小区(建国东路)","lon":"121.4804","lat":"31.21375","category":"47","category_name":"住宅区","address":"建国东路36弄1-101号"},{"poiid":"B2094655D26CA4F9409C","title":"永年路149弄1-59号(永年路)","lon":"121.47874","lat":"31.21189","category":"47","category_name":"住宅区","address":""},{"poiid":"B2094654DA6EA7FA4493","title":"东风腌腊商店","lon":"121.47934","lat":"31.21342","category":"247","category_name":"餐饮美食","address":"卢湾区顺昌路469号(近建国东路)"},{"poiid":"B2094654DB6BA4FF489C","title":"杰杰宠物","lon":"121.48011","lat":"31.21095","category":"129","category_name":"宠物用品店","address":"卢湾区徐家汇路90号(近顺昌路)"},{"poiid":"B2094654DA6EAAF5469B","title":"小刘扦脚","lon":"121.47948","lat":"31.21176","category":"149","category_name":"洗浴推拿场所","address":"黄浦区顺昌路560(近永年路)"},{"poiid":"B2094654DA6EA7FB469D","title":"天天照相艺术婚纱摄影部(肇周路)","lon":"121.48132","lat":"31.21254","category":"248","category_name":"生活娱乐","address":"肇周路390"},{"poiid":"B2094757D66EA7FA4999","title":"公交932路順昌路站","lon":"121.479457","lat":"31.212847","category":"500","category_name":"未知分类","address":"上海順昌路"},{"poiid":"B2094654DB64A4FC4593","title":"南鼎建国大厦(后门)","lon":"121.4815","lat":"31.21387","category":"47","category_name":"住宅区","address":"上海市黄浦区唐家湾路158号"},{"poiid":"B2094655D26FA3FD499F","title":"玫林夫妻肺片","lon":"121.48195","lat":"31.21306","category":"247","category_name":"餐饮美食","address":"大吉路308"},{"poiid":"B2094654DA6EA7FB409A","title":"上海药房顺昌中药店","lon":"121.47951","lat":"31.21254","category":"669","category_name":"药店","address":"顺昌路525-527"},{"poiid":"B2094654DA6DA5FC469F","title":"天天花园","lon":"121.478","lat":"31.2133","category":"47","category_name":"住宅区","address":"徐家汇路518-528"},{"poiid":"B2094654DB6AA6FE469D","title":"中国电信(车墩营业厅)","lon":"121.48104","lat":"31.2138","category":"151","category_name":"电讯营业厅","address":"松江区金三角集资房114房(近马路)"},{"poiid":"B2094655D26CA4F94193","title":"松龄里","lon":"121.47985","lat":"31.21372","category":"47","category_name":"住宅区","address":"建国东路58弄1-2号"},{"poiid":"B2094757D16BA5FE4693","title":"火车票代售点","lon":"121.479873738","lat":"31.2116709047","category":"29","category_name":"火车票代售点","address":"上海多家定票点  "},{"poiid":"B2094757DA69A2FC449E","title":"esee英模","lon":"121.47759646043","lat":"31.21278052027","category":"180","category_name":"剧场","address":"黄陂南路751号1号楼502室"},{"poiid":"B2094655D265A0F84292","title":"绿地卢湾花园","lon":"121.478506","lat":"31.213186","category":"47","category_name":"住宅区","address":"上海市卢湾区徐家汇路569弄"},{"poiid":"B2094655D268A2F9409B","title":"建国东路138弄小区(南门)","lon":"121.47854","lat":"31.2131","category":"47","category_name":"住宅区","address":"建国东路138弄1-17号"},{"poiid":"B2094750DB69A7FE419D","title":"9号线_马当路","lon":"121.478485","lat":"31.211101","category":"500","category_name":"未知分类","address":null},{"poiid":"B2094654DA6EA7F4439B","title":"上海集爱遗传与不育诊疗中心","lon":"121.48261","lat":"31.21192","category":"162","category_name":"医院","address":"黄浦区方斜路588号(近陆家浜路)"},{"poiid":"B2094654DB6BA4FF4799","title":"敬业里(顺昌路)","lon":"121.47928","lat":"31.21368","category":"47","category_name":"住宅区","address":"顺昌路455弄1-4号"},{"poiid":"B2094757D16DA1FB469C","title":"顺昌路永年路","lon":"121.479267338","lat":"31.2105510808","category":"500","category_name":"未知分类","address":"上海顺昌路永年路"},{"poiid":"B2094757D068A5FE4699","title":"家(斜桥公寓)","lon":"121.4817368","lat":"31.211923","category":"500","category_name":"未知分类","address":"上海肇周路421弄2号"},{"poiid":"B2094757D16AA1F5459D","title":"合肥路","lon":"121.47912073","lat":"31.213548944","category":"500","category_name":"未知分类","address":"上海市卢湾区肇周路"},{"poiid":"B2094655D268A2F94098","title":"好德No.3114","lon":"121.47818","lat":"31.21277","category":"117","category_name":"便民商店/便利店","address":"建国东路159"},{"poiid":"B2094757D16BA0FC4792","title":"王老头烧烤","lon":"121.48288","lat":"31.21309","category":"247","category_name":"餐饮美食","address":"黄浦区大吉路525号(方斜路口)"},{"poiid":"B2094757D16BA7F94993","title":"港麗餐廳長寧龍之夢店","lon":"121.480421738","lat":"31.2144219633","category":"500","category_name":"未知分类","address":"上海市長寧路1018號"},{"poiid":"B2094654DB6BA4FF499E","title":"复旦大学附属妇产科医院门诊部","lon":"121.4827","lat":"31.21201","category":"162","category_name":"医院","address":"方斜路566号"},{"poiid":"B2094655D268A5FF439F","title":"顺昌路444弄小区(东门)","lon":"121.47902","lat":"31.21376","category":"47","category_name":"住宅区","address":"顺昌路444弄1-2号"},{"poiid":"B2094655D268A2F84993","title":"建国东路138弄小区","lon":"121.4785","lat":"31.21324","category":"47","category_name":"住宅区","address":"建国东路138弄1-17号"},{"poiid":"B2094654DA6EA7F4449F","title":"怡怡庐","lon":"121.48232","lat":"31.21278","category":"47","category_name":"住宅区","address":"方斜路524弄1-2号"},{"poiid":"B2094654DA68A7F5479C","title":"银杏家园","lon":"121.48180179707","lat":"31.210159776409","category":"47","category_name":"住宅区","address":"银杏家园位于静安鲁班路277号"},{"poiid":"B2094757D165A5F94192","title":"瑞金医院口腔科","lon":"121.47926573","lat":"31.209942867","category":"162","category_name":"医院","address":"上海市建国东路"},{"poiid":"B2094654DA6EAAF5439B","title":"哈妮宠物乐园","lon":"121.4789","lat":"31.21304","category":"129","category_name":"宠物用品店","address":"卢湾区建国东路111号(顺昌路口)"},{"poiid":"B2094654DB6BA4FF4798","title":"寿华邨小区(顺昌路)","lon":"121.47946","lat":"31.2141","category":"47","category_name":"住宅区","address":"顺昌路425弄1-11号"},{"poiid":"B2094654DA6EAAF5489B","title":"华联超市No.1025","lon":"121.47965","lat":"31.21051","category":"118","category_name":"超级市场","address":"徐家汇路126"},{"poiid":"B2094655D36DA0FF419D","title":"徐家汇路黄陂南路","lon":"121.47971","lat":"31.21013","category":"38","category_name":"公交车站","address":""},{"poiid":"B209475CD36EA4F5469C","title":"老绍兴豆浆店","lon":"121.481126","lat":"31.214292","category":"68","category_name":"快餐厅","address":"肇周路309号(建国新路口)"},{"poiid":"B2094751D56AAAFC479D","title":"虹口体育场","lon":"121.479507","lat":"31.214523","category":"500","category_name":"未知分类","address":"虹口体育场"},{"poiid":"B2094654DA6EAAF4489F","title":"侃侃棋牌室","lon":"121.47911","lat":"31.21355","category":"175","category_name":"棋牌室","address":"卢湾区建国东路(顺昌路口)"},{"poiid":"B2094757D56EA2FE429A","title":"健康煮时尚迷你锅","lon":"121.479714","lat":"31.210135","category":"86","category_name":"火锅店","address":"上海日月光中心B2"},{"poiid":"B2094654DA68A0F44693","title":"中国工商银行徐家汇路支行","lon":"121.48088","lat":"31.21055","category":"150","category_name":"银行","address":"卢湾区徐家汇路9号近制造局路(顺昌路徐家汇路)"},{"poiid":"B2094757D065A4F4499D","title":"局门路徐家汇路口","lon":"121.480478","lat":"31.209931","category":"500","category_name":"未知分类","address":"上海局门路徐家汇路口"},{"poiid":"B2094654DA6EAAF5419A","title":"红房子西点部","lon":"121.47787","lat":"31.21268","category":"67","category_name":"甜品店","address":"卢湾区建国东路179号(黄陂南路建国东路)"},{"poiid":"B2094750DB68AAF44492","title":"思南公馆慧公馆","lon":"121.479362","lat":"31.210035","category":"247","category_name":"餐饮美食","address":null},{"poiid":"B2094654DA68A0F4409E","title":"快客No.6896","lon":"121.48249","lat":"31.21114","category":"117","category_name":"便民商店/便利店","address":"陆家浜路1396"},{"poiid":"B2094655D268A3FB469F","title":"大康里小区(东门)","lon":"121.48084","lat":"31.21429","category":"47","category_name":"住宅区","address":"肇周路298弄1-2号"},{"poiid":"B2094655D26AA3FC4592","title":"治.beauté","lon":"121.47786","lat":"31.21333","category":"247","category_name":"餐饮美食","address":"卢湾区黄陂南路751号汇针创意园2号楼(近新天地)"},{"poiid":"B2094654DA6FA3FD439F","title":"光明便利No.109","lon":"121.47768","lat":"31.21239","category":"117","category_name":"便民商店/便利店","address":"黄陂南路783-2"},{"poiid":"B2094757D16CA6FC499B","title":"园景苑","lon":"121.48133","lat":"31.210024","category":"252","category_name":"楼宇机构","address":"上海市卢湾区徐家汇路1弄"},{"poiid":"B2094757D16CA5FE419E","title":"中国建设银行(徐家汇路支行)","lon":"121.48177","lat":"31.21126","category":"150","category_name":"银行","address":"卢湾区徐家汇路28号(近肇周路)"},{"poiid":"B2094655D268A2F94493","title":"怡怡庐(东门)","lon":"121.48258","lat":"31.21286","category":"47","category_name":"住宅区","address":"方斜路524弄1-2号"},{"poiid":"B2094757D16AA6FA499F","title":"阿能面馆","lon":"121.48228308","lat":"31.213604945","category":"247","category_name":"餐饮美食","address":"上海厉城路108号"},{"poiid":"B2094654DA68A0F44692","title":"园景苑(东门)","lon":"121.48199","lat":"31.21052","category":"656","category_name":"大门","address":"徐家汇路1弄1-12号"},{"poiid":"B2094757D16AA6FC4298","title":"联华超市（永年路店）","lon":"121.47833252","lat":"31.2119827271","category":"249","category_name":"购物服务","address":"上海永年路162号"},{"poiid":"B2094757D568A5F44792","title":"上海市审计局审计培训中心","lon":"121.482586","lat":"31.2106817","category":"190","category_name":"培训机构","address":"中国上海市黄浦区制造局路43"},{"poiid":"B2094655D268A5FF4399","title":"顺昌路424弄小区(东门)","lon":"121.47896","lat":"31.21414","category":"47","category_name":"住宅区","address":"顺昌路424弄1-70号"},{"poiid":"B2094750D364A7FB439E","title":"阿治造型","lon":"121.47765852963","lat":"31.213048880657","category":"148","category_name":"美容美发店","address":"黄陂南路751号2号楼101(进建国东路)"},{"poiid":"B2094654DB69A5F9489A","title":"真锅咖啡(局门店)","lon":"121.47973","lat":"31.20984","category":"65","category_name":"咖啡厅","address":"卢湾区徐家汇路105号"},{"poiid":"B209475CD264A1F84898","title":"米店画室","lon":"121.482224","lat":"31.211333","category":"248","category_name":"生活娱乐","address":"陆家浜路1396号 恒升大厦5层 B505"},{"poiid":"B2094752D06DA3FD409C","title":"瑞视眼科","lon":"121.4789118","lat":"31.2146589","category":"162","category_name":"医院","address":"西藏南路758号，建国新路"},{"poiid":"B2094655D268A5FF4398","title":"顺昌路424弄小区","lon":"121.47873","lat":"31.21408","category":"47","category_name":"住宅区","address":"顺昌路424弄1-70号"},{"poiid":"B209475DD16BAAFB479A","title":"花蒲甜品","lon":"121.479408","lat":"31.214902","category":"247","category_name":"餐饮美食","address":"上海市 马当路245号新天地时尚1楼107室(自忠路)"},{"poiid":"B2094757D16BA6F8419E","title":"18路 斜桥站","lon":"121.48173773","lat":"31.210955889","category":"500","category_name":"未知分类","address":"上海肇周路"},{"poiid":"B2094655D268A3FB4699","title":"鸿宇里","lon":"121.47936","lat":"31.21445","category":"47","category_name":"住宅区","address":"顺昌路409弄1-9号"},{"poiid":"B2094654DA68A0F4409C","title":"铃兰名媛汇","lon":"121.48225","lat":"31.21085","category":"148","category_name":"美容美发店","address":""},{"poiid":"B209475CD169A4FF4498","title":"正大广场","lon":"121.48146","lat":"31.209987","category":"500","category_name":"未知分类","address":"上海市 陆家嘴"},{"poiid":"B2094654DB6BA4FF4693","title":"伟成里小区(东门)","lon":"121.48072","lat":"31.21506","category":"47","category_name":"住宅区","address":"肇周路224弄1-63号"},{"poiid":"B2094655D268A3FB469E","title":"鸿宇里(西门)","lon":"121.47914","lat":"31.21441","category":"47","category_name":"住宅区","address":"顺昌路409弄1-9号"},{"poiid":"B2094757D069A2FF4699","title":"喜士多便利(制造局路店)","lon":"121.482168514","lat":"31.2102784003","category":"117","category_name":"便民商店/便利店","address":"卢湾区制造局路18-20号(近陆家浜路)"},{"poiid":"B2094654DA68A0F4489B","title":"文峰美发美容徐家汇路店","lon":"121.47956","lat":"31.20979","category":"148","category_name":"美容美发店","address":"徐家汇路115"},{"poiid":"B2094757D064A4FE459B","title":"卢湾区顺昌路424弄","lon":"121.47900773","lat":"31.213972953","category":"500","category_name":"未知分类","address":"上海卢湾区顺昌路424弄"},{"poiid":"B2094757D16EA1F9459E","title":"阳阳工作室","lon":"121.47836533","lat":"31.21333334","category":"148","category_name":"美容美发店","address":"上海黄陂南路718号"},{"poiid":"B2094753D56FA4F54392","title":"便所餐厅","lon":"121.479049","lat":"31.214321","category":"500","category_name":"未知分类","address":"上海市 上海市泰康路田子坊"},{"poiid":"B2094753D76CA7FB4298","title":"上海交大医学院","lon":"121.479301","lat":"31.214441","category":"500","category_name":"未知分类","address":"上海市 卢湾区重庆南路227号"},{"poiid":"B2094757D168A7FC449F","title":"红房子体检中心","lon":"121.482608738","lat":"31.2114939009","category":"500","category_name":"未知分类","address":"上海方斜路506号"},{"poiid":"B2094757D165A5FF4899","title":"第一医药蒙自店","lon":"121.479007738","lat":"31.2139729537","category":"500","category_name":"未知分类","address":"卢湾区蒙自路482号(瞿溪路蒙自路)"},{"poiid":"B2094757D165A4FA4093","title":"新黄浦公证处","lon":"121.48299773","lat":"31.212185915","category":"500","category_name":"未知分类","address":"上海市黄浦区陆家浜路1295号6楼"},{"poiid":"B2094654DB69ABF44192","title":"松松专业按摩(新家坡店)","lon":"121.48198","lat":"31.21052","category":"149","category_name":"洗浴推拿场所","address":"卢湾区徐家汇路1弄新家坡园景苑11号(近制造局路)"},{"poiid":"B2094757D065ABFD469F","title":"联通中区","lon":"121.48250473","lat":"31.211164893","category":"252","category_name":"楼宇机构","address":"上海市黄浦区万事利大厦"},{"poiid":"B2094750D06CA1F84399","title":"健之星瑜伽健身会馆","lon":"121.48236","lat":"31.211238","category":"248","category_name":"生活娱乐","address":null},{"poiid":"B209475DD16CA0FF4693","title":"新天地时尚购物中心","lon":"121.479713","lat":"31.214609","category":"500","category_name":"未知分类","address":"上海市 上海新天地"},{"poiid":"B2094655D268A3FB469D","title":"启仁坊","lon":"121.48135","lat":"31.21485","category":"47","category_name":"住宅区","address":"肇周路281弄1-21号"},{"poiid":"B2094757D06BA4FD489D","title":"肇周路冷馄饨","lon":"121.479276738","lat":"31.2099688684","category":"500","category_name":"未知分类","address":"上海肇周路213号"},{"poiid":"B2094757D16BA6FF409B","title":"上海社会科学进修学院","lon":"121.4796938","lat":"31.210827237","category":"260","category_name":"其他","address":"卢湾区顺昌路622号(近徐家汇路)"},{"poiid":"B2094757D16BA2F9429A","title":"唐家湾路","lon":"121.48174073","lat":"31.21475597","category":"500","category_name":"未知分类","address":"上海唐家湾路"},{"poiid":"B2094752D06CA6FB439D","title":"瑞金宾馆","lon":"121.477852","lat":"31.213028","category":"217","category_name":"旅馆招待所","address":null},{"poiid":"B2094757D569A7F5419E","title":"康源足部保健中心","lon":"121.4819861","lat":"31.21051889","category":"149","category_name":"洗浴推拿场所","address":"卢湾区徐家汇路1弄11号1楼(制造局路口)"},{"poiid":"B2094654DA68A0F4479D","title":"中国建设银行上海徐家汇路支行","lon":"121.48015","lat":"31.20999","category":"150","category_name":"银行","address":"徐家汇路103"},{"poiid":"B2094654DA6FA3FD4492","title":"751文化研究所","lon":"121.47786","lat":"31.21333","category":"191","category_name":"科研机构","address":"卢湾区黄陂南路751号卢湾都市型工业楼宇1号楼4层"},{"poiid":"B2094757D169A0F4439B","title":"17路顺昌路建国东路站","lon":"121.478256168","lat":"31.2139072523","category":"500","category_name":"未知分类","address":"上海顺昌路建国东路"},{"poiid":"B2094757D169A6F4429C","title":"Xintiandi Style","lon":"121.479415894","lat":"31.2148323059","category":"500","category_name":"未知分类","address":"上海馬當路"},{"poiid":"B2094757D064A7FB459D","title":"市南邮政局","lon":"121.481491738","lat":"31.2146399679","category":"500","category_name":"未知分类","address":"上海西藏南路827号近大吉路"},{"poiid":"B2094757D66DA6FA4993","title":"JK新日式造型","lon":"121.481420538","lat":"31.2146036671","category":"500","category_name":"未知分类","address":"黄浦区肇周路213号(近西藏南路)"},{"poiid":"B2094757D66DA0FB4699","title":"薇薇安娜宠物商店","lon":"121.482462","lat":"31.210511","category":"249","category_name":"购物服务","address":"上海制造局路1383弄"},{"poiid":"B2094757D66AA1F54998","title":"真锅咖啡厅 局门路店 Manabe","lon":"121.47978580961","lat":"31.210096073899","category":"260","category_name":"其他","address":"卢湾区徐家汇路105号(近局门路)"},{"poiid":"B2094757D66DA3FE4299","title":"百汇大厦","lon":"121.48029","lat":"31.209923","category":"260","category_name":"其他","address":"上海徐家汇路101号"},{"poiid":"B2094655D26FA7F4489B","title":"明华大厦太古豪庭(南门)","lon":"121.48294","lat":"31.21269","category":"656","category_name":"大门","address":"方斜路525弄"},{"poiid":"B2094654DA68A0F44793","title":"中汇公寓(北门)","lon":"121.48001","lat":"31.20993","category":"656","category_name":"大门","address":"打浦桥"},{"poiid":"B2094655D268A4FB4598","title":"明华大厦太古豪庭(西门)","lon":"121.48302","lat":"31.21269","category":"656","category_name":"大门","address":"方斜路525弄"},{"poiid":"B2094655D268A3FB469C","title":"启仁坊(西门)","lon":"121.48104","lat":"31.21483","category":"656","category_name":"大门","address":"肇周路281弄1-21号"}]