[{"poiid":"B2094757D465A4FB409B","title":"顶特勒粥面馆","lon":"121.469218054","lat":"31.221221793","category":"68","category_name":"快餐厅","address":"卢湾区淮海中路494弄22号(近雁荡路)"},{"poiid":"B2094654DB69A4FE4392","title":"钱柜(卢湾店)","lon":"121.46958","lat":"31.21854","category":"170","category_name":"KTV","address":"卢湾区雁荡路109号复兴公园内(近复兴中路)"},{"poiid":"B2094654DA6DABFA499E","title":"味香斋","lon":"121.46993580196","lat":"31.221233069029","category":"68","category_name":"快餐厅","address":"卢湾区雁荡路14号(近淮海中路)"},{"poiid":"B2094753D76FAAFA449C","title":"上海滩国泰旗舰店","lon":"121.466011","lat":"31.216125","category":"249","category_name":"购物服务","address":"淮海中路868号"},{"poiid":"B209475CD564A7F84292","title":"上海滩新天地店","lon":"121.47463","lat":"31.22164","category":"119","category_name":"商场","address":"\"太仓路181弄新天地北里15号\r\n\""},{"poiid":"B209475CD564A7F8439E","title":"上海滩中信泰富店","lon":"121.45602","lat":"31.22851","category":"119","category_name":"商场","address":"\"南京西路1168号中信泰富广场，店铺号221.\r\n\""},{"poiid":"B2094757D06FA2F54392","title":"淮海中路雁荡路","lon":"121.469795542","lat":"31.2212911035","category":"260","category_name":"其他","address":"上海淮海中路雁荡路"},{"poiid":"B2094751D56FABF84099","title":"Pizza Marzano 比萨马上诺（上海K11店）","lon":"121.470165","lat":"31.219408","category":"247","category_name":"餐饮美食","address":"上海市 淮海中路300号上海K11购物艺术中心403"},{"poiid":"B2094757D064A5FD489B","title":"典谟新知咖啡馆","lon":"121.470884738","lat":"31.2210811051","category":"260","category_name":"其他","address":"卢湾区兴安路139号(近淮海路雁荡路)"},{"poiid":"B2094751D56FABFF499A","title":"Home Thai（上海K11店）","lon":"121.471195","lat":"31.220142","category":"247","category_name":"餐饮美食","address":"上海市 淮海中路300号上海K11购物艺术中心401"},{"poiid":"B2094757DB6AA4F5439F","title":"猫的天空之城","lon":"121.470243","lat":"31.218327","category":"248","category_name":"生活娱乐","address":"马当路245号新天地时尚购物广场B112号(近自忠路)"},{"poiid":"B2094757D064A5FA479F","title":"悦满糖","lon":"121.469785238","lat":"31.2202659878","category":"500","category_name":"未知分类","address":"上海卢湾区雁荡路25号"},{"poiid":"B2094757D06FA5FC429C","title":"韩蒸天下养生馆","lon":"121.46975773","lat":"31.220693096","category":"149","category_name":"洗浴推拿场所","address":"卢湾区雁荡路29号5楼(近淮海中路)"},{"poiid":"B2094757D06FA0FC4198","title":"一品粤珍(淮海中路店)","lon":"121.46927","lat":"31.22027","category":"72","category_name":"广东菜","address":"卢湾区淮海中路527号锦江国际购物中心7楼(近雁荡路)"},{"poiid":"B2094750D56EA5F5419C","title":"say cheese 甜品.家","lon":"121.471335","lat":"31.220279","category":"247","category_name":"餐饮美食","address":"卢湾区重庆南路30弄1号(近淮海中路)"},{"poiid":"B2094757D06FA2FE4792","title":"鲜得来排骨年糕(雁荡店)","lon":"121.47033","lat":"31.22059","category":"68","category_name":"快餐厅","address":"卢湾区雁荡路9号(近兴安路)"},{"poiid":"B2094757D06FA7FC4693","title":"Nuevo 66 Coffee in Coffee","lon":"121.46992","lat":"31.2192","category":"260","category_name":"其他","address":"卢湾区南昌路66号(近雁荡路)"},{"poiid":"B2094751D56FABFF4592","title":"Charme 港丽（上海K11店）","lon":"121.471367","lat":"31.219261","category":"247","category_name":"餐饮美食","address":"上海市 淮海中路300号上海K11购物艺术中心301/307"},{"poiid":"B2094757D06FA3F84099","title":"新贝乐比萨屋 雁荡路店","lon":"121.470030054","lat":"31.220020793","category":"94","category_name":"西餐厅","address":"卢湾区雁荡路33号(近南昌路)"},{"poiid":"B2094751D56FABFF499C","title":"Element Fresh 新元素（上海K11店）","lon":"121.471024","lat":"31.219848","category":"247","category_name":"餐饮美食","address":"上海市 淮海中路300号上海K11购物艺术中心402"},{"poiid":"B2094654DB6BA4FE4393","title":"瑞金大厦","lon":"121.469","lat":"31.2198","category":"46","category_name":"楼宇","address":"上海茂名南路205号"},{"poiid":"B2094654DA6DABFA479D","title":"满迪牛排馆","lon":"121.46996","lat":"31.21979","category":"94","category_name":"西餐厅","address":"卢湾区雁荡路69号(近南昌路)"},{"poiid":"B2094751D56FABFF4698","title":"Gatten Sushi 合点寿司（上海K11店）","lon":"121.470852","lat":"31.220142","category":"247","category_name":"餐饮美食","address":"上海市 淮海中路300号上海K11购物艺术中心302"},{"poiid":"B2094757D06BA7FB489F","title":"新贝乐意式餐厅(雁荡路店)","lon":"121.46901273","lat":"31.2208641","category":"500","category_name":"未知分类","address":"上海市卢湾区雁荡路33号"},{"poiid":"B2094751D56FABF8419B","title":"Celeb de Tomato 铭品番茄（上海K11店）","lon":"121.470852","lat":"31.219114","category":"247","category_name":"餐饮美食","address":"上海市 淮海中路300号上海K11购物艺术中心406"},{"poiid":"B2094757D06FAAF5449C","title":"火山碳烤鱼(复兴店)","lon":"121.46989","lat":"31.21906","category":"71","category_name":"四川菜","address":"卢湾区南昌路70号(雁荡路口)"},{"poiid":"B2094751D56FABFA409C","title":"Baker&Spice 香溢培客（上海K11店）","lon":"121.470852","lat":"31.219701","category":"247","category_name":"餐饮美食","address":"上海市 淮海中路300号上海K11购物艺术中心B127-B129"},{"poiid":"B2094654DB6AA6F84698","title":"上海璞邸精品酒店","lon":"121.47023","lat":"31.21926","category":"213","category_name":"五星级宾馆","address":"卢湾区雁荡路99号(近南昌路)"},{"poiid":"B2094757D06FAAFD479C","title":"兴和港式茶餐厅","lon":"121.47004699","lat":"31.220336914","category":"72","category_name":"广东菜","address":"卢湾区雁荡路37号(近复兴公园)"},{"poiid":"B2094750D768A7FE4099","title":"Season三层堂和牛料理","lon":"121.469","lat":"31.221","category":"95","category_name":"日本料理","address":"卢湾区淮海中路542弄2号(近成都南路)"},{"poiid":"B2094751D56FABFF4693","title":"Hanamaru Udon 花丸乌冬面（上海K11店）","lon":"121.471539","lat":"31.219555","category":"247","category_name":"餐饮美食","address":"上海市 淮海中路300号上海K11购物艺术中心304"},{"poiid":"B2094757D069A2FD419E","title":"洁而精川菜馆","lon":"121.46946988001","lat":"31.219134393624","category":"71","category_name":"四川菜","address":"卢湾区雁荡路82号(近南昌路)"},{"poiid":"B2094654DB65A3F54692","title":"上海锦江国际购物中心商务写字楼","lon":"121.469","lat":"31.22054","category":"46","category_name":"楼宇","address":"淮海中路527号"},{"poiid":"B2094757D06FA6FC449B","title":"京世造型(雁荡店)","lon":"121.469967","lat":"31.221091","category":"148","category_name":"美容美发店","address":"上海卢湾区雁荡路5号2楼(淮海中路口)"},{"poiid":"B2094757D06AA6FD4099","title":"共青团中央机关旧址纪念馆","lon":"121.46864","lat":"31.22028","category":"179","category_name":"音乐厅","address":"上海卢湾区淮海中路567弄2号(近成都南路)"},{"poiid":"B2094654DA6EA1F9499F","title":"民防大厦","lon":"121.471","lat":"31.2202","category":"46","category_name":"楼宇","address":"龙蟠南路33号(龙蟠南路与秦虹路交汇处,秦淮区政府对面)"},{"poiid":"B2094757D06BA5F44892","title":"鲜得来","lon":"121.46988673","lat":"31.220740097","category":"247","category_name":"餐饮美食","address":"上海市卢湾区雁荡路13号"},{"poiid":"B2094757D069A4FF4699","title":"lv旗舰店","lon":"121.47127873","lat":"31.220801099","category":"500","category_name":"未知分类","address":"上海淮海路嵩山路"},{"poiid":"B2094757D464ABF4459A","title":"金城酒家","lon":"121.47037211893","lat":"31.220679186676","category":"76","category_name":"上海菜","address":"卢湾区兴安路149号(近雁荡路)"},{"poiid":"B2094654DA6DABFB489D","title":"上海锦江国际购物中心","lon":"121.469","lat":"31.22054","category":"119","category_name":"商场","address":"朝阳区北三环东路与京顺路交接处路口北侧"},{"poiid":"B2094757D66AA0F5429B","title":"罗贝拉冰淇淋 La Perla","lon":"121.470134054","lat":"31.220102793","category":"67","category_name":"甜品店","address":"卢湾区雁荡路21号(近兴安路)"},{"poiid":"B2094654DA6DABFB479A","title":"兴安餐厅","lon":"121.470078054","lat":"31.220802793","category":"68","category_name":"快餐厅","address":"卢湾区兴安路145号(近雁荡路)"},{"poiid":"B2094751D56FABF4409C","title":"Costa 咖世家（上海K11店）","lon":"121.471367","lat":"31.219701","category":"247","category_name":"餐饮美食","address":"淮海中路300号上海K11购物艺术中心B223/B225"},{"poiid":"B2094655D26BA3FB419C","title":"VIVAN婚纱","lon":"121.46997","lat":"31.21851","category":"141","category_name":"服装鞋帽皮具店","address":"卢湾区雁荡路107号雁荡大厦10楼H座(近复兴公园)"},{"poiid":"B2094654DA6DABFA459D","title":"科学会堂(雁荡路)","lon":"121.46915","lat":"31.21877","category":"185","category_name":"会展中心","address":"卢湾区南昌路47号"},{"poiid":"B2094750D165A7FC489D","title":"城汇大厦","lon":"121.470672","lat":"31.219001","category":"252","category_name":"楼宇机构","address":"南昌路45号"},{"poiid":"B2094751DA6EA0F8459D","title":"W","lon":"121.469925","lat":"31.219284","category":"247","category_name":"餐饮美食","address":"上海市盧灣區南昌路62號"},{"poiid":"B2094757D06AAAFE4499","title":"佳鸣海鲜火锅楼","lon":"121.470263","lat":"31.220876","category":"86","category_name":"火锅店","address":"卢湾区兴安路167号(近雁荡路)"},{"poiid":"B2094757D06FA4FA469A","title":"大花桌游(淮海中路店)","lon":"121.46994","lat":"31.22109","category":"175","category_name":"棋牌室","address":"上海卢湾区淮海中路461号9楼68室"},{"poiid":"B2094751D56FABF84092","title":"Azul Urban（上海K11店）","lon":"121.470509","lat":"31.220142","category":"247","category_name":"餐饮美食","address":"上海市 淮海中路300号上海K11购物艺术中心404"},{"poiid":"B2094757D465A4FB409B","title":"顶特勒粥面馆","lon":"121.469218054","lat":"31.221221793","category":"68","category_name":"快餐厅","address":"卢湾区淮海中路494弄22号(近雁荡路)"},{"poiid":"B2094654DB69A4FE4392","title":"钱柜(卢湾店)","lon":"121.46958","lat":"31.21854","category":"170","category_name":"KTV","address":"卢湾区雁荡路109号复兴公园内(近复兴中路)"},{"poiid":"B2094654DA6DABFA499E","title":"味香斋","lon":"121.46993580196","lat":"31.221233069029","category":"68","category_name":"快餐厅","address":"卢湾区雁荡路14号(近淮海中路)"},{"poiid":"B2094753D76FAAFA449C","title":"上海滩国泰旗舰店","lon":"121.466011","lat":"31.216125","category":"249","category_name":"购物服务","address":"淮海中路868号"},{"poiid":"B209475CD564A7F84292","title":"上海滩新天地店","lon":"121.47463","lat":"31.22164","category":"119","category_name":"商场","address":"\"太仓路181弄新天地北里15号\r\n\""},{"poiid":"B209475CD564A7F8439E","title":"上海滩中信泰富店","lon":"121.45602","lat":"31.22851","category":"119","category_name":"商场","address":"\"南京西路1168号中信泰富广场，店铺号221.\r\n\""},{"poiid":"B2094757D06FA2F54392","title":"淮海中路雁荡路","lon":"121.469795542","lat":"31.2212911035","category":"260","category_name":"其他","address":"上海淮海中路雁荡路"},{"poiid":"B2094751D56FABF84099","title":"Pizza Marzano 比萨马上诺（上海K11店）","lon":"121.470165","lat":"31.219408","category":"247","category_name":"餐饮美食","address":"上海市 淮海中路300号上海K11购物艺术中心403"},{"poiid":"B2094757D064A5FD489B","title":"典谟新知咖啡馆","lon":"121.470884738","lat":"31.2210811051","category":"260","category_name":"其他","address":"卢湾区兴安路139号(近淮海路雁荡路)"},{"poiid":"B2094751D56FABFF499A","title":"Home Thai（上海K11店）","lon":"121.471195","lat":"31.220142","category":"247","category_name":"餐饮美食","address":"上海市 淮海中路300号上海K11购物艺术中心401"},{"poiid":"B2094757DB6AA4F5439F","title":"猫的天空之城","lon":"121.470243","lat":"31.218327","category":"248","category_name":"生活娱乐","address":"马当路245号新天地时尚购物广场B112号(近自忠路)"},{"poiid":"B2094757D064A5FA479F","title":"悦满糖","lon":"121.469785238","lat":"31.2202659878","category":"500","category_name":"未知分类","address":"上海卢湾区雁荡路25号"},{"poiid":"B2094757D06FA5FC429C","title":"韩蒸天下养生馆","lon":"121.46975773","lat":"31.220693096","category":"149","category_name":"洗浴推拿场所","address":"卢湾区雁荡路29号5楼(近淮海中路)"},{"poiid":"B2094757D06FA0FC4198","title":"一品粤珍(淮海中路店)","lon":"121.46927","lat":"31.22027","category":"72","category_name":"广东菜","address":"卢湾区淮海中路527号锦江国际购物中心7楼(近雁荡路)"},{"poiid":"B2094750D56EA5F5419C","title":"say cheese 甜品.家","lon":"121.471335","lat":"31.220279","category":"247","category_name":"餐饮美食","address":"卢湾区重庆南路30弄1号(近淮海中路)"},{"poiid":"B2094757D06FA2FE4792","title":"鲜得来排骨年糕(雁荡店)","lon":"121.47033","lat":"31.22059","category":"68","category_name":"快餐厅","address":"卢湾区雁荡路9号(近兴安路)"},{"poiid":"B2094757D06FA7FC4693","title":"Nuevo 66 Coffee in Coffee","lon":"121.46992","lat":"31.2192","category":"260","category_name":"其他","address":"卢湾区南昌路66号(近雁荡路)"},{"poiid":"B2094751D56FABFF4592","title":"Charme 港丽（上海K11店）","lon":"121.471367","lat":"31.219261","category":"247","category_name":"餐饮美食","address":"上海市 淮海中路300号上海K11购物艺术中心301/307"},{"poiid":"B2094757D06FA3F84099","title":"新贝乐比萨屋 雁荡路店","lon":"121.470030054","lat":"31.220020793","category":"94","category_name":"西餐厅","address":"卢湾区雁荡路33号(近南昌路)"},{"poiid":"B2094751D56FABFF499C","title":"Element Fresh 新元素（上海K11店）","lon":"121.471024","lat":"31.219848","category":"247","category_name":"餐饮美食","address":"上海市 淮海中路300号上海K11购物艺术中心402"},{"poiid":"B2094654DB6BA4FE4393","title":"瑞金大厦","lon":"121.469","lat":"31.2198","category":"46","category_name":"楼宇","address":"上海茂名南路205号"},{"poiid":"B2094654DA6DABFA479D","title":"满迪牛排馆","lon":"121.46996","lat":"31.21979","category":"94","category_name":"西餐厅","address":"卢湾区雁荡路69号(近南昌路)"},{"poiid":"B2094751D56FABFF4698","title":"Gatten Sushi 合点寿司（上海K11店）","lon":"121.470852","lat":"31.220142","category":"247","category_name":"餐饮美食","address":"上海市 淮海中路300号上海K11购物艺术中心302"},{"poiid":"B2094757D06BA7FB489F","title":"新贝乐意式餐厅(雁荡路店)","lon":"121.46901273","lat":"31.2208641","category":"500","category_name":"未知分类","address":"上海市卢湾区雁荡路33号"},{"poiid":"B2094751D56FABF8419B","title":"Celeb de Tomato 铭品番茄（上海K11店）","lon":"121.470852","lat":"31.219114","category":"247","category_name":"餐饮美食","address":"上海市 淮海中路300号上海K11购物艺术中心406"},{"poiid":"B2094757D06FAAF5449C","title":"火山碳烤鱼(复兴店)","lon":"121.46989","lat":"31.21906","category":"71","category_name":"四川菜","address":"卢湾区南昌路70号(雁荡路口)"},{"poiid":"B2094751D56FABFA409C","title":"Baker&Spice 香溢培客（上海K11店）","lon":"121.470852","lat":"31.219701","category":"247","category_name":"餐饮美食","address":"上海市 淮海中路300号上海K11购物艺术中心B127-B129"},{"poiid":"B2094654DB6AA6F84698","title":"上海璞邸精品酒店","lon":"121.47023","lat":"31.21926","category":"213","category_name":"五星级宾馆","address":"卢湾区雁荡路99号(近南昌路)"},{"poiid":"B2094757D06FAAFD479C","title":"兴和港式茶餐厅","lon":"121.47004699","lat":"31.220336914","category":"72","category_name":"广东菜","address":"卢湾区雁荡路37号(近复兴公园)"},{"poiid":"B2094750D768A7FE4099","title":"Season三层堂和牛料理","lon":"121.469","lat":"31.221","category":"95","category_name":"日本料理","address":"卢湾区淮海中路542弄2号(近成都南路)"},{"poiid":"B2094751D56FABFF4693","title":"Hanamaru Udon 花丸乌冬面（上海K11店）","lon":"121.471539","lat":"31.219555","category":"247","category_name":"餐饮美食","address":"上海市 淮海中路300号上海K11购物艺术中心304"},{"poiid":"B2094757D069A2FD419E","title":"洁而精川菜馆","lon":"121.46946988001","lat":"31.219134393624","category":"71","category_name":"四川菜","address":"卢湾区雁荡路82号(近南昌路)"},{"poiid":"B2094654DB65A3F54692","title":"上海锦江国际购物中心商务写字楼","lon":"121.469","lat":"31.22054","category":"46","category_name":"楼宇","address":"淮海中路527号"},{"poiid":"B2094757D06FA6FC449B","title":"京世造型(雁荡店)","lon":"121.469967","lat":"31.221091","category":"148","category_name":"美容美发店","address":"上海卢湾区雁荡路5号2楼(淮海中路口)"},{"poiid":"B2094757D06AA6FD4099","title":"共青团中央机关旧址纪念馆","lon":"121.46864","lat":"31.22028","category":"179","category_name":"音乐厅","address":"上海卢湾区淮海中路567弄2号(近成都南路)"},{"poiid":"B2094654DA6EA1F9499F","title":"民防大厦","lon":"121.471","lat":"31.2202","category":"46","category_name":"楼宇","address":"龙蟠南路33号(龙蟠南路与秦虹路交汇处,秦淮区政府对面)"},{"poiid":"B2094757D06BA5F44892","title":"鲜得来","lon":"121.46988673","lat":"31.220740097","category":"247","category_name":"餐饮美食","address":"上海市卢湾区雁荡路13号"},{"poiid":"B2094757D069A4FF4699","title":"lv旗舰店","lon":"121.47127873","lat":"31.220801099","category":"500","category_name":"未知分类","address":"上海淮海路嵩山路"},{"poiid":"B2094757D464ABF4459A","title":"金城酒家","lon":"121.47037211893","lat":"31.220679186676","category":"76","category_name":"上海菜","address":"卢湾区兴安路149号(近雁荡路)"},{"poiid":"B2094654DA6DABFB489D","title":"上海锦江国际购物中心","lon":"121.469","lat":"31.22054","category":"119","category_name":"商场","address":"朝阳区北三环东路与京顺路交接处路口北侧"},{"poiid":"B2094757D66AA0F5429B","title":"罗贝拉冰淇淋 La Perla","lon":"121.470134054","lat":"31.220102793","category":"67","category_name":"甜品店","address":"卢湾区雁荡路21号(近兴安路)"},{"poiid":"B2094654DA6DABFB479A","title":"兴安餐厅","lon":"121.470078054","lat":"31.220802793","category":"68","category_name":"快餐厅","address":"卢湾区兴安路145号(近雁荡路)"},{"poiid":"B2094751D56FABF4409C","title":"Costa 咖世家（上海K11店）","lon":"121.471367","lat":"31.219701","category":"247","category_name":"餐饮美食","address":"淮海中路300号上海K11购物艺术中心B223/B225"},{"poiid":"B2094655D26BA3FB419C","title":"VIVAN婚纱","lon":"121.46997","lat":"31.21851","category":"141","category_name":"服装鞋帽皮具店","address":"卢湾区雁荡路107号雁荡大厦10楼H座(近复兴公园)"},{"poiid":"B2094654DA6DABFA459D","title":"科学会堂(雁荡路)","lon":"121.46915","lat":"31.21877","category":"185","category_name":"会展中心","address":"卢湾区南昌路47号"},{"poiid":"B2094750D165A7FC489D","title":"城汇大厦","lon":"121.470672","lat":"31.219001","category":"252","category_name":"楼宇机构","address":"南昌路45号"},{"poiid":"B2094751DA6EA0F8459D","title":"W","lon":"121.469925","lat":"31.219284","category":"247","category_name":"餐饮美食","address":"上海市盧灣區南昌路62號"},{"poiid":"B2094757D06AAAFE4499","title":"佳鸣海鲜火锅楼","lon":"121.470263","lat":"31.220876","category":"86","category_name":"火锅店","address":"卢湾区兴安路167号(近雁荡路)"},{"poiid":"B2094757D06FA4FA469A","title":"大花桌游(淮海中路店)","lon":"121.46994","lat":"31.22109","category":"175","category_name":"棋牌室","address":"上海卢湾区淮海中路461号9楼68室"},{"poiid":"B2094751D56FABF84092","title":"Azul Urban（上海K11店）","lon":"121.470509","lat":"31.220142","category":"247","category_name":"餐饮美食","address":"上海市 淮海中路300号上海K11购物艺术中心404"},{"poiid":"B2094757D465A4FB409B","title":"顶特勒粥面馆","lon":"121.469218054","lat":"31.221221793","category":"68","category_name":"快餐厅","address":"卢湾区淮海中路494弄22号(近雁荡路)"},{"poiid":"B2094654DB69A4FE4392","title":"钱柜(卢湾店)","lon":"121.46958","lat":"31.21854","category":"170","category_name":"KTV","address":"卢湾区雁荡路109号复兴公园内(近复兴中路)"},{"poiid":"B2094654DA6DABFA499E","title":"味香斋","lon":"121.46993580196","lat":"31.221233069029","category":"68","category_name":"快餐厅","address":"卢湾区雁荡路14号(近淮海中路)"},{"poiid":"B2094753D76FAAFA449C","title":"上海滩国泰旗舰店","lon":"121.466011","lat":"31.216125","category":"249","category_name":"购物服务","address":"淮海中路868号"},{"poiid":"B209475CD564A7F84292","title":"上海滩新天地店","lon":"121.47463","lat":"31.22164","category":"119","category_name":"商场","address":"\"太仓路181弄新天地北里15号\r\n\""},{"poiid":"B209475CD564A7F8439E","title":"上海滩中信泰富店","lon":"121.45602","lat":"31.22851","category":"119","category_name":"商场","address":"\"南京西路1168号中信泰富广场，店铺号221.\r\n\""},{"poiid":"B2094757D06FA2F54392","title":"淮海中路雁荡路","lon":"121.469795542","lat":"31.2212911035","category":"260","category_name":"其他","address":"上海淮海中路雁荡路"},{"poiid":"B2094751D56FABF84099","title":"Pizza Marzano 比萨马上诺（上海K11店）","lon":"121.470165","lat":"31.219408","category":"247","category_name":"餐饮美食","address":"上海市 淮海中路300号上海K11购物艺术中心403"},{"poiid":"B2094757D064A5FD489B","title":"典谟新知咖啡馆","lon":"121.470884738","lat":"31.2210811051","category":"260","category_name":"其他","address":"卢湾区兴安路139号(近淮海路雁荡路)"},{"poiid":"B2094751D56FABFF499A","title":"Home Thai（上海K11店）","lon":"121.471195","lat":"31.220142","category":"247","category_name":"餐饮美食","address":"上海市 淮海中路300号上海K11购物艺术中心401"},{"poiid":"B2094757DB6AA4F5439F","title":"猫的天空之城","lon":"121.470243","lat":"31.218327","category":"248","category_name":"生活娱乐","address":"马当路245号新天地时尚购物广场B112号(近自忠路)"},{"poiid":"B2094757D064A5FA479F","title":"悦满糖","lon":"121.469785238","lat":"31.2202659878","category":"500","category_name":"未知分类","address":"上海卢湾区雁荡路25号"},{"poiid":"B2094757D06FA5FC429C","title":"韩蒸天下养生馆","lon":"121.46975773","lat":"31.220693096","category":"149","category_name":"洗浴推拿场所","address":"卢湾区雁荡路29号5楼(近淮海中路)"},{"poiid":"B2094757D06FA0FC4198","title":"一品粤珍(淮海中路店)","lon":"121.46927","lat":"31.22027","category":"72","category_name":"广东菜","address":"卢湾区淮海中路527号锦江国际购物中心7楼(近雁荡路)"},{"poiid":"B2094750D56EA5F5419C","title":"say cheese 甜品.家","lon":"121.471335","lat":"31.220279","category":"247","category_name":"餐饮美食","address":"卢湾区重庆南路30弄1号(近淮海中路)"},{"poiid":"B2094757D06FA2FE4792","title":"鲜得来排骨年糕(雁荡店)","lon":"121.47033","lat":"31.22059","category":"68","category_name":"快餐厅","address":"卢湾区雁荡路9号(近兴安路)"},{"poiid":"B2094757D06FA7FC4693","title":"Nuevo 66 Coffee in Coffee","lon":"121.46992","lat":"31.2192","category":"260","category_name":"其他","address":"卢湾区南昌路66号(近雁荡路)"},{"poiid":"B2094751D56FABFF4592","title":"Charme 港丽（上海K11店）","lon":"121.471367","lat":"31.219261","category":"247","category_name":"餐饮美食","address":"上海市 淮海中路300号上海K11购物艺术中心301/307"},{"poiid":"B2094757D06FA3F84099","title":"新贝乐比萨屋 雁荡路店","lon":"121.470030054","lat":"31.220020793","category":"94","category_name":"西餐厅","address":"卢湾区雁荡路33号(近南昌路)"},{"poiid":"B2094751D56FABFF499C","title":"Element Fresh 新元素（上海K11店）","lon":"121.471024","lat":"31.219848","category":"247","category_name":"餐饮美食","address":"上海市 淮海中路300号上海K11购物艺术中心402"},{"poiid":"B2094654DB6BA4FE4393","title":"瑞金大厦","lon":"121.469","lat":"31.2198","category":"46","category_name":"楼宇","address":"上海茂名南路205号"},{"poiid":"B2094654DA6DABFA479D","title":"满迪牛排馆","lon":"121.46996","lat":"31.21979","category":"94","category_name":"西餐厅","address":"卢湾区雁荡路69号(近南昌路)"},{"poiid":"B2094751D56FABFF4698","title":"Gatten Sushi 合点寿司（上海K11店）","lon":"121.470852","lat":"31.220142","category":"247","category_name":"餐饮美食","address":"上海市 淮海中路300号上海K11购物艺术中心302"},{"poiid":"B2094757D06BA7FB489F","title":"新贝乐意式餐厅(雁荡路店)","lon":"121.46901273","lat":"31.2208641","category":"500","category_name":"未知分类","address":"上海市卢湾区雁荡路33号"},{"poiid":"B2094751D56FABF8419B","title":"Celeb de Tomato 铭品番茄（上海K11店）","lon":"121.470852","lat":"31.219114","category":"247","category_name":"餐饮美食","address":"上海市 淮海中路300号上海K11购物艺术中心406"},{"poiid":"B2094757D06FAAF5449C","title":"火山碳烤鱼(复兴店)","lon":"121.46989","lat":"31.21906","category":"71","category_name":"四川菜","address":"卢湾区南昌路70号(雁荡路口)"},{"poiid":"B2094751D56FABFA409C","title":"Baker&Spice 香溢培客（上海K11店）","lon":"121.470852","lat":"31.219701","category":"247","category_name":"餐饮美食","address":"上海市 淮海中路300号上海K11购物艺术中心B127-B129"},{"poiid":"B2094654DB6AA6F84698","title":"上海璞邸精品酒店","lon":"121.47023","lat":"31.21926","category":"213","category_name":"五星级宾馆","address":"卢湾区雁荡路99号(近南昌路)"},{"poiid":"B2094757D06FAAFD479C","title":"兴和港式茶餐厅","lon":"121.47004699","lat":"31.220336914","category":"72","category_name":"广东菜","address":"卢湾区雁荡路37号(近复兴公园)"},{"poiid":"B2094750D768A7FE4099","title":"Season三层堂和牛料理","lon":"121.469","lat":"31.221","category":"95","category_name":"日本料理","address":"卢湾区淮海中路542弄2号(近成都南路)"},{"poiid":"B2094751D56FABFF4693","title":"Hanamaru Udon 花丸乌冬面（上海K11店）","lon":"121.471539","lat":"31.219555","category":"247","category_name":"餐饮美食","address":"上海市 淮海中路300号上海K11购物艺术中心304"},{"poiid":"B2094757D069A2FD419E","title":"洁而精川菜馆","lon":"121.46946988001","lat":"31.219134393624","category":"71","category_name":"四川菜","address":"卢湾区雁荡路82号(近南昌路)"},{"poiid":"B2094654DB65A3F54692","title":"上海锦江国际购物中心商务写字楼","lon":"121.469","lat":"31.22054","category":"46","category_name":"楼宇","address":"淮海中路527号"},{"poiid":"B2094757D06FA6FC449B","title":"京世造型(雁荡店)","lon":"121.469967","lat":"31.221091","category":"148","category_name":"美容美发店","address":"上海卢湾区雁荡路5号2楼(淮海中路口)"},{"poiid":"B2094757D06AA6FD4099","title":"共青团中央机关旧址纪念馆","lon":"121.46864","lat":"31.22028","category":"179","category_name":"音乐厅","address":"上海卢湾区淮海中路567弄2号(近成都南路)"},{"poiid":"B2094654DA6EA1F9499F","title":"民防大厦","lon":"121.471","lat":"31.2202","category":"46","category_name":"楼宇","address":"龙蟠南路33号(龙蟠南路与秦虹路交汇处,秦淮区政府对面)"},{"poiid":"B2094757D06BA5F44892","title":"鲜得来","lon":"121.46988673","lat":"31.220740097","category":"247","category_name":"餐饮美食","address":"上海市卢湾区雁荡路13号"},{"poiid":"B2094757D069A4FF4699","title":"lv旗舰店","lon":"121.47127873","lat":"31.220801099","category":"500","category_name":"未知分类","address":"上海淮海路嵩山路"},{"poiid":"B2094757D464ABF4459A","title":"金城酒家","lon":"121.47037211893","lat":"31.220679186676","category":"76","category_name":"上海菜","address":"卢湾区兴安路149号(近雁荡路)"},{"poiid":"B2094654DA6DABFB489D","title":"上海锦江国际购物中心","lon":"121.469","lat":"31.22054","category":"119","category_name":"商场","address":"朝阳区北三环东路与京顺路交接处路口北侧"},{"poiid":"B2094757D66AA0F5429B","title":"罗贝拉冰淇淋 La Perla","lon":"121.470134054","lat":"31.220102793","category":"67","category_name":"甜品店","address":"卢湾区雁荡路21号(近兴安路)"},{"poiid":"B2094654DA6DABFB479A","title":"兴安餐厅","lon":"121.470078054","lat":"31.220802793","category":"68","category_name":"快餐厅","address":"卢湾区兴安路145号(近雁荡路)"},{"poiid":"B2094751D56FABF4409C","title":"Costa 咖世家（上海K11店）","lon":"121.471367","lat":"31.219701","category":"247","category_name":"餐饮美食","address":"淮海中路300号上海K11购物艺术中心B223/B225"},{"poiid":"B2094655D26BA3FB419C","title":"VIVAN婚纱","lon":"121.46997","lat":"31.21851","category":"141","category_name":"服装鞋帽皮具店","address":"卢湾区雁荡路107号雁荡大厦10楼H座(近复兴公园)"},{"poiid":"B2094654DA6DABFA459D","title":"科学会堂(雁荡路)","lon":"121.46915","lat":"31.21877","category":"185","category_name":"会展中心","address":"卢湾区南昌路47号"},{"poiid":"B2094750D165A7FC489D","title":"城汇大厦","lon":"121.470672","lat":"31.219001","category":"252","category_name":"楼宇机构","address":"南昌路45号"},{"poiid":"B2094751DA6EA0F8459D","title":"W","lon":"121.469925","lat":"31.219284","category":"247","category_name":"餐饮美食","address":"上海市盧灣區南昌路62號"},{"poiid":"B2094757D06AAAFE4499","title":"佳鸣海鲜火锅楼","lon":"121.470263","lat":"31.220876","category":"86","category_name":"火锅店","address":"卢湾区兴安路167号(近雁荡路)"},{"poiid":"B2094757D06FA4FA469A","title":"大花桌游(淮海中路店)","lon":"121.46994","lat":"31.22109","category":"175","category_name":"棋牌室","address":"上海卢湾区淮海中路461号9楼68室"},{"poiid":"B2094751D56FABF84092","title":"Azul Urban（上海K11店）","lon":"121.470509","lat":"31.220142","category":"247","category_name":"餐饮美食","address":"上海市 淮海中路300号上海K11购物艺术中心404"},{"poiid":"B2094757D465A4FB409B","title":"顶特勒粥面馆","lon":"121.469218054","lat":"31.221221793","category":"68","category_name":"快餐厅","address":"卢湾区淮海中路494弄22号(近雁荡路)"},{"poiid":"B2094654DB69A4FE4392","title":"钱柜(卢湾店)","lon":"121.46958","lat":"31.21854","category":"170","category_name":"KTV","address":"卢湾区雁荡路109号复兴公园内(近复兴中路)"},{"poiid":"B2094654DA6DABFA499E","title":"味香斋","lon":"121.46993580196","lat":"31.221233069029","category":"68","category_name":"快餐厅","address":"卢湾区雁荡路14号(近淮海中路)"},{"poiid":"B2094753D76FAAFA449C","title":"上海滩国泰旗舰店","lon":"121.466011","lat":"31.216125","category":"249","category_name":"购物服务","address":"淮海中路868号"},{"poiid":"B209475CD564A7F84292","title":"上海滩新天地店","lon":"121.47463","lat":"31.22164","category":"119","category_name":"商场","address":"\"太仓路181弄新天地北里15号\r\n\""},{"poiid":"B209475CD564A7F8439E","title":"上海滩中信泰富店","lon":"121.45602","lat":"31.22851","category":"119","category_name":"商场","address":"\"南京西路1168号中信泰富广场，店铺号221.\r\n\""},{"poiid":"B2094757D06FA2F54392","title":"淮海中路雁荡路","lon":"121.469795542","lat":"31.2212911035","category":"260","category_name":"其他","address":"上海淮海中路雁荡路"},{"poiid":"B2094751D56FABF84099","title":"Pizza Marzano 比萨马上诺（上海K11店）","lon":"121.470165","lat":"31.219408","category":"247","category_name":"餐饮美食","address":"上海市 淮海中路300号上海K11购物艺术中心403"},{"poiid":"B2094757D064A5FD489B","title":"典谟新知咖啡馆","lon":"121.470884738","lat":"31.2210811051","category":"260","category_name":"其他","address":"卢湾区兴安路139号(近淮海路雁荡路)"},{"poiid":"B2094751D56FABFF499A","title":"Home Thai（上海K11店）","lon":"121.471195","lat":"31.220142","category":"247","category_name":"餐饮美食","address":"上海市 淮海中路300号上海K11购物艺术中心401"},{"poiid":"B2094757DB6AA4F5439F","title":"猫的天空之城","lon":"121.470243","lat":"31.218327","category":"248","category_name":"生活娱乐","address":"马当路245号新天地时尚购物广场B112号(近自忠路)"},{"poiid":"B2094757D064A5FA479F","title":"悦满糖","lon":"121.469785238","lat":"31.2202659878","category":"500","category_name":"未知分类","address":"上海卢湾区雁荡路25号"},{"poiid":"B2094757D06FA5FC429C","title":"韩蒸天下养生馆","lon":"121.46975773","lat":"31.220693096","category":"149","category_name":"洗浴推拿场所","address":"卢湾区雁荡路29号5楼(近淮海中路)"},{"poiid":"B2094757D06FA0FC4198","title":"一品粤珍(淮海中路店)","lon":"121.46927","lat":"31.22027","category":"72","category_name":"广东菜","address":"卢湾区淮海中路527号锦江国际购物中心7楼(近雁荡路)"},{"poiid":"B2094750D56EA5F5419C","title":"say cheese 甜品.家","lon":"121.471335","lat":"31.220279","category":"247","category_name":"餐饮美食","address":"卢湾区重庆南路30弄1号(近淮海中路)"},{"poiid":"B2094757D06FA2FE4792","title":"鲜得来排骨年糕(雁荡店)","lon":"121.47033","lat":"31.22059","category":"68","category_name":"快餐厅","address":"卢湾区雁荡路9号(近兴安路)"},{"poiid":"B2094757D06FA7FC4693","title":"Nuevo 66 Coffee in Coffee","lon":"121.46992","lat":"31.2192","category":"260","category_name":"其他","address":"卢湾区南昌路66号(近雁荡路)"},{"poiid":"B2094751D56FABFF4592","title":"Charme 港丽（上海K11店）","lon":"121.471367","lat":"31.219261","category":"247","category_name":"餐饮美食","address":"上海市 淮海中路300号上海K11购物艺术中心301/307"},{"poiid":"B2094757D06FA3F84099","title":"新贝乐比萨屋 雁荡路店","lon":"121.470030054","lat":"31.220020793","category":"94","category_name":"西餐厅","address":"卢湾区雁荡路33号(近南昌路)"},{"poiid":"B2094751D56FABFF499C","title":"Element Fresh 新元素（上海K11店）","lon":"121.471024","lat":"31.219848","category":"247","category_name":"餐饮美食","address":"上海市 淮海中路300号上海K11购物艺术中心402"},{"poiid":"B2094654DB6BA4FE4393","title":"瑞金大厦","lon":"121.469","lat":"31.2198","category":"46","category_name":"楼宇","address":"上海茂名南路205号"},{"poiid":"B2094654DA6DABFA479D","title":"满迪牛排馆","lon":"121.46996","lat":"31.21979","category":"94","category_name":"西餐厅","address":"卢湾区雁荡路69号(近南昌路)"},{"poiid":"B2094751D56FABFF4698","title":"Gatten Sushi 合点寿司（上海K11店）","lon":"121.470852","lat":"31.220142","category":"247","category_name":"餐饮美食","address":"上海市 淮海中路300号上海K11购物艺术中心302"},{"poiid":"B2094757D06BA7FB489F","title":"新贝乐意式餐厅(雁荡路店)","lon":"121.46901273","lat":"31.2208641","category":"500","category_name":"未知分类","address":"上海市卢湾区雁荡路33号"},{"poiid":"B2094751D56FABF8419B","title":"Celeb de Tomato 铭品番茄（上海K11店）","lon":"121.470852","lat":"31.219114","category":"247","category_name":"餐饮美食","address":"上海市 淮海中路300号上海K11购物艺术中心406"},{"poiid":"B2094757D06FAAF5449C","title":"火山碳烤鱼(复兴店)","lon":"121.46989","lat":"31.21906","category":"71","category_name":"四川菜","address":"卢湾区南昌路70号(雁荡路口)"},{"poiid":"B2094751D56FABFA409C","title":"Baker&Spice 香溢培客（上海K11店）","lon":"121.470852","lat":"31.219701","category":"247","category_name":"餐饮美食","address":"上海市 淮海中路300号上海K11购物艺术中心B127-B129"},{"poiid":"B2094654DB6AA6F84698","title":"上海璞邸精品酒店","lon":"121.47023","lat":"31.21926","category":"213","category_name":"五星级宾馆","address":"卢湾区雁荡路99号(近南昌路)"},{"poiid":"B2094757D06FAAFD479C","title":"兴和港式茶餐厅","lon":"121.47004699","lat":"31.220336914","category":"72","category_name":"广东菜","address":"卢湾区雁荡路37号(近复兴公园)"},{"poiid":"B2094750D768A7FE4099","title":"Season三层堂和牛料理","lon":"121.469","lat":"31.221","category":"95","category_name":"日本料理","address":"卢湾区淮海中路542弄2号(近成都南路)"},{"poiid":"B2094751D56FABFF4693","title":"Hanamaru Udon 花丸乌冬面（上海K11店）","lon":"121.471539","lat":"31.219555","category":"247","category_name":"餐饮美食","address":"上海市 淮海中路300号上海K11购物艺术中心304"},{"poiid":"B2094757D069A2FD419E","title":"洁而精川菜馆","lon":"121.46946988001","lat":"31.219134393624","category":"71","category_name":"四川菜","address":"卢湾区雁荡路82号(近南昌路)"},{"poiid":"B2094654DB65A3F54692","title":"上海锦江国际购物中心商务写字楼","lon":"121.469","lat":"31.22054","category":"46","category_name":"楼宇","address":"淮海中路527号"},{"poiid":"B2094757D06FA6FC449B","title":"京世造型(雁荡店)","lon":"121.469967","lat":"31.221091","category":"148","category_name":"美容美发店","address":"上海卢湾区雁荡路5号2楼(淮海中路口)"},{"poiid":"B2094757D06AA6FD4099","title":"共青团中央机关旧址纪念馆","lon":"121.46864","lat":"31.22028","category":"179","category_name":"音乐厅","address":"上海卢湾区淮海中路567弄2号(近成都南路)"},{"poiid":"B2094654DA6EA1F9499F","title":"民防大厦","lon":"121.471","lat":"31.2202","category":"46","category_name":"楼宇","address":"龙蟠南路33号(龙蟠南路与秦虹路交汇处,秦淮区政府对面)"},{"poiid":"B2094757D06BA5F44892","title":"鲜得来","lon":"121.46988673","lat":"31.220740097","category":"247","category_name":"餐饮美食","address":"上海市卢湾区雁荡路13号"},{"poiid":"B2094757D069A4FF4699","title":"lv旗舰店","lon":"121.47127873","lat":"31.220801099","category":"500","category_name":"未知分类","address":"上海淮海路嵩山路"},{"poiid":"B2094757D464ABF4459A","title":"金城酒家","lon":"121.47037211893","lat":"31.220679186676","category":"76","category_name":"上海菜","address":"卢湾区兴安路149号(近雁荡路)"},{"poiid":"B2094654DA6DABFB489D","title":"上海锦江国际购物中心","lon":"121.469","lat":"31.22054","category":"119","category_name":"商场","address":"朝阳区北三环东路与京顺路交接处路口北侧"},{"poiid":"B2094757D66AA0F5429B","title":"罗贝拉冰淇淋 La Perla","lon":"121.470134054","lat":"31.220102793","category":"67","category_name":"甜品店","address":"卢湾区雁荡路21号(近兴安路)"},{"poiid":"B2094654DA6DABFB479A","title":"兴安餐厅","lon":"121.470078054","lat":"31.220802793","category":"68","category_name":"快餐厅","address":"卢湾区兴安路145号(近雁荡路)"},{"poiid":"B2094751D56FABF4409C","title":"Costa 咖世家（上海K11店）","lon":"121.471367","lat":"31.219701","category":"247","category_name":"餐饮美食","address":"淮海中路300号上海K11购物艺术中心B223/B225"},{"poiid":"B2094655D26BA3FB419C","title":"VIVAN婚纱","lon":"121.46997","lat":"31.21851","category":"141","category_name":"服装鞋帽皮具店","address":"卢湾区雁荡路107号雁荡大厦10楼H座(近复兴公园)"},{"poiid":"B2094654DA6DABFA459D","title":"科学会堂(雁荡路)","lon":"121.46915","lat":"31.21877","category":"185","category_name":"会展中心","address":"卢湾区南昌路47号"},{"poiid":"B2094750D165A7FC489D","title":"城汇大厦","lon":"121.470672","lat":"31.219001","category":"252","category_name":"楼宇机构","address":"南昌路45号"},{"poiid":"B2094751DA6EA0F8459D","title":"W","lon":"121.469925","lat":"31.219284","category":"247","category_name":"餐饮美食","address":"上海市盧灣區南昌路62號"},{"poiid":"B2094757D06AAAFE4499","title":"佳鸣海鲜火锅楼","lon":"121.470263","lat":"31.220876","category":"86","category_name":"火锅店","address":"卢湾区兴安路167号(近雁荡路)"},{"poiid":"B2094757D06FA4FA469A","title":"大花桌游(淮海中路店)","lon":"121.46994","lat":"31.22109","category":"175","category_name":"棋牌室","address":"上海卢湾区淮海中路461号9楼68室"},{"poiid":"B2094751D56FABF84092","title":"Azul Urban（上海K11店）","lon":"121.470509","lat":"31.220142","category":"247","category_name":"餐饮美食","address":"上海市 淮海中路300号上海K11购物艺术中心404"},{"poiid":"B2094757D465A4FB409B","title":"顶特勒粥面馆","lon":"121.469218054","lat":"31.221221793","category":"68","category_name":"快餐厅","address":"卢湾区淮海中路494弄22号(近雁荡路)"},{"poiid":"B2094654DB69A4FE4392","title":"钱柜(卢湾店)","lon":"121.46958","lat":"31.21854","category":"170","category_name":"KTV","address":"卢湾区雁荡路109号复兴公园内(近复兴中路)"},{"poiid":"B2094654DA6DABFA499E","title":"味香斋","lon":"121.46993580196","lat":"31.221233069029","category":"68","category_name":"快餐厅","address":"卢湾区雁荡路14号(近淮海中路)"},{"poiid":"B2094753D76FAAFA449C","title":"上海滩国泰旗舰店","lon":"121.466011","lat":"31.216125","category":"249","category_name":"购物服务","address":"淮海中路868号"},{"poiid":"B209475CD564A7F84292","title":"上海滩新天地店","lon":"121.47463","lat":"31.22164","category":"119","category_name":"商场","address":"\"太仓路181弄新天地北里15号\r\n\""},{"poiid":"B209475CD564A7F8439E","title":"上海滩中信泰富店","lon":"121.45602","lat":"31.22851","category":"119","category_name":"商场","address":"\"南京西路1168号中信泰富广场，店铺号221.\r\n\""},{"poiid":"B2094757D06FA2F54392","title":"淮海中路雁荡路","lon":"121.469795542","lat":"31.2212911035","category":"260","category_name":"其他","address":"上海淮海中路雁荡路"},{"poiid":"B2094751D56FABF84099","title":"Pizza Marzano 比萨马上诺（上海K11店）","lon":"121.470165","lat":"31.219408","category":"247","category_name":"餐饮美食","address":"上海市 淮海中路300号上海K11购物艺术中心403"},{"poiid":"B2094757D064A5FD489B","title":"典谟新知咖啡馆","lon":"121.470884738","lat":"31.2210811051","category":"260","category_name":"其他","address":"卢湾区兴安路139号(近淮海路雁荡路)"},{"poiid":"B2094751D56FABFF499A","title":"Home Thai（上海K11店）","lon":"121.471195","lat":"31.220142","category":"247","category_name":"餐饮美食","address":"上海市 淮海中路300号上海K11购物艺术中心401"},{"poiid":"B2094757DB6AA4F5439F","title":"猫的天空之城","lon":"121.470243","lat":"31.218327","category":"248","category_name":"生活娱乐","address":"马当路245号新天地时尚购物广场B112号(近自忠路)"},{"poiid":"B2094757D064A5FA479F","title":"悦满糖","lon":"121.469785238","lat":"31.2202659878","category":"500","category_name":"未知分类","address":"上海卢湾区雁荡路25号"},{"poiid":"B2094757D06FA5FC429C","title":"韩蒸天下养生馆","lon":"121.46975773","lat":"31.220693096","category":"149","category_name":"洗浴推拿场所","address":"卢湾区雁荡路29号5楼(近淮海中路)"},{"poiid":"B2094757D06FA0FC4198","title":"一品粤珍(淮海中路店)","lon":"121.46927","lat":"31.22027","category":"72","category_name":"广东菜","address":"卢湾区淮海中路527号锦江国际购物中心7楼(近雁荡路)"},{"poiid":"B2094750D56EA5F5419C","title":"say cheese 甜品.家","lon":"121.471335","lat":"31.220279","category":"247","category_name":"餐饮美食","address":"卢湾区重庆南路30弄1号(近淮海中路)"},{"poiid":"B2094757D06FA2FE4792","title":"鲜得来排骨年糕(雁荡店)","lon":"121.47033","lat":"31.22059","category":"68","category_name":"快餐厅","address":"卢湾区雁荡路9号(近兴安路)"},{"poiid":"B2094757D06FA7FC4693","title":"Nuevo 66 Coffee in Coffee","lon":"121.46992","lat":"31.2192","category":"260","category_name":"其他","address":"卢湾区南昌路66号(近雁荡路)"},{"poiid":"B2094751D56FABFF4592","title":"Charme 港丽（上海K11店）","lon":"121.471367","lat":"31.219261","category":"247","category_name":"餐饮美食","address":"上海市 淮海中路300号上海K11购物艺术中心301/307"},{"poiid":"B2094757D06FA3F84099","title":"新贝乐比萨屋 雁荡路店","lon":"121.470030054","lat":"31.220020793","category":"94","category_name":"西餐厅","address":"卢湾区雁荡路33号(近南昌路)"},{"poiid":"B2094751D56FABFF499C","title":"Element Fresh 新元素（上海K11店）","lon":"121.471024","lat":"31.219848","category":"247","category_name":"餐饮美食","address":"上海市 淮海中路300号上海K11购物艺术中心402"},{"poiid":"B2094654DB6BA4FE4393","title":"瑞金大厦","lon":"121.469","lat":"31.2198","category":"46","category_name":"楼宇","address":"上海茂名南路205号"},{"poiid":"B2094654DA6DABFA479D","title":"满迪牛排馆","lon":"121.46996","lat":"31.21979","category":"94","category_name":"西餐厅","address":"卢湾区雁荡路69号(近南昌路)"},{"poiid":"B2094751D56FABFF4698","title":"Gatten Sushi 合点寿司（上海K11店）","lon":"121.470852","lat":"31.220142","category":"247","category_name":"餐饮美食","address":"上海市 淮海中路300号上海K11购物艺术中心302"},{"poiid":"B2094757D06BA7FB489F","title":"新贝乐意式餐厅(雁荡路店)","lon":"121.46901273","lat":"31.2208641","category":"500","category_name":"未知分类","address":"上海市卢湾区雁荡路33号"},{"poiid":"B2094751D56FABF8419B","title":"Celeb de Tomato 铭品番茄（上海K11店）","lon":"121.470852","lat":"31.219114","category":"247","category_name":"餐饮美食","address":"上海市 淮海中路300号上海K11购物艺术中心406"},{"poiid":"B2094757D06FAAF5449C","title":"火山碳烤鱼(复兴店)","lon":"121.46989","lat":"31.21906","category":"71","category_name":"四川菜","address":"卢湾区南昌路70号(雁荡路口)"},{"poiid":"B2094751D56FABFA409C","title":"Baker&Spice 香溢培客（上海K11店）","lon":"121.470852","lat":"31.219701","category":"247","category_name":"餐饮美食","address":"上海市 淮海中路300号上海K11购物艺术中心B127-B129"},{"poiid":"B2094654DB6AA6F84698","title":"上海璞邸精品酒店","lon":"121.47023","lat":"31.21926","category":"213","category_name":"五星级宾馆","address":"卢湾区雁荡路99号(近南昌路)"},{"poiid":"B2094757D06FAAFD479C","title":"兴和港式茶餐厅","lon":"121.47004699","lat":"31.220336914","category":"72","category_name":"广东菜","address":"卢湾区雁荡路37号(近复兴公园)"},{"poiid":"B2094750D768A7FE4099","title":"Season三层堂和牛料理","lon":"121.469","lat":"31.221","category":"95","category_name":"日本料理","address":"卢湾区淮海中路542弄2号(近成都南路)"},{"poiid":"B2094751D56FABFF4693","title":"Hanamaru Udon 花丸乌冬面（上海K11店）","lon":"121.471539","lat":"31.219555","category":"247","category_name":"餐饮美食","address":"上海市 淮海中路300号上海K11购物艺术中心304"},{"poiid":"B2094757D069A2FD419E","title":"洁而精川菜馆","lon":"121.46946988001","lat":"31.219134393624","category":"71","category_name":"四川菜","address":"卢湾区雁荡路82号(近南昌路)"},{"poiid":"B2094654DB65A3F54692","title":"上海锦江国际购物中心商务写字楼","lon":"121.469","lat":"31.22054","category":"46","category_name":"楼宇","address":"淮海中路527号"},{"poiid":"B2094757D06FA6FC449B","title":"京世造型(雁荡店)","lon":"121.469967","lat":"31.221091","category":"148","category_name":"美容美发店","address":"上海卢湾区雁荡路5号2楼(淮海中路口)"},{"poiid":"B2094757D06AA6FD4099","title":"共青团中央机关旧址纪念馆","lon":"121.46864","lat":"31.22028","category":"179","category_name":"音乐厅","address":"上海卢湾区淮海中路567弄2号(近成都南路)"},{"poiid":"B2094654DA6EA1F9499F","title":"民防大厦","lon":"121.471","lat":"31.2202","category":"46","category_name":"楼宇","address":"龙蟠南路33号(龙蟠南路与秦虹路交汇处,秦淮区政府对面)"},{"poiid":"B2094757D06BA5F44892","title":"鲜得来","lon":"121.46988673","lat":"31.220740097","category":"247","category_name":"餐饮美食","address":"上海市卢湾区雁荡路13号"},{"poiid":"B2094757D069A4FF4699","title":"lv旗舰店","lon":"121.47127873","lat":"31.220801099","category":"500","category_name":"未知分类","address":"上海淮海路嵩山路"},{"poiid":"B2094757D464ABF4459A","title":"金城酒家","lon":"121.47037211893","lat":"31.220679186676","category":"76","category_name":"上海菜","address":"卢湾区兴安路149号(近雁荡路)"},{"poiid":"B2094654DA6DABFB489D","title":"上海锦江国际购物中心","lon":"121.469","lat":"31.22054","category":"119","category_name":"商场","address":"朝阳区北三环东路与京顺路交接处路口北侧"},{"poiid":"B2094757D66AA0F5429B","title":"罗贝拉冰淇淋 La Perla","lon":"121.470134054","lat":"31.220102793","category":"67","category_name":"甜品店","address":"卢湾区雁荡路21号(近兴安路)"},{"poiid":"B2094654DA6DABFB479A","title":"兴安餐厅","lon":"121.470078054","lat":"31.220802793","category":"68","category_name":"快餐厅","address":"卢湾区兴安路145号(近雁荡路)"},{"poiid":"B2094751D56FABF4409C","title":"Costa 咖世家（上海K11店）","lon":"121.471367","lat":"31.219701","category":"247","category_name":"餐饮美食","address":"淮海中路300号上海K11购物艺术中心B223/B225"},{"poiid":"B2094655D26BA3FB419C","title":"VIVAN婚纱","lon":"121.46997","lat":"31.21851","category":"141","category_name":"服装鞋帽皮具店","address":"卢湾区雁荡路107号雁荡大厦10楼H座(近复兴公园)"},{"poiid":"B2094654DA6DABFA459D","title":"科学会堂(雁荡路)","lon":"121.46915","lat":"31.21877","category":"185","category_name":"会展中心","address":"卢湾区南昌路47号"},{"poiid":"B2094750D165A7FC489D","title":"城汇大厦","lon":"121.470672","lat":"31.219001","category":"252","category_name":"楼宇机构","address":"南昌路45号"},{"poiid":"B2094751DA6EA0F8459D","title":"W","lon":"121.469925","lat":"31.219284","category":"247","category_name":"餐饮美食","address":"上海市盧灣區南昌路62號"},{"poiid":"B2094757D06AAAFE4499","title":"佳鸣海鲜火锅楼","lon":"121.470263","lat":"31.220876","category":"86","category_name":"火锅店","address":"卢湾区兴安路167号(近雁荡路)"},{"poiid":"B2094757D06FA4FA469A","title":"大花桌游(淮海中路店)","lon":"121.46994","lat":"31.22109","category":"175","category_name":"棋牌室","address":"上海卢湾区淮海中路461号9楼68室"},{"poiid":"B2094751D56FABF84092","title":"Azul Urban（上海K11店）","lon":"121.470509","lat":"31.220142","category":"247","category_name":"餐饮美食","address":"上海市 淮海中路300号上海K11购物艺术中心404"}]