[{"poiid":"B2094757D66EAAFD429D","title":"陶加湾休闲农庄","lon":"121.507575645","lat":"31.0074748201","category":"500","category_name":"未知分类","address":"上海闵行娶浦江镇永南路2018号"},{"poiid":"B2094655D26BA1F4439C","title":"鲁汇镇","lon":"121.53342","lat":"31.02042","category":"38","category_name":"公交车站","address":"汇北村十组"},{"poiid":"B2094655D26BA2F4469D","title":"浦星公路永南路","lon":"121.51367","lat":"31.00463","category":"38","category_name":"公交车站","address":""},{"poiid":"B2094757D06BA4F5489D","title":"陶家湾","lon":"121.50774191","lat":"31.008830961","category":"500","category_name":"未知分类","address":"上海闵行区永南路2018号，(近浦星公路)"},{"poiid":"B2094757D164A2FA489C","title":"梅亭農家樂","lon":"121.51768429","lat":"31.014246989","category":"247","category_name":"餐饮美食","address":"上海閔行區魯匯鎮閘航路魯陳路"},{"poiid":"B2094757D66DA5FD4898","title":"浦江市民农园","lon":"121.513474945","lat":"31.0100385772","category":"500","category_name":"未知分类","address":"上海浦星公路丰南路"},{"poiid":"B2094655D36DA7FF479C","title":"中发科技园","lon":"121.51365","lat":"31.00508","category":"38","category_name":"公交车站","address":""},{"poiid":"B2094654DB6FA0F94392","title":"闵行区鲁汇苗木基地","lon":"121.51288","lat":"31.00728","category":"45","category_name":"产业园区","address":""},{"poiid":"B2094655D36CA6F8479B","title":"丰南路","lon":"121.53015","lat":"31.01197","category":"38","category_name":"公交车站","address":""},{"poiid":"B2094757D169A1F8499B","title":"闵行区看守所","lon":"121.53385144","lat":"31.023797183","category":"500","category_name":"未知分类","address":"上海三鲁路600弄199号"},{"poiid":"B2094757D164A3FE449C","title":"上海玻璃钢研究院有限公司","lon":"121.51325224","lat":"31.005430474","category":"500","category_name":"未知分类","address":"上海奉贤区金汇镇迎金路88号"},{"poiid":"B2094655D26DA6F4429D","title":"新汇绿苑一村(汇臻路)","lon":"121.52139","lat":"31.02425","category":"47","category_name":"住宅区","address":"汇臻路939弄"},{"poiid":"B2094757D16BA1F9489D","title":"空调江平专线","lon":"121.52504674","lat":"31.015204542","category":"500","category_name":"未知分类","address":"上海平安到江月路地铁站"},{"poiid":"B2094654DB6FA0FE4798","title":"红梅苑","lon":"121.53089","lat":"31.021734","category":"47","category_name":"住宅区","address":"三鲁路467弄128支弄"},{"poiid":"B2094654DB6FA0F9479B","title":"闵行区水产技术示范基地","lon":"121.52603","lat":"30.99985","category":"45","category_name":"产业园区","address":""},{"poiid":"B2094757DA6AA4FB469A","title":"申亚会所","lon":"121.5319228","lat":"30.9977609","category":"500","category_name":"未知分类","address":"奉贤区金汇镇沿浦公路"},{"poiid":"B2094655D36CA2FA4793","title":"三鲁公路丰南路","lon":"121.5338","lat":"31.01268","category":"38","category_name":"公交车站","address":""},{"poiid":"B2094654DB6FA0F84099","title":"兰宝科技园","lon":"121.50835","lat":"31.00155","category":"45","category_name":"产业园区","address":""},{"poiid":"B2094655D26BA1F44393","title":"鲁汇","lon":"121.53341","lat":"31.02054","category":"38","category_name":"公交车站","address":""},{"poiid":"B2094655D36DA3F54099","title":"大治河桥","lon":"121.53369","lat":"31.01654","category":"250","category_name":"公园户外","address":""},{"poiid":"B2094757D168ABFB409B","title":"望佳二村","lon":"121.52932","lat":"31.01918","category":"252","category_name":"楼宇机构","address":"上海闸航路2825弄"},{"poiid":"B2094757D16FA4FD429B","title":"新汇苑小区","lon":"121.51899964","lat":"31.022605157","category":"47","category_name":"住宅区","address":"上海市闵行区汇臻路"},{"poiid":"B2094654DB6FA0F84192","title":"浦江三中","lon":"121.53253","lat":"31.01933","category":"55","category_name":"中学","address":"闵行区浦江镇闸航路2689号"},{"poiid":"B2094757D164ABFE409E","title":"浦江基地一期A块","lon":"121.51623434","lat":"31.022915264","category":"500","category_name":"未知分类","address":"上海浦星公路鲁南路口"},{"poiid":"B2094655D36DA3F5409B","title":"钱龙港桥","lon":"121.5057","lat":"31.01154","category":"250","category_name":"公园户外","address":""},{"poiid":"B2094655D26BA2F4469E","title":"浦星公路金汇大道","lon":"121.51544","lat":"30.99277","category":"38","category_name":"公交车站","address":""},{"poiid":"B2094757D465A1FF4892","title":"老甲渔庄 浦东店","lon":"121.512312054","lat":"31.025658793","category":"76","category_name":"上海菜","address":"浦汇镇仙进大队15号近东晨西路"},{"poiid":"B2094750D268A1FC459E","title":"一座城","lon":"121.529487","lat":"31.019266","category":"500","category_name":"未知分类","address":"一座城"},{"poiid":"B2094654DB6FA0F94592","title":"上海施必克防水材料厂","lon":"121.53199","lat":"31.01555","category":"263","category_name":"公司","address":""},{"poiid":"B2094655D36DA0F4419D","title":"永南路光继村6组","lon":"121.5354","lat":"31.00352","category":"38","category_name":"公交车站","address":""},{"poiid":"B2094655D26FA4F8479A","title":"新汇绿苑一村(东门)","lon":"121.52372","lat":"31.02383","category":"47","category_name":"住宅区","address":"汇臻路939弄"},{"poiid":"B2094654DB6FA0FB4398","title":"江晨大酒店","lon":"121.53178","lat":"31.01986","category":"250","category_name":"公园户外","address":"浦江镇三鲁路闸航路2718路"},{"poiid":"B2094654DB6FA0FE479B","title":"浦江镇广播电视台","lon":"121.53229","lat":"31.01978","category":"59","category_name":"电视台","address":"闸航路2688"},{"poiid":"B2094757D16CA4F8449A","title":"浦江镇第三幼儿园","lon":"121.524562","lat":"31.025108","category":"57","category_name":"幼儿园","address":"闵行区鲁南路979号(近汇臻路)"},{"poiid":"B2094654DB6FA0F94199","title":"中国农业银行鲁汇分理处","lon":"121.53009","lat":"31.01946","category":"150","category_name":"银行","address":"闵行区鲁汇镇闸航路2801号"},{"poiid":"B2094654DB6FA0FF489C","title":"国大药房上虹鲁汇店","lon":"121.53294","lat":"31.01939","category":"162","category_name":"医院","address":"闵行区闸航路2673号"},{"poiid":"B2094757D465ABF8499A","title":"老吾堂人家","lon":"121.513623054","lat":"31.026770793","category":"76","category_name":"上海菜","address":"闵行区浦星公路3333号(近鲁南路)"},{"poiid":"B2094757D568A5FA479A","title":"上海师范大学","lon":"121.51972","lat":"31.02681","category":"671","category_name":"高校中心点","address":"奉炮公路553号"},{"poiid":"B2094654DB69A6FF4493","title":"闵行区鲁汇镇鲁汇中学","lon":"121.53374","lat":"31.01942","category":"55","category_name":"中学","address":"闵行区鲁汇镇1062号"},{"poiid":"B2094654DB68A2FA4498","title":"上海玻璃钢研究所","lon":"121.51432","lat":"30.99781","category":"191","category_name":"科研机构","address":"金汇镇"},{"poiid":"B2094757D164A6FD419B","title":"Intel","lon":"121.50351164","lat":"31.009238859","category":"500","category_name":"未知分类","address":"上海紫竹科技园区 紫星路880号"},{"poiid":"B2094654DB64A5F84893","title":"浦江社区卫生服务中心鲁汇分中心","lon":"121.53543","lat":"31.02037","category":"162","category_name":"医院","address":"闸航路2550弄39号"},{"poiid":"B2094757D66CA3F8459C","title":"联智工厂","lon":"121.510167645","lat":"30.9991956356","category":"263","category_name":"公司","address":"上海市奉贤区金碧路"},{"poiid":"B2094654DB6FA0F9419E","title":"闵行区浦江第三小学","lon":"121.53445","lat":"31.02064","category":"56","category_name":"小学","address":"三鲁路468弄10"},{"poiid":"B2094654DB64A4FF459E","title":"中国农业银行鲁汇分理处24小时自助银行","lon":"121.53028","lat":"31.01945","category":"152","category_name":"ATM","address":"闸航路2801"},{"poiid":"B2094654DB6FA0F9439D","title":"农工商超市No.191","lon":"121.53533","lat":"31.01968","category":"118","category_name":"超级市场","address":"鲁汇镇"},{"poiid":"B2094655D26BA1F4439E","title":"鲁南路三鲁公路","lon":"121.53144","lat":"31.02508","category":"38","category_name":"公交车站","address":""},{"poiid":"B2094654DB64A0F8479C","title":"汇龙花苑","lon":"121.53063","lat":"31.02439","category":"47","category_name":"住宅区","address":"岁盛大酒店南"},{"poiid":"B2094757D06BA4FD449E","title":"鲁汇车站","lon":"121.533656","lat":"31.020689","category":"251","category_name":"出行住宿","address":"上海鲁汇镇中心邮局旁"},{"poiid":"B2094757D069AAFE459E","title":"浦江项目部","lon":"121.52428364","lat":"31.026001233","category":"500","category_name":"未知分类","address":"上海市闵行区汇臻路986号"},{"poiid":"B2094757D66EAAFD429D","title":"陶加湾休闲农庄","lon":"121.507575645","lat":"31.0074748201","category":"500","category_name":"未知分类","address":"上海闵行娶浦江镇永南路2018号"},{"poiid":"B2094655D26BA1F4439C","title":"鲁汇镇","lon":"121.53342","lat":"31.02042","category":"38","category_name":"公交车站","address":"汇北村十组"},{"poiid":"B2094655D26BA2F4469D","title":"浦星公路永南路","lon":"121.51367","lat":"31.00463","category":"38","category_name":"公交车站","address":""},{"poiid":"B2094757D06BA4F5489D","title":"陶家湾","lon":"121.50774191","lat":"31.008830961","category":"500","category_name":"未知分类","address":"上海闵行区永南路2018号，(近浦星公路)"},{"poiid":"B2094757D164A2FA489C","title":"梅亭農家樂","lon":"121.51768429","lat":"31.014246989","category":"247","category_name":"餐饮美食","address":"上海閔行區魯匯鎮閘航路魯陳路"},{"poiid":"B2094757D66DA5FD4898","title":"浦江市民农园","lon":"121.513474945","lat":"31.0100385772","category":"500","category_name":"未知分类","address":"上海浦星公路丰南路"},{"poiid":"B2094655D36DA7FF479C","title":"中发科技园","lon":"121.51365","lat":"31.00508","category":"38","category_name":"公交车站","address":""},{"poiid":"B2094654DB6FA0F94392","title":"闵行区鲁汇苗木基地","lon":"121.51288","lat":"31.00728","category":"45","category_name":"产业园区","address":""},{"poiid":"B2094655D36CA6F8479B","title":"丰南路","lon":"121.53015","lat":"31.01197","category":"38","category_name":"公交车站","address":""},{"poiid":"B2094757D169A1F8499B","title":"闵行区看守所","lon":"121.53385144","lat":"31.023797183","category":"500","category_name":"未知分类","address":"上海三鲁路600弄199号"},{"poiid":"B2094757D164A3FE449C","title":"上海玻璃钢研究院有限公司","lon":"121.51325224","lat":"31.005430474","category":"500","category_name":"未知分类","address":"上海奉贤区金汇镇迎金路88号"},{"poiid":"B2094655D26DA6F4429D","title":"新汇绿苑一村(汇臻路)","lon":"121.52139","lat":"31.02425","category":"47","category_name":"住宅区","address":"汇臻路939弄"},{"poiid":"B2094757D16BA1F9489D","title":"空调江平专线","lon":"121.52504674","lat":"31.015204542","category":"500","category_name":"未知分类","address":"上海平安到江月路地铁站"},{"poiid":"B2094654DB6FA0FE4798","title":"红梅苑","lon":"121.53089","lat":"31.021734","category":"47","category_name":"住宅区","address":"三鲁路467弄128支弄"},{"poiid":"B2094654DB6FA0F9479B","title":"闵行区水产技术示范基地","lon":"121.52603","lat":"30.99985","category":"45","category_name":"产业园区","address":""},{"poiid":"B2094757DA6AA4FB469A","title":"申亚会所","lon":"121.5319228","lat":"30.9977609","category":"500","category_name":"未知分类","address":"奉贤区金汇镇沿浦公路"},{"poiid":"B2094655D36CA2FA4793","title":"三鲁公路丰南路","lon":"121.5338","lat":"31.01268","category":"38","category_name":"公交车站","address":""},{"poiid":"B2094654DB6FA0F84099","title":"兰宝科技园","lon":"121.50835","lat":"31.00155","category":"45","category_name":"产业园区","address":""},{"poiid":"B2094655D26BA1F44393","title":"鲁汇","lon":"121.53341","lat":"31.02054","category":"38","category_name":"公交车站","address":""},{"poiid":"B2094655D36DA3F54099","title":"大治河桥","lon":"121.53369","lat":"31.01654","category":"250","category_name":"公园户外","address":""},{"poiid":"B2094757D168ABFB409B","title":"望佳二村","lon":"121.52932","lat":"31.01918","category":"252","category_name":"楼宇机构","address":"上海闸航路2825弄"},{"poiid":"B2094757D16FA4FD429B","title":"新汇苑小区","lon":"121.51899964","lat":"31.022605157","category":"47","category_name":"住宅区","address":"上海市闵行区汇臻路"},{"poiid":"B2094654DB6FA0F84192","title":"浦江三中","lon":"121.53253","lat":"31.01933","category":"55","category_name":"中学","address":"闵行区浦江镇闸航路2689号"},{"poiid":"B2094757D164ABFE409E","title":"浦江基地一期A块","lon":"121.51623434","lat":"31.022915264","category":"500","category_name":"未知分类","address":"上海浦星公路鲁南路口"},{"poiid":"B2094655D36DA3F5409B","title":"钱龙港桥","lon":"121.5057","lat":"31.01154","category":"250","category_name":"公园户外","address":""},{"poiid":"B2094655D26BA2F4469E","title":"浦星公路金汇大道","lon":"121.51544","lat":"30.99277","category":"38","category_name":"公交车站","address":""},{"poiid":"B2094757D465A1FF4892","title":"老甲渔庄 浦东店","lon":"121.512312054","lat":"31.025658793","category":"76","category_name":"上海菜","address":"浦汇镇仙进大队15号近东晨西路"},{"poiid":"B2094750D268A1FC459E","title":"一座城","lon":"121.529487","lat":"31.019266","category":"500","category_name":"未知分类","address":"一座城"},{"poiid":"B2094654DB6FA0F94592","title":"上海施必克防水材料厂","lon":"121.53199","lat":"31.01555","category":"263","category_name":"公司","address":""},{"poiid":"B2094655D36DA0F4419D","title":"永南路光继村6组","lon":"121.5354","lat":"31.00352","category":"38","category_name":"公交车站","address":""},{"poiid":"B2094655D26FA4F8479A","title":"新汇绿苑一村(东门)","lon":"121.52372","lat":"31.02383","category":"47","category_name":"住宅区","address":"汇臻路939弄"},{"poiid":"B2094654DB6FA0FB4398","title":"江晨大酒店","lon":"121.53178","lat":"31.01986","category":"250","category_name":"公园户外","address":"浦江镇三鲁路闸航路2718路"},{"poiid":"B2094654DB6FA0FE479B","title":"浦江镇广播电视台","lon":"121.53229","lat":"31.01978","category":"59","category_name":"电视台","address":"闸航路2688"},{"poiid":"B2094757D16CA4F8449A","title":"浦江镇第三幼儿园","lon":"121.524562","lat":"31.025108","category":"57","category_name":"幼儿园","address":"闵行区鲁南路979号(近汇臻路)"},{"poiid":"B2094654DB6FA0F94199","title":"中国农业银行鲁汇分理处","lon":"121.53009","lat":"31.01946","category":"150","category_name":"银行","address":"闵行区鲁汇镇闸航路2801号"},{"poiid":"B2094654DB6FA0FF489C","title":"国大药房上虹鲁汇店","lon":"121.53294","lat":"31.01939","category":"162","category_name":"医院","address":"闵行区闸航路2673号"},{"poiid":"B2094757D465ABF8499A","title":"老吾堂人家","lon":"121.513623054","lat":"31.026770793","category":"76","category_name":"上海菜","address":"闵行区浦星公路3333号(近鲁南路)"},{"poiid":"B2094757D568A5FA479A","title":"上海师范大学","lon":"121.51972","lat":"31.02681","category":"671","category_name":"高校中心点","address":"奉炮公路553号"},{"poiid":"B2094654DB69A6FF4493","title":"闵行区鲁汇镇鲁汇中学","lon":"121.53374","lat":"31.01942","category":"55","category_name":"中学","address":"闵行区鲁汇镇1062号"},{"poiid":"B2094654DB68A2FA4498","title":"上海玻璃钢研究所","lon":"121.51432","lat":"30.99781","category":"191","category_name":"科研机构","address":"金汇镇"},{"poiid":"B2094757D164A6FD419B","title":"Intel","lon":"121.50351164","lat":"31.009238859","category":"500","category_name":"未知分类","address":"上海紫竹科技园区 紫星路880号"},{"poiid":"B2094654DB64A5F84893","title":"浦江社区卫生服务中心鲁汇分中心","lon":"121.53543","lat":"31.02037","category":"162","category_name":"医院","address":"闸航路2550弄39号"},{"poiid":"B2094757D66CA3F8459C","title":"联智工厂","lon":"121.510167645","lat":"30.9991956356","category":"263","category_name":"公司","address":"上海市奉贤区金碧路"},{"poiid":"B2094654DB6FA0F9419E","title":"闵行区浦江第三小学","lon":"121.53445","lat":"31.02064","category":"56","category_name":"小学","address":"三鲁路468弄10"},{"poiid":"B2094654DB64A4FF459E","title":"中国农业银行鲁汇分理处24小时自助银行","lon":"121.53028","lat":"31.01945","category":"152","category_name":"ATM","address":"闸航路2801"},{"poiid":"B2094654DB6FA0F9439D","title":"农工商超市No.191","lon":"121.53533","lat":"31.01968","category":"118","category_name":"超级市场","address":"鲁汇镇"},{"poiid":"B2094655D26BA1F4439E","title":"鲁南路三鲁公路","lon":"121.53144","lat":"31.02508","category":"38","category_name":"公交车站","address":""},{"poiid":"B2094654DB64A0F8479C","title":"汇龙花苑","lon":"121.53063","lat":"31.02439","category":"47","category_name":"住宅区","address":"岁盛大酒店南"},{"poiid":"B2094757D06BA4FD449E","title":"鲁汇车站","lon":"121.533656","lat":"31.020689","category":"251","category_name":"出行住宿","address":"上海鲁汇镇中心邮局旁"},{"poiid":"B2094757D069AAFE459E","title":"浦江项目部","lon":"121.52428364","lat":"31.026001233","category":"500","category_name":"未知分类","address":"上海市闵行区汇臻路986号"}]