[{"poiid":"B2094654D56BA2F8439F","title":"上海市普陀区中心医院","lon":"121.40412","lat":"31.24159","category":"162","category_name":"医院","address":"普陀区兰溪路164号(梅川路口)"},{"poiid":"B2094757D06FABFD4098","title":"曹杨路武宁路","lon":"121.40878673","lat":"31.245086773","category":"260","category_name":"其他","address":"上海十字路口"},{"poiid":"B2094757D06EAAF5449E","title":"枫桥路地铁站","lon":"121.41106525","lat":"31.242099931","category":"36","category_name":"地铁站","address":"上海轨道交通 十一号线 轨交枫桥路站 11"},{"poiid":"B2094757D068A5F54493","title":"新名仕(兰溪路店)","lon":"121.40552","lat":"31.23883","category":"76","category_name":"上海菜","address":"上海普陀区兰溪路125号曹杨影城4楼"},{"poiid":"B2094757DA6EA5FC429B","title":"音杰量贩KTV(兰溪店)","lon":"121.405301000002","lat":"31.239481","category":"170","category_name":"KTV","address":"普陀区兰溪路138号5楼(近曹杨商场)"},{"poiid":"B2094757D06FA1FA469C","title":"曹杨商城","lon":"121.40576","lat":"31.23945","category":"119","category_name":"商场","address":"普陀区兰溪路137号曹杨商城内(近杏山路)"},{"poiid":"B2094757D065A1F5479E","title":"普陀区中心医院-急诊室","lon":"121.404378055","lat":"31.2419976243","category":"162","category_name":"医院","address":"上海兰溪路164号"},{"poiid":"B2094757D068A0F8469D","title":"金狮麟豪冠酒店","lon":"121.410437492","lat":"31.2447190276","category":"75","category_name":"浙江菜","address":"普陀区武宁路1047号(近曹杨路)"},{"poiid":"B2094757DA6EAAF9489C","title":"自由港量贩式KTV(曹杨店)","lon":"121.404811999999","lat":"31.2398229999999","category":"170","category_name":"KTV","address":"普陀区兰溪路148号4楼(近桂巷路)"},{"poiid":"B2094654DB6BA0F54792","title":"麦当劳(兰溪路店)","lon":"121.40519","lat":"31.23974","category":"68","category_name":"快餐厅","address":"普陀区兰溪路140号(近普陀区文化馆)"},{"poiid":"B2094757D06FA3F5469B","title":"八村烧烤","lon":"121.40622","lat":"31.24499","category":"68","category_name":"快餐厅","address":"普陀区南石一路(南石二路口)"},{"poiid":"B2094757D064A6FA4898","title":"普陀区曹杨二村","lon":"121.406344886","lat":"31.2438638228","category":"500","category_name":"未知分类","address":"上海普陀区曹杨二村"},{"poiid":"B2094757D068A7FD459E","title":"味千拉面(兰溪店)","lon":"121.40484858","lat":"31.239745617","category":"95","category_name":"日本料理","address":"普陀区兰溪路143号1楼(近曹杨商城)"},{"poiid":"B2094751D468ABFE489C","title":"新寺洞辛韩国年糕料理","lon":"121.40519","lat":"31.240237","category":"96","category_name":"韩国料理","address":"普陀区兰溪路148号服饰流行线2楼(近枣阳路)"},{"poiid":"B2094757D06FA1FF4093","title":"新新潘晓婷撞球俱乐部(兰溪路店)","lon":"121.405548719","lat":"31.2392777836","category":"171","category_name":"台球厅","address":"普陀区兰溪路138号普陀工人文化宫6楼(近曹杨商场)"},{"poiid":"B2094750DA64A7F5499E","title":"香如故旅游主题餐厅","lon":"121.404861","lat":"31.23994","category":"247","category_name":"餐饮美食","address":"普陀区枣阳路450号(近华师大后门)"},{"poiid":"B2094654D56BA2FA4092","title":"天目湖宾馆","lon":"121.40873","lat":"31.24382","category":"250","category_name":"公园户外","address":"上海市普陀区曹杨路1021号（近武宁路）。"},{"poiid":"B2094757D06FA1FF419E","title":"85度C(兰溪店)","lon":"121.404919","lat":"31.239913","category":"112","category_name":"糕饼店","address":"普陀区兰溪路148号流行线内(近桂巷路)"},{"poiid":"B2094654D56BA2FA4093","title":"天目湖砂锅鱼头","lon":"121.40874","lat":"31.24382","category":"257","category_name":"中餐厅","address":"上海曹杨路1021号"},{"poiid":"B2094750DA6EA2F54799","title":"地铁站","lon":"121.405929","lat":"31.241863","category":"36","category_name":"地铁站","address":null},{"poiid":"B2094757D06FAAF44999","title":"健之星健身中心","lon":"121.405451204","lat":"31.239540626","category":"221","category_name":"健身中心","address":"普陀区兰溪路138号4楼(曹杨商场对面)"},{"poiid":"B2094654D56BA2F9439D","title":"上海市朝春中心小学","lon":"121.40743","lat":"31.24153","category":"56","category_name":"小学","address":"普陀区棠浦路50号(近兰溪路)"},{"poiid":"B2094757D068A5FA499E","title":"曹杨公园","lon":"121.40949","lat":"31.23983","category":"196","category_name":"公园","address":"上海普陀区枫桥路50号(近梅岭北路)"},{"poiid":"B2094655D26CABFA469D","title":"梅岭苑南门(梅岭北路)","lon":"121.40707","lat":"31.24284","category":"47","category_name":"住宅区","address":"梅岭北路400弄23-29号"},{"poiid":"B2094757D068A0F8439F","title":"傣妹(兰溪路店)","lon":"121.40522","lat":"31.23977","category":"86","category_name":"火锅店","address":"普陀区兰溪路136号西部广场3楼(近棠浦路)"},{"poiid":"B2094655D36CA6F84398","title":"枫桥路梅岭北路","lon":"121.40834","lat":"31.24214","category":"38","category_name":"公交车站","address":""},{"poiid":"B2094757D16FA4F94093","title":"兰溪路烧烤","lon":"121.40722","lat":"31.24264","category":"68","category_name":"快餐厅","address":"普陀区兰溪路曹杨三村水果摊旁(近梅岭北路)"},{"poiid":"B2094750D76CA2FD4093","title":"沈家门兰嫂海鲜面(曹杨路店)","lon":"121.409","lat":"31.2456","category":"68","category_name":"快餐厅","address":"普陀区武宁路1071号(曹杨路武宁路口)"},{"poiid":"B2094655D264A1FF4199","title":"香山苑","lon":"121.41","lat":"31.242","category":"47","category_name":"住宅区","address":"上海普陀区枣阳路185弄"},{"poiid":"B2094757D169A0F5449C","title":"冬明烧烤","lon":"121.40667","lat":"31.24291","category":"68","category_name":"快餐厅","address":"普陀区梅岭北路400弄曹杨二村108号"},{"poiid":"B2094654DB65A0F9499B","title":"莫泰168连锁旅店(曹杨新村店)","lon":"121.40918","lat":"31.24164","category":"216","category_name":"经济型连锁酒店","address":"上海市普陀区枫桥路69号（近梅岭北路）"},{"poiid":"B2094655D36CA6F8439F","title":"枫桥路","lon":"121.40858","lat":"31.2419","category":"38","category_name":"公交车站","address":""},{"poiid":"B2094654DB6BA0F5469D","title":"北杨园(南门)","lon":"121.40764","lat":"31.2428","category":"47","category_name":"住宅区","address":""},{"poiid":"B2094757D16BA4FC4499","title":"梅岭北路近兰溪路","lon":"121.407585586","lat":"31.2423826688","category":"500","category_name":"未知分类","address":"上海普陀"},{"poiid":"B2094757D06FA2FC419E","title":"北杨园","lon":"121.40804","lat":"31.243698","category":"47","category_name":"住宅区","address":"梅岭北路路271弄"},{"poiid":"B2094757D165AAF4469F","title":"联华超市(梅岭北路店)","lon":"121.407489","lat":"31.242815","category":"118","category_name":"超级市场","address":"普陀区梅岭北路(梅岭北路杨柳青路)"},{"poiid":"B2094654D56BA2F8469F","title":"北梅园","lon":"121.40634","lat":"31.24223","category":"47","category_name":"住宅区","address":"上海曹杨二村"},{"poiid":"B2094654D56BA2FA4199","title":"苏州面馆(曹杨路)","lon":"121.40927","lat":"31.24347","category":"68","category_name":"快餐厅","address":"普陀区曹杨路1013号(近枫桥路)"},{"poiid":"B2094654D56BA2F94798","title":"上海中医药大学附属普陀医院","lon":"121.40412","lat":"31.24158","category":"162","category_name":"医院","address":"梅岭北路409号"},{"poiid":"B2094751D568ABF84192","title":"江南公社","lon":"121.4048","lat":"31.24005","category":"77","category_name":"湖南菜","address":"普陀区兰溪路148号2楼流行线美食广场(近普陀医院)"},{"poiid":"B2094655D26CABFA4298","title":"北梅园北区(南门)","lon":"121.40653","lat":"31.24288","category":"47","category_name":"住宅区","address":"梅岭北路400弄1-45号"},{"poiid":"B2094654D56BA2F8429E","title":"乐购(北梅园西北)","lon":"121.40567","lat":"31.24272","category":"118","category_name":"超级市场","address":"梅岭北路408、408-1"},{"poiid":"B2094757D66AA5F84498","title":"琳琳小菜 枫桥路店","lon":"121.40936","lat":"31.24133","category":"76","category_name":"上海菜","address":"普陀区枫桥路20号(近梅岭北路)"},{"poiid":"B2094757D66FA6F9449A","title":"川味烤鱼(蓝村路店)","lon":"121.40771758","lat":"31.243454589","category":"247","category_name":"餐饮美食","address":"上海蓝村路火锅一条街"},{"poiid":"B2094654D56BA2FB409A","title":"枫桥苑","lon":"121.41119","lat":"31.242687","category":"47","category_name":"住宅区","address":"上海市普陀区曹杨路922弄"},{"poiid":"B2094757D16CA5FC4699","title":"上海市普陀区中心医院门诊放射科","lon":"121.40506398","lat":"31.241996361","category":"162","category_name":"医院","address":"上海市兰溪路164号"},{"poiid":"B2094654D56BA2FF4993","title":"利康足摩房","lon":"121.40769","lat":"31.24285","category":"149","category_name":"洗浴推拿场所","address":"曹阳二村266号"},{"poiid":"B2094655D26DA5F94698","title":"曹杨一村(曹杨公园西北)","lon":"121.40818","lat":"31.24095","category":"47","category_name":"住宅区","address":""},{"poiid":"B2094757D168A2F8479A","title":"普陀区成人大学","lon":"121.409505","lat":"31.241913","category":"253","category_name":"校园生活","address":"上海枫桥路61号"},{"poiid":"B2094757D169A1FF419F","title":"兰溪公园","lon":"121.40573658","lat":"31.241906659","category":"196","category_name":"公园","address":"上海市普陀区兰溪路"},{"poiid":"B2094654D56BA2F8439F","title":"上海市普陀区中心医院","lon":"121.40412","lat":"31.24159","category":"162","category_name":"医院","address":"普陀区兰溪路164号(梅川路口)"},{"poiid":"B2094757D06FABFD4098","title":"曹杨路武宁路","lon":"121.40878673","lat":"31.245086773","category":"260","category_name":"其他","address":"上海十字路口"},{"poiid":"B2094757D06EAAF5449E","title":"枫桥路地铁站","lon":"121.41106525","lat":"31.242099931","category":"36","category_name":"地铁站","address":"上海轨道交通 十一号线 轨交枫桥路站 11"},{"poiid":"B2094757D068A5F54493","title":"新名仕(兰溪路店)","lon":"121.40552","lat":"31.23883","category":"76","category_name":"上海菜","address":"上海普陀区兰溪路125号曹杨影城4楼"},{"poiid":"B2094757DA6EA5FC429B","title":"音杰量贩KTV(兰溪店)","lon":"121.405301000002","lat":"31.239481","category":"170","category_name":"KTV","address":"普陀区兰溪路138号5楼(近曹杨商场)"},{"poiid":"B2094757D06FA1FA469C","title":"曹杨商城","lon":"121.40576","lat":"31.23945","category":"119","category_name":"商场","address":"普陀区兰溪路137号曹杨商城内(近杏山路)"},{"poiid":"B2094757D065A1F5479E","title":"普陀区中心医院-急诊室","lon":"121.404378055","lat":"31.2419976243","category":"162","category_name":"医院","address":"上海兰溪路164号"},{"poiid":"B2094757D068A0F8469D","title":"金狮麟豪冠酒店","lon":"121.410437492","lat":"31.2447190276","category":"75","category_name":"浙江菜","address":"普陀区武宁路1047号(近曹杨路)"},{"poiid":"B2094757DA6EAAF9489C","title":"自由港量贩式KTV(曹杨店)","lon":"121.404811999999","lat":"31.2398229999999","category":"170","category_name":"KTV","address":"普陀区兰溪路148号4楼(近桂巷路)"},{"poiid":"B2094654DB6BA0F54792","title":"麦当劳(兰溪路店)","lon":"121.40519","lat":"31.23974","category":"68","category_name":"快餐厅","address":"普陀区兰溪路140号(近普陀区文化馆)"},{"poiid":"B2094757D06FA3F5469B","title":"八村烧烤","lon":"121.40622","lat":"31.24499","category":"68","category_name":"快餐厅","address":"普陀区南石一路(南石二路口)"},{"poiid":"B2094757D064A6FA4898","title":"普陀区曹杨二村","lon":"121.406344886","lat":"31.2438638228","category":"500","category_name":"未知分类","address":"上海普陀区曹杨二村"},{"poiid":"B2094757D068A7FD459E","title":"味千拉面(兰溪店)","lon":"121.40484858","lat":"31.239745617","category":"95","category_name":"日本料理","address":"普陀区兰溪路143号1楼(近曹杨商城)"},{"poiid":"B2094751D468ABFE489C","title":"新寺洞辛韩国年糕料理","lon":"121.40519","lat":"31.240237","category":"96","category_name":"韩国料理","address":"普陀区兰溪路148号服饰流行线2楼(近枣阳路)"},{"poiid":"B2094757D06FA1FF4093","title":"新新潘晓婷撞球俱乐部(兰溪路店)","lon":"121.405548719","lat":"31.2392777836","category":"171","category_name":"台球厅","address":"普陀区兰溪路138号普陀工人文化宫6楼(近曹杨商场)"},{"poiid":"B2094750DA64A7F5499E","title":"香如故旅游主题餐厅","lon":"121.404861","lat":"31.23994","category":"247","category_name":"餐饮美食","address":"普陀区枣阳路450号(近华师大后门)"},{"poiid":"B2094654D56BA2FA4092","title":"天目湖宾馆","lon":"121.40873","lat":"31.24382","category":"250","category_name":"公园户外","address":"上海市普陀区曹杨路1021号（近武宁路）。"},{"poiid":"B2094757D06FA1FF419E","title":"85度C(兰溪店)","lon":"121.404919","lat":"31.239913","category":"112","category_name":"糕饼店","address":"普陀区兰溪路148号流行线内(近桂巷路)"},{"poiid":"B2094654D56BA2FA4093","title":"天目湖砂锅鱼头","lon":"121.40874","lat":"31.24382","category":"257","category_name":"中餐厅","address":"上海曹杨路1021号"},{"poiid":"B2094750DA6EA2F54799","title":"地铁站","lon":"121.405929","lat":"31.241863","category":"36","category_name":"地铁站","address":null},{"poiid":"B2094757D06FAAF44999","title":"健之星健身中心","lon":"121.405451204","lat":"31.239540626","category":"221","category_name":"健身中心","address":"普陀区兰溪路138号4楼(曹杨商场对面)"},{"poiid":"B2094654D56BA2F9439D","title":"上海市朝春中心小学","lon":"121.40743","lat":"31.24153","category":"56","category_name":"小学","address":"普陀区棠浦路50号(近兰溪路)"},{"poiid":"B2094757D068A5FA499E","title":"曹杨公园","lon":"121.40949","lat":"31.23983","category":"196","category_name":"公园","address":"上海普陀区枫桥路50号(近梅岭北路)"},{"poiid":"B2094655D26CABFA469D","title":"梅岭苑南门(梅岭北路)","lon":"121.40707","lat":"31.24284","category":"47","category_name":"住宅区","address":"梅岭北路400弄23-29号"},{"poiid":"B2094757D068A0F8439F","title":"傣妹(兰溪路店)","lon":"121.40522","lat":"31.23977","category":"86","category_name":"火锅店","address":"普陀区兰溪路136号西部广场3楼(近棠浦路)"},{"poiid":"B2094655D36CA6F84398","title":"枫桥路梅岭北路","lon":"121.40834","lat":"31.24214","category":"38","category_name":"公交车站","address":""},{"poiid":"B2094757D16FA4F94093","title":"兰溪路烧烤","lon":"121.40722","lat":"31.24264","category":"68","category_name":"快餐厅","address":"普陀区兰溪路曹杨三村水果摊旁(近梅岭北路)"},{"poiid":"B2094750D76CA2FD4093","title":"沈家门兰嫂海鲜面(曹杨路店)","lon":"121.409","lat":"31.2456","category":"68","category_name":"快餐厅","address":"普陀区武宁路1071号(曹杨路武宁路口)"},{"poiid":"B2094655D264A1FF4199","title":"香山苑","lon":"121.41","lat":"31.242","category":"47","category_name":"住宅区","address":"上海普陀区枣阳路185弄"},{"poiid":"B2094757D169A0F5449C","title":"冬明烧烤","lon":"121.40667","lat":"31.24291","category":"68","category_name":"快餐厅","address":"普陀区梅岭北路400弄曹杨二村108号"},{"poiid":"B2094654DB65A0F9499B","title":"莫泰168连锁旅店(曹杨新村店)","lon":"121.40918","lat":"31.24164","category":"216","category_name":"经济型连锁酒店","address":"上海市普陀区枫桥路69号（近梅岭北路）"},{"poiid":"B2094655D36CA6F8439F","title":"枫桥路","lon":"121.40858","lat":"31.2419","category":"38","category_name":"公交车站","address":""},{"poiid":"B2094654DB6BA0F5469D","title":"北杨园(南门)","lon":"121.40764","lat":"31.2428","category":"47","category_name":"住宅区","address":""},{"poiid":"B2094757D16BA4FC4499","title":"梅岭北路近兰溪路","lon":"121.407585586","lat":"31.2423826688","category":"500","category_name":"未知分类","address":"上海普陀"},{"poiid":"B2094757D06FA2FC419E","title":"北杨园","lon":"121.40804","lat":"31.243698","category":"47","category_name":"住宅区","address":"梅岭北路路271弄"},{"poiid":"B2094757D165AAF4469F","title":"联华超市(梅岭北路店)","lon":"121.407489","lat":"31.242815","category":"118","category_name":"超级市场","address":"普陀区梅岭北路(梅岭北路杨柳青路)"},{"poiid":"B2094654D56BA2F8469F","title":"北梅园","lon":"121.40634","lat":"31.24223","category":"47","category_name":"住宅区","address":"上海曹杨二村"},{"poiid":"B2094654D56BA2FA4199","title":"苏州面馆(曹杨路)","lon":"121.40927","lat":"31.24347","category":"68","category_name":"快餐厅","address":"普陀区曹杨路1013号(近枫桥路)"},{"poiid":"B2094654D56BA2F94798","title":"上海中医药大学附属普陀医院","lon":"121.40412","lat":"31.24158","category":"162","category_name":"医院","address":"梅岭北路409号"},{"poiid":"B2094751D568ABF84192","title":"江南公社","lon":"121.4048","lat":"31.24005","category":"77","category_name":"湖南菜","address":"普陀区兰溪路148号2楼流行线美食广场(近普陀医院)"},{"poiid":"B2094655D26CABFA4298","title":"北梅园北区(南门)","lon":"121.40653","lat":"31.24288","category":"47","category_name":"住宅区","address":"梅岭北路400弄1-45号"},{"poiid":"B2094654D56BA2F8429E","title":"乐购(北梅园西北)","lon":"121.40567","lat":"31.24272","category":"118","category_name":"超级市场","address":"梅岭北路408、408-1"},{"poiid":"B2094757D66AA5F84498","title":"琳琳小菜 枫桥路店","lon":"121.40936","lat":"31.24133","category":"76","category_name":"上海菜","address":"普陀区枫桥路20号(近梅岭北路)"},{"poiid":"B2094757D66FA6F9449A","title":"川味烤鱼(蓝村路店)","lon":"121.40771758","lat":"31.243454589","category":"247","category_name":"餐饮美食","address":"上海蓝村路火锅一条街"},{"poiid":"B2094654D56BA2FB409A","title":"枫桥苑","lon":"121.41119","lat":"31.242687","category":"47","category_name":"住宅区","address":"上海市普陀区曹杨路922弄"},{"poiid":"B2094757D16CA5FC4699","title":"上海市普陀区中心医院门诊放射科","lon":"121.40506398","lat":"31.241996361","category":"162","category_name":"医院","address":"上海市兰溪路164号"},{"poiid":"B2094654D56BA2FF4993","title":"利康足摩房","lon":"121.40769","lat":"31.24285","category":"149","category_name":"洗浴推拿场所","address":"曹阳二村266号"},{"poiid":"B2094655D26DA5F94698","title":"曹杨一村(曹杨公园西北)","lon":"121.40818","lat":"31.24095","category":"47","category_name":"住宅区","address":""},{"poiid":"B2094757D168A2F8479A","title":"普陀区成人大学","lon":"121.409505","lat":"31.241913","category":"253","category_name":"校园生活","address":"上海枫桥路61号"},{"poiid":"B2094757D169A1FF419F","title":"兰溪公园","lon":"121.40573658","lat":"31.241906659","category":"196","category_name":"公园","address":"上海市普陀区兰溪路"},{"poiid":"B2094654D56BA2F8439F","title":"上海市普陀区中心医院","lon":"121.40412","lat":"31.24159","category":"162","category_name":"医院","address":"普陀区兰溪路164号(梅川路口)"},{"poiid":"B2094757D06FABFD4098","title":"曹杨路武宁路","lon":"121.40878673","lat":"31.245086773","category":"260","category_name":"其他","address":"上海十字路口"},{"poiid":"B2094757D06EAAF5449E","title":"枫桥路地铁站","lon":"121.41106525","lat":"31.242099931","category":"36","category_name":"地铁站","address":"上海轨道交通 十一号线 轨交枫桥路站 11"},{"poiid":"B2094757D068A5F54493","title":"新名仕(兰溪路店)","lon":"121.40552","lat":"31.23883","category":"76","category_name":"上海菜","address":"上海普陀区兰溪路125号曹杨影城4楼"},{"poiid":"B2094757DA6EA5FC429B","title":"音杰量贩KTV(兰溪店)","lon":"121.405301000002","lat":"31.239481","category":"170","category_name":"KTV","address":"普陀区兰溪路138号5楼(近曹杨商场)"},{"poiid":"B2094757D06FA1FA469C","title":"曹杨商城","lon":"121.40576","lat":"31.23945","category":"119","category_name":"商场","address":"普陀区兰溪路137号曹杨商城内(近杏山路)"},{"poiid":"B2094757D065A1F5479E","title":"普陀区中心医院-急诊室","lon":"121.404378055","lat":"31.2419976243","category":"162","category_name":"医院","address":"上海兰溪路164号"},{"poiid":"B2094757D068A0F8469D","title":"金狮麟豪冠酒店","lon":"121.410437492","lat":"31.2447190276","category":"75","category_name":"浙江菜","address":"普陀区武宁路1047号(近曹杨路)"},{"poiid":"B2094757DA6EAAF9489C","title":"自由港量贩式KTV(曹杨店)","lon":"121.404811999999","lat":"31.2398229999999","category":"170","category_name":"KTV","address":"普陀区兰溪路148号4楼(近桂巷路)"},{"poiid":"B2094654DB6BA0F54792","title":"麦当劳(兰溪路店)","lon":"121.40519","lat":"31.23974","category":"68","category_name":"快餐厅","address":"普陀区兰溪路140号(近普陀区文化馆)"},{"poiid":"B2094757D06FA3F5469B","title":"八村烧烤","lon":"121.40622","lat":"31.24499","category":"68","category_name":"快餐厅","address":"普陀区南石一路(南石二路口)"},{"poiid":"B2094757D064A6FA4898","title":"普陀区曹杨二村","lon":"121.406344886","lat":"31.2438638228","category":"500","category_name":"未知分类","address":"上海普陀区曹杨二村"},{"poiid":"B2094757D068A7FD459E","title":"味千拉面(兰溪店)","lon":"121.40484858","lat":"31.239745617","category":"95","category_name":"日本料理","address":"普陀区兰溪路143号1楼(近曹杨商城)"},{"poiid":"B2094751D468ABFE489C","title":"新寺洞辛韩国年糕料理","lon":"121.40519","lat":"31.240237","category":"96","category_name":"韩国料理","address":"普陀区兰溪路148号服饰流行线2楼(近枣阳路)"},{"poiid":"B2094757D06FA1FF4093","title":"新新潘晓婷撞球俱乐部(兰溪路店)","lon":"121.405548719","lat":"31.2392777836","category":"171","category_name":"台球厅","address":"普陀区兰溪路138号普陀工人文化宫6楼(近曹杨商场)"},{"poiid":"B2094750DA64A7F5499E","title":"香如故旅游主题餐厅","lon":"121.404861","lat":"31.23994","category":"247","category_name":"餐饮美食","address":"普陀区枣阳路450号(近华师大后门)"},{"poiid":"B2094654D56BA2FA4092","title":"天目湖宾馆","lon":"121.40873","lat":"31.24382","category":"250","category_name":"公园户外","address":"上海市普陀区曹杨路1021号（近武宁路）。"},{"poiid":"B2094757D06FA1FF419E","title":"85度C(兰溪店)","lon":"121.404919","lat":"31.239913","category":"112","category_name":"糕饼店","address":"普陀区兰溪路148号流行线内(近桂巷路)"},{"poiid":"B2094654D56BA2FA4093","title":"天目湖砂锅鱼头","lon":"121.40874","lat":"31.24382","category":"257","category_name":"中餐厅","address":"上海曹杨路1021号"},{"poiid":"B2094750DA6EA2F54799","title":"地铁站","lon":"121.405929","lat":"31.241863","category":"36","category_name":"地铁站","address":null},{"poiid":"B2094757D06FAAF44999","title":"健之星健身中心","lon":"121.405451204","lat":"31.239540626","category":"221","category_name":"健身中心","address":"普陀区兰溪路138号4楼(曹杨商场对面)"},{"poiid":"B2094654D56BA2F9439D","title":"上海市朝春中心小学","lon":"121.40743","lat":"31.24153","category":"56","category_name":"小学","address":"普陀区棠浦路50号(近兰溪路)"},{"poiid":"B2094757D068A5FA499E","title":"曹杨公园","lon":"121.40949","lat":"31.23983","category":"196","category_name":"公园","address":"上海普陀区枫桥路50号(近梅岭北路)"},{"poiid":"B2094655D26CABFA469D","title":"梅岭苑南门(梅岭北路)","lon":"121.40707","lat":"31.24284","category":"47","category_name":"住宅区","address":"梅岭北路400弄23-29号"},{"poiid":"B2094757D068A0F8439F","title":"傣妹(兰溪路店)","lon":"121.40522","lat":"31.23977","category":"86","category_name":"火锅店","address":"普陀区兰溪路136号西部广场3楼(近棠浦路)"},{"poiid":"B2094655D36CA6F84398","title":"枫桥路梅岭北路","lon":"121.40834","lat":"31.24214","category":"38","category_name":"公交车站","address":""},{"poiid":"B2094757D16FA4F94093","title":"兰溪路烧烤","lon":"121.40722","lat":"31.24264","category":"68","category_name":"快餐厅","address":"普陀区兰溪路曹杨三村水果摊旁(近梅岭北路)"},{"poiid":"B2094750D76CA2FD4093","title":"沈家门兰嫂海鲜面(曹杨路店)","lon":"121.409","lat":"31.2456","category":"68","category_name":"快餐厅","address":"普陀区武宁路1071号(曹杨路武宁路口)"},{"poiid":"B2094655D264A1FF4199","title":"香山苑","lon":"121.41","lat":"31.242","category":"47","category_name":"住宅区","address":"上海普陀区枣阳路185弄"},{"poiid":"B2094757D169A0F5449C","title":"冬明烧烤","lon":"121.40667","lat":"31.24291","category":"68","category_name":"快餐厅","address":"普陀区梅岭北路400弄曹杨二村108号"},{"poiid":"B2094654DB65A0F9499B","title":"莫泰168连锁旅店(曹杨新村店)","lon":"121.40918","lat":"31.24164","category":"216","category_name":"经济型连锁酒店","address":"上海市普陀区枫桥路69号（近梅岭北路）"},{"poiid":"B2094655D36CA6F8439F","title":"枫桥路","lon":"121.40858","lat":"31.2419","category":"38","category_name":"公交车站","address":""},{"poiid":"B2094654DB6BA0F5469D","title":"北杨园(南门)","lon":"121.40764","lat":"31.2428","category":"47","category_name":"住宅区","address":""},{"poiid":"B2094757D16BA4FC4499","title":"梅岭北路近兰溪路","lon":"121.407585586","lat":"31.2423826688","category":"500","category_name":"未知分类","address":"上海普陀"},{"poiid":"B2094757D06FA2FC419E","title":"北杨园","lon":"121.40804","lat":"31.243698","category":"47","category_name":"住宅区","address":"梅岭北路路271弄"},{"poiid":"B2094757D165AAF4469F","title":"联华超市(梅岭北路店)","lon":"121.407489","lat":"31.242815","category":"118","category_name":"超级市场","address":"普陀区梅岭北路(梅岭北路杨柳青路)"},{"poiid":"B2094654D56BA2F8469F","title":"北梅园","lon":"121.40634","lat":"31.24223","category":"47","category_name":"住宅区","address":"上海曹杨二村"},{"poiid":"B2094654D56BA2FA4199","title":"苏州面馆(曹杨路)","lon":"121.40927","lat":"31.24347","category":"68","category_name":"快餐厅","address":"普陀区曹杨路1013号(近枫桥路)"},{"poiid":"B2094654D56BA2F94798","title":"上海中医药大学附属普陀医院","lon":"121.40412","lat":"31.24158","category":"162","category_name":"医院","address":"梅岭北路409号"},{"poiid":"B2094751D568ABF84192","title":"江南公社","lon":"121.4048","lat":"31.24005","category":"77","category_name":"湖南菜","address":"普陀区兰溪路148号2楼流行线美食广场(近普陀医院)"},{"poiid":"B2094655D26CABFA4298","title":"北梅园北区(南门)","lon":"121.40653","lat":"31.24288","category":"47","category_name":"住宅区","address":"梅岭北路400弄1-45号"},{"poiid":"B2094654D56BA2F8429E","title":"乐购(北梅园西北)","lon":"121.40567","lat":"31.24272","category":"118","category_name":"超级市场","address":"梅岭北路408、408-1"},{"poiid":"B2094757D66AA5F84498","title":"琳琳小菜 枫桥路店","lon":"121.40936","lat":"31.24133","category":"76","category_name":"上海菜","address":"普陀区枫桥路20号(近梅岭北路)"},{"poiid":"B2094757D66FA6F9449A","title":"川味烤鱼(蓝村路店)","lon":"121.40771758","lat":"31.243454589","category":"247","category_name":"餐饮美食","address":"上海蓝村路火锅一条街"},{"poiid":"B2094654D56BA2FB409A","title":"枫桥苑","lon":"121.41119","lat":"31.242687","category":"47","category_name":"住宅区","address":"上海市普陀区曹杨路922弄"},{"poiid":"B2094757D16CA5FC4699","title":"上海市普陀区中心医院门诊放射科","lon":"121.40506398","lat":"31.241996361","category":"162","category_name":"医院","address":"上海市兰溪路164号"},{"poiid":"B2094654D56BA2FF4993","title":"利康足摩房","lon":"121.40769","lat":"31.24285","category":"149","category_name":"洗浴推拿场所","address":"曹阳二村266号"},{"poiid":"B2094655D26DA5F94698","title":"曹杨一村(曹杨公园西北)","lon":"121.40818","lat":"31.24095","category":"47","category_name":"住宅区","address":""},{"poiid":"B2094757D168A2F8479A","title":"普陀区成人大学","lon":"121.409505","lat":"31.241913","category":"253","category_name":"校园生活","address":"上海枫桥路61号"},{"poiid":"B2094757D169A1FF419F","title":"兰溪公园","lon":"121.40573658","lat":"31.241906659","category":"196","category_name":"公园","address":"上海市普陀区兰溪路"},{"poiid":"B2094654D56BA2F8439F","title":"上海市普陀区中心医院","lon":"121.40412","lat":"31.24159","category":"162","category_name":"医院","address":"普陀区兰溪路164号(梅川路口)"},{"poiid":"B2094757D06FABFD4098","title":"曹杨路武宁路","lon":"121.40878673","lat":"31.245086773","category":"260","category_name":"其他","address":"上海十字路口"},{"poiid":"B2094757D06EAAF5449E","title":"枫桥路地铁站","lon":"121.41106525","lat":"31.242099931","category":"36","category_name":"地铁站","address":"上海轨道交通 十一号线 轨交枫桥路站 11"},{"poiid":"B2094757D068A5F54493","title":"新名仕(兰溪路店)","lon":"121.40552","lat":"31.23883","category":"76","category_name":"上海菜","address":"上海普陀区兰溪路125号曹杨影城4楼"},{"poiid":"B2094757DA6EA5FC429B","title":"音杰量贩KTV(兰溪店)","lon":"121.405301000002","lat":"31.239481","category":"170","category_name":"KTV","address":"普陀区兰溪路138号5楼(近曹杨商场)"},{"poiid":"B2094757D06FA1FA469C","title":"曹杨商城","lon":"121.40576","lat":"31.23945","category":"119","category_name":"商场","address":"普陀区兰溪路137号曹杨商城内(近杏山路)"},{"poiid":"B2094757D065A1F5479E","title":"普陀区中心医院-急诊室","lon":"121.404378055","lat":"31.2419976243","category":"162","category_name":"医院","address":"上海兰溪路164号"},{"poiid":"B2094757D068A0F8469D","title":"金狮麟豪冠酒店","lon":"121.410437492","lat":"31.2447190276","category":"75","category_name":"浙江菜","address":"普陀区武宁路1047号(近曹杨路)"},{"poiid":"B2094757DA6EAAF9489C","title":"自由港量贩式KTV(曹杨店)","lon":"121.404811999999","lat":"31.2398229999999","category":"170","category_name":"KTV","address":"普陀区兰溪路148号4楼(近桂巷路)"},{"poiid":"B2094654DB6BA0F54792","title":"麦当劳(兰溪路店)","lon":"121.40519","lat":"31.23974","category":"68","category_name":"快餐厅","address":"普陀区兰溪路140号(近普陀区文化馆)"},{"poiid":"B2094757D06FA3F5469B","title":"八村烧烤","lon":"121.40622","lat":"31.24499","category":"68","category_name":"快餐厅","address":"普陀区南石一路(南石二路口)"},{"poiid":"B2094757D064A6FA4898","title":"普陀区曹杨二村","lon":"121.406344886","lat":"31.2438638228","category":"500","category_name":"未知分类","address":"上海普陀区曹杨二村"},{"poiid":"B2094757D068A7FD459E","title":"味千拉面(兰溪店)","lon":"121.40484858","lat":"31.239745617","category":"95","category_name":"日本料理","address":"普陀区兰溪路143号1楼(近曹杨商城)"},{"poiid":"B2094751D468ABFE489C","title":"新寺洞辛韩国年糕料理","lon":"121.40519","lat":"31.240237","category":"96","category_name":"韩国料理","address":"普陀区兰溪路148号服饰流行线2楼(近枣阳路)"},{"poiid":"B2094757D06FA1FF4093","title":"新新潘晓婷撞球俱乐部(兰溪路店)","lon":"121.405548719","lat":"31.2392777836","category":"171","category_name":"台球厅","address":"普陀区兰溪路138号普陀工人文化宫6楼(近曹杨商场)"},{"poiid":"B2094750DA64A7F5499E","title":"香如故旅游主题餐厅","lon":"121.404861","lat":"31.23994","category":"247","category_name":"餐饮美食","address":"普陀区枣阳路450号(近华师大后门)"},{"poiid":"B2094654D56BA2FA4092","title":"天目湖宾馆","lon":"121.40873","lat":"31.24382","category":"250","category_name":"公园户外","address":"上海市普陀区曹杨路1021号（近武宁路）。"},{"poiid":"B2094757D06FA1FF419E","title":"85度C(兰溪店)","lon":"121.404919","lat":"31.239913","category":"112","category_name":"糕饼店","address":"普陀区兰溪路148号流行线内(近桂巷路)"},{"poiid":"B2094654D56BA2FA4093","title":"天目湖砂锅鱼头","lon":"121.40874","lat":"31.24382","category":"257","category_name":"中餐厅","address":"上海曹杨路1021号"},{"poiid":"B2094750DA6EA2F54799","title":"地铁站","lon":"121.405929","lat":"31.241863","category":"36","category_name":"地铁站","address":null},{"poiid":"B2094757D06FAAF44999","title":"健之星健身中心","lon":"121.405451204","lat":"31.239540626","category":"221","category_name":"健身中心","address":"普陀区兰溪路138号4楼(曹杨商场对面)"},{"poiid":"B2094654D56BA2F9439D","title":"上海市朝春中心小学","lon":"121.40743","lat":"31.24153","category":"56","category_name":"小学","address":"普陀区棠浦路50号(近兰溪路)"},{"poiid":"B2094757D068A5FA499E","title":"曹杨公园","lon":"121.40949","lat":"31.23983","category":"196","category_name":"公园","address":"上海普陀区枫桥路50号(近梅岭北路)"},{"poiid":"B2094655D26CABFA469D","title":"梅岭苑南门(梅岭北路)","lon":"121.40707","lat":"31.24284","category":"47","category_name":"住宅区","address":"梅岭北路400弄23-29号"},{"poiid":"B2094757D068A0F8439F","title":"傣妹(兰溪路店)","lon":"121.40522","lat":"31.23977","category":"86","category_name":"火锅店","address":"普陀区兰溪路136号西部广场3楼(近棠浦路)"},{"poiid":"B2094655D36CA6F84398","title":"枫桥路梅岭北路","lon":"121.40834","lat":"31.24214","category":"38","category_name":"公交车站","address":""},{"poiid":"B2094757D16FA4F94093","title":"兰溪路烧烤","lon":"121.40722","lat":"31.24264","category":"68","category_name":"快餐厅","address":"普陀区兰溪路曹杨三村水果摊旁(近梅岭北路)"},{"poiid":"B2094750D76CA2FD4093","title":"沈家门兰嫂海鲜面(曹杨路店)","lon":"121.409","lat":"31.2456","category":"68","category_name":"快餐厅","address":"普陀区武宁路1071号(曹杨路武宁路口)"},{"poiid":"B2094655D264A1FF4199","title":"香山苑","lon":"121.41","lat":"31.242","category":"47","category_name":"住宅区","address":"上海普陀区枣阳路185弄"},{"poiid":"B2094757D169A0F5449C","title":"冬明烧烤","lon":"121.40667","lat":"31.24291","category":"68","category_name":"快餐厅","address":"普陀区梅岭北路400弄曹杨二村108号"},{"poiid":"B2094654DB65A0F9499B","title":"莫泰168连锁旅店(曹杨新村店)","lon":"121.40918","lat":"31.24164","category":"216","category_name":"经济型连锁酒店","address":"上海市普陀区枫桥路69号（近梅岭北路）"},{"poiid":"B2094655D36CA6F8439F","title":"枫桥路","lon":"121.40858","lat":"31.2419","category":"38","category_name":"公交车站","address":""},{"poiid":"B2094654DB6BA0F5469D","title":"北杨园(南门)","lon":"121.40764","lat":"31.2428","category":"47","category_name":"住宅区","address":""},{"poiid":"B2094757D16BA4FC4499","title":"梅岭北路近兰溪路","lon":"121.407585586","lat":"31.2423826688","category":"500","category_name":"未知分类","address":"上海普陀"},{"poiid":"B2094757D06FA2FC419E","title":"北杨园","lon":"121.40804","lat":"31.243698","category":"47","category_name":"住宅区","address":"梅岭北路路271弄"},{"poiid":"B2094757D165AAF4469F","title":"联华超市(梅岭北路店)","lon":"121.407489","lat":"31.242815","category":"118","category_name":"超级市场","address":"普陀区梅岭北路(梅岭北路杨柳青路)"},{"poiid":"B2094654D56BA2F8469F","title":"北梅园","lon":"121.40634","lat":"31.24223","category":"47","category_name":"住宅区","address":"上海曹杨二村"},{"poiid":"B2094654D56BA2FA4199","title":"苏州面馆(曹杨路)","lon":"121.40927","lat":"31.24347","category":"68","category_name":"快餐厅","address":"普陀区曹杨路1013号(近枫桥路)"},{"poiid":"B2094654D56BA2F94798","title":"上海中医药大学附属普陀医院","lon":"121.40412","lat":"31.24158","category":"162","category_name":"医院","address":"梅岭北路409号"},{"poiid":"B2094751D568ABF84192","title":"江南公社","lon":"121.4048","lat":"31.24005","category":"77","category_name":"湖南菜","address":"普陀区兰溪路148号2楼流行线美食广场(近普陀医院)"},{"poiid":"B2094655D26CABFA4298","title":"北梅园北区(南门)","lon":"121.40653","lat":"31.24288","category":"47","category_name":"住宅区","address":"梅岭北路400弄1-45号"},{"poiid":"B2094654D56BA2F8429E","title":"乐购(北梅园西北)","lon":"121.40567","lat":"31.24272","category":"118","category_name":"超级市场","address":"梅岭北路408、408-1"},{"poiid":"B2094757D66AA5F84498","title":"琳琳小菜 枫桥路店","lon":"121.40936","lat":"31.24133","category":"76","category_name":"上海菜","address":"普陀区枫桥路20号(近梅岭北路)"},{"poiid":"B2094757D66FA6F9449A","title":"川味烤鱼(蓝村路店)","lon":"121.40771758","lat":"31.243454589","category":"247","category_name":"餐饮美食","address":"上海蓝村路火锅一条街"},{"poiid":"B2094654D56BA2FB409A","title":"枫桥苑","lon":"121.41119","lat":"31.242687","category":"47","category_name":"住宅区","address":"上海市普陀区曹杨路922弄"},{"poiid":"B2094757D16CA5FC4699","title":"上海市普陀区中心医院门诊放射科","lon":"121.40506398","lat":"31.241996361","category":"162","category_name":"医院","address":"上海市兰溪路164号"},{"poiid":"B2094654D56BA2FF4993","title":"利康足摩房","lon":"121.40769","lat":"31.24285","category":"149","category_name":"洗浴推拿场所","address":"曹阳二村266号"},{"poiid":"B2094655D26DA5F94698","title":"曹杨一村(曹杨公园西北)","lon":"121.40818","lat":"31.24095","category":"47","category_name":"住宅区","address":""},{"poiid":"B2094757D168A2F8479A","title":"普陀区成人大学","lon":"121.409505","lat":"31.241913","category":"253","category_name":"校园生活","address":"上海枫桥路61号"},{"poiid":"B2094757D169A1FF419F","title":"兰溪公园","lon":"121.40573658","lat":"31.241906659","category":"196","category_name":"公园","address":"上海市普陀区兰溪路"}]