[{"poiid":"B2094757D06EAAFA449F","title":"翠华餐厅（西藏南路店）Tsui Wah Restaurant","lon":"121.48138752034185","lat":"31.224226870443808","category":"257","category_name":"中餐厅","address":"黄浦区西藏南路251号宏基西门厅106室(近桃源路)"},{"poiid":"B2094750DB64AAFC479C","title":"辣府","lon":"121.48136","lat":"31.22647","category":"71","category_name":"四川菜","address":"黄浦区云南南路180号(近淮海东路10月底之前开张)"},{"poiid":"B2094750D16BA4FB409D","title":"百嘉乐V-Show主题KTV(淮海东路店)","lon":"121.480561","lat":"31.225876","category":"170","category_name":"KTV","address":"黄浦区淮海东路99号新尚数码广场4楼(西藏南路口)"},{"poiid":"B2094753D76FAAFA449C","title":"上海滩国泰旗舰店","lon":"121.466011","lat":"31.216125","category":"249","category_name":"购物服务","address":"淮海中路868号"},{"poiid":"B209475CD564A7F84292","title":"上海滩新天地店","lon":"121.47463","lat":"31.22164","category":"119","category_name":"商场","address":"\"太仓路181弄新天地北里15号\r\n\""},{"poiid":"B209475CD564A7F8439E","title":"上海滩中信泰富店","lon":"121.45602","lat":"31.22851","category":"119","category_name":"商场","address":"\"南京西路1168号中信泰富广场，店铺号221.\r\n\""},{"poiid":"B209475CD564A7F84392","title":"上海滩浦东香格里拉店","lon":"121.50058","lat":"31.23634","category":"119","category_name":"商场","address":"浦东富成路33号香格里拉酒店内大堂层"},{"poiid":"B2094757DA6FA3FA489E","title":"百嘉乐量贩KTV(淮海东路店)","lon":"121.480527000002","lat":"31.2257090000002","category":"248","category_name":"生活娱乐","address":"黄浦区淮海东路99号"},{"poiid":"B2094654DB6BA4FB409B","title":"星巴克(柳林店)","lon":"121.48024","lat":"31.22483","category":"65","category_name":"咖啡厅","address":"卢湾区柳林路65号柳林大厦1楼(近西藏南路)"},{"poiid":"B2094757D06FA0FE429E","title":"云南路美食街","lon":"121.481732","lat":"31.226457","category":"68","category_name":"快餐厅","address":"黄浦区云南南路(近延安东路)"},{"poiid":"B2094655D26AAAFB4993","title":"上海1号私藏菜黄浦店","lon":"121.48104","lat":"31.22571","category":"76","category_name":"上海菜","address":"黄浦区淮海东路99号6楼(近西藏南路)"},{"poiid":"B2094757D06FA3F44598","title":"韩乡园(淮海东路店)","lon":"121.48132","lat":"31.22544","category":"96","category_name":"韩国料理","address":"上海黄浦区淮海东路99号佰腾数码广场5楼(近西藏南路)  "},{"poiid":"B2094757D06EAAFE4892","title":"安琪瑞娜酒吧","lon":"121.479736089","lat":"31.2258657037","category":"260","category_name":"其他","address":"卢湾区淮海中路2-8号兰生大厦7楼(近西藏南路)"},{"poiid":"B2094757D06EABF54599","title":"淮海一号","lon":"121.480128324","lat":"31.2250132719","category":"260","category_name":"其他","address":"卢湾区柳林路65号柳林大厦6楼(近淮海中路)"},{"poiid":"B2094757D06FA2FF489E","title":"海之幸(兰生大厦店)","lon":"121.47965073","lat":"31.225309195","category":"95","category_name":"日本料理","address":"卢湾区淮海中路8号兰生大厦4楼401室(近西藏南路)"},{"poiid":"B2094757D06FA1F8489B","title":"新尚(佰腾)数码广场","lon":"121.48131","lat":"31.22535","category":"138","category_name":"家电电子卖场","address":"黄浦区淮海东路99号(近西藏南路)"},{"poiid":"B2094655D264A5FD439D","title":"佳家汤包 淮海店","lon":"121.479988054","lat":"31.226740793","category":"68","category_name":"快餐厅","address":"黄浦区西藏南路179号(近金陵东路)"},{"poiid":"B2094757D06FA4F84399","title":"老丰阁(兰生大厦店)","lon":"121.48016","lat":"31.22549","category":"75","category_name":"浙江菜","address":"卢湾区淮海中路8号兰生大厦38-39楼(近西藏南路)"},{"poiid":"B2094753D26EA4FD4392","title":"饭小馆","lon":"121.480981","lat":"31.224193","category":"247","category_name":"餐饮美食","address":"上海市 上海市西藏南路279号108室"},{"poiid":"B2094757D06EAAFE479F","title":"太平洋咖啡Pacific Coffee(淮海中路店)","lon":"121.479607","lat":"31.225741","category":"260","category_name":"其他","address":"上海市卢湾区淮海中路300号香港新世界大厦1楼大堂(近马当路)"},{"poiid":"B2094757D06FA7FD479D","title":"藏鲜工坊","lon":"121.47956","lat":"31.22517","category":"260","category_name":"其他","address":"卢湾区淮海中路98号金钟广场5楼(近柳林路)"},{"poiid":"B2094757D068A1FC4693","title":"天天周末(黄浦店)","lon":"121.480736676","lat":"31.2249215581","category":"249","category_name":"购物服务","address":"黄浦区淮海东路99号2楼215室(近西藏路)"},{"poiid":"B2094757D06BA7FB4792","title":"上海一号 黄浦店","lon":"121.479844338","lat":"31.2252164932","category":"500","category_name":"未知分类","address":"上海淮海东路99号"},{"poiid":"B2094750D365A2FE449F","title":"v-show","lon":"121.481353","lat":"31.225631","category":"500","category_name":"未知分类","address":null},{"poiid":"B2094757D068A7FE459A","title":"好记龙虾","lon":"121.48246","lat":"31.22404","category":"68","category_name":"快餐厅","address":"卢湾区寿宁路16号(近西藏南路)"},{"poiid":"B2094757D06FA1FA4393","title":"阿一海鲜酒家","lon":"121.481691","lat":"31.225931","category":"72","category_name":"广东菜","address":"黄浦区淮海东路49号东淮海国际大厦2楼(近云南南路)"},{"poiid":"B2094757D06FA1FA419E","title":"YOBA酸奶冰淇淋(西藏南路店)","lon":"121.481198","lat":"31.2241349","category":"113","category_name":"冷饮店","address":"黄浦区西藏南路279号109铺(近寿宁路)"},{"poiid":"B2094757D06FA1F9479E","title":"821撞球娱乐P1馆","lon":"121.48010684","lat":"31.22494441","category":"171","category_name":"台球厅","address":"上海淮海中路1号8楼"},{"poiid":"B2094757D664A7FF4692","title":"翠萃餐厅","lon":"121.48078","lat":"31.22447","category":"76","category_name":"上海菜","address":"西藏南路251号2楼近桃源路"},{"poiid":"B2094757D06FA0FA459A","title":"LUNA女仆咖啡屋","lon":"121.480510594","lat":"31.2260047175","category":"260","category_name":"其他","address":"黄浦区淮海东路99号新尚数码广场3楼A20-A22室(近西藏南路)"},{"poiid":"B2094654DA6EA6FB429F","title":"光明中学","lon":"121.48085","lat":"31.22607","category":"55","category_name":"中学","address":"黄浦区西藏南路181号(近淮海东路)"},{"poiid":"B2094757D06EAAFA4393","title":"道顿堀酷酷璐 吴江路店","lon":"121.480552","lat":"31.224973","category":"95","category_name":"日本料理","address":"静安区吴江路169号四季坊122号(近石门一路)"},{"poiid":"B2094757D064ABFB439C","title":"云南南路","lon":"121.479973738","lat":"31.2260802117","category":"500","category_name":"未知分类","address":"上海市黄浦区云南南路金陵东路"},{"poiid":"B2094757DB6FABFE4993","title":"虹口龙之梦","lon":"121.48027","lat":"31.225797","category":"500","category_name":"未知分类","address":"西江湾路388号"},{"poiid":"B2094751D56CA5FD4092","title":"星巴克(淮海东路店)","lon":"121.48122","lat":"31.22626","category":"247","category_name":"餐饮美食","address":"黄浦区淮海东路68号卜蜂莲花LIFESTATION内(云南南路口)"},{"poiid":"B2094757D068A4FC4898","title":"淮云大厦","lon":"121.48127343","lat":"31.226453983","category":"46","category_name":"楼宇","address":"浦东区崂山东路410号"},{"poiid":"B2094757D06FA1FF479C","title":"味千拉面(淮海中路店)","lon":"121.48052","lat":"31.22496","category":"95","category_name":"日本料理","address":"卢湾区柳林路65号柳林大厦2楼(近西藏南路)"},{"poiid":"B2094757D568A7FB489A","title":"The Fat Olive","lon":"121.480385","lat":"31.224354","category":"257","category_name":"中餐厅","address":"西藏南路228号6楼会所餐厅南部2号(近寿宁路)"},{"poiid":"B2094757D569A3F5429E","title":"东淮海壹号写字楼","lon":"121.4812158","lat":"31.22643583","category":"46","category_name":"楼宇","address":"上海市黄浦区淮海东路45-49号"},{"poiid":"B2094757D069ABFD419D","title":"淮海中路西藏南路","lon":"121.4799603","lat":"31.225501936","category":"500","category_name":"未知分类","address":"上海淮海中路西藏南路"},{"poiid":"B2094757D06FA1F5419A","title":"川渔1906","lon":"121.48116","lat":"31.22511","category":"71","category_name":"四川菜","address":"黄浦区淮海东路99号5楼(近西藏南路)"},{"poiid":"B2094750D269A1F54998","title":"牛阵日式火锅 淮海东路店","lon":"121.480527","lat":"31.225709","category":"95","category_name":"日本料理","address":"卢湾区淮海东路99号新尚数码广场5楼507单元(近西藏南路)"},{"poiid":"B2094757D068A5FF4598","title":"康骏会馆","lon":"121.48038094","lat":"31.225724654","category":"149","category_name":"洗浴推拿场所","address":"黄浦区淮海东路99号新尚数码广场501室(近西藏南路)"},{"poiid":"B2094757D06AA1FA449E","title":"爱舍空间主题酒店","lon":"121.481340686","lat":"31.2262900387","category":"500","category_name":"未知分类","address":"上海淮海东路68号(近云南南路 )"},{"poiid":"B2094757D064A1FC4392","title":"淮海279","lon":"121.48077473","lat":"31.224404175","category":"76","category_name":"上海菜","address":"黄浦区西藏南路279号弘基西门町(近淮海东路)"},{"poiid":"B2094757D06FA6FB409C","title":"自力教育(淮海东路总校)","lon":"121.48167","lat":"31.22623","category":"260","category_name":"其他","address":"黄浦区云南南路180号淮云大厦14楼(淮海东路口)"},{"poiid":"B2094750D16BA6FD419F","title":"江边城外烤鱼","lon":"121.481529","lat":"31.226097","category":"247","category_name":"餐饮美食","address":null},{"poiid":"B2094757D16FA0F84993","title":"城隍庙南翔小笼","lon":"121.480143738","lat":"31.2261571133","category":"247","category_name":"餐饮美食","address":"上海城隍庙"},{"poiid":"B2094750DA6EA2F5499A","title":"好灶头","lon":"121.481193","lat":"31.225414","category":"260","category_name":"其他","address":"黄浦区淮海东路99号5楼(近西藏南路)"},{"poiid":"B2094757DA65A5FB4692","title":"汉庭全季酒店（上海淮海路店）","lon":"121.48227","lat":"31.225427","category":"216","category_name":"经济型连锁酒店","address":"上海市黄浦区云南南路297号(近淮海路)"},{"poiid":"B2094757D06EAAFA449F","title":"翠华餐厅（西藏南路店）Tsui Wah Restaurant","lon":"121.48138752034185","lat":"31.224226870443808","category":"257","category_name":"中餐厅","address":"黄浦区西藏南路251号宏基西门厅106室(近桃源路)"},{"poiid":"B2094750DB64AAFC479C","title":"辣府","lon":"121.48136","lat":"31.22647","category":"71","category_name":"四川菜","address":"黄浦区云南南路180号(近淮海东路10月底之前开张)"},{"poiid":"B2094750D16BA4FB409D","title":"百嘉乐V-Show主题KTV(淮海东路店)","lon":"121.480561","lat":"31.225876","category":"170","category_name":"KTV","address":"黄浦区淮海东路99号新尚数码广场4楼(西藏南路口)"},{"poiid":"B2094753D76FAAFA449C","title":"上海滩国泰旗舰店","lon":"121.466011","lat":"31.216125","category":"249","category_name":"购物服务","address":"淮海中路868号"},{"poiid":"B209475CD564A7F84292","title":"上海滩新天地店","lon":"121.47463","lat":"31.22164","category":"119","category_name":"商场","address":"\"太仓路181弄新天地北里15号\r\n\""},{"poiid":"B209475CD564A7F8439E","title":"上海滩中信泰富店","lon":"121.45602","lat":"31.22851","category":"119","category_name":"商场","address":"\"南京西路1168号中信泰富广场，店铺号221.\r\n\""},{"poiid":"B209475CD564A7F84392","title":"上海滩浦东香格里拉店","lon":"121.50058","lat":"31.23634","category":"119","category_name":"商场","address":"浦东富成路33号香格里拉酒店内大堂层"},{"poiid":"B2094757DA6FA3FA489E","title":"百嘉乐量贩KTV(淮海东路店)","lon":"121.480527000002","lat":"31.2257090000002","category":"248","category_name":"生活娱乐","address":"黄浦区淮海东路99号"},{"poiid":"B2094654DB6BA4FB409B","title":"星巴克(柳林店)","lon":"121.48024","lat":"31.22483","category":"65","category_name":"咖啡厅","address":"卢湾区柳林路65号柳林大厦1楼(近西藏南路)"},{"poiid":"B2094757D06FA0FE429E","title":"云南路美食街","lon":"121.481732","lat":"31.226457","category":"68","category_name":"快餐厅","address":"黄浦区云南南路(近延安东路)"},{"poiid":"B2094655D26AAAFB4993","title":"上海1号私藏菜黄浦店","lon":"121.48104","lat":"31.22571","category":"76","category_name":"上海菜","address":"黄浦区淮海东路99号6楼(近西藏南路)"},{"poiid":"B2094757D06FA3F44598","title":"韩乡园(淮海东路店)","lon":"121.48132","lat":"31.22544","category":"96","category_name":"韩国料理","address":"上海黄浦区淮海东路99号佰腾数码广场5楼(近西藏南路)  "},{"poiid":"B2094757D06EAAFE4892","title":"安琪瑞娜酒吧","lon":"121.479736089","lat":"31.2258657037","category":"260","category_name":"其他","address":"卢湾区淮海中路2-8号兰生大厦7楼(近西藏南路)"},{"poiid":"B2094757D06EABF54599","title":"淮海一号","lon":"121.480128324","lat":"31.2250132719","category":"260","category_name":"其他","address":"卢湾区柳林路65号柳林大厦6楼(近淮海中路)"},{"poiid":"B2094757D06FA2FF489E","title":"海之幸(兰生大厦店)","lon":"121.47965073","lat":"31.225309195","category":"95","category_name":"日本料理","address":"卢湾区淮海中路8号兰生大厦4楼401室(近西藏南路)"},{"poiid":"B2094757D06FA1F8489B","title":"新尚(佰腾)数码广场","lon":"121.48131","lat":"31.22535","category":"138","category_name":"家电电子卖场","address":"黄浦区淮海东路99号(近西藏南路)"},{"poiid":"B2094655D264A5FD439D","title":"佳家汤包 淮海店","lon":"121.479988054","lat":"31.226740793","category":"68","category_name":"快餐厅","address":"黄浦区西藏南路179号(近金陵东路)"},{"poiid":"B2094757D06FA4F84399","title":"老丰阁(兰生大厦店)","lon":"121.48016","lat":"31.22549","category":"75","category_name":"浙江菜","address":"卢湾区淮海中路8号兰生大厦38-39楼(近西藏南路)"},{"poiid":"B2094753D26EA4FD4392","title":"饭小馆","lon":"121.480981","lat":"31.224193","category":"247","category_name":"餐饮美食","address":"上海市 上海市西藏南路279号108室"},{"poiid":"B2094757D06EAAFE479F","title":"太平洋咖啡Pacific Coffee(淮海中路店)","lon":"121.479607","lat":"31.225741","category":"260","category_name":"其他","address":"上海市卢湾区淮海中路300号香港新世界大厦1楼大堂(近马当路)"},{"poiid":"B2094757D06FA7FD479D","title":"藏鲜工坊","lon":"121.47956","lat":"31.22517","category":"260","category_name":"其他","address":"卢湾区淮海中路98号金钟广场5楼(近柳林路)"},{"poiid":"B2094757D068A1FC4693","title":"天天周末(黄浦店)","lon":"121.480736676","lat":"31.2249215581","category":"249","category_name":"购物服务","address":"黄浦区淮海东路99号2楼215室(近西藏路)"},{"poiid":"B2094757D06BA7FB4792","title":"上海一号 黄浦店","lon":"121.479844338","lat":"31.2252164932","category":"500","category_name":"未知分类","address":"上海淮海东路99号"},{"poiid":"B2094750D365A2FE449F","title":"v-show","lon":"121.481353","lat":"31.225631","category":"500","category_name":"未知分类","address":null},{"poiid":"B2094757D068A7FE459A","title":"好记龙虾","lon":"121.48246","lat":"31.22404","category":"68","category_name":"快餐厅","address":"卢湾区寿宁路16号(近西藏南路)"},{"poiid":"B2094757D06FA1FA4393","title":"阿一海鲜酒家","lon":"121.481691","lat":"31.225931","category":"72","category_name":"广东菜","address":"黄浦区淮海东路49号东淮海国际大厦2楼(近云南南路)"},{"poiid":"B2094757D06FA1FA419E","title":"YOBA酸奶冰淇淋(西藏南路店)","lon":"121.481198","lat":"31.2241349","category":"113","category_name":"冷饮店","address":"黄浦区西藏南路279号109铺(近寿宁路)"},{"poiid":"B2094757D06FA1F9479E","title":"821撞球娱乐P1馆","lon":"121.48010684","lat":"31.22494441","category":"171","category_name":"台球厅","address":"上海淮海中路1号8楼"},{"poiid":"B2094757D664A7FF4692","title":"翠萃餐厅","lon":"121.48078","lat":"31.22447","category":"76","category_name":"上海菜","address":"西藏南路251号2楼近桃源路"},{"poiid":"B2094757D06FA0FA459A","title":"LUNA女仆咖啡屋","lon":"121.480510594","lat":"31.2260047175","category":"260","category_name":"其他","address":"黄浦区淮海东路99号新尚数码广场3楼A20-A22室(近西藏南路)"},{"poiid":"B2094654DA6EA6FB429F","title":"光明中学","lon":"121.48085","lat":"31.22607","category":"55","category_name":"中学","address":"黄浦区西藏南路181号(近淮海东路)"},{"poiid":"B2094757D06EAAFA4393","title":"道顿堀酷酷璐 吴江路店","lon":"121.480552","lat":"31.224973","category":"95","category_name":"日本料理","address":"静安区吴江路169号四季坊122号(近石门一路)"},{"poiid":"B2094757D064ABFB439C","title":"云南南路","lon":"121.479973738","lat":"31.2260802117","category":"500","category_name":"未知分类","address":"上海市黄浦区云南南路金陵东路"},{"poiid":"B2094757DB6FABFE4993","title":"虹口龙之梦","lon":"121.48027","lat":"31.225797","category":"500","category_name":"未知分类","address":"西江湾路388号"},{"poiid":"B2094751D56CA5FD4092","title":"星巴克(淮海东路店)","lon":"121.48122","lat":"31.22626","category":"247","category_name":"餐饮美食","address":"黄浦区淮海东路68号卜蜂莲花LIFESTATION内(云南南路口)"},{"poiid":"B2094757D068A4FC4898","title":"淮云大厦","lon":"121.48127343","lat":"31.226453983","category":"46","category_name":"楼宇","address":"浦东区崂山东路410号"},{"poiid":"B2094757D06FA1FF479C","title":"味千拉面(淮海中路店)","lon":"121.48052","lat":"31.22496","category":"95","category_name":"日本料理","address":"卢湾区柳林路65号柳林大厦2楼(近西藏南路)"},{"poiid":"B2094757D568A7FB489A","title":"The Fat Olive","lon":"121.480385","lat":"31.224354","category":"257","category_name":"中餐厅","address":"西藏南路228号6楼会所餐厅南部2号(近寿宁路)"},{"poiid":"B2094757D569A3F5429E","title":"东淮海壹号写字楼","lon":"121.4812158","lat":"31.22643583","category":"46","category_name":"楼宇","address":"上海市黄浦区淮海东路45-49号"},{"poiid":"B2094757D069ABFD419D","title":"淮海中路西藏南路","lon":"121.4799603","lat":"31.225501936","category":"500","category_name":"未知分类","address":"上海淮海中路西藏南路"},{"poiid":"B2094757D06FA1F5419A","title":"川渔1906","lon":"121.48116","lat":"31.22511","category":"71","category_name":"四川菜","address":"黄浦区淮海东路99号5楼(近西藏南路)"},{"poiid":"B2094750D269A1F54998","title":"牛阵日式火锅 淮海东路店","lon":"121.480527","lat":"31.225709","category":"95","category_name":"日本料理","address":"卢湾区淮海东路99号新尚数码广场5楼507单元(近西藏南路)"},{"poiid":"B2094757D068A5FF4598","title":"康骏会馆","lon":"121.48038094","lat":"31.225724654","category":"149","category_name":"洗浴推拿场所","address":"黄浦区淮海东路99号新尚数码广场501室(近西藏南路)"},{"poiid":"B2094757D06AA1FA449E","title":"爱舍空间主题酒店","lon":"121.481340686","lat":"31.2262900387","category":"500","category_name":"未知分类","address":"上海淮海东路68号(近云南南路 )"},{"poiid":"B2094757D064A1FC4392","title":"淮海279","lon":"121.48077473","lat":"31.224404175","category":"76","category_name":"上海菜","address":"黄浦区西藏南路279号弘基西门町(近淮海东路)"},{"poiid":"B2094757D06FA6FB409C","title":"自力教育(淮海东路总校)","lon":"121.48167","lat":"31.22623","category":"260","category_name":"其他","address":"黄浦区云南南路180号淮云大厦14楼(淮海东路口)"},{"poiid":"B2094750D16BA6FD419F","title":"江边城外烤鱼","lon":"121.481529","lat":"31.226097","category":"247","category_name":"餐饮美食","address":null},{"poiid":"B2094757D16FA0F84993","title":"城隍庙南翔小笼","lon":"121.480143738","lat":"31.2261571133","category":"247","category_name":"餐饮美食","address":"上海城隍庙"},{"poiid":"B2094750DA6EA2F5499A","title":"好灶头","lon":"121.481193","lat":"31.225414","category":"260","category_name":"其他","address":"黄浦区淮海东路99号5楼(近西藏南路)"},{"poiid":"B2094757DA65A5FB4692","title":"汉庭全季酒店（上海淮海路店）","lon":"121.48227","lat":"31.225427","category":"216","category_name":"经济型连锁酒店","address":"上海市黄浦区云南南路297号(近淮海路)"},{"poiid":"B2094757D06EAAFA449F","title":"翠华餐厅（西藏南路店）Tsui Wah Restaurant","lon":"121.48138752034185","lat":"31.224226870443808","category":"257","category_name":"中餐厅","address":"黄浦区西藏南路251号宏基西门厅106室(近桃源路)"},{"poiid":"B2094750DB64AAFC479C","title":"辣府","lon":"121.48136","lat":"31.22647","category":"71","category_name":"四川菜","address":"黄浦区云南南路180号(近淮海东路10月底之前开张)"},{"poiid":"B2094750D16BA4FB409D","title":"百嘉乐V-Show主题KTV(淮海东路店)","lon":"121.480561","lat":"31.225876","category":"170","category_name":"KTV","address":"黄浦区淮海东路99号新尚数码广场4楼(西藏南路口)"},{"poiid":"B2094753D76FAAFA449C","title":"上海滩国泰旗舰店","lon":"121.466011","lat":"31.216125","category":"249","category_name":"购物服务","address":"淮海中路868号"},{"poiid":"B209475CD564A7F84292","title":"上海滩新天地店","lon":"121.47463","lat":"31.22164","category":"119","category_name":"商场","address":"\"太仓路181弄新天地北里15号\r\n\""},{"poiid":"B209475CD564A7F8439E","title":"上海滩中信泰富店","lon":"121.45602","lat":"31.22851","category":"119","category_name":"商场","address":"\"南京西路1168号中信泰富广场，店铺号221.\r\n\""},{"poiid":"B209475CD564A7F84392","title":"上海滩浦东香格里拉店","lon":"121.50058","lat":"31.23634","category":"119","category_name":"商场","address":"浦东富成路33号香格里拉酒店内大堂层"},{"poiid":"B2094757DA6FA3FA489E","title":"百嘉乐量贩KTV(淮海东路店)","lon":"121.480527000002","lat":"31.2257090000002","category":"248","category_name":"生活娱乐","address":"黄浦区淮海东路99号"},{"poiid":"B2094654DB6BA4FB409B","title":"星巴克(柳林店)","lon":"121.48024","lat":"31.22483","category":"65","category_name":"咖啡厅","address":"卢湾区柳林路65号柳林大厦1楼(近西藏南路)"},{"poiid":"B2094757D06FA0FE429E","title":"云南路美食街","lon":"121.481732","lat":"31.226457","category":"68","category_name":"快餐厅","address":"黄浦区云南南路(近延安东路)"},{"poiid":"B2094655D26AAAFB4993","title":"上海1号私藏菜黄浦店","lon":"121.48104","lat":"31.22571","category":"76","category_name":"上海菜","address":"黄浦区淮海东路99号6楼(近西藏南路)"},{"poiid":"B2094757D06FA3F44598","title":"韩乡园(淮海东路店)","lon":"121.48132","lat":"31.22544","category":"96","category_name":"韩国料理","address":"上海黄浦区淮海东路99号佰腾数码广场5楼(近西藏南路)  "},{"poiid":"B2094757D06EAAFE4892","title":"安琪瑞娜酒吧","lon":"121.479736089","lat":"31.2258657037","category":"260","category_name":"其他","address":"卢湾区淮海中路2-8号兰生大厦7楼(近西藏南路)"},{"poiid":"B2094757D06EABF54599","title":"淮海一号","lon":"121.480128324","lat":"31.2250132719","category":"260","category_name":"其他","address":"卢湾区柳林路65号柳林大厦6楼(近淮海中路)"},{"poiid":"B2094757D06FA2FF489E","title":"海之幸(兰生大厦店)","lon":"121.47965073","lat":"31.225309195","category":"95","category_name":"日本料理","address":"卢湾区淮海中路8号兰生大厦4楼401室(近西藏南路)"},{"poiid":"B2094757D06FA1F8489B","title":"新尚(佰腾)数码广场","lon":"121.48131","lat":"31.22535","category":"138","category_name":"家电电子卖场","address":"黄浦区淮海东路99号(近西藏南路)"},{"poiid":"B2094655D264A5FD439D","title":"佳家汤包 淮海店","lon":"121.479988054","lat":"31.226740793","category":"68","category_name":"快餐厅","address":"黄浦区西藏南路179号(近金陵东路)"},{"poiid":"B2094757D06FA4F84399","title":"老丰阁(兰生大厦店)","lon":"121.48016","lat":"31.22549","category":"75","category_name":"浙江菜","address":"卢湾区淮海中路8号兰生大厦38-39楼(近西藏南路)"},{"poiid":"B2094753D26EA4FD4392","title":"饭小馆","lon":"121.480981","lat":"31.224193","category":"247","category_name":"餐饮美食","address":"上海市 上海市西藏南路279号108室"},{"poiid":"B2094757D06EAAFE479F","title":"太平洋咖啡Pacific Coffee(淮海中路店)","lon":"121.479607","lat":"31.225741","category":"260","category_name":"其他","address":"上海市卢湾区淮海中路300号香港新世界大厦1楼大堂(近马当路)"},{"poiid":"B2094757D06FA7FD479D","title":"藏鲜工坊","lon":"121.47956","lat":"31.22517","category":"260","category_name":"其他","address":"卢湾区淮海中路98号金钟广场5楼(近柳林路)"},{"poiid":"B2094757D068A1FC4693","title":"天天周末(黄浦店)","lon":"121.480736676","lat":"31.2249215581","category":"249","category_name":"购物服务","address":"黄浦区淮海东路99号2楼215室(近西藏路)"},{"poiid":"B2094757D06BA7FB4792","title":"上海一号 黄浦店","lon":"121.479844338","lat":"31.2252164932","category":"500","category_name":"未知分类","address":"上海淮海东路99号"},{"poiid":"B2094750D365A2FE449F","title":"v-show","lon":"121.481353","lat":"31.225631","category":"500","category_name":"未知分类","address":null},{"poiid":"B2094757D068A7FE459A","title":"好记龙虾","lon":"121.48246","lat":"31.22404","category":"68","category_name":"快餐厅","address":"卢湾区寿宁路16号(近西藏南路)"},{"poiid":"B2094757D06FA1FA4393","title":"阿一海鲜酒家","lon":"121.481691","lat":"31.225931","category":"72","category_name":"广东菜","address":"黄浦区淮海东路49号东淮海国际大厦2楼(近云南南路)"},{"poiid":"B2094757D06FA1FA419E","title":"YOBA酸奶冰淇淋(西藏南路店)","lon":"121.481198","lat":"31.2241349","category":"113","category_name":"冷饮店","address":"黄浦区西藏南路279号109铺(近寿宁路)"},{"poiid":"B2094757D06FA1F9479E","title":"821撞球娱乐P1馆","lon":"121.48010684","lat":"31.22494441","category":"171","category_name":"台球厅","address":"上海淮海中路1号8楼"},{"poiid":"B2094757D664A7FF4692","title":"翠萃餐厅","lon":"121.48078","lat":"31.22447","category":"76","category_name":"上海菜","address":"西藏南路251号2楼近桃源路"},{"poiid":"B2094757D06FA0FA459A","title":"LUNA女仆咖啡屋","lon":"121.480510594","lat":"31.2260047175","category":"260","category_name":"其他","address":"黄浦区淮海东路99号新尚数码广场3楼A20-A22室(近西藏南路)"},{"poiid":"B2094654DA6EA6FB429F","title":"光明中学","lon":"121.48085","lat":"31.22607","category":"55","category_name":"中学","address":"黄浦区西藏南路181号(近淮海东路)"},{"poiid":"B2094757D06EAAFA4393","title":"道顿堀酷酷璐 吴江路店","lon":"121.480552","lat":"31.224973","category":"95","category_name":"日本料理","address":"静安区吴江路169号四季坊122号(近石门一路)"},{"poiid":"B2094757D064ABFB439C","title":"云南南路","lon":"121.479973738","lat":"31.2260802117","category":"500","category_name":"未知分类","address":"上海市黄浦区云南南路金陵东路"},{"poiid":"B2094757DB6FABFE4993","title":"虹口龙之梦","lon":"121.48027","lat":"31.225797","category":"500","category_name":"未知分类","address":"西江湾路388号"},{"poiid":"B2094751D56CA5FD4092","title":"星巴克(淮海东路店)","lon":"121.48122","lat":"31.22626","category":"247","category_name":"餐饮美食","address":"黄浦区淮海东路68号卜蜂莲花LIFESTATION内(云南南路口)"},{"poiid":"B2094757D068A4FC4898","title":"淮云大厦","lon":"121.48127343","lat":"31.226453983","category":"46","category_name":"楼宇","address":"浦东区崂山东路410号"},{"poiid":"B2094757D06FA1FF479C","title":"味千拉面(淮海中路店)","lon":"121.48052","lat":"31.22496","category":"95","category_name":"日本料理","address":"卢湾区柳林路65号柳林大厦2楼(近西藏南路)"},{"poiid":"B2094757D568A7FB489A","title":"The Fat Olive","lon":"121.480385","lat":"31.224354","category":"257","category_name":"中餐厅","address":"西藏南路228号6楼会所餐厅南部2号(近寿宁路)"},{"poiid":"B2094757D569A3F5429E","title":"东淮海壹号写字楼","lon":"121.4812158","lat":"31.22643583","category":"46","category_name":"楼宇","address":"上海市黄浦区淮海东路45-49号"},{"poiid":"B2094757D069ABFD419D","title":"淮海中路西藏南路","lon":"121.4799603","lat":"31.225501936","category":"500","category_name":"未知分类","address":"上海淮海中路西藏南路"},{"poiid":"B2094757D06FA1F5419A","title":"川渔1906","lon":"121.48116","lat":"31.22511","category":"71","category_name":"四川菜","address":"黄浦区淮海东路99号5楼(近西藏南路)"},{"poiid":"B2094750D269A1F54998","title":"牛阵日式火锅 淮海东路店","lon":"121.480527","lat":"31.225709","category":"95","category_name":"日本料理","address":"卢湾区淮海东路99号新尚数码广场5楼507单元(近西藏南路)"},{"poiid":"B2094757D068A5FF4598","title":"康骏会馆","lon":"121.48038094","lat":"31.225724654","category":"149","category_name":"洗浴推拿场所","address":"黄浦区淮海东路99号新尚数码广场501室(近西藏南路)"},{"poiid":"B2094757D06AA1FA449E","title":"爱舍空间主题酒店","lon":"121.481340686","lat":"31.2262900387","category":"500","category_name":"未知分类","address":"上海淮海东路68号(近云南南路 )"},{"poiid":"B2094757D064A1FC4392","title":"淮海279","lon":"121.48077473","lat":"31.224404175","category":"76","category_name":"上海菜","address":"黄浦区西藏南路279号弘基西门町(近淮海东路)"},{"poiid":"B2094757D06FA6FB409C","title":"自力教育(淮海东路总校)","lon":"121.48167","lat":"31.22623","category":"260","category_name":"其他","address":"黄浦区云南南路180号淮云大厦14楼(淮海东路口)"},{"poiid":"B2094750D16BA6FD419F","title":"江边城外烤鱼","lon":"121.481529","lat":"31.226097","category":"247","category_name":"餐饮美食","address":null},{"poiid":"B2094757D16FA0F84993","title":"城隍庙南翔小笼","lon":"121.480143738","lat":"31.2261571133","category":"247","category_name":"餐饮美食","address":"上海城隍庙"},{"poiid":"B2094750DA6EA2F5499A","title":"好灶头","lon":"121.481193","lat":"31.225414","category":"260","category_name":"其他","address":"黄浦区淮海东路99号5楼(近西藏南路)"},{"poiid":"B2094757DA65A5FB4692","title":"汉庭全季酒店（上海淮海路店）","lon":"121.48227","lat":"31.225427","category":"216","category_name":"经济型连锁酒店","address":"上海市黄浦区云南南路297号(近淮海路)"},{"poiid":"B2094757D06EAAFA449F","title":"翠华餐厅（西藏南路店）Tsui Wah Restaurant","lon":"121.48138752034185","lat":"31.224226870443808","category":"257","category_name":"中餐厅","address":"黄浦区西藏南路251号宏基西门厅106室(近桃源路)"},{"poiid":"B2094750DB64AAFC479C","title":"辣府","lon":"121.48136","lat":"31.22647","category":"71","category_name":"四川菜","address":"黄浦区云南南路180号(近淮海东路10月底之前开张)"},{"poiid":"B2094750D16BA4FB409D","title":"百嘉乐V-Show主题KTV(淮海东路店)","lon":"121.480561","lat":"31.225876","category":"170","category_name":"KTV","address":"黄浦区淮海东路99号新尚数码广场4楼(西藏南路口)"},{"poiid":"B2094753D76FAAFA449C","title":"上海滩国泰旗舰店","lon":"121.466011","lat":"31.216125","category":"249","category_name":"购物服务","address":"淮海中路868号"},{"poiid":"B209475CD564A7F84292","title":"上海滩新天地店","lon":"121.47463","lat":"31.22164","category":"119","category_name":"商场","address":"\"太仓路181弄新天地北里15号\r\n\""},{"poiid":"B209475CD564A7F8439E","title":"上海滩中信泰富店","lon":"121.45602","lat":"31.22851","category":"119","category_name":"商场","address":"\"南京西路1168号中信泰富广场，店铺号221.\r\n\""},{"poiid":"B209475CD564A7F84392","title":"上海滩浦东香格里拉店","lon":"121.50058","lat":"31.23634","category":"119","category_name":"商场","address":"浦东富成路33号香格里拉酒店内大堂层"},{"poiid":"B2094757DA6FA3FA489E","title":"百嘉乐量贩KTV(淮海东路店)","lon":"121.480527000002","lat":"31.2257090000002","category":"248","category_name":"生活娱乐","address":"黄浦区淮海东路99号"},{"poiid":"B2094654DB6BA4FB409B","title":"星巴克(柳林店)","lon":"121.48024","lat":"31.22483","category":"65","category_name":"咖啡厅","address":"卢湾区柳林路65号柳林大厦1楼(近西藏南路)"},{"poiid":"B2094757D06FA0FE429E","title":"云南路美食街","lon":"121.481732","lat":"31.226457","category":"68","category_name":"快餐厅","address":"黄浦区云南南路(近延安东路)"},{"poiid":"B2094655D26AAAFB4993","title":"上海1号私藏菜黄浦店","lon":"121.48104","lat":"31.22571","category":"76","category_name":"上海菜","address":"黄浦区淮海东路99号6楼(近西藏南路)"},{"poiid":"B2094757D06FA3F44598","title":"韩乡园(淮海东路店)","lon":"121.48132","lat":"31.22544","category":"96","category_name":"韩国料理","address":"上海黄浦区淮海东路99号佰腾数码广场5楼(近西藏南路)  "},{"poiid":"B2094757D06EAAFE4892","title":"安琪瑞娜酒吧","lon":"121.479736089","lat":"31.2258657037","category":"260","category_name":"其他","address":"卢湾区淮海中路2-8号兰生大厦7楼(近西藏南路)"},{"poiid":"B2094757D06EABF54599","title":"淮海一号","lon":"121.480128324","lat":"31.2250132719","category":"260","category_name":"其他","address":"卢湾区柳林路65号柳林大厦6楼(近淮海中路)"},{"poiid":"B2094757D06FA2FF489E","title":"海之幸(兰生大厦店)","lon":"121.47965073","lat":"31.225309195","category":"95","category_name":"日本料理","address":"卢湾区淮海中路8号兰生大厦4楼401室(近西藏南路)"},{"poiid":"B2094757D06FA1F8489B","title":"新尚(佰腾)数码广场","lon":"121.48131","lat":"31.22535","category":"138","category_name":"家电电子卖场","address":"黄浦区淮海东路99号(近西藏南路)"},{"poiid":"B2094655D264A5FD439D","title":"佳家汤包 淮海店","lon":"121.479988054","lat":"31.226740793","category":"68","category_name":"快餐厅","address":"黄浦区西藏南路179号(近金陵东路)"},{"poiid":"B2094757D06FA4F84399","title":"老丰阁(兰生大厦店)","lon":"121.48016","lat":"31.22549","category":"75","category_name":"浙江菜","address":"卢湾区淮海中路8号兰生大厦38-39楼(近西藏南路)"},{"poiid":"B2094753D26EA4FD4392","title":"饭小馆","lon":"121.480981","lat":"31.224193","category":"247","category_name":"餐饮美食","address":"上海市 上海市西藏南路279号108室"},{"poiid":"B2094757D06EAAFE479F","title":"太平洋咖啡Pacific Coffee(淮海中路店)","lon":"121.479607","lat":"31.225741","category":"260","category_name":"其他","address":"上海市卢湾区淮海中路300号香港新世界大厦1楼大堂(近马当路)"},{"poiid":"B2094757D06FA7FD479D","title":"藏鲜工坊","lon":"121.47956","lat":"31.22517","category":"260","category_name":"其他","address":"卢湾区淮海中路98号金钟广场5楼(近柳林路)"},{"poiid":"B2094757D068A1FC4693","title":"天天周末(黄浦店)","lon":"121.480736676","lat":"31.2249215581","category":"249","category_name":"购物服务","address":"黄浦区淮海东路99号2楼215室(近西藏路)"},{"poiid":"B2094757D06BA7FB4792","title":"上海一号 黄浦店","lon":"121.479844338","lat":"31.2252164932","category":"500","category_name":"未知分类","address":"上海淮海东路99号"},{"poiid":"B2094750D365A2FE449F","title":"v-show","lon":"121.481353","lat":"31.225631","category":"500","category_name":"未知分类","address":null},{"poiid":"B2094757D068A7FE459A","title":"好记龙虾","lon":"121.48246","lat":"31.22404","category":"68","category_name":"快餐厅","address":"卢湾区寿宁路16号(近西藏南路)"},{"poiid":"B2094757D06FA1FA4393","title":"阿一海鲜酒家","lon":"121.481691","lat":"31.225931","category":"72","category_name":"广东菜","address":"黄浦区淮海东路49号东淮海国际大厦2楼(近云南南路)"},{"poiid":"B2094757D06FA1FA419E","title":"YOBA酸奶冰淇淋(西藏南路店)","lon":"121.481198","lat":"31.2241349","category":"113","category_name":"冷饮店","address":"黄浦区西藏南路279号109铺(近寿宁路)"},{"poiid":"B2094757D06FA1F9479E","title":"821撞球娱乐P1馆","lon":"121.48010684","lat":"31.22494441","category":"171","category_name":"台球厅","address":"上海淮海中路1号8楼"},{"poiid":"B2094757D664A7FF4692","title":"翠萃餐厅","lon":"121.48078","lat":"31.22447","category":"76","category_name":"上海菜","address":"西藏南路251号2楼近桃源路"},{"poiid":"B2094757D06FA0FA459A","title":"LUNA女仆咖啡屋","lon":"121.480510594","lat":"31.2260047175","category":"260","category_name":"其他","address":"黄浦区淮海东路99号新尚数码广场3楼A20-A22室(近西藏南路)"},{"poiid":"B2094654DA6EA6FB429F","title":"光明中学","lon":"121.48085","lat":"31.22607","category":"55","category_name":"中学","address":"黄浦区西藏南路181号(近淮海东路)"},{"poiid":"B2094757D06EAAFA4393","title":"道顿堀酷酷璐 吴江路店","lon":"121.480552","lat":"31.224973","category":"95","category_name":"日本料理","address":"静安区吴江路169号四季坊122号(近石门一路)"},{"poiid":"B2094757D064ABFB439C","title":"云南南路","lon":"121.479973738","lat":"31.2260802117","category":"500","category_name":"未知分类","address":"上海市黄浦区云南南路金陵东路"},{"poiid":"B2094757DB6FABFE4993","title":"虹口龙之梦","lon":"121.48027","lat":"31.225797","category":"500","category_name":"未知分类","address":"西江湾路388号"},{"poiid":"B2094751D56CA5FD4092","title":"星巴克(淮海东路店)","lon":"121.48122","lat":"31.22626","category":"247","category_name":"餐饮美食","address":"黄浦区淮海东路68号卜蜂莲花LIFESTATION内(云南南路口)"},{"poiid":"B2094757D068A4FC4898","title":"淮云大厦","lon":"121.48127343","lat":"31.226453983","category":"46","category_name":"楼宇","address":"浦东区崂山东路410号"},{"poiid":"B2094757D06FA1FF479C","title":"味千拉面(淮海中路店)","lon":"121.48052","lat":"31.22496","category":"95","category_name":"日本料理","address":"卢湾区柳林路65号柳林大厦2楼(近西藏南路)"},{"poiid":"B2094757D568A7FB489A","title":"The Fat Olive","lon":"121.480385","lat":"31.224354","category":"257","category_name":"中餐厅","address":"西藏南路228号6楼会所餐厅南部2号(近寿宁路)"},{"poiid":"B2094757D569A3F5429E","title":"东淮海壹号写字楼","lon":"121.4812158","lat":"31.22643583","category":"46","category_name":"楼宇","address":"上海市黄浦区淮海东路45-49号"},{"poiid":"B2094757D069ABFD419D","title":"淮海中路西藏南路","lon":"121.4799603","lat":"31.225501936","category":"500","category_name":"未知分类","address":"上海淮海中路西藏南路"},{"poiid":"B2094757D06FA1F5419A","title":"川渔1906","lon":"121.48116","lat":"31.22511","category":"71","category_name":"四川菜","address":"黄浦区淮海东路99号5楼(近西藏南路)"},{"poiid":"B2094750D269A1F54998","title":"牛阵日式火锅 淮海东路店","lon":"121.480527","lat":"31.225709","category":"95","category_name":"日本料理","address":"卢湾区淮海东路99号新尚数码广场5楼507单元(近西藏南路)"},{"poiid":"B2094757D068A5FF4598","title":"康骏会馆","lon":"121.48038094","lat":"31.225724654","category":"149","category_name":"洗浴推拿场所","address":"黄浦区淮海东路99号新尚数码广场501室(近西藏南路)"},{"poiid":"B2094757D06AA1FA449E","title":"爱舍空间主题酒店","lon":"121.481340686","lat":"31.2262900387","category":"500","category_name":"未知分类","address":"上海淮海东路68号(近云南南路 )"},{"poiid":"B2094757D064A1FC4392","title":"淮海279","lon":"121.48077473","lat":"31.224404175","category":"76","category_name":"上海菜","address":"黄浦区西藏南路279号弘基西门町(近淮海东路)"},{"poiid":"B2094757D06FA6FB409C","title":"自力教育(淮海东路总校)","lon":"121.48167","lat":"31.22623","category":"260","category_name":"其他","address":"黄浦区云南南路180号淮云大厦14楼(淮海东路口)"},{"poiid":"B2094750D16BA6FD419F","title":"江边城外烤鱼","lon":"121.481529","lat":"31.226097","category":"247","category_name":"餐饮美食","address":null},{"poiid":"B2094757D16FA0F84993","title":"城隍庙南翔小笼","lon":"121.480143738","lat":"31.2261571133","category":"247","category_name":"餐饮美食","address":"上海城隍庙"},{"poiid":"B2094750DA6EA2F5499A","title":"好灶头","lon":"121.481193","lat":"31.225414","category":"260","category_name":"其他","address":"黄浦区淮海东路99号5楼(近西藏南路)"},{"poiid":"B2094757DA65A5FB4692","title":"汉庭全季酒店（上海淮海路店）","lon":"121.48227","lat":"31.225427","category":"216","category_name":"经济型连锁酒店","address":"上海市黄浦区云南南路297号(近淮海路)"},{"poiid":"B2094757D06EAAFA449F","title":"翠华餐厅（西藏南路店）Tsui Wah Restaurant","lon":"121.48138752034185","lat":"31.224226870443808","category":"257","category_name":"中餐厅","address":"黄浦区西藏南路251号宏基西门厅106室(近桃源路)"},{"poiid":"B2094750DB64AAFC479C","title":"辣府","lon":"121.48136","lat":"31.22647","category":"71","category_name":"四川菜","address":"黄浦区云南南路180号(近淮海东路10月底之前开张)"},{"poiid":"B2094750D16BA4FB409D","title":"百嘉乐V-Show主题KTV(淮海东路店)","lon":"121.480561","lat":"31.225876","category":"170","category_name":"KTV","address":"黄浦区淮海东路99号新尚数码广场4楼(西藏南路口)"},{"poiid":"B2094753D76FAAFA449C","title":"上海滩国泰旗舰店","lon":"121.466011","lat":"31.216125","category":"249","category_name":"购物服务","address":"淮海中路868号"},{"poiid":"B209475CD564A7F84292","title":"上海滩新天地店","lon":"121.47463","lat":"31.22164","category":"119","category_name":"商场","address":"\"太仓路181弄新天地北里15号\r\n\""},{"poiid":"B209475CD564A7F8439E","title":"上海滩中信泰富店","lon":"121.45602","lat":"31.22851","category":"119","category_name":"商场","address":"\"南京西路1168号中信泰富广场，店铺号221.\r\n\""},{"poiid":"B209475CD564A7F84392","title":"上海滩浦东香格里拉店","lon":"121.50058","lat":"31.23634","category":"119","category_name":"商场","address":"浦东富成路33号香格里拉酒店内大堂层"},{"poiid":"B2094757DA6FA3FA489E","title":"百嘉乐量贩KTV(淮海东路店)","lon":"121.480527000002","lat":"31.2257090000002","category":"248","category_name":"生活娱乐","address":"黄浦区淮海东路99号"},{"poiid":"B2094654DB6BA4FB409B","title":"星巴克(柳林店)","lon":"121.48024","lat":"31.22483","category":"65","category_name":"咖啡厅","address":"卢湾区柳林路65号柳林大厦1楼(近西藏南路)"},{"poiid":"B2094757D06FA0FE429E","title":"云南路美食街","lon":"121.481732","lat":"31.226457","category":"68","category_name":"快餐厅","address":"黄浦区云南南路(近延安东路)"},{"poiid":"B2094655D26AAAFB4993","title":"上海1号私藏菜黄浦店","lon":"121.48104","lat":"31.22571","category":"76","category_name":"上海菜","address":"黄浦区淮海东路99号6楼(近西藏南路)"},{"poiid":"B2094757D06FA3F44598","title":"韩乡园(淮海东路店)","lon":"121.48132","lat":"31.22544","category":"96","category_name":"韩国料理","address":"上海黄浦区淮海东路99号佰腾数码广场5楼(近西藏南路)  "},{"poiid":"B2094757D06EAAFE4892","title":"安琪瑞娜酒吧","lon":"121.479736089","lat":"31.2258657037","category":"260","category_name":"其他","address":"卢湾区淮海中路2-8号兰生大厦7楼(近西藏南路)"},{"poiid":"B2094757D06EABF54599","title":"淮海一号","lon":"121.480128324","lat":"31.2250132719","category":"260","category_name":"其他","address":"卢湾区柳林路65号柳林大厦6楼(近淮海中路)"},{"poiid":"B2094757D06FA2FF489E","title":"海之幸(兰生大厦店)","lon":"121.47965073","lat":"31.225309195","category":"95","category_name":"日本料理","address":"卢湾区淮海中路8号兰生大厦4楼401室(近西藏南路)"},{"poiid":"B2094757D06FA1F8489B","title":"新尚(佰腾)数码广场","lon":"121.48131","lat":"31.22535","category":"138","category_name":"家电电子卖场","address":"黄浦区淮海东路99号(近西藏南路)"},{"poiid":"B2094655D264A5FD439D","title":"佳家汤包 淮海店","lon":"121.479988054","lat":"31.226740793","category":"68","category_name":"快餐厅","address":"黄浦区西藏南路179号(近金陵东路)"},{"poiid":"B2094757D06FA4F84399","title":"老丰阁(兰生大厦店)","lon":"121.48016","lat":"31.22549","category":"75","category_name":"浙江菜","address":"卢湾区淮海中路8号兰生大厦38-39楼(近西藏南路)"},{"poiid":"B2094753D26EA4FD4392","title":"饭小馆","lon":"121.480981","lat":"31.224193","category":"247","category_name":"餐饮美食","address":"上海市 上海市西藏南路279号108室"},{"poiid":"B2094757D06EAAFE479F","title":"太平洋咖啡Pacific Coffee(淮海中路店)","lon":"121.479607","lat":"31.225741","category":"260","category_name":"其他","address":"上海市卢湾区淮海中路300号香港新世界大厦1楼大堂(近马当路)"},{"poiid":"B2094757D06FA7FD479D","title":"藏鲜工坊","lon":"121.47956","lat":"31.22517","category":"260","category_name":"其他","address":"卢湾区淮海中路98号金钟广场5楼(近柳林路)"},{"poiid":"B2094757D068A1FC4693","title":"天天周末(黄浦店)","lon":"121.480736676","lat":"31.2249215581","category":"249","category_name":"购物服务","address":"黄浦区淮海东路99号2楼215室(近西藏路)"},{"poiid":"B2094757D06BA7FB4792","title":"上海一号 黄浦店","lon":"121.479844338","lat":"31.2252164932","category":"500","category_name":"未知分类","address":"上海淮海东路99号"},{"poiid":"B2094750D365A2FE449F","title":"v-show","lon":"121.481353","lat":"31.225631","category":"500","category_name":"未知分类","address":null},{"poiid":"B2094757D068A7FE459A","title":"好记龙虾","lon":"121.48246","lat":"31.22404","category":"68","category_name":"快餐厅","address":"卢湾区寿宁路16号(近西藏南路)"},{"poiid":"B2094757D06FA1FA4393","title":"阿一海鲜酒家","lon":"121.481691","lat":"31.225931","category":"72","category_name":"广东菜","address":"黄浦区淮海东路49号东淮海国际大厦2楼(近云南南路)"},{"poiid":"B2094757D06FA1FA419E","title":"YOBA酸奶冰淇淋(西藏南路店)","lon":"121.481198","lat":"31.2241349","category":"113","category_name":"冷饮店","address":"黄浦区西藏南路279号109铺(近寿宁路)"},{"poiid":"B2094757D06FA1F9479E","title":"821撞球娱乐P1馆","lon":"121.48010684","lat":"31.22494441","category":"171","category_name":"台球厅","address":"上海淮海中路1号8楼"},{"poiid":"B2094757D664A7FF4692","title":"翠萃餐厅","lon":"121.48078","lat":"31.22447","category":"76","category_name":"上海菜","address":"西藏南路251号2楼近桃源路"},{"poiid":"B2094757D06FA0FA459A","title":"LUNA女仆咖啡屋","lon":"121.480510594","lat":"31.2260047175","category":"260","category_name":"其他","address":"黄浦区淮海东路99号新尚数码广场3楼A20-A22室(近西藏南路)"},{"poiid":"B2094654DA6EA6FB429F","title":"光明中学","lon":"121.48085","lat":"31.22607","category":"55","category_name":"中学","address":"黄浦区西藏南路181号(近淮海东路)"},{"poiid":"B2094757D06EAAFA4393","title":"道顿堀酷酷璐 吴江路店","lon":"121.480552","lat":"31.224973","category":"95","category_name":"日本料理","address":"静安区吴江路169号四季坊122号(近石门一路)"},{"poiid":"B2094757D064ABFB439C","title":"云南南路","lon":"121.479973738","lat":"31.2260802117","category":"500","category_name":"未知分类","address":"上海市黄浦区云南南路金陵东路"},{"poiid":"B2094757DB6FABFE4993","title":"虹口龙之梦","lon":"121.48027","lat":"31.225797","category":"500","category_name":"未知分类","address":"西江湾路388号"},{"poiid":"B2094751D56CA5FD4092","title":"星巴克(淮海东路店)","lon":"121.48122","lat":"31.22626","category":"247","category_name":"餐饮美食","address":"黄浦区淮海东路68号卜蜂莲花LIFESTATION内(云南南路口)"},{"poiid":"B2094757D068A4FC4898","title":"淮云大厦","lon":"121.48127343","lat":"31.226453983","category":"46","category_name":"楼宇","address":"浦东区崂山东路410号"},{"poiid":"B2094757D06FA1FF479C","title":"味千拉面(淮海中路店)","lon":"121.48052","lat":"31.22496","category":"95","category_name":"日本料理","address":"卢湾区柳林路65号柳林大厦2楼(近西藏南路)"},{"poiid":"B2094757D568A7FB489A","title":"The Fat Olive","lon":"121.480385","lat":"31.224354","category":"257","category_name":"中餐厅","address":"西藏南路228号6楼会所餐厅南部2号(近寿宁路)"},{"poiid":"B2094757D569A3F5429E","title":"东淮海壹号写字楼","lon":"121.4812158","lat":"31.22643583","category":"46","category_name":"楼宇","address":"上海市黄浦区淮海东路45-49号"},{"poiid":"B2094757D069ABFD419D","title":"淮海中路西藏南路","lon":"121.4799603","lat":"31.225501936","category":"500","category_name":"未知分类","address":"上海淮海中路西藏南路"},{"poiid":"B2094757D06FA1F5419A","title":"川渔1906","lon":"121.48116","lat":"31.22511","category":"71","category_name":"四川菜","address":"黄浦区淮海东路99号5楼(近西藏南路)"},{"poiid":"B2094750D269A1F54998","title":"牛阵日式火锅 淮海东路店","lon":"121.480527","lat":"31.225709","category":"95","category_name":"日本料理","address":"卢湾区淮海东路99号新尚数码广场5楼507单元(近西藏南路)"},{"poiid":"B2094757D068A5FF4598","title":"康骏会馆","lon":"121.48038094","lat":"31.225724654","category":"149","category_name":"洗浴推拿场所","address":"黄浦区淮海东路99号新尚数码广场501室(近西藏南路)"},{"poiid":"B2094757D06AA1FA449E","title":"爱舍空间主题酒店","lon":"121.481340686","lat":"31.2262900387","category":"500","category_name":"未知分类","address":"上海淮海东路68号(近云南南路 )"},{"poiid":"B2094757D064A1FC4392","title":"淮海279","lon":"121.48077473","lat":"31.224404175","category":"76","category_name":"上海菜","address":"黄浦区西藏南路279号弘基西门町(近淮海东路)"},{"poiid":"B2094757D06FA6FB409C","title":"自力教育(淮海东路总校)","lon":"121.48167","lat":"31.22623","category":"260","category_name":"其他","address":"黄浦区云南南路180号淮云大厦14楼(淮海东路口)"},{"poiid":"B2094750D16BA6FD419F","title":"江边城外烤鱼","lon":"121.481529","lat":"31.226097","category":"247","category_name":"餐饮美食","address":null},{"poiid":"B2094757D16FA0F84993","title":"城隍庙南翔小笼","lon":"121.480143738","lat":"31.2261571133","category":"247","category_name":"餐饮美食","address":"上海城隍庙"},{"poiid":"B2094750DA6EA2F5499A","title":"好灶头","lon":"121.481193","lat":"31.225414","category":"260","category_name":"其他","address":"黄浦区淮海东路99号5楼(近西藏南路)"},{"poiid":"B2094757DA65A5FB4692","title":"汉庭全季酒店（上海淮海路店）","lon":"121.48227","lat":"31.225427","category":"216","category_name":"经济型连锁酒店","address":"上海市黄浦区云南南路297号(近淮海路)"}]