[{"poiid":"B2094757D06FA5FD4299","title":"虹梅南路春申路","lon":"121.428848457","lat":"31.1128121185","category":"500","category_name":"未知分类","address":"上海虹梅南路春申路"},{"poiid":"B2094757D068A7FD459D","title":"宴宾阁","lon":"121.4267342053","lat":"31.116589494775","category":"76","category_name":"上海菜","address":"闵行区虹梅南路1661号(春申路)"},{"poiid":"B2094757D06AAAFD479B","title":"天都火锅(虹梅店)","lon":"121.423830657","lat":"31.1236830363","category":"247","category_name":"餐饮美食","address":"上海虹梅南路1008号(莘朱路口)"},{"poiid":"B2094655D36DA7FA4899","title":"朱行","lon":"121.42371","lat":"31.1238","category":"38","category_name":"公交车站","address":""},{"poiid":"B2094757D069A2FD419C","title":"恒隆大酒店(梅陇旗舰店)","lon":"121.42206","lat":"31.11158","category":"76","category_name":"上海菜","address":"上海闵行区春申路2105号(近虹梅南路)  "},{"poiid":"B2094655D26EAAF9409A","title":"上海越也汽车销售服务有限公司","lon":"121.42601","lat":"31.11855","category":"159","category_name":"汽车维修","address":"闵行区虹梅南路1507号"},{"poiid":"B2094654DB69A5FD4298","title":"锦江之星(虹梅南路店)","lon":"121.42374","lat":"31.12445","category":"216","category_name":"经济型连锁酒店","address":"闵行区虹梅南路990号(近莘朱路)"},{"poiid":"B2094655D265A2FD469C","title":"新世界外国语进修学院","lon":"121.42154","lat":"31.12532","category":"53","category_name":"成人教育","address":"闵行区罗锦路25号新世界外国语进修学院内"},{"poiid":"B2094655D36CA2FB449D","title":"森安苑","lon":"121.42169","lat":"31.118301","category":"38","category_name":"公交车站","address":"普乐路655弄"},{"poiid":"B2094655D26FA6FA4693","title":"陇兴别墅","lon":"121.422","lat":"31.1218","category":"47","category_name":"住宅区","address":"梅富路628弄1-138号"},{"poiid":"B2094757D06AA1F84098","title":"上岛咖啡(虹梅南路店)","lon":"121.42386","lat":"31.12402","category":"260","category_name":"其他","address":"闵行区虹梅南路988(近莘朱路)"},{"poiid":"B2094757D069A1FA4199","title":"都市宜家","lon":"121.42658417","lat":"31.115075052","category":"249","category_name":"购物服务","address":"上海闵行区虹梅南路1661弄"},{"poiid":"B2094757D169A1FA409F","title":"优麦时尚量贩式歌城","lon":"121.423388","lat":"31.123964","category":"170","category_name":"KTV","address":"上海闵行区虹梅南路1005号(苏宁电器3楼)"},{"poiid":"B2094654DB6CA5FA4492","title":"行南酒家","lon":"121.4267709701","lat":"31.117259875723","category":"76","category_name":"上海菜","address":"闵行区虹梅南路1582号(近锦梅路)"},{"poiid":"B2094655D26FA3FC449E","title":"虹梅家人蔷薇新村","lon":"121.43347","lat":"31.11337","category":"47","category_name":"住宅区","address":""},{"poiid":"B2094757D16CA1F5489C","title":"JEEP(虹梅店)","lon":"121.42555938","lat":"31.11851526","category":"158","category_name":"汽车销售","address":"上海闵行区虹梅南路1507号"},{"poiid":"B2094757D16AABFA4098","title":"218公交","lon":"121.424529","lat":"31.120646","category":"500","category_name":"未知分类","address":"上海虹梅南路梅陇路"},{"poiid":"B2094655D36CA7F8469A","title":"虹梅南路莘朱路","lon":"121.42469","lat":"31.12268","category":"38","category_name":"公交车站","address":""},{"poiid":"B2094752D36CA7F8489E","title":"君衡城市酒店","lon":"121.424606","lat":"31.112366","category":"247","category_name":"餐饮美食","address":"闵行区春申路1955号陇盛大厦(近虹梅南路)"},{"poiid":"B2094757D16AA6FE4398","title":"Frank Home","lon":"121.4241867","lat":"31.118774414","category":"500","category_name":"未知分类","address":"上海市莘朱路1688弄2号"},{"poiid":"B2094757D16CABFA4193","title":"家悦小菜","lon":"121.42319","lat":"31.12429","category":"76","category_name":"上海菜","address":"闵行区虹梅南路1005号(莘朱路口)"},{"poiid":"B2094654DA65A4FC479F","title":"重庆鸡公煲(莘朱路)","lon":"121.42333","lat":"31.12282","category":"71","category_name":"四川菜","address":"闵行区莘朱路(近莘东大酒店)"},{"poiid":"B2094757D065A5FF4492","title":"小尾羊(虹梅南路店)","lon":"121.42695","lat":"31.11705","category":"500","category_name":"未知分类","address":"上海闵行区虹梅南路1588号(近锦梅路)  "},{"poiid":"B2094757D16AA6F9499A","title":"凌云菜市场","lon":"121.42402515","lat":"31.12037247","category":"249","category_name":"购物服务","address":"上海市徐汇区凌云路(近梅陇三村)"},{"poiid":"B2094757D068AAFA459D","title":"朱莘苑","lon":"121.42561","lat":"31.123041","category":"47","category_name":"住宅区","address":"上海市闵行区莘朱路2111弄"},{"poiid":"B2094757D16BA0F5419D","title":"虹梅南路锦梅路","lon":"121.43051585","lat":"31.118803738","category":"500","category_name":"未知分类","address":"上海市闵行区Ｓ２０外环高速出口"},{"poiid":"B2094757D06AA1FC4893","title":"普乐新村","lon":"121.422273","lat":"31.11836","category":"47","category_name":"住宅区","address":"上海普乐新村"},{"poiid":"B2094654DB6CA1FC4493","title":"联宝冷饮配送站","lon":"121.42528","lat":"31.1222","category":"113","category_name":"冷饮店","address":"虹梅南路1258弄"},{"poiid":"B2094750D76CA0FC459F","title":"好宴世家(虹梅南路店)","lon":"121.427","lat":"31.116","category":"76","category_name":"上海菜","address":"闵行区虹梅南路1580号"},{"poiid":"B2094654DB69A4FC419E","title":"好又多(莘朱路店)","lon":"121.42407","lat":"31.12257","category":"118","category_name":"超级市场","address":"闵行区莘朱路(近虹梅路)"},{"poiid":"B2094654DB6CA5F84293","title":"普乐三村商建城","lon":"121.42549","lat":"31.11731","category":"123","category_name":"家具建材市场","address":"虹梅南路1555弄"},{"poiid":"B2094654DA65A4FD439A","title":"朱行新街","lon":"121.42201","lat":"31.12079","category":"116","category_name":"特色商业街","address":"莘朱路1851号"},{"poiid":"B2094655D26BA5FE469D","title":"老阿姨凉皮店","lon":"121.42691","lat":"31.11689","category":"68","category_name":"快餐厅","address":"杨浦区虹梅南路1550号农工商附近(近益文路)"},{"poiid":"B2094655D265A4F94199","title":"上海友福汽车服务有限公司","lon":"121.42613","lat":"31.12131","category":"159","category_name":"汽车维修","address":"虹梅南路1340"},{"poiid":"B2094757D165A1FD449B","title":"华山花园","lon":"121.42752395","lat":"31.119768657","category":"252","category_name":"楼宇机构","address":"上海华山医院内"},{"poiid":"B2094750D76FA5F9459B","title":"品粥鮮","lon":"121.42","lat":"31.1242","category":"72","category_name":"广东菜","address":"闵行区罗锦路69号(近虹梅南路)"},{"poiid":"B2094654DB64A4F94299","title":"许记龙虾朱行专卖店","lon":"121.42211","lat":"31.12189","category":"257","category_name":"中餐厅","address":"莘朱路1851号A-16"},{"poiid":"B2094757D66CA3F8419C","title":"上海南站7号检票口","lon":"121.423688","lat":"31.123057","category":"500","category_name":"未知分类","address":"铁路上海南站"},{"poiid":"B2094655D26FA5FF4599","title":"朱行二村","lon":"121.42252","lat":"31.121571","category":"47","category_name":"住宅区","address":"朱行二村"},{"poiid":"B2094654DB6CA1FC449B","title":"上海家居乐铝塑门窗厂","lon":"121.42494","lat":"31.12272","category":"123","category_name":"家具建材市场","address":"虹梅南路1262"},{"poiid":"B2094654DA65A4FC4698","title":"朱行四村","lon":"121.42182","lat":"31.122681","category":"47","category_name":"住宅区","address":"上海市莘朱路1924弄(朱行四村)"},{"poiid":"B2094654DB64A6FE4793","title":"中国移动锦梅路营业厅","lon":"121.42694","lat":"31.11634","category":"151","category_name":"电讯营业厅","address":"闵行区锦梅路621-623号"},{"poiid":"B2094757D569A1F5479B","title":"都市宜家苑","lon":"121.43343833128","lat":"31.120746833073","category":"47","category_name":"住宅区","address":"上海市闵行区虹梅南路1661弄"},{"poiid":"B2094757D16CA5FE499A","title":"莲花新村","lon":"121.422","lat":"31.1181","category":"252","category_name":"楼宇机构","address":"莲花新村位于徐汇春申路2458弄"},{"poiid":"B2094757D06AA0FB499A","title":"虹梅佳苑","lon":"121.41901","lat":"31.121452","category":"47","category_name":"住宅区","address":"上海市闵行区莘朱路1688号"},{"poiid":"B2094654DA65A4FC4293","title":"华光生活广场","lon":"121.42379","lat":"31.12324","category":"46","category_name":"楼宇","address":""},{"poiid":"B2094654DB6CA4FC439A","title":"好德(锦梅路)","lon":"121.42555","lat":"31.11581","category":"117","category_name":"便民商店/便利店","address":""},{"poiid":"B2094654DA65A4FC429F","title":"为波宾馆虹梅店","lon":"121.42282","lat":"31.12439","category":"250","category_name":"公园户外","address":"上海市闵行区虹梅南路939号(近莘朱路)"},{"poiid":"B2094655D26EA0FE4799","title":"如家酒店","lon":"121.42303","lat":"31.12373","category":"216","category_name":"经济型连锁酒店","address":"虹梅南路1005号"},{"poiid":"B2094654DB65A0F84698","title":"永琪美容美发(莘朱路)","lon":"121.42355","lat":"31.12298","category":"148","category_name":"美容美发店","address":""},{"poiid":"B2094757D06FA5FD4299","title":"虹梅南路春申路","lon":"121.428848457","lat":"31.1128121185","category":"500","category_name":"未知分类","address":"上海虹梅南路春申路"},{"poiid":"B2094757D068A7FD459D","title":"宴宾阁","lon":"121.4267342053","lat":"31.116589494775","category":"76","category_name":"上海菜","address":"闵行区虹梅南路1661号(春申路)"},{"poiid":"B2094757D06AAAFD479B","title":"天都火锅(虹梅店)","lon":"121.423830657","lat":"31.1236830363","category":"247","category_name":"餐饮美食","address":"上海虹梅南路1008号(莘朱路口)"},{"poiid":"B2094655D36DA7FA4899","title":"朱行","lon":"121.42371","lat":"31.1238","category":"38","category_name":"公交车站","address":""},{"poiid":"B2094757D069A2FD419C","title":"恒隆大酒店(梅陇旗舰店)","lon":"121.42206","lat":"31.11158","category":"76","category_name":"上海菜","address":"上海闵行区春申路2105号(近虹梅南路)  "},{"poiid":"B2094655D26EAAF9409A","title":"上海越也汽车销售服务有限公司","lon":"121.42601","lat":"31.11855","category":"159","category_name":"汽车维修","address":"闵行区虹梅南路1507号"},{"poiid":"B2094654DB69A5FD4298","title":"锦江之星(虹梅南路店)","lon":"121.42374","lat":"31.12445","category":"216","category_name":"经济型连锁酒店","address":"闵行区虹梅南路990号(近莘朱路)"},{"poiid":"B2094655D265A2FD469C","title":"新世界外国语进修学院","lon":"121.42154","lat":"31.12532","category":"53","category_name":"成人教育","address":"闵行区罗锦路25号新世界外国语进修学院内"},{"poiid":"B2094655D36CA2FB449D","title":"森安苑","lon":"121.42169","lat":"31.118301","category":"38","category_name":"公交车站","address":"普乐路655弄"},{"poiid":"B2094655D26FA6FA4693","title":"陇兴别墅","lon":"121.422","lat":"31.1218","category":"47","category_name":"住宅区","address":"梅富路628弄1-138号"},{"poiid":"B2094757D06AA1F84098","title":"上岛咖啡(虹梅南路店)","lon":"121.42386","lat":"31.12402","category":"260","category_name":"其他","address":"闵行区虹梅南路988(近莘朱路)"},{"poiid":"B2094757D069A1FA4199","title":"都市宜家","lon":"121.42658417","lat":"31.115075052","category":"249","category_name":"购物服务","address":"上海闵行区虹梅南路1661弄"},{"poiid":"B2094757D169A1FA409F","title":"优麦时尚量贩式歌城","lon":"121.423388","lat":"31.123964","category":"170","category_name":"KTV","address":"上海闵行区虹梅南路1005号(苏宁电器3楼)"},{"poiid":"B2094654DB6CA5FA4492","title":"行南酒家","lon":"121.4267709701","lat":"31.117259875723","category":"76","category_name":"上海菜","address":"闵行区虹梅南路1582号(近锦梅路)"},{"poiid":"B2094655D26FA3FC449E","title":"虹梅家人蔷薇新村","lon":"121.43347","lat":"31.11337","category":"47","category_name":"住宅区","address":""},{"poiid":"B2094757D16CA1F5489C","title":"JEEP(虹梅店)","lon":"121.42555938","lat":"31.11851526","category":"158","category_name":"汽车销售","address":"上海闵行区虹梅南路1507号"},{"poiid":"B2094757D16AABFA4098","title":"218公交","lon":"121.424529","lat":"31.120646","category":"500","category_name":"未知分类","address":"上海虹梅南路梅陇路"},{"poiid":"B2094655D36CA7F8469A","title":"虹梅南路莘朱路","lon":"121.42469","lat":"31.12268","category":"38","category_name":"公交车站","address":""},{"poiid":"B2094752D36CA7F8489E","title":"君衡城市酒店","lon":"121.424606","lat":"31.112366","category":"247","category_name":"餐饮美食","address":"闵行区春申路1955号陇盛大厦(近虹梅南路)"},{"poiid":"B2094757D16AA6FE4398","title":"Frank Home","lon":"121.4241867","lat":"31.118774414","category":"500","category_name":"未知分类","address":"上海市莘朱路1688弄2号"},{"poiid":"B2094757D16CABFA4193","title":"家悦小菜","lon":"121.42319","lat":"31.12429","category":"76","category_name":"上海菜","address":"闵行区虹梅南路1005号(莘朱路口)"},{"poiid":"B2094654DA65A4FC479F","title":"重庆鸡公煲(莘朱路)","lon":"121.42333","lat":"31.12282","category":"71","category_name":"四川菜","address":"闵行区莘朱路(近莘东大酒店)"},{"poiid":"B2094757D065A5FF4492","title":"小尾羊(虹梅南路店)","lon":"121.42695","lat":"31.11705","category":"500","category_name":"未知分类","address":"上海闵行区虹梅南路1588号(近锦梅路)  "},{"poiid":"B2094757D16AA6F9499A","title":"凌云菜市场","lon":"121.42402515","lat":"31.12037247","category":"249","category_name":"购物服务","address":"上海市徐汇区凌云路(近梅陇三村)"},{"poiid":"B2094757D068AAFA459D","title":"朱莘苑","lon":"121.42561","lat":"31.123041","category":"47","category_name":"住宅区","address":"上海市闵行区莘朱路2111弄"},{"poiid":"B2094757D16BA0F5419D","title":"虹梅南路锦梅路","lon":"121.43051585","lat":"31.118803738","category":"500","category_name":"未知分类","address":"上海市闵行区Ｓ２０外环高速出口"},{"poiid":"B2094757D06AA1FC4893","title":"普乐新村","lon":"121.422273","lat":"31.11836","category":"47","category_name":"住宅区","address":"上海普乐新村"},{"poiid":"B2094654DB6CA1FC4493","title":"联宝冷饮配送站","lon":"121.42528","lat":"31.1222","category":"113","category_name":"冷饮店","address":"虹梅南路1258弄"},{"poiid":"B2094750D76CA0FC459F","title":"好宴世家(虹梅南路店)","lon":"121.427","lat":"31.116","category":"76","category_name":"上海菜","address":"闵行区虹梅南路1580号"},{"poiid":"B2094654DB69A4FC419E","title":"好又多(莘朱路店)","lon":"121.42407","lat":"31.12257","category":"118","category_name":"超级市场","address":"闵行区莘朱路(近虹梅路)"},{"poiid":"B2094654DB6CA5F84293","title":"普乐三村商建城","lon":"121.42549","lat":"31.11731","category":"123","category_name":"家具建材市场","address":"虹梅南路1555弄"},{"poiid":"B2094654DA65A4FD439A","title":"朱行新街","lon":"121.42201","lat":"31.12079","category":"116","category_name":"特色商业街","address":"莘朱路1851号"},{"poiid":"B2094655D26BA5FE469D","title":"老阿姨凉皮店","lon":"121.42691","lat":"31.11689","category":"68","category_name":"快餐厅","address":"杨浦区虹梅南路1550号农工商附近(近益文路)"},{"poiid":"B2094655D265A4F94199","title":"上海友福汽车服务有限公司","lon":"121.42613","lat":"31.12131","category":"159","category_name":"汽车维修","address":"虹梅南路1340"},{"poiid":"B2094757D165A1FD449B","title":"华山花园","lon":"121.42752395","lat":"31.119768657","category":"252","category_name":"楼宇机构","address":"上海华山医院内"},{"poiid":"B2094750D76FA5F9459B","title":"品粥鮮","lon":"121.42","lat":"31.1242","category":"72","category_name":"广东菜","address":"闵行区罗锦路69号(近虹梅南路)"},{"poiid":"B2094654DB64A4F94299","title":"许记龙虾朱行专卖店","lon":"121.42211","lat":"31.12189","category":"257","category_name":"中餐厅","address":"莘朱路1851号A-16"},{"poiid":"B2094757D66CA3F8419C","title":"上海南站7号检票口","lon":"121.423688","lat":"31.123057","category":"500","category_name":"未知分类","address":"铁路上海南站"},{"poiid":"B2094655D26FA5FF4599","title":"朱行二村","lon":"121.42252","lat":"31.121571","category":"47","category_name":"住宅区","address":"朱行二村"},{"poiid":"B2094654DB6CA1FC449B","title":"上海家居乐铝塑门窗厂","lon":"121.42494","lat":"31.12272","category":"123","category_name":"家具建材市场","address":"虹梅南路1262"},{"poiid":"B2094654DA65A4FC4698","title":"朱行四村","lon":"121.42182","lat":"31.122681","category":"47","category_name":"住宅区","address":"上海市莘朱路1924弄(朱行四村)"},{"poiid":"B2094654DB64A6FE4793","title":"中国移动锦梅路营业厅","lon":"121.42694","lat":"31.11634","category":"151","category_name":"电讯营业厅","address":"闵行区锦梅路621-623号"},{"poiid":"B2094757D569A1F5479B","title":"都市宜家苑","lon":"121.43343833128","lat":"31.120746833073","category":"47","category_name":"住宅区","address":"上海市闵行区虹梅南路1661弄"},{"poiid":"B2094757D16CA5FE499A","title":"莲花新村","lon":"121.422","lat":"31.1181","category":"252","category_name":"楼宇机构","address":"莲花新村位于徐汇春申路2458弄"},{"poiid":"B2094757D06AA0FB499A","title":"虹梅佳苑","lon":"121.41901","lat":"31.121452","category":"47","category_name":"住宅区","address":"上海市闵行区莘朱路1688号"},{"poiid":"B2094654DA65A4FC4293","title":"华光生活广场","lon":"121.42379","lat":"31.12324","category":"46","category_name":"楼宇","address":""},{"poiid":"B2094654DB6CA4FC439A","title":"好德(锦梅路)","lon":"121.42555","lat":"31.11581","category":"117","category_name":"便民商店/便利店","address":""},{"poiid":"B2094654DA65A4FC429F","title":"为波宾馆虹梅店","lon":"121.42282","lat":"31.12439","category":"250","category_name":"公园户外","address":"上海市闵行区虹梅南路939号(近莘朱路)"},{"poiid":"B2094655D26EA0FE4799","title":"如家酒店","lon":"121.42303","lat":"31.12373","category":"216","category_name":"经济型连锁酒店","address":"虹梅南路1005号"},{"poiid":"B2094654DB65A0F84698","title":"永琪美容美发(莘朱路)","lon":"121.42355","lat":"31.12298","category":"148","category_name":"美容美发店","address":""},{"poiid":"B2094757D06FA5FD4299","title":"虹梅南路春申路","lon":"121.428848457","lat":"31.1128121185","category":"500","category_name":"未知分类","address":"上海虹梅南路春申路"},{"poiid":"B2094757D068A7FD459D","title":"宴宾阁","lon":"121.4267342053","lat":"31.116589494775","category":"76","category_name":"上海菜","address":"闵行区虹梅南路1661号(春申路)"},{"poiid":"B2094757D06AAAFD479B","title":"天都火锅(虹梅店)","lon":"121.423830657","lat":"31.1236830363","category":"247","category_name":"餐饮美食","address":"上海虹梅南路1008号(莘朱路口)"},{"poiid":"B2094655D36DA7FA4899","title":"朱行","lon":"121.42371","lat":"31.1238","category":"38","category_name":"公交车站","address":""},{"poiid":"B2094757D069A2FD419C","title":"恒隆大酒店(梅陇旗舰店)","lon":"121.42206","lat":"31.11158","category":"76","category_name":"上海菜","address":"上海闵行区春申路2105号(近虹梅南路)  "},{"poiid":"B2094655D26EAAF9409A","title":"上海越也汽车销售服务有限公司","lon":"121.42601","lat":"31.11855","category":"159","category_name":"汽车维修","address":"闵行区虹梅南路1507号"},{"poiid":"B2094654DB69A5FD4298","title":"锦江之星(虹梅南路店)","lon":"121.42374","lat":"31.12445","category":"216","category_name":"经济型连锁酒店","address":"闵行区虹梅南路990号(近莘朱路)"},{"poiid":"B2094655D265A2FD469C","title":"新世界外国语进修学院","lon":"121.42154","lat":"31.12532","category":"53","category_name":"成人教育","address":"闵行区罗锦路25号新世界外国语进修学院内"},{"poiid":"B2094655D36CA2FB449D","title":"森安苑","lon":"121.42169","lat":"31.118301","category":"38","category_name":"公交车站","address":"普乐路655弄"},{"poiid":"B2094655D26FA6FA4693","title":"陇兴别墅","lon":"121.422","lat":"31.1218","category":"47","category_name":"住宅区","address":"梅富路628弄1-138号"},{"poiid":"B2094757D06AA1F84098","title":"上岛咖啡(虹梅南路店)","lon":"121.42386","lat":"31.12402","category":"260","category_name":"其他","address":"闵行区虹梅南路988(近莘朱路)"},{"poiid":"B2094757D069A1FA4199","title":"都市宜家","lon":"121.42658417","lat":"31.115075052","category":"249","category_name":"购物服务","address":"上海闵行区虹梅南路1661弄"},{"poiid":"B2094757D169A1FA409F","title":"优麦时尚量贩式歌城","lon":"121.423388","lat":"31.123964","category":"170","category_name":"KTV","address":"上海闵行区虹梅南路1005号(苏宁电器3楼)"},{"poiid":"B2094654DB6CA5FA4492","title":"行南酒家","lon":"121.4267709701","lat":"31.117259875723","category":"76","category_name":"上海菜","address":"闵行区虹梅南路1582号(近锦梅路)"},{"poiid":"B2094655D26FA3FC449E","title":"虹梅家人蔷薇新村","lon":"121.43347","lat":"31.11337","category":"47","category_name":"住宅区","address":""},{"poiid":"B2094757D16CA1F5489C","title":"JEEP(虹梅店)","lon":"121.42555938","lat":"31.11851526","category":"158","category_name":"汽车销售","address":"上海闵行区虹梅南路1507号"},{"poiid":"B2094757D16AABFA4098","title":"218公交","lon":"121.424529","lat":"31.120646","category":"500","category_name":"未知分类","address":"上海虹梅南路梅陇路"},{"poiid":"B2094655D36CA7F8469A","title":"虹梅南路莘朱路","lon":"121.42469","lat":"31.12268","category":"38","category_name":"公交车站","address":""},{"poiid":"B2094752D36CA7F8489E","title":"君衡城市酒店","lon":"121.424606","lat":"31.112366","category":"247","category_name":"餐饮美食","address":"闵行区春申路1955号陇盛大厦(近虹梅南路)"},{"poiid":"B2094757D16AA6FE4398","title":"Frank Home","lon":"121.4241867","lat":"31.118774414","category":"500","category_name":"未知分类","address":"上海市莘朱路1688弄2号"},{"poiid":"B2094757D16CABFA4193","title":"家悦小菜","lon":"121.42319","lat":"31.12429","category":"76","category_name":"上海菜","address":"闵行区虹梅南路1005号(莘朱路口)"},{"poiid":"B2094654DA65A4FC479F","title":"重庆鸡公煲(莘朱路)","lon":"121.42333","lat":"31.12282","category":"71","category_name":"四川菜","address":"闵行区莘朱路(近莘东大酒店)"},{"poiid":"B2094757D065A5FF4492","title":"小尾羊(虹梅南路店)","lon":"121.42695","lat":"31.11705","category":"500","category_name":"未知分类","address":"上海闵行区虹梅南路1588号(近锦梅路)  "},{"poiid":"B2094757D16AA6F9499A","title":"凌云菜市场","lon":"121.42402515","lat":"31.12037247","category":"249","category_name":"购物服务","address":"上海市徐汇区凌云路(近梅陇三村)"},{"poiid":"B2094757D068AAFA459D","title":"朱莘苑","lon":"121.42561","lat":"31.123041","category":"47","category_name":"住宅区","address":"上海市闵行区莘朱路2111弄"},{"poiid":"B2094757D16BA0F5419D","title":"虹梅南路锦梅路","lon":"121.43051585","lat":"31.118803738","category":"500","category_name":"未知分类","address":"上海市闵行区Ｓ２０外环高速出口"},{"poiid":"B2094757D06AA1FC4893","title":"普乐新村","lon":"121.422273","lat":"31.11836","category":"47","category_name":"住宅区","address":"上海普乐新村"},{"poiid":"B2094654DB6CA1FC4493","title":"联宝冷饮配送站","lon":"121.42528","lat":"31.1222","category":"113","category_name":"冷饮店","address":"虹梅南路1258弄"},{"poiid":"B2094750D76CA0FC459F","title":"好宴世家(虹梅南路店)","lon":"121.427","lat":"31.116","category":"76","category_name":"上海菜","address":"闵行区虹梅南路1580号"},{"poiid":"B2094654DB69A4FC419E","title":"好又多(莘朱路店)","lon":"121.42407","lat":"31.12257","category":"118","category_name":"超级市场","address":"闵行区莘朱路(近虹梅路)"},{"poiid":"B2094654DB6CA5F84293","title":"普乐三村商建城","lon":"121.42549","lat":"31.11731","category":"123","category_name":"家具建材市场","address":"虹梅南路1555弄"},{"poiid":"B2094654DA65A4FD439A","title":"朱行新街","lon":"121.42201","lat":"31.12079","category":"116","category_name":"特色商业街","address":"莘朱路1851号"},{"poiid":"B2094655D26BA5FE469D","title":"老阿姨凉皮店","lon":"121.42691","lat":"31.11689","category":"68","category_name":"快餐厅","address":"杨浦区虹梅南路1550号农工商附近(近益文路)"},{"poiid":"B2094655D265A4F94199","title":"上海友福汽车服务有限公司","lon":"121.42613","lat":"31.12131","category":"159","category_name":"汽车维修","address":"虹梅南路1340"},{"poiid":"B2094757D165A1FD449B","title":"华山花园","lon":"121.42752395","lat":"31.119768657","category":"252","category_name":"楼宇机构","address":"上海华山医院内"},{"poiid":"B2094750D76FA5F9459B","title":"品粥鮮","lon":"121.42","lat":"31.1242","category":"72","category_name":"广东菜","address":"闵行区罗锦路69号(近虹梅南路)"},{"poiid":"B2094654DB64A4F94299","title":"许记龙虾朱行专卖店","lon":"121.42211","lat":"31.12189","category":"257","category_name":"中餐厅","address":"莘朱路1851号A-16"},{"poiid":"B2094757D66CA3F8419C","title":"上海南站7号检票口","lon":"121.423688","lat":"31.123057","category":"500","category_name":"未知分类","address":"铁路上海南站"},{"poiid":"B2094655D26FA5FF4599","title":"朱行二村","lon":"121.42252","lat":"31.121571","category":"47","category_name":"住宅区","address":"朱行二村"},{"poiid":"B2094654DB6CA1FC449B","title":"上海家居乐铝塑门窗厂","lon":"121.42494","lat":"31.12272","category":"123","category_name":"家具建材市场","address":"虹梅南路1262"},{"poiid":"B2094654DA65A4FC4698","title":"朱行四村","lon":"121.42182","lat":"31.122681","category":"47","category_name":"住宅区","address":"上海市莘朱路1924弄(朱行四村)"},{"poiid":"B2094654DB64A6FE4793","title":"中国移动锦梅路营业厅","lon":"121.42694","lat":"31.11634","category":"151","category_name":"电讯营业厅","address":"闵行区锦梅路621-623号"},{"poiid":"B2094757D569A1F5479B","title":"都市宜家苑","lon":"121.43343833128","lat":"31.120746833073","category":"47","category_name":"住宅区","address":"上海市闵行区虹梅南路1661弄"},{"poiid":"B2094757D16CA5FE499A","title":"莲花新村","lon":"121.422","lat":"31.1181","category":"252","category_name":"楼宇机构","address":"莲花新村位于徐汇春申路2458弄"},{"poiid":"B2094757D06AA0FB499A","title":"虹梅佳苑","lon":"121.41901","lat":"31.121452","category":"47","category_name":"住宅区","address":"上海市闵行区莘朱路1688号"},{"poiid":"B2094654DA65A4FC4293","title":"华光生活广场","lon":"121.42379","lat":"31.12324","category":"46","category_name":"楼宇","address":""},{"poiid":"B2094654DB6CA4FC439A","title":"好德(锦梅路)","lon":"121.42555","lat":"31.11581","category":"117","category_name":"便民商店/便利店","address":""},{"poiid":"B2094654DA65A4FC429F","title":"为波宾馆虹梅店","lon":"121.42282","lat":"31.12439","category":"250","category_name":"公园户外","address":"上海市闵行区虹梅南路939号(近莘朱路)"},{"poiid":"B2094655D26EA0FE4799","title":"如家酒店","lon":"121.42303","lat":"31.12373","category":"216","category_name":"经济型连锁酒店","address":"虹梅南路1005号"},{"poiid":"B2094654DB65A0F84698","title":"永琪美容美发(莘朱路)","lon":"121.42355","lat":"31.12298","category":"148","category_name":"美容美发店","address":""},{"poiid":"B2094757D06FA5FD4299","title":"虹梅南路春申路","lon":"121.428848457","lat":"31.1128121185","category":"500","category_name":"未知分类","address":"上海虹梅南路春申路"},{"poiid":"B2094757D068A7FD459D","title":"宴宾阁","lon":"121.4267342053","lat":"31.116589494775","category":"76","category_name":"上海菜","address":"闵行区虹梅南路1661号(春申路)"},{"poiid":"B2094757D06AAAFD479B","title":"天都火锅(虹梅店)","lon":"121.423830657","lat":"31.1236830363","category":"247","category_name":"餐饮美食","address":"上海虹梅南路1008号(莘朱路口)"},{"poiid":"B2094655D36DA7FA4899","title":"朱行","lon":"121.42371","lat":"31.1238","category":"38","category_name":"公交车站","address":""},{"poiid":"B2094757D069A2FD419C","title":"恒隆大酒店(梅陇旗舰店)","lon":"121.42206","lat":"31.11158","category":"76","category_name":"上海菜","address":"上海闵行区春申路2105号(近虹梅南路)  "},{"poiid":"B2094655D26EAAF9409A","title":"上海越也汽车销售服务有限公司","lon":"121.42601","lat":"31.11855","category":"159","category_name":"汽车维修","address":"闵行区虹梅南路1507号"},{"poiid":"B2094654DB69A5FD4298","title":"锦江之星(虹梅南路店)","lon":"121.42374","lat":"31.12445","category":"216","category_name":"经济型连锁酒店","address":"闵行区虹梅南路990号(近莘朱路)"},{"poiid":"B2094655D265A2FD469C","title":"新世界外国语进修学院","lon":"121.42154","lat":"31.12532","category":"53","category_name":"成人教育","address":"闵行区罗锦路25号新世界外国语进修学院内"},{"poiid":"B2094655D36CA2FB449D","title":"森安苑","lon":"121.42169","lat":"31.118301","category":"38","category_name":"公交车站","address":"普乐路655弄"},{"poiid":"B2094655D26FA6FA4693","title":"陇兴别墅","lon":"121.422","lat":"31.1218","category":"47","category_name":"住宅区","address":"梅富路628弄1-138号"},{"poiid":"B2094757D06AA1F84098","title":"上岛咖啡(虹梅南路店)","lon":"121.42386","lat":"31.12402","category":"260","category_name":"其他","address":"闵行区虹梅南路988(近莘朱路)"},{"poiid":"B2094757D069A1FA4199","title":"都市宜家","lon":"121.42658417","lat":"31.115075052","category":"249","category_name":"购物服务","address":"上海闵行区虹梅南路1661弄"},{"poiid":"B2094757D169A1FA409F","title":"优麦时尚量贩式歌城","lon":"121.423388","lat":"31.123964","category":"170","category_name":"KTV","address":"上海闵行区虹梅南路1005号(苏宁电器3楼)"},{"poiid":"B2094654DB6CA5FA4492","title":"行南酒家","lon":"121.4267709701","lat":"31.117259875723","category":"76","category_name":"上海菜","address":"闵行区虹梅南路1582号(近锦梅路)"},{"poiid":"B2094655D26FA3FC449E","title":"虹梅家人蔷薇新村","lon":"121.43347","lat":"31.11337","category":"47","category_name":"住宅区","address":""},{"poiid":"B2094757D16CA1F5489C","title":"JEEP(虹梅店)","lon":"121.42555938","lat":"31.11851526","category":"158","category_name":"汽车销售","address":"上海闵行区虹梅南路1507号"},{"poiid":"B2094757D16AABFA4098","title":"218公交","lon":"121.424529","lat":"31.120646","category":"500","category_name":"未知分类","address":"上海虹梅南路梅陇路"},{"poiid":"B2094655D36CA7F8469A","title":"虹梅南路莘朱路","lon":"121.42469","lat":"31.12268","category":"38","category_name":"公交车站","address":""},{"poiid":"B2094752D36CA7F8489E","title":"君衡城市酒店","lon":"121.424606","lat":"31.112366","category":"247","category_name":"餐饮美食","address":"闵行区春申路1955号陇盛大厦(近虹梅南路)"},{"poiid":"B2094757D16AA6FE4398","title":"Frank Home","lon":"121.4241867","lat":"31.118774414","category":"500","category_name":"未知分类","address":"上海市莘朱路1688弄2号"},{"poiid":"B2094757D16CABFA4193","title":"家悦小菜","lon":"121.42319","lat":"31.12429","category":"76","category_name":"上海菜","address":"闵行区虹梅南路1005号(莘朱路口)"},{"poiid":"B2094654DA65A4FC479F","title":"重庆鸡公煲(莘朱路)","lon":"121.42333","lat":"31.12282","category":"71","category_name":"四川菜","address":"闵行区莘朱路(近莘东大酒店)"},{"poiid":"B2094757D065A5FF4492","title":"小尾羊(虹梅南路店)","lon":"121.42695","lat":"31.11705","category":"500","category_name":"未知分类","address":"上海闵行区虹梅南路1588号(近锦梅路)  "},{"poiid":"B2094757D16AA6F9499A","title":"凌云菜市场","lon":"121.42402515","lat":"31.12037247","category":"249","category_name":"购物服务","address":"上海市徐汇区凌云路(近梅陇三村)"},{"poiid":"B2094757D068AAFA459D","title":"朱莘苑","lon":"121.42561","lat":"31.123041","category":"47","category_name":"住宅区","address":"上海市闵行区莘朱路2111弄"},{"poiid":"B2094757D16BA0F5419D","title":"虹梅南路锦梅路","lon":"121.43051585","lat":"31.118803738","category":"500","category_name":"未知分类","address":"上海市闵行区Ｓ２０外环高速出口"},{"poiid":"B2094757D06AA1FC4893","title":"普乐新村","lon":"121.422273","lat":"31.11836","category":"47","category_name":"住宅区","address":"上海普乐新村"},{"poiid":"B2094654DB6CA1FC4493","title":"联宝冷饮配送站","lon":"121.42528","lat":"31.1222","category":"113","category_name":"冷饮店","address":"虹梅南路1258弄"},{"poiid":"B2094750D76CA0FC459F","title":"好宴世家(虹梅南路店)","lon":"121.427","lat":"31.116","category":"76","category_name":"上海菜","address":"闵行区虹梅南路1580号"},{"poiid":"B2094654DB69A4FC419E","title":"好又多(莘朱路店)","lon":"121.42407","lat":"31.12257","category":"118","category_name":"超级市场","address":"闵行区莘朱路(近虹梅路)"},{"poiid":"B2094654DB6CA5F84293","title":"普乐三村商建城","lon":"121.42549","lat":"31.11731","category":"123","category_name":"家具建材市场","address":"虹梅南路1555弄"},{"poiid":"B2094654DA65A4FD439A","title":"朱行新街","lon":"121.42201","lat":"31.12079","category":"116","category_name":"特色商业街","address":"莘朱路1851号"},{"poiid":"B2094655D26BA5FE469D","title":"老阿姨凉皮店","lon":"121.42691","lat":"31.11689","category":"68","category_name":"快餐厅","address":"杨浦区虹梅南路1550号农工商附近(近益文路)"},{"poiid":"B2094655D265A4F94199","title":"上海友福汽车服务有限公司","lon":"121.42613","lat":"31.12131","category":"159","category_name":"汽车维修","address":"虹梅南路1340"},{"poiid":"B2094757D165A1FD449B","title":"华山花园","lon":"121.42752395","lat":"31.119768657","category":"252","category_name":"楼宇机构","address":"上海华山医院内"},{"poiid":"B2094750D76FA5F9459B","title":"品粥鮮","lon":"121.42","lat":"31.1242","category":"72","category_name":"广东菜","address":"闵行区罗锦路69号(近虹梅南路)"},{"poiid":"B2094654DB64A4F94299","title":"许记龙虾朱行专卖店","lon":"121.42211","lat":"31.12189","category":"257","category_name":"中餐厅","address":"莘朱路1851号A-16"},{"poiid":"B2094757D66CA3F8419C","title":"上海南站7号检票口","lon":"121.423688","lat":"31.123057","category":"500","category_name":"未知分类","address":"铁路上海南站"},{"poiid":"B2094655D26FA5FF4599","title":"朱行二村","lon":"121.42252","lat":"31.121571","category":"47","category_name":"住宅区","address":"朱行二村"},{"poiid":"B2094654DB6CA1FC449B","title":"上海家居乐铝塑门窗厂","lon":"121.42494","lat":"31.12272","category":"123","category_name":"家具建材市场","address":"虹梅南路1262"},{"poiid":"B2094654DA65A4FC4698","title":"朱行四村","lon":"121.42182","lat":"31.122681","category":"47","category_name":"住宅区","address":"上海市莘朱路1924弄(朱行四村)"},{"poiid":"B2094654DB64A6FE4793","title":"中国移动锦梅路营业厅","lon":"121.42694","lat":"31.11634","category":"151","category_name":"电讯营业厅","address":"闵行区锦梅路621-623号"},{"poiid":"B2094757D569A1F5479B","title":"都市宜家苑","lon":"121.43343833128","lat":"31.120746833073","category":"47","category_name":"住宅区","address":"上海市闵行区虹梅南路1661弄"},{"poiid":"B2094757D16CA5FE499A","title":"莲花新村","lon":"121.422","lat":"31.1181","category":"252","category_name":"楼宇机构","address":"莲花新村位于徐汇春申路2458弄"},{"poiid":"B2094757D06AA0FB499A","title":"虹梅佳苑","lon":"121.41901","lat":"31.121452","category":"47","category_name":"住宅区","address":"上海市闵行区莘朱路1688号"},{"poiid":"B2094654DA65A4FC4293","title":"华光生活广场","lon":"121.42379","lat":"31.12324","category":"46","category_name":"楼宇","address":""},{"poiid":"B2094654DB6CA4FC439A","title":"好德(锦梅路)","lon":"121.42555","lat":"31.11581","category":"117","category_name":"便民商店/便利店","address":""},{"poiid":"B2094654DA65A4FC429F","title":"为波宾馆虹梅店","lon":"121.42282","lat":"31.12439","category":"250","category_name":"公园户外","address":"上海市闵行区虹梅南路939号(近莘朱路)"},{"poiid":"B2094655D26EA0FE4799","title":"如家酒店","lon":"121.42303","lat":"31.12373","category":"216","category_name":"经济型连锁酒店","address":"虹梅南路1005号"},{"poiid":"B2094654DB65A0F84698","title":"永琪美容美发(莘朱路)","lon":"121.42355","lat":"31.12298","category":"148","category_name":"美容美发店","address":""}]