[{"poiid":"B2094654DA69A7FF499A","title":"上海市东方医院同济大学附属东方医院","lon":"121.51234","lat":"31.23772","category":"162","category_name":"医院","address":"浦东新区即墨路150号"},{"poiid":"B2094655D26BA2F54792","title":"浦东大道东方医院","lon":"121.51231","lat":"31.23845","category":"162","category_name":"医院","address":""},{"poiid":"B2094757D06FA1F9449F","title":"王朝大酒店(浦东店)","lon":"121.50810175","lat":"31.2391448509","category":"76","category_name":"上海菜","address":"浦东新区陆家嘴环路958号华能大厦3楼(近银城中路)"},{"poiid":"B209475CD564A7F84392","title":"上海滩浦东香格里拉店","lon":"121.50058","lat":"31.23634","category":"119","category_name":"商场","address":"浦东富成路33号香格里拉酒店内大堂层"},{"poiid":"B2094757D06FA5FF4799","title":"国家开发银行大厦","lon":"121.510394","lat":"31.236905","category":"46","category_name":"楼宇","address":"上海市浦东新区浦东南路500号"},{"poiid":"B2094655D268A3FB439E","title":"东亚银行金融大厦","lon":"121.509","lat":"31.2399","category":"46","category_name":"楼宇","address":"陆家嘴花园石桥路66号"},{"poiid":"B2094757D06FA0F9469C","title":"汉宫","lon":"121.51043","lat":"31.238","category":"76","category_name":"上海菜","address":"浦东新区浦东南路360号新上海国际大厦8楼,48楼(近陆家嘴东路)"},{"poiid":"B2094655D268A4F9409E","title":"太平金融大厦","lon":"121.51","lat":"31.2396","category":"46","category_name":"楼宇","address":"上海市浦东新区陆家嘴环路、花园石桥路"},{"poiid":"B2094757D06FA2F4419E","title":"新上海国际大厦","lon":"121.50929927","lat":"31.238815674","category":"46","category_name":"楼宇","address":"浦东南路360号，中国人民银行北侧"},{"poiid":"B2094757D06FA4FB4098","title":"中国民生银行上海总部","lon":"121.508242","lat":"31.240765","category":"260","category_name":"其他","address":"上海浦东新浦东南路100号"},{"poiid":"B2094757D06FA6FD479E","title":"工行上海分行","lon":"121.51130276","lat":"31.23914032","category":"500","category_name":"未知分类","address":"上海浦東大道9號"},{"poiid":"B2094757D06FA2FF4092","title":"建设银行(陆家嘴分行)","lon":"121.50870513","lat":"31.238155365","category":"150","category_name":"银行","address":"上海浦东新区陆家嘴环路900号"},{"poiid":"B2094757D06FA7F9449C","title":"瑞慈健康管理中心(华夏银行店)","lon":"121.50933","lat":"31.2392","category":"162","category_name":"医院","address":"浦东新区浦东南路256号华夏银行大厦3楼(近浦东大道)"},{"poiid":"B2094757D06FA7F54993","title":"老山东鲁菜馆","lon":"121.510469","lat":"31.239297","category":"73","category_name":"山东菜","address":"浦东新区浦东南路379号金穗大厦6楼(近浦东大道)"},{"poiid":"B2094757D068ABFF4899","title":"东方医院急诊部","lon":"121.512201667","lat":"31.237744757","category":"162","category_name":"医院","address":"上海浦东新区即墨路150号(近浦东大道)"},{"poiid":"B2094757D06FA7FF4598","title":"小南国(国发店)","lon":"121.51072","lat":"31.23699","category":"75","category_name":"浙江菜","address":"浦东新区浦东南路500号国家开发银行4楼(近陆家嘴东路)"},{"poiid":"B2094757D06FA1F9459F","title":"上海证券交易所","lon":"121.51066589","lat":"31.236457824","category":"46","category_name":"楼宇","address":"浦东新区浦东南路528号上海证券大厦"},{"poiid":"B2094757D06FAAFF439E","title":"中国船舶大厦","lon":"121.510881","lat":"31.238821","category":"46","category_name":"楼宇","address":"上海市宝山区牡丹江路1228号"},{"poiid":"B2094654DB6BAAF84698","title":"上海市东方医院同济大学附属东方医院(西门)","lon":"121.51133","lat":"31.23722","category":"162","category_name":"医院","address":"即墨路150"},{"poiid":"B2094757D66BA6FE459A","title":"星巴克(东方医院店)","lon":"121.513364","lat":"31.237803","category":"260","category_name":"其他","address":"浦东新区即墨路150号东方医院门诊大楼1楼(近浦东大道)"},{"poiid":"B2094757D06FA3FA489F","title":"外汇管理局","lon":"121.509963989","lat":"31.2383117676","category":"500","category_name":"未知分类","address":"上海陆家嘴东路181号"},{"poiid":"B2094757D06FA1FD419B","title":"延安东路隧道浦东段入口","lon":"121.508623058","lat":"31.2366004965","category":"500","category_name":"未知分类","address":"上海浦东新区世纪大道(近银城中路)"},{"poiid":"B2094757D06AA0FB409B","title":"名豪酒窖","lon":"121.50896","lat":"31.23754","category":"72","category_name":"广东菜","address":"浦东新区陆家嘴东路161号招商局大厦4楼(近陆家嘴环路)"},{"poiid":"B2094655D26DA1F8439E","title":"世界金融大厦","lon":"121.50865","lat":"31.23839","category":"46","category_name":"楼宇","address":"上海陆家嘴环路900号"},{"poiid":"B2094654DB69A4F8449C","title":"星巴克(信息大厦店)","lon":"121.511113","lat":"31.235658","category":"65","category_name":"咖啡厅","address":"浦东新区世纪大道211号上海信息大厦大堂(近浦东南路)"},{"poiid":"B2094757D66EA3F54792","title":"中国工商银行上海市分行","lon":"121.512708738","lat":"31.2381974699","category":"500","category_name":"未知分类","address":"浦东新区浦东大道9号(东方医院对面)"},{"poiid":"B2094750D268A7FD4998","title":"日月光中心广场","lon":"121.50933","lat":"31.237163","category":"247","category_name":"餐饮美食","address":"卢湾区徐家汇路618号(近瑞金二路)"},{"poiid":"B2094757D06AA2FC4098","title":"中粮海景壹号","lon":"121.51025031906","lat":"31.237009051897","category":"252","category_name":"楼宇机构","address":"上海浦东陆家嘴银城中路600弄银城中路600弄"},{"poiid":"B2094757D068A6FC449A","title":"即墨路","lon":"121.51289367","lat":"31.239175796","category":"500","category_name":"未知分类","address":"上海即墨路"},{"poiid":"B2094757D06FA4FD459E","title":"招商银行上海分行营业部","lon":"121.50905712","lat":"31.237428479","category":"46","category_name":"楼宇","address":"浦东新区陆家嘴东路161号(近陆家嘴环路)"},{"poiid":"B2094753D56BA3F5449B","title":"中国人民银行上海总部","lon":"121.510421","lat":"31.238067","category":"500","category_name":"未知分类","address":"上海市 陆家嘴"},{"poiid":"B2094757D06AA6FA419C","title":"东方医院体检中心","lon":"121.51287","lat":"31.23781","category":"162","category_name":"医院","address":"浦东新区即墨路150号东方医院内(近浦东大道)"},{"poiid":"B2094654DA69A0FC449F","title":"世纪金融大厦","lon":"121.51198","lat":"31.23891","category":"46","category_name":"楼宇","address":"浦东大道9号"},{"poiid":"B2094655D269ABFC4193","title":"星之健身陆家嘴店","lon":"121.51043","lat":"31.23705","category":"247","category_name":"餐饮美食","address":"浦东新区浦东南路500号国家开发银行大厦2楼(近陆家嘴东路)"},{"poiid":"B2094757D06BA3FE409F","title":"东方医院输液室","lon":"121.512332","lat":"31.237727","category":"162","category_name":"医院","address":"上海东方医院急诊"},{"poiid":"B2094654DB6BAAF44098","title":"麦当劳(陆家嘴东路)","lon":"121.51013","lat":"31.23719","category":"68","category_name":"快餐厅","address":"浦东新区浦东南路500号国家开发银行大厦内(近陆家嘴东路)"},{"poiid":"B2094655D26AABFC4493","title":"赛百味 陆家嘴店 Subway","lon":"121.51064334555","lat":"31.237554381931","category":"94","category_name":"西餐厅","address":"浦东新区浦东南路588号浦发大厦1楼(近东昌路)"},{"poiid":"B2094757D068A3FF4899","title":"华夏银行上海分行","lon":"121.508972168","lat":"31.2394714355","category":"125","category_name":"书店","address":"上海浦东南路256号 （近东城路）"},{"poiid":"B2094654DB65A4F9489A","title":"花旗银行(中国)陆家嘴支行","lon":"121.51082","lat":"31.23874","category":"150","category_name":"银行","address":"浦东新区浦东大道1号船舶大厦1楼(近即墨路)"},{"poiid":"B2094757D065A3F5469C","title":"陆家嘴东路浦东南路","lon":"121.510127","lat":"31.237197","category":"38","category_name":"公交车站","address":"上海新川线，上川线东方医院站。"},{"poiid":"B2094757D06BA6F94892","title":"上海市东方医院儿科门诊","lon":"121.512152738","lat":"31.2374304535","category":"162","category_name":"医院","address":"浦东新区即墨路150号东方医院内(近浦东大道)"},{"poiid":"B2094757D068A6FC4599","title":"五芳面馆(陆家嘴店)","lon":"121.51088","lat":"31.23713","category":"68","category_name":"快餐厅","address":"浦东新区浦东南路500号国家开发银行大厦3楼(近陆家嘴东路)"},{"poiid":"B2094752D365A4FA429D","title":"豆子在旅行","lon":"121.510913","lat":"31.237685","category":"247","category_name":"餐饮美食","address":"栖霞路39号"},{"poiid":"B2094757D16FA6FE4098","title":"CoCo都可茶饮(百联又一城店)","lon":"121.51049483","lat":"31.238193369","category":"500","category_name":"未知分类","address":"上海市杨浦区五角场百联又一城B1"},{"poiid":"B2094757D66FA2FD469F","title":"珍品粥坊","lon":"121.51384","lat":"31.23713","category":"68","category_name":"快餐厅","address":"浦东新区即墨路185号(近招远路)"},{"poiid":"B2094654DA69A7FF4893","title":"上海东方联合医院","lon":"121.51234","lat":"31.23773","category":"162","category_name":"医院","address":"上海浦东新区浦东南路551号"},{"poiid":"B2094751DA6EA1F5439E","title":"恒生大厦","lon":"121.510966681","lat":"31.2386820402","category":"252","category_name":"楼宇机构","address":"上海市浦东新区陆家嘴环路1000号"},{"poiid":"B2094655D26BA2F5479A","title":"浦东大道浦东南路","lon":"121.51167","lat":"31.23841","category":"38","category_name":"公交车站","address":""},{"poiid":"B2094655D26EA6FA419C","title":"派迪凯咖啡","lon":"121.50876445098","lat":"31.241079052589","category":"65","category_name":"咖啡厅","address":"浦东新区浦东南路500号国家开发银行大厦1楼大堂附近(近陆家嘴东路)"},{"poiid":"B2094753D76DA2F84793","title":"上海正大广场","lon":"121.511817","lat":"31.238889","category":"500","category_name":"未知分类","address":"上海市 陆家嘴"},{"poiid":"B2094654DA69A7FF499A","title":"上海市东方医院同济大学附属东方医院","lon":"121.51234","lat":"31.23772","category":"162","category_name":"医院","address":"浦东新区即墨路150号"},{"poiid":"B2094655D26BA2F54792","title":"浦东大道东方医院","lon":"121.51231","lat":"31.23845","category":"162","category_name":"医院","address":""},{"poiid":"B2094757D06FA1F9449F","title":"王朝大酒店(浦东店)","lon":"121.50810175","lat":"31.2391448509","category":"76","category_name":"上海菜","address":"浦东新区陆家嘴环路958号华能大厦3楼(近银城中路)"},{"poiid":"B209475CD564A7F84392","title":"上海滩浦东香格里拉店","lon":"121.50058","lat":"31.23634","category":"119","category_name":"商场","address":"浦东富成路33号香格里拉酒店内大堂层"},{"poiid":"B2094757D06FA5FF4799","title":"国家开发银行大厦","lon":"121.510394","lat":"31.236905","category":"46","category_name":"楼宇","address":"上海市浦东新区浦东南路500号"},{"poiid":"B2094655D268A3FB439E","title":"东亚银行金融大厦","lon":"121.509","lat":"31.2399","category":"46","category_name":"楼宇","address":"陆家嘴花园石桥路66号"},{"poiid":"B2094757D06FA0F9469C","title":"汉宫","lon":"121.51043","lat":"31.238","category":"76","category_name":"上海菜","address":"浦东新区浦东南路360号新上海国际大厦8楼,48楼(近陆家嘴东路)"},{"poiid":"B2094655D268A4F9409E","title":"太平金融大厦","lon":"121.51","lat":"31.2396","category":"46","category_name":"楼宇","address":"上海市浦东新区陆家嘴环路、花园石桥路"},{"poiid":"B2094757D06FA2F4419E","title":"新上海国际大厦","lon":"121.50929927","lat":"31.238815674","category":"46","category_name":"楼宇","address":"浦东南路360号，中国人民银行北侧"},{"poiid":"B2094757D06FA4FB4098","title":"中国民生银行上海总部","lon":"121.508242","lat":"31.240765","category":"260","category_name":"其他","address":"上海浦东新浦东南路100号"},{"poiid":"B2094757D06FA6FD479E","title":"工行上海分行","lon":"121.51130276","lat":"31.23914032","category":"500","category_name":"未知分类","address":"上海浦東大道9號"},{"poiid":"B2094757D06FA2FF4092","title":"建设银行(陆家嘴分行)","lon":"121.50870513","lat":"31.238155365","category":"150","category_name":"银行","address":"上海浦东新区陆家嘴环路900号"},{"poiid":"B2094757D06FA7F9449C","title":"瑞慈健康管理中心(华夏银行店)","lon":"121.50933","lat":"31.2392","category":"162","category_name":"医院","address":"浦东新区浦东南路256号华夏银行大厦3楼(近浦东大道)"},{"poiid":"B2094757D06FA7F54993","title":"老山东鲁菜馆","lon":"121.510469","lat":"31.239297","category":"73","category_name":"山东菜","address":"浦东新区浦东南路379号金穗大厦6楼(近浦东大道)"},{"poiid":"B2094757D068ABFF4899","title":"东方医院急诊部","lon":"121.512201667","lat":"31.237744757","category":"162","category_name":"医院","address":"上海浦东新区即墨路150号(近浦东大道)"},{"poiid":"B2094757D06FA7FF4598","title":"小南国(国发店)","lon":"121.51072","lat":"31.23699","category":"75","category_name":"浙江菜","address":"浦东新区浦东南路500号国家开发银行4楼(近陆家嘴东路)"},{"poiid":"B2094757D06FA1F9459F","title":"上海证券交易所","lon":"121.51066589","lat":"31.236457824","category":"46","category_name":"楼宇","address":"浦东新区浦东南路528号上海证券大厦"},{"poiid":"B2094757D06FAAFF439E","title":"中国船舶大厦","lon":"121.510881","lat":"31.238821","category":"46","category_name":"楼宇","address":"上海市宝山区牡丹江路1228号"},{"poiid":"B2094654DB6BAAF84698","title":"上海市东方医院同济大学附属东方医院(西门)","lon":"121.51133","lat":"31.23722","category":"162","category_name":"医院","address":"即墨路150"},{"poiid":"B2094757D66BA6FE459A","title":"星巴克(东方医院店)","lon":"121.513364","lat":"31.237803","category":"260","category_name":"其他","address":"浦东新区即墨路150号东方医院门诊大楼1楼(近浦东大道)"},{"poiid":"B2094757D06FA3FA489F","title":"外汇管理局","lon":"121.509963989","lat":"31.2383117676","category":"500","category_name":"未知分类","address":"上海陆家嘴东路181号"},{"poiid":"B2094757D06FA1FD419B","title":"延安东路隧道浦东段入口","lon":"121.508623058","lat":"31.2366004965","category":"500","category_name":"未知分类","address":"上海浦东新区世纪大道(近银城中路)"},{"poiid":"B2094757D06AA0FB409B","title":"名豪酒窖","lon":"121.50896","lat":"31.23754","category":"72","category_name":"广东菜","address":"浦东新区陆家嘴东路161号招商局大厦4楼(近陆家嘴环路)"},{"poiid":"B2094655D26DA1F8439E","title":"世界金融大厦","lon":"121.50865","lat":"31.23839","category":"46","category_name":"楼宇","address":"上海陆家嘴环路900号"},{"poiid":"B2094654DB69A4F8449C","title":"星巴克(信息大厦店)","lon":"121.511113","lat":"31.235658","category":"65","category_name":"咖啡厅","address":"浦东新区世纪大道211号上海信息大厦大堂(近浦东南路)"},{"poiid":"B2094757D66EA3F54792","title":"中国工商银行上海市分行","lon":"121.512708738","lat":"31.2381974699","category":"500","category_name":"未知分类","address":"浦东新区浦东大道9号(东方医院对面)"},{"poiid":"B2094750D268A7FD4998","title":"日月光中心广场","lon":"121.50933","lat":"31.237163","category":"247","category_name":"餐饮美食","address":"卢湾区徐家汇路618号(近瑞金二路)"},{"poiid":"B2094757D06AA2FC4098","title":"中粮海景壹号","lon":"121.51025031906","lat":"31.237009051897","category":"252","category_name":"楼宇机构","address":"上海浦东陆家嘴银城中路600弄银城中路600弄"},{"poiid":"B2094757D068A6FC449A","title":"即墨路","lon":"121.51289367","lat":"31.239175796","category":"500","category_name":"未知分类","address":"上海即墨路"},{"poiid":"B2094757D06FA4FD459E","title":"招商银行上海分行营业部","lon":"121.50905712","lat":"31.237428479","category":"46","category_name":"楼宇","address":"浦东新区陆家嘴东路161号(近陆家嘴环路)"},{"poiid":"B2094753D56BA3F5449B","title":"中国人民银行上海总部","lon":"121.510421","lat":"31.238067","category":"500","category_name":"未知分类","address":"上海市 陆家嘴"},{"poiid":"B2094757D06AA6FA419C","title":"东方医院体检中心","lon":"121.51287","lat":"31.23781","category":"162","category_name":"医院","address":"浦东新区即墨路150号东方医院内(近浦东大道)"},{"poiid":"B2094654DA69A0FC449F","title":"世纪金融大厦","lon":"121.51198","lat":"31.23891","category":"46","category_name":"楼宇","address":"浦东大道9号"},{"poiid":"B2094655D269ABFC4193","title":"星之健身陆家嘴店","lon":"121.51043","lat":"31.23705","category":"247","category_name":"餐饮美食","address":"浦东新区浦东南路500号国家开发银行大厦2楼(近陆家嘴东路)"},{"poiid":"B2094757D06BA3FE409F","title":"东方医院输液室","lon":"121.512332","lat":"31.237727","category":"162","category_name":"医院","address":"上海东方医院急诊"},{"poiid":"B2094654DB6BAAF44098","title":"麦当劳(陆家嘴东路)","lon":"121.51013","lat":"31.23719","category":"68","category_name":"快餐厅","address":"浦东新区浦东南路500号国家开发银行大厦内(近陆家嘴东路)"},{"poiid":"B2094655D26AABFC4493","title":"赛百味 陆家嘴店 Subway","lon":"121.51064334555","lat":"31.237554381931","category":"94","category_name":"西餐厅","address":"浦东新区浦东南路588号浦发大厦1楼(近东昌路)"},{"poiid":"B2094757D068A3FF4899","title":"华夏银行上海分行","lon":"121.508972168","lat":"31.2394714355","category":"125","category_name":"书店","address":"上海浦东南路256号 （近东城路）"},{"poiid":"B2094654DB65A4F9489A","title":"花旗银行(中国)陆家嘴支行","lon":"121.51082","lat":"31.23874","category":"150","category_name":"银行","address":"浦东新区浦东大道1号船舶大厦1楼(近即墨路)"},{"poiid":"B2094757D065A3F5469C","title":"陆家嘴东路浦东南路","lon":"121.510127","lat":"31.237197","category":"38","category_name":"公交车站","address":"上海新川线，上川线东方医院站。"},{"poiid":"B2094757D06BA6F94892","title":"上海市东方医院儿科门诊","lon":"121.512152738","lat":"31.2374304535","category":"162","category_name":"医院","address":"浦东新区即墨路150号东方医院内(近浦东大道)"},{"poiid":"B2094757D068A6FC4599","title":"五芳面馆(陆家嘴店)","lon":"121.51088","lat":"31.23713","category":"68","category_name":"快餐厅","address":"浦东新区浦东南路500号国家开发银行大厦3楼(近陆家嘴东路)"},{"poiid":"B2094752D365A4FA429D","title":"豆子在旅行","lon":"121.510913","lat":"31.237685","category":"247","category_name":"餐饮美食","address":"栖霞路39号"},{"poiid":"B2094757D16FA6FE4098","title":"CoCo都可茶饮(百联又一城店)","lon":"121.51049483","lat":"31.238193369","category":"500","category_name":"未知分类","address":"上海市杨浦区五角场百联又一城B1"},{"poiid":"B2094757D66FA2FD469F","title":"珍品粥坊","lon":"121.51384","lat":"31.23713","category":"68","category_name":"快餐厅","address":"浦东新区即墨路185号(近招远路)"},{"poiid":"B2094654DA69A7FF4893","title":"上海东方联合医院","lon":"121.51234","lat":"31.23773","category":"162","category_name":"医院","address":"上海浦东新区浦东南路551号"},{"poiid":"B2094751DA6EA1F5439E","title":"恒生大厦","lon":"121.510966681","lat":"31.2386820402","category":"252","category_name":"楼宇机构","address":"上海市浦东新区陆家嘴环路1000号"},{"poiid":"B2094655D26BA2F5479A","title":"浦东大道浦东南路","lon":"121.51167","lat":"31.23841","category":"38","category_name":"公交车站","address":""},{"poiid":"B2094655D26EA6FA419C","title":"派迪凯咖啡","lon":"121.50876445098","lat":"31.241079052589","category":"65","category_name":"咖啡厅","address":"浦东新区浦东南路500号国家开发银行大厦1楼大堂附近(近陆家嘴东路)"},{"poiid":"B2094753D76DA2F84793","title":"上海正大广场","lon":"121.511817","lat":"31.238889","category":"500","category_name":"未知分类","address":"上海市 陆家嘴"},{"poiid":"B2094654DA69A7FF499A","title":"上海市东方医院同济大学附属东方医院","lon":"121.51234","lat":"31.23772","category":"162","category_name":"医院","address":"浦东新区即墨路150号"},{"poiid":"B2094655D26BA2F54792","title":"浦东大道东方医院","lon":"121.51231","lat":"31.23845","category":"162","category_name":"医院","address":""},{"poiid":"B2094757D06FA1F9449F","title":"王朝大酒店(浦东店)","lon":"121.50810175","lat":"31.2391448509","category":"76","category_name":"上海菜","address":"浦东新区陆家嘴环路958号华能大厦3楼(近银城中路)"},{"poiid":"B209475CD564A7F84392","title":"上海滩浦东香格里拉店","lon":"121.50058","lat":"31.23634","category":"119","category_name":"商场","address":"浦东富成路33号香格里拉酒店内大堂层"},{"poiid":"B2094757D06FA5FF4799","title":"国家开发银行大厦","lon":"121.510394","lat":"31.236905","category":"46","category_name":"楼宇","address":"上海市浦东新区浦东南路500号"},{"poiid":"B2094655D268A3FB439E","title":"东亚银行金融大厦","lon":"121.509","lat":"31.2399","category":"46","category_name":"楼宇","address":"陆家嘴花园石桥路66号"},{"poiid":"B2094757D06FA0F9469C","title":"汉宫","lon":"121.51043","lat":"31.238","category":"76","category_name":"上海菜","address":"浦东新区浦东南路360号新上海国际大厦8楼,48楼(近陆家嘴东路)"},{"poiid":"B2094655D268A4F9409E","title":"太平金融大厦","lon":"121.51","lat":"31.2396","category":"46","category_name":"楼宇","address":"上海市浦东新区陆家嘴环路、花园石桥路"},{"poiid":"B2094757D06FA2F4419E","title":"新上海国际大厦","lon":"121.50929927","lat":"31.238815674","category":"46","category_name":"楼宇","address":"浦东南路360号，中国人民银行北侧"},{"poiid":"B2094757D06FA4FB4098","title":"中国民生银行上海总部","lon":"121.508242","lat":"31.240765","category":"260","category_name":"其他","address":"上海浦东新浦东南路100号"},{"poiid":"B2094757D06FA6FD479E","title":"工行上海分行","lon":"121.51130276","lat":"31.23914032","category":"500","category_name":"未知分类","address":"上海浦東大道9號"},{"poiid":"B2094757D06FA2FF4092","title":"建设银行(陆家嘴分行)","lon":"121.50870513","lat":"31.238155365","category":"150","category_name":"银行","address":"上海浦东新区陆家嘴环路900号"},{"poiid":"B2094757D06FA7F9449C","title":"瑞慈健康管理中心(华夏银行店)","lon":"121.50933","lat":"31.2392","category":"162","category_name":"医院","address":"浦东新区浦东南路256号华夏银行大厦3楼(近浦东大道)"},{"poiid":"B2094757D06FA7F54993","title":"老山东鲁菜馆","lon":"121.510469","lat":"31.239297","category":"73","category_name":"山东菜","address":"浦东新区浦东南路379号金穗大厦6楼(近浦东大道)"},{"poiid":"B2094757D068ABFF4899","title":"东方医院急诊部","lon":"121.512201667","lat":"31.237744757","category":"162","category_name":"医院","address":"上海浦东新区即墨路150号(近浦东大道)"},{"poiid":"B2094757D06FA7FF4598","title":"小南国(国发店)","lon":"121.51072","lat":"31.23699","category":"75","category_name":"浙江菜","address":"浦东新区浦东南路500号国家开发银行4楼(近陆家嘴东路)"},{"poiid":"B2094757D06FA1F9459F","title":"上海证券交易所","lon":"121.51066589","lat":"31.236457824","category":"46","category_name":"楼宇","address":"浦东新区浦东南路528号上海证券大厦"},{"poiid":"B2094757D06FAAFF439E","title":"中国船舶大厦","lon":"121.510881","lat":"31.238821","category":"46","category_name":"楼宇","address":"上海市宝山区牡丹江路1228号"},{"poiid":"B2094654DB6BAAF84698","title":"上海市东方医院同济大学附属东方医院(西门)","lon":"121.51133","lat":"31.23722","category":"162","category_name":"医院","address":"即墨路150"},{"poiid":"B2094757D66BA6FE459A","title":"星巴克(东方医院店)","lon":"121.513364","lat":"31.237803","category":"260","category_name":"其他","address":"浦东新区即墨路150号东方医院门诊大楼1楼(近浦东大道)"},{"poiid":"B2094757D06FA3FA489F","title":"外汇管理局","lon":"121.509963989","lat":"31.2383117676","category":"500","category_name":"未知分类","address":"上海陆家嘴东路181号"},{"poiid":"B2094757D06FA1FD419B","title":"延安东路隧道浦东段入口","lon":"121.508623058","lat":"31.2366004965","category":"500","category_name":"未知分类","address":"上海浦东新区世纪大道(近银城中路)"},{"poiid":"B2094757D06AA0FB409B","title":"名豪酒窖","lon":"121.50896","lat":"31.23754","category":"72","category_name":"广东菜","address":"浦东新区陆家嘴东路161号招商局大厦4楼(近陆家嘴环路)"},{"poiid":"B2094655D26DA1F8439E","title":"世界金融大厦","lon":"121.50865","lat":"31.23839","category":"46","category_name":"楼宇","address":"上海陆家嘴环路900号"},{"poiid":"B2094654DB69A4F8449C","title":"星巴克(信息大厦店)","lon":"121.511113","lat":"31.235658","category":"65","category_name":"咖啡厅","address":"浦东新区世纪大道211号上海信息大厦大堂(近浦东南路)"},{"poiid":"B2094757D66EA3F54792","title":"中国工商银行上海市分行","lon":"121.512708738","lat":"31.2381974699","category":"500","category_name":"未知分类","address":"浦东新区浦东大道9号(东方医院对面)"},{"poiid":"B2094750D268A7FD4998","title":"日月光中心广场","lon":"121.50933","lat":"31.237163","category":"247","category_name":"餐饮美食","address":"卢湾区徐家汇路618号(近瑞金二路)"},{"poiid":"B2094757D06AA2FC4098","title":"中粮海景壹号","lon":"121.51025031906","lat":"31.237009051897","category":"252","category_name":"楼宇机构","address":"上海浦东陆家嘴银城中路600弄银城中路600弄"},{"poiid":"B2094757D068A6FC449A","title":"即墨路","lon":"121.51289367","lat":"31.239175796","category":"500","category_name":"未知分类","address":"上海即墨路"},{"poiid":"B2094757D06FA4FD459E","title":"招商银行上海分行营业部","lon":"121.50905712","lat":"31.237428479","category":"46","category_name":"楼宇","address":"浦东新区陆家嘴东路161号(近陆家嘴环路)"},{"poiid":"B2094753D56BA3F5449B","title":"中国人民银行上海总部","lon":"121.510421","lat":"31.238067","category":"500","category_name":"未知分类","address":"上海市 陆家嘴"},{"poiid":"B2094757D06AA6FA419C","title":"东方医院体检中心","lon":"121.51287","lat":"31.23781","category":"162","category_name":"医院","address":"浦东新区即墨路150号东方医院内(近浦东大道)"},{"poiid":"B2094654DA69A0FC449F","title":"世纪金融大厦","lon":"121.51198","lat":"31.23891","category":"46","category_name":"楼宇","address":"浦东大道9号"},{"poiid":"B2094655D269ABFC4193","title":"星之健身陆家嘴店","lon":"121.51043","lat":"31.23705","category":"247","category_name":"餐饮美食","address":"浦东新区浦东南路500号国家开发银行大厦2楼(近陆家嘴东路)"},{"poiid":"B2094757D06BA3FE409F","title":"东方医院输液室","lon":"121.512332","lat":"31.237727","category":"162","category_name":"医院","address":"上海东方医院急诊"},{"poiid":"B2094654DB6BAAF44098","title":"麦当劳(陆家嘴东路)","lon":"121.51013","lat":"31.23719","category":"68","category_name":"快餐厅","address":"浦东新区浦东南路500号国家开发银行大厦内(近陆家嘴东路)"},{"poiid":"B2094655D26AABFC4493","title":"赛百味 陆家嘴店 Subway","lon":"121.51064334555","lat":"31.237554381931","category":"94","category_name":"西餐厅","address":"浦东新区浦东南路588号浦发大厦1楼(近东昌路)"},{"poiid":"B2094757D068A3FF4899","title":"华夏银行上海分行","lon":"121.508972168","lat":"31.2394714355","category":"125","category_name":"书店","address":"上海浦东南路256号 （近东城路）"},{"poiid":"B2094654DB65A4F9489A","title":"花旗银行(中国)陆家嘴支行","lon":"121.51082","lat":"31.23874","category":"150","category_name":"银行","address":"浦东新区浦东大道1号船舶大厦1楼(近即墨路)"},{"poiid":"B2094757D065A3F5469C","title":"陆家嘴东路浦东南路","lon":"121.510127","lat":"31.237197","category":"38","category_name":"公交车站","address":"上海新川线，上川线东方医院站。"},{"poiid":"B2094757D06BA6F94892","title":"上海市东方医院儿科门诊","lon":"121.512152738","lat":"31.2374304535","category":"162","category_name":"医院","address":"浦东新区即墨路150号东方医院内(近浦东大道)"},{"poiid":"B2094757D068A6FC4599","title":"五芳面馆(陆家嘴店)","lon":"121.51088","lat":"31.23713","category":"68","category_name":"快餐厅","address":"浦东新区浦东南路500号国家开发银行大厦3楼(近陆家嘴东路)"},{"poiid":"B2094752D365A4FA429D","title":"豆子在旅行","lon":"121.510913","lat":"31.237685","category":"247","category_name":"餐饮美食","address":"栖霞路39号"},{"poiid":"B2094757D16FA6FE4098","title":"CoCo都可茶饮(百联又一城店)","lon":"121.51049483","lat":"31.238193369","category":"500","category_name":"未知分类","address":"上海市杨浦区五角场百联又一城B1"},{"poiid":"B2094757D66FA2FD469F","title":"珍品粥坊","lon":"121.51384","lat":"31.23713","category":"68","category_name":"快餐厅","address":"浦东新区即墨路185号(近招远路)"},{"poiid":"B2094654DA69A7FF4893","title":"上海东方联合医院","lon":"121.51234","lat":"31.23773","category":"162","category_name":"医院","address":"上海浦东新区浦东南路551号"},{"poiid":"B2094751DA6EA1F5439E","title":"恒生大厦","lon":"121.510966681","lat":"31.2386820402","category":"252","category_name":"楼宇机构","address":"上海市浦东新区陆家嘴环路1000号"},{"poiid":"B2094655D26BA2F5479A","title":"浦东大道浦东南路","lon":"121.51167","lat":"31.23841","category":"38","category_name":"公交车站","address":""},{"poiid":"B2094655D26EA6FA419C","title":"派迪凯咖啡","lon":"121.50876445098","lat":"31.241079052589","category":"65","category_name":"咖啡厅","address":"浦东新区浦东南路500号国家开发银行大厦1楼大堂附近(近陆家嘴东路)"},{"poiid":"B2094753D76DA2F84793","title":"上海正大广场","lon":"121.511817","lat":"31.238889","category":"500","category_name":"未知分类","address":"上海市 陆家嘴"},{"poiid":"B2094654DA69A7FF499A","title":"上海市东方医院同济大学附属东方医院","lon":"121.51234","lat":"31.23772","category":"162","category_name":"医院","address":"浦东新区即墨路150号"},{"poiid":"B2094655D26BA2F54792","title":"浦东大道东方医院","lon":"121.51231","lat":"31.23845","category":"162","category_name":"医院","address":""},{"poiid":"B2094757D06FA1F9449F","title":"王朝大酒店(浦东店)","lon":"121.50810175","lat":"31.2391448509","category":"76","category_name":"上海菜","address":"浦东新区陆家嘴环路958号华能大厦3楼(近银城中路)"},{"poiid":"B209475CD564A7F84392","title":"上海滩浦东香格里拉店","lon":"121.50058","lat":"31.23634","category":"119","category_name":"商场","address":"浦东富成路33号香格里拉酒店内大堂层"},{"poiid":"B2094757D06FA5FF4799","title":"国家开发银行大厦","lon":"121.510394","lat":"31.236905","category":"46","category_name":"楼宇","address":"上海市浦东新区浦东南路500号"},{"poiid":"B2094655D268A3FB439E","title":"东亚银行金融大厦","lon":"121.509","lat":"31.2399","category":"46","category_name":"楼宇","address":"陆家嘴花园石桥路66号"},{"poiid":"B2094757D06FA0F9469C","title":"汉宫","lon":"121.51043","lat":"31.238","category":"76","category_name":"上海菜","address":"浦东新区浦东南路360号新上海国际大厦8楼,48楼(近陆家嘴东路)"},{"poiid":"B2094655D268A4F9409E","title":"太平金融大厦","lon":"121.51","lat":"31.2396","category":"46","category_name":"楼宇","address":"上海市浦东新区陆家嘴环路、花园石桥路"},{"poiid":"B2094757D06FA2F4419E","title":"新上海国际大厦","lon":"121.50929927","lat":"31.238815674","category":"46","category_name":"楼宇","address":"浦东南路360号，中国人民银行北侧"},{"poiid":"B2094757D06FA4FB4098","title":"中国民生银行上海总部","lon":"121.508242","lat":"31.240765","category":"260","category_name":"其他","address":"上海浦东新浦东南路100号"},{"poiid":"B2094757D06FA6FD479E","title":"工行上海分行","lon":"121.51130276","lat":"31.23914032","category":"500","category_name":"未知分类","address":"上海浦東大道9號"},{"poiid":"B2094757D06FA2FF4092","title":"建设银行(陆家嘴分行)","lon":"121.50870513","lat":"31.238155365","category":"150","category_name":"银行","address":"上海浦东新区陆家嘴环路900号"},{"poiid":"B2094757D06FA7F9449C","title":"瑞慈健康管理中心(华夏银行店)","lon":"121.50933","lat":"31.2392","category":"162","category_name":"医院","address":"浦东新区浦东南路256号华夏银行大厦3楼(近浦东大道)"},{"poiid":"B2094757D06FA7F54993","title":"老山东鲁菜馆","lon":"121.510469","lat":"31.239297","category":"73","category_name":"山东菜","address":"浦东新区浦东南路379号金穗大厦6楼(近浦东大道)"},{"poiid":"B2094757D068ABFF4899","title":"东方医院急诊部","lon":"121.512201667","lat":"31.237744757","category":"162","category_name":"医院","address":"上海浦东新区即墨路150号(近浦东大道)"},{"poiid":"B2094757D06FA7FF4598","title":"小南国(国发店)","lon":"121.51072","lat":"31.23699","category":"75","category_name":"浙江菜","address":"浦东新区浦东南路500号国家开发银行4楼(近陆家嘴东路)"},{"poiid":"B2094757D06FA1F9459F","title":"上海证券交易所","lon":"121.51066589","lat":"31.236457824","category":"46","category_name":"楼宇","address":"浦东新区浦东南路528号上海证券大厦"},{"poiid":"B2094757D06FAAFF439E","title":"中国船舶大厦","lon":"121.510881","lat":"31.238821","category":"46","category_name":"楼宇","address":"上海市宝山区牡丹江路1228号"},{"poiid":"B2094654DB6BAAF84698","title":"上海市东方医院同济大学附属东方医院(西门)","lon":"121.51133","lat":"31.23722","category":"162","category_name":"医院","address":"即墨路150"},{"poiid":"B2094757D66BA6FE459A","title":"星巴克(东方医院店)","lon":"121.513364","lat":"31.237803","category":"260","category_name":"其他","address":"浦东新区即墨路150号东方医院门诊大楼1楼(近浦东大道)"},{"poiid":"B2094757D06FA3FA489F","title":"外汇管理局","lon":"121.509963989","lat":"31.2383117676","category":"500","category_name":"未知分类","address":"上海陆家嘴东路181号"},{"poiid":"B2094757D06FA1FD419B","title":"延安东路隧道浦东段入口","lon":"121.508623058","lat":"31.2366004965","category":"500","category_name":"未知分类","address":"上海浦东新区世纪大道(近银城中路)"},{"poiid":"B2094757D06AA0FB409B","title":"名豪酒窖","lon":"121.50896","lat":"31.23754","category":"72","category_name":"广东菜","address":"浦东新区陆家嘴东路161号招商局大厦4楼(近陆家嘴环路)"},{"poiid":"B2094655D26DA1F8439E","title":"世界金融大厦","lon":"121.50865","lat":"31.23839","category":"46","category_name":"楼宇","address":"上海陆家嘴环路900号"},{"poiid":"B2094654DB69A4F8449C","title":"星巴克(信息大厦店)","lon":"121.511113","lat":"31.235658","category":"65","category_name":"咖啡厅","address":"浦东新区世纪大道211号上海信息大厦大堂(近浦东南路)"},{"poiid":"B2094757D66EA3F54792","title":"中国工商银行上海市分行","lon":"121.512708738","lat":"31.2381974699","category":"500","category_name":"未知分类","address":"浦东新区浦东大道9号(东方医院对面)"},{"poiid":"B2094750D268A7FD4998","title":"日月光中心广场","lon":"121.50933","lat":"31.237163","category":"247","category_name":"餐饮美食","address":"卢湾区徐家汇路618号(近瑞金二路)"},{"poiid":"B2094757D06AA2FC4098","title":"中粮海景壹号","lon":"121.51025031906","lat":"31.237009051897","category":"252","category_name":"楼宇机构","address":"上海浦东陆家嘴银城中路600弄银城中路600弄"},{"poiid":"B2094757D068A6FC449A","title":"即墨路","lon":"121.51289367","lat":"31.239175796","category":"500","category_name":"未知分类","address":"上海即墨路"},{"poiid":"B2094757D06FA4FD459E","title":"招商银行上海分行营业部","lon":"121.50905712","lat":"31.237428479","category":"46","category_name":"楼宇","address":"浦东新区陆家嘴东路161号(近陆家嘴环路)"},{"poiid":"B2094753D56BA3F5449B","title":"中国人民银行上海总部","lon":"121.510421","lat":"31.238067","category":"500","category_name":"未知分类","address":"上海市 陆家嘴"},{"poiid":"B2094757D06AA6FA419C","title":"东方医院体检中心","lon":"121.51287","lat":"31.23781","category":"162","category_name":"医院","address":"浦东新区即墨路150号东方医院内(近浦东大道)"},{"poiid":"B2094654DA69A0FC449F","title":"世纪金融大厦","lon":"121.51198","lat":"31.23891","category":"46","category_name":"楼宇","address":"浦东大道9号"},{"poiid":"B2094655D269ABFC4193","title":"星之健身陆家嘴店","lon":"121.51043","lat":"31.23705","category":"247","category_name":"餐饮美食","address":"浦东新区浦东南路500号国家开发银行大厦2楼(近陆家嘴东路)"},{"poiid":"B2094757D06BA3FE409F","title":"东方医院输液室","lon":"121.512332","lat":"31.237727","category":"162","category_name":"医院","address":"上海东方医院急诊"},{"poiid":"B2094654DB6BAAF44098","title":"麦当劳(陆家嘴东路)","lon":"121.51013","lat":"31.23719","category":"68","category_name":"快餐厅","address":"浦东新区浦东南路500号国家开发银行大厦内(近陆家嘴东路)"},{"poiid":"B2094655D26AABFC4493","title":"赛百味 陆家嘴店 Subway","lon":"121.51064334555","lat":"31.237554381931","category":"94","category_name":"西餐厅","address":"浦东新区浦东南路588号浦发大厦1楼(近东昌路)"},{"poiid":"B2094757D068A3FF4899","title":"华夏银行上海分行","lon":"121.508972168","lat":"31.2394714355","category":"125","category_name":"书店","address":"上海浦东南路256号 （近东城路）"},{"poiid":"B2094654DB65A4F9489A","title":"花旗银行(中国)陆家嘴支行","lon":"121.51082","lat":"31.23874","category":"150","category_name":"银行","address":"浦东新区浦东大道1号船舶大厦1楼(近即墨路)"},{"poiid":"B2094757D065A3F5469C","title":"陆家嘴东路浦东南路","lon":"121.510127","lat":"31.237197","category":"38","category_name":"公交车站","address":"上海新川线，上川线东方医院站。"},{"poiid":"B2094757D06BA6F94892","title":"上海市东方医院儿科门诊","lon":"121.512152738","lat":"31.2374304535","category":"162","category_name":"医院","address":"浦东新区即墨路150号东方医院内(近浦东大道)"},{"poiid":"B2094757D068A6FC4599","title":"五芳面馆(陆家嘴店)","lon":"121.51088","lat":"31.23713","category":"68","category_name":"快餐厅","address":"浦东新区浦东南路500号国家开发银行大厦3楼(近陆家嘴东路)"},{"poiid":"B2094752D365A4FA429D","title":"豆子在旅行","lon":"121.510913","lat":"31.237685","category":"247","category_name":"餐饮美食","address":"栖霞路39号"},{"poiid":"B2094757D16FA6FE4098","title":"CoCo都可茶饮(百联又一城店)","lon":"121.51049483","lat":"31.238193369","category":"500","category_name":"未知分类","address":"上海市杨浦区五角场百联又一城B1"},{"poiid":"B2094757D66FA2FD469F","title":"珍品粥坊","lon":"121.51384","lat":"31.23713","category":"68","category_name":"快餐厅","address":"浦东新区即墨路185号(近招远路)"},{"poiid":"B2094654DA69A7FF4893","title":"上海东方联合医院","lon":"121.51234","lat":"31.23773","category":"162","category_name":"医院","address":"上海浦东新区浦东南路551号"},{"poiid":"B2094751DA6EA1F5439E","title":"恒生大厦","lon":"121.510966681","lat":"31.2386820402","category":"252","category_name":"楼宇机构","address":"上海市浦东新区陆家嘴环路1000号"},{"poiid":"B2094655D26BA2F5479A","title":"浦东大道浦东南路","lon":"121.51167","lat":"31.23841","category":"38","category_name":"公交车站","address":""},{"poiid":"B2094655D26EA6FA419C","title":"派迪凯咖啡","lon":"121.50876445098","lat":"31.241079052589","category":"65","category_name":"咖啡厅","address":"浦东新区浦东南路500号国家开发银行大厦1楼大堂附近(近陆家嘴东路)"},{"poiid":"B2094753D76DA2F84793","title":"上海正大广场","lon":"121.511817","lat":"31.238889","category":"500","category_name":"未知分类","address":"上海市 陆家嘴"}]