[{"poiid":"B2094757D06FA4FD4692","title":"上海震旦学院","lon":"121.35632","lat":"31.41797","category":"500","category_name":"未知分类","address":"上海宝山区罗店镇市一路88号(近月罗路)  "},{"poiid":"B2094757D06EAAF44792","title":"美兰湖","lon":"121.3539524","lat":"31.399131614","category":"234","category_name":"海滨浴场","address":"宝山区罗芬路888号"},{"poiid":"B2094654D469A0F8499E","title":"美兰湖国际会议中心","lon":"121.35453","lat":"31.40151","category":"65","category_name":"咖啡厅","address":"宝山区罗店新镇罗芬路888号"},{"poiid":"B2094757D06FA7FB4798","title":"美兰湖高尔夫俱乐部","lon":"121.3651","lat":"31.40198","category":"220","category_name":"运动场所","address":"海市宝山区沪太路6655号(内美兰湖路9号)"},{"poiid":"B2094654D469ABFE409D","title":"美兰湖皇冠假日酒店","lon":"121.36484","lat":"31.40225","category":"217","category_name":"旅馆招待所","address":"宝山区沪太路6655号(近北欧新镇)"},{"poiid":"B2094757D06EAAFF4092","title":"美兰湖地铁站","lon":"121.35040708","lat":"31.4015480232","category":"36","category_name":"地铁站","address":"上海轨道交通 七号线 轨交美兰湖站 7"},{"poiid":"B2094655D26BA1FB459C","title":"罗店","lon":"121.34159","lat":"31.41009","category":"38","category_name":"公交车站","address":""},{"poiid":"B2094757D06BABFB459E","title":"美兰湖中华园","lon":"121.36041","lat":"31.409433","category":"500","category_name":"未知分类","address":"上海市宝山区抚远路1288弄"},{"poiid":"B2094654D469A7FA469D","title":"美兰湖别墅","lon":"121.36365672951","lat":"31.402259302461","category":"47","category_name":"住宅区","address":"上海市宝山区罗迎路558弄"},{"poiid":"B2094757D06AA7FD4099","title":"罗店医院","lon":"121.34698","lat":"31.41517","category":"162","category_name":"医院","address":"宝山区罗溪路121号(罗溪路市一路)"},{"poiid":"B2094757D568A1FF439E","title":"美兰湖高尔夫别墅","lon":"121.347665","lat":"31.40718","category":"47","category_name":"住宅区","address":"上海罗店北欧新镇美丹路8号"},{"poiid":"B2094757D069A1F9419F","title":"宝山净寺","lon":"121.34277498","lat":"31.417038888","category":"246","category_name":"回教寺","address":"宝山区罗店镇罗溪路518号(练祁河旁)"},{"poiid":"B2094757D068A5F8429B","title":"宝罗瞑园","lon":"121.37416","lat":"31.42456","category":"500","category_name":"未知分类","address":"宝山区罗店苗圃路350号"},{"poiid":"B2094655D264A0F9449B","title":"上置香岛原墅","lon":"121.35855","lat":"31.41063","category":"47","category_name":"住宅区","address":"宝山美兰湖美丰路88号(抚远路口)"},{"poiid":"B2094654D468A4F4429E","title":"震旦学院(市一路)","lon":"121.35604","lat":"31.41824","category":"52","category_name":"高等院校","address":"宝山区市一路88"},{"poiid":"B2094757D065AAFB429B","title":"闻道园","lon":"121.36612","lat":"31.42092","category":"500","category_name":"未知分类","address":"宝山区潘泾路2888号(潘泾路市一东路)"},{"poiid":"B2094654D468A4FB4892","title":"金星绿苑","lon":"121.35493","lat":"31.423529","category":"47","category_name":"住宅区","address":"集贤路500弄501弄"},{"poiid":"B2094655D264A0F8429F","title":"金星绿园二期","lon":"121.35949","lat":"31.41623","category":"47","category_name":"住宅区","address":"上海市宝山区东至抚远路,南至练祁河,西至集贤路,北至祁北路"},{"poiid":"B2094654D469A0FB4498","title":"都是客酒店","lon":"121.350095054","lat":"31.409544793","category":"76","category_name":"上海菜","address":"宝山区罗溪路5号(近月罗公路)"},{"poiid":"B2094757D065A4FE4392","title":"罗溪公园","lon":"121.35075","lat":"31.416","category":"196","category_name":"公园","address":"宝山区罗店市一路150号"},{"poiid":"B2094757D16BABF9419D","title":"世纪联华 美食广场","lon":"121.350432153","lat":"31.4024306507","category":"257","category_name":"中餐厅","address":"上海美兰湖"},{"poiid":"B2094655D26BA1FB439D","title":"罗溪路市一路","lon":"121.347","lat":"31.41561","category":"38","category_name":"公交车站","address":""},{"poiid":"B2094654D469A0FB4899","title":"顺驰美兰湖","lon":"121.35601","lat":"31.405182","category":"47","category_name":"住宅区","address":"宝山区罗店北欧新镇扶远路美丹路路口"},{"poiid":"B2094654D468A4F54099","title":"东方文化学院(市一路)","lon":"121.3562","lat":"31.41835","category":"52","category_name":"高等院校","address":""},{"poiid":"B2094655D36DA7FC4498","title":"月罗公路抚远路","lon":"121.35931","lat":"31.41389","category":"38","category_name":"公交车站","address":""},{"poiid":"B2094757D069ABFE4692","title":"鼎中鼎澳门豆捞(罗芬路店)","lon":"121.35685","lat":"31.39889","category":"86","category_name":"火锅店","address":"宝山区罗芬路55号(近美艾路)"},{"poiid":"B2094757D16FA1FA469A","title":"上海市宝山区看守所","lon":"121.35733787","lat":"31.41223785","category":"500","category_name":"未知分类","address":"上海月罗路2099号"},{"poiid":"B2094655D36DA7FC449F","title":"月罗公路潘泾路","lon":"121.36669","lat":"31.41587","category":"38","category_name":"公交车站","address":""},{"poiid":"B2094757D66BABF9469E","title":"麦可茶饮 震旦店 Teamac","lon":"121.353465","lat":"31.417553","category":"111","category_name":"休闲餐饮场所","address":"宝山区市一路88号震旦学院内(集贤路市一路)"},{"poiid":"B2094757D16AA4FC4299","title":"月罗路2101号","lon":"121.35679067","lat":"31.420241402","category":"47","category_name":"住宅区","address":"上海市宝山区月罗路2101号"},{"poiid":"B2094654D468A4F5409C","title":"宝山寺","lon":"121.34278","lat":"31.41703","category":"244","category_name":"寺庙道观","address":"罗店镇"},{"poiid":"B2094654D468A4F84299","title":"上海中集宝伟工业有限公司","lon":"121.3594","lat":"31.41625","category":"263","category_name":"公司","address":"抚远路1771"},{"poiid":"B2094757D06AA0F5439C","title":"美兰湖颐景园","lon":"121.3582","lat":"31.398161","category":"47","category_name":"住宅区","address":"上海市宝山区美艾路198弄"},{"poiid":"B2094757D06BA6FD4498","title":"万科琥珀臻园","lon":"121.366708","lat":"31.411943","category":"500","category_name":"未知分类","address":"上海市宝山区美兰湖新镇美艾路与抚远路交汇处"},{"poiid":"B2094757D66DABF8409E","title":"上海震旦职业学院","lon":"121.361549679","lat":"31.4120992483","category":"671","category_name":"高校中心点","address":"宝山区罗店镇市一路88号(近月罗路)"},{"poiid":"B2094757D164ABF94392","title":"宝山区刑事审判法庭","lon":"121.35954667","lat":"31.414126286","category":"500","category_name":"未知分类","address":"上海市宝山区月罗公路2099号"},{"poiid":"B2094757D16BA0FB479C","title":"震旦409","lon":"121.35604","lat":"31.418247","category":"500","category_name":"未知分类","address":"上海震旦学院"},{"poiid":"B2094654D468A4F4449E","title":"上海冰峰金属材料有限公司","lon":"121.35897","lat":"31.42024","category":"263","category_name":"公司","address":"苗圃路888"},{"poiid":"B2094655D26BA4F8419E","title":"罗新苑","lon":"121.34994","lat":"31.424318","category":"47","category_name":"住宅区","address":"集贤路800弄"},{"poiid":"B2094757D16BA4F9419B","title":"震旦图书馆","lon":"121.35590277","lat":"31.423116256","category":"181","category_name":"图书馆","address":"上海震旦学院"},{"poiid":"B2094757D06BA5F4469C","title":"震旦学院南校区","lon":"121.359177","lat":"31.413554","category":"253","category_name":"校园生活","address":"上海市宝山区月罗公路2106号"},{"poiid":"B2094654D468A4F54193","title":"罗溪花苑","lon":"121.34593","lat":"31.419167","category":"47","category_name":"住宅区","address":"罗溪路671弄"},{"poiid":"B2094654D468A4F4429F","title":"上海罗店经济发展公司","lon":"121.35499","lat":"31.41791","category":"263","category_name":"公司","address":"市一路102"},{"poiid":"B2094654D469A0FB439B","title":"中国弹簧厂冷拉分厂","lon":"121.36138","lat":"31.41411","category":"263","category_name":"公司","address":""},{"poiid":"B2094655D36CA0FB4492","title":"集贤路祁北路","lon":"121.35331","lat":"31.42274","category":"38","category_name":"公交车站","address":""},{"poiid":"B2094757D568A6FE419A","title":"上海瓦伦西酒店","lon":"121.3591772","lat":"31.41355417","category":"251","category_name":"出行住宿","address":"宝山区月罗路2106号"},{"poiid":"B2094757D469A0FC499D","title":"客来多","lon":"121.351097","lat":"31.416477","category":"68","category_name":"快餐厅","address":"宝山区罗店镇祁北路(近市一路)"},{"poiid":"B2094654D468A4F44599","title":"上海宝翼制罐有限公司","lon":"121.36486","lat":"31.41518","category":"263","category_name":"公司","address":"月罗公路1888号"},{"poiid":"B2094654D469A0FB439E","title":"上海三荣电梯有限公司(月罗公路)","lon":"121.35711","lat":"31.41293","category":"263","category_name":"公司","address":""},{"poiid":"B2094757D06AA3FD4992","title":"伊诺咖啡 美兰湖店","lon":"121.356827054","lat":"31.401091793","category":"65","category_name":"咖啡厅","address":"宝山区沪太路6655号罗店北欧新镇内罗芬路789号"},{"poiid":"B2094757D06FA4FD4692","title":"上海震旦学院","lon":"121.35632","lat":"31.41797","category":"500","category_name":"未知分类","address":"上海宝山区罗店镇市一路88号(近月罗路)  "},{"poiid":"B2094757D06EAAF44792","title":"美兰湖","lon":"121.3539524","lat":"31.399131614","category":"234","category_name":"海滨浴场","address":"宝山区罗芬路888号"},{"poiid":"B2094654D469A0F8499E","title":"美兰湖国际会议中心","lon":"121.35453","lat":"31.40151","category":"65","category_name":"咖啡厅","address":"宝山区罗店新镇罗芬路888号"},{"poiid":"B2094757D06FA7FB4798","title":"美兰湖高尔夫俱乐部","lon":"121.3651","lat":"31.40198","category":"220","category_name":"运动场所","address":"海市宝山区沪太路6655号(内美兰湖路9号)"},{"poiid":"B2094654D469ABFE409D","title":"美兰湖皇冠假日酒店","lon":"121.36484","lat":"31.40225","category":"217","category_name":"旅馆招待所","address":"宝山区沪太路6655号(近北欧新镇)"},{"poiid":"B2094757D06EAAFF4092","title":"美兰湖地铁站","lon":"121.35040708","lat":"31.4015480232","category":"36","category_name":"地铁站","address":"上海轨道交通 七号线 轨交美兰湖站 7"},{"poiid":"B2094655D26BA1FB459C","title":"罗店","lon":"121.34159","lat":"31.41009","category":"38","category_name":"公交车站","address":""},{"poiid":"B2094757D06BABFB459E","title":"美兰湖中华园","lon":"121.36041","lat":"31.409433","category":"500","category_name":"未知分类","address":"上海市宝山区抚远路1288弄"},{"poiid":"B2094654D469A7FA469D","title":"美兰湖别墅","lon":"121.36365672951","lat":"31.402259302461","category":"47","category_name":"住宅区","address":"上海市宝山区罗迎路558弄"},{"poiid":"B2094757D06AA7FD4099","title":"罗店医院","lon":"121.34698","lat":"31.41517","category":"162","category_name":"医院","address":"宝山区罗溪路121号(罗溪路市一路)"},{"poiid":"B2094757D568A1FF439E","title":"美兰湖高尔夫别墅","lon":"121.347665","lat":"31.40718","category":"47","category_name":"住宅区","address":"上海罗店北欧新镇美丹路8号"},{"poiid":"B2094757D069A1F9419F","title":"宝山净寺","lon":"121.34277498","lat":"31.417038888","category":"246","category_name":"回教寺","address":"宝山区罗店镇罗溪路518号(练祁河旁)"},{"poiid":"B2094757D068A5F8429B","title":"宝罗瞑园","lon":"121.37416","lat":"31.42456","category":"500","category_name":"未知分类","address":"宝山区罗店苗圃路350号"},{"poiid":"B2094655D264A0F9449B","title":"上置香岛原墅","lon":"121.35855","lat":"31.41063","category":"47","category_name":"住宅区","address":"宝山美兰湖美丰路88号(抚远路口)"},{"poiid":"B2094654D468A4F4429E","title":"震旦学院(市一路)","lon":"121.35604","lat":"31.41824","category":"52","category_name":"高等院校","address":"宝山区市一路88"},{"poiid":"B2094757D065AAFB429B","title":"闻道园","lon":"121.36612","lat":"31.42092","category":"500","category_name":"未知分类","address":"宝山区潘泾路2888号(潘泾路市一东路)"},{"poiid":"B2094654D468A4FB4892","title":"金星绿苑","lon":"121.35493","lat":"31.423529","category":"47","category_name":"住宅区","address":"集贤路500弄501弄"},{"poiid":"B2094655D264A0F8429F","title":"金星绿园二期","lon":"121.35949","lat":"31.41623","category":"47","category_name":"住宅区","address":"上海市宝山区东至抚远路,南至练祁河,西至集贤路,北至祁北路"},{"poiid":"B2094654D469A0FB4498","title":"都是客酒店","lon":"121.350095054","lat":"31.409544793","category":"76","category_name":"上海菜","address":"宝山区罗溪路5号(近月罗公路)"},{"poiid":"B2094757D065A4FE4392","title":"罗溪公园","lon":"121.35075","lat":"31.416","category":"196","category_name":"公园","address":"宝山区罗店市一路150号"},{"poiid":"B2094757D16BABF9419D","title":"世纪联华 美食广场","lon":"121.350432153","lat":"31.4024306507","category":"257","category_name":"中餐厅","address":"上海美兰湖"},{"poiid":"B2094655D26BA1FB439D","title":"罗溪路市一路","lon":"121.347","lat":"31.41561","category":"38","category_name":"公交车站","address":""},{"poiid":"B2094654D469A0FB4899","title":"顺驰美兰湖","lon":"121.35601","lat":"31.405182","category":"47","category_name":"住宅区","address":"宝山区罗店北欧新镇扶远路美丹路路口"},{"poiid":"B2094654D468A4F54099","title":"东方文化学院(市一路)","lon":"121.3562","lat":"31.41835","category":"52","category_name":"高等院校","address":""},{"poiid":"B2094655D36DA7FC4498","title":"月罗公路抚远路","lon":"121.35931","lat":"31.41389","category":"38","category_name":"公交车站","address":""},{"poiid":"B2094757D069ABFE4692","title":"鼎中鼎澳门豆捞(罗芬路店)","lon":"121.35685","lat":"31.39889","category":"86","category_name":"火锅店","address":"宝山区罗芬路55号(近美艾路)"},{"poiid":"B2094757D16FA1FA469A","title":"上海市宝山区看守所","lon":"121.35733787","lat":"31.41223785","category":"500","category_name":"未知分类","address":"上海月罗路2099号"},{"poiid":"B2094655D36DA7FC449F","title":"月罗公路潘泾路","lon":"121.36669","lat":"31.41587","category":"38","category_name":"公交车站","address":""},{"poiid":"B2094757D66BABF9469E","title":"麦可茶饮 震旦店 Teamac","lon":"121.353465","lat":"31.417553","category":"111","category_name":"休闲餐饮场所","address":"宝山区市一路88号震旦学院内(集贤路市一路)"},{"poiid":"B2094757D16AA4FC4299","title":"月罗路2101号","lon":"121.35679067","lat":"31.420241402","category":"47","category_name":"住宅区","address":"上海市宝山区月罗路2101号"},{"poiid":"B2094654D468A4F5409C","title":"宝山寺","lon":"121.34278","lat":"31.41703","category":"244","category_name":"寺庙道观","address":"罗店镇"},{"poiid":"B2094654D468A4F84299","title":"上海中集宝伟工业有限公司","lon":"121.3594","lat":"31.41625","category":"263","category_name":"公司","address":"抚远路1771"},{"poiid":"B2094757D06AA0F5439C","title":"美兰湖颐景园","lon":"121.3582","lat":"31.398161","category":"47","category_name":"住宅区","address":"上海市宝山区美艾路198弄"},{"poiid":"B2094757D06BA6FD4498","title":"万科琥珀臻园","lon":"121.366708","lat":"31.411943","category":"500","category_name":"未知分类","address":"上海市宝山区美兰湖新镇美艾路与抚远路交汇处"},{"poiid":"B2094757D66DABF8409E","title":"上海震旦职业学院","lon":"121.361549679","lat":"31.4120992483","category":"671","category_name":"高校中心点","address":"宝山区罗店镇市一路88号(近月罗路)"},{"poiid":"B2094757D164ABF94392","title":"宝山区刑事审判法庭","lon":"121.35954667","lat":"31.414126286","category":"500","category_name":"未知分类","address":"上海市宝山区月罗公路2099号"},{"poiid":"B2094757D16BA0FB479C","title":"震旦409","lon":"121.35604","lat":"31.418247","category":"500","category_name":"未知分类","address":"上海震旦学院"},{"poiid":"B2094654D468A4F4449E","title":"上海冰峰金属材料有限公司","lon":"121.35897","lat":"31.42024","category":"263","category_name":"公司","address":"苗圃路888"},{"poiid":"B2094655D26BA4F8419E","title":"罗新苑","lon":"121.34994","lat":"31.424318","category":"47","category_name":"住宅区","address":"集贤路800弄"},{"poiid":"B2094757D16BA4F9419B","title":"震旦图书馆","lon":"121.35590277","lat":"31.423116256","category":"181","category_name":"图书馆","address":"上海震旦学院"},{"poiid":"B2094757D06BA5F4469C","title":"震旦学院南校区","lon":"121.359177","lat":"31.413554","category":"253","category_name":"校园生活","address":"上海市宝山区月罗公路2106号"},{"poiid":"B2094654D468A4F54193","title":"罗溪花苑","lon":"121.34593","lat":"31.419167","category":"47","category_name":"住宅区","address":"罗溪路671弄"},{"poiid":"B2094654D468A4F4429F","title":"上海罗店经济发展公司","lon":"121.35499","lat":"31.41791","category":"263","category_name":"公司","address":"市一路102"},{"poiid":"B2094654D469A0FB439B","title":"中国弹簧厂冷拉分厂","lon":"121.36138","lat":"31.41411","category":"263","category_name":"公司","address":""},{"poiid":"B2094655D36CA0FB4492","title":"集贤路祁北路","lon":"121.35331","lat":"31.42274","category":"38","category_name":"公交车站","address":""},{"poiid":"B2094757D568A6FE419A","title":"上海瓦伦西酒店","lon":"121.3591772","lat":"31.41355417","category":"251","category_name":"出行住宿","address":"宝山区月罗路2106号"},{"poiid":"B2094757D469A0FC499D","title":"客来多","lon":"121.351097","lat":"31.416477","category":"68","category_name":"快餐厅","address":"宝山区罗店镇祁北路(近市一路)"},{"poiid":"B2094654D468A4F44599","title":"上海宝翼制罐有限公司","lon":"121.36486","lat":"31.41518","category":"263","category_name":"公司","address":"月罗公路1888号"},{"poiid":"B2094654D469A0FB439E","title":"上海三荣电梯有限公司(月罗公路)","lon":"121.35711","lat":"31.41293","category":"263","category_name":"公司","address":""},{"poiid":"B2094757D06AA3FD4992","title":"伊诺咖啡 美兰湖店","lon":"121.356827054","lat":"31.401091793","category":"65","category_name":"咖啡厅","address":"宝山区沪太路6655号罗店北欧新镇内罗芬路789号"},{"poiid":"B2094757D06FA4FD4692","title":"上海震旦学院","lon":"121.35632","lat":"31.41797","category":"500","category_name":"未知分类","address":"上海宝山区罗店镇市一路88号(近月罗路)  "},{"poiid":"B2094757D06EAAF44792","title":"美兰湖","lon":"121.3539524","lat":"31.399131614","category":"234","category_name":"海滨浴场","address":"宝山区罗芬路888号"},{"poiid":"B2094654D469A0F8499E","title":"美兰湖国际会议中心","lon":"121.35453","lat":"31.40151","category":"65","category_name":"咖啡厅","address":"宝山区罗店新镇罗芬路888号"},{"poiid":"B2094757D06FA7FB4798","title":"美兰湖高尔夫俱乐部","lon":"121.3651","lat":"31.40198","category":"220","category_name":"运动场所","address":"海市宝山区沪太路6655号(内美兰湖路9号)"},{"poiid":"B2094654D469ABFE409D","title":"美兰湖皇冠假日酒店","lon":"121.36484","lat":"31.40225","category":"217","category_name":"旅馆招待所","address":"宝山区沪太路6655号(近北欧新镇)"},{"poiid":"B2094757D06EAAFF4092","title":"美兰湖地铁站","lon":"121.35040708","lat":"31.4015480232","category":"36","category_name":"地铁站","address":"上海轨道交通 七号线 轨交美兰湖站 7"},{"poiid":"B2094655D26BA1FB459C","title":"罗店","lon":"121.34159","lat":"31.41009","category":"38","category_name":"公交车站","address":""},{"poiid":"B2094757D06BABFB459E","title":"美兰湖中华园","lon":"121.36041","lat":"31.409433","category":"500","category_name":"未知分类","address":"上海市宝山区抚远路1288弄"},{"poiid":"B2094654D469A7FA469D","title":"美兰湖别墅","lon":"121.36365672951","lat":"31.402259302461","category":"47","category_name":"住宅区","address":"上海市宝山区罗迎路558弄"},{"poiid":"B2094757D06AA7FD4099","title":"罗店医院","lon":"121.34698","lat":"31.41517","category":"162","category_name":"医院","address":"宝山区罗溪路121号(罗溪路市一路)"},{"poiid":"B2094757D568A1FF439E","title":"美兰湖高尔夫别墅","lon":"121.347665","lat":"31.40718","category":"47","category_name":"住宅区","address":"上海罗店北欧新镇美丹路8号"},{"poiid":"B2094757D069A1F9419F","title":"宝山净寺","lon":"121.34277498","lat":"31.417038888","category":"246","category_name":"回教寺","address":"宝山区罗店镇罗溪路518号(练祁河旁)"},{"poiid":"B2094757D068A5F8429B","title":"宝罗瞑园","lon":"121.37416","lat":"31.42456","category":"500","category_name":"未知分类","address":"宝山区罗店苗圃路350号"},{"poiid":"B2094655D264A0F9449B","title":"上置香岛原墅","lon":"121.35855","lat":"31.41063","category":"47","category_name":"住宅区","address":"宝山美兰湖美丰路88号(抚远路口)"},{"poiid":"B2094654D468A4F4429E","title":"震旦学院(市一路)","lon":"121.35604","lat":"31.41824","category":"52","category_name":"高等院校","address":"宝山区市一路88"},{"poiid":"B2094757D065AAFB429B","title":"闻道园","lon":"121.36612","lat":"31.42092","category":"500","category_name":"未知分类","address":"宝山区潘泾路2888号(潘泾路市一东路)"},{"poiid":"B2094654D468A4FB4892","title":"金星绿苑","lon":"121.35493","lat":"31.423529","category":"47","category_name":"住宅区","address":"集贤路500弄501弄"},{"poiid":"B2094655D264A0F8429F","title":"金星绿园二期","lon":"121.35949","lat":"31.41623","category":"47","category_name":"住宅区","address":"上海市宝山区东至抚远路,南至练祁河,西至集贤路,北至祁北路"},{"poiid":"B2094654D469A0FB4498","title":"都是客酒店","lon":"121.350095054","lat":"31.409544793","category":"76","category_name":"上海菜","address":"宝山区罗溪路5号(近月罗公路)"},{"poiid":"B2094757D065A4FE4392","title":"罗溪公园","lon":"121.35075","lat":"31.416","category":"196","category_name":"公园","address":"宝山区罗店市一路150号"},{"poiid":"B2094757D16BABF9419D","title":"世纪联华 美食广场","lon":"121.350432153","lat":"31.4024306507","category":"257","category_name":"中餐厅","address":"上海美兰湖"},{"poiid":"B2094655D26BA1FB439D","title":"罗溪路市一路","lon":"121.347","lat":"31.41561","category":"38","category_name":"公交车站","address":""},{"poiid":"B2094654D469A0FB4899","title":"顺驰美兰湖","lon":"121.35601","lat":"31.405182","category":"47","category_name":"住宅区","address":"宝山区罗店北欧新镇扶远路美丹路路口"},{"poiid":"B2094654D468A4F54099","title":"东方文化学院(市一路)","lon":"121.3562","lat":"31.41835","category":"52","category_name":"高等院校","address":""},{"poiid":"B2094655D36DA7FC4498","title":"月罗公路抚远路","lon":"121.35931","lat":"31.41389","category":"38","category_name":"公交车站","address":""},{"poiid":"B2094757D069ABFE4692","title":"鼎中鼎澳门豆捞(罗芬路店)","lon":"121.35685","lat":"31.39889","category":"86","category_name":"火锅店","address":"宝山区罗芬路55号(近美艾路)"},{"poiid":"B2094757D16FA1FA469A","title":"上海市宝山区看守所","lon":"121.35733787","lat":"31.41223785","category":"500","category_name":"未知分类","address":"上海月罗路2099号"},{"poiid":"B2094655D36DA7FC449F","title":"月罗公路潘泾路","lon":"121.36669","lat":"31.41587","category":"38","category_name":"公交车站","address":""},{"poiid":"B2094757D66BABF9469E","title":"麦可茶饮 震旦店 Teamac","lon":"121.353465","lat":"31.417553","category":"111","category_name":"休闲餐饮场所","address":"宝山区市一路88号震旦学院内(集贤路市一路)"},{"poiid":"B2094757D16AA4FC4299","title":"月罗路2101号","lon":"121.35679067","lat":"31.420241402","category":"47","category_name":"住宅区","address":"上海市宝山区月罗路2101号"},{"poiid":"B2094654D468A4F5409C","title":"宝山寺","lon":"121.34278","lat":"31.41703","category":"244","category_name":"寺庙道观","address":"罗店镇"},{"poiid":"B2094654D468A4F84299","title":"上海中集宝伟工业有限公司","lon":"121.3594","lat":"31.41625","category":"263","category_name":"公司","address":"抚远路1771"},{"poiid":"B2094757D06AA0F5439C","title":"美兰湖颐景园","lon":"121.3582","lat":"31.398161","category":"47","category_name":"住宅区","address":"上海市宝山区美艾路198弄"},{"poiid":"B2094757D06BA6FD4498","title":"万科琥珀臻园","lon":"121.366708","lat":"31.411943","category":"500","category_name":"未知分类","address":"上海市宝山区美兰湖新镇美艾路与抚远路交汇处"},{"poiid":"B2094757D66DABF8409E","title":"上海震旦职业学院","lon":"121.361549679","lat":"31.4120992483","category":"671","category_name":"高校中心点","address":"宝山区罗店镇市一路88号(近月罗路)"},{"poiid":"B2094757D164ABF94392","title":"宝山区刑事审判法庭","lon":"121.35954667","lat":"31.414126286","category":"500","category_name":"未知分类","address":"上海市宝山区月罗公路2099号"},{"poiid":"B2094757D16BA0FB479C","title":"震旦409","lon":"121.35604","lat":"31.418247","category":"500","category_name":"未知分类","address":"上海震旦学院"},{"poiid":"B2094654D468A4F4449E","title":"上海冰峰金属材料有限公司","lon":"121.35897","lat":"31.42024","category":"263","category_name":"公司","address":"苗圃路888"},{"poiid":"B2094655D26BA4F8419E","title":"罗新苑","lon":"121.34994","lat":"31.424318","category":"47","category_name":"住宅区","address":"集贤路800弄"},{"poiid":"B2094757D16BA4F9419B","title":"震旦图书馆","lon":"121.35590277","lat":"31.423116256","category":"181","category_name":"图书馆","address":"上海震旦学院"},{"poiid":"B2094757D06BA5F4469C","title":"震旦学院南校区","lon":"121.359177","lat":"31.413554","category":"253","category_name":"校园生活","address":"上海市宝山区月罗公路2106号"},{"poiid":"B2094654D468A4F54193","title":"罗溪花苑","lon":"121.34593","lat":"31.419167","category":"47","category_name":"住宅区","address":"罗溪路671弄"},{"poiid":"B2094654D468A4F4429F","title":"上海罗店经济发展公司","lon":"121.35499","lat":"31.41791","category":"263","category_name":"公司","address":"市一路102"},{"poiid":"B2094654D469A0FB439B","title":"中国弹簧厂冷拉分厂","lon":"121.36138","lat":"31.41411","category":"263","category_name":"公司","address":""},{"poiid":"B2094655D36CA0FB4492","title":"集贤路祁北路","lon":"121.35331","lat":"31.42274","category":"38","category_name":"公交车站","address":""},{"poiid":"B2094757D568A6FE419A","title":"上海瓦伦西酒店","lon":"121.3591772","lat":"31.41355417","category":"251","category_name":"出行住宿","address":"宝山区月罗路2106号"},{"poiid":"B2094757D469A0FC499D","title":"客来多","lon":"121.351097","lat":"31.416477","category":"68","category_name":"快餐厅","address":"宝山区罗店镇祁北路(近市一路)"},{"poiid":"B2094654D468A4F44599","title":"上海宝翼制罐有限公司","lon":"121.36486","lat":"31.41518","category":"263","category_name":"公司","address":"月罗公路1888号"},{"poiid":"B2094654D469A0FB439E","title":"上海三荣电梯有限公司(月罗公路)","lon":"121.35711","lat":"31.41293","category":"263","category_name":"公司","address":""},{"poiid":"B2094757D06AA3FD4992","title":"伊诺咖啡 美兰湖店","lon":"121.356827054","lat":"31.401091793","category":"65","category_name":"咖啡厅","address":"宝山区沪太路6655号罗店北欧新镇内罗芬路789号"},{"poiid":"B2094757D06FA4FD4692","title":"上海震旦学院","lon":"121.35632","lat":"31.41797","category":"500","category_name":"未知分类","address":"上海宝山区罗店镇市一路88号(近月罗路)  "},{"poiid":"B2094757D06EAAF44792","title":"美兰湖","lon":"121.3539524","lat":"31.399131614","category":"234","category_name":"海滨浴场","address":"宝山区罗芬路888号"},{"poiid":"B2094654D469A0F8499E","title":"美兰湖国际会议中心","lon":"121.35453","lat":"31.40151","category":"65","category_name":"咖啡厅","address":"宝山区罗店新镇罗芬路888号"},{"poiid":"B2094757D06FA7FB4798","title":"美兰湖高尔夫俱乐部","lon":"121.3651","lat":"31.40198","category":"220","category_name":"运动场所","address":"海市宝山区沪太路6655号(内美兰湖路9号)"},{"poiid":"B2094654D469ABFE409D","title":"美兰湖皇冠假日酒店","lon":"121.36484","lat":"31.40225","category":"217","category_name":"旅馆招待所","address":"宝山区沪太路6655号(近北欧新镇)"},{"poiid":"B2094757D06EAAFF4092","title":"美兰湖地铁站","lon":"121.35040708","lat":"31.4015480232","category":"36","category_name":"地铁站","address":"上海轨道交通 七号线 轨交美兰湖站 7"},{"poiid":"B2094655D26BA1FB459C","title":"罗店","lon":"121.34159","lat":"31.41009","category":"38","category_name":"公交车站","address":""},{"poiid":"B2094757D06BABFB459E","title":"美兰湖中华园","lon":"121.36041","lat":"31.409433","category":"500","category_name":"未知分类","address":"上海市宝山区抚远路1288弄"},{"poiid":"B2094654D469A7FA469D","title":"美兰湖别墅","lon":"121.36365672951","lat":"31.402259302461","category":"47","category_name":"住宅区","address":"上海市宝山区罗迎路558弄"},{"poiid":"B2094757D06AA7FD4099","title":"罗店医院","lon":"121.34698","lat":"31.41517","category":"162","category_name":"医院","address":"宝山区罗溪路121号(罗溪路市一路)"},{"poiid":"B2094757D568A1FF439E","title":"美兰湖高尔夫别墅","lon":"121.347665","lat":"31.40718","category":"47","category_name":"住宅区","address":"上海罗店北欧新镇美丹路8号"},{"poiid":"B2094757D069A1F9419F","title":"宝山净寺","lon":"121.34277498","lat":"31.417038888","category":"246","category_name":"回教寺","address":"宝山区罗店镇罗溪路518号(练祁河旁)"},{"poiid":"B2094757D068A5F8429B","title":"宝罗瞑园","lon":"121.37416","lat":"31.42456","category":"500","category_name":"未知分类","address":"宝山区罗店苗圃路350号"},{"poiid":"B2094655D264A0F9449B","title":"上置香岛原墅","lon":"121.35855","lat":"31.41063","category":"47","category_name":"住宅区","address":"宝山美兰湖美丰路88号(抚远路口)"},{"poiid":"B2094654D468A4F4429E","title":"震旦学院(市一路)","lon":"121.35604","lat":"31.41824","category":"52","category_name":"高等院校","address":"宝山区市一路88"},{"poiid":"B2094757D065AAFB429B","title":"闻道园","lon":"121.36612","lat":"31.42092","category":"500","category_name":"未知分类","address":"宝山区潘泾路2888号(潘泾路市一东路)"},{"poiid":"B2094654D468A4FB4892","title":"金星绿苑","lon":"121.35493","lat":"31.423529","category":"47","category_name":"住宅区","address":"集贤路500弄501弄"},{"poiid":"B2094655D264A0F8429F","title":"金星绿园二期","lon":"121.35949","lat":"31.41623","category":"47","category_name":"住宅区","address":"上海市宝山区东至抚远路,南至练祁河,西至集贤路,北至祁北路"},{"poiid":"B2094654D469A0FB4498","title":"都是客酒店","lon":"121.350095054","lat":"31.409544793","category":"76","category_name":"上海菜","address":"宝山区罗溪路5号(近月罗公路)"},{"poiid":"B2094757D065A4FE4392","title":"罗溪公园","lon":"121.35075","lat":"31.416","category":"196","category_name":"公园","address":"宝山区罗店市一路150号"},{"poiid":"B2094757D16BABF9419D","title":"世纪联华 美食广场","lon":"121.350432153","lat":"31.4024306507","category":"257","category_name":"中餐厅","address":"上海美兰湖"},{"poiid":"B2094655D26BA1FB439D","title":"罗溪路市一路","lon":"121.347","lat":"31.41561","category":"38","category_name":"公交车站","address":""},{"poiid":"B2094654D469A0FB4899","title":"顺驰美兰湖","lon":"121.35601","lat":"31.405182","category":"47","category_name":"住宅区","address":"宝山区罗店北欧新镇扶远路美丹路路口"},{"poiid":"B2094654D468A4F54099","title":"东方文化学院(市一路)","lon":"121.3562","lat":"31.41835","category":"52","category_name":"高等院校","address":""},{"poiid":"B2094655D36DA7FC4498","title":"月罗公路抚远路","lon":"121.35931","lat":"31.41389","category":"38","category_name":"公交车站","address":""},{"poiid":"B2094757D069ABFE4692","title":"鼎中鼎澳门豆捞(罗芬路店)","lon":"121.35685","lat":"31.39889","category":"86","category_name":"火锅店","address":"宝山区罗芬路55号(近美艾路)"},{"poiid":"B2094757D16FA1FA469A","title":"上海市宝山区看守所","lon":"121.35733787","lat":"31.41223785","category":"500","category_name":"未知分类","address":"上海月罗路2099号"},{"poiid":"B2094655D36DA7FC449F","title":"月罗公路潘泾路","lon":"121.36669","lat":"31.41587","category":"38","category_name":"公交车站","address":""},{"poiid":"B2094757D66BABF9469E","title":"麦可茶饮 震旦店 Teamac","lon":"121.353465","lat":"31.417553","category":"111","category_name":"休闲餐饮场所","address":"宝山区市一路88号震旦学院内(集贤路市一路)"},{"poiid":"B2094757D16AA4FC4299","title":"月罗路2101号","lon":"121.35679067","lat":"31.420241402","category":"47","category_name":"住宅区","address":"上海市宝山区月罗路2101号"},{"poiid":"B2094654D468A4F5409C","title":"宝山寺","lon":"121.34278","lat":"31.41703","category":"244","category_name":"寺庙道观","address":"罗店镇"},{"poiid":"B2094654D468A4F84299","title":"上海中集宝伟工业有限公司","lon":"121.3594","lat":"31.41625","category":"263","category_name":"公司","address":"抚远路1771"},{"poiid":"B2094757D06AA0F5439C","title":"美兰湖颐景园","lon":"121.3582","lat":"31.398161","category":"47","category_name":"住宅区","address":"上海市宝山区美艾路198弄"},{"poiid":"B2094757D06BA6FD4498","title":"万科琥珀臻园","lon":"121.366708","lat":"31.411943","category":"500","category_name":"未知分类","address":"上海市宝山区美兰湖新镇美艾路与抚远路交汇处"},{"poiid":"B2094757D66DABF8409E","title":"上海震旦职业学院","lon":"121.361549679","lat":"31.4120992483","category":"671","category_name":"高校中心点","address":"宝山区罗店镇市一路88号(近月罗路)"},{"poiid":"B2094757D164ABF94392","title":"宝山区刑事审判法庭","lon":"121.35954667","lat":"31.414126286","category":"500","category_name":"未知分类","address":"上海市宝山区月罗公路2099号"},{"poiid":"B2094757D16BA0FB479C","title":"震旦409","lon":"121.35604","lat":"31.418247","category":"500","category_name":"未知分类","address":"上海震旦学院"},{"poiid":"B2094654D468A4F4449E","title":"上海冰峰金属材料有限公司","lon":"121.35897","lat":"31.42024","category":"263","category_name":"公司","address":"苗圃路888"},{"poiid":"B2094655D26BA4F8419E","title":"罗新苑","lon":"121.34994","lat":"31.424318","category":"47","category_name":"住宅区","address":"集贤路800弄"},{"poiid":"B2094757D16BA4F9419B","title":"震旦图书馆","lon":"121.35590277","lat":"31.423116256","category":"181","category_name":"图书馆","address":"上海震旦学院"},{"poiid":"B2094757D06BA5F4469C","title":"震旦学院南校区","lon":"121.359177","lat":"31.413554","category":"253","category_name":"校园生活","address":"上海市宝山区月罗公路2106号"},{"poiid":"B2094654D468A4F54193","title":"罗溪花苑","lon":"121.34593","lat":"31.419167","category":"47","category_name":"住宅区","address":"罗溪路671弄"},{"poiid":"B2094654D468A4F4429F","title":"上海罗店经济发展公司","lon":"121.35499","lat":"31.41791","category":"263","category_name":"公司","address":"市一路102"},{"poiid":"B2094654D469A0FB439B","title":"中国弹簧厂冷拉分厂","lon":"121.36138","lat":"31.41411","category":"263","category_name":"公司","address":""},{"poiid":"B2094655D36CA0FB4492","title":"集贤路祁北路","lon":"121.35331","lat":"31.42274","category":"38","category_name":"公交车站","address":""},{"poiid":"B2094757D568A6FE419A","title":"上海瓦伦西酒店","lon":"121.3591772","lat":"31.41355417","category":"251","category_name":"出行住宿","address":"宝山区月罗路2106号"},{"poiid":"B2094757D469A0FC499D","title":"客来多","lon":"121.351097","lat":"31.416477","category":"68","category_name":"快餐厅","address":"宝山区罗店镇祁北路(近市一路)"},{"poiid":"B2094654D468A4F44599","title":"上海宝翼制罐有限公司","lon":"121.36486","lat":"31.41518","category":"263","category_name":"公司","address":"月罗公路1888号"},{"poiid":"B2094654D469A0FB439E","title":"上海三荣电梯有限公司(月罗公路)","lon":"121.35711","lat":"31.41293","category":"263","category_name":"公司","address":""},{"poiid":"B2094757D06AA3FD4992","title":"伊诺咖啡 美兰湖店","lon":"121.356827054","lat":"31.401091793","category":"65","category_name":"咖啡厅","address":"宝山区沪太路6655号罗店北欧新镇内罗芬路789号"}]