[{"poiid":"B2094757D06FA7FD4293","title":"通北路海鲜","lon":"121.521346","lat":"31.25516","category":"68","category_name":"快餐厅","address":"杨浦区通北路176号(近平凉路)"},{"poiid":"B2094757D06FA3FA4993","title":"老四烧烤(通北路店)","lon":"121.52195","lat":"31.25455","category":"68","category_name":"快餐厅","address":"杨浦区通北路183号(平凉路口)"},{"poiid":"B2094757D16CABF8439C","title":"老四海鮮","lon":"121.521366103","lat":"31.2538765766","category":"247","category_name":"餐饮美食","address":"上海楊浦區通北路"},{"poiid":"B2094757D06AA3F4499B","title":"许昌路平凉路","lon":"121.524103","lat":"31.256701","category":"500","category_name":"未知分类","address":"上海许昌路平凉路"},{"poiid":"B2094655D26BA1FC479B","title":"平凉路通北路","lon":"121.52108","lat":"31.25504","category":"38","category_name":"公交车站","address":""},{"poiid":"B2094654DB69A5FE419E","title":"肯德基(怀德店)","lon":"121.52505","lat":"31.25807","category":"68","category_name":"快餐厅","address":"杨浦区平凉路675号(近怀德路)"},{"poiid":"B2094757D068A7FF4499","title":"老板娘海鲜大排档","lon":"121.52253","lat":"31.25424","category":"260","category_name":"其他","address":"通北路149号,156号,158号,160号"},{"poiid":"B2094757D76CA2FE429C","title":"段氏龙虾 通北路店","lon":"121.52229","lat":"31.25462","category":"68","category_name":"快餐厅","address":"杨浦区通北路146号(近平凉路)"},{"poiid":"B2094757D06FA6F84798","title":"长脚海鲜餐馆","lon":"121.5224","lat":"31.25459","category":"260","category_name":"其他","address":"杨浦区通北路167号(近平凉路)"},{"poiid":"B2094654D56EA5F94798","title":"好来西海鲜排档","lon":"121.52141","lat":"31.25548","category":"260","category_name":"其他","address":"杨浦区通北路217号(平凉路口)"},{"poiid":"B2094757D068ABF9409A","title":"东亮大酒店","lon":"121.5250109592","lat":"31.258004677604","category":"76","category_name":"上海菜","address":"杨浦区平凉路675号(近怀德路)"},{"poiid":"B2094757D068A1F9499A","title":"振鼎鸡(平凉路店)","lon":"121.52162","lat":"31.25474","category":"68","category_name":"快餐厅","address":"杨浦区平凉路412号(近通北路)"},{"poiid":"B2094655D26CA4FA409B","title":"隆仁里","lon":"121.52243","lat":"31.25621","category":"47","category_name":"住宅区","address":"上海市榆林路464弄"},{"poiid":"B2094757DA6EA4FD4492","title":"老昌兴苏州汤包馆(平凉路店)","lon":"121.523641000001","lat":"31.2569800000002","category":"68","category_name":"快餐厅","address":"杨浦区平凉路559号(近许昌路)"},{"poiid":"B2094757D06AA5FC439C","title":"舟山海鲜舫","lon":"121.52164","lat":"31.25528","category":"260","category_name":"其他","address":"杨浦区通北路163号(近平凉路)"},{"poiid":"B2094654D56EA5FA4893","title":"满灵阁大宝海鲜大排挡","lon":"121.52191","lat":"31.25484","category":"88","category_name":"海鲜酒楼","address":"通北路173-177号"},{"poiid":"B2094757D068A4F54099","title":"劲强桌球俱乐部(平凉路店)","lon":"121.52283","lat":"31.25558","category":"171","category_name":"台球厅","address":"杨浦区平凉路480号2楼(近通北路)"},{"poiid":"B2094654D56EA5F94693","title":"海北饭店 通北路店","lon":"121.52125537439","lat":"31.255798446073","category":"247","category_name":"餐饮美食","address":"杨浦区通北路231号(近平凉路)"},{"poiid":"B2094757D064A2FD439D","title":"金饭碗","lon":"121.52414","lat":"31.25706","category":"75","category_name":"浙江菜","address":"杨浦区霍山路850号(近许昌路)"},{"poiid":"B2094654DB6BA3F5429E","title":"天主堂","lon":"121.52085","lat":"31.25795","category":"245","category_name":"教堂","address":"惠民路692号"},{"poiid":"B2094757D464A6FA409A","title":"重庆鸡公煲 通北路店","lon":"121.520616054","lat":"31.257234793","category":"71","category_name":"四川菜","address":"杨浦区平凉路412号振鼎鸡对面(近通北路)"},{"poiid":"B2094654D56EA5F8499A","title":"沪东电影院(平凉路)","lon":"121.52308","lat":"31.256584","category":"178","category_name":"电影院","address":"平凉路525"},{"poiid":"B2094655D265A5F5409D","title":"轻科大厦","lon":"121.52242","lat":"31.25673","category":"46","category_name":"楼宇","address":"汾阳路138号"},{"poiid":"B2094654D56EA5FA439A","title":"良友金伴便利连锁No.626","lon":"121.52194","lat":"31.25752","category":"117","category_name":"便民商店/便利店","address":"汾州路210"},{"poiid":"B2094655D265A1FF419A","title":"可的超市汾阳店","lon":"121.52242","lat":"31.25673","category":"117","category_name":"便民商店/便利店","address":"汾阳路138号"},{"poiid":"B2094654D56EA5FA4292","title":"榆汾新苑","lon":"121.5219","lat":"31.257833","category":"47","category_name":"住宅区","address":"榆汾新苑位于杨浦平凉路540号(许昌路口)"},{"poiid":"B2094654D56EA5F9479F","title":"沪东状元楼","lon":"121.52121","lat":"31.25524","category":"257","category_name":"中餐厅","address":"平凉路403号近通北路"},{"poiid":"B2094655D265A0FA4793","title":"隆义里(边门)","lon":"121.52236","lat":"31.25687","category":"47","category_name":"住宅区","address":""},{"poiid":"B2094654D56EA5FA439D","title":"宝福里","lon":"121.52255","lat":"31.257366","category":"47","category_name":"住宅区","address":"榆林路528弄"},{"poiid":"B2094654DB6BA3F5429F","title":"宝福里(北门)","lon":"121.52242","lat":"31.2575","category":"47","category_name":"住宅区","address":"榆林路528弄"},{"poiid":"B2094757DA6FA3FE469D","title":"动力鸡车(平凉路店)","lon":"121.523641000001","lat":"31.2569800000002","category":"68","category_name":"快餐厅","address":"杨浦区平凉路559号乙(近许昌路)"},{"poiid":"B2094654D56FA3F4429D","title":"西邨小区","lon":"121.522","lat":"31.2579","category":"47","category_name":"住宅区","address":"平凉路41弄1-90号"},{"poiid":"B2094654D56EA5FA499B","title":"宁波海鲜(通北路)","lon":"121.52201","lat":"31.25474","category":"88","category_name":"海鲜酒楼","address":"杨浦区通北路161-165号(近平凉路)"},{"poiid":"B2094655D26DAAFD409F","title":"隆义里","lon":"121.52281","lat":"31.2567","category":"47","category_name":"住宅区","address":"平凉路509弄"},{"poiid":"B2094757D168A3FB4699","title":"好德便利(榆林店)","lon":"121.52225","lat":"31.2572","category":"249","category_name":"购物服务","address":"杨浦区榆林路529号(汾州路榆林路)"},{"poiid":"B2094757D06FA3FA499A","title":"宋记粥铺","lon":"121.52108764","lat":"31.255048751","category":"68","category_name":"快餐厅","address":"杨浦区平凉路(通北路口)"},{"poiid":"B2094757D16EA1FF439D","title":"平凉路通北路车站(25、37、155)","lon":"121.521828103","lat":"31.2569071399","category":"500","category_name":"未知分类","address":"上海平凉路477号"},{"poiid":"B2094757D66DA4F4439F","title":"控江路江浦路基地","lon":"121.522096103","lat":"31.2568326383","category":"500","category_name":"未知分类","address":"上海控江路江浦路"},{"poiid":"B2094757D16FA4F54292","title":"江浦路花鸟市场","lon":"121.5219421","lat":"31.256833138","category":"249","category_name":"购物服务","address":"上海江浦路延吉路"},{"poiid":"B2094655D26CA5FA429B","title":"平凉路547弄小区","lon":"121.52322","lat":"31.25693","category":"47","category_name":"住宅区","address":"平凉路547弄"},{"poiid":"B2094655D26DA6F94599","title":"隆义里(东门)","lon":"121.52301","lat":"31.2565","category":"47","category_name":"住宅区","address":"平凉路509弄"},{"poiid":"B2094757D16DAAF9449A","title":"长阳路眉州路22路车站","lon":"121.521849103","lat":"31.2568401385","category":"500","category_name":"未知分类","address":"上海长阳路眉州路"},{"poiid":"B2094757D16FABFF409B","title":"隆仁里西金糖炒栗子","lon":"121.5218321","lat":"31.256903139","category":"500","category_name":"未知分类","address":"上海平凉路455弄隆仁里门口"},{"poiid":"B2094757D16EA2FE439D","title":"853路大连路新港路","lon":"121.5218511","lat":"31.256847138","category":"500","category_name":"未知分类","address":"上海大连路913号"},{"poiid":"B2094757D165A5FA4798","title":"80路终点站","lon":"121.521869103","lat":"31.256818138","category":"500","category_name":"未知分类","address":"上海沙岗路安波路"},{"poiid":"B2094757D66EA1FF489D","title":"殷行路296弄","lon":"121.521814103","lat":"31.2569491407","category":"252","category_name":"楼宇机构","address":"上海殷行路296弄"},{"poiid":"B2094655D26CA5FA479F","title":"隆仁小区","lon":"121.52124","lat":"31.25656","category":"47","category_name":"住宅区","address":"榆林路446弄"},{"poiid":"B2094757D06AA7FE439D","title":"全家福小区","lon":"121.52418677","lat":"31.258558427","category":"47","category_name":"住宅区","address":"上海市杨浦区许昌路630弄(近平凉路)"},{"poiid":"B2094655D26CA5FA479E","title":"隆仁小区(北门)","lon":"121.5211","lat":"31.25666","category":"47","category_name":"住宅区","address":"榆林路446弄"},{"poiid":"B2094655D26DA5FE419B","title":"隆仁里(南门)","lon":"121.52252","lat":"31.25613","category":"47","category_name":"住宅区","address":""},{"poiid":"B2094757D06FA7FD4293","title":"通北路海鲜","lon":"121.521346","lat":"31.25516","category":"68","category_name":"快餐厅","address":"杨浦区通北路176号(近平凉路)"},{"poiid":"B2094757D06FA3FA4993","title":"老四烧烤(通北路店)","lon":"121.52195","lat":"31.25455","category":"68","category_name":"快餐厅","address":"杨浦区通北路183号(平凉路口)"},{"poiid":"B2094757D16CABF8439C","title":"老四海鮮","lon":"121.521366103","lat":"31.2538765766","category":"247","category_name":"餐饮美食","address":"上海楊浦區通北路"},{"poiid":"B2094757D06AA3F4499B","title":"许昌路平凉路","lon":"121.524103","lat":"31.256701","category":"500","category_name":"未知分类","address":"上海许昌路平凉路"},{"poiid":"B2094655D26BA1FC479B","title":"平凉路通北路","lon":"121.52108","lat":"31.25504","category":"38","category_name":"公交车站","address":""},{"poiid":"B2094654DB69A5FE419E","title":"肯德基(怀德店)","lon":"121.52505","lat":"31.25807","category":"68","category_name":"快餐厅","address":"杨浦区平凉路675号(近怀德路)"},{"poiid":"B2094757D068A7FF4499","title":"老板娘海鲜大排档","lon":"121.52253","lat":"31.25424","category":"260","category_name":"其他","address":"通北路149号,156号,158号,160号"},{"poiid":"B2094757D76CA2FE429C","title":"段氏龙虾 通北路店","lon":"121.52229","lat":"31.25462","category":"68","category_name":"快餐厅","address":"杨浦区通北路146号(近平凉路)"},{"poiid":"B2094757D06FA6F84798","title":"长脚海鲜餐馆","lon":"121.5224","lat":"31.25459","category":"260","category_name":"其他","address":"杨浦区通北路167号(近平凉路)"},{"poiid":"B2094654D56EA5F94798","title":"好来西海鲜排档","lon":"121.52141","lat":"31.25548","category":"260","category_name":"其他","address":"杨浦区通北路217号(平凉路口)"},{"poiid":"B2094757D068ABF9409A","title":"东亮大酒店","lon":"121.5250109592","lat":"31.258004677604","category":"76","category_name":"上海菜","address":"杨浦区平凉路675号(近怀德路)"},{"poiid":"B2094757D068A1F9499A","title":"振鼎鸡(平凉路店)","lon":"121.52162","lat":"31.25474","category":"68","category_name":"快餐厅","address":"杨浦区平凉路412号(近通北路)"},{"poiid":"B2094655D26CA4FA409B","title":"隆仁里","lon":"121.52243","lat":"31.25621","category":"47","category_name":"住宅区","address":"上海市榆林路464弄"},{"poiid":"B2094757DA6EA4FD4492","title":"老昌兴苏州汤包馆(平凉路店)","lon":"121.523641000001","lat":"31.2569800000002","category":"68","category_name":"快餐厅","address":"杨浦区平凉路559号(近许昌路)"},{"poiid":"B2094757D06AA5FC439C","title":"舟山海鲜舫","lon":"121.52164","lat":"31.25528","category":"260","category_name":"其他","address":"杨浦区通北路163号(近平凉路)"},{"poiid":"B2094654D56EA5FA4893","title":"满灵阁大宝海鲜大排挡","lon":"121.52191","lat":"31.25484","category":"88","category_name":"海鲜酒楼","address":"通北路173-177号"},{"poiid":"B2094757D068A4F54099","title":"劲强桌球俱乐部(平凉路店)","lon":"121.52283","lat":"31.25558","category":"171","category_name":"台球厅","address":"杨浦区平凉路480号2楼(近通北路)"},{"poiid":"B2094654D56EA5F94693","title":"海北饭店 通北路店","lon":"121.52125537439","lat":"31.255798446073","category":"247","category_name":"餐饮美食","address":"杨浦区通北路231号(近平凉路)"},{"poiid":"B2094757D064A2FD439D","title":"金饭碗","lon":"121.52414","lat":"31.25706","category":"75","category_name":"浙江菜","address":"杨浦区霍山路850号(近许昌路)"},{"poiid":"B2094654DB6BA3F5429E","title":"天主堂","lon":"121.52085","lat":"31.25795","category":"245","category_name":"教堂","address":"惠民路692号"},{"poiid":"B2094757D464A6FA409A","title":"重庆鸡公煲 通北路店","lon":"121.520616054","lat":"31.257234793","category":"71","category_name":"四川菜","address":"杨浦区平凉路412号振鼎鸡对面(近通北路)"},{"poiid":"B2094654D56EA5F8499A","title":"沪东电影院(平凉路)","lon":"121.52308","lat":"31.256584","category":"178","category_name":"电影院","address":"平凉路525"},{"poiid":"B2094655D265A5F5409D","title":"轻科大厦","lon":"121.52242","lat":"31.25673","category":"46","category_name":"楼宇","address":"汾阳路138号"},{"poiid":"B2094654D56EA5FA439A","title":"良友金伴便利连锁No.626","lon":"121.52194","lat":"31.25752","category":"117","category_name":"便民商店/便利店","address":"汾州路210"},{"poiid":"B2094655D265A1FF419A","title":"可的超市汾阳店","lon":"121.52242","lat":"31.25673","category":"117","category_name":"便民商店/便利店","address":"汾阳路138号"},{"poiid":"B2094654D56EA5FA4292","title":"榆汾新苑","lon":"121.5219","lat":"31.257833","category":"47","category_name":"住宅区","address":"榆汾新苑位于杨浦平凉路540号(许昌路口)"},{"poiid":"B2094654D56EA5F9479F","title":"沪东状元楼","lon":"121.52121","lat":"31.25524","category":"257","category_name":"中餐厅","address":"平凉路403号近通北路"},{"poiid":"B2094655D265A0FA4793","title":"隆义里(边门)","lon":"121.52236","lat":"31.25687","category":"47","category_name":"住宅区","address":""},{"poiid":"B2094654D56EA5FA439D","title":"宝福里","lon":"121.52255","lat":"31.257366","category":"47","category_name":"住宅区","address":"榆林路528弄"},{"poiid":"B2094654DB6BA3F5429F","title":"宝福里(北门)","lon":"121.52242","lat":"31.2575","category":"47","category_name":"住宅区","address":"榆林路528弄"},{"poiid":"B2094757DA6FA3FE469D","title":"动力鸡车(平凉路店)","lon":"121.523641000001","lat":"31.2569800000002","category":"68","category_name":"快餐厅","address":"杨浦区平凉路559号乙(近许昌路)"},{"poiid":"B2094654D56FA3F4429D","title":"西邨小区","lon":"121.522","lat":"31.2579","category":"47","category_name":"住宅区","address":"平凉路41弄1-90号"},{"poiid":"B2094654D56EA5FA499B","title":"宁波海鲜(通北路)","lon":"121.52201","lat":"31.25474","category":"88","category_name":"海鲜酒楼","address":"杨浦区通北路161-165号(近平凉路)"},{"poiid":"B2094655D26DAAFD409F","title":"隆义里","lon":"121.52281","lat":"31.2567","category":"47","category_name":"住宅区","address":"平凉路509弄"},{"poiid":"B2094757D168A3FB4699","title":"好德便利(榆林店)","lon":"121.52225","lat":"31.2572","category":"249","category_name":"购物服务","address":"杨浦区榆林路529号(汾州路榆林路)"},{"poiid":"B2094757D06FA3FA499A","title":"宋记粥铺","lon":"121.52108764","lat":"31.255048751","category":"68","category_name":"快餐厅","address":"杨浦区平凉路(通北路口)"},{"poiid":"B2094757D16EA1FF439D","title":"平凉路通北路车站(25、37、155)","lon":"121.521828103","lat":"31.2569071399","category":"500","category_name":"未知分类","address":"上海平凉路477号"},{"poiid":"B2094757D66DA4F4439F","title":"控江路江浦路基地","lon":"121.522096103","lat":"31.2568326383","category":"500","category_name":"未知分类","address":"上海控江路江浦路"},{"poiid":"B2094757D16FA4F54292","title":"江浦路花鸟市场","lon":"121.5219421","lat":"31.256833138","category":"249","category_name":"购物服务","address":"上海江浦路延吉路"},{"poiid":"B2094655D26CA5FA429B","title":"平凉路547弄小区","lon":"121.52322","lat":"31.25693","category":"47","category_name":"住宅区","address":"平凉路547弄"},{"poiid":"B2094655D26DA6F94599","title":"隆义里(东门)","lon":"121.52301","lat":"31.2565","category":"47","category_name":"住宅区","address":"平凉路509弄"},{"poiid":"B2094757D16DAAF9449A","title":"长阳路眉州路22路车站","lon":"121.521849103","lat":"31.2568401385","category":"500","category_name":"未知分类","address":"上海长阳路眉州路"},{"poiid":"B2094757D16FABFF409B","title":"隆仁里西金糖炒栗子","lon":"121.5218321","lat":"31.256903139","category":"500","category_name":"未知分类","address":"上海平凉路455弄隆仁里门口"},{"poiid":"B2094757D16EA2FE439D","title":"853路大连路新港路","lon":"121.5218511","lat":"31.256847138","category":"500","category_name":"未知分类","address":"上海大连路913号"},{"poiid":"B2094757D165A5FA4798","title":"80路终点站","lon":"121.521869103","lat":"31.256818138","category":"500","category_name":"未知分类","address":"上海沙岗路安波路"},{"poiid":"B2094757D66EA1FF489D","title":"殷行路296弄","lon":"121.521814103","lat":"31.2569491407","category":"252","category_name":"楼宇机构","address":"上海殷行路296弄"},{"poiid":"B2094655D26CA5FA479F","title":"隆仁小区","lon":"121.52124","lat":"31.25656","category":"47","category_name":"住宅区","address":"榆林路446弄"},{"poiid":"B2094757D06AA7FE439D","title":"全家福小区","lon":"121.52418677","lat":"31.258558427","category":"47","category_name":"住宅区","address":"上海市杨浦区许昌路630弄(近平凉路)"},{"poiid":"B2094655D26CA5FA479E","title":"隆仁小区(北门)","lon":"121.5211","lat":"31.25666","category":"47","category_name":"住宅区","address":"榆林路446弄"},{"poiid":"B2094655D26DA5FE419B","title":"隆仁里(南门)","lon":"121.52252","lat":"31.25613","category":"47","category_name":"住宅区","address":""},{"poiid":"B2094757D06FA7FD4293","title":"通北路海鲜","lon":"121.521346","lat":"31.25516","category":"68","category_name":"快餐厅","address":"杨浦区通北路176号(近平凉路)"},{"poiid":"B2094757D06FA3FA4993","title":"老四烧烤(通北路店)","lon":"121.52195","lat":"31.25455","category":"68","category_name":"快餐厅","address":"杨浦区通北路183号(平凉路口)"},{"poiid":"B2094757D16CABF8439C","title":"老四海鮮","lon":"121.521366103","lat":"31.2538765766","category":"247","category_name":"餐饮美食","address":"上海楊浦區通北路"},{"poiid":"B2094757D06AA3F4499B","title":"许昌路平凉路","lon":"121.524103","lat":"31.256701","category":"500","category_name":"未知分类","address":"上海许昌路平凉路"},{"poiid":"B2094655D26BA1FC479B","title":"平凉路通北路","lon":"121.52108","lat":"31.25504","category":"38","category_name":"公交车站","address":""},{"poiid":"B2094654DB69A5FE419E","title":"肯德基(怀德店)","lon":"121.52505","lat":"31.25807","category":"68","category_name":"快餐厅","address":"杨浦区平凉路675号(近怀德路)"},{"poiid":"B2094757D068A7FF4499","title":"老板娘海鲜大排档","lon":"121.52253","lat":"31.25424","category":"260","category_name":"其他","address":"通北路149号,156号,158号,160号"},{"poiid":"B2094757D76CA2FE429C","title":"段氏龙虾 通北路店","lon":"121.52229","lat":"31.25462","category":"68","category_name":"快餐厅","address":"杨浦区通北路146号(近平凉路)"},{"poiid":"B2094757D06FA6F84798","title":"长脚海鲜餐馆","lon":"121.5224","lat":"31.25459","category":"260","category_name":"其他","address":"杨浦区通北路167号(近平凉路)"},{"poiid":"B2094654D56EA5F94798","title":"好来西海鲜排档","lon":"121.52141","lat":"31.25548","category":"260","category_name":"其他","address":"杨浦区通北路217号(平凉路口)"},{"poiid":"B2094757D068ABF9409A","title":"东亮大酒店","lon":"121.5250109592","lat":"31.258004677604","category":"76","category_name":"上海菜","address":"杨浦区平凉路675号(近怀德路)"},{"poiid":"B2094757D068A1F9499A","title":"振鼎鸡(平凉路店)","lon":"121.52162","lat":"31.25474","category":"68","category_name":"快餐厅","address":"杨浦区平凉路412号(近通北路)"},{"poiid":"B2094655D26CA4FA409B","title":"隆仁里","lon":"121.52243","lat":"31.25621","category":"47","category_name":"住宅区","address":"上海市榆林路464弄"},{"poiid":"B2094757DA6EA4FD4492","title":"老昌兴苏州汤包馆(平凉路店)","lon":"121.523641000001","lat":"31.2569800000002","category":"68","category_name":"快餐厅","address":"杨浦区平凉路559号(近许昌路)"},{"poiid":"B2094757D06AA5FC439C","title":"舟山海鲜舫","lon":"121.52164","lat":"31.25528","category":"260","category_name":"其他","address":"杨浦区通北路163号(近平凉路)"},{"poiid":"B2094654D56EA5FA4893","title":"满灵阁大宝海鲜大排挡","lon":"121.52191","lat":"31.25484","category":"88","category_name":"海鲜酒楼","address":"通北路173-177号"},{"poiid":"B2094757D068A4F54099","title":"劲强桌球俱乐部(平凉路店)","lon":"121.52283","lat":"31.25558","category":"171","category_name":"台球厅","address":"杨浦区平凉路480号2楼(近通北路)"},{"poiid":"B2094654D56EA5F94693","title":"海北饭店 通北路店","lon":"121.52125537439","lat":"31.255798446073","category":"247","category_name":"餐饮美食","address":"杨浦区通北路231号(近平凉路)"},{"poiid":"B2094757D064A2FD439D","title":"金饭碗","lon":"121.52414","lat":"31.25706","category":"75","category_name":"浙江菜","address":"杨浦区霍山路850号(近许昌路)"},{"poiid":"B2094654DB6BA3F5429E","title":"天主堂","lon":"121.52085","lat":"31.25795","category":"245","category_name":"教堂","address":"惠民路692号"},{"poiid":"B2094757D464A6FA409A","title":"重庆鸡公煲 通北路店","lon":"121.520616054","lat":"31.257234793","category":"71","category_name":"四川菜","address":"杨浦区平凉路412号振鼎鸡对面(近通北路)"},{"poiid":"B2094654D56EA5F8499A","title":"沪东电影院(平凉路)","lon":"121.52308","lat":"31.256584","category":"178","category_name":"电影院","address":"平凉路525"},{"poiid":"B2094655D265A5F5409D","title":"轻科大厦","lon":"121.52242","lat":"31.25673","category":"46","category_name":"楼宇","address":"汾阳路138号"},{"poiid":"B2094654D56EA5FA439A","title":"良友金伴便利连锁No.626","lon":"121.52194","lat":"31.25752","category":"117","category_name":"便民商店/便利店","address":"汾州路210"},{"poiid":"B2094655D265A1FF419A","title":"可的超市汾阳店","lon":"121.52242","lat":"31.25673","category":"117","category_name":"便民商店/便利店","address":"汾阳路138号"},{"poiid":"B2094654D56EA5FA4292","title":"榆汾新苑","lon":"121.5219","lat":"31.257833","category":"47","category_name":"住宅区","address":"榆汾新苑位于杨浦平凉路540号(许昌路口)"},{"poiid":"B2094654D56EA5F9479F","title":"沪东状元楼","lon":"121.52121","lat":"31.25524","category":"257","category_name":"中餐厅","address":"平凉路403号近通北路"},{"poiid":"B2094655D265A0FA4793","title":"隆义里(边门)","lon":"121.52236","lat":"31.25687","category":"47","category_name":"住宅区","address":""},{"poiid":"B2094654D56EA5FA439D","title":"宝福里","lon":"121.52255","lat":"31.257366","category":"47","category_name":"住宅区","address":"榆林路528弄"},{"poiid":"B2094654DB6BA3F5429F","title":"宝福里(北门)","lon":"121.52242","lat":"31.2575","category":"47","category_name":"住宅区","address":"榆林路528弄"},{"poiid":"B2094757DA6FA3FE469D","title":"动力鸡车(平凉路店)","lon":"121.523641000001","lat":"31.2569800000002","category":"68","category_name":"快餐厅","address":"杨浦区平凉路559号乙(近许昌路)"},{"poiid":"B2094654D56FA3F4429D","title":"西邨小区","lon":"121.522","lat":"31.2579","category":"47","category_name":"住宅区","address":"平凉路41弄1-90号"},{"poiid":"B2094654D56EA5FA499B","title":"宁波海鲜(通北路)","lon":"121.52201","lat":"31.25474","category":"88","category_name":"海鲜酒楼","address":"杨浦区通北路161-165号(近平凉路)"},{"poiid":"B2094655D26DAAFD409F","title":"隆义里","lon":"121.52281","lat":"31.2567","category":"47","category_name":"住宅区","address":"平凉路509弄"},{"poiid":"B2094757D168A3FB4699","title":"好德便利(榆林店)","lon":"121.52225","lat":"31.2572","category":"249","category_name":"购物服务","address":"杨浦区榆林路529号(汾州路榆林路)"},{"poiid":"B2094757D06FA3FA499A","title":"宋记粥铺","lon":"121.52108764","lat":"31.255048751","category":"68","category_name":"快餐厅","address":"杨浦区平凉路(通北路口)"},{"poiid":"B2094757D16EA1FF439D","title":"平凉路通北路车站(25、37、155)","lon":"121.521828103","lat":"31.2569071399","category":"500","category_name":"未知分类","address":"上海平凉路477号"},{"poiid":"B2094757D66DA4F4439F","title":"控江路江浦路基地","lon":"121.522096103","lat":"31.2568326383","category":"500","category_name":"未知分类","address":"上海控江路江浦路"},{"poiid":"B2094757D16FA4F54292","title":"江浦路花鸟市场","lon":"121.5219421","lat":"31.256833138","category":"249","category_name":"购物服务","address":"上海江浦路延吉路"},{"poiid":"B2094655D26CA5FA429B","title":"平凉路547弄小区","lon":"121.52322","lat":"31.25693","category":"47","category_name":"住宅区","address":"平凉路547弄"},{"poiid":"B2094655D26DA6F94599","title":"隆义里(东门)","lon":"121.52301","lat":"31.2565","category":"47","category_name":"住宅区","address":"平凉路509弄"},{"poiid":"B2094757D16DAAF9449A","title":"长阳路眉州路22路车站","lon":"121.521849103","lat":"31.2568401385","category":"500","category_name":"未知分类","address":"上海长阳路眉州路"},{"poiid":"B2094757D16FABFF409B","title":"隆仁里西金糖炒栗子","lon":"121.5218321","lat":"31.256903139","category":"500","category_name":"未知分类","address":"上海平凉路455弄隆仁里门口"},{"poiid":"B2094757D16EA2FE439D","title":"853路大连路新港路","lon":"121.5218511","lat":"31.256847138","category":"500","category_name":"未知分类","address":"上海大连路913号"},{"poiid":"B2094757D165A5FA4798","title":"80路终点站","lon":"121.521869103","lat":"31.256818138","category":"500","category_name":"未知分类","address":"上海沙岗路安波路"},{"poiid":"B2094757D66EA1FF489D","title":"殷行路296弄","lon":"121.521814103","lat":"31.2569491407","category":"252","category_name":"楼宇机构","address":"上海殷行路296弄"},{"poiid":"B2094655D26CA5FA479F","title":"隆仁小区","lon":"121.52124","lat":"31.25656","category":"47","category_name":"住宅区","address":"榆林路446弄"},{"poiid":"B2094757D06AA7FE439D","title":"全家福小区","lon":"121.52418677","lat":"31.258558427","category":"47","category_name":"住宅区","address":"上海市杨浦区许昌路630弄(近平凉路)"},{"poiid":"B2094655D26CA5FA479E","title":"隆仁小区(北门)","lon":"121.5211","lat":"31.25666","category":"47","category_name":"住宅区","address":"榆林路446弄"},{"poiid":"B2094655D26DA5FE419B","title":"隆仁里(南门)","lon":"121.52252","lat":"31.25613","category":"47","category_name":"住宅区","address":""},{"poiid":"B2094757D06FA7FD4293","title":"通北路海鲜","lon":"121.521346","lat":"31.25516","category":"68","category_name":"快餐厅","address":"杨浦区通北路176号(近平凉路)"},{"poiid":"B2094757D06FA3FA4993","title":"老四烧烤(通北路店)","lon":"121.52195","lat":"31.25455","category":"68","category_name":"快餐厅","address":"杨浦区通北路183号(平凉路口)"},{"poiid":"B2094757D16CABF8439C","title":"老四海鮮","lon":"121.521366103","lat":"31.2538765766","category":"247","category_name":"餐饮美食","address":"上海楊浦區通北路"},{"poiid":"B2094757D06AA3F4499B","title":"许昌路平凉路","lon":"121.524103","lat":"31.256701","category":"500","category_name":"未知分类","address":"上海许昌路平凉路"},{"poiid":"B2094655D26BA1FC479B","title":"平凉路通北路","lon":"121.52108","lat":"31.25504","category":"38","category_name":"公交车站","address":""},{"poiid":"B2094654DB69A5FE419E","title":"肯德基(怀德店)","lon":"121.52505","lat":"31.25807","category":"68","category_name":"快餐厅","address":"杨浦区平凉路675号(近怀德路)"},{"poiid":"B2094757D068A7FF4499","title":"老板娘海鲜大排档","lon":"121.52253","lat":"31.25424","category":"260","category_name":"其他","address":"通北路149号,156号,158号,160号"},{"poiid":"B2094757D76CA2FE429C","title":"段氏龙虾 通北路店","lon":"121.52229","lat":"31.25462","category":"68","category_name":"快餐厅","address":"杨浦区通北路146号(近平凉路)"},{"poiid":"B2094757D06FA6F84798","title":"长脚海鲜餐馆","lon":"121.5224","lat":"31.25459","category":"260","category_name":"其他","address":"杨浦区通北路167号(近平凉路)"},{"poiid":"B2094654D56EA5F94798","title":"好来西海鲜排档","lon":"121.52141","lat":"31.25548","category":"260","category_name":"其他","address":"杨浦区通北路217号(平凉路口)"},{"poiid":"B2094757D068ABF9409A","title":"东亮大酒店","lon":"121.5250109592","lat":"31.258004677604","category":"76","category_name":"上海菜","address":"杨浦区平凉路675号(近怀德路)"},{"poiid":"B2094757D068A1F9499A","title":"振鼎鸡(平凉路店)","lon":"121.52162","lat":"31.25474","category":"68","category_name":"快餐厅","address":"杨浦区平凉路412号(近通北路)"},{"poiid":"B2094655D26CA4FA409B","title":"隆仁里","lon":"121.52243","lat":"31.25621","category":"47","category_name":"住宅区","address":"上海市榆林路464弄"},{"poiid":"B2094757DA6EA4FD4492","title":"老昌兴苏州汤包馆(平凉路店)","lon":"121.523641000001","lat":"31.2569800000002","category":"68","category_name":"快餐厅","address":"杨浦区平凉路559号(近许昌路)"},{"poiid":"B2094757D06AA5FC439C","title":"舟山海鲜舫","lon":"121.52164","lat":"31.25528","category":"260","category_name":"其他","address":"杨浦区通北路163号(近平凉路)"},{"poiid":"B2094654D56EA5FA4893","title":"满灵阁大宝海鲜大排挡","lon":"121.52191","lat":"31.25484","category":"88","category_name":"海鲜酒楼","address":"通北路173-177号"},{"poiid":"B2094757D068A4F54099","title":"劲强桌球俱乐部(平凉路店)","lon":"121.52283","lat":"31.25558","category":"171","category_name":"台球厅","address":"杨浦区平凉路480号2楼(近通北路)"},{"poiid":"B2094654D56EA5F94693","title":"海北饭店 通北路店","lon":"121.52125537439","lat":"31.255798446073","category":"247","category_name":"餐饮美食","address":"杨浦区通北路231号(近平凉路)"},{"poiid":"B2094757D064A2FD439D","title":"金饭碗","lon":"121.52414","lat":"31.25706","category":"75","category_name":"浙江菜","address":"杨浦区霍山路850号(近许昌路)"},{"poiid":"B2094654DB6BA3F5429E","title":"天主堂","lon":"121.52085","lat":"31.25795","category":"245","category_name":"教堂","address":"惠民路692号"},{"poiid":"B2094757D464A6FA409A","title":"重庆鸡公煲 通北路店","lon":"121.520616054","lat":"31.257234793","category":"71","category_name":"四川菜","address":"杨浦区平凉路412号振鼎鸡对面(近通北路)"},{"poiid":"B2094654D56EA5F8499A","title":"沪东电影院(平凉路)","lon":"121.52308","lat":"31.256584","category":"178","category_name":"电影院","address":"平凉路525"},{"poiid":"B2094655D265A5F5409D","title":"轻科大厦","lon":"121.52242","lat":"31.25673","category":"46","category_name":"楼宇","address":"汾阳路138号"},{"poiid":"B2094654D56EA5FA439A","title":"良友金伴便利连锁No.626","lon":"121.52194","lat":"31.25752","category":"117","category_name":"便民商店/便利店","address":"汾州路210"},{"poiid":"B2094655D265A1FF419A","title":"可的超市汾阳店","lon":"121.52242","lat":"31.25673","category":"117","category_name":"便民商店/便利店","address":"汾阳路138号"},{"poiid":"B2094654D56EA5FA4292","title":"榆汾新苑","lon":"121.5219","lat":"31.257833","category":"47","category_name":"住宅区","address":"榆汾新苑位于杨浦平凉路540号(许昌路口)"},{"poiid":"B2094654D56EA5F9479F","title":"沪东状元楼","lon":"121.52121","lat":"31.25524","category":"257","category_name":"中餐厅","address":"平凉路403号近通北路"},{"poiid":"B2094655D265A0FA4793","title":"隆义里(边门)","lon":"121.52236","lat":"31.25687","category":"47","category_name":"住宅区","address":""},{"poiid":"B2094654D56EA5FA439D","title":"宝福里","lon":"121.52255","lat":"31.257366","category":"47","category_name":"住宅区","address":"榆林路528弄"},{"poiid":"B2094654DB6BA3F5429F","title":"宝福里(北门)","lon":"121.52242","lat":"31.2575","category":"47","category_name":"住宅区","address":"榆林路528弄"},{"poiid":"B2094757DA6FA3FE469D","title":"动力鸡车(平凉路店)","lon":"121.523641000001","lat":"31.2569800000002","category":"68","category_name":"快餐厅","address":"杨浦区平凉路559号乙(近许昌路)"},{"poiid":"B2094654D56FA3F4429D","title":"西邨小区","lon":"121.522","lat":"31.2579","category":"47","category_name":"住宅区","address":"平凉路41弄1-90号"},{"poiid":"B2094654D56EA5FA499B","title":"宁波海鲜(通北路)","lon":"121.52201","lat":"31.25474","category":"88","category_name":"海鲜酒楼","address":"杨浦区通北路161-165号(近平凉路)"},{"poiid":"B2094655D26DAAFD409F","title":"隆义里","lon":"121.52281","lat":"31.2567","category":"47","category_name":"住宅区","address":"平凉路509弄"},{"poiid":"B2094757D168A3FB4699","title":"好德便利(榆林店)","lon":"121.52225","lat":"31.2572","category":"249","category_name":"购物服务","address":"杨浦区榆林路529号(汾州路榆林路)"},{"poiid":"B2094757D06FA3FA499A","title":"宋记粥铺","lon":"121.52108764","lat":"31.255048751","category":"68","category_name":"快餐厅","address":"杨浦区平凉路(通北路口)"},{"poiid":"B2094757D16EA1FF439D","title":"平凉路通北路车站(25、37、155)","lon":"121.521828103","lat":"31.2569071399","category":"500","category_name":"未知分类","address":"上海平凉路477号"},{"poiid":"B2094757D66DA4F4439F","title":"控江路江浦路基地","lon":"121.522096103","lat":"31.2568326383","category":"500","category_name":"未知分类","address":"上海控江路江浦路"},{"poiid":"B2094757D16FA4F54292","title":"江浦路花鸟市场","lon":"121.5219421","lat":"31.256833138","category":"249","category_name":"购物服务","address":"上海江浦路延吉路"},{"poiid":"B2094655D26CA5FA429B","title":"平凉路547弄小区","lon":"121.52322","lat":"31.25693","category":"47","category_name":"住宅区","address":"平凉路547弄"},{"poiid":"B2094655D26DA6F94599","title":"隆义里(东门)","lon":"121.52301","lat":"31.2565","category":"47","category_name":"住宅区","address":"平凉路509弄"},{"poiid":"B2094757D16DAAF9449A","title":"长阳路眉州路22路车站","lon":"121.521849103","lat":"31.2568401385","category":"500","category_name":"未知分类","address":"上海长阳路眉州路"},{"poiid":"B2094757D16FABFF409B","title":"隆仁里西金糖炒栗子","lon":"121.5218321","lat":"31.256903139","category":"500","category_name":"未知分类","address":"上海平凉路455弄隆仁里门口"},{"poiid":"B2094757D16EA2FE439D","title":"853路大连路新港路","lon":"121.5218511","lat":"31.256847138","category":"500","category_name":"未知分类","address":"上海大连路913号"},{"poiid":"B2094757D165A5FA4798","title":"80路终点站","lon":"121.521869103","lat":"31.256818138","category":"500","category_name":"未知分类","address":"上海沙岗路安波路"},{"poiid":"B2094757D66EA1FF489D","title":"殷行路296弄","lon":"121.521814103","lat":"31.2569491407","category":"252","category_name":"楼宇机构","address":"上海殷行路296弄"},{"poiid":"B2094655D26CA5FA479F","title":"隆仁小区","lon":"121.52124","lat":"31.25656","category":"47","category_name":"住宅区","address":"榆林路446弄"},{"poiid":"B2094757D06AA7FE439D","title":"全家福小区","lon":"121.52418677","lat":"31.258558427","category":"47","category_name":"住宅区","address":"上海市杨浦区许昌路630弄(近平凉路)"},{"poiid":"B2094655D26CA5FA479E","title":"隆仁小区(北门)","lon":"121.5211","lat":"31.25666","category":"47","category_name":"住宅区","address":"榆林路446弄"},{"poiid":"B2094655D26DA5FE419B","title":"隆仁里(南门)","lon":"121.52252","lat":"31.25613","category":"47","category_name":"住宅区","address":""}]