[{"poiid":"B2094654DB6DA5F8469F","title":"锦绣园中学","lon":"120.97074","lat":"31.05143","category":"55","category_name":"中学","address":"青浦区莲龚路8号(近南京东路)"},{"poiid":"B2094757D16FA7FD439E","title":"上海青城会务中心(淀山湖)拓展训练基地","lon":"120.96877724","lat":"31.049268434","category":"500","category_name":"未知分类","address":"上海青浦金泽镇"},{"poiid":"B2094757D16DA0FC489C","title":"青浦西岑锦绣园中学","lon":"120.97364727","lat":"31.037253713","category":"500","category_name":"未知分类","address":"上海青浦西岑"},{"poiid":"B2094655D36CA5F44893","title":"北任","lon":"120.97446","lat":"31.05552","category":"38","category_name":"公交车站","address":""},{"poiid":"B2094757D064A0F4479E","title":"淀山湖金龟岛渔村","lon":"120.97373114","lat":"31.05134538","category":"260","category_name":"其他","address":"上海近郊青浦区金泽镇建国村(A9金泽出口大转100米)"},{"poiid":"B2094655D36CA1FA449B","title":"练西路泥墙头","lon":"120.97774","lat":"31.0553","category":"38","category_name":"公交车站","address":""},{"poiid":"B2094654DB6DA5F9439B","title":"上海安信企业发展有限公司","lon":"120.97747","lat":"31.05547","category":"263","category_name":"公司","address":""},{"poiid":"B2094757D16FA4FB409C","title":"莲盛","lon":"120.987449","lat":"31.049423","category":"500","category_name":"未知分类","address":"上海青浦区金泽镇莲盛社区"},{"poiid":"B2094654DB6DA5F84699","title":"上海市纺织职工淀山湖疗养院","lon":"120.96827","lat":"31.06189","category":"207","category_name":"度假疗养场所","address":"莲西路4085号"},{"poiid":"B2094654DB6DA5F8469E","title":"上海市市政工程管理局青浦休养所","lon":"120.9615","lat":"31.04807","category":"207","category_name":"度假疗养场所","address":"莲盛镇"},{"poiid":"B2094655D26FA4FF4599","title":"黄浦区中心医院专家门诊西岑卫生院","lon":"120.96679","lat":"31.06454","category":"162","category_name":"医院","address":""},{"poiid":"B2094655D26BA7F8499F","title":"涵璧湾","lon":"120.983","lat":"31.0624","category":"47","category_name":"住宅区","address":"练西公路3585弄"},{"poiid":"B2094654DB6DA5F9439F","title":"西岑中心幼儿园","lon":"120.96685","lat":"31.06514","category":"57","category_name":"幼儿园","address":"岑扬路169号"},{"poiid":"B2094654DB6DA5FB419F","title":"光明乳业西岑配送站","lon":"120.96789","lat":"31.06561","category":"117","category_name":"便民商店/便利店","address":""},{"poiid":"B2094654DB6DA5F9439D","title":"淀滨新村西区","lon":"120.9672","lat":"31.06509","category":"47","category_name":"住宅区","address":"西岑镇"},{"poiid":"B2094654DB6DA5FB439C","title":"西岑粮管所粮油门市部","lon":"120.96774","lat":"31.06597","category":"117","category_name":"便民商店/便利店","address":""},{"poiid":"B2094654DB6DA5F8469C","title":"莲盛初级中学","lon":"120.99078","lat":"31.05333","category":"55","category_name":"中学","address":"上海市青浦区金泽镇莲湖路129号"},{"poiid":"B2094654DB6DA5F84698","title":"华联超市NO.1201","lon":"120.96669","lat":"31.06747","category":"118","category_name":"超级市场","address":"西岑镇"},{"poiid":"B2094654DB6DA5FB4693","title":"西岑迎新杂货店","lon":"120.96689","lat":"31.06751","category":"117","category_name":"便民商店/便利店","address":""},{"poiid":"B2094654DB6DA5F8489C","title":"田山庄社区综合服务中心","lon":"120.9549","lat":"31.05148","category":"248","category_name":"生活娱乐","address":""},{"poiid":"B2094654DB6DA5FB499D","title":"青浦西岑苏果便利百货店","lon":"120.96288","lat":"31.06729","category":"117","category_name":"便民商店/便利店","address":""},{"poiid":"B2094654DB6AA1FA489F","title":"青浦区西岑初级中学","lon":"120.9627","lat":"31.06839","category":"55","category_name":"中学","address":"青浦区西岑镇练西公路"},{"poiid":"B2094654DB6DA5F8459C","title":"青浦区国家税务局第十三税务所","lon":"120.96299","lat":"31.06884","category":"250","category_name":"公园户外","address":"水秀路"},{"poiid":"B2094654DB6DA5F8449C","title":"西岑邮政局","lon":"120.96713","lat":"31.06716","category":"248","category_name":"生活娱乐","address":"西虹街397号"}]