[{"poiid":"B2094654DB6DA5F8459A","title":"上海大观园","lon":"120.91106","lat":"31.07269","category":"240","category_name":"国家级景点","address":"青浦区金商公路701号"},{"poiid":"B2094654DA6BA1FB429F","title":"银珠苑","lon":"120.90528","lat":"31.08711","category":"47","category_name":"住宅区","address":"上海近郊青浦区金商公路1555号(近大观园)"},{"poiid":"B2094757D16EA1FE4692","title":"中国工商银行上海市分行职工培训中心","lon":"120.901959966","lat":"31.0868506587","category":"500","category_name":"未知分类","address":"上海市青浦区金商公路1555号"},{"poiid":"B2094757D065A4F8459F","title":"华医淀山湖疗养院","lon":"120.913859966","lat":"31.1017293482","category":"250","category_name":"公园户外","address":"上海市青浦区"},{"poiid":"B2094757D66BA2FB489F","title":"乡村人家饭庄","lon":"120.90986","lat":"31.09304","category":"76","category_name":"上海菜","address":"青浦区金商公路1528号(近大观园)"},{"poiid":"B2094654DB6AA3FF4392","title":"淀山湖宾馆餐厅","lon":"120.9127","lat":"31.09268","category":"247","category_name":"餐饮美食","address":"青浦大观园风景区青商公路200号"},{"poiid":"B2094750D565A5F8419E","title":"上海美帆游艇俱乐部","lon":"120.916725","lat":"31.070718","category":"250","category_name":"公园户外","address":"金商公路588号"},{"poiid":"B2094654DA6BA1FB429E","title":"工商银行上海市分行青浦培训中心","lon":"120.90529","lat":"31.0871","category":"190","category_name":"培训机构","address":""},{"poiid":"B2094655D36DA0FF479B","title":"雪米路","lon":"120.91109","lat":"31.09453","category":"38","category_name":"公交车站","address":""},{"poiid":"B2094757D568A0F4449E","title":"青浦工业园区","lon":"120.9124367","lat":"31.09691","category":"45","category_name":"产业园区","address":"青浦区青商路1851-1885"},{"poiid":"B2094757D06BA0F94999","title":"镭神训练营","lon":"120.91297","lat":"31.09241","category":"173","category_name":"游戏厅","address":"青浦区金商公路728号青浦大观园梅园景区(近朱家角)"},{"poiid":"B2094757DB6CA3F8449B","title":"上海银苑酒店","lon":"120.905184746","lat":"31.087114878","category":"214","category_name":"四星级宾馆","address":"上海市青浦区金商公路1555号"},{"poiid":"B2094757D069A7FC489C","title":"工行培训中心","lon":"120.902717966","lat":"31.0866769879","category":"253","category_name":"校园生活","address":"上海市青浦区大观园旁"},{"poiid":"B2094757D06BA2FE479D","title":"农家乐","lon":"120.91176","lat":"31.07107","category":"76","category_name":"上海菜","address":"青浦区金商公路900号(近民俗村)"},{"poiid":"B2094757D06AA2F9459E","title":"桂竹园饭庄","lon":"120.91270396","lat":"31.072039637","category":"247","category_name":"餐饮美食","address":"上海近郊青浦区金商公路702号(近大观园)  "},{"poiid":"B2094757D064A7FA4492","title":"和欣苑大酒店","lon":"120.91477047","lat":"31.070786647","category":"217","category_name":"旅馆招待所","address":"青浦区青商路111号"},{"poiid":"B2094650D16AA4FF4092","title":"太阳湖大花园","lon":"120.92139452927","lat":"31.071796055371","category":"196","category_name":"公园","address":"吴江汾湖镇张园东路88号(上海淀山湖大观园旁)"},{"poiid":"B2094752D165A3F94399","title":"大观园梅园","lon":"120.912415","lat":"31.077286","category":"247","category_name":"餐饮美食","address":null},{"poiid":"B2094757D169A7FD4992","title":"淀滨酒家","lon":"120.91373115","lat":"31.07500406","category":"247","category_name":"餐饮美食","address":"上海金商公路大观园北侧"},{"poiid":"B2094655D36CA5F8409E","title":"陈东村部","lon":"120.91821","lat":"31.10606","category":"38","category_name":"公交车站","address":""},{"poiid":"B2094757D164A5FD469C","title":"民族文化村真人CS基地","lon":"120.91243696","lat":"31.073632675","category":"500","category_name":"未知分类","address":"上海市青浦区浦泰路"},{"poiid":"B2094654DB6DA5F4419C","title":"太虚幻境","lon":"120.90746","lat":"31.07347","category":"250","category_name":"公园户外","address":""},{"poiid":"B2094757D16CA4FC4599","title":"红楼梦","lon":"120.907463","lat":"31.073477","category":"500","category_name":"未知分类","address":"上海太虚幻境"},{"poiid":"B2094757D16AA5FF4499","title":"上海华医淀山湖疗养院","lon":"120.89985466","lat":"31.083805019","category":"260","category_name":"其他","address":"青浦区金泽镇金商公路2121号(近上海大观园)"},{"poiid":"B2094654DA6BA1FB489B","title":"上海亚德林有色金属有限公司","lon":"120.89884","lat":"31.09898","category":"263","category_name":"公司","address":""},{"poiid":"B2094654DA6BA1FB489A","title":"陈东村综合服务中心","lon":"120.91217","lat":"31.10896","category":"248","category_name":"生活娱乐","address":"陈新路408号"}]