[{"poiid":"B2094757D06FABFE4393","title":"复旦大学附属中山医院(青浦分院)","lon":"121.13807","lat":"31.15408","category":"162","category_name":"医院","address":"青浦区青浦公园东路1158号"},{"poiid":"B2094757DB6EA6FF429C","title":"上海夏阳湖皇冠假日酒店","lon":"121.1339","lat":"31.15049","category":"72","category_name":"广东菜","address":"青浦区青舟路303号(近夏阳湖)"},{"poiid":"B2094757D068A1FD439D","title":"夏阳湖畔","lon":"121.13520813","lat":"31.150871276","category":"47","category_name":"住宅区","address":"上海青浦区"},{"poiid":"B2094654DB6AA0FE419E","title":"上海市青浦区图书馆","lon":"121.13671","lat":"31.14783","category":"181","category_name":"图书馆","address":"青浦区青龙路60号(华浦南路青龙路)"},{"poiid":"B2094655D26BA7FC439D","title":"新城盛景","lon":"121.14638","lat":"31.15899","category":"47","category_name":"住宅区","address":"上海青浦华科东路218号"},{"poiid":"B2094757D069ABFB479B","title":"香涌海鲜大酒楼","lon":"121.13968658","lat":"31.150260925","category":"75","category_name":"浙江菜","address":"青浦区华青路100号(近公园东路)"},{"poiid":"B2094757D16CAAF94199","title":"澳京豆捞","lon":"121.135293671","lat":"31.1478073198","category":"86","category_name":"火锅店","address":"青浦区华青南路800弄1号(近青浦图书馆)"},{"poiid":"B2094757D664A1F84893","title":"海港一号","lon":"121.132756054","lat":"31.146040793","category":"76","category_name":"上海菜","address":"青浦区华青南路177弄58号(近青湖路)"},{"poiid":"B2094757D16DABF9489C","title":"仁恒运杰河滨花园","lon":"121.136","lat":"31.1474","category":"252","category_name":"楼宇机构","address":"上海市浦东新区锦和路99弄"},{"poiid":"B2094654DA6BABFA4398","title":"上海市青浦高级中学","lon":"121.14219","lat":"31.15339","category":"55","category_name":"中学","address":"青浦区公园东路1100号(近青浦中山医院)"},{"poiid":"B2094654DA6BABFA449A","title":"宜达新居","lon":"121.15015","lat":"31.163771","category":"47","category_name":"住宅区","address":"外青松公路5962号"},{"poiid":"B2094757D064A7F4409D","title":"蓝山咖啡(青浦店)","lon":"121.1367","lat":"31.14814","category":"65","category_name":"咖啡厅","address":"青浦区华青南路800弄1-3号(华浦南路青龙路)"},{"poiid":"B2094751D465A2FE479D","title":"末可甜品小屋","lon":"121.131406","lat":"31.156118","category":"247","category_name":"餐饮美食","address":"青浦区公园东路1688弄23号(近中山医院)"},{"poiid":"B2094757D168A7FF4192","title":"青浦党校","lon":"121.12828703","lat":"31.156762895","category":"253","category_name":"校园生活","address":"上海华科路"},{"poiid":"B2094654DA6BA4FB449E","title":"公园大观吉富绅花园","lon":"121.13375","lat":"31.15561","category":"47","category_name":"住宅区","address":"上海市青浦区公园东路1688号"},{"poiid":"B2094757D06BA0F8409D","title":"巴黎no.88 bar","lon":"121.13347347","lat":"31.146377457","category":"500","category_name":"未知分类","address":"上海青浦区华青南路511号(巴黎之夜楼上)"},{"poiid":"B2094757D06AABF44393","title":"新青浦佳园","lon":"121.135","lat":"31.1647","category":"500","category_name":"未知分类","address":"上海市青浦区华科路155弄"},{"poiid":"B2094654DA6BA4FF4993","title":"上海工商信息学校","lon":"121.13098","lat":"31.15174","category":"55","category_name":"中学","address":"青浦区公园东路2025号(近青浦区电视台)"},{"poiid":"B2094655D36DA7F8499B","title":"中山医院青浦分院","lon":"121.13481","lat":"31.15335","category":"38","category_name":"公交车站","address":""},{"poiid":"B2094654DA6BABFB459C","title":"夏阳湖国际花园","lon":"121.13573","lat":"31.146868","category":"47","category_name":"住宅区","address":"上海市青浦区青湖路800弄"},{"poiid":"B2094757D064A2FB429E","title":"佳乐苑","lon":"121.143998","lat":"31.164121","category":"252","category_name":"楼宇机构","address":"青浦华盈路685弄"},{"poiid":"B2094757D16FA7FD4792","title":"青浦毓秀学校","lon":"121.147959","lat":"31.156849","category":"253","category_name":"校园生活","address":"上海青浦毓秀学校"},{"poiid":"B2094654DA6BABF94593","title":"运杰城市花园(华青南路)","lon":"121.13467","lat":"31.14449","category":"47","category_name":"住宅区","address":"上海市宝山区聚丰园路303号"},{"poiid":"B2094655D36CA7F4469E","title":"桂花园青浦","lon":"121.13511898718","lat":"31.151869426536","category":"38","category_name":"公交车站","address":"沪青平公路4555弄"},{"poiid":"B2094750D568A0F94392","title":"香港纯Kparyt","lon":"121.126731","lat":"31.146087","category":"170","category_name":"KTV","address":"青浦区青湖路晨兴国际"},{"poiid":"B2094655D36CA7FC4998","title":"华乐路华科路","lon":"121.14385","lat":"31.15642","category":"38","category_name":"公交车站","address":""},{"poiid":"B2094757D16CA5FB4698","title":"公园大观","lon":"121.14201355","lat":"31.1516609192","category":"196","category_name":"公园","address":"上海公园东路1688弄"},{"poiid":"B2094757D465A0F4459C","title":"联谊大酒店","lon":"121.1399413","lat":"31.1619518","category":"76","category_name":"上海菜","address":"青浦区华盈路685弄(近华乐路)"},{"poiid":"B2094757D569A3F5489C","title":"富绅国际","lon":"121.142633","lat":"31.159857","category":"46","category_name":"楼宇","address":"公园东路1590号"},{"poiid":"B2094654DA6BA4FB4693","title":"上海市青浦区佳佳幼儿园","lon":"121.1404","lat":"31.15806","category":"57","category_name":"幼儿园","address":"青浦区华科路768号"},{"poiid":"B2094752D26FABF84593","title":"巴黎纯K量贩式KTV","lon":"121.134186","lat":"31.146301","category":"170","category_name":"KTV","address":"上海市青浦区华青南路511号"},{"poiid":"B2094757D164A7FF4492","title":"青浦区人民检察院","lon":"121.142814435","lat":"31.1508599801","category":"608","category_name":"法院","address":"上海青浦区华乐路399号"},{"poiid":"B2094751D26DA2FF479C","title":"新城盛景E区","lon":"121.148956","lat":"31.154642","category":"47","category_name":"住宅区","address":"崧文路299弄"},{"poiid":"B2094654DA6BA0FF4893","title":"蓬莱山庄","lon":"121.136","lat":"31.1504","category":"47","category_name":"住宅区","address":"青湖路666弄"},{"poiid":"B2094655D26BA1F54199","title":"青浦民防大楼","lon":"121.1401","lat":"31.15128","category":"46","category_name":"楼宇","address":"青舟路200号"},{"poiid":"B2094757D16EA3FF4299","title":"青浦区博物馆","lon":"121.133225135","lat":"31.1536129838","category":"179","category_name":"音乐厅","address":"青浦区青浦镇华青南路1000号"},{"poiid":"B2094757D16BAAFE489E","title":"新城盛景D区","lon":"121.148878035","lat":"31.1587420339","category":"47","category_name":"住宅区","address":"上海青浦区崧文路338弄"},{"poiid":"B2094654DB69A5F9489D","title":"真锅咖啡(青浦夏阳湖店)","lon":"121.1351","lat":"31.15087","category":"65","category_name":"咖啡厅","address":"青浦区华青路767号二楼(青浦博物馆对面)"},{"poiid":"B2094654DA6BABFB409A","title":"新城逸境园","lon":"121.13385","lat":"31.157528","category":"47","category_name":"住宅区","address":"上海市青浦区华科路路255弄"},{"poiid":"B2094654DA6BA4F44293","title":"青水湾公寓","lon":"121.13705","lat":"31.158348","category":"47","category_name":"住宅区","address":"华浦路268号"},{"poiid":"B2094654DA6BA4FB459C","title":"上海市青浦夏雨幼儿园","lon":"121.14222","lat":"31.14905","category":"57","category_name":"幼儿园","address":"青浦区华乐路301号"},{"poiid":"B2094655D36CA7FC489C","title":"华乐路青湖路","lon":"121.14244","lat":"31.14891","category":"38","category_name":"公交车站","address":""},{"poiid":"B2094757D06AA6FD489E","title":"新青浦花苑","lon":"121.13","lat":"31.1618","category":"500","category_name":"未知分类","address":"上海外青松公路6048弄"},{"poiid":"B2094654DA6BABFA409D","title":"梦丹苑","lon":"121.13171","lat":"31.146254","category":"47","category_name":"住宅区","address":"青湖路4625弄"},{"poiid":"B2094654DA6BA4FB4393","title":"新青浦红枫苑","lon":"121.13917","lat":"31.153595","category":"47","category_name":"住宅区","address":"公园东路1128号"},{"poiid":"B2094654DA6BABFA439B","title":"上海市人才发展服务中心青浦中心","lon":"121.13951","lat":"31.15142","category":"252","category_name":"楼宇机构","address":""},{"poiid":"B209475CDA69A2FF469F","title":"爱摩卡iMocha","lon":"121.151458","lat":"31.157182","category":"247","category_name":"餐饮美食","address":"青浦区华科东路180弄15号"},{"poiid":"B2094750D365A5F5429B","title":"新城盛景B区","lon":"121.148834","lat":"31.159301","category":"47","category_name":"住宅区","address":"青浦区崧文路388弄"},{"poiid":"B2094757D16EA3F8479B","title":"青浦区水务局","lon":"121.14009857","lat":"31.151664733","category":"500","category_name":"未知分类","address":"上海青浦区青舟路220号"},{"poiid":"B2094757D16EAAF9419C","title":"依莎九号会所","lon":"121.13908853","lat":"31.160944826","category":"500","category_name":"未知分类","address":"上海青浦盈港东路8300弄33号"},{"poiid":"B2094757D06FABFE4393","title":"复旦大学附属中山医院(青浦分院)","lon":"121.13807","lat":"31.15408","category":"162","category_name":"医院","address":"青浦区青浦公园东路1158号"},{"poiid":"B2094757DB6EA6FF429C","title":"上海夏阳湖皇冠假日酒店","lon":"121.1339","lat":"31.15049","category":"72","category_name":"广东菜","address":"青浦区青舟路303号(近夏阳湖)"},{"poiid":"B2094757D068A1FD439D","title":"夏阳湖畔","lon":"121.13520813","lat":"31.150871276","category":"47","category_name":"住宅区","address":"上海青浦区"},{"poiid":"B2094654DB6AA0FE419E","title":"上海市青浦区图书馆","lon":"121.13671","lat":"31.14783","category":"181","category_name":"图书馆","address":"青浦区青龙路60号(华浦南路青龙路)"},{"poiid":"B2094655D26BA7FC439D","title":"新城盛景","lon":"121.14638","lat":"31.15899","category":"47","category_name":"住宅区","address":"上海青浦华科东路218号"},{"poiid":"B2094757D069ABFB479B","title":"香涌海鲜大酒楼","lon":"121.13968658","lat":"31.150260925","category":"75","category_name":"浙江菜","address":"青浦区华青路100号(近公园东路)"},{"poiid":"B2094757D16CAAF94199","title":"澳京豆捞","lon":"121.135293671","lat":"31.1478073198","category":"86","category_name":"火锅店","address":"青浦区华青南路800弄1号(近青浦图书馆)"},{"poiid":"B2094757D664A1F84893","title":"海港一号","lon":"121.132756054","lat":"31.146040793","category":"76","category_name":"上海菜","address":"青浦区华青南路177弄58号(近青湖路)"},{"poiid":"B2094757D16DABF9489C","title":"仁恒运杰河滨花园","lon":"121.136","lat":"31.1474","category":"252","category_name":"楼宇机构","address":"上海市浦东新区锦和路99弄"},{"poiid":"B2094654DA6BABFA4398","title":"上海市青浦高级中学","lon":"121.14219","lat":"31.15339","category":"55","category_name":"中学","address":"青浦区公园东路1100号(近青浦中山医院)"},{"poiid":"B2094654DA6BABFA449A","title":"宜达新居","lon":"121.15015","lat":"31.163771","category":"47","category_name":"住宅区","address":"外青松公路5962号"},{"poiid":"B2094757D064A7F4409D","title":"蓝山咖啡(青浦店)","lon":"121.1367","lat":"31.14814","category":"65","category_name":"咖啡厅","address":"青浦区华青南路800弄1-3号(华浦南路青龙路)"},{"poiid":"B2094751D465A2FE479D","title":"末可甜品小屋","lon":"121.131406","lat":"31.156118","category":"247","category_name":"餐饮美食","address":"青浦区公园东路1688弄23号(近中山医院)"},{"poiid":"B2094757D168A7FF4192","title":"青浦党校","lon":"121.12828703","lat":"31.156762895","category":"253","category_name":"校园生活","address":"上海华科路"},{"poiid":"B2094654DA6BA4FB449E","title":"公园大观吉富绅花园","lon":"121.13375","lat":"31.15561","category":"47","category_name":"住宅区","address":"上海市青浦区公园东路1688号"},{"poiid":"B2094757D06BA0F8409D","title":"巴黎no.88 bar","lon":"121.13347347","lat":"31.146377457","category":"500","category_name":"未知分类","address":"上海青浦区华青南路511号(巴黎之夜楼上)"},{"poiid":"B2094757D06AABF44393","title":"新青浦佳园","lon":"121.135","lat":"31.1647","category":"500","category_name":"未知分类","address":"上海市青浦区华科路155弄"},{"poiid":"B2094654DA6BA4FF4993","title":"上海工商信息学校","lon":"121.13098","lat":"31.15174","category":"55","category_name":"中学","address":"青浦区公园东路2025号(近青浦区电视台)"},{"poiid":"B2094655D36DA7F8499B","title":"中山医院青浦分院","lon":"121.13481","lat":"31.15335","category":"38","category_name":"公交车站","address":""},{"poiid":"B2094654DA6BABFB459C","title":"夏阳湖国际花园","lon":"121.13573","lat":"31.146868","category":"47","category_name":"住宅区","address":"上海市青浦区青湖路800弄"},{"poiid":"B2094757D064A2FB429E","title":"佳乐苑","lon":"121.143998","lat":"31.164121","category":"252","category_name":"楼宇机构","address":"青浦华盈路685弄"},{"poiid":"B2094757D16FA7FD4792","title":"青浦毓秀学校","lon":"121.147959","lat":"31.156849","category":"253","category_name":"校园生活","address":"上海青浦毓秀学校"},{"poiid":"B2094654DA6BABF94593","title":"运杰城市花园(华青南路)","lon":"121.13467","lat":"31.14449","category":"47","category_name":"住宅区","address":"上海市宝山区聚丰园路303号"},{"poiid":"B2094655D36CA7F4469E","title":"桂花园青浦","lon":"121.13511898718","lat":"31.151869426536","category":"38","category_name":"公交车站","address":"沪青平公路4555弄"},{"poiid":"B2094750D568A0F94392","title":"香港纯Kparyt","lon":"121.126731","lat":"31.146087","category":"170","category_name":"KTV","address":"青浦区青湖路晨兴国际"},{"poiid":"B2094655D36CA7FC4998","title":"华乐路华科路","lon":"121.14385","lat":"31.15642","category":"38","category_name":"公交车站","address":""},{"poiid":"B2094757D16CA5FB4698","title":"公园大观","lon":"121.14201355","lat":"31.1516609192","category":"196","category_name":"公园","address":"上海公园东路1688弄"},{"poiid":"B2094757D465A0F4459C","title":"联谊大酒店","lon":"121.1399413","lat":"31.1619518","category":"76","category_name":"上海菜","address":"青浦区华盈路685弄(近华乐路)"},{"poiid":"B2094757D569A3F5489C","title":"富绅国际","lon":"121.142633","lat":"31.159857","category":"46","category_name":"楼宇","address":"公园东路1590号"},{"poiid":"B2094654DA6BA4FB4693","title":"上海市青浦区佳佳幼儿园","lon":"121.1404","lat":"31.15806","category":"57","category_name":"幼儿园","address":"青浦区华科路768号"},{"poiid":"B2094752D26FABF84593","title":"巴黎纯K量贩式KTV","lon":"121.134186","lat":"31.146301","category":"170","category_name":"KTV","address":"上海市青浦区华青南路511号"},{"poiid":"B2094757D164A7FF4492","title":"青浦区人民检察院","lon":"121.142814435","lat":"31.1508599801","category":"608","category_name":"法院","address":"上海青浦区华乐路399号"},{"poiid":"B2094751D26DA2FF479C","title":"新城盛景E区","lon":"121.148956","lat":"31.154642","category":"47","category_name":"住宅区","address":"崧文路299弄"},{"poiid":"B2094654DA6BA0FF4893","title":"蓬莱山庄","lon":"121.136","lat":"31.1504","category":"47","category_name":"住宅区","address":"青湖路666弄"},{"poiid":"B2094655D26BA1F54199","title":"青浦民防大楼","lon":"121.1401","lat":"31.15128","category":"46","category_name":"楼宇","address":"青舟路200号"},{"poiid":"B2094757D16EA3FF4299","title":"青浦区博物馆","lon":"121.133225135","lat":"31.1536129838","category":"179","category_name":"音乐厅","address":"青浦区青浦镇华青南路1000号"},{"poiid":"B2094757D16BAAFE489E","title":"新城盛景D区","lon":"121.148878035","lat":"31.1587420339","category":"47","category_name":"住宅区","address":"上海青浦区崧文路338弄"},{"poiid":"B2094654DB69A5F9489D","title":"真锅咖啡(青浦夏阳湖店)","lon":"121.1351","lat":"31.15087","category":"65","category_name":"咖啡厅","address":"青浦区华青路767号二楼(青浦博物馆对面)"},{"poiid":"B2094654DA6BABFB409A","title":"新城逸境园","lon":"121.13385","lat":"31.157528","category":"47","category_name":"住宅区","address":"上海市青浦区华科路路255弄"},{"poiid":"B2094654DA6BA4F44293","title":"青水湾公寓","lon":"121.13705","lat":"31.158348","category":"47","category_name":"住宅区","address":"华浦路268号"},{"poiid":"B2094654DA6BA4FB459C","title":"上海市青浦夏雨幼儿园","lon":"121.14222","lat":"31.14905","category":"57","category_name":"幼儿园","address":"青浦区华乐路301号"},{"poiid":"B2094655D36CA7FC489C","title":"华乐路青湖路","lon":"121.14244","lat":"31.14891","category":"38","category_name":"公交车站","address":""},{"poiid":"B2094757D06AA6FD489E","title":"新青浦花苑","lon":"121.13","lat":"31.1618","category":"500","category_name":"未知分类","address":"上海外青松公路6048弄"},{"poiid":"B2094654DA6BABFA409D","title":"梦丹苑","lon":"121.13171","lat":"31.146254","category":"47","category_name":"住宅区","address":"青湖路4625弄"},{"poiid":"B2094654DA6BA4FB4393","title":"新青浦红枫苑","lon":"121.13917","lat":"31.153595","category":"47","category_name":"住宅区","address":"公园东路1128号"},{"poiid":"B2094654DA6BABFA439B","title":"上海市人才发展服务中心青浦中心","lon":"121.13951","lat":"31.15142","category":"252","category_name":"楼宇机构","address":""},{"poiid":"B209475CDA69A2FF469F","title":"爱摩卡iMocha","lon":"121.151458","lat":"31.157182","category":"247","category_name":"餐饮美食","address":"青浦区华科东路180弄15号"},{"poiid":"B2094750D365A5F5429B","title":"新城盛景B区","lon":"121.148834","lat":"31.159301","category":"47","category_name":"住宅区","address":"青浦区崧文路388弄"},{"poiid":"B2094757D16EA3F8479B","title":"青浦区水务局","lon":"121.14009857","lat":"31.151664733","category":"500","category_name":"未知分类","address":"上海青浦区青舟路220号"},{"poiid":"B2094757D16EAAF9419C","title":"依莎九号会所","lon":"121.13908853","lat":"31.160944826","category":"500","category_name":"未知分类","address":"上海青浦盈港东路8300弄33号"},{"poiid":"B2094757D06FABFE4393","title":"复旦大学附属中山医院(青浦分院)","lon":"121.13807","lat":"31.15408","category":"162","category_name":"医院","address":"青浦区青浦公园东路1158号"},{"poiid":"B2094757DB6EA6FF429C","title":"上海夏阳湖皇冠假日酒店","lon":"121.1339","lat":"31.15049","category":"72","category_name":"广东菜","address":"青浦区青舟路303号(近夏阳湖)"},{"poiid":"B2094757D068A1FD439D","title":"夏阳湖畔","lon":"121.13520813","lat":"31.150871276","category":"47","category_name":"住宅区","address":"上海青浦区"},{"poiid":"B2094654DB6AA0FE419E","title":"上海市青浦区图书馆","lon":"121.13671","lat":"31.14783","category":"181","category_name":"图书馆","address":"青浦区青龙路60号(华浦南路青龙路)"},{"poiid":"B2094655D26BA7FC439D","title":"新城盛景","lon":"121.14638","lat":"31.15899","category":"47","category_name":"住宅区","address":"上海青浦华科东路218号"},{"poiid":"B2094757D069ABFB479B","title":"香涌海鲜大酒楼","lon":"121.13968658","lat":"31.150260925","category":"75","category_name":"浙江菜","address":"青浦区华青路100号(近公园东路)"},{"poiid":"B2094757D16CAAF94199","title":"澳京豆捞","lon":"121.135293671","lat":"31.1478073198","category":"86","category_name":"火锅店","address":"青浦区华青南路800弄1号(近青浦图书馆)"},{"poiid":"B2094757D664A1F84893","title":"海港一号","lon":"121.132756054","lat":"31.146040793","category":"76","category_name":"上海菜","address":"青浦区华青南路177弄58号(近青湖路)"},{"poiid":"B2094757D16DABF9489C","title":"仁恒运杰河滨花园","lon":"121.136","lat":"31.1474","category":"252","category_name":"楼宇机构","address":"上海市浦东新区锦和路99弄"},{"poiid":"B2094654DA6BABFA4398","title":"上海市青浦高级中学","lon":"121.14219","lat":"31.15339","category":"55","category_name":"中学","address":"青浦区公园东路1100号(近青浦中山医院)"},{"poiid":"B2094654DA6BABFA449A","title":"宜达新居","lon":"121.15015","lat":"31.163771","category":"47","category_name":"住宅区","address":"外青松公路5962号"},{"poiid":"B2094757D064A7F4409D","title":"蓝山咖啡(青浦店)","lon":"121.1367","lat":"31.14814","category":"65","category_name":"咖啡厅","address":"青浦区华青南路800弄1-3号(华浦南路青龙路)"},{"poiid":"B2094751D465A2FE479D","title":"末可甜品小屋","lon":"121.131406","lat":"31.156118","category":"247","category_name":"餐饮美食","address":"青浦区公园东路1688弄23号(近中山医院)"},{"poiid":"B2094757D168A7FF4192","title":"青浦党校","lon":"121.12828703","lat":"31.156762895","category":"253","category_name":"校园生活","address":"上海华科路"},{"poiid":"B2094654DA6BA4FB449E","title":"公园大观吉富绅花园","lon":"121.13375","lat":"31.15561","category":"47","category_name":"住宅区","address":"上海市青浦区公园东路1688号"},{"poiid":"B2094757D06BA0F8409D","title":"巴黎no.88 bar","lon":"121.13347347","lat":"31.146377457","category":"500","category_name":"未知分类","address":"上海青浦区华青南路511号(巴黎之夜楼上)"},{"poiid":"B2094757D06AABF44393","title":"新青浦佳园","lon":"121.135","lat":"31.1647","category":"500","category_name":"未知分类","address":"上海市青浦区华科路155弄"},{"poiid":"B2094654DA6BA4FF4993","title":"上海工商信息学校","lon":"121.13098","lat":"31.15174","category":"55","category_name":"中学","address":"青浦区公园东路2025号(近青浦区电视台)"},{"poiid":"B2094655D36DA7F8499B","title":"中山医院青浦分院","lon":"121.13481","lat":"31.15335","category":"38","category_name":"公交车站","address":""},{"poiid":"B2094654DA6BABFB459C","title":"夏阳湖国际花园","lon":"121.13573","lat":"31.146868","category":"47","category_name":"住宅区","address":"上海市青浦区青湖路800弄"},{"poiid":"B2094757D064A2FB429E","title":"佳乐苑","lon":"121.143998","lat":"31.164121","category":"252","category_name":"楼宇机构","address":"青浦华盈路685弄"},{"poiid":"B2094757D16FA7FD4792","title":"青浦毓秀学校","lon":"121.147959","lat":"31.156849","category":"253","category_name":"校园生活","address":"上海青浦毓秀学校"},{"poiid":"B2094654DA6BABF94593","title":"运杰城市花园(华青南路)","lon":"121.13467","lat":"31.14449","category":"47","category_name":"住宅区","address":"上海市宝山区聚丰园路303号"},{"poiid":"B2094655D36CA7F4469E","title":"桂花园青浦","lon":"121.13511898718","lat":"31.151869426536","category":"38","category_name":"公交车站","address":"沪青平公路4555弄"},{"poiid":"B2094750D568A0F94392","title":"香港纯Kparyt","lon":"121.126731","lat":"31.146087","category":"170","category_name":"KTV","address":"青浦区青湖路晨兴国际"},{"poiid":"B2094655D36CA7FC4998","title":"华乐路华科路","lon":"121.14385","lat":"31.15642","category":"38","category_name":"公交车站","address":""},{"poiid":"B2094757D16CA5FB4698","title":"公园大观","lon":"121.14201355","lat":"31.1516609192","category":"196","category_name":"公园","address":"上海公园东路1688弄"},{"poiid":"B2094757D465A0F4459C","title":"联谊大酒店","lon":"121.1399413","lat":"31.1619518","category":"76","category_name":"上海菜","address":"青浦区华盈路685弄(近华乐路)"},{"poiid":"B2094757D569A3F5489C","title":"富绅国际","lon":"121.142633","lat":"31.159857","category":"46","category_name":"楼宇","address":"公园东路1590号"},{"poiid":"B2094654DA6BA4FB4693","title":"上海市青浦区佳佳幼儿园","lon":"121.1404","lat":"31.15806","category":"57","category_name":"幼儿园","address":"青浦区华科路768号"},{"poiid":"B2094752D26FABF84593","title":"巴黎纯K量贩式KTV","lon":"121.134186","lat":"31.146301","category":"170","category_name":"KTV","address":"上海市青浦区华青南路511号"},{"poiid":"B2094757D164A7FF4492","title":"青浦区人民检察院","lon":"121.142814435","lat":"31.1508599801","category":"608","category_name":"法院","address":"上海青浦区华乐路399号"},{"poiid":"B2094751D26DA2FF479C","title":"新城盛景E区","lon":"121.148956","lat":"31.154642","category":"47","category_name":"住宅区","address":"崧文路299弄"},{"poiid":"B2094654DA6BA0FF4893","title":"蓬莱山庄","lon":"121.136","lat":"31.1504","category":"47","category_name":"住宅区","address":"青湖路666弄"},{"poiid":"B2094655D26BA1F54199","title":"青浦民防大楼","lon":"121.1401","lat":"31.15128","category":"46","category_name":"楼宇","address":"青舟路200号"},{"poiid":"B2094757D16EA3FF4299","title":"青浦区博物馆","lon":"121.133225135","lat":"31.1536129838","category":"179","category_name":"音乐厅","address":"青浦区青浦镇华青南路1000号"},{"poiid":"B2094757D16BAAFE489E","title":"新城盛景D区","lon":"121.148878035","lat":"31.1587420339","category":"47","category_name":"住宅区","address":"上海青浦区崧文路338弄"},{"poiid":"B2094654DB69A5F9489D","title":"真锅咖啡(青浦夏阳湖店)","lon":"121.1351","lat":"31.15087","category":"65","category_name":"咖啡厅","address":"青浦区华青路767号二楼(青浦博物馆对面)"},{"poiid":"B2094654DA6BABFB409A","title":"新城逸境园","lon":"121.13385","lat":"31.157528","category":"47","category_name":"住宅区","address":"上海市青浦区华科路路255弄"},{"poiid":"B2094654DA6BA4F44293","title":"青水湾公寓","lon":"121.13705","lat":"31.158348","category":"47","category_name":"住宅区","address":"华浦路268号"},{"poiid":"B2094654DA6BA4FB459C","title":"上海市青浦夏雨幼儿园","lon":"121.14222","lat":"31.14905","category":"57","category_name":"幼儿园","address":"青浦区华乐路301号"},{"poiid":"B2094655D36CA7FC489C","title":"华乐路青湖路","lon":"121.14244","lat":"31.14891","category":"38","category_name":"公交车站","address":""},{"poiid":"B2094757D06AA6FD489E","title":"新青浦花苑","lon":"121.13","lat":"31.1618","category":"500","category_name":"未知分类","address":"上海外青松公路6048弄"},{"poiid":"B2094654DA6BABFA409D","title":"梦丹苑","lon":"121.13171","lat":"31.146254","category":"47","category_name":"住宅区","address":"青湖路4625弄"},{"poiid":"B2094654DA6BA4FB4393","title":"新青浦红枫苑","lon":"121.13917","lat":"31.153595","category":"47","category_name":"住宅区","address":"公园东路1128号"},{"poiid":"B2094654DA6BABFA439B","title":"上海市人才发展服务中心青浦中心","lon":"121.13951","lat":"31.15142","category":"252","category_name":"楼宇机构","address":""},{"poiid":"B209475CDA69A2FF469F","title":"爱摩卡iMocha","lon":"121.151458","lat":"31.157182","category":"247","category_name":"餐饮美食","address":"青浦区华科东路180弄15号"},{"poiid":"B2094750D365A5F5429B","title":"新城盛景B区","lon":"121.148834","lat":"31.159301","category":"47","category_name":"住宅区","address":"青浦区崧文路388弄"},{"poiid":"B2094757D16EA3F8479B","title":"青浦区水务局","lon":"121.14009857","lat":"31.151664733","category":"500","category_name":"未知分类","address":"上海青浦区青舟路220号"},{"poiid":"B2094757D16EAAF9419C","title":"依莎九号会所","lon":"121.13908853","lat":"31.160944826","category":"500","category_name":"未知分类","address":"上海青浦盈港东路8300弄33号"},{"poiid":"B2094757D06FABFE4393","title":"复旦大学附属中山医院(青浦分院)","lon":"121.13807","lat":"31.15408","category":"162","category_name":"医院","address":"青浦区青浦公园东路1158号"},{"poiid":"B2094757DB6EA6FF429C","title":"上海夏阳湖皇冠假日酒店","lon":"121.1339","lat":"31.15049","category":"72","category_name":"广东菜","address":"青浦区青舟路303号(近夏阳湖)"},{"poiid":"B2094757D068A1FD439D","title":"夏阳湖畔","lon":"121.13520813","lat":"31.150871276","category":"47","category_name":"住宅区","address":"上海青浦区"},{"poiid":"B2094654DB6AA0FE419E","title":"上海市青浦区图书馆","lon":"121.13671","lat":"31.14783","category":"181","category_name":"图书馆","address":"青浦区青龙路60号(华浦南路青龙路)"},{"poiid":"B2094655D26BA7FC439D","title":"新城盛景","lon":"121.14638","lat":"31.15899","category":"47","category_name":"住宅区","address":"上海青浦华科东路218号"},{"poiid":"B2094757D069ABFB479B","title":"香涌海鲜大酒楼","lon":"121.13968658","lat":"31.150260925","category":"75","category_name":"浙江菜","address":"青浦区华青路100号(近公园东路)"},{"poiid":"B2094757D16CAAF94199","title":"澳京豆捞","lon":"121.135293671","lat":"31.1478073198","category":"86","category_name":"火锅店","address":"青浦区华青南路800弄1号(近青浦图书馆)"},{"poiid":"B2094757D664A1F84893","title":"海港一号","lon":"121.132756054","lat":"31.146040793","category":"76","category_name":"上海菜","address":"青浦区华青南路177弄58号(近青湖路)"},{"poiid":"B2094757D16DABF9489C","title":"仁恒运杰河滨花园","lon":"121.136","lat":"31.1474","category":"252","category_name":"楼宇机构","address":"上海市浦东新区锦和路99弄"},{"poiid":"B2094654DA6BABFA4398","title":"上海市青浦高级中学","lon":"121.14219","lat":"31.15339","category":"55","category_name":"中学","address":"青浦区公园东路1100号(近青浦中山医院)"},{"poiid":"B2094654DA6BABFA449A","title":"宜达新居","lon":"121.15015","lat":"31.163771","category":"47","category_name":"住宅区","address":"外青松公路5962号"},{"poiid":"B2094757D064A7F4409D","title":"蓝山咖啡(青浦店)","lon":"121.1367","lat":"31.14814","category":"65","category_name":"咖啡厅","address":"青浦区华青南路800弄1-3号(华浦南路青龙路)"},{"poiid":"B2094751D465A2FE479D","title":"末可甜品小屋","lon":"121.131406","lat":"31.156118","category":"247","category_name":"餐饮美食","address":"青浦区公园东路1688弄23号(近中山医院)"},{"poiid":"B2094757D168A7FF4192","title":"青浦党校","lon":"121.12828703","lat":"31.156762895","category":"253","category_name":"校园生活","address":"上海华科路"},{"poiid":"B2094654DA6BA4FB449E","title":"公园大观吉富绅花园","lon":"121.13375","lat":"31.15561","category":"47","category_name":"住宅区","address":"上海市青浦区公园东路1688号"},{"poiid":"B2094757D06BA0F8409D","title":"巴黎no.88 bar","lon":"121.13347347","lat":"31.146377457","category":"500","category_name":"未知分类","address":"上海青浦区华青南路511号(巴黎之夜楼上)"},{"poiid":"B2094757D06AABF44393","title":"新青浦佳园","lon":"121.135","lat":"31.1647","category":"500","category_name":"未知分类","address":"上海市青浦区华科路155弄"},{"poiid":"B2094654DA6BA4FF4993","title":"上海工商信息学校","lon":"121.13098","lat":"31.15174","category":"55","category_name":"中学","address":"青浦区公园东路2025号(近青浦区电视台)"},{"poiid":"B2094655D36DA7F8499B","title":"中山医院青浦分院","lon":"121.13481","lat":"31.15335","category":"38","category_name":"公交车站","address":""},{"poiid":"B2094654DA6BABFB459C","title":"夏阳湖国际花园","lon":"121.13573","lat":"31.146868","category":"47","category_name":"住宅区","address":"上海市青浦区青湖路800弄"},{"poiid":"B2094757D064A2FB429E","title":"佳乐苑","lon":"121.143998","lat":"31.164121","category":"252","category_name":"楼宇机构","address":"青浦华盈路685弄"},{"poiid":"B2094757D16FA7FD4792","title":"青浦毓秀学校","lon":"121.147959","lat":"31.156849","category":"253","category_name":"校园生活","address":"上海青浦毓秀学校"},{"poiid":"B2094654DA6BABF94593","title":"运杰城市花园(华青南路)","lon":"121.13467","lat":"31.14449","category":"47","category_name":"住宅区","address":"上海市宝山区聚丰园路303号"},{"poiid":"B2094655D36CA7F4469E","title":"桂花园青浦","lon":"121.13511898718","lat":"31.151869426536","category":"38","category_name":"公交车站","address":"沪青平公路4555弄"},{"poiid":"B2094750D568A0F94392","title":"香港纯Kparyt","lon":"121.126731","lat":"31.146087","category":"170","category_name":"KTV","address":"青浦区青湖路晨兴国际"},{"poiid":"B2094655D36CA7FC4998","title":"华乐路华科路","lon":"121.14385","lat":"31.15642","category":"38","category_name":"公交车站","address":""},{"poiid":"B2094757D16CA5FB4698","title":"公园大观","lon":"121.14201355","lat":"31.1516609192","category":"196","category_name":"公园","address":"上海公园东路1688弄"},{"poiid":"B2094757D465A0F4459C","title":"联谊大酒店","lon":"121.1399413","lat":"31.1619518","category":"76","category_name":"上海菜","address":"青浦区华盈路685弄(近华乐路)"},{"poiid":"B2094757D569A3F5489C","title":"富绅国际","lon":"121.142633","lat":"31.159857","category":"46","category_name":"楼宇","address":"公园东路1590号"},{"poiid":"B2094654DA6BA4FB4693","title":"上海市青浦区佳佳幼儿园","lon":"121.1404","lat":"31.15806","category":"57","category_name":"幼儿园","address":"青浦区华科路768号"},{"poiid":"B2094752D26FABF84593","title":"巴黎纯K量贩式KTV","lon":"121.134186","lat":"31.146301","category":"170","category_name":"KTV","address":"上海市青浦区华青南路511号"},{"poiid":"B2094757D164A7FF4492","title":"青浦区人民检察院","lon":"121.142814435","lat":"31.1508599801","category":"608","category_name":"法院","address":"上海青浦区华乐路399号"},{"poiid":"B2094751D26DA2FF479C","title":"新城盛景E区","lon":"121.148956","lat":"31.154642","category":"47","category_name":"住宅区","address":"崧文路299弄"},{"poiid":"B2094654DA6BA0FF4893","title":"蓬莱山庄","lon":"121.136","lat":"31.1504","category":"47","category_name":"住宅区","address":"青湖路666弄"},{"poiid":"B2094655D26BA1F54199","title":"青浦民防大楼","lon":"121.1401","lat":"31.15128","category":"46","category_name":"楼宇","address":"青舟路200号"},{"poiid":"B2094757D16EA3FF4299","title":"青浦区博物馆","lon":"121.133225135","lat":"31.1536129838","category":"179","category_name":"音乐厅","address":"青浦区青浦镇华青南路1000号"},{"poiid":"B2094757D16BAAFE489E","title":"新城盛景D区","lon":"121.148878035","lat":"31.1587420339","category":"47","category_name":"住宅区","address":"上海青浦区崧文路338弄"},{"poiid":"B2094654DB69A5F9489D","title":"真锅咖啡(青浦夏阳湖店)","lon":"121.1351","lat":"31.15087","category":"65","category_name":"咖啡厅","address":"青浦区华青路767号二楼(青浦博物馆对面)"},{"poiid":"B2094654DA6BABFB409A","title":"新城逸境园","lon":"121.13385","lat":"31.157528","category":"47","category_name":"住宅区","address":"上海市青浦区华科路路255弄"},{"poiid":"B2094654DA6BA4F44293","title":"青水湾公寓","lon":"121.13705","lat":"31.158348","category":"47","category_name":"住宅区","address":"华浦路268号"},{"poiid":"B2094654DA6BA4FB459C","title":"上海市青浦夏雨幼儿园","lon":"121.14222","lat":"31.14905","category":"57","category_name":"幼儿园","address":"青浦区华乐路301号"},{"poiid":"B2094655D36CA7FC489C","title":"华乐路青湖路","lon":"121.14244","lat":"31.14891","category":"38","category_name":"公交车站","address":""},{"poiid":"B2094757D06AA6FD489E","title":"新青浦花苑","lon":"121.13","lat":"31.1618","category":"500","category_name":"未知分类","address":"上海外青松公路6048弄"},{"poiid":"B2094654DA6BABFA409D","title":"梦丹苑","lon":"121.13171","lat":"31.146254","category":"47","category_name":"住宅区","address":"青湖路4625弄"},{"poiid":"B2094654DA6BA4FB4393","title":"新青浦红枫苑","lon":"121.13917","lat":"31.153595","category":"47","category_name":"住宅区","address":"公园东路1128号"},{"poiid":"B2094654DA6BABFA439B","title":"上海市人才发展服务中心青浦中心","lon":"121.13951","lat":"31.15142","category":"252","category_name":"楼宇机构","address":""},{"poiid":"B209475CDA69A2FF469F","title":"爱摩卡iMocha","lon":"121.151458","lat":"31.157182","category":"247","category_name":"餐饮美食","address":"青浦区华科东路180弄15号"},{"poiid":"B2094750D365A5F5429B","title":"新城盛景B区","lon":"121.148834","lat":"31.159301","category":"47","category_name":"住宅区","address":"青浦区崧文路388弄"},{"poiid":"B2094757D16EA3F8479B","title":"青浦区水务局","lon":"121.14009857","lat":"31.151664733","category":"500","category_name":"未知分类","address":"上海青浦区青舟路220号"},{"poiid":"B2094757D16EAAF9419C","title":"依莎九号会所","lon":"121.13908853","lat":"31.160944826","category":"500","category_name":"未知分类","address":"上海青浦盈港东路8300弄33号"}]