[{"poiid":"B2094654DB6AA0FE419E","title":"上海市青浦区图书馆","lon":"121.13671","lat":"31.14783","category":"181","category_name":"图书馆","address":"青浦区青龙路60号(华浦南路青龙路)"},{"poiid":"B2094757D068A1FD439D","title":"夏阳湖畔","lon":"121.13520813","lat":"31.150871276","category":"47","category_name":"住宅区","address":"上海青浦区"},{"poiid":"B2094757DB6EA6FF429C","title":"上海夏阳湖皇冠假日酒店","lon":"121.1339","lat":"31.15049","category":"72","category_name":"广东菜","address":"青浦区青舟路303号(近夏阳湖)"},{"poiid":"B2094757D06FABFE4393","title":"复旦大学附属中山医院(青浦分院)","lon":"121.13807","lat":"31.15408","category":"162","category_name":"医院","address":"青浦区青浦公园东路1158号"},{"poiid":"B2094757D664A1F84893","title":"海港一号","lon":"121.132756054","lat":"31.146040793","category":"76","category_name":"上海菜","address":"青浦区华青南路177弄58号(近青湖路)"},{"poiid":"B2094757D16CAAF94199","title":"澳京豆捞","lon":"121.135293671","lat":"31.1478073198","category":"86","category_name":"火锅店","address":"青浦区华青南路800弄1号(近青浦图书馆)"},{"poiid":"B2094757D06BA0F8409D","title":"巴黎no.88 bar","lon":"121.13347347","lat":"31.146377457","category":"500","category_name":"未知分类","address":"上海青浦区华青南路511号(巴黎之夜楼上)"},{"poiid":"B2094757D16DABF9489C","title":"仁恒运杰河滨花园","lon":"121.136","lat":"31.1474","category":"252","category_name":"楼宇机构","address":"上海市浦东新区锦和路99弄"},{"poiid":"B2094757D069ABFB479B","title":"香涌海鲜大酒楼","lon":"121.13968658","lat":"31.150260925","category":"75","category_name":"浙江菜","address":"青浦区华青路100号(近公园东路)"},{"poiid":"B2094757D068A4F5419A","title":"帕缇欧香苑","lon":"121.1250559","lat":"31.141070094","category":"252","category_name":"楼宇机构","address":"上海青浦区外青松公路6666弄"},{"poiid":"B2094757D064A7F4409D","title":"蓝山咖啡(青浦店)","lon":"121.1367","lat":"31.14814","category":"65","category_name":"咖啡厅","address":"青浦区华青南路800弄1-3号(华浦南路青龙路)"},{"poiid":"B2094654DA6BABF94593","title":"运杰城市花园(华青南路)","lon":"121.13467","lat":"31.14449","category":"47","category_name":"住宅区","address":"上海市宝山区聚丰园路303号"},{"poiid":"B2094654DA6BABFB459C","title":"夏阳湖国际花园","lon":"121.13573","lat":"31.146868","category":"47","category_name":"住宅区","address":"上海市青浦区青湖路800弄"},{"poiid":"B2094752D26FABF84593","title":"巴黎纯K量贩式KTV","lon":"121.134186","lat":"31.146301","category":"170","category_name":"KTV","address":"上海市青浦区华青南路511号"},{"poiid":"B2094750D568A0F94392","title":"香港纯Kparyt","lon":"121.126731","lat":"31.146087","category":"170","category_name":"KTV","address":"青浦区青湖路晨兴国际"},{"poiid":"B2094654DA6BABFA409D","title":"梦丹苑","lon":"121.13171","lat":"31.146254","category":"47","category_name":"住宅区","address":"青湖路4625弄"},{"poiid":"B2094654DA6BA4FF4993","title":"上海工商信息学校","lon":"121.13098","lat":"31.15174","category":"55","category_name":"中学","address":"青浦区公园东路2025号(近青浦区电视台)"},{"poiid":"B2094757D568A4FB4998","title":"巴黎之夜","lon":"121.13402018","lat":"31.14663628","category":"170","category_name":"KTV","address":"青浦区华青南路511号(近青湖路)"},{"poiid":"B2094655D36CA5FF4392","title":"城中东路保安路","lon":"121.12422","lat":"31.14644","category":"38","category_name":"公交车站","address":""},{"poiid":"B2094757D46AA4F94699","title":"太麻里台湾私房牛肉面馆 青湖店","lon":"121.133558","lat":"31.145971","category":"91","category_name":"台湾菜","address":"青浦区青湖路914号"},{"poiid":"B2094757D06BA3FF479E","title":"仁恒运杰河滨花苑","lon":"121.12885939","lat":"31.140946384","category":"252","category_name":"楼宇机构","address":"上海青浦区外青松公路6999弄"},{"poiid":"B2094757D064A4FE489B","title":"上岛咖啡(青湖路店)","lon":"121.134193571","lat":"31.1456604768","category":"65","category_name":"咖啡厅","address":"青浦区青湖路879号(近华青南路)"},{"poiid":"B2094750D565A5F4479B","title":"宝燕海鲜酒楼","lon":"121.13417","lat":"31.146339","category":"247","category_name":"餐饮美食","address":"青浦区华青南路505号(清湖路口)"},{"poiid":"B2094757D16EA5FC4493","title":"吉祥馄饨(青湖路店)","lon":"121.1334247","lat":"31.1457509","category":"68","category_name":"快餐厅","address":"青浦区青湖路917号"},{"poiid":"B2094757D06BABFF4693","title":"青浦区政府","lon":"121.12415141","lat":"31.15036197","category":"500","category_name":"未知分类","address":"上海公园路100号"},{"poiid":"B2094654DA6BA4FB459B","title":"多味坊土菜馆","lon":"121.13249","lat":"31.14557","category":"257","category_name":"中餐厅","address":"青浦区青湖路945号"},{"poiid":"B2094751D465A2FE479D","title":"末可甜品小屋","lon":"121.131406","lat":"31.156118","category":"247","category_name":"餐饮美食","address":"青浦区公园东路1688弄23号(近中山医院)"},{"poiid":"B2094757D16DABFE479F","title":"四海游龙(青湖路店)","lon":"121.1333","lat":"31.14572","category":"87","category_name":"特色／地方风味餐厅","address":"上海近郊青浦区青湖路902号东侧(近外青松公路)  "},{"poiid":"B2094757D168A7FD4493","title":"夏阳湖","lon":"121.134762","lat":"31.146866","category":"500","category_name":"未知分类","address":"上海华浦南路699弄13#802"},{"poiid":"B2094757D56EA0FA489E","title":"重庆鸡公煲(青湖路店)","lon":"121.1343527","lat":"31.14579425","category":"71","category_name":"四川菜","address":"青浦区青湖路"},{"poiid":"B209475DD46FA0FD499B","title":"珑料理 怀石","lon":"121.133659","lat":"31.146356","category":"247","category_name":"餐饮美食","address":"上海市 上海市青浦区华青南路505号"},{"poiid":"B2094654DB65A7FF469F","title":"巴比馒头 青湖路店 Babi Food","lon":"121.13336","lat":"31.14584","category":"87","category_name":"特色／地方风味餐厅","address":"青浦区青湖路910号(近华青南路)"},{"poiid":"B2094751D56CAAFA4992","title":"小阁楼(青湖路店)","lon":"121.13161","lat":"31.14554","category":"71","category_name":"四川菜","address":"青浦区青湖路975号(近外青松公路)"},{"poiid":"B2094753D268A0FA4999","title":"上井精致创作料理","lon":"121.130565","lat":"31.146973","category":"247","category_name":"餐饮美食","address":"上海市 运杰城市花园"},{"poiid":"B2094654DA6BA4FB449E","title":"公园大观吉富绅花园","lon":"121.13375","lat":"31.15561","category":"47","category_name":"住宅区","address":"上海市青浦区公园东路1688号"},{"poiid":"B2094751D56CA0F5459D","title":"屋企汤馆(青龙路店)","lon":"121.13623","lat":"31.14746","category":"257","category_name":"中餐厅","address":"青浦区青龙路55号"},{"poiid":"B2094655D36DA7F8499B","title":"中山医院青浦分院","lon":"121.13481","lat":"31.15335","category":"38","category_name":"公交车站","address":""},{"poiid":"B2094655D36CA2F84199","title":"青湖路华青路","lon":"121.13242","lat":"31.14581","category":"38","category_name":"公交车站","address":""},{"poiid":"B2094757D16FA5F8429E","title":"金色淡水","lon":"121.131923071","lat":"31.1441594467","category":"68","category_name":"快餐厅","address":"青浦区青峰路71号(新华骥苑对面)"},{"poiid":"B2094654DA6BABF9469C","title":"华骥小区1号门","lon":"121.13148","lat":"31.14469","category":"47","category_name":"住宅区","address":"青浦镇"},{"poiid":"B2094655D36CA7F4469E","title":"桂花园青浦","lon":"121.13511898718","lat":"31.151869426536","category":"38","category_name":"公交车站","address":"沪青平公路4555弄"},{"poiid":"B2094655D36CA2F8419E","title":"青湖路梦丹苑","lon":"121.13243","lat":"31.14578","category":"38","category_name":"公交车站","address":""},{"poiid":"B2094654DA6BABFA459C","title":"好德(青湖路)","lon":"121.13211","lat":"31.14599","category":"117","category_name":"便民商店/便利店","address":"青湖路954"},{"poiid":"B2094757D06AABF9449D","title":"THE NORTH FACE(奥特莱斯店)","lon":"121.131796071","lat":"31.1473455106","category":"140","category_name":"体育用品店","address":"上海近郊青浦区沪青平公路2888号奥特莱斯B149(近嘉松中路)  "},{"poiid":"B209475DD169A1FA4293","title":"蝴蝶","lon":"121.132865","lat":"31.147716","category":"249","category_name":"购物服务","address":"上海市 青湖路"},{"poiid":"B2094654DB69A5F84793","title":"文峰美容美发(青湖路店)","lon":"121.13498","lat":"31.1456","category":"148","category_name":"美容美发店","address":"青浦区青湖路799号"},{"poiid":"B2094757D169ABF5489C","title":"新城海鲜酒楼","lon":"121.135701671","lat":"31.1454002716","category":"247","category_name":"餐饮美食","address":"青浦区青湖路802号(近运杰城市花园)"},{"poiid":"B2094750DA65A3FD409F","title":"艾尼国际美容美发","lon":"121.134162","lat":"31.146316","category":"148","category_name":"美容美发店","address":"青湖路"},{"poiid":"B2094757D168A2FF4092","title":"静怡花园","lon":"121.13539","lat":"31.14737","category":"47","category_name":"住宅区","address":"青浦区青龙路35号(近青湖路)"},{"poiid":"B2094655D265ABF9459A","title":"顺中诚","lon":"121.13162","lat":"31.14556","category":"257","category_name":"中餐厅","address":"上海近郊青浦区青湖路975号  "},{"poiid":"B2094654DB6AA0FE419E","title":"上海市青浦区图书馆","lon":"121.13671","lat":"31.14783","category":"181","category_name":"图书馆","address":"青浦区青龙路60号(华浦南路青龙路)"},{"poiid":"B2094757D068A1FD439D","title":"夏阳湖畔","lon":"121.13520813","lat":"31.150871276","category":"47","category_name":"住宅区","address":"上海青浦区"},{"poiid":"B2094757DB6EA6FF429C","title":"上海夏阳湖皇冠假日酒店","lon":"121.1339","lat":"31.15049","category":"72","category_name":"广东菜","address":"青浦区青舟路303号(近夏阳湖)"},{"poiid":"B2094757D06FABFE4393","title":"复旦大学附属中山医院(青浦分院)","lon":"121.13807","lat":"31.15408","category":"162","category_name":"医院","address":"青浦区青浦公园东路1158号"},{"poiid":"B2094757D664A1F84893","title":"海港一号","lon":"121.132756054","lat":"31.146040793","category":"76","category_name":"上海菜","address":"青浦区华青南路177弄58号(近青湖路)"},{"poiid":"B2094757D16CAAF94199","title":"澳京豆捞","lon":"121.135293671","lat":"31.1478073198","category":"86","category_name":"火锅店","address":"青浦区华青南路800弄1号(近青浦图书馆)"},{"poiid":"B2094757D06BA0F8409D","title":"巴黎no.88 bar","lon":"121.13347347","lat":"31.146377457","category":"500","category_name":"未知分类","address":"上海青浦区华青南路511号(巴黎之夜楼上)"},{"poiid":"B2094757D16DABF9489C","title":"仁恒运杰河滨花园","lon":"121.136","lat":"31.1474","category":"252","category_name":"楼宇机构","address":"上海市浦东新区锦和路99弄"},{"poiid":"B2094757D069ABFB479B","title":"香涌海鲜大酒楼","lon":"121.13968658","lat":"31.150260925","category":"75","category_name":"浙江菜","address":"青浦区华青路100号(近公园东路)"},{"poiid":"B2094757D068A4F5419A","title":"帕缇欧香苑","lon":"121.1250559","lat":"31.141070094","category":"252","category_name":"楼宇机构","address":"上海青浦区外青松公路6666弄"},{"poiid":"B2094757D064A7F4409D","title":"蓝山咖啡(青浦店)","lon":"121.1367","lat":"31.14814","category":"65","category_name":"咖啡厅","address":"青浦区华青南路800弄1-3号(华浦南路青龙路)"},{"poiid":"B2094654DA6BABF94593","title":"运杰城市花园(华青南路)","lon":"121.13467","lat":"31.14449","category":"47","category_name":"住宅区","address":"上海市宝山区聚丰园路303号"},{"poiid":"B2094654DA6BABFB459C","title":"夏阳湖国际花园","lon":"121.13573","lat":"31.146868","category":"47","category_name":"住宅区","address":"上海市青浦区青湖路800弄"},{"poiid":"B2094752D26FABF84593","title":"巴黎纯K量贩式KTV","lon":"121.134186","lat":"31.146301","category":"170","category_name":"KTV","address":"上海市青浦区华青南路511号"},{"poiid":"B2094750D568A0F94392","title":"香港纯Kparyt","lon":"121.126731","lat":"31.146087","category":"170","category_name":"KTV","address":"青浦区青湖路晨兴国际"},{"poiid":"B2094654DA6BABFA409D","title":"梦丹苑","lon":"121.13171","lat":"31.146254","category":"47","category_name":"住宅区","address":"青湖路4625弄"},{"poiid":"B2094654DA6BA4FF4993","title":"上海工商信息学校","lon":"121.13098","lat":"31.15174","category":"55","category_name":"中学","address":"青浦区公园东路2025号(近青浦区电视台)"},{"poiid":"B2094757D568A4FB4998","title":"巴黎之夜","lon":"121.13402018","lat":"31.14663628","category":"170","category_name":"KTV","address":"青浦区华青南路511号(近青湖路)"},{"poiid":"B2094655D36CA5FF4392","title":"城中东路保安路","lon":"121.12422","lat":"31.14644","category":"38","category_name":"公交车站","address":""},{"poiid":"B2094757D46AA4F94699","title":"太麻里台湾私房牛肉面馆 青湖店","lon":"121.133558","lat":"31.145971","category":"91","category_name":"台湾菜","address":"青浦区青湖路914号"},{"poiid":"B2094757D06BA3FF479E","title":"仁恒运杰河滨花苑","lon":"121.12885939","lat":"31.140946384","category":"252","category_name":"楼宇机构","address":"上海青浦区外青松公路6999弄"},{"poiid":"B2094757D064A4FE489B","title":"上岛咖啡(青湖路店)","lon":"121.134193571","lat":"31.1456604768","category":"65","category_name":"咖啡厅","address":"青浦区青湖路879号(近华青南路)"},{"poiid":"B2094750D565A5F4479B","title":"宝燕海鲜酒楼","lon":"121.13417","lat":"31.146339","category":"247","category_name":"餐饮美食","address":"青浦区华青南路505号(清湖路口)"},{"poiid":"B2094757D16EA5FC4493","title":"吉祥馄饨(青湖路店)","lon":"121.1334247","lat":"31.1457509","category":"68","category_name":"快餐厅","address":"青浦区青湖路917号"},{"poiid":"B2094757D06BABFF4693","title":"青浦区政府","lon":"121.12415141","lat":"31.15036197","category":"500","category_name":"未知分类","address":"上海公园路100号"},{"poiid":"B2094654DA6BA4FB459B","title":"多味坊土菜馆","lon":"121.13249","lat":"31.14557","category":"257","category_name":"中餐厅","address":"青浦区青湖路945号"},{"poiid":"B2094751D465A2FE479D","title":"末可甜品小屋","lon":"121.131406","lat":"31.156118","category":"247","category_name":"餐饮美食","address":"青浦区公园东路1688弄23号(近中山医院)"},{"poiid":"B2094757D16DABFE479F","title":"四海游龙(青湖路店)","lon":"121.1333","lat":"31.14572","category":"87","category_name":"特色／地方风味餐厅","address":"上海近郊青浦区青湖路902号东侧(近外青松公路)  "},{"poiid":"B2094757D168A7FD4493","title":"夏阳湖","lon":"121.134762","lat":"31.146866","category":"500","category_name":"未知分类","address":"上海华浦南路699弄13#802"},{"poiid":"B2094757D56EA0FA489E","title":"重庆鸡公煲(青湖路店)","lon":"121.1343527","lat":"31.14579425","category":"71","category_name":"四川菜","address":"青浦区青湖路"},{"poiid":"B209475DD46FA0FD499B","title":"珑料理 怀石","lon":"121.133659","lat":"31.146356","category":"247","category_name":"餐饮美食","address":"上海市 上海市青浦区华青南路505号"},{"poiid":"B2094654DB65A7FF469F","title":"巴比馒头 青湖路店 Babi Food","lon":"121.13336","lat":"31.14584","category":"87","category_name":"特色／地方风味餐厅","address":"青浦区青湖路910号(近华青南路)"},{"poiid":"B2094751D56CAAFA4992","title":"小阁楼(青湖路店)","lon":"121.13161","lat":"31.14554","category":"71","category_name":"四川菜","address":"青浦区青湖路975号(近外青松公路)"},{"poiid":"B2094753D268A0FA4999","title":"上井精致创作料理","lon":"121.130565","lat":"31.146973","category":"247","category_name":"餐饮美食","address":"上海市 运杰城市花园"},{"poiid":"B2094654DA6BA4FB449E","title":"公园大观吉富绅花园","lon":"121.13375","lat":"31.15561","category":"47","category_name":"住宅区","address":"上海市青浦区公园东路1688号"},{"poiid":"B2094751D56CA0F5459D","title":"屋企汤馆(青龙路店)","lon":"121.13623","lat":"31.14746","category":"257","category_name":"中餐厅","address":"青浦区青龙路55号"},{"poiid":"B2094655D36DA7F8499B","title":"中山医院青浦分院","lon":"121.13481","lat":"31.15335","category":"38","category_name":"公交车站","address":""},{"poiid":"B2094655D36CA2F84199","title":"青湖路华青路","lon":"121.13242","lat":"31.14581","category":"38","category_name":"公交车站","address":""},{"poiid":"B2094757D16FA5F8429E","title":"金色淡水","lon":"121.131923071","lat":"31.1441594467","category":"68","category_name":"快餐厅","address":"青浦区青峰路71号(新华骥苑对面)"},{"poiid":"B2094654DA6BABF9469C","title":"华骥小区1号门","lon":"121.13148","lat":"31.14469","category":"47","category_name":"住宅区","address":"青浦镇"},{"poiid":"B2094655D36CA7F4469E","title":"桂花园青浦","lon":"121.13511898718","lat":"31.151869426536","category":"38","category_name":"公交车站","address":"沪青平公路4555弄"},{"poiid":"B2094655D36CA2F8419E","title":"青湖路梦丹苑","lon":"121.13243","lat":"31.14578","category":"38","category_name":"公交车站","address":""},{"poiid":"B2094654DA6BABFA459C","title":"好德(青湖路)","lon":"121.13211","lat":"31.14599","category":"117","category_name":"便民商店/便利店","address":"青湖路954"},{"poiid":"B2094757D06AABF9449D","title":"THE NORTH FACE(奥特莱斯店)","lon":"121.131796071","lat":"31.1473455106","category":"140","category_name":"体育用品店","address":"上海近郊青浦区沪青平公路2888号奥特莱斯B149(近嘉松中路)  "},{"poiid":"B209475DD169A1FA4293","title":"蝴蝶","lon":"121.132865","lat":"31.147716","category":"249","category_name":"购物服务","address":"上海市 青湖路"},{"poiid":"B2094654DB69A5F84793","title":"文峰美容美发(青湖路店)","lon":"121.13498","lat":"31.1456","category":"148","category_name":"美容美发店","address":"青浦区青湖路799号"},{"poiid":"B2094757D169ABF5489C","title":"新城海鲜酒楼","lon":"121.135701671","lat":"31.1454002716","category":"247","category_name":"餐饮美食","address":"青浦区青湖路802号(近运杰城市花园)"},{"poiid":"B2094750DA65A3FD409F","title":"艾尼国际美容美发","lon":"121.134162","lat":"31.146316","category":"148","category_name":"美容美发店","address":"青湖路"},{"poiid":"B2094757D168A2FF4092","title":"静怡花园","lon":"121.13539","lat":"31.14737","category":"47","category_name":"住宅区","address":"青浦区青龙路35号(近青湖路)"},{"poiid":"B2094655D265ABF9459A","title":"顺中诚","lon":"121.13162","lat":"31.14556","category":"257","category_name":"中餐厅","address":"上海近郊青浦区青湖路975号  "},{"poiid":"B2094654DB6AA0FE419E","title":"上海市青浦区图书馆","lon":"121.13671","lat":"31.14783","category":"181","category_name":"图书馆","address":"青浦区青龙路60号(华浦南路青龙路)"},{"poiid":"B2094757D068A1FD439D","title":"夏阳湖畔","lon":"121.13520813","lat":"31.150871276","category":"47","category_name":"住宅区","address":"上海青浦区"},{"poiid":"B2094757DB6EA6FF429C","title":"上海夏阳湖皇冠假日酒店","lon":"121.1339","lat":"31.15049","category":"72","category_name":"广东菜","address":"青浦区青舟路303号(近夏阳湖)"},{"poiid":"B2094757D06FABFE4393","title":"复旦大学附属中山医院(青浦分院)","lon":"121.13807","lat":"31.15408","category":"162","category_name":"医院","address":"青浦区青浦公园东路1158号"},{"poiid":"B2094757D664A1F84893","title":"海港一号","lon":"121.132756054","lat":"31.146040793","category":"76","category_name":"上海菜","address":"青浦区华青南路177弄58号(近青湖路)"},{"poiid":"B2094757D16CAAF94199","title":"澳京豆捞","lon":"121.135293671","lat":"31.1478073198","category":"86","category_name":"火锅店","address":"青浦区华青南路800弄1号(近青浦图书馆)"},{"poiid":"B2094757D06BA0F8409D","title":"巴黎no.88 bar","lon":"121.13347347","lat":"31.146377457","category":"500","category_name":"未知分类","address":"上海青浦区华青南路511号(巴黎之夜楼上)"},{"poiid":"B2094757D16DABF9489C","title":"仁恒运杰河滨花园","lon":"121.136","lat":"31.1474","category":"252","category_name":"楼宇机构","address":"上海市浦东新区锦和路99弄"},{"poiid":"B2094757D069ABFB479B","title":"香涌海鲜大酒楼","lon":"121.13968658","lat":"31.150260925","category":"75","category_name":"浙江菜","address":"青浦区华青路100号(近公园东路)"},{"poiid":"B2094757D068A4F5419A","title":"帕缇欧香苑","lon":"121.1250559","lat":"31.141070094","category":"252","category_name":"楼宇机构","address":"上海青浦区外青松公路6666弄"},{"poiid":"B2094757D064A7F4409D","title":"蓝山咖啡(青浦店)","lon":"121.1367","lat":"31.14814","category":"65","category_name":"咖啡厅","address":"青浦区华青南路800弄1-3号(华浦南路青龙路)"},{"poiid":"B2094654DA6BABF94593","title":"运杰城市花园(华青南路)","lon":"121.13467","lat":"31.14449","category":"47","category_name":"住宅区","address":"上海市宝山区聚丰园路303号"},{"poiid":"B2094654DA6BABFB459C","title":"夏阳湖国际花园","lon":"121.13573","lat":"31.146868","category":"47","category_name":"住宅区","address":"上海市青浦区青湖路800弄"},{"poiid":"B2094752D26FABF84593","title":"巴黎纯K量贩式KTV","lon":"121.134186","lat":"31.146301","category":"170","category_name":"KTV","address":"上海市青浦区华青南路511号"},{"poiid":"B2094750D568A0F94392","title":"香港纯Kparyt","lon":"121.126731","lat":"31.146087","category":"170","category_name":"KTV","address":"青浦区青湖路晨兴国际"},{"poiid":"B2094654DA6BABFA409D","title":"梦丹苑","lon":"121.13171","lat":"31.146254","category":"47","category_name":"住宅区","address":"青湖路4625弄"},{"poiid":"B2094654DA6BA4FF4993","title":"上海工商信息学校","lon":"121.13098","lat":"31.15174","category":"55","category_name":"中学","address":"青浦区公园东路2025号(近青浦区电视台)"},{"poiid":"B2094757D568A4FB4998","title":"巴黎之夜","lon":"121.13402018","lat":"31.14663628","category":"170","category_name":"KTV","address":"青浦区华青南路511号(近青湖路)"},{"poiid":"B2094655D36CA5FF4392","title":"城中东路保安路","lon":"121.12422","lat":"31.14644","category":"38","category_name":"公交车站","address":""},{"poiid":"B2094757D46AA4F94699","title":"太麻里台湾私房牛肉面馆 青湖店","lon":"121.133558","lat":"31.145971","category":"91","category_name":"台湾菜","address":"青浦区青湖路914号"},{"poiid":"B2094757D06BA3FF479E","title":"仁恒运杰河滨花苑","lon":"121.12885939","lat":"31.140946384","category":"252","category_name":"楼宇机构","address":"上海青浦区外青松公路6999弄"},{"poiid":"B2094757D064A4FE489B","title":"上岛咖啡(青湖路店)","lon":"121.134193571","lat":"31.1456604768","category":"65","category_name":"咖啡厅","address":"青浦区青湖路879号(近华青南路)"},{"poiid":"B2094750D565A5F4479B","title":"宝燕海鲜酒楼","lon":"121.13417","lat":"31.146339","category":"247","category_name":"餐饮美食","address":"青浦区华青南路505号(清湖路口)"},{"poiid":"B2094757D16EA5FC4493","title":"吉祥馄饨(青湖路店)","lon":"121.1334247","lat":"31.1457509","category":"68","category_name":"快餐厅","address":"青浦区青湖路917号"},{"poiid":"B2094757D06BABFF4693","title":"青浦区政府","lon":"121.12415141","lat":"31.15036197","category":"500","category_name":"未知分类","address":"上海公园路100号"},{"poiid":"B2094654DA6BA4FB459B","title":"多味坊土菜馆","lon":"121.13249","lat":"31.14557","category":"257","category_name":"中餐厅","address":"青浦区青湖路945号"},{"poiid":"B2094751D465A2FE479D","title":"末可甜品小屋","lon":"121.131406","lat":"31.156118","category":"247","category_name":"餐饮美食","address":"青浦区公园东路1688弄23号(近中山医院)"},{"poiid":"B2094757D16DABFE479F","title":"四海游龙(青湖路店)","lon":"121.1333","lat":"31.14572","category":"87","category_name":"特色／地方风味餐厅","address":"上海近郊青浦区青湖路902号东侧(近外青松公路)  "},{"poiid":"B2094757D168A7FD4493","title":"夏阳湖","lon":"121.134762","lat":"31.146866","category":"500","category_name":"未知分类","address":"上海华浦南路699弄13#802"},{"poiid":"B2094757D56EA0FA489E","title":"重庆鸡公煲(青湖路店)","lon":"121.1343527","lat":"31.14579425","category":"71","category_name":"四川菜","address":"青浦区青湖路"},{"poiid":"B209475DD46FA0FD499B","title":"珑料理 怀石","lon":"121.133659","lat":"31.146356","category":"247","category_name":"餐饮美食","address":"上海市 上海市青浦区华青南路505号"},{"poiid":"B2094654DB65A7FF469F","title":"巴比馒头 青湖路店 Babi Food","lon":"121.13336","lat":"31.14584","category":"87","category_name":"特色／地方风味餐厅","address":"青浦区青湖路910号(近华青南路)"},{"poiid":"B2094751D56CAAFA4992","title":"小阁楼(青湖路店)","lon":"121.13161","lat":"31.14554","category":"71","category_name":"四川菜","address":"青浦区青湖路975号(近外青松公路)"},{"poiid":"B2094753D268A0FA4999","title":"上井精致创作料理","lon":"121.130565","lat":"31.146973","category":"247","category_name":"餐饮美食","address":"上海市 运杰城市花园"},{"poiid":"B2094654DA6BA4FB449E","title":"公园大观吉富绅花园","lon":"121.13375","lat":"31.15561","category":"47","category_name":"住宅区","address":"上海市青浦区公园东路1688号"},{"poiid":"B2094751D56CA0F5459D","title":"屋企汤馆(青龙路店)","lon":"121.13623","lat":"31.14746","category":"257","category_name":"中餐厅","address":"青浦区青龙路55号"},{"poiid":"B2094655D36DA7F8499B","title":"中山医院青浦分院","lon":"121.13481","lat":"31.15335","category":"38","category_name":"公交车站","address":""},{"poiid":"B2094655D36CA2F84199","title":"青湖路华青路","lon":"121.13242","lat":"31.14581","category":"38","category_name":"公交车站","address":""},{"poiid":"B2094757D16FA5F8429E","title":"金色淡水","lon":"121.131923071","lat":"31.1441594467","category":"68","category_name":"快餐厅","address":"青浦区青峰路71号(新华骥苑对面)"},{"poiid":"B2094654DA6BABF9469C","title":"华骥小区1号门","lon":"121.13148","lat":"31.14469","category":"47","category_name":"住宅区","address":"青浦镇"},{"poiid":"B2094655D36CA7F4469E","title":"桂花园青浦","lon":"121.13511898718","lat":"31.151869426536","category":"38","category_name":"公交车站","address":"沪青平公路4555弄"},{"poiid":"B2094655D36CA2F8419E","title":"青湖路梦丹苑","lon":"121.13243","lat":"31.14578","category":"38","category_name":"公交车站","address":""},{"poiid":"B2094654DA6BABFA459C","title":"好德(青湖路)","lon":"121.13211","lat":"31.14599","category":"117","category_name":"便民商店/便利店","address":"青湖路954"},{"poiid":"B2094757D06AABF9449D","title":"THE NORTH FACE(奥特莱斯店)","lon":"121.131796071","lat":"31.1473455106","category":"140","category_name":"体育用品店","address":"上海近郊青浦区沪青平公路2888号奥特莱斯B149(近嘉松中路)  "},{"poiid":"B209475DD169A1FA4293","title":"蝴蝶","lon":"121.132865","lat":"31.147716","category":"249","category_name":"购物服务","address":"上海市 青湖路"},{"poiid":"B2094654DB69A5F84793","title":"文峰美容美发(青湖路店)","lon":"121.13498","lat":"31.1456","category":"148","category_name":"美容美发店","address":"青浦区青湖路799号"},{"poiid":"B2094757D169ABF5489C","title":"新城海鲜酒楼","lon":"121.135701671","lat":"31.1454002716","category":"247","category_name":"餐饮美食","address":"青浦区青湖路802号(近运杰城市花园)"},{"poiid":"B2094750DA65A3FD409F","title":"艾尼国际美容美发","lon":"121.134162","lat":"31.146316","category":"148","category_name":"美容美发店","address":"青湖路"},{"poiid":"B2094757D168A2FF4092","title":"静怡花园","lon":"121.13539","lat":"31.14737","category":"47","category_name":"住宅区","address":"青浦区青龙路35号(近青湖路)"},{"poiid":"B2094655D265ABF9459A","title":"顺中诚","lon":"121.13162","lat":"31.14556","category":"257","category_name":"中餐厅","address":"上海近郊青浦区青湖路975号  "},{"poiid":"B2094654DB6AA0FE419E","title":"上海市青浦区图书馆","lon":"121.13671","lat":"31.14783","category":"181","category_name":"图书馆","address":"青浦区青龙路60号(华浦南路青龙路)"},{"poiid":"B2094757D068A1FD439D","title":"夏阳湖畔","lon":"121.13520813","lat":"31.150871276","category":"47","category_name":"住宅区","address":"上海青浦区"},{"poiid":"B2094757DB6EA6FF429C","title":"上海夏阳湖皇冠假日酒店","lon":"121.1339","lat":"31.15049","category":"72","category_name":"广东菜","address":"青浦区青舟路303号(近夏阳湖)"},{"poiid":"B2094757D06FABFE4393","title":"复旦大学附属中山医院(青浦分院)","lon":"121.13807","lat":"31.15408","category":"162","category_name":"医院","address":"青浦区青浦公园东路1158号"},{"poiid":"B2094757D664A1F84893","title":"海港一号","lon":"121.132756054","lat":"31.146040793","category":"76","category_name":"上海菜","address":"青浦区华青南路177弄58号(近青湖路)"},{"poiid":"B2094757D16CAAF94199","title":"澳京豆捞","lon":"121.135293671","lat":"31.1478073198","category":"86","category_name":"火锅店","address":"青浦区华青南路800弄1号(近青浦图书馆)"},{"poiid":"B2094757D06BA0F8409D","title":"巴黎no.88 bar","lon":"121.13347347","lat":"31.146377457","category":"500","category_name":"未知分类","address":"上海青浦区华青南路511号(巴黎之夜楼上)"},{"poiid":"B2094757D16DABF9489C","title":"仁恒运杰河滨花园","lon":"121.136","lat":"31.1474","category":"252","category_name":"楼宇机构","address":"上海市浦东新区锦和路99弄"},{"poiid":"B2094757D069ABFB479B","title":"香涌海鲜大酒楼","lon":"121.13968658","lat":"31.150260925","category":"75","category_name":"浙江菜","address":"青浦区华青路100号(近公园东路)"},{"poiid":"B2094757D068A4F5419A","title":"帕缇欧香苑","lon":"121.1250559","lat":"31.141070094","category":"252","category_name":"楼宇机构","address":"上海青浦区外青松公路6666弄"},{"poiid":"B2094757D064A7F4409D","title":"蓝山咖啡(青浦店)","lon":"121.1367","lat":"31.14814","category":"65","category_name":"咖啡厅","address":"青浦区华青南路800弄1-3号(华浦南路青龙路)"},{"poiid":"B2094654DA6BABF94593","title":"运杰城市花园(华青南路)","lon":"121.13467","lat":"31.14449","category":"47","category_name":"住宅区","address":"上海市宝山区聚丰园路303号"},{"poiid":"B2094654DA6BABFB459C","title":"夏阳湖国际花园","lon":"121.13573","lat":"31.146868","category":"47","category_name":"住宅区","address":"上海市青浦区青湖路800弄"},{"poiid":"B2094752D26FABF84593","title":"巴黎纯K量贩式KTV","lon":"121.134186","lat":"31.146301","category":"170","category_name":"KTV","address":"上海市青浦区华青南路511号"},{"poiid":"B2094750D568A0F94392","title":"香港纯Kparyt","lon":"121.126731","lat":"31.146087","category":"170","category_name":"KTV","address":"青浦区青湖路晨兴国际"},{"poiid":"B2094654DA6BABFA409D","title":"梦丹苑","lon":"121.13171","lat":"31.146254","category":"47","category_name":"住宅区","address":"青湖路4625弄"},{"poiid":"B2094654DA6BA4FF4993","title":"上海工商信息学校","lon":"121.13098","lat":"31.15174","category":"55","category_name":"中学","address":"青浦区公园东路2025号(近青浦区电视台)"},{"poiid":"B2094757D568A4FB4998","title":"巴黎之夜","lon":"121.13402018","lat":"31.14663628","category":"170","category_name":"KTV","address":"青浦区华青南路511号(近青湖路)"},{"poiid":"B2094655D36CA5FF4392","title":"城中东路保安路","lon":"121.12422","lat":"31.14644","category":"38","category_name":"公交车站","address":""},{"poiid":"B2094757D46AA4F94699","title":"太麻里台湾私房牛肉面馆 青湖店","lon":"121.133558","lat":"31.145971","category":"91","category_name":"台湾菜","address":"青浦区青湖路914号"},{"poiid":"B2094757D06BA3FF479E","title":"仁恒运杰河滨花苑","lon":"121.12885939","lat":"31.140946384","category":"252","category_name":"楼宇机构","address":"上海青浦区外青松公路6999弄"},{"poiid":"B2094757D064A4FE489B","title":"上岛咖啡(青湖路店)","lon":"121.134193571","lat":"31.1456604768","category":"65","category_name":"咖啡厅","address":"青浦区青湖路879号(近华青南路)"},{"poiid":"B2094750D565A5F4479B","title":"宝燕海鲜酒楼","lon":"121.13417","lat":"31.146339","category":"247","category_name":"餐饮美食","address":"青浦区华青南路505号(清湖路口)"},{"poiid":"B2094757D16EA5FC4493","title":"吉祥馄饨(青湖路店)","lon":"121.1334247","lat":"31.1457509","category":"68","category_name":"快餐厅","address":"青浦区青湖路917号"},{"poiid":"B2094757D06BABFF4693","title":"青浦区政府","lon":"121.12415141","lat":"31.15036197","category":"500","category_name":"未知分类","address":"上海公园路100号"},{"poiid":"B2094654DA6BA4FB459B","title":"多味坊土菜馆","lon":"121.13249","lat":"31.14557","category":"257","category_name":"中餐厅","address":"青浦区青湖路945号"},{"poiid":"B2094751D465A2FE479D","title":"末可甜品小屋","lon":"121.131406","lat":"31.156118","category":"247","category_name":"餐饮美食","address":"青浦区公园东路1688弄23号(近中山医院)"},{"poiid":"B2094757D16DABFE479F","title":"四海游龙(青湖路店)","lon":"121.1333","lat":"31.14572","category":"87","category_name":"特色／地方风味餐厅","address":"上海近郊青浦区青湖路902号东侧(近外青松公路)  "},{"poiid":"B2094757D168A7FD4493","title":"夏阳湖","lon":"121.134762","lat":"31.146866","category":"500","category_name":"未知分类","address":"上海华浦南路699弄13#802"},{"poiid":"B2094757D56EA0FA489E","title":"重庆鸡公煲(青湖路店)","lon":"121.1343527","lat":"31.14579425","category":"71","category_name":"四川菜","address":"青浦区青湖路"},{"poiid":"B209475DD46FA0FD499B","title":"珑料理 怀石","lon":"121.133659","lat":"31.146356","category":"247","category_name":"餐饮美食","address":"上海市 上海市青浦区华青南路505号"},{"poiid":"B2094654DB65A7FF469F","title":"巴比馒头 青湖路店 Babi Food","lon":"121.13336","lat":"31.14584","category":"87","category_name":"特色／地方风味餐厅","address":"青浦区青湖路910号(近华青南路)"},{"poiid":"B2094751D56CAAFA4992","title":"小阁楼(青湖路店)","lon":"121.13161","lat":"31.14554","category":"71","category_name":"四川菜","address":"青浦区青湖路975号(近外青松公路)"},{"poiid":"B2094753D268A0FA4999","title":"上井精致创作料理","lon":"121.130565","lat":"31.146973","category":"247","category_name":"餐饮美食","address":"上海市 运杰城市花园"},{"poiid":"B2094654DA6BA4FB449E","title":"公园大观吉富绅花园","lon":"121.13375","lat":"31.15561","category":"47","category_name":"住宅区","address":"上海市青浦区公园东路1688号"},{"poiid":"B2094751D56CA0F5459D","title":"屋企汤馆(青龙路店)","lon":"121.13623","lat":"31.14746","category":"257","category_name":"中餐厅","address":"青浦区青龙路55号"},{"poiid":"B2094655D36DA7F8499B","title":"中山医院青浦分院","lon":"121.13481","lat":"31.15335","category":"38","category_name":"公交车站","address":""},{"poiid":"B2094655D36CA2F84199","title":"青湖路华青路","lon":"121.13242","lat":"31.14581","category":"38","category_name":"公交车站","address":""},{"poiid":"B2094757D16FA5F8429E","title":"金色淡水","lon":"121.131923071","lat":"31.1441594467","category":"68","category_name":"快餐厅","address":"青浦区青峰路71号(新华骥苑对面)"},{"poiid":"B2094654DA6BABF9469C","title":"华骥小区1号门","lon":"121.13148","lat":"31.14469","category":"47","category_name":"住宅区","address":"青浦镇"},{"poiid":"B2094655D36CA7F4469E","title":"桂花园青浦","lon":"121.13511898718","lat":"31.151869426536","category":"38","category_name":"公交车站","address":"沪青平公路4555弄"},{"poiid":"B2094655D36CA2F8419E","title":"青湖路梦丹苑","lon":"121.13243","lat":"31.14578","category":"38","category_name":"公交车站","address":""},{"poiid":"B2094654DA6BABFA459C","title":"好德(青湖路)","lon":"121.13211","lat":"31.14599","category":"117","category_name":"便民商店/便利店","address":"青湖路954"},{"poiid":"B2094757D06AABF9449D","title":"THE NORTH FACE(奥特莱斯店)","lon":"121.131796071","lat":"31.1473455106","category":"140","category_name":"体育用品店","address":"上海近郊青浦区沪青平公路2888号奥特莱斯B149(近嘉松中路)  "},{"poiid":"B209475DD169A1FA4293","title":"蝴蝶","lon":"121.132865","lat":"31.147716","category":"249","category_name":"购物服务","address":"上海市 青湖路"},{"poiid":"B2094654DB69A5F84793","title":"文峰美容美发(青湖路店)","lon":"121.13498","lat":"31.1456","category":"148","category_name":"美容美发店","address":"青浦区青湖路799号"},{"poiid":"B2094757D169ABF5489C","title":"新城海鲜酒楼","lon":"121.135701671","lat":"31.1454002716","category":"247","category_name":"餐饮美食","address":"青浦区青湖路802号(近运杰城市花园)"},{"poiid":"B2094750DA65A3FD409F","title":"艾尼国际美容美发","lon":"121.134162","lat":"31.146316","category":"148","category_name":"美容美发店","address":"青湖路"},{"poiid":"B2094757D168A2FF4092","title":"静怡花园","lon":"121.13539","lat":"31.14737","category":"47","category_name":"住宅区","address":"青浦区青龙路35号(近青湖路)"},{"poiid":"B2094655D265ABF9459A","title":"顺中诚","lon":"121.13162","lat":"31.14556","category":"257","category_name":"中餐厅","address":"上海近郊青浦区青湖路975号  "}]