[{"poiid":"B2094757D068A3F9439E","title":"自由港量贩式KTV(青浦店)","lon":"121.12195","lat":"31.14887","category":"170","category_name":"KTV","address":"青浦区公园路258号(浦仓路口)"},{"poiid":"B2094654DA6BA6FC429B","title":"上海市青浦区体育场","lon":"121.11895","lat":"31.15216","category":"224","category_name":"综合体育馆","address":"体育场路1号"},{"poiid":"B2094757D06BABFF4693","title":"青浦区政府","lon":"121.12415141","lat":"31.15036197","category":"500","category_name":"未知分类","address":"上海公园路100号"},{"poiid":"B2094757D168A7FF4192","title":"青浦党校","lon":"121.12828703","lat":"31.156762895","category":"253","category_name":"校园生活","address":"上海华科路"},{"poiid":"B2094757D06BA4FA499D","title":"青浦区行政服务中心","lon":"121.12342184","lat":"31.152591323","category":"500","category_name":"未知分类","address":"上海近郊青浦区外青松公路6189号"},{"poiid":"B2094757D664A3F54799","title":"七欣天迷宗蟹 青浦店","lon":"121.119998","lat":"31.153206","category":"86","category_name":"火锅店","address":"青浦区沙埭浜路35-39号(近体育场路)"},{"poiid":"B2094655D36CA5FF4392","title":"城中东路保安路","lon":"121.12422","lat":"31.14644","category":"38","category_name":"公交车站","address":""},{"poiid":"B2094757D06AA1F5419F","title":"榕港海鲜大酒楼(青浦店)","lon":"121.12135","lat":"31.15832","category":"88","category_name":"海鲜酒楼","address":"青浦区浦仓路888号(近盈港路)"},{"poiid":"B2094757D165A7F54198","title":"青浦教师进修学院","lon":"121.12072706","lat":"31.148430402","category":"253","category_name":"校园生活","address":"上海青浦"},{"poiid":"B2094757D06BA7FA419A","title":"雪岳山韩国烧烤(青浦店)","lon":"121.11878","lat":"31.15339","category":"96","category_name":"韩国料理","address":"青浦区沙埭浜路124号(近青安路)"},{"poiid":"B2094654DA6BA4FF4993","title":"上海工商信息学校","lon":"121.13098","lat":"31.15174","category":"55","category_name":"中学","address":"青浦区公园东路2025号(近青浦区电视台)"},{"poiid":"B2094757D068A3F8439C","title":"85度C 青浦店","lon":"121.12089","lat":"31.14898","category":"112","category_name":"糕饼店","address":"青浦区公园路300号农工商超市旁(浦仓路公园路)"},{"poiid":"B2094757D169A3FB4693","title":"宋记香辣蟹 浦仓路店","lon":"121.12133","lat":"31.1518","category":"71","category_name":"四川菜","address":"青浦区浦仓路528号(近青浦体育场)"},{"poiid":"B2094757D06BA4FA489B","title":"迪欧咖啡(青浦店)","lon":"121.12578","lat":"31.14938","category":"65","category_name":"咖啡厅","address":"青浦区公园路99号(公园路外青松公路)"},{"poiid":"B2094757D66EA5F94999","title":"咔浓咖啡","lon":"121.119855035","lat":"31.1505348737","category":"65","category_name":"咖啡厅","address":"青浦区欧洲街74弄3号"},{"poiid":"B2094654DA6BA6FC469C","title":"农工商超市NO.50","lon":"121.12065","lat":"31.14896","category":"118","category_name":"超级市场","address":"青浦镇"},{"poiid":"B2094757D16CA0FC479C","title":"龙满楼","lon":"121.125225","lat":"31.1558858","category":"76","category_name":"上海菜","address":"青浦区外青松公路6048弄16号(近界泾港路)"},{"poiid":"B2094757D16CA0FB499B","title":"世田造型","lon":"121.120825","lat":"31.150514","category":"148","category_name":"美容美发店","address":"上海浦仓路"},{"poiid":"B2094655D268A4FD469D","title":"大豪公寓(南门)","lon":"121.12429","lat":"31.15223","category":"47","category_name":"住宅区","address":""},{"poiid":"B2094654DA6BA5FF489A","title":"青浦大厦","lon":"121.124","lat":"31.1538","category":"46","category_name":"楼宇","address":"公园东路1818号"},{"poiid":"B2094654DA6BA6F8469A","title":"好德N0.132","lon":"121.12413","lat":"31.15223","category":"117","category_name":"便民商店/便利店","address":"体育场路90"},{"poiid":"B2094750DA65A6F4409B","title":"朱家角镇","lon":"121.121879","lat":"31.151987","category":"500","category_name":"未知分类","address":null},{"poiid":"B2094757D169AAF8489C","title":"青浦区社保中心","lon":"121.122893","lat":"31.149602","category":"500","category_name":"未知分类","address":"上海公园路200号"},{"poiid":"B2094757D16FA2F94693","title":"欧洲街","lon":"121.125363","lat":"31.150549","category":"500","category_name":"未知分类","address":"上海青浦区公园路"},{"poiid":"B2094655D26FABFB4199","title":"新青浦花苑华源别墅(南门)","lon":"121.12453","lat":"31.15228","category":"47","category_name":"住宅区","address":"体育场路68弄"},{"poiid":"B2094654DA6BA7FB4798","title":"蔡师傅面馆","lon":"121.12157","lat":"31.15144","category":"87","category_name":"特色／地方风味餐厅","address":"青浦区体育场路(近浦仓路)"},{"poiid":"B2094654DA6BA6F8469F","title":"上海申生宠物诊疗有限公司","lon":"121.12347","lat":"31.15211","category":"162","category_name":"医院","address":"青浦区体育场路122-124号"},{"poiid":"B2094654DA6BA6FD419B","title":"上海市青浦区科技文化活动中心","lon":"121.12564","lat":"31.15055","category":"248","category_name":"生活娱乐","address":"公园路78-80"},{"poiid":"B2094654DA6BA1F44493","title":"上海市电力公司青浦供电分公司","lon":"121.12709","lat":"31.15271","category":"263","category_name":"公司","address":"外青松公路6155号"},{"poiid":"B2094654DA6BA5FE449C","title":"友谊酒家","lon":"121.12075433399","lat":"31.149022380998","category":"76","category_name":"上海菜","address":"青浦区公园路197号(近外青松公路)"},{"poiid":"B2094757D16EA5FA479D","title":"界泾港三期","lon":"121.121164035","lat":"31.1540609425","category":"47","category_name":"住宅区","address":"上海青浦区浦仓路"},{"poiid":"B2094654DA6BA5FE409C","title":"舜浦大厦","lon":"121.12488","lat":"31.14919","category":"46","category_name":"楼宇","address":"上海青浦区公园路99号"},{"poiid":"B2094655D268A4FC4898","title":"界泾港新村(南门)","lon":"121.12215","lat":"31.1519","category":"47","category_name":"住宅区","address":""},{"poiid":"B2094654DA6BA0F8459D","title":"上海华源复合新材料有限公司行政办公楼","lon":"121.12593","lat":"31.15479","category":"46","category_name":"楼宇","address":"外青松公路6085"},{"poiid":"B2094757D56DA7FF4192","title":"粥聚阁","lon":"121.11840963364","lat":"31.153810074222","category":"72","category_name":"广东菜","address":"青浦区沙埭浜路128号(近青安路)"},{"poiid":"B2094757D06AAAF8419A","title":"体育场路","lon":"121.122568","lat":"31.151982","category":"260","category_name":"其他","address":"上海青浦区体育场路"},{"poiid":"B2094655D268A6FC419E","title":"青浦区文化馆影视厅","lon":"121.125635","lat":"31.150531","category":"178","category_name":"电影院","address":""},{"poiid":"B2094654DA6BA6FD4092","title":"中国农业银行上海市青浦支行","lon":"121.12611","lat":"31.15078","category":"150","category_name":"银行","address":"青浦镇"},{"poiid":"B2094757D66CA7FF459E","title":"越岭阁(青浦店)","lon":"121.12066","lat":"31.14847","category":"96","category_name":"韩国料理","address":"青浦区公园路209号(近浦仓路)"},{"poiid":"B2094757D16EAAF94992","title":"鼎萃食坊(桥梓湾店)","lon":"121.12837","lat":"31.1509","category":"247","category_name":"餐饮美食","address":"青浦区公园路666弄11号桥梓湾购物中心广场外圈(聚星街公园路)"},{"poiid":"B2094654DA6BA6FC4592","title":"晨兴花园","lon":"121.12223","lat":"31.1503","category":"47","category_name":"住宅区","address":"青浦镇"},{"poiid":"B2094655D268A4FC489A","title":"新青浦花苑一区","lon":"121.1243","lat":"31.155605","category":"47","category_name":"住宅区","address":""},{"poiid":"B2094757D66EAAFB4599","title":"清泉会所","lon":"121.12198703","lat":"31.152011902","category":"148","category_name":"美容美发店","address":"上海青浦区体育场路"},{"poiid":"B2094654DA6BA6FD419E","title":"上海市青浦区科学技术协会","lon":"121.12536","lat":"31.15055","category":"250","category_name":"公园户外","address":"公园路78-80"},{"poiid":"B2094655D26FABFA4193","title":"青浦界泾新邨(西门)","lon":"121.1214","lat":"31.15403","category":"47","category_name":"住宅区","address":"浦仓路648弄"},{"poiid":"B2094757D66DABF94092","title":"公园路浦仓路","lon":"121.121648035","lat":"31.1553819683","category":"196","category_name":"公园","address":"上海公园路浦仓路十字路口"},{"poiid":"B2094654DA6BA6FC4193","title":"青浦游泳馆","lon":"121.12051","lat":"31.15202","category":"231","category_name":"游泳馆","address":"青浦区浦仓路535号(欧洲街体育场路)"},{"poiid":"B2094654DA6BA7F84493","title":"四兴大楼","lon":"121.12","lat":"31.1525","category":"46","category_name":"楼宇","address":"城中东路626号"},{"poiid":"B2094654DA6BA7FB469D","title":"小食坊龙虾馆","lon":"121.12136","lat":"31.15141","category":"88","category_name":"海鲜酒楼","address":""},{"poiid":"B2094654DA6BA7F54492","title":"春汝拉面店","lon":"121.121","lat":"31.15591","category":"257","category_name":"中餐厅","address":"青浦区浦仓路777号"},{"poiid":"B2094757D068A3F9439E","title":"自由港量贩式KTV(青浦店)","lon":"121.12195","lat":"31.14887","category":"170","category_name":"KTV","address":"青浦区公园路258号(浦仓路口)"},{"poiid":"B2094654DA6BA6FC429B","title":"上海市青浦区体育场","lon":"121.11895","lat":"31.15216","category":"224","category_name":"综合体育馆","address":"体育场路1号"},{"poiid":"B2094757D06BABFF4693","title":"青浦区政府","lon":"121.12415141","lat":"31.15036197","category":"500","category_name":"未知分类","address":"上海公园路100号"},{"poiid":"B2094757D168A7FF4192","title":"青浦党校","lon":"121.12828703","lat":"31.156762895","category":"253","category_name":"校园生活","address":"上海华科路"},{"poiid":"B2094757D06BA4FA499D","title":"青浦区行政服务中心","lon":"121.12342184","lat":"31.152591323","category":"500","category_name":"未知分类","address":"上海近郊青浦区外青松公路6189号"},{"poiid":"B2094757D664A3F54799","title":"七欣天迷宗蟹 青浦店","lon":"121.119998","lat":"31.153206","category":"86","category_name":"火锅店","address":"青浦区沙埭浜路35-39号(近体育场路)"},{"poiid":"B2094655D36CA5FF4392","title":"城中东路保安路","lon":"121.12422","lat":"31.14644","category":"38","category_name":"公交车站","address":""},{"poiid":"B2094757D06AA1F5419F","title":"榕港海鲜大酒楼(青浦店)","lon":"121.12135","lat":"31.15832","category":"88","category_name":"海鲜酒楼","address":"青浦区浦仓路888号(近盈港路)"},{"poiid":"B2094757D165A7F54198","title":"青浦教师进修学院","lon":"121.12072706","lat":"31.148430402","category":"253","category_name":"校园生活","address":"上海青浦"},{"poiid":"B2094757D06BA7FA419A","title":"雪岳山韩国烧烤(青浦店)","lon":"121.11878","lat":"31.15339","category":"96","category_name":"韩国料理","address":"青浦区沙埭浜路124号(近青安路)"},{"poiid":"B2094654DA6BA4FF4993","title":"上海工商信息学校","lon":"121.13098","lat":"31.15174","category":"55","category_name":"中学","address":"青浦区公园东路2025号(近青浦区电视台)"},{"poiid":"B2094757D068A3F8439C","title":"85度C 青浦店","lon":"121.12089","lat":"31.14898","category":"112","category_name":"糕饼店","address":"青浦区公园路300号农工商超市旁(浦仓路公园路)"},{"poiid":"B2094757D169A3FB4693","title":"宋记香辣蟹 浦仓路店","lon":"121.12133","lat":"31.1518","category":"71","category_name":"四川菜","address":"青浦区浦仓路528号(近青浦体育场)"},{"poiid":"B2094757D06BA4FA489B","title":"迪欧咖啡(青浦店)","lon":"121.12578","lat":"31.14938","category":"65","category_name":"咖啡厅","address":"青浦区公园路99号(公园路外青松公路)"},{"poiid":"B2094757D66EA5F94999","title":"咔浓咖啡","lon":"121.119855035","lat":"31.1505348737","category":"65","category_name":"咖啡厅","address":"青浦区欧洲街74弄3号"},{"poiid":"B2094654DA6BA6FC469C","title":"农工商超市NO.50","lon":"121.12065","lat":"31.14896","category":"118","category_name":"超级市场","address":"青浦镇"},{"poiid":"B2094757D16CA0FC479C","title":"龙满楼","lon":"121.125225","lat":"31.1558858","category":"76","category_name":"上海菜","address":"青浦区外青松公路6048弄16号(近界泾港路)"},{"poiid":"B2094757D16CA0FB499B","title":"世田造型","lon":"121.120825","lat":"31.150514","category":"148","category_name":"美容美发店","address":"上海浦仓路"},{"poiid":"B2094655D268A4FD469D","title":"大豪公寓(南门)","lon":"121.12429","lat":"31.15223","category":"47","category_name":"住宅区","address":""},{"poiid":"B2094654DA6BA5FF489A","title":"青浦大厦","lon":"121.124","lat":"31.1538","category":"46","category_name":"楼宇","address":"公园东路1818号"},{"poiid":"B2094654DA6BA6F8469A","title":"好德N0.132","lon":"121.12413","lat":"31.15223","category":"117","category_name":"便民商店/便利店","address":"体育场路90"},{"poiid":"B2094750DA65A6F4409B","title":"朱家角镇","lon":"121.121879","lat":"31.151987","category":"500","category_name":"未知分类","address":null},{"poiid":"B2094757D169AAF8489C","title":"青浦区社保中心","lon":"121.122893","lat":"31.149602","category":"500","category_name":"未知分类","address":"上海公园路200号"},{"poiid":"B2094757D16FA2F94693","title":"欧洲街","lon":"121.125363","lat":"31.150549","category":"500","category_name":"未知分类","address":"上海青浦区公园路"},{"poiid":"B2094655D26FABFB4199","title":"新青浦花苑华源别墅(南门)","lon":"121.12453","lat":"31.15228","category":"47","category_name":"住宅区","address":"体育场路68弄"},{"poiid":"B2094654DA6BA7FB4798","title":"蔡师傅面馆","lon":"121.12157","lat":"31.15144","category":"87","category_name":"特色／地方风味餐厅","address":"青浦区体育场路(近浦仓路)"},{"poiid":"B2094654DA6BA6F8469F","title":"上海申生宠物诊疗有限公司","lon":"121.12347","lat":"31.15211","category":"162","category_name":"医院","address":"青浦区体育场路122-124号"},{"poiid":"B2094654DA6BA6FD419B","title":"上海市青浦区科技文化活动中心","lon":"121.12564","lat":"31.15055","category":"248","category_name":"生活娱乐","address":"公园路78-80"},{"poiid":"B2094654DA6BA1F44493","title":"上海市电力公司青浦供电分公司","lon":"121.12709","lat":"31.15271","category":"263","category_name":"公司","address":"外青松公路6155号"},{"poiid":"B2094654DA6BA5FE449C","title":"友谊酒家","lon":"121.12075433399","lat":"31.149022380998","category":"76","category_name":"上海菜","address":"青浦区公园路197号(近外青松公路)"},{"poiid":"B2094757D16EA5FA479D","title":"界泾港三期","lon":"121.121164035","lat":"31.1540609425","category":"47","category_name":"住宅区","address":"上海青浦区浦仓路"},{"poiid":"B2094654DA6BA5FE409C","title":"舜浦大厦","lon":"121.12488","lat":"31.14919","category":"46","category_name":"楼宇","address":"上海青浦区公园路99号"},{"poiid":"B2094655D268A4FC4898","title":"界泾港新村(南门)","lon":"121.12215","lat":"31.1519","category":"47","category_name":"住宅区","address":""},{"poiid":"B2094654DA6BA0F8459D","title":"上海华源复合新材料有限公司行政办公楼","lon":"121.12593","lat":"31.15479","category":"46","category_name":"楼宇","address":"外青松公路6085"},{"poiid":"B2094757D56DA7FF4192","title":"粥聚阁","lon":"121.11840963364","lat":"31.153810074222","category":"72","category_name":"广东菜","address":"青浦区沙埭浜路128号(近青安路)"},{"poiid":"B2094757D06AAAF8419A","title":"体育场路","lon":"121.122568","lat":"31.151982","category":"260","category_name":"其他","address":"上海青浦区体育场路"},{"poiid":"B2094655D268A6FC419E","title":"青浦区文化馆影视厅","lon":"121.125635","lat":"31.150531","category":"178","category_name":"电影院","address":""},{"poiid":"B2094654DA6BA6FD4092","title":"中国农业银行上海市青浦支行","lon":"121.12611","lat":"31.15078","category":"150","category_name":"银行","address":"青浦镇"},{"poiid":"B2094757D66CA7FF459E","title":"越岭阁(青浦店)","lon":"121.12066","lat":"31.14847","category":"96","category_name":"韩国料理","address":"青浦区公园路209号(近浦仓路)"},{"poiid":"B2094757D16EAAF94992","title":"鼎萃食坊(桥梓湾店)","lon":"121.12837","lat":"31.1509","category":"247","category_name":"餐饮美食","address":"青浦区公园路666弄11号桥梓湾购物中心广场外圈(聚星街公园路)"},{"poiid":"B2094654DA6BA6FC4592","title":"晨兴花园","lon":"121.12223","lat":"31.1503","category":"47","category_name":"住宅区","address":"青浦镇"},{"poiid":"B2094655D268A4FC489A","title":"新青浦花苑一区","lon":"121.1243","lat":"31.155605","category":"47","category_name":"住宅区","address":""},{"poiid":"B2094757D66EAAFB4599","title":"清泉会所","lon":"121.12198703","lat":"31.152011902","category":"148","category_name":"美容美发店","address":"上海青浦区体育场路"},{"poiid":"B2094654DA6BA6FD419E","title":"上海市青浦区科学技术协会","lon":"121.12536","lat":"31.15055","category":"250","category_name":"公园户外","address":"公园路78-80"},{"poiid":"B2094655D26FABFA4193","title":"青浦界泾新邨(西门)","lon":"121.1214","lat":"31.15403","category":"47","category_name":"住宅区","address":"浦仓路648弄"},{"poiid":"B2094757D66DABF94092","title":"公园路浦仓路","lon":"121.121648035","lat":"31.1553819683","category":"196","category_name":"公园","address":"上海公园路浦仓路十字路口"},{"poiid":"B2094654DA6BA6FC4193","title":"青浦游泳馆","lon":"121.12051","lat":"31.15202","category":"231","category_name":"游泳馆","address":"青浦区浦仓路535号(欧洲街体育场路)"},{"poiid":"B2094654DA6BA7F84493","title":"四兴大楼","lon":"121.12","lat":"31.1525","category":"46","category_name":"楼宇","address":"城中东路626号"},{"poiid":"B2094654DA6BA7FB469D","title":"小食坊龙虾馆","lon":"121.12136","lat":"31.15141","category":"88","category_name":"海鲜酒楼","address":""},{"poiid":"B2094654DA6BA7F54492","title":"春汝拉面店","lon":"121.121","lat":"31.15591","category":"257","category_name":"中餐厅","address":"青浦区浦仓路777号"},{"poiid":"B2094757D068A3F9439E","title":"自由港量贩式KTV(青浦店)","lon":"121.12195","lat":"31.14887","category":"170","category_name":"KTV","address":"青浦区公园路258号(浦仓路口)"},{"poiid":"B2094654DA6BA6FC429B","title":"上海市青浦区体育场","lon":"121.11895","lat":"31.15216","category":"224","category_name":"综合体育馆","address":"体育场路1号"},{"poiid":"B2094757D06BABFF4693","title":"青浦区政府","lon":"121.12415141","lat":"31.15036197","category":"500","category_name":"未知分类","address":"上海公园路100号"},{"poiid":"B2094757D168A7FF4192","title":"青浦党校","lon":"121.12828703","lat":"31.156762895","category":"253","category_name":"校园生活","address":"上海华科路"},{"poiid":"B2094757D06BA4FA499D","title":"青浦区行政服务中心","lon":"121.12342184","lat":"31.152591323","category":"500","category_name":"未知分类","address":"上海近郊青浦区外青松公路6189号"},{"poiid":"B2094757D664A3F54799","title":"七欣天迷宗蟹 青浦店","lon":"121.119998","lat":"31.153206","category":"86","category_name":"火锅店","address":"青浦区沙埭浜路35-39号(近体育场路)"},{"poiid":"B2094655D36CA5FF4392","title":"城中东路保安路","lon":"121.12422","lat":"31.14644","category":"38","category_name":"公交车站","address":""},{"poiid":"B2094757D06AA1F5419F","title":"榕港海鲜大酒楼(青浦店)","lon":"121.12135","lat":"31.15832","category":"88","category_name":"海鲜酒楼","address":"青浦区浦仓路888号(近盈港路)"},{"poiid":"B2094757D165A7F54198","title":"青浦教师进修学院","lon":"121.12072706","lat":"31.148430402","category":"253","category_name":"校园生活","address":"上海青浦"},{"poiid":"B2094757D06BA7FA419A","title":"雪岳山韩国烧烤(青浦店)","lon":"121.11878","lat":"31.15339","category":"96","category_name":"韩国料理","address":"青浦区沙埭浜路124号(近青安路)"},{"poiid":"B2094654DA6BA4FF4993","title":"上海工商信息学校","lon":"121.13098","lat":"31.15174","category":"55","category_name":"中学","address":"青浦区公园东路2025号(近青浦区电视台)"},{"poiid":"B2094757D068A3F8439C","title":"85度C 青浦店","lon":"121.12089","lat":"31.14898","category":"112","category_name":"糕饼店","address":"青浦区公园路300号农工商超市旁(浦仓路公园路)"},{"poiid":"B2094757D169A3FB4693","title":"宋记香辣蟹 浦仓路店","lon":"121.12133","lat":"31.1518","category":"71","category_name":"四川菜","address":"青浦区浦仓路528号(近青浦体育场)"},{"poiid":"B2094757D06BA4FA489B","title":"迪欧咖啡(青浦店)","lon":"121.12578","lat":"31.14938","category":"65","category_name":"咖啡厅","address":"青浦区公园路99号(公园路外青松公路)"},{"poiid":"B2094757D66EA5F94999","title":"咔浓咖啡","lon":"121.119855035","lat":"31.1505348737","category":"65","category_name":"咖啡厅","address":"青浦区欧洲街74弄3号"},{"poiid":"B2094654DA6BA6FC469C","title":"农工商超市NO.50","lon":"121.12065","lat":"31.14896","category":"118","category_name":"超级市场","address":"青浦镇"},{"poiid":"B2094757D16CA0FC479C","title":"龙满楼","lon":"121.125225","lat":"31.1558858","category":"76","category_name":"上海菜","address":"青浦区外青松公路6048弄16号(近界泾港路)"},{"poiid":"B2094757D16CA0FB499B","title":"世田造型","lon":"121.120825","lat":"31.150514","category":"148","category_name":"美容美发店","address":"上海浦仓路"},{"poiid":"B2094655D268A4FD469D","title":"大豪公寓(南门)","lon":"121.12429","lat":"31.15223","category":"47","category_name":"住宅区","address":""},{"poiid":"B2094654DA6BA5FF489A","title":"青浦大厦","lon":"121.124","lat":"31.1538","category":"46","category_name":"楼宇","address":"公园东路1818号"},{"poiid":"B2094654DA6BA6F8469A","title":"好德N0.132","lon":"121.12413","lat":"31.15223","category":"117","category_name":"便民商店/便利店","address":"体育场路90"},{"poiid":"B2094750DA65A6F4409B","title":"朱家角镇","lon":"121.121879","lat":"31.151987","category":"500","category_name":"未知分类","address":null},{"poiid":"B2094757D169AAF8489C","title":"青浦区社保中心","lon":"121.122893","lat":"31.149602","category":"500","category_name":"未知分类","address":"上海公园路200号"},{"poiid":"B2094757D16FA2F94693","title":"欧洲街","lon":"121.125363","lat":"31.150549","category":"500","category_name":"未知分类","address":"上海青浦区公园路"},{"poiid":"B2094655D26FABFB4199","title":"新青浦花苑华源别墅(南门)","lon":"121.12453","lat":"31.15228","category":"47","category_name":"住宅区","address":"体育场路68弄"},{"poiid":"B2094654DA6BA7FB4798","title":"蔡师傅面馆","lon":"121.12157","lat":"31.15144","category":"87","category_name":"特色／地方风味餐厅","address":"青浦区体育场路(近浦仓路)"},{"poiid":"B2094654DA6BA6F8469F","title":"上海申生宠物诊疗有限公司","lon":"121.12347","lat":"31.15211","category":"162","category_name":"医院","address":"青浦区体育场路122-124号"},{"poiid":"B2094654DA6BA6FD419B","title":"上海市青浦区科技文化活动中心","lon":"121.12564","lat":"31.15055","category":"248","category_name":"生活娱乐","address":"公园路78-80"},{"poiid":"B2094654DA6BA1F44493","title":"上海市电力公司青浦供电分公司","lon":"121.12709","lat":"31.15271","category":"263","category_name":"公司","address":"外青松公路6155号"},{"poiid":"B2094654DA6BA5FE449C","title":"友谊酒家","lon":"121.12075433399","lat":"31.149022380998","category":"76","category_name":"上海菜","address":"青浦区公园路197号(近外青松公路)"},{"poiid":"B2094757D16EA5FA479D","title":"界泾港三期","lon":"121.121164035","lat":"31.1540609425","category":"47","category_name":"住宅区","address":"上海青浦区浦仓路"},{"poiid":"B2094654DA6BA5FE409C","title":"舜浦大厦","lon":"121.12488","lat":"31.14919","category":"46","category_name":"楼宇","address":"上海青浦区公园路99号"},{"poiid":"B2094655D268A4FC4898","title":"界泾港新村(南门)","lon":"121.12215","lat":"31.1519","category":"47","category_name":"住宅区","address":""},{"poiid":"B2094654DA6BA0F8459D","title":"上海华源复合新材料有限公司行政办公楼","lon":"121.12593","lat":"31.15479","category":"46","category_name":"楼宇","address":"外青松公路6085"},{"poiid":"B2094757D56DA7FF4192","title":"粥聚阁","lon":"121.11840963364","lat":"31.153810074222","category":"72","category_name":"广东菜","address":"青浦区沙埭浜路128号(近青安路)"},{"poiid":"B2094757D06AAAF8419A","title":"体育场路","lon":"121.122568","lat":"31.151982","category":"260","category_name":"其他","address":"上海青浦区体育场路"},{"poiid":"B2094655D268A6FC419E","title":"青浦区文化馆影视厅","lon":"121.125635","lat":"31.150531","category":"178","category_name":"电影院","address":""},{"poiid":"B2094654DA6BA6FD4092","title":"中国农业银行上海市青浦支行","lon":"121.12611","lat":"31.15078","category":"150","category_name":"银行","address":"青浦镇"},{"poiid":"B2094757D66CA7FF459E","title":"越岭阁(青浦店)","lon":"121.12066","lat":"31.14847","category":"96","category_name":"韩国料理","address":"青浦区公园路209号(近浦仓路)"},{"poiid":"B2094757D16EAAF94992","title":"鼎萃食坊(桥梓湾店)","lon":"121.12837","lat":"31.1509","category":"247","category_name":"餐饮美食","address":"青浦区公园路666弄11号桥梓湾购物中心广场外圈(聚星街公园路)"},{"poiid":"B2094654DA6BA6FC4592","title":"晨兴花园","lon":"121.12223","lat":"31.1503","category":"47","category_name":"住宅区","address":"青浦镇"},{"poiid":"B2094655D268A4FC489A","title":"新青浦花苑一区","lon":"121.1243","lat":"31.155605","category":"47","category_name":"住宅区","address":""},{"poiid":"B2094757D66EAAFB4599","title":"清泉会所","lon":"121.12198703","lat":"31.152011902","category":"148","category_name":"美容美发店","address":"上海青浦区体育场路"},{"poiid":"B2094654DA6BA6FD419E","title":"上海市青浦区科学技术协会","lon":"121.12536","lat":"31.15055","category":"250","category_name":"公园户外","address":"公园路78-80"},{"poiid":"B2094655D26FABFA4193","title":"青浦界泾新邨(西门)","lon":"121.1214","lat":"31.15403","category":"47","category_name":"住宅区","address":"浦仓路648弄"},{"poiid":"B2094757D66DABF94092","title":"公园路浦仓路","lon":"121.121648035","lat":"31.1553819683","category":"196","category_name":"公园","address":"上海公园路浦仓路十字路口"},{"poiid":"B2094654DA6BA6FC4193","title":"青浦游泳馆","lon":"121.12051","lat":"31.15202","category":"231","category_name":"游泳馆","address":"青浦区浦仓路535号(欧洲街体育场路)"},{"poiid":"B2094654DA6BA7F84493","title":"四兴大楼","lon":"121.12","lat":"31.1525","category":"46","category_name":"楼宇","address":"城中东路626号"},{"poiid":"B2094654DA6BA7FB469D","title":"小食坊龙虾馆","lon":"121.12136","lat":"31.15141","category":"88","category_name":"海鲜酒楼","address":""},{"poiid":"B2094654DA6BA7F54492","title":"春汝拉面店","lon":"121.121","lat":"31.15591","category":"257","category_name":"中餐厅","address":"青浦区浦仓路777号"},{"poiid":"B2094757D068A3F9439E","title":"自由港量贩式KTV(青浦店)","lon":"121.12195","lat":"31.14887","category":"170","category_name":"KTV","address":"青浦区公园路258号(浦仓路口)"},{"poiid":"B2094654DA6BA6FC429B","title":"上海市青浦区体育场","lon":"121.11895","lat":"31.15216","category":"224","category_name":"综合体育馆","address":"体育场路1号"},{"poiid":"B2094757D06BABFF4693","title":"青浦区政府","lon":"121.12415141","lat":"31.15036197","category":"500","category_name":"未知分类","address":"上海公园路100号"},{"poiid":"B2094757D168A7FF4192","title":"青浦党校","lon":"121.12828703","lat":"31.156762895","category":"253","category_name":"校园生活","address":"上海华科路"},{"poiid":"B2094757D06BA4FA499D","title":"青浦区行政服务中心","lon":"121.12342184","lat":"31.152591323","category":"500","category_name":"未知分类","address":"上海近郊青浦区外青松公路6189号"},{"poiid":"B2094757D664A3F54799","title":"七欣天迷宗蟹 青浦店","lon":"121.119998","lat":"31.153206","category":"86","category_name":"火锅店","address":"青浦区沙埭浜路35-39号(近体育场路)"},{"poiid":"B2094655D36CA5FF4392","title":"城中东路保安路","lon":"121.12422","lat":"31.14644","category":"38","category_name":"公交车站","address":""},{"poiid":"B2094757D06AA1F5419F","title":"榕港海鲜大酒楼(青浦店)","lon":"121.12135","lat":"31.15832","category":"88","category_name":"海鲜酒楼","address":"青浦区浦仓路888号(近盈港路)"},{"poiid":"B2094757D165A7F54198","title":"青浦教师进修学院","lon":"121.12072706","lat":"31.148430402","category":"253","category_name":"校园生活","address":"上海青浦"},{"poiid":"B2094757D06BA7FA419A","title":"雪岳山韩国烧烤(青浦店)","lon":"121.11878","lat":"31.15339","category":"96","category_name":"韩国料理","address":"青浦区沙埭浜路124号(近青安路)"},{"poiid":"B2094654DA6BA4FF4993","title":"上海工商信息学校","lon":"121.13098","lat":"31.15174","category":"55","category_name":"中学","address":"青浦区公园东路2025号(近青浦区电视台)"},{"poiid":"B2094757D068A3F8439C","title":"85度C 青浦店","lon":"121.12089","lat":"31.14898","category":"112","category_name":"糕饼店","address":"青浦区公园路300号农工商超市旁(浦仓路公园路)"},{"poiid":"B2094757D169A3FB4693","title":"宋记香辣蟹 浦仓路店","lon":"121.12133","lat":"31.1518","category":"71","category_name":"四川菜","address":"青浦区浦仓路528号(近青浦体育场)"},{"poiid":"B2094757D06BA4FA489B","title":"迪欧咖啡(青浦店)","lon":"121.12578","lat":"31.14938","category":"65","category_name":"咖啡厅","address":"青浦区公园路99号(公园路外青松公路)"},{"poiid":"B2094757D66EA5F94999","title":"咔浓咖啡","lon":"121.119855035","lat":"31.1505348737","category":"65","category_name":"咖啡厅","address":"青浦区欧洲街74弄3号"},{"poiid":"B2094654DA6BA6FC469C","title":"农工商超市NO.50","lon":"121.12065","lat":"31.14896","category":"118","category_name":"超级市场","address":"青浦镇"},{"poiid":"B2094757D16CA0FC479C","title":"龙满楼","lon":"121.125225","lat":"31.1558858","category":"76","category_name":"上海菜","address":"青浦区外青松公路6048弄16号(近界泾港路)"},{"poiid":"B2094757D16CA0FB499B","title":"世田造型","lon":"121.120825","lat":"31.150514","category":"148","category_name":"美容美发店","address":"上海浦仓路"},{"poiid":"B2094655D268A4FD469D","title":"大豪公寓(南门)","lon":"121.12429","lat":"31.15223","category":"47","category_name":"住宅区","address":""},{"poiid":"B2094654DA6BA5FF489A","title":"青浦大厦","lon":"121.124","lat":"31.1538","category":"46","category_name":"楼宇","address":"公园东路1818号"},{"poiid":"B2094654DA6BA6F8469A","title":"好德N0.132","lon":"121.12413","lat":"31.15223","category":"117","category_name":"便民商店/便利店","address":"体育场路90"},{"poiid":"B2094750DA65A6F4409B","title":"朱家角镇","lon":"121.121879","lat":"31.151987","category":"500","category_name":"未知分类","address":null},{"poiid":"B2094757D169AAF8489C","title":"青浦区社保中心","lon":"121.122893","lat":"31.149602","category":"500","category_name":"未知分类","address":"上海公园路200号"},{"poiid":"B2094757D16FA2F94693","title":"欧洲街","lon":"121.125363","lat":"31.150549","category":"500","category_name":"未知分类","address":"上海青浦区公园路"},{"poiid":"B2094655D26FABFB4199","title":"新青浦花苑华源别墅(南门)","lon":"121.12453","lat":"31.15228","category":"47","category_name":"住宅区","address":"体育场路68弄"},{"poiid":"B2094654DA6BA7FB4798","title":"蔡师傅面馆","lon":"121.12157","lat":"31.15144","category":"87","category_name":"特色／地方风味餐厅","address":"青浦区体育场路(近浦仓路)"},{"poiid":"B2094654DA6BA6F8469F","title":"上海申生宠物诊疗有限公司","lon":"121.12347","lat":"31.15211","category":"162","category_name":"医院","address":"青浦区体育场路122-124号"},{"poiid":"B2094654DA6BA6FD419B","title":"上海市青浦区科技文化活动中心","lon":"121.12564","lat":"31.15055","category":"248","category_name":"生活娱乐","address":"公园路78-80"},{"poiid":"B2094654DA6BA1F44493","title":"上海市电力公司青浦供电分公司","lon":"121.12709","lat":"31.15271","category":"263","category_name":"公司","address":"外青松公路6155号"},{"poiid":"B2094654DA6BA5FE449C","title":"友谊酒家","lon":"121.12075433399","lat":"31.149022380998","category":"76","category_name":"上海菜","address":"青浦区公园路197号(近外青松公路)"},{"poiid":"B2094757D16EA5FA479D","title":"界泾港三期","lon":"121.121164035","lat":"31.1540609425","category":"47","category_name":"住宅区","address":"上海青浦区浦仓路"},{"poiid":"B2094654DA6BA5FE409C","title":"舜浦大厦","lon":"121.12488","lat":"31.14919","category":"46","category_name":"楼宇","address":"上海青浦区公园路99号"},{"poiid":"B2094655D268A4FC4898","title":"界泾港新村(南门)","lon":"121.12215","lat":"31.1519","category":"47","category_name":"住宅区","address":""},{"poiid":"B2094654DA6BA0F8459D","title":"上海华源复合新材料有限公司行政办公楼","lon":"121.12593","lat":"31.15479","category":"46","category_name":"楼宇","address":"外青松公路6085"},{"poiid":"B2094757D56DA7FF4192","title":"粥聚阁","lon":"121.11840963364","lat":"31.153810074222","category":"72","category_name":"广东菜","address":"青浦区沙埭浜路128号(近青安路)"},{"poiid":"B2094757D06AAAF8419A","title":"体育场路","lon":"121.122568","lat":"31.151982","category":"260","category_name":"其他","address":"上海青浦区体育场路"},{"poiid":"B2094655D268A6FC419E","title":"青浦区文化馆影视厅","lon":"121.125635","lat":"31.150531","category":"178","category_name":"电影院","address":""},{"poiid":"B2094654DA6BA6FD4092","title":"中国农业银行上海市青浦支行","lon":"121.12611","lat":"31.15078","category":"150","category_name":"银行","address":"青浦镇"},{"poiid":"B2094757D66CA7FF459E","title":"越岭阁(青浦店)","lon":"121.12066","lat":"31.14847","category":"96","category_name":"韩国料理","address":"青浦区公园路209号(近浦仓路)"},{"poiid":"B2094757D16EAAF94992","title":"鼎萃食坊(桥梓湾店)","lon":"121.12837","lat":"31.1509","category":"247","category_name":"餐饮美食","address":"青浦区公园路666弄11号桥梓湾购物中心广场外圈(聚星街公园路)"},{"poiid":"B2094654DA6BA6FC4592","title":"晨兴花园","lon":"121.12223","lat":"31.1503","category":"47","category_name":"住宅区","address":"青浦镇"},{"poiid":"B2094655D268A4FC489A","title":"新青浦花苑一区","lon":"121.1243","lat":"31.155605","category":"47","category_name":"住宅区","address":""},{"poiid":"B2094757D66EAAFB4599","title":"清泉会所","lon":"121.12198703","lat":"31.152011902","category":"148","category_name":"美容美发店","address":"上海青浦区体育场路"},{"poiid":"B2094654DA6BA6FD419E","title":"上海市青浦区科学技术协会","lon":"121.12536","lat":"31.15055","category":"250","category_name":"公园户外","address":"公园路78-80"},{"poiid":"B2094655D26FABFA4193","title":"青浦界泾新邨(西门)","lon":"121.1214","lat":"31.15403","category":"47","category_name":"住宅区","address":"浦仓路648弄"},{"poiid":"B2094757D66DABF94092","title":"公园路浦仓路","lon":"121.121648035","lat":"31.1553819683","category":"196","category_name":"公园","address":"上海公园路浦仓路十字路口"},{"poiid":"B2094654DA6BA6FC4193","title":"青浦游泳馆","lon":"121.12051","lat":"31.15202","category":"231","category_name":"游泳馆","address":"青浦区浦仓路535号(欧洲街体育场路)"},{"poiid":"B2094654DA6BA7F84493","title":"四兴大楼","lon":"121.12","lat":"31.1525","category":"46","category_name":"楼宇","address":"城中东路626号"},{"poiid":"B2094654DA6BA7FB469D","title":"小食坊龙虾馆","lon":"121.12136","lat":"31.15141","category":"88","category_name":"海鲜酒楼","address":""},{"poiid":"B2094654DA6BA7F54492","title":"春汝拉面店","lon":"121.121","lat":"31.15591","category":"257","category_name":"中餐厅","address":"青浦区浦仓路777号"}]