[{"poiid":"B2094757D068A3F8439A","title":"BELLO'CO 倍乐","lon":"121.45942745","lat":"31.236405856","category":"500","category_name":"未知分类","address":"上海新闸路848号"},{"poiid":"B2094655D26BA3F94698","title":"丰收日(石门二路店)","lon":"121.46052","lat":"31.23564","category":"75","category_name":"浙江菜","address":"静安区石门二路268号(近新闸路)"},{"poiid":"B2094750D365A0FA4698","title":"倍乐创意韩国料理","lon":"121.457778","lat":"31.234186","category":"96","category_name":"韩国料理","address":"静安区新闸路848-850号(近石门二路)"},{"poiid":"B2094753D76FAAFA449C","title":"上海滩国泰旗舰店","lon":"121.466011","lat":"31.216125","category":"249","category_name":"购物服务","address":"淮海中路868号"},{"poiid":"B209475CD564A7F84292","title":"上海滩新天地店","lon":"121.47463","lat":"31.22164","category":"119","category_name":"商场","address":"\"太仓路181弄新天地北里15号\r\n\""},{"poiid":"B209475CD564A7F8439E","title":"上海滩中信泰富店","lon":"121.45602","lat":"31.22851","category":"119","category_name":"商场","address":"\"南京西路1168号中信泰富广场，店铺号221.\r\n\""},{"poiid":"B2094757D06FAAFA489D","title":"新闸路石门二路","lon":"121.46029061","lat":"31.236030374","category":"500","category_name":"未知分类","address":"上海新闸路慈溪路"},{"poiid":"B2094757D06FA2FE449D","title":"潮汕砂锅粥馆(静安店)","lon":"121.45992","lat":"31.23502","category":"72","category_name":"广东菜","address":"静安区新闸路868号(近石门二路)"},{"poiid":"B2094757D06FA6F4439A","title":"国旅大厦","lon":"121.45750893637","lat":"31.235029833226","category":"46","category_name":"楼宇","address":"上海市四川北路1851号"},{"poiid":"B2094654DA6CA5F4409E","title":"帆顺海味馆","lon":"121.45532719303","lat":"31.237192665273","category":"76","category_name":"上海菜","address":"静安区康定路18号(泰兴路口)"},{"poiid":"B2094654DA6CA4FF4798","title":"振安广场恒安大厦","lon":"121.45935","lat":"31.23598","category":"46","category_name":"楼宇","address":"石门二路333弄3-9号"},{"poiid":"B2094654DA6CA5FA489B","title":"弘记港式茶餐厅 新闸路店","lon":"121.45998989478","lat":"31.235576570521","category":"72","category_name":"广东菜","address":"静安区新闸路852号(近石门二路)"},{"poiid":"B2094751D56CA2F84899","title":"和家庭日本料理(康定东路店)","lon":"121.4581","lat":"31.23644","category":"95","category_name":"日本料理","address":"静安区康定东路13弄10号(近泰兴路)"},{"poiid":"B2094655D26BA2FA449E","title":"泰兴路","lon":"121.45517","lat":"31.23698","category":"38","category_name":"公交车站","address":""},{"poiid":"B2094654DA6CA5FB469F","title":"太和坊","lon":"121.45779","lat":"31.236706","category":"47","category_name":"住宅区","address":"武定路78-1"},{"poiid":"B2094757DA65A2F5419A","title":"南北高架","lon":"121.46053","lat":"31.238095","category":"627","category_name":"一般地点标志","address":"南北高架"},{"poiid":"B2094654DB6BA5FD439E","title":"恒丰大楼","lon":"121.45857","lat":"31.23737","category":"47","category_name":"住宅区","address":"上海市黄浦区江西中路452号"},{"poiid":"B2094757D06AA2FA479B","title":"翁龄旺山珍","lon":"121.45724","lat":"31.2354","category":"76","category_name":"上海菜","address":"静安区泰兴路528号(近武定路)"},{"poiid":"B2094655D26CABF8429F","title":"蝴蝶湾花园","lon":"121.45606","lat":"31.23754","category":"47","category_name":"住宅区","address":""},{"poiid":"B2094757D068A6FB479A","title":"木府","lon":"121.45770406","lat":"31.237496037","category":"247","category_name":"餐饮美食","address":"上海泰兴路624弄4号"},{"poiid":"B2094750D76DABFE489B","title":"蜀巷","lon":"121.46","lat":"31.2351","category":"71","category_name":"四川菜","address":"静安区新闸路854号(近石门二路)"},{"poiid":"B2094654DA6CA5FB459C","title":"太和小区","lon":"121.45841","lat":"31.23702","category":"47","category_name":"住宅区","address":"武定路44弄1-21号"},{"poiid":"B2094654DA6CA5FB4992","title":"万皇酒家","lon":"121.45945","lat":"31.23696","category":"76","category_name":"上海菜","address":"静安区泰兴路630号(近康定路)"},{"poiid":"B2094655D36CA1FD4599","title":"石门二路","lon":"121.45947","lat":"31.23472","category":"38","category_name":"公交车站","address":""},{"poiid":"B2094757D16BA1F5469D","title":"格格蜗","lon":"121.457543638","lat":"31.2378530126","category":"47","category_name":"住宅区","address":"上海康定东路45弄1号"},{"poiid":"B2094757D06FABF94299","title":"丽都太平洋全套房酒店","lon":"121.459948","lat":"31.234771","category":"217","category_name":"旅馆招待所","address":"上海市静安区新闸路831号"},{"poiid":"B2094654DB6BA5FD419E","title":"太和坊(南门)","lon":"121.4581","lat":"31.23634","category":"47","category_name":"住宅区","address":""},{"poiid":"B2094752DB6BABFB429A","title":"辣府","lon":"121.457446","lat":"31.235396","category":"247","category_name":"餐饮美食","address":"上海市 云南南路180号(近淮海东路)"},{"poiid":"B2094757D16BA3F5459B","title":"OS'小家","lon":"121.45821873","lat":"31.236252428","category":"247","category_name":"餐饮美食","address":null},{"poiid":"B2094655D26DA3FB439B","title":"静安国际广场","lon":"121.455","lat":"31.2371","category":"46","category_name":"楼宇","address":"上海市静安区新闸路1518号"},{"poiid":"B2094654DA6CA5FA499A","title":"新福康里商务中心","lon":"121.45948","lat":"31.23501","category":"46","category_name":"楼宇","address":"丰台学城海鹰路1号，3号"},{"poiid":"B2094750DA6EA0F94593","title":"康定东路","lon":"121.456954","lat":"31.237272","category":"500","category_name":"未知分类","address":null},{"poiid":"B2094757D16BA4FF4492","title":"潮汕沙锅粥馆","lon":"121.458894","lat":"31.2346","category":"247","category_name":"餐饮美食","address":"上海新闸路868号"},{"poiid":"B2094757D66BABFE4799","title":"秀田餐馆","lon":"121.458522","lat":"31.239362","category":"71","category_name":"四川菜","address":"闸北区恒丰路41号(近恒丰路桥)"},{"poiid":"B2094655D26DA3FB4198","title":"太平花园","lon":"121.459","lat":"31.2371","category":"47","category_name":"住宅区","address":"陕西北路470弄1-40号"},{"poiid":"B2094757D168A0F8449A","title":"莱富士","lon":"121.45929475","lat":"31.236101571","category":"247","category_name":"餐饮美食","address":"上海莱富士"},{"poiid":"B2094757D66CA3F54693","title":"凯撒国际会所","lon":"121.456417738","lat":"31.2346433941","category":"500","category_name":"未知分类","address":"上海市静安区新闸路石门二路"},{"poiid":"B2094654DA6CA5FB4399","title":"翁龄旺上海小馆","lon":"121.45708","lat":"31.23564","category":"257","category_name":"中餐厅","address":"泰兴路528号近武定路"},{"poiid":"B2094750D268A2FD4092","title":"古丽仙西域餐厅","lon":"121.458595","lat":"31.234464","category":"247","category_name":"餐饮美食","address":"南京西路818广场"},{"poiid":"B2094757D06AABF94793","title":"恒丰路1号","lon":"121.458756","lat":"31.239307","category":"500","category_name":"未知分类","address":"上海恒丰路1号"},{"poiid":"B2094753D165A2F94399","title":"上海市长寿路亚新生活广场","lon":"121.456421","lat":"31.237191","category":"500","category_name":"未知分类","address":"上海市 长寿路1000号"},{"poiid":"B2094757DA6EA4FB409A","title":"新行家燕窝(梅陇镇广场店)","lon":"121.456603999999","lat":"31.2380499999997","category":"247","category_name":"餐饮美食","address":"静安区南京西路1038号梅龙镇广场B1楼(近环艺电影城)"},{"poiid":"B2094654DA6CA5FB499F","title":"泰武保健","lon":"121.45612","lat":"31.23679","category":"162","category_name":"医院","address":"泰兴路626号"},{"poiid":"B2094654DA6CA5FB4698","title":"石门二路街道社区服务中心","lon":"121.45845","lat":"31.23654","category":"248","category_name":"生活娱乐","address":"武定路52-54"},{"poiid":"B2094654DB6BA5FD439F","title":"林海杂货店(康定东路)","lon":"121.4563","lat":"31.23738","category":"117","category_name":"便民商店/便利店","address":"康定东路71"},{"poiid":"B2094757D66FA7FD449C","title":"建桥学院食堂","lon":"121.458993038","lat":"31.2378436624","category":"247","category_name":"餐饮美食","address":"上海三号食堂"},{"poiid":"B2094757D169A6FF4692","title":"武定路石门二路","lon":"121.457512","lat":"31.235855","category":"500","category_name":"未知分类","address":"上海武定路石门二路"},{"poiid":"B2094655D26DA3FF469A","title":"太府·名邸(东门)","lon":"121.456","lat":"31.23653","category":"47","category_name":"住宅区","address":"泰兴路625弄1-14"},{"poiid":"B209475CD068A0FA469F","title":"阿娘家","lon":"121.457064","lat":"31.235371","category":"76","category_name":"上海菜","address":"泰兴路528号近武定路"},{"poiid":"B2094655D26BABFF4393","title":"阳名公寓式办公楼","lon":"121.45788","lat":"31.23874","category":"46","category_name":"楼宇","address":""},{"poiid":"B2094757D068A3F8439A","title":"BELLO'CO 倍乐","lon":"121.45942745","lat":"31.236405856","category":"500","category_name":"未知分类","address":"上海新闸路848号"},{"poiid":"B2094655D26BA3F94698","title":"丰收日(石门二路店)","lon":"121.46052","lat":"31.23564","category":"75","category_name":"浙江菜","address":"静安区石门二路268号(近新闸路)"},{"poiid":"B2094750D365A0FA4698","title":"倍乐创意韩国料理","lon":"121.457778","lat":"31.234186","category":"96","category_name":"韩国料理","address":"静安区新闸路848-850号(近石门二路)"},{"poiid":"B2094753D76FAAFA449C","title":"上海滩国泰旗舰店","lon":"121.466011","lat":"31.216125","category":"249","category_name":"购物服务","address":"淮海中路868号"},{"poiid":"B209475CD564A7F84292","title":"上海滩新天地店","lon":"121.47463","lat":"31.22164","category":"119","category_name":"商场","address":"\"太仓路181弄新天地北里15号\r\n\""},{"poiid":"B209475CD564A7F8439E","title":"上海滩中信泰富店","lon":"121.45602","lat":"31.22851","category":"119","category_name":"商场","address":"\"南京西路1168号中信泰富广场，店铺号221.\r\n\""},{"poiid":"B2094757D06FAAFA489D","title":"新闸路石门二路","lon":"121.46029061","lat":"31.236030374","category":"500","category_name":"未知分类","address":"上海新闸路慈溪路"},{"poiid":"B2094757D06FA2FE449D","title":"潮汕砂锅粥馆(静安店)","lon":"121.45992","lat":"31.23502","category":"72","category_name":"广东菜","address":"静安区新闸路868号(近石门二路)"},{"poiid":"B2094757D06FA6F4439A","title":"国旅大厦","lon":"121.45750893637","lat":"31.235029833226","category":"46","category_name":"楼宇","address":"上海市四川北路1851号"},{"poiid":"B2094654DA6CA5F4409E","title":"帆顺海味馆","lon":"121.45532719303","lat":"31.237192665273","category":"76","category_name":"上海菜","address":"静安区康定路18号(泰兴路口)"},{"poiid":"B2094654DA6CA4FF4798","title":"振安广场恒安大厦","lon":"121.45935","lat":"31.23598","category":"46","category_name":"楼宇","address":"石门二路333弄3-9号"},{"poiid":"B2094654DA6CA5FA489B","title":"弘记港式茶餐厅 新闸路店","lon":"121.45998989478","lat":"31.235576570521","category":"72","category_name":"广东菜","address":"静安区新闸路852号(近石门二路)"},{"poiid":"B2094751D56CA2F84899","title":"和家庭日本料理(康定东路店)","lon":"121.4581","lat":"31.23644","category":"95","category_name":"日本料理","address":"静安区康定东路13弄10号(近泰兴路)"},{"poiid":"B2094655D26BA2FA449E","title":"泰兴路","lon":"121.45517","lat":"31.23698","category":"38","category_name":"公交车站","address":""},{"poiid":"B2094654DA6CA5FB469F","title":"太和坊","lon":"121.45779","lat":"31.236706","category":"47","category_name":"住宅区","address":"武定路78-1"},{"poiid":"B2094757DA65A2F5419A","title":"南北高架","lon":"121.46053","lat":"31.238095","category":"627","category_name":"一般地点标志","address":"南北高架"},{"poiid":"B2094654DB6BA5FD439E","title":"恒丰大楼","lon":"121.45857","lat":"31.23737","category":"47","category_name":"住宅区","address":"上海市黄浦区江西中路452号"},{"poiid":"B2094757D06AA2FA479B","title":"翁龄旺山珍","lon":"121.45724","lat":"31.2354","category":"76","category_name":"上海菜","address":"静安区泰兴路528号(近武定路)"},{"poiid":"B2094655D26CABF8429F","title":"蝴蝶湾花园","lon":"121.45606","lat":"31.23754","category":"47","category_name":"住宅区","address":""},{"poiid":"B2094757D068A6FB479A","title":"木府","lon":"121.45770406","lat":"31.237496037","category":"247","category_name":"餐饮美食","address":"上海泰兴路624弄4号"},{"poiid":"B2094750D76DABFE489B","title":"蜀巷","lon":"121.46","lat":"31.2351","category":"71","category_name":"四川菜","address":"静安区新闸路854号(近石门二路)"},{"poiid":"B2094654DA6CA5FB459C","title":"太和小区","lon":"121.45841","lat":"31.23702","category":"47","category_name":"住宅区","address":"武定路44弄1-21号"},{"poiid":"B2094654DA6CA5FB4992","title":"万皇酒家","lon":"121.45945","lat":"31.23696","category":"76","category_name":"上海菜","address":"静安区泰兴路630号(近康定路)"},{"poiid":"B2094655D36CA1FD4599","title":"石门二路","lon":"121.45947","lat":"31.23472","category":"38","category_name":"公交车站","address":""},{"poiid":"B2094757D16BA1F5469D","title":"格格蜗","lon":"121.457543638","lat":"31.2378530126","category":"47","category_name":"住宅区","address":"上海康定东路45弄1号"},{"poiid":"B2094757D06FABF94299","title":"丽都太平洋全套房酒店","lon":"121.459948","lat":"31.234771","category":"217","category_name":"旅馆招待所","address":"上海市静安区新闸路831号"},{"poiid":"B2094654DB6BA5FD419E","title":"太和坊(南门)","lon":"121.4581","lat":"31.23634","category":"47","category_name":"住宅区","address":""},{"poiid":"B2094752DB6BABFB429A","title":"辣府","lon":"121.457446","lat":"31.235396","category":"247","category_name":"餐饮美食","address":"上海市 云南南路180号(近淮海东路)"},{"poiid":"B2094757D16BA3F5459B","title":"OS'小家","lon":"121.45821873","lat":"31.236252428","category":"247","category_name":"餐饮美食","address":null},{"poiid":"B2094655D26DA3FB439B","title":"静安国际广场","lon":"121.455","lat":"31.2371","category":"46","category_name":"楼宇","address":"上海市静安区新闸路1518号"},{"poiid":"B2094654DA6CA5FA499A","title":"新福康里商务中心","lon":"121.45948","lat":"31.23501","category":"46","category_name":"楼宇","address":"丰台学城海鹰路1号，3号"},{"poiid":"B2094750DA6EA0F94593","title":"康定东路","lon":"121.456954","lat":"31.237272","category":"500","category_name":"未知分类","address":null},{"poiid":"B2094757D16BA4FF4492","title":"潮汕沙锅粥馆","lon":"121.458894","lat":"31.2346","category":"247","category_name":"餐饮美食","address":"上海新闸路868号"},{"poiid":"B2094757D66BABFE4799","title":"秀田餐馆","lon":"121.458522","lat":"31.239362","category":"71","category_name":"四川菜","address":"闸北区恒丰路41号(近恒丰路桥)"},{"poiid":"B2094655D26DA3FB4198","title":"太平花园","lon":"121.459","lat":"31.2371","category":"47","category_name":"住宅区","address":"陕西北路470弄1-40号"},{"poiid":"B2094757D168A0F8449A","title":"莱富士","lon":"121.45929475","lat":"31.236101571","category":"247","category_name":"餐饮美食","address":"上海莱富士"},{"poiid":"B2094757D66CA3F54693","title":"凯撒国际会所","lon":"121.456417738","lat":"31.2346433941","category":"500","category_name":"未知分类","address":"上海市静安区新闸路石门二路"},{"poiid":"B2094654DA6CA5FB4399","title":"翁龄旺上海小馆","lon":"121.45708","lat":"31.23564","category":"257","category_name":"中餐厅","address":"泰兴路528号近武定路"},{"poiid":"B2094750D268A2FD4092","title":"古丽仙西域餐厅","lon":"121.458595","lat":"31.234464","category":"247","category_name":"餐饮美食","address":"南京西路818广场"},{"poiid":"B2094757D06AABF94793","title":"恒丰路1号","lon":"121.458756","lat":"31.239307","category":"500","category_name":"未知分类","address":"上海恒丰路1号"},{"poiid":"B2094753D165A2F94399","title":"上海市长寿路亚新生活广场","lon":"121.456421","lat":"31.237191","category":"500","category_name":"未知分类","address":"上海市 长寿路1000号"},{"poiid":"B2094757DA6EA4FB409A","title":"新行家燕窝(梅陇镇广场店)","lon":"121.456603999999","lat":"31.2380499999997","category":"247","category_name":"餐饮美食","address":"静安区南京西路1038号梅龙镇广场B1楼(近环艺电影城)"},{"poiid":"B2094654DA6CA5FB499F","title":"泰武保健","lon":"121.45612","lat":"31.23679","category":"162","category_name":"医院","address":"泰兴路626号"},{"poiid":"B2094654DA6CA5FB4698","title":"石门二路街道社区服务中心","lon":"121.45845","lat":"31.23654","category":"248","category_name":"生活娱乐","address":"武定路52-54"},{"poiid":"B2094654DB6BA5FD439F","title":"林海杂货店(康定东路)","lon":"121.4563","lat":"31.23738","category":"117","category_name":"便民商店/便利店","address":"康定东路71"},{"poiid":"B2094757D66FA7FD449C","title":"建桥学院食堂","lon":"121.458993038","lat":"31.2378436624","category":"247","category_name":"餐饮美食","address":"上海三号食堂"},{"poiid":"B2094757D169A6FF4692","title":"武定路石门二路","lon":"121.457512","lat":"31.235855","category":"500","category_name":"未知分类","address":"上海武定路石门二路"},{"poiid":"B2094655D26DA3FF469A","title":"太府·名邸(东门)","lon":"121.456","lat":"31.23653","category":"47","category_name":"住宅区","address":"泰兴路625弄1-14"},{"poiid":"B209475CD068A0FA469F","title":"阿娘家","lon":"121.457064","lat":"31.235371","category":"76","category_name":"上海菜","address":"泰兴路528号近武定路"},{"poiid":"B2094655D26BABFF4393","title":"阳名公寓式办公楼","lon":"121.45788","lat":"31.23874","category":"46","category_name":"楼宇","address":""},{"poiid":"B2094757D068A3F8439A","title":"BELLO'CO 倍乐","lon":"121.45942745","lat":"31.236405856","category":"500","category_name":"未知分类","address":"上海新闸路848号"},{"poiid":"B2094655D26BA3F94698","title":"丰收日(石门二路店)","lon":"121.46052","lat":"31.23564","category":"75","category_name":"浙江菜","address":"静安区石门二路268号(近新闸路)"},{"poiid":"B2094750D365A0FA4698","title":"倍乐创意韩国料理","lon":"121.457778","lat":"31.234186","category":"96","category_name":"韩国料理","address":"静安区新闸路848-850号(近石门二路)"},{"poiid":"B2094753D76FAAFA449C","title":"上海滩国泰旗舰店","lon":"121.466011","lat":"31.216125","category":"249","category_name":"购物服务","address":"淮海中路868号"},{"poiid":"B209475CD564A7F84292","title":"上海滩新天地店","lon":"121.47463","lat":"31.22164","category":"119","category_name":"商场","address":"\"太仓路181弄新天地北里15号\r\n\""},{"poiid":"B209475CD564A7F8439E","title":"上海滩中信泰富店","lon":"121.45602","lat":"31.22851","category":"119","category_name":"商场","address":"\"南京西路1168号中信泰富广场，店铺号221.\r\n\""},{"poiid":"B2094757D06FAAFA489D","title":"新闸路石门二路","lon":"121.46029061","lat":"31.236030374","category":"500","category_name":"未知分类","address":"上海新闸路慈溪路"},{"poiid":"B2094757D06FA2FE449D","title":"潮汕砂锅粥馆(静安店)","lon":"121.45992","lat":"31.23502","category":"72","category_name":"广东菜","address":"静安区新闸路868号(近石门二路)"},{"poiid":"B2094757D06FA6F4439A","title":"国旅大厦","lon":"121.45750893637","lat":"31.235029833226","category":"46","category_name":"楼宇","address":"上海市四川北路1851号"},{"poiid":"B2094654DA6CA5F4409E","title":"帆顺海味馆","lon":"121.45532719303","lat":"31.237192665273","category":"76","category_name":"上海菜","address":"静安区康定路18号(泰兴路口)"},{"poiid":"B2094654DA6CA4FF4798","title":"振安广场恒安大厦","lon":"121.45935","lat":"31.23598","category":"46","category_name":"楼宇","address":"石门二路333弄3-9号"},{"poiid":"B2094654DA6CA5FA489B","title":"弘记港式茶餐厅 新闸路店","lon":"121.45998989478","lat":"31.235576570521","category":"72","category_name":"广东菜","address":"静安区新闸路852号(近石门二路)"},{"poiid":"B2094751D56CA2F84899","title":"和家庭日本料理(康定东路店)","lon":"121.4581","lat":"31.23644","category":"95","category_name":"日本料理","address":"静安区康定东路13弄10号(近泰兴路)"},{"poiid":"B2094655D26BA2FA449E","title":"泰兴路","lon":"121.45517","lat":"31.23698","category":"38","category_name":"公交车站","address":""},{"poiid":"B2094654DA6CA5FB469F","title":"太和坊","lon":"121.45779","lat":"31.236706","category":"47","category_name":"住宅区","address":"武定路78-1"},{"poiid":"B2094757DA65A2F5419A","title":"南北高架","lon":"121.46053","lat":"31.238095","category":"627","category_name":"一般地点标志","address":"南北高架"},{"poiid":"B2094654DB6BA5FD439E","title":"恒丰大楼","lon":"121.45857","lat":"31.23737","category":"47","category_name":"住宅区","address":"上海市黄浦区江西中路452号"},{"poiid":"B2094757D06AA2FA479B","title":"翁龄旺山珍","lon":"121.45724","lat":"31.2354","category":"76","category_name":"上海菜","address":"静安区泰兴路528号(近武定路)"},{"poiid":"B2094655D26CABF8429F","title":"蝴蝶湾花园","lon":"121.45606","lat":"31.23754","category":"47","category_name":"住宅区","address":""},{"poiid":"B2094757D068A6FB479A","title":"木府","lon":"121.45770406","lat":"31.237496037","category":"247","category_name":"餐饮美食","address":"上海泰兴路624弄4号"},{"poiid":"B2094750D76DABFE489B","title":"蜀巷","lon":"121.46","lat":"31.2351","category":"71","category_name":"四川菜","address":"静安区新闸路854号(近石门二路)"},{"poiid":"B2094654DA6CA5FB459C","title":"太和小区","lon":"121.45841","lat":"31.23702","category":"47","category_name":"住宅区","address":"武定路44弄1-21号"},{"poiid":"B2094654DA6CA5FB4992","title":"万皇酒家","lon":"121.45945","lat":"31.23696","category":"76","category_name":"上海菜","address":"静安区泰兴路630号(近康定路)"},{"poiid":"B2094655D36CA1FD4599","title":"石门二路","lon":"121.45947","lat":"31.23472","category":"38","category_name":"公交车站","address":""},{"poiid":"B2094757D16BA1F5469D","title":"格格蜗","lon":"121.457543638","lat":"31.2378530126","category":"47","category_name":"住宅区","address":"上海康定东路45弄1号"},{"poiid":"B2094757D06FABF94299","title":"丽都太平洋全套房酒店","lon":"121.459948","lat":"31.234771","category":"217","category_name":"旅馆招待所","address":"上海市静安区新闸路831号"},{"poiid":"B2094654DB6BA5FD419E","title":"太和坊(南门)","lon":"121.4581","lat":"31.23634","category":"47","category_name":"住宅区","address":""},{"poiid":"B2094752DB6BABFB429A","title":"辣府","lon":"121.457446","lat":"31.235396","category":"247","category_name":"餐饮美食","address":"上海市 云南南路180号(近淮海东路)"},{"poiid":"B2094757D16BA3F5459B","title":"OS'小家","lon":"121.45821873","lat":"31.236252428","category":"247","category_name":"餐饮美食","address":null},{"poiid":"B2094655D26DA3FB439B","title":"静安国际广场","lon":"121.455","lat":"31.2371","category":"46","category_name":"楼宇","address":"上海市静安区新闸路1518号"},{"poiid":"B2094654DA6CA5FA499A","title":"新福康里商务中心","lon":"121.45948","lat":"31.23501","category":"46","category_name":"楼宇","address":"丰台学城海鹰路1号，3号"},{"poiid":"B2094750DA6EA0F94593","title":"康定东路","lon":"121.456954","lat":"31.237272","category":"500","category_name":"未知分类","address":null},{"poiid":"B2094757D16BA4FF4492","title":"潮汕沙锅粥馆","lon":"121.458894","lat":"31.2346","category":"247","category_name":"餐饮美食","address":"上海新闸路868号"},{"poiid":"B2094757D66BABFE4799","title":"秀田餐馆","lon":"121.458522","lat":"31.239362","category":"71","category_name":"四川菜","address":"闸北区恒丰路41号(近恒丰路桥)"},{"poiid":"B2094655D26DA3FB4198","title":"太平花园","lon":"121.459","lat":"31.2371","category":"47","category_name":"住宅区","address":"陕西北路470弄1-40号"},{"poiid":"B2094757D168A0F8449A","title":"莱富士","lon":"121.45929475","lat":"31.236101571","category":"247","category_name":"餐饮美食","address":"上海莱富士"},{"poiid":"B2094757D66CA3F54693","title":"凯撒国际会所","lon":"121.456417738","lat":"31.2346433941","category":"500","category_name":"未知分类","address":"上海市静安区新闸路石门二路"},{"poiid":"B2094654DA6CA5FB4399","title":"翁龄旺上海小馆","lon":"121.45708","lat":"31.23564","category":"257","category_name":"中餐厅","address":"泰兴路528号近武定路"},{"poiid":"B2094750D268A2FD4092","title":"古丽仙西域餐厅","lon":"121.458595","lat":"31.234464","category":"247","category_name":"餐饮美食","address":"南京西路818广场"},{"poiid":"B2094757D06AABF94793","title":"恒丰路1号","lon":"121.458756","lat":"31.239307","category":"500","category_name":"未知分类","address":"上海恒丰路1号"},{"poiid":"B2094753D165A2F94399","title":"上海市长寿路亚新生活广场","lon":"121.456421","lat":"31.237191","category":"500","category_name":"未知分类","address":"上海市 长寿路1000号"},{"poiid":"B2094757DA6EA4FB409A","title":"新行家燕窝(梅陇镇广场店)","lon":"121.456603999999","lat":"31.2380499999997","category":"247","category_name":"餐饮美食","address":"静安区南京西路1038号梅龙镇广场B1楼(近环艺电影城)"},{"poiid":"B2094654DA6CA5FB499F","title":"泰武保健","lon":"121.45612","lat":"31.23679","category":"162","category_name":"医院","address":"泰兴路626号"},{"poiid":"B2094654DA6CA5FB4698","title":"石门二路街道社区服务中心","lon":"121.45845","lat":"31.23654","category":"248","category_name":"生活娱乐","address":"武定路52-54"},{"poiid":"B2094654DB6BA5FD439F","title":"林海杂货店(康定东路)","lon":"121.4563","lat":"31.23738","category":"117","category_name":"便民商店/便利店","address":"康定东路71"},{"poiid":"B2094757D66FA7FD449C","title":"建桥学院食堂","lon":"121.458993038","lat":"31.2378436624","category":"247","category_name":"餐饮美食","address":"上海三号食堂"},{"poiid":"B2094757D169A6FF4692","title":"武定路石门二路","lon":"121.457512","lat":"31.235855","category":"500","category_name":"未知分类","address":"上海武定路石门二路"},{"poiid":"B2094655D26DA3FF469A","title":"太府·名邸(东门)","lon":"121.456","lat":"31.23653","category":"47","category_name":"住宅区","address":"泰兴路625弄1-14"},{"poiid":"B209475CD068A0FA469F","title":"阿娘家","lon":"121.457064","lat":"31.235371","category":"76","category_name":"上海菜","address":"泰兴路528号近武定路"},{"poiid":"B2094655D26BABFF4393","title":"阳名公寓式办公楼","lon":"121.45788","lat":"31.23874","category":"46","category_name":"楼宇","address":""},{"poiid":"B2094757D068A3F8439A","title":"BELLO'CO 倍乐","lon":"121.45942745","lat":"31.236405856","category":"500","category_name":"未知分类","address":"上海新闸路848号"},{"poiid":"B2094655D26BA3F94698","title":"丰收日(石门二路店)","lon":"121.46052","lat":"31.23564","category":"75","category_name":"浙江菜","address":"静安区石门二路268号(近新闸路)"},{"poiid":"B2094750D365A0FA4698","title":"倍乐创意韩国料理","lon":"121.457778","lat":"31.234186","category":"96","category_name":"韩国料理","address":"静安区新闸路848-850号(近石门二路)"},{"poiid":"B2094753D76FAAFA449C","title":"上海滩国泰旗舰店","lon":"121.466011","lat":"31.216125","category":"249","category_name":"购物服务","address":"淮海中路868号"},{"poiid":"B209475CD564A7F84292","title":"上海滩新天地店","lon":"121.47463","lat":"31.22164","category":"119","category_name":"商场","address":"\"太仓路181弄新天地北里15号\r\n\""},{"poiid":"B209475CD564A7F8439E","title":"上海滩中信泰富店","lon":"121.45602","lat":"31.22851","category":"119","category_name":"商场","address":"\"南京西路1168号中信泰富广场，店铺号221.\r\n\""},{"poiid":"B2094757D06FAAFA489D","title":"新闸路石门二路","lon":"121.46029061","lat":"31.236030374","category":"500","category_name":"未知分类","address":"上海新闸路慈溪路"},{"poiid":"B2094757D06FA2FE449D","title":"潮汕砂锅粥馆(静安店)","lon":"121.45992","lat":"31.23502","category":"72","category_name":"广东菜","address":"静安区新闸路868号(近石门二路)"},{"poiid":"B2094757D06FA6F4439A","title":"国旅大厦","lon":"121.45750893637","lat":"31.235029833226","category":"46","category_name":"楼宇","address":"上海市四川北路1851号"},{"poiid":"B2094654DA6CA5F4409E","title":"帆顺海味馆","lon":"121.45532719303","lat":"31.237192665273","category":"76","category_name":"上海菜","address":"静安区康定路18号(泰兴路口)"},{"poiid":"B2094654DA6CA4FF4798","title":"振安广场恒安大厦","lon":"121.45935","lat":"31.23598","category":"46","category_name":"楼宇","address":"石门二路333弄3-9号"},{"poiid":"B2094654DA6CA5FA489B","title":"弘记港式茶餐厅 新闸路店","lon":"121.45998989478","lat":"31.235576570521","category":"72","category_name":"广东菜","address":"静安区新闸路852号(近石门二路)"},{"poiid":"B2094751D56CA2F84899","title":"和家庭日本料理(康定东路店)","lon":"121.4581","lat":"31.23644","category":"95","category_name":"日本料理","address":"静安区康定东路13弄10号(近泰兴路)"},{"poiid":"B2094655D26BA2FA449E","title":"泰兴路","lon":"121.45517","lat":"31.23698","category":"38","category_name":"公交车站","address":""},{"poiid":"B2094654DA6CA5FB469F","title":"太和坊","lon":"121.45779","lat":"31.236706","category":"47","category_name":"住宅区","address":"武定路78-1"},{"poiid":"B2094757DA65A2F5419A","title":"南北高架","lon":"121.46053","lat":"31.238095","category":"627","category_name":"一般地点标志","address":"南北高架"},{"poiid":"B2094654DB6BA5FD439E","title":"恒丰大楼","lon":"121.45857","lat":"31.23737","category":"47","category_name":"住宅区","address":"上海市黄浦区江西中路452号"},{"poiid":"B2094757D06AA2FA479B","title":"翁龄旺山珍","lon":"121.45724","lat":"31.2354","category":"76","category_name":"上海菜","address":"静安区泰兴路528号(近武定路)"},{"poiid":"B2094655D26CABF8429F","title":"蝴蝶湾花园","lon":"121.45606","lat":"31.23754","category":"47","category_name":"住宅区","address":""},{"poiid":"B2094757D068A6FB479A","title":"木府","lon":"121.45770406","lat":"31.237496037","category":"247","category_name":"餐饮美食","address":"上海泰兴路624弄4号"},{"poiid":"B2094750D76DABFE489B","title":"蜀巷","lon":"121.46","lat":"31.2351","category":"71","category_name":"四川菜","address":"静安区新闸路854号(近石门二路)"},{"poiid":"B2094654DA6CA5FB459C","title":"太和小区","lon":"121.45841","lat":"31.23702","category":"47","category_name":"住宅区","address":"武定路44弄1-21号"},{"poiid":"B2094654DA6CA5FB4992","title":"万皇酒家","lon":"121.45945","lat":"31.23696","category":"76","category_name":"上海菜","address":"静安区泰兴路630号(近康定路)"},{"poiid":"B2094655D36CA1FD4599","title":"石门二路","lon":"121.45947","lat":"31.23472","category":"38","category_name":"公交车站","address":""},{"poiid":"B2094757D16BA1F5469D","title":"格格蜗","lon":"121.457543638","lat":"31.2378530126","category":"47","category_name":"住宅区","address":"上海康定东路45弄1号"},{"poiid":"B2094757D06FABF94299","title":"丽都太平洋全套房酒店","lon":"121.459948","lat":"31.234771","category":"217","category_name":"旅馆招待所","address":"上海市静安区新闸路831号"},{"poiid":"B2094654DB6BA5FD419E","title":"太和坊(南门)","lon":"121.4581","lat":"31.23634","category":"47","category_name":"住宅区","address":""},{"poiid":"B2094752DB6BABFB429A","title":"辣府","lon":"121.457446","lat":"31.235396","category":"247","category_name":"餐饮美食","address":"上海市 云南南路180号(近淮海东路)"},{"poiid":"B2094757D16BA3F5459B","title":"OS'小家","lon":"121.45821873","lat":"31.236252428","category":"247","category_name":"餐饮美食","address":null},{"poiid":"B2094655D26DA3FB439B","title":"静安国际广场","lon":"121.455","lat":"31.2371","category":"46","category_name":"楼宇","address":"上海市静安区新闸路1518号"},{"poiid":"B2094654DA6CA5FA499A","title":"新福康里商务中心","lon":"121.45948","lat":"31.23501","category":"46","category_name":"楼宇","address":"丰台学城海鹰路1号，3号"},{"poiid":"B2094750DA6EA0F94593","title":"康定东路","lon":"121.456954","lat":"31.237272","category":"500","category_name":"未知分类","address":null},{"poiid":"B2094757D16BA4FF4492","title":"潮汕沙锅粥馆","lon":"121.458894","lat":"31.2346","category":"247","category_name":"餐饮美食","address":"上海新闸路868号"},{"poiid":"B2094757D66BABFE4799","title":"秀田餐馆","lon":"121.458522","lat":"31.239362","category":"71","category_name":"四川菜","address":"闸北区恒丰路41号(近恒丰路桥)"},{"poiid":"B2094655D26DA3FB4198","title":"太平花园","lon":"121.459","lat":"31.2371","category":"47","category_name":"住宅区","address":"陕西北路470弄1-40号"},{"poiid":"B2094757D168A0F8449A","title":"莱富士","lon":"121.45929475","lat":"31.236101571","category":"247","category_name":"餐饮美食","address":"上海莱富士"},{"poiid":"B2094757D66CA3F54693","title":"凯撒国际会所","lon":"121.456417738","lat":"31.2346433941","category":"500","category_name":"未知分类","address":"上海市静安区新闸路石门二路"},{"poiid":"B2094654DA6CA5FB4399","title":"翁龄旺上海小馆","lon":"121.45708","lat":"31.23564","category":"257","category_name":"中餐厅","address":"泰兴路528号近武定路"},{"poiid":"B2094750D268A2FD4092","title":"古丽仙西域餐厅","lon":"121.458595","lat":"31.234464","category":"247","category_name":"餐饮美食","address":"南京西路818广场"},{"poiid":"B2094757D06AABF94793","title":"恒丰路1号","lon":"121.458756","lat":"31.239307","category":"500","category_name":"未知分类","address":"上海恒丰路1号"},{"poiid":"B2094753D165A2F94399","title":"上海市长寿路亚新生活广场","lon":"121.456421","lat":"31.237191","category":"500","category_name":"未知分类","address":"上海市 长寿路1000号"},{"poiid":"B2094757DA6EA4FB409A","title":"新行家燕窝(梅陇镇广场店)","lon":"121.456603999999","lat":"31.2380499999997","category":"247","category_name":"餐饮美食","address":"静安区南京西路1038号梅龙镇广场B1楼(近环艺电影城)"},{"poiid":"B2094654DA6CA5FB499F","title":"泰武保健","lon":"121.45612","lat":"31.23679","category":"162","category_name":"医院","address":"泰兴路626号"},{"poiid":"B2094654DA6CA5FB4698","title":"石门二路街道社区服务中心","lon":"121.45845","lat":"31.23654","category":"248","category_name":"生活娱乐","address":"武定路52-54"},{"poiid":"B2094654DB6BA5FD439F","title":"林海杂货店(康定东路)","lon":"121.4563","lat":"31.23738","category":"117","category_name":"便民商店/便利店","address":"康定东路71"},{"poiid":"B2094757D66FA7FD449C","title":"建桥学院食堂","lon":"121.458993038","lat":"31.2378436624","category":"247","category_name":"餐饮美食","address":"上海三号食堂"},{"poiid":"B2094757D169A6FF4692","title":"武定路石门二路","lon":"121.457512","lat":"31.235855","category":"500","category_name":"未知分类","address":"上海武定路石门二路"},{"poiid":"B2094655D26DA3FF469A","title":"太府·名邸(东门)","lon":"121.456","lat":"31.23653","category":"47","category_name":"住宅区","address":"泰兴路625弄1-14"},{"poiid":"B209475CD068A0FA469F","title":"阿娘家","lon":"121.457064","lat":"31.235371","category":"76","category_name":"上海菜","address":"泰兴路528号近武定路"},{"poiid":"B2094655D26BABFF4393","title":"阳名公寓式办公楼","lon":"121.45788","lat":"31.23874","category":"46","category_name":"楼宇","address":""}]