[{"poiid":"B2094654DA6CA0FD499E","title":"上海展览中心","lon":"121.45289","lat":"31.22459","category":"183","category_name":"展览馆","address":"静安区延安中路1000号(近铜仁路)"},{"poiid":"B2094757D06FA3FD4092","title":"马勒别墅","lon":"121.45619201","lat":"31.223121643","category":"47","category_name":"住宅区","address":"上海陕西南路30号"},{"poiid":"B2094757D06FA1FA419B","title":"福记港式茶粥面","lon":"121.45690546","lat":"31.222352362","category":"72","category_name":"广东菜","address":"卢湾区陕西南路11号(近巨鹿路)"},{"poiid":"B2094753D76FAAFA449C","title":"上海滩国泰旗舰店","lon":"121.466011","lat":"31.216125","category":"249","category_name":"购物服务","address":"淮海中路868号"},{"poiid":"B209475CD564A7F84292","title":"上海滩新天地店","lon":"121.47463","lat":"31.22164","category":"119","category_name":"商场","address":"\"太仓路181弄新天地北里15号\r\n\""},{"poiid":"B209475CD564A7F8439E","title":"上海滩中信泰富店","lon":"121.45602","lat":"31.22851","category":"119","category_name":"商场","address":"\"南京西路1168号中信泰富广场，店铺号221.\r\n\""},{"poiid":"B2094757D06FA1F44092","title":"俏江南881会所","lon":"121.45404","lat":"31.22261","category":"71","category_name":"四川菜","address":"静安区武定路881号(常德路口)"},{"poiid":"B2094655D269A4F9499A","title":"泰厨","lon":"121.454576054","lat":"31.223437793","category":"99","category_name":"泰国／越南菜品餐厅","address":"静安区延安中路841号东方海外大厦1楼(近陕西南路)"},{"poiid":"B2094757D06FA0FB409D","title":"Cafe La Mer(玛赫咖啡)","lon":"121.45616054","lat":"31.221554178","category":"65","category_name":"咖啡厅","address":"上海静安区巨鹿路677号(近陕西南路)"},{"poiid":"B2094757D06FA2F54598","title":"梅园村酒家(静安店)","lon":"121.45489","lat":"31.223","category":"76","category_name":"上海菜","address":"静安区延安中路841号(近陕西南路)"},{"poiid":"B2094757D06AAAF54692","title":"上海展览中心中央大厅","lon":"121.45311058","lat":"31.224167312","category":"500","category_name":"未知分类","address":"上海市静安区延安中路1000号"},{"poiid":"B2094654DA6CA0FD499F","title":"上海展览中心(3号门)","lon":"121.45308","lat":"31.22342","category":"183","category_name":"展览馆","address":"延安中路1000号"},{"poiid":"B2094757D065A1F8479A","title":"Kartel","lon":"121.45425058","lat":"31.221766265","category":"260","category_name":"其他","address":"静安区襄阳北路1号5楼(近巨鹿路)"},{"poiid":"B2094757D068A7FB459A","title":"Maya Mexican Restaurant","lon":"121.45522308","lat":"31.221933364","category":"500","category_name":"未知分类","address":"上海巨鹿路568号 四方新城俱樂部2樓"},{"poiid":"B2094757D06AA3FF4398","title":"高峰美式牛排馆","lon":"121.457064694","lat":"31.2226914554","category":"94","category_name":"西餐厅","address":"卢湾区陕西南路5-7号城市酒店5楼(近巨鹿路)"},{"poiid":"B2094757D06FA6FF4892","title":"科恩国际中心","lon":"121.45694732","lat":"31.224573135","category":"46","category_name":"楼宇","address":"人民路885号-889号"},{"poiid":"B2094757D06EAAFD4892","title":"微薄之盐—12th-day House","lon":"121.4562828","lat":"31.2217012","category":"67","category_name":"甜品店","address":"静安区巨鹿路516弄5号(近陕西南路)"},{"poiid":"B2094757D069A1FC4098","title":"玫瑰公主咖啡吧","lon":"121.456348427","lat":"31.2228919607","category":"260","category_name":"其他","address":"卢湾区陕西南路30号马勒别墅花园内(近延安中路)"},{"poiid":"B209475CD76EA1F94298","title":"吃完咸的吃点甜的","lon":"121.456405","lat":"31.221799","category":"247","category_name":"餐饮美食","address":"上海市 长乐路620号"},{"poiid":"B2094757D06AA7FF449C","title":"巨鹿大厦","lon":"121.454","lat":"31.224","category":"46","category_name":"楼宇","address":"上海市奉贤区环城东路455,465弄"},{"poiid":"B2094757D06AA3F9439F","title":"梅亭","lon":"121.45426178","lat":"31.2232208252","category":"86","category_name":"火锅店","address":"静安区延安中路841号东方海外大厦1楼(近铜仁路)"},{"poiid":"B2094757D465A6F44093","title":"董大师金牌稻香蛙 延安中路店","lon":"121.452610054","lat":"31.222697793","category":"71","category_name":"四川菜","address":"静安区延安中路917号(近铜仁路)"},{"poiid":"B2094654DB6AA3FE4298","title":"衡山马勒别墅中餐厅","lon":"121.4563","lat":"31.22289","category":"76","category_name":"上海菜","address":"上海市静安区陕西南路30号马勒别墅饭店1号楼1楼和2楼(近延安中路)"},{"poiid":"B2094757DB6FA7FB499B","title":"筑地青空三代目","lon":"121.4548103565655","lat":"31.22240874581705","category":"247","category_name":"餐饮美食","address":"卢湾区长乐路191号1-2楼(近茂名南路)"},{"poiid":"B2094757D064A4FD449A","title":"和良日式造型(威海)","lon":"121.456196738","lat":"31.2254711987","category":"148","category_name":"美容美发店","address":"上海威海路840号"},{"poiid":"B2094750D26DA6FE419F","title":"De Refer","lon":"121.454804","lat":"31.222628","category":"247","category_name":"餐饮美食","address":"卢湾区进贤路181号(近茂名南路)"},{"poiid":"B2094757D06AA3FD499C","title":"澳门豆捞坊","lon":"121.45491273","lat":"31.223712161","category":"86","category_name":"火锅店","address":"静安区延安中路817号(近陕西南路)"},{"poiid":"B2094750D16BA2F94199","title":"锦江迪生 唐宫一号","lon":"121.456863","lat":"31.223424","category":"247","category_name":"餐饮美食","address":"长乐路"},{"poiid":"B2094654DA6CA0FD499D","title":"上海展览中心(1号门)","lon":"121.45465","lat":"31.22404","category":"183","category_name":"展览馆","address":"延安中路1000-1"},{"poiid":"B2094757D165A4FC4593","title":"C'N'C中信泰富","lon":"121.456299738","lat":"31.2253271956","category":"500","category_name":"未知分类","address":"上海南京西路1168号地下一层LG09"},{"poiid":"B2094654D564A4FB4398","title":"华尔登广场","lon":"121.454","lat":"31.222","category":"46","category_name":"楼宇","address":"崇文区夕照寺大街"},{"poiid":"B2094753D36DA1FA4398","title":"平纳谷碳火牛排馆","lon":"121.457012","lat":"31.222848","category":"94","category_name":"西餐厅","address":"陕西南路5-7号城市酒店5楼"},{"poiid":"B2094757D16FA4FD4892","title":"Maya 玛雅","lon":"121.45645483","lat":"31.221630316","category":"500","category_name":"未知分类","address":"上海巨鹿路568弄四方新城俱乐部2楼(近襄阳北路)/62896889"},{"poiid":"B2094757D068A4F44998","title":"静安书友汇","lon":"121.45586","lat":"31.22468","category":"260","category_name":"其他","address":"静安区威海路870号(近延安中路)"},{"poiid":"B2094757D569A0FA479E","title":"马勒玫瑰公主咖啡吧","lon":"121.456317","lat":"31.22291612","category":"65","category_name":"咖啡厅","address":"中国上海市静安区陕西南路"},{"poiid":"B2094654DA6CA0F8429B","title":"小实惠","lon":"121.456031054","lat":"31.224860793","category":"76","category_name":"上海菜","address":"静安区威海路855号(近陕西北路)"},{"poiid":"B2094757D56EA2F44999","title":"花园饭店玫瑰厅","lon":"121.4562828","lat":"31.2217012","category":"247","category_name":"餐饮美食","address":"茂名路"},{"poiid":"B209475DD26CA0F8449C","title":"Calypso","lon":"121.453918","lat":"31.22359","category":"500","category_name":"未知分类","address":"上海市 铜仁路近安义路，静安嘉里中心南区广场(铜仁路近安义路)"},{"poiid":"B2094757D064ABFF449E","title":"静安广场","lon":"121.454","lat":"31.2237","category":"500","category_name":"未知分类","address":"铁西兴华南街与十马路交汇处"},{"poiid":"B2094654DB64A5F4479D","title":"名轩上海高等食府","lon":"121.457","lat":"31.22273","category":"72","category_name":"广东菜","address":"卢湾区陕西南路5-7号城市酒店3楼(近巨鹿路)"},{"poiid":"B2094654DB65A6FB409A","title":"蔡元培故居","lon":"121.453","lat":"31.2251","category":"250","category_name":"公园户外","address":"静安区华山路303弄16号(希尔顿饭店斜对面)"},{"poiid":"B2094757D164A4FD4793","title":"甜蜜蜜威海路店","lon":"121.45572353","lat":"31.223760362","category":"67","category_name":"甜品店","address":"静安区威海路906号"},{"poiid":"B2094654DA6CA0FD499C","title":"上海展览中心(2号门)","lon":"121.45379","lat":"31.22367","category":"183","category_name":"展览馆","address":""},{"poiid":"B209475CDA69A6FB4598","title":"千两","lon":"121.452461","lat":"31.223594","category":"247","category_name":"餐饮美食","address":"上海市 嘉里中心"},{"poiid":"B2094750D26FA4FE429B","title":"starbucks","lon":"121.456367","lat":"31.225322","category":"247","category_name":"餐饮美食","address":"中兴泰富"},{"poiid":"B2094757D06AA5F9499A","title":"波特曼嘉丽Table自助餐厅","lon":"121.45688829","lat":"31.224855074","category":"500","category_name":"未知分类","address":"上海商城"},{"poiid":"B209475CD56DA0FC439B","title":"桥餐厅","lon":"121.456184","lat":"31.223388","category":"500","category_name":"未知分类","address":"上海市 上海市陕西南路5-7号 城市酒店一楼"},{"poiid":"B2094750D669AAFF499C","title":"上海书展","lon":"121.454536","lat":"31.223281","category":"500","category_name":"未知分类","address":null},{"poiid":"B2094757D064A3FA4298","title":"维吾尔餐厅","lon":"121.45204","lat":"31.22485","category":"90","category_name":"清真餐馆","address":"静安区延安中路915号(近铜仁路)"},{"poiid":"B2094757D06AA0FA4393","title":"东方早报","lon":"121.45478057","lat":"31.222553253","category":"46","category_name":"楼宇","address":"延安中路839号上海新世纪广告交易中心8-11,19,21层"},{"poiid":"B2094654DA6CA0FD499E","title":"上海展览中心","lon":"121.45289","lat":"31.22459","category":"183","category_name":"展览馆","address":"静安区延安中路1000号(近铜仁路)"},{"poiid":"B2094757D06FA3FD4092","title":"马勒别墅","lon":"121.45619201","lat":"31.223121643","category":"47","category_name":"住宅区","address":"上海陕西南路30号"},{"poiid":"B2094757D06FA1FA419B","title":"福记港式茶粥面","lon":"121.45690546","lat":"31.222352362","category":"72","category_name":"广东菜","address":"卢湾区陕西南路11号(近巨鹿路)"},{"poiid":"B2094753D76FAAFA449C","title":"上海滩国泰旗舰店","lon":"121.466011","lat":"31.216125","category":"249","category_name":"购物服务","address":"淮海中路868号"},{"poiid":"B209475CD564A7F84292","title":"上海滩新天地店","lon":"121.47463","lat":"31.22164","category":"119","category_name":"商场","address":"\"太仓路181弄新天地北里15号\r\n\""},{"poiid":"B209475CD564A7F8439E","title":"上海滩中信泰富店","lon":"121.45602","lat":"31.22851","category":"119","category_name":"商场","address":"\"南京西路1168号中信泰富广场，店铺号221.\r\n\""},{"poiid":"B2094757D06FA1F44092","title":"俏江南881会所","lon":"121.45404","lat":"31.22261","category":"71","category_name":"四川菜","address":"静安区武定路881号(常德路口)"},{"poiid":"B2094655D269A4F9499A","title":"泰厨","lon":"121.454576054","lat":"31.223437793","category":"99","category_name":"泰国／越南菜品餐厅","address":"静安区延安中路841号东方海外大厦1楼(近陕西南路)"},{"poiid":"B2094757D06FA0FB409D","title":"Cafe La Mer(玛赫咖啡)","lon":"121.45616054","lat":"31.221554178","category":"65","category_name":"咖啡厅","address":"上海静安区巨鹿路677号(近陕西南路)"},{"poiid":"B2094757D06FA2F54598","title":"梅园村酒家(静安店)","lon":"121.45489","lat":"31.223","category":"76","category_name":"上海菜","address":"静安区延安中路841号(近陕西南路)"},{"poiid":"B2094757D06AAAF54692","title":"上海展览中心中央大厅","lon":"121.45311058","lat":"31.224167312","category":"500","category_name":"未知分类","address":"上海市静安区延安中路1000号"},{"poiid":"B2094654DA6CA0FD499F","title":"上海展览中心(3号门)","lon":"121.45308","lat":"31.22342","category":"183","category_name":"展览馆","address":"延安中路1000号"},{"poiid":"B2094757D065A1F8479A","title":"Kartel","lon":"121.45425058","lat":"31.221766265","category":"260","category_name":"其他","address":"静安区襄阳北路1号5楼(近巨鹿路)"},{"poiid":"B2094757D068A7FB459A","title":"Maya Mexican Restaurant","lon":"121.45522308","lat":"31.221933364","category":"500","category_name":"未知分类","address":"上海巨鹿路568号 四方新城俱樂部2樓"},{"poiid":"B2094757D06AA3FF4398","title":"高峰美式牛排馆","lon":"121.457064694","lat":"31.2226914554","category":"94","category_name":"西餐厅","address":"卢湾区陕西南路5-7号城市酒店5楼(近巨鹿路)"},{"poiid":"B2094757D06FA6FF4892","title":"科恩国际中心","lon":"121.45694732","lat":"31.224573135","category":"46","category_name":"楼宇","address":"人民路885号-889号"},{"poiid":"B2094757D06EAAFD4892","title":"微薄之盐—12th-day House","lon":"121.4562828","lat":"31.2217012","category":"67","category_name":"甜品店","address":"静安区巨鹿路516弄5号(近陕西南路)"},{"poiid":"B2094757D069A1FC4098","title":"玫瑰公主咖啡吧","lon":"121.456348427","lat":"31.2228919607","category":"260","category_name":"其他","address":"卢湾区陕西南路30号马勒别墅花园内(近延安中路)"},{"poiid":"B209475CD76EA1F94298","title":"吃完咸的吃点甜的","lon":"121.456405","lat":"31.221799","category":"247","category_name":"餐饮美食","address":"上海市 长乐路620号"},{"poiid":"B2094757D06AA7FF449C","title":"巨鹿大厦","lon":"121.454","lat":"31.224","category":"46","category_name":"楼宇","address":"上海市奉贤区环城东路455,465弄"},{"poiid":"B2094757D06AA3F9439F","title":"梅亭","lon":"121.45426178","lat":"31.2232208252","category":"86","category_name":"火锅店","address":"静安区延安中路841号东方海外大厦1楼(近铜仁路)"},{"poiid":"B2094757D465A6F44093","title":"董大师金牌稻香蛙 延安中路店","lon":"121.452610054","lat":"31.222697793","category":"71","category_name":"四川菜","address":"静安区延安中路917号(近铜仁路)"},{"poiid":"B2094654DB6AA3FE4298","title":"衡山马勒别墅中餐厅","lon":"121.4563","lat":"31.22289","category":"76","category_name":"上海菜","address":"上海市静安区陕西南路30号马勒别墅饭店1号楼1楼和2楼(近延安中路)"},{"poiid":"B2094757DB6FA7FB499B","title":"筑地青空三代目","lon":"121.4548103565655","lat":"31.22240874581705","category":"247","category_name":"餐饮美食","address":"卢湾区长乐路191号1-2楼(近茂名南路)"},{"poiid":"B2094757D064A4FD449A","title":"和良日式造型(威海)","lon":"121.456196738","lat":"31.2254711987","category":"148","category_name":"美容美发店","address":"上海威海路840号"},{"poiid":"B2094750D26DA6FE419F","title":"De Refer","lon":"121.454804","lat":"31.222628","category":"247","category_name":"餐饮美食","address":"卢湾区进贤路181号(近茂名南路)"},{"poiid":"B2094757D06AA3FD499C","title":"澳门豆捞坊","lon":"121.45491273","lat":"31.223712161","category":"86","category_name":"火锅店","address":"静安区延安中路817号(近陕西南路)"},{"poiid":"B2094750D16BA2F94199","title":"锦江迪生 唐宫一号","lon":"121.456863","lat":"31.223424","category":"247","category_name":"餐饮美食","address":"长乐路"},{"poiid":"B2094654DA6CA0FD499D","title":"上海展览中心(1号门)","lon":"121.45465","lat":"31.22404","category":"183","category_name":"展览馆","address":"延安中路1000-1"},{"poiid":"B2094757D165A4FC4593","title":"C'N'C中信泰富","lon":"121.456299738","lat":"31.2253271956","category":"500","category_name":"未知分类","address":"上海南京西路1168号地下一层LG09"},{"poiid":"B2094654D564A4FB4398","title":"华尔登广场","lon":"121.454","lat":"31.222","category":"46","category_name":"楼宇","address":"崇文区夕照寺大街"},{"poiid":"B2094753D36DA1FA4398","title":"平纳谷碳火牛排馆","lon":"121.457012","lat":"31.222848","category":"94","category_name":"西餐厅","address":"陕西南路5-7号城市酒店5楼"},{"poiid":"B2094757D16FA4FD4892","title":"Maya 玛雅","lon":"121.45645483","lat":"31.221630316","category":"500","category_name":"未知分类","address":"上海巨鹿路568弄四方新城俱乐部2楼(近襄阳北路)/62896889"},{"poiid":"B2094757D068A4F44998","title":"静安书友汇","lon":"121.45586","lat":"31.22468","category":"260","category_name":"其他","address":"静安区威海路870号(近延安中路)"},{"poiid":"B2094757D569A0FA479E","title":"马勒玫瑰公主咖啡吧","lon":"121.456317","lat":"31.22291612","category":"65","category_name":"咖啡厅","address":"中国上海市静安区陕西南路"},{"poiid":"B2094654DA6CA0F8429B","title":"小实惠","lon":"121.456031054","lat":"31.224860793","category":"76","category_name":"上海菜","address":"静安区威海路855号(近陕西北路)"},{"poiid":"B2094757D56EA2F44999","title":"花园饭店玫瑰厅","lon":"121.4562828","lat":"31.2217012","category":"247","category_name":"餐饮美食","address":"茂名路"},{"poiid":"B209475DD26CA0F8449C","title":"Calypso","lon":"121.453918","lat":"31.22359","category":"500","category_name":"未知分类","address":"上海市 铜仁路近安义路，静安嘉里中心南区广场(铜仁路近安义路)"},{"poiid":"B2094757D064ABFF449E","title":"静安广场","lon":"121.454","lat":"31.2237","category":"500","category_name":"未知分类","address":"铁西兴华南街与十马路交汇处"},{"poiid":"B2094654DB64A5F4479D","title":"名轩上海高等食府","lon":"121.457","lat":"31.22273","category":"72","category_name":"广东菜","address":"卢湾区陕西南路5-7号城市酒店3楼(近巨鹿路)"},{"poiid":"B2094654DB65A6FB409A","title":"蔡元培故居","lon":"121.453","lat":"31.2251","category":"250","category_name":"公园户外","address":"静安区华山路303弄16号(希尔顿饭店斜对面)"},{"poiid":"B2094757D164A4FD4793","title":"甜蜜蜜威海路店","lon":"121.45572353","lat":"31.223760362","category":"67","category_name":"甜品店","address":"静安区威海路906号"},{"poiid":"B2094654DA6CA0FD499C","title":"上海展览中心(2号门)","lon":"121.45379","lat":"31.22367","category":"183","category_name":"展览馆","address":""},{"poiid":"B209475CDA69A6FB4598","title":"千两","lon":"121.452461","lat":"31.223594","category":"247","category_name":"餐饮美食","address":"上海市 嘉里中心"},{"poiid":"B2094750D26FA4FE429B","title":"starbucks","lon":"121.456367","lat":"31.225322","category":"247","category_name":"餐饮美食","address":"中兴泰富"},{"poiid":"B2094757D06AA5F9499A","title":"波特曼嘉丽Table自助餐厅","lon":"121.45688829","lat":"31.224855074","category":"500","category_name":"未知分类","address":"上海商城"},{"poiid":"B209475CD56DA0FC439B","title":"桥餐厅","lon":"121.456184","lat":"31.223388","category":"500","category_name":"未知分类","address":"上海市 上海市陕西南路5-7号 城市酒店一楼"},{"poiid":"B2094750D669AAFF499C","title":"上海书展","lon":"121.454536","lat":"31.223281","category":"500","category_name":"未知分类","address":null},{"poiid":"B2094757D064A3FA4298","title":"维吾尔餐厅","lon":"121.45204","lat":"31.22485","category":"90","category_name":"清真餐馆","address":"静安区延安中路915号(近铜仁路)"},{"poiid":"B2094757D06AA0FA4393","title":"东方早报","lon":"121.45478057","lat":"31.222553253","category":"46","category_name":"楼宇","address":"延安中路839号上海新世纪广告交易中心8-11,19,21层"},{"poiid":"B2094654DA6CA0FD499E","title":"上海展览中心","lon":"121.45289","lat":"31.22459","category":"183","category_name":"展览馆","address":"静安区延安中路1000号(近铜仁路)"},{"poiid":"B2094757D06FA3FD4092","title":"马勒别墅","lon":"121.45619201","lat":"31.223121643","category":"47","category_name":"住宅区","address":"上海陕西南路30号"},{"poiid":"B2094757D06FA1FA419B","title":"福记港式茶粥面","lon":"121.45690546","lat":"31.222352362","category":"72","category_name":"广东菜","address":"卢湾区陕西南路11号(近巨鹿路)"},{"poiid":"B2094753D76FAAFA449C","title":"上海滩国泰旗舰店","lon":"121.466011","lat":"31.216125","category":"249","category_name":"购物服务","address":"淮海中路868号"},{"poiid":"B209475CD564A7F84292","title":"上海滩新天地店","lon":"121.47463","lat":"31.22164","category":"119","category_name":"商场","address":"\"太仓路181弄新天地北里15号\r\n\""},{"poiid":"B209475CD564A7F8439E","title":"上海滩中信泰富店","lon":"121.45602","lat":"31.22851","category":"119","category_name":"商场","address":"\"南京西路1168号中信泰富广场，店铺号221.\r\n\""},{"poiid":"B2094757D06FA1F44092","title":"俏江南881会所","lon":"121.45404","lat":"31.22261","category":"71","category_name":"四川菜","address":"静安区武定路881号(常德路口)"},{"poiid":"B2094655D269A4F9499A","title":"泰厨","lon":"121.454576054","lat":"31.223437793","category":"99","category_name":"泰国／越南菜品餐厅","address":"静安区延安中路841号东方海外大厦1楼(近陕西南路)"},{"poiid":"B2094757D06FA0FB409D","title":"Cafe La Mer(玛赫咖啡)","lon":"121.45616054","lat":"31.221554178","category":"65","category_name":"咖啡厅","address":"上海静安区巨鹿路677号(近陕西南路)"},{"poiid":"B2094757D06FA2F54598","title":"梅园村酒家(静安店)","lon":"121.45489","lat":"31.223","category":"76","category_name":"上海菜","address":"静安区延安中路841号(近陕西南路)"},{"poiid":"B2094757D06AAAF54692","title":"上海展览中心中央大厅","lon":"121.45311058","lat":"31.224167312","category":"500","category_name":"未知分类","address":"上海市静安区延安中路1000号"},{"poiid":"B2094654DA6CA0FD499F","title":"上海展览中心(3号门)","lon":"121.45308","lat":"31.22342","category":"183","category_name":"展览馆","address":"延安中路1000号"},{"poiid":"B2094757D065A1F8479A","title":"Kartel","lon":"121.45425058","lat":"31.221766265","category":"260","category_name":"其他","address":"静安区襄阳北路1号5楼(近巨鹿路)"},{"poiid":"B2094757D068A7FB459A","title":"Maya Mexican Restaurant","lon":"121.45522308","lat":"31.221933364","category":"500","category_name":"未知分类","address":"上海巨鹿路568号 四方新城俱樂部2樓"},{"poiid":"B2094757D06AA3FF4398","title":"高峰美式牛排馆","lon":"121.457064694","lat":"31.2226914554","category":"94","category_name":"西餐厅","address":"卢湾区陕西南路5-7号城市酒店5楼(近巨鹿路)"},{"poiid":"B2094757D06FA6FF4892","title":"科恩国际中心","lon":"121.45694732","lat":"31.224573135","category":"46","category_name":"楼宇","address":"人民路885号-889号"},{"poiid":"B2094757D06EAAFD4892","title":"微薄之盐—12th-day House","lon":"121.4562828","lat":"31.2217012","category":"67","category_name":"甜品店","address":"静安区巨鹿路516弄5号(近陕西南路)"},{"poiid":"B2094757D069A1FC4098","title":"玫瑰公主咖啡吧","lon":"121.456348427","lat":"31.2228919607","category":"260","category_name":"其他","address":"卢湾区陕西南路30号马勒别墅花园内(近延安中路)"},{"poiid":"B209475CD76EA1F94298","title":"吃完咸的吃点甜的","lon":"121.456405","lat":"31.221799","category":"247","category_name":"餐饮美食","address":"上海市 长乐路620号"},{"poiid":"B2094757D06AA7FF449C","title":"巨鹿大厦","lon":"121.454","lat":"31.224","category":"46","category_name":"楼宇","address":"上海市奉贤区环城东路455,465弄"},{"poiid":"B2094757D06AA3F9439F","title":"梅亭","lon":"121.45426178","lat":"31.2232208252","category":"86","category_name":"火锅店","address":"静安区延安中路841号东方海外大厦1楼(近铜仁路)"},{"poiid":"B2094757D465A6F44093","title":"董大师金牌稻香蛙 延安中路店","lon":"121.452610054","lat":"31.222697793","category":"71","category_name":"四川菜","address":"静安区延安中路917号(近铜仁路)"},{"poiid":"B2094654DB6AA3FE4298","title":"衡山马勒别墅中餐厅","lon":"121.4563","lat":"31.22289","category":"76","category_name":"上海菜","address":"上海市静安区陕西南路30号马勒别墅饭店1号楼1楼和2楼(近延安中路)"},{"poiid":"B2094757DB6FA7FB499B","title":"筑地青空三代目","lon":"121.4548103565655","lat":"31.22240874581705","category":"247","category_name":"餐饮美食","address":"卢湾区长乐路191号1-2楼(近茂名南路)"},{"poiid":"B2094757D064A4FD449A","title":"和良日式造型(威海)","lon":"121.456196738","lat":"31.2254711987","category":"148","category_name":"美容美发店","address":"上海威海路840号"},{"poiid":"B2094750D26DA6FE419F","title":"De Refer","lon":"121.454804","lat":"31.222628","category":"247","category_name":"餐饮美食","address":"卢湾区进贤路181号(近茂名南路)"},{"poiid":"B2094757D06AA3FD499C","title":"澳门豆捞坊","lon":"121.45491273","lat":"31.223712161","category":"86","category_name":"火锅店","address":"静安区延安中路817号(近陕西南路)"},{"poiid":"B2094750D16BA2F94199","title":"锦江迪生 唐宫一号","lon":"121.456863","lat":"31.223424","category":"247","category_name":"餐饮美食","address":"长乐路"},{"poiid":"B2094654DA6CA0FD499D","title":"上海展览中心(1号门)","lon":"121.45465","lat":"31.22404","category":"183","category_name":"展览馆","address":"延安中路1000-1"},{"poiid":"B2094757D165A4FC4593","title":"C'N'C中信泰富","lon":"121.456299738","lat":"31.2253271956","category":"500","category_name":"未知分类","address":"上海南京西路1168号地下一层LG09"},{"poiid":"B2094654D564A4FB4398","title":"华尔登广场","lon":"121.454","lat":"31.222","category":"46","category_name":"楼宇","address":"崇文区夕照寺大街"},{"poiid":"B2094753D36DA1FA4398","title":"平纳谷碳火牛排馆","lon":"121.457012","lat":"31.222848","category":"94","category_name":"西餐厅","address":"陕西南路5-7号城市酒店5楼"},{"poiid":"B2094757D16FA4FD4892","title":"Maya 玛雅","lon":"121.45645483","lat":"31.221630316","category":"500","category_name":"未知分类","address":"上海巨鹿路568弄四方新城俱乐部2楼(近襄阳北路)/62896889"},{"poiid":"B2094757D068A4F44998","title":"静安书友汇","lon":"121.45586","lat":"31.22468","category":"260","category_name":"其他","address":"静安区威海路870号(近延安中路)"},{"poiid":"B2094757D569A0FA479E","title":"马勒玫瑰公主咖啡吧","lon":"121.456317","lat":"31.22291612","category":"65","category_name":"咖啡厅","address":"中国上海市静安区陕西南路"},{"poiid":"B2094654DA6CA0F8429B","title":"小实惠","lon":"121.456031054","lat":"31.224860793","category":"76","category_name":"上海菜","address":"静安区威海路855号(近陕西北路)"},{"poiid":"B2094757D56EA2F44999","title":"花园饭店玫瑰厅","lon":"121.4562828","lat":"31.2217012","category":"247","category_name":"餐饮美食","address":"茂名路"},{"poiid":"B209475DD26CA0F8449C","title":"Calypso","lon":"121.453918","lat":"31.22359","category":"500","category_name":"未知分类","address":"上海市 铜仁路近安义路，静安嘉里中心南区广场(铜仁路近安义路)"},{"poiid":"B2094757D064ABFF449E","title":"静安广场","lon":"121.454","lat":"31.2237","category":"500","category_name":"未知分类","address":"铁西兴华南街与十马路交汇处"},{"poiid":"B2094654DB64A5F4479D","title":"名轩上海高等食府","lon":"121.457","lat":"31.22273","category":"72","category_name":"广东菜","address":"卢湾区陕西南路5-7号城市酒店3楼(近巨鹿路)"},{"poiid":"B2094654DB65A6FB409A","title":"蔡元培故居","lon":"121.453","lat":"31.2251","category":"250","category_name":"公园户外","address":"静安区华山路303弄16号(希尔顿饭店斜对面)"},{"poiid":"B2094757D164A4FD4793","title":"甜蜜蜜威海路店","lon":"121.45572353","lat":"31.223760362","category":"67","category_name":"甜品店","address":"静安区威海路906号"},{"poiid":"B2094654DA6CA0FD499C","title":"上海展览中心(2号门)","lon":"121.45379","lat":"31.22367","category":"183","category_name":"展览馆","address":""},{"poiid":"B209475CDA69A6FB4598","title":"千两","lon":"121.452461","lat":"31.223594","category":"247","category_name":"餐饮美食","address":"上海市 嘉里中心"},{"poiid":"B2094750D26FA4FE429B","title":"starbucks","lon":"121.456367","lat":"31.225322","category":"247","category_name":"餐饮美食","address":"中兴泰富"},{"poiid":"B2094757D06AA5F9499A","title":"波特曼嘉丽Table自助餐厅","lon":"121.45688829","lat":"31.224855074","category":"500","category_name":"未知分类","address":"上海商城"},{"poiid":"B209475CD56DA0FC439B","title":"桥餐厅","lon":"121.456184","lat":"31.223388","category":"500","category_name":"未知分类","address":"上海市 上海市陕西南路5-7号 城市酒店一楼"},{"poiid":"B2094750D669AAFF499C","title":"上海书展","lon":"121.454536","lat":"31.223281","category":"500","category_name":"未知分类","address":null},{"poiid":"B2094757D064A3FA4298","title":"维吾尔餐厅","lon":"121.45204","lat":"31.22485","category":"90","category_name":"清真餐馆","address":"静安区延安中路915号(近铜仁路)"},{"poiid":"B2094757D06AA0FA4393","title":"东方早报","lon":"121.45478057","lat":"31.222553253","category":"46","category_name":"楼宇","address":"延安中路839号上海新世纪广告交易中心8-11,19,21层"},{"poiid":"B2094654DA6CA0FD499E","title":"上海展览中心","lon":"121.45289","lat":"31.22459","category":"183","category_name":"展览馆","address":"静安区延安中路1000号(近铜仁路)"},{"poiid":"B2094757D06FA3FD4092","title":"马勒别墅","lon":"121.45619201","lat":"31.223121643","category":"47","category_name":"住宅区","address":"上海陕西南路30号"},{"poiid":"B2094757D06FA1FA419B","title":"福记港式茶粥面","lon":"121.45690546","lat":"31.222352362","category":"72","category_name":"广东菜","address":"卢湾区陕西南路11号(近巨鹿路)"},{"poiid":"B2094753D76FAAFA449C","title":"上海滩国泰旗舰店","lon":"121.466011","lat":"31.216125","category":"249","category_name":"购物服务","address":"淮海中路868号"},{"poiid":"B209475CD564A7F84292","title":"上海滩新天地店","lon":"121.47463","lat":"31.22164","category":"119","category_name":"商场","address":"\"太仓路181弄新天地北里15号\r\n\""},{"poiid":"B209475CD564A7F8439E","title":"上海滩中信泰富店","lon":"121.45602","lat":"31.22851","category":"119","category_name":"商场","address":"\"南京西路1168号中信泰富广场，店铺号221.\r\n\""},{"poiid":"B2094757D06FA1F44092","title":"俏江南881会所","lon":"121.45404","lat":"31.22261","category":"71","category_name":"四川菜","address":"静安区武定路881号(常德路口)"},{"poiid":"B2094655D269A4F9499A","title":"泰厨","lon":"121.454576054","lat":"31.223437793","category":"99","category_name":"泰国／越南菜品餐厅","address":"静安区延安中路841号东方海外大厦1楼(近陕西南路)"},{"poiid":"B2094757D06FA0FB409D","title":"Cafe La Mer(玛赫咖啡)","lon":"121.45616054","lat":"31.221554178","category":"65","category_name":"咖啡厅","address":"上海静安区巨鹿路677号(近陕西南路)"},{"poiid":"B2094757D06FA2F54598","title":"梅园村酒家(静安店)","lon":"121.45489","lat":"31.223","category":"76","category_name":"上海菜","address":"静安区延安中路841号(近陕西南路)"},{"poiid":"B2094757D06AAAF54692","title":"上海展览中心中央大厅","lon":"121.45311058","lat":"31.224167312","category":"500","category_name":"未知分类","address":"上海市静安区延安中路1000号"},{"poiid":"B2094654DA6CA0FD499F","title":"上海展览中心(3号门)","lon":"121.45308","lat":"31.22342","category":"183","category_name":"展览馆","address":"延安中路1000号"},{"poiid":"B2094757D065A1F8479A","title":"Kartel","lon":"121.45425058","lat":"31.221766265","category":"260","category_name":"其他","address":"静安区襄阳北路1号5楼(近巨鹿路)"},{"poiid":"B2094757D068A7FB459A","title":"Maya Mexican Restaurant","lon":"121.45522308","lat":"31.221933364","category":"500","category_name":"未知分类","address":"上海巨鹿路568号 四方新城俱樂部2樓"},{"poiid":"B2094757D06AA3FF4398","title":"高峰美式牛排馆","lon":"121.457064694","lat":"31.2226914554","category":"94","category_name":"西餐厅","address":"卢湾区陕西南路5-7号城市酒店5楼(近巨鹿路)"},{"poiid":"B2094757D06FA6FF4892","title":"科恩国际中心","lon":"121.45694732","lat":"31.224573135","category":"46","category_name":"楼宇","address":"人民路885号-889号"},{"poiid":"B2094757D06EAAFD4892","title":"微薄之盐—12th-day House","lon":"121.4562828","lat":"31.2217012","category":"67","category_name":"甜品店","address":"静安区巨鹿路516弄5号(近陕西南路)"},{"poiid":"B2094757D069A1FC4098","title":"玫瑰公主咖啡吧","lon":"121.456348427","lat":"31.2228919607","category":"260","category_name":"其他","address":"卢湾区陕西南路30号马勒别墅花园内(近延安中路)"},{"poiid":"B209475CD76EA1F94298","title":"吃完咸的吃点甜的","lon":"121.456405","lat":"31.221799","category":"247","category_name":"餐饮美食","address":"上海市 长乐路620号"},{"poiid":"B2094757D06AA7FF449C","title":"巨鹿大厦","lon":"121.454","lat":"31.224","category":"46","category_name":"楼宇","address":"上海市奉贤区环城东路455,465弄"},{"poiid":"B2094757D06AA3F9439F","title":"梅亭","lon":"121.45426178","lat":"31.2232208252","category":"86","category_name":"火锅店","address":"静安区延安中路841号东方海外大厦1楼(近铜仁路)"},{"poiid":"B2094757D465A6F44093","title":"董大师金牌稻香蛙 延安中路店","lon":"121.452610054","lat":"31.222697793","category":"71","category_name":"四川菜","address":"静安区延安中路917号(近铜仁路)"},{"poiid":"B2094654DB6AA3FE4298","title":"衡山马勒别墅中餐厅","lon":"121.4563","lat":"31.22289","category":"76","category_name":"上海菜","address":"上海市静安区陕西南路30号马勒别墅饭店1号楼1楼和2楼(近延安中路)"},{"poiid":"B2094757DB6FA7FB499B","title":"筑地青空三代目","lon":"121.4548103565655","lat":"31.22240874581705","category":"247","category_name":"餐饮美食","address":"卢湾区长乐路191号1-2楼(近茂名南路)"},{"poiid":"B2094757D064A4FD449A","title":"和良日式造型(威海)","lon":"121.456196738","lat":"31.2254711987","category":"148","category_name":"美容美发店","address":"上海威海路840号"},{"poiid":"B2094750D26DA6FE419F","title":"De Refer","lon":"121.454804","lat":"31.222628","category":"247","category_name":"餐饮美食","address":"卢湾区进贤路181号(近茂名南路)"},{"poiid":"B2094757D06AA3FD499C","title":"澳门豆捞坊","lon":"121.45491273","lat":"31.223712161","category":"86","category_name":"火锅店","address":"静安区延安中路817号(近陕西南路)"},{"poiid":"B2094750D16BA2F94199","title":"锦江迪生 唐宫一号","lon":"121.456863","lat":"31.223424","category":"247","category_name":"餐饮美食","address":"长乐路"},{"poiid":"B2094654DA6CA0FD499D","title":"上海展览中心(1号门)","lon":"121.45465","lat":"31.22404","category":"183","category_name":"展览馆","address":"延安中路1000-1"},{"poiid":"B2094757D165A4FC4593","title":"C'N'C中信泰富","lon":"121.456299738","lat":"31.2253271956","category":"500","category_name":"未知分类","address":"上海南京西路1168号地下一层LG09"},{"poiid":"B2094654D564A4FB4398","title":"华尔登广场","lon":"121.454","lat":"31.222","category":"46","category_name":"楼宇","address":"崇文区夕照寺大街"},{"poiid":"B2094753D36DA1FA4398","title":"平纳谷碳火牛排馆","lon":"121.457012","lat":"31.222848","category":"94","category_name":"西餐厅","address":"陕西南路5-7号城市酒店5楼"},{"poiid":"B2094757D16FA4FD4892","title":"Maya 玛雅","lon":"121.45645483","lat":"31.221630316","category":"500","category_name":"未知分类","address":"上海巨鹿路568弄四方新城俱乐部2楼(近襄阳北路)/62896889"},{"poiid":"B2094757D068A4F44998","title":"静安书友汇","lon":"121.45586","lat":"31.22468","category":"260","category_name":"其他","address":"静安区威海路870号(近延安中路)"},{"poiid":"B2094757D569A0FA479E","title":"马勒玫瑰公主咖啡吧","lon":"121.456317","lat":"31.22291612","category":"65","category_name":"咖啡厅","address":"中国上海市静安区陕西南路"},{"poiid":"B2094654DA6CA0F8429B","title":"小实惠","lon":"121.456031054","lat":"31.224860793","category":"76","category_name":"上海菜","address":"静安区威海路855号(近陕西北路)"},{"poiid":"B2094757D56EA2F44999","title":"花园饭店玫瑰厅","lon":"121.4562828","lat":"31.2217012","category":"247","category_name":"餐饮美食","address":"茂名路"},{"poiid":"B209475DD26CA0F8449C","title":"Calypso","lon":"121.453918","lat":"31.22359","category":"500","category_name":"未知分类","address":"上海市 铜仁路近安义路，静安嘉里中心南区广场(铜仁路近安义路)"},{"poiid":"B2094757D064ABFF449E","title":"静安广场","lon":"121.454","lat":"31.2237","category":"500","category_name":"未知分类","address":"铁西兴华南街与十马路交汇处"},{"poiid":"B2094654DB64A5F4479D","title":"名轩上海高等食府","lon":"121.457","lat":"31.22273","category":"72","category_name":"广东菜","address":"卢湾区陕西南路5-7号城市酒店3楼(近巨鹿路)"},{"poiid":"B2094654DB65A6FB409A","title":"蔡元培故居","lon":"121.453","lat":"31.2251","category":"250","category_name":"公园户外","address":"静安区华山路303弄16号(希尔顿饭店斜对面)"},{"poiid":"B2094757D164A4FD4793","title":"甜蜜蜜威海路店","lon":"121.45572353","lat":"31.223760362","category":"67","category_name":"甜品店","address":"静安区威海路906号"},{"poiid":"B2094654DA6CA0FD499C","title":"上海展览中心(2号门)","lon":"121.45379","lat":"31.22367","category":"183","category_name":"展览馆","address":""},{"poiid":"B209475CDA69A6FB4598","title":"千两","lon":"121.452461","lat":"31.223594","category":"247","category_name":"餐饮美食","address":"上海市 嘉里中心"},{"poiid":"B2094750D26FA4FE429B","title":"starbucks","lon":"121.456367","lat":"31.225322","category":"247","category_name":"餐饮美食","address":"中兴泰富"},{"poiid":"B2094757D06AA5F9499A","title":"波特曼嘉丽Table自助餐厅","lon":"121.45688829","lat":"31.224855074","category":"500","category_name":"未知分类","address":"上海商城"},{"poiid":"B209475CD56DA0FC439B","title":"桥餐厅","lon":"121.456184","lat":"31.223388","category":"500","category_name":"未知分类","address":"上海市 上海市陕西南路5-7号 城市酒店一楼"},{"poiid":"B2094750D669AAFF499C","title":"上海书展","lon":"121.454536","lat":"31.223281","category":"500","category_name":"未知分类","address":null},{"poiid":"B2094757D064A3FA4298","title":"维吾尔餐厅","lon":"121.45204","lat":"31.22485","category":"90","category_name":"清真餐馆","address":"静安区延安中路915号(近铜仁路)"},{"poiid":"B2094757D06AA0FA4393","title":"东方早报","lon":"121.45478057","lat":"31.222553253","category":"46","category_name":"楼宇","address":"延安中路839号上海新世纪广告交易中心8-11,19,21层"},{"poiid":"B2094654DA6CA0FD499E","title":"上海展览中心","lon":"121.45289","lat":"31.22459","category":"183","category_name":"展览馆","address":"静安区延安中路1000号(近铜仁路)"},{"poiid":"B2094757D06FA3FD4092","title":"马勒别墅","lon":"121.45619201","lat":"31.223121643","category":"47","category_name":"住宅区","address":"上海陕西南路30号"},{"poiid":"B2094757D06FA1FA419B","title":"福记港式茶粥面","lon":"121.45690546","lat":"31.222352362","category":"72","category_name":"广东菜","address":"卢湾区陕西南路11号(近巨鹿路)"},{"poiid":"B2094753D76FAAFA449C","title":"上海滩国泰旗舰店","lon":"121.466011","lat":"31.216125","category":"249","category_name":"购物服务","address":"淮海中路868号"},{"poiid":"B209475CD564A7F84292","title":"上海滩新天地店","lon":"121.47463","lat":"31.22164","category":"119","category_name":"商场","address":"\"太仓路181弄新天地北里15号\r\n\""},{"poiid":"B209475CD564A7F8439E","title":"上海滩中信泰富店","lon":"121.45602","lat":"31.22851","category":"119","category_name":"商场","address":"\"南京西路1168号中信泰富广场，店铺号221.\r\n\""},{"poiid":"B2094757D06FA1F44092","title":"俏江南881会所","lon":"121.45404","lat":"31.22261","category":"71","category_name":"四川菜","address":"静安区武定路881号(常德路口)"},{"poiid":"B2094655D269A4F9499A","title":"泰厨","lon":"121.454576054","lat":"31.223437793","category":"99","category_name":"泰国／越南菜品餐厅","address":"静安区延安中路841号东方海外大厦1楼(近陕西南路)"},{"poiid":"B2094757D06FA0FB409D","title":"Cafe La Mer(玛赫咖啡)","lon":"121.45616054","lat":"31.221554178","category":"65","category_name":"咖啡厅","address":"上海静安区巨鹿路677号(近陕西南路)"},{"poiid":"B2094757D06FA2F54598","title":"梅园村酒家(静安店)","lon":"121.45489","lat":"31.223","category":"76","category_name":"上海菜","address":"静安区延安中路841号(近陕西南路)"},{"poiid":"B2094757D06AAAF54692","title":"上海展览中心中央大厅","lon":"121.45311058","lat":"31.224167312","category":"500","category_name":"未知分类","address":"上海市静安区延安中路1000号"},{"poiid":"B2094654DA6CA0FD499F","title":"上海展览中心(3号门)","lon":"121.45308","lat":"31.22342","category":"183","category_name":"展览馆","address":"延安中路1000号"},{"poiid":"B2094757D065A1F8479A","title":"Kartel","lon":"121.45425058","lat":"31.221766265","category":"260","category_name":"其他","address":"静安区襄阳北路1号5楼(近巨鹿路)"},{"poiid":"B2094757D068A7FB459A","title":"Maya Mexican Restaurant","lon":"121.45522308","lat":"31.221933364","category":"500","category_name":"未知分类","address":"上海巨鹿路568号 四方新城俱樂部2樓"},{"poiid":"B2094757D06AA3FF4398","title":"高峰美式牛排馆","lon":"121.457064694","lat":"31.2226914554","category":"94","category_name":"西餐厅","address":"卢湾区陕西南路5-7号城市酒店5楼(近巨鹿路)"},{"poiid":"B2094757D06FA6FF4892","title":"科恩国际中心","lon":"121.45694732","lat":"31.224573135","category":"46","category_name":"楼宇","address":"人民路885号-889号"},{"poiid":"B2094757D06EAAFD4892","title":"微薄之盐—12th-day House","lon":"121.4562828","lat":"31.2217012","category":"67","category_name":"甜品店","address":"静安区巨鹿路516弄5号(近陕西南路)"},{"poiid":"B2094757D069A1FC4098","title":"玫瑰公主咖啡吧","lon":"121.456348427","lat":"31.2228919607","category":"260","category_name":"其他","address":"卢湾区陕西南路30号马勒别墅花园内(近延安中路)"},{"poiid":"B209475CD76EA1F94298","title":"吃完咸的吃点甜的","lon":"121.456405","lat":"31.221799","category":"247","category_name":"餐饮美食","address":"上海市 长乐路620号"},{"poiid":"B2094757D06AA7FF449C","title":"巨鹿大厦","lon":"121.454","lat":"31.224","category":"46","category_name":"楼宇","address":"上海市奉贤区环城东路455,465弄"},{"poiid":"B2094757D06AA3F9439F","title":"梅亭","lon":"121.45426178","lat":"31.2232208252","category":"86","category_name":"火锅店","address":"静安区延安中路841号东方海外大厦1楼(近铜仁路)"},{"poiid":"B2094757D465A6F44093","title":"董大师金牌稻香蛙 延安中路店","lon":"121.452610054","lat":"31.222697793","category":"71","category_name":"四川菜","address":"静安区延安中路917号(近铜仁路)"},{"poiid":"B2094654DB6AA3FE4298","title":"衡山马勒别墅中餐厅","lon":"121.4563","lat":"31.22289","category":"76","category_name":"上海菜","address":"上海市静安区陕西南路30号马勒别墅饭店1号楼1楼和2楼(近延安中路)"},{"poiid":"B2094757DB6FA7FB499B","title":"筑地青空三代目","lon":"121.4548103565655","lat":"31.22240874581705","category":"247","category_name":"餐饮美食","address":"卢湾区长乐路191号1-2楼(近茂名南路)"},{"poiid":"B2094757D064A4FD449A","title":"和良日式造型(威海)","lon":"121.456196738","lat":"31.2254711987","category":"148","category_name":"美容美发店","address":"上海威海路840号"},{"poiid":"B2094750D26DA6FE419F","title":"De Refer","lon":"121.454804","lat":"31.222628","category":"247","category_name":"餐饮美食","address":"卢湾区进贤路181号(近茂名南路)"},{"poiid":"B2094757D06AA3FD499C","title":"澳门豆捞坊","lon":"121.45491273","lat":"31.223712161","category":"86","category_name":"火锅店","address":"静安区延安中路817号(近陕西南路)"},{"poiid":"B2094750D16BA2F94199","title":"锦江迪生 唐宫一号","lon":"121.456863","lat":"31.223424","category":"247","category_name":"餐饮美食","address":"长乐路"},{"poiid":"B2094654DA6CA0FD499D","title":"上海展览中心(1号门)","lon":"121.45465","lat":"31.22404","category":"183","category_name":"展览馆","address":"延安中路1000-1"},{"poiid":"B2094757D165A4FC4593","title":"C'N'C中信泰富","lon":"121.456299738","lat":"31.2253271956","category":"500","category_name":"未知分类","address":"上海南京西路1168号地下一层LG09"},{"poiid":"B2094654D564A4FB4398","title":"华尔登广场","lon":"121.454","lat":"31.222","category":"46","category_name":"楼宇","address":"崇文区夕照寺大街"},{"poiid":"B2094753D36DA1FA4398","title":"平纳谷碳火牛排馆","lon":"121.457012","lat":"31.222848","category":"94","category_name":"西餐厅","address":"陕西南路5-7号城市酒店5楼"},{"poiid":"B2094757D16FA4FD4892","title":"Maya 玛雅","lon":"121.45645483","lat":"31.221630316","category":"500","category_name":"未知分类","address":"上海巨鹿路568弄四方新城俱乐部2楼(近襄阳北路)/62896889"},{"poiid":"B2094757D068A4F44998","title":"静安书友汇","lon":"121.45586","lat":"31.22468","category":"260","category_name":"其他","address":"静安区威海路870号(近延安中路)"},{"poiid":"B2094757D569A0FA479E","title":"马勒玫瑰公主咖啡吧","lon":"121.456317","lat":"31.22291612","category":"65","category_name":"咖啡厅","address":"中国上海市静安区陕西南路"},{"poiid":"B2094654DA6CA0F8429B","title":"小实惠","lon":"121.456031054","lat":"31.224860793","category":"76","category_name":"上海菜","address":"静安区威海路855号(近陕西北路)"},{"poiid":"B2094757D56EA2F44999","title":"花园饭店玫瑰厅","lon":"121.4562828","lat":"31.2217012","category":"247","category_name":"餐饮美食","address":"茂名路"},{"poiid":"B209475DD26CA0F8449C","title":"Calypso","lon":"121.453918","lat":"31.22359","category":"500","category_name":"未知分类","address":"上海市 铜仁路近安义路，静安嘉里中心南区广场(铜仁路近安义路)"},{"poiid":"B2094757D064ABFF449E","title":"静安广场","lon":"121.454","lat":"31.2237","category":"500","category_name":"未知分类","address":"铁西兴华南街与十马路交汇处"},{"poiid":"B2094654DB64A5F4479D","title":"名轩上海高等食府","lon":"121.457","lat":"31.22273","category":"72","category_name":"广东菜","address":"卢湾区陕西南路5-7号城市酒店3楼(近巨鹿路)"},{"poiid":"B2094654DB65A6FB409A","title":"蔡元培故居","lon":"121.453","lat":"31.2251","category":"250","category_name":"公园户外","address":"静安区华山路303弄16号(希尔顿饭店斜对面)"},{"poiid":"B2094757D164A4FD4793","title":"甜蜜蜜威海路店","lon":"121.45572353","lat":"31.223760362","category":"67","category_name":"甜品店","address":"静安区威海路906号"},{"poiid":"B2094654DA6CA0FD499C","title":"上海展览中心(2号门)","lon":"121.45379","lat":"31.22367","category":"183","category_name":"展览馆","address":""},{"poiid":"B209475CDA69A6FB4598","title":"千两","lon":"121.452461","lat":"31.223594","category":"247","category_name":"餐饮美食","address":"上海市 嘉里中心"},{"poiid":"B2094750D26FA4FE429B","title":"starbucks","lon":"121.456367","lat":"31.225322","category":"247","category_name":"餐饮美食","address":"中兴泰富"},{"poiid":"B2094757D06AA5F9499A","title":"波特曼嘉丽Table自助餐厅","lon":"121.45688829","lat":"31.224855074","category":"500","category_name":"未知分类","address":"上海商城"},{"poiid":"B209475CD56DA0FC439B","title":"桥餐厅","lon":"121.456184","lat":"31.223388","category":"500","category_name":"未知分类","address":"上海市 上海市陕西南路5-7号 城市酒店一楼"},{"poiid":"B2094750D669AAFF499C","title":"上海书展","lon":"121.454536","lat":"31.223281","category":"500","category_name":"未知分类","address":null},{"poiid":"B2094757D064A3FA4298","title":"维吾尔餐厅","lon":"121.45204","lat":"31.22485","category":"90","category_name":"清真餐馆","address":"静安区延安中路915号(近铜仁路)"},{"poiid":"B2094757D06AA0FA4393","title":"东方早报","lon":"121.45478057","lat":"31.222553253","category":"46","category_name":"楼宇","address":"延安中路839号上海新世纪广告交易中心8-11,19,21层"}]