[{"poiid":"B2094655D269ABFD469B","title":"静安寺","lon":"121.44552","lat":"31.22324","category":"244","category_name":"寺庙道观","address":"静安区南京西路1686号(近静安寺)"},{"poiid":"B2094655D26EA2FD4592","title":"巴厘岛","lon":"121.44594","lat":"31.22133","category":"110","category_name":"其他亚洲菜","address":"静安区华山路189号静安公园3号门(近延安路高架)"},{"poiid":"B2094655D269A4F5449A","title":"希尔顿酒店","lon":"121.44522","lat":"31.2193","category":"247","category_name":"餐饮美食","address":"静安区华山路250号(近延安西路)"},{"poiid":"B2094753D76FAAFA449C","title":"上海滩国泰旗舰店","lon":"121.466011","lat":"31.216125","category":"249","category_name":"购物服务","address":"淮海中路868号"},{"poiid":"B209475CD564A7F84292","title":"上海滩新天地店","lon":"121.47463","lat":"31.22164","category":"119","category_name":"商场","address":"\"太仓路181弄新天地北里15号\r\n\""},{"poiid":"B209475CD564A7F8439E","title":"上海滩中信泰富店","lon":"121.45602","lat":"31.22851","category":"119","category_name":"商场","address":"\"南京西路1168号中信泰富广场，店铺号221.\r\n\""},{"poiid":"B2094654DB65A6F4469D","title":"上海国际贵都大饭店","lon":"121.44453","lat":"31.21998","category":"213","category_name":"五星级宾馆","address":"北京西路1028号,江宁路168号"},{"poiid":"B2094757D06EAAFE429B","title":"会德丰国际广场(Wheelock Square)","lon":"121.44492732","lat":"31.221689318","category":"46","category_name":"楼宇","address":"上海静安区南京西路1717号"},{"poiid":"B2094757D06FAAF8419C","title":"DOZO创作和食居酒屋","lon":"121.444619386","lat":"31.2216995642","category":"95","category_name":"日本料理","address":"静安区南京西路1717号会德丰国际广场南院2楼(近华山路)"},{"poiid":"B2094757D06FA4FE4692","title":"中国福利会少年宫","lon":"121.443738","lat":"31.221309","category":"500","category_name":"未知分类","address":"上海延安西路64号"},{"poiid":"B2094750D26AABFB4392","title":"糖员外私房甜品","lon":"121.443054","lat":"31.221466","category":"67","category_name":"甜品店","address":"静安区南京西路1887号(近乌鲁木齐北路)"},{"poiid":"B2094757D069A5FF4299","title":"1788国际大厦(Eco City)","lon":"121.445082286","lat":"31.2224787794","category":"252","category_name":"楼宇机构","address":"上海南京西路1788号"},{"poiid":"B2094654DB69A6FB4798","title":"豆捞坊火锅(静安店)","lon":"121.44467","lat":"31.22254","category":"86","category_name":"火锅店","address":"静安区南京西路1728号百乐门大酒店20-21楼(近华山路)"},{"poiid":"B2094757D06FA0FC459D","title":"高木日本料理(静安店)","lon":"121.44357","lat":"31.2215","category":"95","category_name":"日本料理","address":"静安区南京西路1856号炫动乐百动漫城4楼西区(近乌鲁木齐北路)"},{"poiid":"B2094757D06FA7FA4899","title":"苏浙汇(静安店)","lon":"121.4476","lat":"31.22033","category":"76","category_name":"上海菜","address":"静安区延安中路1121号(近华山路)"},{"poiid":"B2094654D564ABFF489D","title":"我家餐厅 MY HOME","lon":"121.44573848552","lat":"31.219784895865","category":"76","category_name":"上海菜","address":"静安区华山路229弄7号(近延安西路)"},{"poiid":"B2094654D564A4F54793","title":"钱柜(乌鲁木齐北路)","lon":"121.44374","lat":"31.21874","category":"170","category_name":"KTV","address":"上海静安区乌鲁木齐北路459号(近延安西路)"},{"poiid":"B2094757DB68A5F44099","title":"一哥肥牛火锅海鲜酒家 静安店","lon":"121.443796054","lat":"31.222098793","category":"86","category_name":"火锅店","address":"静安区南京西路1856号乐百新都商厦3楼(近乌鲁木齐北路)"},{"poiid":"B2094757D06FA4FD4298","title":"锅比盆大(华山旗舰店)","lon":"121.445995862","lat":"31.2196759733","category":"86","category_name":"火锅店","address":"静安区华山路301-1号(近常熟路)"},{"poiid":"B2094757DB68A4F9489C","title":"名宴粤菜","lon":"121.44304218656919","lat":"31.221484522382806","category":"72","category_name":"广东菜","address":"静安区南京西路1856号2楼(近静安寺)"},{"poiid":"B2094757D065AAFD439C","title":"巴厘岛印尼东南亚餐厅","lon":"121.445717586","lat":"31.2222982759","category":"500","category_name":"未知分类","address":"上海市静安区华山路189号"},{"poiid":"B2094757D068ABFC499E","title":"万泰国际大厦","lon":"121.444421782","lat":"31.2191420635","category":"46","category_name":"楼宇","address":"虹口区纪念路500号"},{"poiid":"B2094757D068A5F9419C","title":"中福会少年宫","lon":"121.44419835","lat":"31.220838763","category":"190","category_name":"培训机构","address":"静安区延安西路64号(贵都酒店对面)"},{"poiid":"B2094655D26FABF44193","title":"上海希尔顿酒店(东二门)","lon":"121.44596","lat":"31.21889","category":"213","category_name":"五星级宾馆","address":"上海市静安区华山路250号（近延安西路）"},{"poiid":"B2094757D469A6FF4298","title":"歌舞伎料亭","lon":"121.444671","lat":"31.222538","category":"95","category_name":"日本料理","address":"静安区南京西路1728号百乐门大酒店6楼(近华山路)"},{"poiid":"B2094752D56BA2FB4492","title":"plaza pizza","lon":"121.446632","lat":"31.218647","category":"247","category_name":"餐饮美食","address":"华山路325号-1(常熟路口)"},{"poiid":"B2094757D064A5F9439C","title":"Sabatini意大利餐厅","lon":"121.446666586","lat":"31.2211182528","category":"500","category_name":"未知分类","address":"南京西路1717号会德丰国际广场南苑1楼"},{"poiid":"B2094751DA6FA3FF4699","title":"保罗饭店","lon":"121.444537","lat":"31.21829","category":"247","category_name":"餐饮美食","address":"富民路271号(近长乐路)"},{"poiid":"B2094654D564ABFC419B","title":"静安宾馆","lon":"121.44412","lat":"31.21932","category":"215","category_name":"三星级宾馆","address":"华山路370号"},{"poiid":"B2094757D06FA2F84799","title":"伊美时尚广场","lon":"121.44570962","lat":"31.222571385","category":"249","category_name":"购物服务","address":"静安区南京西路1699号伊美时尚广场内(近静安寺)"},{"poiid":"B2094757D069A5FA4598","title":"纽约客匹萨 静安寺店 NEW YORK STYLE PIZZA","lon":"121.447439054","lat":"31.223316793","category":"94","category_name":"西餐厅","address":"静安区南京西路1699号伊美时尚广场J16号铺(近静安寺)"},{"poiid":"B2094654D564A4FB4899","title":"尖沙咀酒家","lon":"121.44338655804","lat":"31.219689044062","category":"72","category_name":"广东菜","address":"静安区延安西路129号华侨大厦4楼(近乌鲁木齐北路)"},{"poiid":"B2094757D469A7F5409A","title":"晶堂群英会","lon":"121.444671","lat":"31.222538","category":"72","category_name":"广东菜","address":"静安区南京西路1728号百乐门大酒店7楼(近地铁2号线静安寺站)"},{"poiid":"B2094654D564A4FB479E","title":"上林铁板烧","lon":"121.44375","lat":"31.21971","category":"269","category_name":"烧烤","address":"静安区延安西路129号华侨大厦1楼(近乌鲁木齐北路)"},{"poiid":"B2094757D069A7F84999","title":"靜安寺廟","lon":"121.44488058","lat":"31.22254628","category":"244","category_name":"寺庙道观","address":"上海静安区乌鲁木齐北路"},{"poiid":"B2094757D06FA7F8449B","title":"静安寺下沉式广场","lon":"121.44625","lat":"31.22236","category":"119","category_name":"商场","address":"静安区南京西路(近华山路)"},{"poiid":"B2094757D068AAFA469B","title":"上海外事服务中心","lon":"121.44552897","lat":"31.220250877","category":"260","category_name":"其他","address":"静安区华山路228号上海国际贵都大饭店办公楼2-3楼"},{"poiid":"B209475CD16AA1FC459C","title":"艾米1895电影街","lon":"121.447013","lat":"31.222036","category":"178","category_name":"电影院","address":"上海市 上海市北京西路1829号4楼 靠近愚园路"},{"poiid":"B2094654DB6BA6FF4998","title":"上海百乐门大酒店","lon":"121.44466","lat":"31.22253","category":"215","category_name":"三星级宾馆","address":"静安区南京西路1728号"},{"poiid":"B209475CD26DA4FE419A","title":"10·corso·como","lon":"121.445999","lat":"31.220499","category":"500","category_name":"未知分类","address":"上海市 南京西路1717号会德丰广场北院"},{"poiid":"B2094753D56FA4FA449E","title":"德站琪韩国年糕料理","lon":"121.444396","lat":"31.221853","category":"247","category_name":"餐饮美食","address":"上海市 静安区南京西路1818号1788广场B1美食街内"},{"poiid":"B2094757D66EA5FC439A","title":"希尔顿连天阁","lon":"121.44552558","lat":"31.219270216","category":"500","category_name":"未知分类","address":"上海华山路250号"},{"poiid":"B2094757D66BA2F5439E","title":"李奥纳多达芬奇餐厅","lon":"121.445662054","lat":"31.219435793","category":"98","category_name":"意式菜品餐厅","address":"静安区华山路250号希尔顿酒店1楼(近延安西路)"},{"poiid":"B2094654DB69A0FB419C","title":"静安宾馆中餐厅","lon":"121.44568894175","lat":"31.218200256688","category":"247","category_name":"餐饮美食","address":"静安区华山路370号静安宾馆内(近乌鲁木齐北路)查看地图"},{"poiid":"B2094757D068A6FE4693","title":"九光百货","lon":"121.44697081","lat":"31.219561792","category":"249","category_name":"购物服务","address":"香港南京西路1618号"},{"poiid":"B2094655D264A1F8439A","title":"贵都帝王厅","lon":"121.44453","lat":"31.21999","category":"247","category_name":"餐饮美食","address":"延安西路65号国际贵都大酒店2层"},{"poiid":"B2094757D164AAF9489B","title":"常熟路","lon":"121.446295886","lat":"31.2191703147","category":"500","category_name":"未知分类","address":"上海常熟路长乐路口"},{"poiid":"B2094750D768A2F94493","title":"爱吃咖喱(南京西路店)","lon":"121.443","lat":"31.2205","category":"95","category_name":"日本料理","address":"静安区乌鲁木齐北路326号(近中福会少年宫)"},{"poiid":"B2094757D06BA1FC489D","title":"Brats/Soup","lon":"121.445498086","lat":"31.2222802755","category":"68","category_name":"快餐厅","address":"静安区南京西路1618号久光百货B1楼"},{"poiid":"B2094757D06AA5F8459B","title":"凯文厨房 Kaveen's Kitchen","lon":"121.44590921556","lat":"31.219920302393","category":"102","category_name":"印度风味","address":"静安区华山路231号2楼(近延安西路)"},{"poiid":"B2094655D269ABFD469B","title":"静安寺","lon":"121.44552","lat":"31.22324","category":"244","category_name":"寺庙道观","address":"静安区南京西路1686号(近静安寺)"},{"poiid":"B2094655D26EA2FD4592","title":"巴厘岛","lon":"121.44594","lat":"31.22133","category":"110","category_name":"其他亚洲菜","address":"静安区华山路189号静安公园3号门(近延安路高架)"},{"poiid":"B2094655D269A4F5449A","title":"希尔顿酒店","lon":"121.44522","lat":"31.2193","category":"247","category_name":"餐饮美食","address":"静安区华山路250号(近延安西路)"},{"poiid":"B2094753D76FAAFA449C","title":"上海滩国泰旗舰店","lon":"121.466011","lat":"31.216125","category":"249","category_name":"购物服务","address":"淮海中路868号"},{"poiid":"B209475CD564A7F84292","title":"上海滩新天地店","lon":"121.47463","lat":"31.22164","category":"119","category_name":"商场","address":"\"太仓路181弄新天地北里15号\r\n\""},{"poiid":"B209475CD564A7F8439E","title":"上海滩中信泰富店","lon":"121.45602","lat":"31.22851","category":"119","category_name":"商场","address":"\"南京西路1168号中信泰富广场，店铺号221.\r\n\""},{"poiid":"B2094654DB65A6F4469D","title":"上海国际贵都大饭店","lon":"121.44453","lat":"31.21998","category":"213","category_name":"五星级宾馆","address":"北京西路1028号,江宁路168号"},{"poiid":"B2094757D06EAAFE429B","title":"会德丰国际广场(Wheelock Square)","lon":"121.44492732","lat":"31.221689318","category":"46","category_name":"楼宇","address":"上海静安区南京西路1717号"},{"poiid":"B2094757D06FAAF8419C","title":"DOZO创作和食居酒屋","lon":"121.444619386","lat":"31.2216995642","category":"95","category_name":"日本料理","address":"静安区南京西路1717号会德丰国际广场南院2楼(近华山路)"},{"poiid":"B2094757D06FA4FE4692","title":"中国福利会少年宫","lon":"121.443738","lat":"31.221309","category":"500","category_name":"未知分类","address":"上海延安西路64号"},{"poiid":"B2094750D26AABFB4392","title":"糖员外私房甜品","lon":"121.443054","lat":"31.221466","category":"67","category_name":"甜品店","address":"静安区南京西路1887号(近乌鲁木齐北路)"},{"poiid":"B2094757D069A5FF4299","title":"1788国际大厦(Eco City)","lon":"121.445082286","lat":"31.2224787794","category":"252","category_name":"楼宇机构","address":"上海南京西路1788号"},{"poiid":"B2094654DB69A6FB4798","title":"豆捞坊火锅(静安店)","lon":"121.44467","lat":"31.22254","category":"86","category_name":"火锅店","address":"静安区南京西路1728号百乐门大酒店20-21楼(近华山路)"},{"poiid":"B2094757D06FA0FC459D","title":"高木日本料理(静安店)","lon":"121.44357","lat":"31.2215","category":"95","category_name":"日本料理","address":"静安区南京西路1856号炫动乐百动漫城4楼西区(近乌鲁木齐北路)"},{"poiid":"B2094757D06FA7FA4899","title":"苏浙汇(静安店)","lon":"121.4476","lat":"31.22033","category":"76","category_name":"上海菜","address":"静安区延安中路1121号(近华山路)"},{"poiid":"B2094654D564ABFF489D","title":"我家餐厅 MY HOME","lon":"121.44573848552","lat":"31.219784895865","category":"76","category_name":"上海菜","address":"静安区华山路229弄7号(近延安西路)"},{"poiid":"B2094654D564A4F54793","title":"钱柜(乌鲁木齐北路)","lon":"121.44374","lat":"31.21874","category":"170","category_name":"KTV","address":"上海静安区乌鲁木齐北路459号(近延安西路)"},{"poiid":"B2094757DB68A5F44099","title":"一哥肥牛火锅海鲜酒家 静安店","lon":"121.443796054","lat":"31.222098793","category":"86","category_name":"火锅店","address":"静安区南京西路1856号乐百新都商厦3楼(近乌鲁木齐北路)"},{"poiid":"B2094757D06FA4FD4298","title":"锅比盆大(华山旗舰店)","lon":"121.445995862","lat":"31.2196759733","category":"86","category_name":"火锅店","address":"静安区华山路301-1号(近常熟路)"},{"poiid":"B2094757DB68A4F9489C","title":"名宴粤菜","lon":"121.44304218656919","lat":"31.221484522382806","category":"72","category_name":"广东菜","address":"静安区南京西路1856号2楼(近静安寺)"},{"poiid":"B2094757D065AAFD439C","title":"巴厘岛印尼东南亚餐厅","lon":"121.445717586","lat":"31.2222982759","category":"500","category_name":"未知分类","address":"上海市静安区华山路189号"},{"poiid":"B2094757D068ABFC499E","title":"万泰国际大厦","lon":"121.444421782","lat":"31.2191420635","category":"46","category_name":"楼宇","address":"虹口区纪念路500号"},{"poiid":"B2094757D068A5F9419C","title":"中福会少年宫","lon":"121.44419835","lat":"31.220838763","category":"190","category_name":"培训机构","address":"静安区延安西路64号(贵都酒店对面)"},{"poiid":"B2094655D26FABF44193","title":"上海希尔顿酒店(东二门)","lon":"121.44596","lat":"31.21889","category":"213","category_name":"五星级宾馆","address":"上海市静安区华山路250号（近延安西路）"},{"poiid":"B2094757D469A6FF4298","title":"歌舞伎料亭","lon":"121.444671","lat":"31.222538","category":"95","category_name":"日本料理","address":"静安区南京西路1728号百乐门大酒店6楼(近华山路)"},{"poiid":"B2094752D56BA2FB4492","title":"plaza pizza","lon":"121.446632","lat":"31.218647","category":"247","category_name":"餐饮美食","address":"华山路325号-1(常熟路口)"},{"poiid":"B2094757D064A5F9439C","title":"Sabatini意大利餐厅","lon":"121.446666586","lat":"31.2211182528","category":"500","category_name":"未知分类","address":"南京西路1717号会德丰国际广场南苑1楼"},{"poiid":"B2094751DA6FA3FF4699","title":"保罗饭店","lon":"121.444537","lat":"31.21829","category":"247","category_name":"餐饮美食","address":"富民路271号(近长乐路)"},{"poiid":"B2094654D564ABFC419B","title":"静安宾馆","lon":"121.44412","lat":"31.21932","category":"215","category_name":"三星级宾馆","address":"华山路370号"},{"poiid":"B2094757D06FA2F84799","title":"伊美时尚广场","lon":"121.44570962","lat":"31.222571385","category":"249","category_name":"购物服务","address":"静安区南京西路1699号伊美时尚广场内(近静安寺)"},{"poiid":"B2094757D069A5FA4598","title":"纽约客匹萨 静安寺店 NEW YORK STYLE PIZZA","lon":"121.447439054","lat":"31.223316793","category":"94","category_name":"西餐厅","address":"静安区南京西路1699号伊美时尚广场J16号铺(近静安寺)"},{"poiid":"B2094654D564A4FB4899","title":"尖沙咀酒家","lon":"121.44338655804","lat":"31.219689044062","category":"72","category_name":"广东菜","address":"静安区延安西路129号华侨大厦4楼(近乌鲁木齐北路)"},{"poiid":"B2094757D469A7F5409A","title":"晶堂群英会","lon":"121.444671","lat":"31.222538","category":"72","category_name":"广东菜","address":"静安区南京西路1728号百乐门大酒店7楼(近地铁2号线静安寺站)"},{"poiid":"B2094654D564A4FB479E","title":"上林铁板烧","lon":"121.44375","lat":"31.21971","category":"269","category_name":"烧烤","address":"静安区延安西路129号华侨大厦1楼(近乌鲁木齐北路)"},{"poiid":"B2094757D069A7F84999","title":"靜安寺廟","lon":"121.44488058","lat":"31.22254628","category":"244","category_name":"寺庙道观","address":"上海静安区乌鲁木齐北路"},{"poiid":"B2094757D06FA7F8449B","title":"静安寺下沉式广场","lon":"121.44625","lat":"31.22236","category":"119","category_name":"商场","address":"静安区南京西路(近华山路)"},{"poiid":"B2094757D068AAFA469B","title":"上海外事服务中心","lon":"121.44552897","lat":"31.220250877","category":"260","category_name":"其他","address":"静安区华山路228号上海国际贵都大饭店办公楼2-3楼"},{"poiid":"B209475CD16AA1FC459C","title":"艾米1895电影街","lon":"121.447013","lat":"31.222036","category":"178","category_name":"电影院","address":"上海市 上海市北京西路1829号4楼 靠近愚园路"},{"poiid":"B2094654DB6BA6FF4998","title":"上海百乐门大酒店","lon":"121.44466","lat":"31.22253","category":"215","category_name":"三星级宾馆","address":"静安区南京西路1728号"},{"poiid":"B209475CD26DA4FE419A","title":"10·corso·como","lon":"121.445999","lat":"31.220499","category":"500","category_name":"未知分类","address":"上海市 南京西路1717号会德丰广场北院"},{"poiid":"B2094753D56FA4FA449E","title":"德站琪韩国年糕料理","lon":"121.444396","lat":"31.221853","category":"247","category_name":"餐饮美食","address":"上海市 静安区南京西路1818号1788广场B1美食街内"},{"poiid":"B2094757D66EA5FC439A","title":"希尔顿连天阁","lon":"121.44552558","lat":"31.219270216","category":"500","category_name":"未知分类","address":"上海华山路250号"},{"poiid":"B2094757D66BA2F5439E","title":"李奥纳多达芬奇餐厅","lon":"121.445662054","lat":"31.219435793","category":"98","category_name":"意式菜品餐厅","address":"静安区华山路250号希尔顿酒店1楼(近延安西路)"},{"poiid":"B2094654DB69A0FB419C","title":"静安宾馆中餐厅","lon":"121.44568894175","lat":"31.218200256688","category":"247","category_name":"餐饮美食","address":"静安区华山路370号静安宾馆内(近乌鲁木齐北路)查看地图"},{"poiid":"B2094757D068A6FE4693","title":"九光百货","lon":"121.44697081","lat":"31.219561792","category":"249","category_name":"购物服务","address":"香港南京西路1618号"},{"poiid":"B2094655D264A1F8439A","title":"贵都帝王厅","lon":"121.44453","lat":"31.21999","category":"247","category_name":"餐饮美食","address":"延安西路65号国际贵都大酒店2层"},{"poiid":"B2094757D164AAF9489B","title":"常熟路","lon":"121.446295886","lat":"31.2191703147","category":"500","category_name":"未知分类","address":"上海常熟路长乐路口"},{"poiid":"B2094750D768A2F94493","title":"爱吃咖喱(南京西路店)","lon":"121.443","lat":"31.2205","category":"95","category_name":"日本料理","address":"静安区乌鲁木齐北路326号(近中福会少年宫)"},{"poiid":"B2094757D06BA1FC489D","title":"Brats/Soup","lon":"121.445498086","lat":"31.2222802755","category":"68","category_name":"快餐厅","address":"静安区南京西路1618号久光百货B1楼"},{"poiid":"B2094757D06AA5F8459B","title":"凯文厨房 Kaveen's Kitchen","lon":"121.44590921556","lat":"31.219920302393","category":"102","category_name":"印度风味","address":"静安区华山路231号2楼(近延安西路)"},{"poiid":"B2094655D269ABFD469B","title":"静安寺","lon":"121.44552","lat":"31.22324","category":"244","category_name":"寺庙道观","address":"静安区南京西路1686号(近静安寺)"},{"poiid":"B2094655D26EA2FD4592","title":"巴厘岛","lon":"121.44594","lat":"31.22133","category":"110","category_name":"其他亚洲菜","address":"静安区华山路189号静安公园3号门(近延安路高架)"},{"poiid":"B2094655D269A4F5449A","title":"希尔顿酒店","lon":"121.44522","lat":"31.2193","category":"247","category_name":"餐饮美食","address":"静安区华山路250号(近延安西路)"},{"poiid":"B2094753D76FAAFA449C","title":"上海滩国泰旗舰店","lon":"121.466011","lat":"31.216125","category":"249","category_name":"购物服务","address":"淮海中路868号"},{"poiid":"B209475CD564A7F84292","title":"上海滩新天地店","lon":"121.47463","lat":"31.22164","category":"119","category_name":"商场","address":"\"太仓路181弄新天地北里15号\r\n\""},{"poiid":"B209475CD564A7F8439E","title":"上海滩中信泰富店","lon":"121.45602","lat":"31.22851","category":"119","category_name":"商场","address":"\"南京西路1168号中信泰富广场，店铺号221.\r\n\""},{"poiid":"B2094654DB65A6F4469D","title":"上海国际贵都大饭店","lon":"121.44453","lat":"31.21998","category":"213","category_name":"五星级宾馆","address":"北京西路1028号,江宁路168号"},{"poiid":"B2094757D06EAAFE429B","title":"会德丰国际广场(Wheelock Square)","lon":"121.44492732","lat":"31.221689318","category":"46","category_name":"楼宇","address":"上海静安区南京西路1717号"},{"poiid":"B2094757D06FAAF8419C","title":"DOZO创作和食居酒屋","lon":"121.444619386","lat":"31.2216995642","category":"95","category_name":"日本料理","address":"静安区南京西路1717号会德丰国际广场南院2楼(近华山路)"},{"poiid":"B2094757D06FA4FE4692","title":"中国福利会少年宫","lon":"121.443738","lat":"31.221309","category":"500","category_name":"未知分类","address":"上海延安西路64号"},{"poiid":"B2094750D26AABFB4392","title":"糖员外私房甜品","lon":"121.443054","lat":"31.221466","category":"67","category_name":"甜品店","address":"静安区南京西路1887号(近乌鲁木齐北路)"},{"poiid":"B2094757D069A5FF4299","title":"1788国际大厦(Eco City)","lon":"121.445082286","lat":"31.2224787794","category":"252","category_name":"楼宇机构","address":"上海南京西路1788号"},{"poiid":"B2094654DB69A6FB4798","title":"豆捞坊火锅(静安店)","lon":"121.44467","lat":"31.22254","category":"86","category_name":"火锅店","address":"静安区南京西路1728号百乐门大酒店20-21楼(近华山路)"},{"poiid":"B2094757D06FA0FC459D","title":"高木日本料理(静安店)","lon":"121.44357","lat":"31.2215","category":"95","category_name":"日本料理","address":"静安区南京西路1856号炫动乐百动漫城4楼西区(近乌鲁木齐北路)"},{"poiid":"B2094757D06FA7FA4899","title":"苏浙汇(静安店)","lon":"121.4476","lat":"31.22033","category":"76","category_name":"上海菜","address":"静安区延安中路1121号(近华山路)"},{"poiid":"B2094654D564ABFF489D","title":"我家餐厅 MY HOME","lon":"121.44573848552","lat":"31.219784895865","category":"76","category_name":"上海菜","address":"静安区华山路229弄7号(近延安西路)"},{"poiid":"B2094654D564A4F54793","title":"钱柜(乌鲁木齐北路)","lon":"121.44374","lat":"31.21874","category":"170","category_name":"KTV","address":"上海静安区乌鲁木齐北路459号(近延安西路)"},{"poiid":"B2094757DB68A5F44099","title":"一哥肥牛火锅海鲜酒家 静安店","lon":"121.443796054","lat":"31.222098793","category":"86","category_name":"火锅店","address":"静安区南京西路1856号乐百新都商厦3楼(近乌鲁木齐北路)"},{"poiid":"B2094757D06FA4FD4298","title":"锅比盆大(华山旗舰店)","lon":"121.445995862","lat":"31.2196759733","category":"86","category_name":"火锅店","address":"静安区华山路301-1号(近常熟路)"},{"poiid":"B2094757DB68A4F9489C","title":"名宴粤菜","lon":"121.44304218656919","lat":"31.221484522382806","category":"72","category_name":"广东菜","address":"静安区南京西路1856号2楼(近静安寺)"},{"poiid":"B2094757D065AAFD439C","title":"巴厘岛印尼东南亚餐厅","lon":"121.445717586","lat":"31.2222982759","category":"500","category_name":"未知分类","address":"上海市静安区华山路189号"},{"poiid":"B2094757D068ABFC499E","title":"万泰国际大厦","lon":"121.444421782","lat":"31.2191420635","category":"46","category_name":"楼宇","address":"虹口区纪念路500号"},{"poiid":"B2094757D068A5F9419C","title":"中福会少年宫","lon":"121.44419835","lat":"31.220838763","category":"190","category_name":"培训机构","address":"静安区延安西路64号(贵都酒店对面)"},{"poiid":"B2094655D26FABF44193","title":"上海希尔顿酒店(东二门)","lon":"121.44596","lat":"31.21889","category":"213","category_name":"五星级宾馆","address":"上海市静安区华山路250号（近延安西路）"},{"poiid":"B2094757D469A6FF4298","title":"歌舞伎料亭","lon":"121.444671","lat":"31.222538","category":"95","category_name":"日本料理","address":"静安区南京西路1728号百乐门大酒店6楼(近华山路)"},{"poiid":"B2094752D56BA2FB4492","title":"plaza pizza","lon":"121.446632","lat":"31.218647","category":"247","category_name":"餐饮美食","address":"华山路325号-1(常熟路口)"},{"poiid":"B2094757D064A5F9439C","title":"Sabatini意大利餐厅","lon":"121.446666586","lat":"31.2211182528","category":"500","category_name":"未知分类","address":"南京西路1717号会德丰国际广场南苑1楼"},{"poiid":"B2094751DA6FA3FF4699","title":"保罗饭店","lon":"121.444537","lat":"31.21829","category":"247","category_name":"餐饮美食","address":"富民路271号(近长乐路)"},{"poiid":"B2094654D564ABFC419B","title":"静安宾馆","lon":"121.44412","lat":"31.21932","category":"215","category_name":"三星级宾馆","address":"华山路370号"},{"poiid":"B2094757D06FA2F84799","title":"伊美时尚广场","lon":"121.44570962","lat":"31.222571385","category":"249","category_name":"购物服务","address":"静安区南京西路1699号伊美时尚广场内(近静安寺)"},{"poiid":"B2094757D069A5FA4598","title":"纽约客匹萨 静安寺店 NEW YORK STYLE PIZZA","lon":"121.447439054","lat":"31.223316793","category":"94","category_name":"西餐厅","address":"静安区南京西路1699号伊美时尚广场J16号铺(近静安寺)"},{"poiid":"B2094654D564A4FB4899","title":"尖沙咀酒家","lon":"121.44338655804","lat":"31.219689044062","category":"72","category_name":"广东菜","address":"静安区延安西路129号华侨大厦4楼(近乌鲁木齐北路)"},{"poiid":"B2094757D469A7F5409A","title":"晶堂群英会","lon":"121.444671","lat":"31.222538","category":"72","category_name":"广东菜","address":"静安区南京西路1728号百乐门大酒店7楼(近地铁2号线静安寺站)"},{"poiid":"B2094654D564A4FB479E","title":"上林铁板烧","lon":"121.44375","lat":"31.21971","category":"269","category_name":"烧烤","address":"静安区延安西路129号华侨大厦1楼(近乌鲁木齐北路)"},{"poiid":"B2094757D069A7F84999","title":"靜安寺廟","lon":"121.44488058","lat":"31.22254628","category":"244","category_name":"寺庙道观","address":"上海静安区乌鲁木齐北路"},{"poiid":"B2094757D06FA7F8449B","title":"静安寺下沉式广场","lon":"121.44625","lat":"31.22236","category":"119","category_name":"商场","address":"静安区南京西路(近华山路)"},{"poiid":"B2094757D068AAFA469B","title":"上海外事服务中心","lon":"121.44552897","lat":"31.220250877","category":"260","category_name":"其他","address":"静安区华山路228号上海国际贵都大饭店办公楼2-3楼"},{"poiid":"B209475CD16AA1FC459C","title":"艾米1895电影街","lon":"121.447013","lat":"31.222036","category":"178","category_name":"电影院","address":"上海市 上海市北京西路1829号4楼 靠近愚园路"},{"poiid":"B2094654DB6BA6FF4998","title":"上海百乐门大酒店","lon":"121.44466","lat":"31.22253","category":"215","category_name":"三星级宾馆","address":"静安区南京西路1728号"},{"poiid":"B209475CD26DA4FE419A","title":"10·corso·como","lon":"121.445999","lat":"31.220499","category":"500","category_name":"未知分类","address":"上海市 南京西路1717号会德丰广场北院"},{"poiid":"B2094753D56FA4FA449E","title":"德站琪韩国年糕料理","lon":"121.444396","lat":"31.221853","category":"247","category_name":"餐饮美食","address":"上海市 静安区南京西路1818号1788广场B1美食街内"},{"poiid":"B2094757D66EA5FC439A","title":"希尔顿连天阁","lon":"121.44552558","lat":"31.219270216","category":"500","category_name":"未知分类","address":"上海华山路250号"},{"poiid":"B2094757D66BA2F5439E","title":"李奥纳多达芬奇餐厅","lon":"121.445662054","lat":"31.219435793","category":"98","category_name":"意式菜品餐厅","address":"静安区华山路250号希尔顿酒店1楼(近延安西路)"},{"poiid":"B2094654DB69A0FB419C","title":"静安宾馆中餐厅","lon":"121.44568894175","lat":"31.218200256688","category":"247","category_name":"餐饮美食","address":"静安区华山路370号静安宾馆内(近乌鲁木齐北路)查看地图"},{"poiid":"B2094757D068A6FE4693","title":"九光百货","lon":"121.44697081","lat":"31.219561792","category":"249","category_name":"购物服务","address":"香港南京西路1618号"},{"poiid":"B2094655D264A1F8439A","title":"贵都帝王厅","lon":"121.44453","lat":"31.21999","category":"247","category_name":"餐饮美食","address":"延安西路65号国际贵都大酒店2层"},{"poiid":"B2094757D164AAF9489B","title":"常熟路","lon":"121.446295886","lat":"31.2191703147","category":"500","category_name":"未知分类","address":"上海常熟路长乐路口"},{"poiid":"B2094750D768A2F94493","title":"爱吃咖喱(南京西路店)","lon":"121.443","lat":"31.2205","category":"95","category_name":"日本料理","address":"静安区乌鲁木齐北路326号(近中福会少年宫)"},{"poiid":"B2094757D06BA1FC489D","title":"Brats/Soup","lon":"121.445498086","lat":"31.2222802755","category":"68","category_name":"快餐厅","address":"静安区南京西路1618号久光百货B1楼"},{"poiid":"B2094757D06AA5F8459B","title":"凯文厨房 Kaveen's Kitchen","lon":"121.44590921556","lat":"31.219920302393","category":"102","category_name":"印度风味","address":"静安区华山路231号2楼(近延安西路)"},{"poiid":"B2094655D269ABFD469B","title":"静安寺","lon":"121.44552","lat":"31.22324","category":"244","category_name":"寺庙道观","address":"静安区南京西路1686号(近静安寺)"},{"poiid":"B2094655D26EA2FD4592","title":"巴厘岛","lon":"121.44594","lat":"31.22133","category":"110","category_name":"其他亚洲菜","address":"静安区华山路189号静安公园3号门(近延安路高架)"},{"poiid":"B2094655D269A4F5449A","title":"希尔顿酒店","lon":"121.44522","lat":"31.2193","category":"247","category_name":"餐饮美食","address":"静安区华山路250号(近延安西路)"},{"poiid":"B2094753D76FAAFA449C","title":"上海滩国泰旗舰店","lon":"121.466011","lat":"31.216125","category":"249","category_name":"购物服务","address":"淮海中路868号"},{"poiid":"B209475CD564A7F84292","title":"上海滩新天地店","lon":"121.47463","lat":"31.22164","category":"119","category_name":"商场","address":"\"太仓路181弄新天地北里15号\r\n\""},{"poiid":"B209475CD564A7F8439E","title":"上海滩中信泰富店","lon":"121.45602","lat":"31.22851","category":"119","category_name":"商场","address":"\"南京西路1168号中信泰富广场，店铺号221.\r\n\""},{"poiid":"B2094654DB65A6F4469D","title":"上海国际贵都大饭店","lon":"121.44453","lat":"31.21998","category":"213","category_name":"五星级宾馆","address":"北京西路1028号,江宁路168号"},{"poiid":"B2094757D06EAAFE429B","title":"会德丰国际广场(Wheelock Square)","lon":"121.44492732","lat":"31.221689318","category":"46","category_name":"楼宇","address":"上海静安区南京西路1717号"},{"poiid":"B2094757D06FAAF8419C","title":"DOZO创作和食居酒屋","lon":"121.444619386","lat":"31.2216995642","category":"95","category_name":"日本料理","address":"静安区南京西路1717号会德丰国际广场南院2楼(近华山路)"},{"poiid":"B2094757D06FA4FE4692","title":"中国福利会少年宫","lon":"121.443738","lat":"31.221309","category":"500","category_name":"未知分类","address":"上海延安西路64号"},{"poiid":"B2094750D26AABFB4392","title":"糖员外私房甜品","lon":"121.443054","lat":"31.221466","category":"67","category_name":"甜品店","address":"静安区南京西路1887号(近乌鲁木齐北路)"},{"poiid":"B2094757D069A5FF4299","title":"1788国际大厦(Eco City)","lon":"121.445082286","lat":"31.2224787794","category":"252","category_name":"楼宇机构","address":"上海南京西路1788号"},{"poiid":"B2094654DB69A6FB4798","title":"豆捞坊火锅(静安店)","lon":"121.44467","lat":"31.22254","category":"86","category_name":"火锅店","address":"静安区南京西路1728号百乐门大酒店20-21楼(近华山路)"},{"poiid":"B2094757D06FA0FC459D","title":"高木日本料理(静安店)","lon":"121.44357","lat":"31.2215","category":"95","category_name":"日本料理","address":"静安区南京西路1856号炫动乐百动漫城4楼西区(近乌鲁木齐北路)"},{"poiid":"B2094757D06FA7FA4899","title":"苏浙汇(静安店)","lon":"121.4476","lat":"31.22033","category":"76","category_name":"上海菜","address":"静安区延安中路1121号(近华山路)"},{"poiid":"B2094654D564ABFF489D","title":"我家餐厅 MY HOME","lon":"121.44573848552","lat":"31.219784895865","category":"76","category_name":"上海菜","address":"静安区华山路229弄7号(近延安西路)"},{"poiid":"B2094654D564A4F54793","title":"钱柜(乌鲁木齐北路)","lon":"121.44374","lat":"31.21874","category":"170","category_name":"KTV","address":"上海静安区乌鲁木齐北路459号(近延安西路)"},{"poiid":"B2094757DB68A5F44099","title":"一哥肥牛火锅海鲜酒家 静安店","lon":"121.443796054","lat":"31.222098793","category":"86","category_name":"火锅店","address":"静安区南京西路1856号乐百新都商厦3楼(近乌鲁木齐北路)"},{"poiid":"B2094757D06FA4FD4298","title":"锅比盆大(华山旗舰店)","lon":"121.445995862","lat":"31.2196759733","category":"86","category_name":"火锅店","address":"静安区华山路301-1号(近常熟路)"},{"poiid":"B2094757DB68A4F9489C","title":"名宴粤菜","lon":"121.44304218656919","lat":"31.221484522382806","category":"72","category_name":"广东菜","address":"静安区南京西路1856号2楼(近静安寺)"},{"poiid":"B2094757D065AAFD439C","title":"巴厘岛印尼东南亚餐厅","lon":"121.445717586","lat":"31.2222982759","category":"500","category_name":"未知分类","address":"上海市静安区华山路189号"},{"poiid":"B2094757D068ABFC499E","title":"万泰国际大厦","lon":"121.444421782","lat":"31.2191420635","category":"46","category_name":"楼宇","address":"虹口区纪念路500号"},{"poiid":"B2094757D068A5F9419C","title":"中福会少年宫","lon":"121.44419835","lat":"31.220838763","category":"190","category_name":"培训机构","address":"静安区延安西路64号(贵都酒店对面)"},{"poiid":"B2094655D26FABF44193","title":"上海希尔顿酒店(东二门)","lon":"121.44596","lat":"31.21889","category":"213","category_name":"五星级宾馆","address":"上海市静安区华山路250号（近延安西路）"},{"poiid":"B2094757D469A6FF4298","title":"歌舞伎料亭","lon":"121.444671","lat":"31.222538","category":"95","category_name":"日本料理","address":"静安区南京西路1728号百乐门大酒店6楼(近华山路)"},{"poiid":"B2094752D56BA2FB4492","title":"plaza pizza","lon":"121.446632","lat":"31.218647","category":"247","category_name":"餐饮美食","address":"华山路325号-1(常熟路口)"},{"poiid":"B2094757D064A5F9439C","title":"Sabatini意大利餐厅","lon":"121.446666586","lat":"31.2211182528","category":"500","category_name":"未知分类","address":"南京西路1717号会德丰国际广场南苑1楼"},{"poiid":"B2094751DA6FA3FF4699","title":"保罗饭店","lon":"121.444537","lat":"31.21829","category":"247","category_name":"餐饮美食","address":"富民路271号(近长乐路)"},{"poiid":"B2094654D564ABFC419B","title":"静安宾馆","lon":"121.44412","lat":"31.21932","category":"215","category_name":"三星级宾馆","address":"华山路370号"},{"poiid":"B2094757D06FA2F84799","title":"伊美时尚广场","lon":"121.44570962","lat":"31.222571385","category":"249","category_name":"购物服务","address":"静安区南京西路1699号伊美时尚广场内(近静安寺)"},{"poiid":"B2094757D069A5FA4598","title":"纽约客匹萨 静安寺店 NEW YORK STYLE PIZZA","lon":"121.447439054","lat":"31.223316793","category":"94","category_name":"西餐厅","address":"静安区南京西路1699号伊美时尚广场J16号铺(近静安寺)"},{"poiid":"B2094654D564A4FB4899","title":"尖沙咀酒家","lon":"121.44338655804","lat":"31.219689044062","category":"72","category_name":"广东菜","address":"静安区延安西路129号华侨大厦4楼(近乌鲁木齐北路)"},{"poiid":"B2094757D469A7F5409A","title":"晶堂群英会","lon":"121.444671","lat":"31.222538","category":"72","category_name":"广东菜","address":"静安区南京西路1728号百乐门大酒店7楼(近地铁2号线静安寺站)"},{"poiid":"B2094654D564A4FB479E","title":"上林铁板烧","lon":"121.44375","lat":"31.21971","category":"269","category_name":"烧烤","address":"静安区延安西路129号华侨大厦1楼(近乌鲁木齐北路)"},{"poiid":"B2094757D069A7F84999","title":"靜安寺廟","lon":"121.44488058","lat":"31.22254628","category":"244","category_name":"寺庙道观","address":"上海静安区乌鲁木齐北路"},{"poiid":"B2094757D06FA7F8449B","title":"静安寺下沉式广场","lon":"121.44625","lat":"31.22236","category":"119","category_name":"商场","address":"静安区南京西路(近华山路)"},{"poiid":"B2094757D068AAFA469B","title":"上海外事服务中心","lon":"121.44552897","lat":"31.220250877","category":"260","category_name":"其他","address":"静安区华山路228号上海国际贵都大饭店办公楼2-3楼"},{"poiid":"B209475CD16AA1FC459C","title":"艾米1895电影街","lon":"121.447013","lat":"31.222036","category":"178","category_name":"电影院","address":"上海市 上海市北京西路1829号4楼 靠近愚园路"},{"poiid":"B2094654DB6BA6FF4998","title":"上海百乐门大酒店","lon":"121.44466","lat":"31.22253","category":"215","category_name":"三星级宾馆","address":"静安区南京西路1728号"},{"poiid":"B209475CD26DA4FE419A","title":"10·corso·como","lon":"121.445999","lat":"31.220499","category":"500","category_name":"未知分类","address":"上海市 南京西路1717号会德丰广场北院"},{"poiid":"B2094753D56FA4FA449E","title":"德站琪韩国年糕料理","lon":"121.444396","lat":"31.221853","category":"247","category_name":"餐饮美食","address":"上海市 静安区南京西路1818号1788广场B1美食街内"},{"poiid":"B2094757D66EA5FC439A","title":"希尔顿连天阁","lon":"121.44552558","lat":"31.219270216","category":"500","category_name":"未知分类","address":"上海华山路250号"},{"poiid":"B2094757D66BA2F5439E","title":"李奥纳多达芬奇餐厅","lon":"121.445662054","lat":"31.219435793","category":"98","category_name":"意式菜品餐厅","address":"静安区华山路250号希尔顿酒店1楼(近延安西路)"},{"poiid":"B2094654DB69A0FB419C","title":"静安宾馆中餐厅","lon":"121.44568894175","lat":"31.218200256688","category":"247","category_name":"餐饮美食","address":"静安区华山路370号静安宾馆内(近乌鲁木齐北路)查看地图"},{"poiid":"B2094757D068A6FE4693","title":"九光百货","lon":"121.44697081","lat":"31.219561792","category":"249","category_name":"购物服务","address":"香港南京西路1618号"},{"poiid":"B2094655D264A1F8439A","title":"贵都帝王厅","lon":"121.44453","lat":"31.21999","category":"247","category_name":"餐饮美食","address":"延安西路65号国际贵都大酒店2层"},{"poiid":"B2094757D164AAF9489B","title":"常熟路","lon":"121.446295886","lat":"31.2191703147","category":"500","category_name":"未知分类","address":"上海常熟路长乐路口"},{"poiid":"B2094750D768A2F94493","title":"爱吃咖喱(南京西路店)","lon":"121.443","lat":"31.2205","category":"95","category_name":"日本料理","address":"静安区乌鲁木齐北路326号(近中福会少年宫)"},{"poiid":"B2094757D06BA1FC489D","title":"Brats/Soup","lon":"121.445498086","lat":"31.2222802755","category":"68","category_name":"快餐厅","address":"静安区南京西路1618号久光百货B1楼"},{"poiid":"B2094757D06AA5F8459B","title":"凯文厨房 Kaveen's Kitchen","lon":"121.44590921556","lat":"31.219920302393","category":"102","category_name":"印度风味","address":"静安区华山路231号2楼(近延安西路)"},{"poiid":"B2094655D269ABFD469B","title":"静安寺","lon":"121.44552","lat":"31.22324","category":"244","category_name":"寺庙道观","address":"静安区南京西路1686号(近静安寺)"},{"poiid":"B2094655D26EA2FD4592","title":"巴厘岛","lon":"121.44594","lat":"31.22133","category":"110","category_name":"其他亚洲菜","address":"静安区华山路189号静安公园3号门(近延安路高架)"},{"poiid":"B2094655D269A4F5449A","title":"希尔顿酒店","lon":"121.44522","lat":"31.2193","category":"247","category_name":"餐饮美食","address":"静安区华山路250号(近延安西路)"},{"poiid":"B2094753D76FAAFA449C","title":"上海滩国泰旗舰店","lon":"121.466011","lat":"31.216125","category":"249","category_name":"购物服务","address":"淮海中路868号"},{"poiid":"B209475CD564A7F84292","title":"上海滩新天地店","lon":"121.47463","lat":"31.22164","category":"119","category_name":"商场","address":"\"太仓路181弄新天地北里15号\r\n\""},{"poiid":"B209475CD564A7F8439E","title":"上海滩中信泰富店","lon":"121.45602","lat":"31.22851","category":"119","category_name":"商场","address":"\"南京西路1168号中信泰富广场，店铺号221.\r\n\""},{"poiid":"B2094654DB65A6F4469D","title":"上海国际贵都大饭店","lon":"121.44453","lat":"31.21998","category":"213","category_name":"五星级宾馆","address":"北京西路1028号,江宁路168号"},{"poiid":"B2094757D06EAAFE429B","title":"会德丰国际广场(Wheelock Square)","lon":"121.44492732","lat":"31.221689318","category":"46","category_name":"楼宇","address":"上海静安区南京西路1717号"},{"poiid":"B2094757D06FAAF8419C","title":"DOZO创作和食居酒屋","lon":"121.444619386","lat":"31.2216995642","category":"95","category_name":"日本料理","address":"静安区南京西路1717号会德丰国际广场南院2楼(近华山路)"},{"poiid":"B2094757D06FA4FE4692","title":"中国福利会少年宫","lon":"121.443738","lat":"31.221309","category":"500","category_name":"未知分类","address":"上海延安西路64号"},{"poiid":"B2094750D26AABFB4392","title":"糖员外私房甜品","lon":"121.443054","lat":"31.221466","category":"67","category_name":"甜品店","address":"静安区南京西路1887号(近乌鲁木齐北路)"},{"poiid":"B2094757D069A5FF4299","title":"1788国际大厦(Eco City)","lon":"121.445082286","lat":"31.2224787794","category":"252","category_name":"楼宇机构","address":"上海南京西路1788号"},{"poiid":"B2094654DB69A6FB4798","title":"豆捞坊火锅(静安店)","lon":"121.44467","lat":"31.22254","category":"86","category_name":"火锅店","address":"静安区南京西路1728号百乐门大酒店20-21楼(近华山路)"},{"poiid":"B2094757D06FA0FC459D","title":"高木日本料理(静安店)","lon":"121.44357","lat":"31.2215","category":"95","category_name":"日本料理","address":"静安区南京西路1856号炫动乐百动漫城4楼西区(近乌鲁木齐北路)"},{"poiid":"B2094757D06FA7FA4899","title":"苏浙汇(静安店)","lon":"121.4476","lat":"31.22033","category":"76","category_name":"上海菜","address":"静安区延安中路1121号(近华山路)"},{"poiid":"B2094654D564ABFF489D","title":"我家餐厅 MY HOME","lon":"121.44573848552","lat":"31.219784895865","category":"76","category_name":"上海菜","address":"静安区华山路229弄7号(近延安西路)"},{"poiid":"B2094654D564A4F54793","title":"钱柜(乌鲁木齐北路)","lon":"121.44374","lat":"31.21874","category":"170","category_name":"KTV","address":"上海静安区乌鲁木齐北路459号(近延安西路)"},{"poiid":"B2094757DB68A5F44099","title":"一哥肥牛火锅海鲜酒家 静安店","lon":"121.443796054","lat":"31.222098793","category":"86","category_name":"火锅店","address":"静安区南京西路1856号乐百新都商厦3楼(近乌鲁木齐北路)"},{"poiid":"B2094757D06FA4FD4298","title":"锅比盆大(华山旗舰店)","lon":"121.445995862","lat":"31.2196759733","category":"86","category_name":"火锅店","address":"静安区华山路301-1号(近常熟路)"},{"poiid":"B2094757DB68A4F9489C","title":"名宴粤菜","lon":"121.44304218656919","lat":"31.221484522382806","category":"72","category_name":"广东菜","address":"静安区南京西路1856号2楼(近静安寺)"},{"poiid":"B2094757D065AAFD439C","title":"巴厘岛印尼东南亚餐厅","lon":"121.445717586","lat":"31.2222982759","category":"500","category_name":"未知分类","address":"上海市静安区华山路189号"},{"poiid":"B2094757D068ABFC499E","title":"万泰国际大厦","lon":"121.444421782","lat":"31.2191420635","category":"46","category_name":"楼宇","address":"虹口区纪念路500号"},{"poiid":"B2094757D068A5F9419C","title":"中福会少年宫","lon":"121.44419835","lat":"31.220838763","category":"190","category_name":"培训机构","address":"静安区延安西路64号(贵都酒店对面)"},{"poiid":"B2094655D26FABF44193","title":"上海希尔顿酒店(东二门)","lon":"121.44596","lat":"31.21889","category":"213","category_name":"五星级宾馆","address":"上海市静安区华山路250号（近延安西路）"},{"poiid":"B2094757D469A6FF4298","title":"歌舞伎料亭","lon":"121.444671","lat":"31.222538","category":"95","category_name":"日本料理","address":"静安区南京西路1728号百乐门大酒店6楼(近华山路)"},{"poiid":"B2094752D56BA2FB4492","title":"plaza pizza","lon":"121.446632","lat":"31.218647","category":"247","category_name":"餐饮美食","address":"华山路325号-1(常熟路口)"},{"poiid":"B2094757D064A5F9439C","title":"Sabatini意大利餐厅","lon":"121.446666586","lat":"31.2211182528","category":"500","category_name":"未知分类","address":"南京西路1717号会德丰国际广场南苑1楼"},{"poiid":"B2094751DA6FA3FF4699","title":"保罗饭店","lon":"121.444537","lat":"31.21829","category":"247","category_name":"餐饮美食","address":"富民路271号(近长乐路)"},{"poiid":"B2094654D564ABFC419B","title":"静安宾馆","lon":"121.44412","lat":"31.21932","category":"215","category_name":"三星级宾馆","address":"华山路370号"},{"poiid":"B2094757D06FA2F84799","title":"伊美时尚广场","lon":"121.44570962","lat":"31.222571385","category":"249","category_name":"购物服务","address":"静安区南京西路1699号伊美时尚广场内(近静安寺)"},{"poiid":"B2094757D069A5FA4598","title":"纽约客匹萨 静安寺店 NEW YORK STYLE PIZZA","lon":"121.447439054","lat":"31.223316793","category":"94","category_name":"西餐厅","address":"静安区南京西路1699号伊美时尚广场J16号铺(近静安寺)"},{"poiid":"B2094654D564A4FB4899","title":"尖沙咀酒家","lon":"121.44338655804","lat":"31.219689044062","category":"72","category_name":"广东菜","address":"静安区延安西路129号华侨大厦4楼(近乌鲁木齐北路)"},{"poiid":"B2094757D469A7F5409A","title":"晶堂群英会","lon":"121.444671","lat":"31.222538","category":"72","category_name":"广东菜","address":"静安区南京西路1728号百乐门大酒店7楼(近地铁2号线静安寺站)"},{"poiid":"B2094654D564A4FB479E","title":"上林铁板烧","lon":"121.44375","lat":"31.21971","category":"269","category_name":"烧烤","address":"静安区延安西路129号华侨大厦1楼(近乌鲁木齐北路)"},{"poiid":"B2094757D069A7F84999","title":"靜安寺廟","lon":"121.44488058","lat":"31.22254628","category":"244","category_name":"寺庙道观","address":"上海静安区乌鲁木齐北路"},{"poiid":"B2094757D06FA7F8449B","title":"静安寺下沉式广场","lon":"121.44625","lat":"31.22236","category":"119","category_name":"商场","address":"静安区南京西路(近华山路)"},{"poiid":"B2094757D068AAFA469B","title":"上海外事服务中心","lon":"121.44552897","lat":"31.220250877","category":"260","category_name":"其他","address":"静安区华山路228号上海国际贵都大饭店办公楼2-3楼"},{"poiid":"B209475CD16AA1FC459C","title":"艾米1895电影街","lon":"121.447013","lat":"31.222036","category":"178","category_name":"电影院","address":"上海市 上海市北京西路1829号4楼 靠近愚园路"},{"poiid":"B2094654DB6BA6FF4998","title":"上海百乐门大酒店","lon":"121.44466","lat":"31.22253","category":"215","category_name":"三星级宾馆","address":"静安区南京西路1728号"},{"poiid":"B209475CD26DA4FE419A","title":"10·corso·como","lon":"121.445999","lat":"31.220499","category":"500","category_name":"未知分类","address":"上海市 南京西路1717号会德丰广场北院"},{"poiid":"B2094753D56FA4FA449E","title":"德站琪韩国年糕料理","lon":"121.444396","lat":"31.221853","category":"247","category_name":"餐饮美食","address":"上海市 静安区南京西路1818号1788广场B1美食街内"},{"poiid":"B2094757D66EA5FC439A","title":"希尔顿连天阁","lon":"121.44552558","lat":"31.219270216","category":"500","category_name":"未知分类","address":"上海华山路250号"},{"poiid":"B2094757D66BA2F5439E","title":"李奥纳多达芬奇餐厅","lon":"121.445662054","lat":"31.219435793","category":"98","category_name":"意式菜品餐厅","address":"静安区华山路250号希尔顿酒店1楼(近延安西路)"},{"poiid":"B2094654DB69A0FB419C","title":"静安宾馆中餐厅","lon":"121.44568894175","lat":"31.218200256688","category":"247","category_name":"餐饮美食","address":"静安区华山路370号静安宾馆内(近乌鲁木齐北路)查看地图"},{"poiid":"B2094757D068A6FE4693","title":"九光百货","lon":"121.44697081","lat":"31.219561792","category":"249","category_name":"购物服务","address":"香港南京西路1618号"},{"poiid":"B2094655D264A1F8439A","title":"贵都帝王厅","lon":"121.44453","lat":"31.21999","category":"247","category_name":"餐饮美食","address":"延安西路65号国际贵都大酒店2层"},{"poiid":"B2094757D164AAF9489B","title":"常熟路","lon":"121.446295886","lat":"31.2191703147","category":"500","category_name":"未知分类","address":"上海常熟路长乐路口"},{"poiid":"B2094750D768A2F94493","title":"爱吃咖喱(南京西路店)","lon":"121.443","lat":"31.2205","category":"95","category_name":"日本料理","address":"静安区乌鲁木齐北路326号(近中福会少年宫)"},{"poiid":"B2094757D06BA1FC489D","title":"Brats/Soup","lon":"121.445498086","lat":"31.2222802755","category":"68","category_name":"快餐厅","address":"静安区南京西路1618号久光百货B1楼"},{"poiid":"B2094757D06AA5F8459B","title":"凯文厨房 Kaveen's Kitchen","lon":"121.44590921556","lat":"31.219920302393","category":"102","category_name":"印度风味","address":"静安区华山路231号2楼(近延安西路)"}]