[{"poiid":"B2094654DA68A3FD4898","title":"仙乐斯广场","lon":"121.475","lat":"31.2372","category":"119","category_name":"商场","address":"静安区南京西路388号(近黄陂北路)"},{"poiid":"B2094757D06FA0FE419F","title":"黄浦剧场","lon":"121.47558845576759","lat":"31.238431640532156","category":"179","category_name":"音乐厅","address":"黄浦区北京东路780号(近西藏南路)"},{"poiid":"B2094654DA6FA2F4469E","title":"上海科技京城西楼","lon":"121.47714","lat":"31.23902","category":"46","category_name":"楼宇","address":"北京东路689"},{"poiid":"B2094753D76FAAFA449C","title":"上海滩国泰旗舰店","lon":"121.466011","lat":"31.216125","category":"249","category_name":"购物服务","address":"淮海中路868号"},{"poiid":"B209475CD564A7F84292","title":"上海滩新天地店","lon":"121.47463","lat":"31.22164","category":"119","category_name":"商场","address":"\"太仓路181弄新天地北里15号\r\n\""},{"poiid":"B209475CD564A7F8439E","title":"上海滩中信泰富店","lon":"121.45602","lat":"31.22851","category":"119","category_name":"商场","address":"\"南京西路1168号中信泰富广场，店铺号221.\r\n\""},{"poiid":"B209475CD564A7F84392","title":"上海滩浦东香格里拉店","lon":"121.50058","lat":"31.23634","category":"119","category_name":"商场","address":"浦东富成路33号香格里拉酒店内大堂层"},{"poiid":"B2094751DA6EA7FA419A","title":"泰妃阁（第一食品商店4楼）","lon":"121.47723","lat":"31.237643","category":"247","category_name":"餐饮美食","address":"黄浦区南京东路720号第一食品4楼(近贵州路)"},{"poiid":"B2094655D26BA4F94992","title":"小杨生煎浙江中路店","lon":"121.47714","lat":"31.23752","category":"68","category_name":"快餐厅","address":"黄浦区浙江中路486号(牛庄路口)"},{"poiid":"B2094750DB65AAFB489A","title":"大悦城","lon":"121.476074","lat":"31.24032","category":"500","category_name":"未知分类","address":null},{"poiid":"B2094751DA6DA4FB469F","title":"黄记煌","lon":"121.473479","lat":"31.238534","category":"247","category_name":"餐饮美食","address":"黄浦区南京东路720号第一食品城4楼"},{"poiid":"B2094757D068A7F9499E","title":"上海商贸旅游职业技能培训中心","lon":"121.475323","lat":"31.23728","category":"500","category_name":"未知分类","address":"上海贵州路189号"},{"poiid":"B2094751D56AA2F44092","title":"西提牛排","lon":"121.476018","lat":"31.238767","category":"247","category_name":"餐饮美食","address":"南京东路"},{"poiid":"B2094655D26BA1F54992","title":"峻岭广场","lon":"121.474","lat":"31.2383","category":"252","category_name":"楼宇机构","address":"成都北路500号"},{"poiid":"B2094757D16EABFA479F","title":"黄埔剧场","lon":"121.475590538","lat":"31.2397237024","category":"248","category_name":"生活娱乐","address":"上海北京东路780号"},{"poiid":"B2094751D26BA0FA4792","title":"陆家嘴","lon":"121.47600802","lat":"31.23881901999999","category":"500","category_name":"未知分类","address":"上海"},{"poiid":"B2094757D065A7FD429A","title":"厦门路尊德里","lon":"121.475797","lat":"31.239779","category":"47","category_name":"住宅区","address":"上海厦门路靠近浙江中路"},{"poiid":"B2094654DA68A3FC489B","title":"金瓯万国大厦","lon":"121.47591985314","lat":"31.240754198427","category":"46","category_name":"楼宇","address":"上海市黄浦区新昌路180号"},{"poiid":"B2094655D265A5FD4192","title":"华盛商务楼","lon":"121.473359","lat":"31.239953","category":"46","category_name":"楼宇","address":"上海市黄浦区成都北路600号"},{"poiid":"B2094654DA6FA2F4469F","title":"上海赛格电子市场","lon":"121.4778","lat":"31.23912","category":"138","category_name":"家电电子卖场","address":"黄浦区北京东路668号科技京城B1-4楼(近福建中路)"},{"poiid":"B2094757D064A4F5449A","title":"怡水豪庭","lon":"121.47475","lat":"31.240475","category":"47","category_name":"住宅区","address":"上海市松江区涞坊路599弄"},{"poiid":"B2094757D068ABFA4893","title":"上海市音乐幼儿园","lon":"121.474718","lat":"31.239423","category":"57","category_name":"幼儿园","address":"黄浦区厦门路180号"},{"poiid":"B2094654DA6FA0FE409C","title":"河畔明珠","lon":"121.47536","lat":"31.240377","category":"47","category_name":"住宅区","address":"上海市黄浦区南苏州路881号"},{"poiid":"B2094750D669A7F44992","title":"新华医院","lon":"121.473866","lat":"31.239307","category":"162","category_name":"医院","address":null},{"poiid":"B2094757D06FA7FC4599","title":"传奇台球(黄浦店)","lon":"121.47326","lat":"31.23912","category":"171","category_name":"台球厅","address":"上海黄浦区西藏中路698号3-4楼(近北京中路)"},{"poiid":"B2094654DB6BA4F5409D","title":"良友(厦门路)","lon":"121.47592","lat":"31.23969","category":"117","category_name":"便民商店/便利店","address":"厦门路122-124"},{"poiid":"B2094752DB6EA0FA4898","title":"上海虹桥机场","lon":"121.47491","lat":"31.239854","category":"500","category_name":"未知分类","address":"上海市 上海虹桥机场"},{"poiid":"B209475CD76FA3FE479C","title":"青浦朱家角","lon":"121.475234","lat":"31.239049","category":"500","category_name":"未知分类","address":"上海市 朱家角"},{"poiid":"B2094757DB6CA5FB4592","title":"人民公园","lon":"121.47746785","lat":"31.23880107","category":"196","category_name":"公园","address":"福建中路"},{"poiid":"B2094757D06AABFF419A","title":"好爱椒","lon":"121.476441738","lat":"31.2382864718","category":"247","category_name":"餐饮美食","address":"上海贵州路(铁道宾馆2楼)"},{"poiid":"B2094654DA6FA0FD459D","title":"上海市排水行业协会","lon":"121.4749","lat":"31.23954","category":"250","category_name":"公园户外","address":"厦门路180号"},{"poiid":"B2094654DA6FA1FF4492","title":"上海科技京城B区","lon":"121.47696","lat":"31.23949","category":"46","category_name":"楼宇","address":"浙江中路598"},{"poiid":"B2094750DB6CA4FA419B","title":"上海市，黄浦区，南京路步行街","lon":"121.4748171","lat":"31.2371356","category":"500","category_name":"未知分类","address":null},{"poiid":"B2094654DA6FA0FD469D","title":"上海大勤金属材料有限公司","lon":"121.47564","lat":"31.23964","category":"123","category_name":"家具建材市场","address":"厦门路144"},{"poiid":"B2094751DA68A5FA4299","title":"云笼坊第一笼","lon":"121.474488","lat":"31.239342","category":"247","category_name":"餐饮美食","address":"黄河路86号"},{"poiid":"B2094654DA6FA1FE459B","title":"上海科技京城A区","lon":"121.47695","lat":"31.2395","category":"46","category_name":"楼宇","address":"浙江中路598"},{"poiid":"B2094757D169A3F8479B","title":"厦门路双拥弄","lon":"121.47570483","lat":"31.239770103","category":"500","category_name":"未知分类","address":"上海厦门路"},{"poiid":"B2094654DA68A3FC4092","title":"新中邨","lon":"121.475","lat":"31.2404","category":"47","category_name":"住宅区","address":"新昌路245弄4-10号"},{"poiid":"B2094654DA6FA0FC4293","title":"保康里","lon":"121.47583","lat":"31.23866","category":"47","category_name":"住宅区","address":"北京东路756弄"},{"poiid":"B2094757D169A2FF479C","title":"黄公馆","lon":"121.474446738","lat":"31.2392894932","category":"247","category_name":"餐饮美食","address":"上海黄浦区厦门路"},{"poiid":"B2094654DA6FA0FD439C","title":"衍庆里","lon":"121.47401","lat":"31.23939","category":"47","category_name":"住宅区","address":"厦门路230弄2-76号"},{"poiid":"B2094752D769A7F4479A","title":"星巴克福建中路店","lon":"121.475582","lat":"31.238281","category":"247","category_name":"餐饮美食","address":"福建中路353号"},{"poiid":"B2094752D365A5F9489E","title":"江苏路地铁站","lon":"121.47479","lat":"31.239936","category":"36","category_name":"地铁站","address":null},{"poiid":"B2094757D06BABFD4393","title":"浙江中路桥","lon":"121.476404","lat":"31.240584","category":"500","category_name":"未知分类","address":"上海浙江中路南苏州路"},{"poiid":"B2094654DB6BA4F44992","title":"新世界大酒店","lon":"121.47656","lat":"31.23728","category":"74","category_name":"江苏菜","address":"黄浦区广西北路492号(近牛庄路)"},{"poiid":"B2094757D06FAAF5479F","title":"美华大厦","lon":"121.47356273","lat":"31.238155469","category":"253","category_name":"校园生活","address":"上海市普陀区中山北路1777号"},{"poiid":"B2094752D665A5FE469D","title":"上海外滩","lon":"121.473537","lat":"31.239756","category":"627","category_name":"一般地点标志","address":null},{"poiid":"B2094655D26FA6FB4092","title":"尊德里(南苏州路)","lon":"121.47553","lat":"31.24058","category":"47","category_name":"住宅区","address":"厦门路136弄"},{"poiid":"B2094654DA6FA0FC499B","title":"厦门路菜店","lon":"121.47433","lat":"31.23914","category":"117","category_name":"便民商店/便利店","address":"厦门路223号"},{"poiid":"B2094654DA6FA0FD4892","title":"厦门小区","lon":"121.47589","lat":"31.24043","category":"47","category_name":"住宅区","address":"浙江中路667"},{"poiid":"B2094654DA68A3FD4898","title":"仙乐斯广场","lon":"121.475","lat":"31.2372","category":"119","category_name":"商场","address":"静安区南京西路388号(近黄陂北路)"},{"poiid":"B2094757D06FA0FE419F","title":"黄浦剧场","lon":"121.47558845576759","lat":"31.238431640532156","category":"179","category_name":"音乐厅","address":"黄浦区北京东路780号(近西藏南路)"},{"poiid":"B2094654DA6FA2F4469E","title":"上海科技京城西楼","lon":"121.47714","lat":"31.23902","category":"46","category_name":"楼宇","address":"北京东路689"},{"poiid":"B2094753D76FAAFA449C","title":"上海滩国泰旗舰店","lon":"121.466011","lat":"31.216125","category":"249","category_name":"购物服务","address":"淮海中路868号"},{"poiid":"B209475CD564A7F84292","title":"上海滩新天地店","lon":"121.47463","lat":"31.22164","category":"119","category_name":"商场","address":"\"太仓路181弄新天地北里15号\r\n\""},{"poiid":"B209475CD564A7F8439E","title":"上海滩中信泰富店","lon":"121.45602","lat":"31.22851","category":"119","category_name":"商场","address":"\"南京西路1168号中信泰富广场，店铺号221.\r\n\""},{"poiid":"B209475CD564A7F84392","title":"上海滩浦东香格里拉店","lon":"121.50058","lat":"31.23634","category":"119","category_name":"商场","address":"浦东富成路33号香格里拉酒店内大堂层"},{"poiid":"B2094751DA6EA7FA419A","title":"泰妃阁（第一食品商店4楼）","lon":"121.47723","lat":"31.237643","category":"247","category_name":"餐饮美食","address":"黄浦区南京东路720号第一食品4楼(近贵州路)"},{"poiid":"B2094655D26BA4F94992","title":"小杨生煎浙江中路店","lon":"121.47714","lat":"31.23752","category":"68","category_name":"快餐厅","address":"黄浦区浙江中路486号(牛庄路口)"},{"poiid":"B2094750DB65AAFB489A","title":"大悦城","lon":"121.476074","lat":"31.24032","category":"500","category_name":"未知分类","address":null},{"poiid":"B2094751DA6DA4FB469F","title":"黄记煌","lon":"121.473479","lat":"31.238534","category":"247","category_name":"餐饮美食","address":"黄浦区南京东路720号第一食品城4楼"},{"poiid":"B2094757D068A7F9499E","title":"上海商贸旅游职业技能培训中心","lon":"121.475323","lat":"31.23728","category":"500","category_name":"未知分类","address":"上海贵州路189号"},{"poiid":"B2094751D56AA2F44092","title":"西提牛排","lon":"121.476018","lat":"31.238767","category":"247","category_name":"餐饮美食","address":"南京东路"},{"poiid":"B2094655D26BA1F54992","title":"峻岭广场","lon":"121.474","lat":"31.2383","category":"252","category_name":"楼宇机构","address":"成都北路500号"},{"poiid":"B2094757D16EABFA479F","title":"黄埔剧场","lon":"121.475590538","lat":"31.2397237024","category":"248","category_name":"生活娱乐","address":"上海北京东路780号"},{"poiid":"B2094751D26BA0FA4792","title":"陆家嘴","lon":"121.47600802","lat":"31.23881901999999","category":"500","category_name":"未知分类","address":"上海"},{"poiid":"B2094757D065A7FD429A","title":"厦门路尊德里","lon":"121.475797","lat":"31.239779","category":"47","category_name":"住宅区","address":"上海厦门路靠近浙江中路"},{"poiid":"B2094654DA68A3FC489B","title":"金瓯万国大厦","lon":"121.47591985314","lat":"31.240754198427","category":"46","category_name":"楼宇","address":"上海市黄浦区新昌路180号"},{"poiid":"B2094655D265A5FD4192","title":"华盛商务楼","lon":"121.473359","lat":"31.239953","category":"46","category_name":"楼宇","address":"上海市黄浦区成都北路600号"},{"poiid":"B2094654DA6FA2F4469F","title":"上海赛格电子市场","lon":"121.4778","lat":"31.23912","category":"138","category_name":"家电电子卖场","address":"黄浦区北京东路668号科技京城B1-4楼(近福建中路)"},{"poiid":"B2094757D064A4F5449A","title":"怡水豪庭","lon":"121.47475","lat":"31.240475","category":"47","category_name":"住宅区","address":"上海市松江区涞坊路599弄"},{"poiid":"B2094757D068ABFA4893","title":"上海市音乐幼儿园","lon":"121.474718","lat":"31.239423","category":"57","category_name":"幼儿园","address":"黄浦区厦门路180号"},{"poiid":"B2094654DA6FA0FE409C","title":"河畔明珠","lon":"121.47536","lat":"31.240377","category":"47","category_name":"住宅区","address":"上海市黄浦区南苏州路881号"},{"poiid":"B2094750D669A7F44992","title":"新华医院","lon":"121.473866","lat":"31.239307","category":"162","category_name":"医院","address":null},{"poiid":"B2094757D06FA7FC4599","title":"传奇台球(黄浦店)","lon":"121.47326","lat":"31.23912","category":"171","category_name":"台球厅","address":"上海黄浦区西藏中路698号3-4楼(近北京中路)"},{"poiid":"B2094654DB6BA4F5409D","title":"良友(厦门路)","lon":"121.47592","lat":"31.23969","category":"117","category_name":"便民商店/便利店","address":"厦门路122-124"},{"poiid":"B2094752DB6EA0FA4898","title":"上海虹桥机场","lon":"121.47491","lat":"31.239854","category":"500","category_name":"未知分类","address":"上海市 上海虹桥机场"},{"poiid":"B209475CD76FA3FE479C","title":"青浦朱家角","lon":"121.475234","lat":"31.239049","category":"500","category_name":"未知分类","address":"上海市 朱家角"},{"poiid":"B2094757DB6CA5FB4592","title":"人民公园","lon":"121.47746785","lat":"31.23880107","category":"196","category_name":"公园","address":"福建中路"},{"poiid":"B2094757D06AABFF419A","title":"好爱椒","lon":"121.476441738","lat":"31.2382864718","category":"247","category_name":"餐饮美食","address":"上海贵州路(铁道宾馆2楼)"},{"poiid":"B2094654DA6FA0FD459D","title":"上海市排水行业协会","lon":"121.4749","lat":"31.23954","category":"250","category_name":"公园户外","address":"厦门路180号"},{"poiid":"B2094654DA6FA1FF4492","title":"上海科技京城B区","lon":"121.47696","lat":"31.23949","category":"46","category_name":"楼宇","address":"浙江中路598"},{"poiid":"B2094750DB6CA4FA419B","title":"上海市，黄浦区，南京路步行街","lon":"121.4748171","lat":"31.2371356","category":"500","category_name":"未知分类","address":null},{"poiid":"B2094654DA6FA0FD469D","title":"上海大勤金属材料有限公司","lon":"121.47564","lat":"31.23964","category":"123","category_name":"家具建材市场","address":"厦门路144"},{"poiid":"B2094751DA68A5FA4299","title":"云笼坊第一笼","lon":"121.474488","lat":"31.239342","category":"247","category_name":"餐饮美食","address":"黄河路86号"},{"poiid":"B2094654DA6FA1FE459B","title":"上海科技京城A区","lon":"121.47695","lat":"31.2395","category":"46","category_name":"楼宇","address":"浙江中路598"},{"poiid":"B2094757D169A3F8479B","title":"厦门路双拥弄","lon":"121.47570483","lat":"31.239770103","category":"500","category_name":"未知分类","address":"上海厦门路"},{"poiid":"B2094654DA68A3FC4092","title":"新中邨","lon":"121.475","lat":"31.2404","category":"47","category_name":"住宅区","address":"新昌路245弄4-10号"},{"poiid":"B2094654DA6FA0FC4293","title":"保康里","lon":"121.47583","lat":"31.23866","category":"47","category_name":"住宅区","address":"北京东路756弄"},{"poiid":"B2094757D169A2FF479C","title":"黄公馆","lon":"121.474446738","lat":"31.2392894932","category":"247","category_name":"餐饮美食","address":"上海黄浦区厦门路"},{"poiid":"B2094654DA6FA0FD439C","title":"衍庆里","lon":"121.47401","lat":"31.23939","category":"47","category_name":"住宅区","address":"厦门路230弄2-76号"},{"poiid":"B2094752D769A7F4479A","title":"星巴克福建中路店","lon":"121.475582","lat":"31.238281","category":"247","category_name":"餐饮美食","address":"福建中路353号"},{"poiid":"B2094752D365A5F9489E","title":"江苏路地铁站","lon":"121.47479","lat":"31.239936","category":"36","category_name":"地铁站","address":null},{"poiid":"B2094757D06BABFD4393","title":"浙江中路桥","lon":"121.476404","lat":"31.240584","category":"500","category_name":"未知分类","address":"上海浙江中路南苏州路"},{"poiid":"B2094654DB6BA4F44992","title":"新世界大酒店","lon":"121.47656","lat":"31.23728","category":"74","category_name":"江苏菜","address":"黄浦区广西北路492号(近牛庄路)"},{"poiid":"B2094757D06FAAF5479F","title":"美华大厦","lon":"121.47356273","lat":"31.238155469","category":"253","category_name":"校园生活","address":"上海市普陀区中山北路1777号"},{"poiid":"B2094752D665A5FE469D","title":"上海外滩","lon":"121.473537","lat":"31.239756","category":"627","category_name":"一般地点标志","address":null},{"poiid":"B2094655D26FA6FB4092","title":"尊德里(南苏州路)","lon":"121.47553","lat":"31.24058","category":"47","category_name":"住宅区","address":"厦门路136弄"},{"poiid":"B2094654DA6FA0FC499B","title":"厦门路菜店","lon":"121.47433","lat":"31.23914","category":"117","category_name":"便民商店/便利店","address":"厦门路223号"},{"poiid":"B2094654DA6FA0FD4892","title":"厦门小区","lon":"121.47589","lat":"31.24043","category":"47","category_name":"住宅区","address":"浙江中路667"},{"poiid":"B2094654DA68A3FD4898","title":"仙乐斯广场","lon":"121.475","lat":"31.2372","category":"119","category_name":"商场","address":"静安区南京西路388号(近黄陂北路)"},{"poiid":"B2094757D06FA0FE419F","title":"黄浦剧场","lon":"121.47558845576759","lat":"31.238431640532156","category":"179","category_name":"音乐厅","address":"黄浦区北京东路780号(近西藏南路)"},{"poiid":"B2094654DA6FA2F4469E","title":"上海科技京城西楼","lon":"121.47714","lat":"31.23902","category":"46","category_name":"楼宇","address":"北京东路689"},{"poiid":"B2094753D76FAAFA449C","title":"上海滩国泰旗舰店","lon":"121.466011","lat":"31.216125","category":"249","category_name":"购物服务","address":"淮海中路868号"},{"poiid":"B209475CD564A7F84292","title":"上海滩新天地店","lon":"121.47463","lat":"31.22164","category":"119","category_name":"商场","address":"\"太仓路181弄新天地北里15号\r\n\""},{"poiid":"B209475CD564A7F8439E","title":"上海滩中信泰富店","lon":"121.45602","lat":"31.22851","category":"119","category_name":"商场","address":"\"南京西路1168号中信泰富广场，店铺号221.\r\n\""},{"poiid":"B209475CD564A7F84392","title":"上海滩浦东香格里拉店","lon":"121.50058","lat":"31.23634","category":"119","category_name":"商场","address":"浦东富成路33号香格里拉酒店内大堂层"},{"poiid":"B2094751DA6EA7FA419A","title":"泰妃阁（第一食品商店4楼）","lon":"121.47723","lat":"31.237643","category":"247","category_name":"餐饮美食","address":"黄浦区南京东路720号第一食品4楼(近贵州路)"},{"poiid":"B2094655D26BA4F94992","title":"小杨生煎浙江中路店","lon":"121.47714","lat":"31.23752","category":"68","category_name":"快餐厅","address":"黄浦区浙江中路486号(牛庄路口)"},{"poiid":"B2094750DB65AAFB489A","title":"大悦城","lon":"121.476074","lat":"31.24032","category":"500","category_name":"未知分类","address":null},{"poiid":"B2094751DA6DA4FB469F","title":"黄记煌","lon":"121.473479","lat":"31.238534","category":"247","category_name":"餐饮美食","address":"黄浦区南京东路720号第一食品城4楼"},{"poiid":"B2094757D068A7F9499E","title":"上海商贸旅游职业技能培训中心","lon":"121.475323","lat":"31.23728","category":"500","category_name":"未知分类","address":"上海贵州路189号"},{"poiid":"B2094751D56AA2F44092","title":"西提牛排","lon":"121.476018","lat":"31.238767","category":"247","category_name":"餐饮美食","address":"南京东路"},{"poiid":"B2094655D26BA1F54992","title":"峻岭广场","lon":"121.474","lat":"31.2383","category":"252","category_name":"楼宇机构","address":"成都北路500号"},{"poiid":"B2094757D16EABFA479F","title":"黄埔剧场","lon":"121.475590538","lat":"31.2397237024","category":"248","category_name":"生活娱乐","address":"上海北京东路780号"},{"poiid":"B2094751D26BA0FA4792","title":"陆家嘴","lon":"121.47600802","lat":"31.23881901999999","category":"500","category_name":"未知分类","address":"上海"},{"poiid":"B2094757D065A7FD429A","title":"厦门路尊德里","lon":"121.475797","lat":"31.239779","category":"47","category_name":"住宅区","address":"上海厦门路靠近浙江中路"},{"poiid":"B2094654DA68A3FC489B","title":"金瓯万国大厦","lon":"121.47591985314","lat":"31.240754198427","category":"46","category_name":"楼宇","address":"上海市黄浦区新昌路180号"},{"poiid":"B2094655D265A5FD4192","title":"华盛商务楼","lon":"121.473359","lat":"31.239953","category":"46","category_name":"楼宇","address":"上海市黄浦区成都北路600号"},{"poiid":"B2094654DA6FA2F4469F","title":"上海赛格电子市场","lon":"121.4778","lat":"31.23912","category":"138","category_name":"家电电子卖场","address":"黄浦区北京东路668号科技京城B1-4楼(近福建中路)"},{"poiid":"B2094757D064A4F5449A","title":"怡水豪庭","lon":"121.47475","lat":"31.240475","category":"47","category_name":"住宅区","address":"上海市松江区涞坊路599弄"},{"poiid":"B2094757D068ABFA4893","title":"上海市音乐幼儿园","lon":"121.474718","lat":"31.239423","category":"57","category_name":"幼儿园","address":"黄浦区厦门路180号"},{"poiid":"B2094654DA6FA0FE409C","title":"河畔明珠","lon":"121.47536","lat":"31.240377","category":"47","category_name":"住宅区","address":"上海市黄浦区南苏州路881号"},{"poiid":"B2094750D669A7F44992","title":"新华医院","lon":"121.473866","lat":"31.239307","category":"162","category_name":"医院","address":null},{"poiid":"B2094757D06FA7FC4599","title":"传奇台球(黄浦店)","lon":"121.47326","lat":"31.23912","category":"171","category_name":"台球厅","address":"上海黄浦区西藏中路698号3-4楼(近北京中路)"},{"poiid":"B2094654DB6BA4F5409D","title":"良友(厦门路)","lon":"121.47592","lat":"31.23969","category":"117","category_name":"便民商店/便利店","address":"厦门路122-124"},{"poiid":"B2094752DB6EA0FA4898","title":"上海虹桥机场","lon":"121.47491","lat":"31.239854","category":"500","category_name":"未知分类","address":"上海市 上海虹桥机场"},{"poiid":"B209475CD76FA3FE479C","title":"青浦朱家角","lon":"121.475234","lat":"31.239049","category":"500","category_name":"未知分类","address":"上海市 朱家角"},{"poiid":"B2094757DB6CA5FB4592","title":"人民公园","lon":"121.47746785","lat":"31.23880107","category":"196","category_name":"公园","address":"福建中路"},{"poiid":"B2094757D06AABFF419A","title":"好爱椒","lon":"121.476441738","lat":"31.2382864718","category":"247","category_name":"餐饮美食","address":"上海贵州路(铁道宾馆2楼)"},{"poiid":"B2094654DA6FA0FD459D","title":"上海市排水行业协会","lon":"121.4749","lat":"31.23954","category":"250","category_name":"公园户外","address":"厦门路180号"},{"poiid":"B2094654DA6FA1FF4492","title":"上海科技京城B区","lon":"121.47696","lat":"31.23949","category":"46","category_name":"楼宇","address":"浙江中路598"},{"poiid":"B2094750DB6CA4FA419B","title":"上海市，黄浦区，南京路步行街","lon":"121.4748171","lat":"31.2371356","category":"500","category_name":"未知分类","address":null},{"poiid":"B2094654DA6FA0FD469D","title":"上海大勤金属材料有限公司","lon":"121.47564","lat":"31.23964","category":"123","category_name":"家具建材市场","address":"厦门路144"},{"poiid":"B2094751DA68A5FA4299","title":"云笼坊第一笼","lon":"121.474488","lat":"31.239342","category":"247","category_name":"餐饮美食","address":"黄河路86号"},{"poiid":"B2094654DA6FA1FE459B","title":"上海科技京城A区","lon":"121.47695","lat":"31.2395","category":"46","category_name":"楼宇","address":"浙江中路598"},{"poiid":"B2094757D169A3F8479B","title":"厦门路双拥弄","lon":"121.47570483","lat":"31.239770103","category":"500","category_name":"未知分类","address":"上海厦门路"},{"poiid":"B2094654DA68A3FC4092","title":"新中邨","lon":"121.475","lat":"31.2404","category":"47","category_name":"住宅区","address":"新昌路245弄4-10号"},{"poiid":"B2094654DA6FA0FC4293","title":"保康里","lon":"121.47583","lat":"31.23866","category":"47","category_name":"住宅区","address":"北京东路756弄"},{"poiid":"B2094757D169A2FF479C","title":"黄公馆","lon":"121.474446738","lat":"31.2392894932","category":"247","category_name":"餐饮美食","address":"上海黄浦区厦门路"},{"poiid":"B2094654DA6FA0FD439C","title":"衍庆里","lon":"121.47401","lat":"31.23939","category":"47","category_name":"住宅区","address":"厦门路230弄2-76号"},{"poiid":"B2094752D769A7F4479A","title":"星巴克福建中路店","lon":"121.475582","lat":"31.238281","category":"247","category_name":"餐饮美食","address":"福建中路353号"},{"poiid":"B2094752D365A5F9489E","title":"江苏路地铁站","lon":"121.47479","lat":"31.239936","category":"36","category_name":"地铁站","address":null},{"poiid":"B2094757D06BABFD4393","title":"浙江中路桥","lon":"121.476404","lat":"31.240584","category":"500","category_name":"未知分类","address":"上海浙江中路南苏州路"},{"poiid":"B2094654DB6BA4F44992","title":"新世界大酒店","lon":"121.47656","lat":"31.23728","category":"74","category_name":"江苏菜","address":"黄浦区广西北路492号(近牛庄路)"},{"poiid":"B2094757D06FAAF5479F","title":"美华大厦","lon":"121.47356273","lat":"31.238155469","category":"253","category_name":"校园生活","address":"上海市普陀区中山北路1777号"},{"poiid":"B2094752D665A5FE469D","title":"上海外滩","lon":"121.473537","lat":"31.239756","category":"627","category_name":"一般地点标志","address":null},{"poiid":"B2094655D26FA6FB4092","title":"尊德里(南苏州路)","lon":"121.47553","lat":"31.24058","category":"47","category_name":"住宅区","address":"厦门路136弄"},{"poiid":"B2094654DA6FA0FC499B","title":"厦门路菜店","lon":"121.47433","lat":"31.23914","category":"117","category_name":"便民商店/便利店","address":"厦门路223号"},{"poiid":"B2094654DA6FA0FD4892","title":"厦门小区","lon":"121.47589","lat":"31.24043","category":"47","category_name":"住宅区","address":"浙江中路667"},{"poiid":"B2094654DA68A3FD4898","title":"仙乐斯广场","lon":"121.475","lat":"31.2372","category":"119","category_name":"商场","address":"静安区南京西路388号(近黄陂北路)"},{"poiid":"B2094757D06FA0FE419F","title":"黄浦剧场","lon":"121.47558845576759","lat":"31.238431640532156","category":"179","category_name":"音乐厅","address":"黄浦区北京东路780号(近西藏南路)"},{"poiid":"B2094654DA6FA2F4469E","title":"上海科技京城西楼","lon":"121.47714","lat":"31.23902","category":"46","category_name":"楼宇","address":"北京东路689"},{"poiid":"B2094753D76FAAFA449C","title":"上海滩国泰旗舰店","lon":"121.466011","lat":"31.216125","category":"249","category_name":"购物服务","address":"淮海中路868号"},{"poiid":"B209475CD564A7F84292","title":"上海滩新天地店","lon":"121.47463","lat":"31.22164","category":"119","category_name":"商场","address":"\"太仓路181弄新天地北里15号\r\n\""},{"poiid":"B209475CD564A7F8439E","title":"上海滩中信泰富店","lon":"121.45602","lat":"31.22851","category":"119","category_name":"商场","address":"\"南京西路1168号中信泰富广场，店铺号221.\r\n\""},{"poiid":"B209475CD564A7F84392","title":"上海滩浦东香格里拉店","lon":"121.50058","lat":"31.23634","category":"119","category_name":"商场","address":"浦东富成路33号香格里拉酒店内大堂层"},{"poiid":"B2094751DA6EA7FA419A","title":"泰妃阁（第一食品商店4楼）","lon":"121.47723","lat":"31.237643","category":"247","category_name":"餐饮美食","address":"黄浦区南京东路720号第一食品4楼(近贵州路)"},{"poiid":"B2094655D26BA4F94992","title":"小杨生煎浙江中路店","lon":"121.47714","lat":"31.23752","category":"68","category_name":"快餐厅","address":"黄浦区浙江中路486号(牛庄路口)"},{"poiid":"B2094750DB65AAFB489A","title":"大悦城","lon":"121.476074","lat":"31.24032","category":"500","category_name":"未知分类","address":null},{"poiid":"B2094751DA6DA4FB469F","title":"黄记煌","lon":"121.473479","lat":"31.238534","category":"247","category_name":"餐饮美食","address":"黄浦区南京东路720号第一食品城4楼"},{"poiid":"B2094757D068A7F9499E","title":"上海商贸旅游职业技能培训中心","lon":"121.475323","lat":"31.23728","category":"500","category_name":"未知分类","address":"上海贵州路189号"},{"poiid":"B2094751D56AA2F44092","title":"西提牛排","lon":"121.476018","lat":"31.238767","category":"247","category_name":"餐饮美食","address":"南京东路"},{"poiid":"B2094655D26BA1F54992","title":"峻岭广场","lon":"121.474","lat":"31.2383","category":"252","category_name":"楼宇机构","address":"成都北路500号"},{"poiid":"B2094757D16EABFA479F","title":"黄埔剧场","lon":"121.475590538","lat":"31.2397237024","category":"248","category_name":"生活娱乐","address":"上海北京东路780号"},{"poiid":"B2094751D26BA0FA4792","title":"陆家嘴","lon":"121.47600802","lat":"31.23881901999999","category":"500","category_name":"未知分类","address":"上海"},{"poiid":"B2094757D065A7FD429A","title":"厦门路尊德里","lon":"121.475797","lat":"31.239779","category":"47","category_name":"住宅区","address":"上海厦门路靠近浙江中路"},{"poiid":"B2094654DA68A3FC489B","title":"金瓯万国大厦","lon":"121.47591985314","lat":"31.240754198427","category":"46","category_name":"楼宇","address":"上海市黄浦区新昌路180号"},{"poiid":"B2094655D265A5FD4192","title":"华盛商务楼","lon":"121.473359","lat":"31.239953","category":"46","category_name":"楼宇","address":"上海市黄浦区成都北路600号"},{"poiid":"B2094654DA6FA2F4469F","title":"上海赛格电子市场","lon":"121.4778","lat":"31.23912","category":"138","category_name":"家电电子卖场","address":"黄浦区北京东路668号科技京城B1-4楼(近福建中路)"},{"poiid":"B2094757D064A4F5449A","title":"怡水豪庭","lon":"121.47475","lat":"31.240475","category":"47","category_name":"住宅区","address":"上海市松江区涞坊路599弄"},{"poiid":"B2094757D068ABFA4893","title":"上海市音乐幼儿园","lon":"121.474718","lat":"31.239423","category":"57","category_name":"幼儿园","address":"黄浦区厦门路180号"},{"poiid":"B2094654DA6FA0FE409C","title":"河畔明珠","lon":"121.47536","lat":"31.240377","category":"47","category_name":"住宅区","address":"上海市黄浦区南苏州路881号"},{"poiid":"B2094750D669A7F44992","title":"新华医院","lon":"121.473866","lat":"31.239307","category":"162","category_name":"医院","address":null},{"poiid":"B2094757D06FA7FC4599","title":"传奇台球(黄浦店)","lon":"121.47326","lat":"31.23912","category":"171","category_name":"台球厅","address":"上海黄浦区西藏中路698号3-4楼(近北京中路)"},{"poiid":"B2094654DB6BA4F5409D","title":"良友(厦门路)","lon":"121.47592","lat":"31.23969","category":"117","category_name":"便民商店/便利店","address":"厦门路122-124"},{"poiid":"B2094752DB6EA0FA4898","title":"上海虹桥机场","lon":"121.47491","lat":"31.239854","category":"500","category_name":"未知分类","address":"上海市 上海虹桥机场"},{"poiid":"B209475CD76FA3FE479C","title":"青浦朱家角","lon":"121.475234","lat":"31.239049","category":"500","category_name":"未知分类","address":"上海市 朱家角"},{"poiid":"B2094757DB6CA5FB4592","title":"人民公园","lon":"121.47746785","lat":"31.23880107","category":"196","category_name":"公园","address":"福建中路"},{"poiid":"B2094757D06AABFF419A","title":"好爱椒","lon":"121.476441738","lat":"31.2382864718","category":"247","category_name":"餐饮美食","address":"上海贵州路(铁道宾馆2楼)"},{"poiid":"B2094654DA6FA0FD459D","title":"上海市排水行业协会","lon":"121.4749","lat":"31.23954","category":"250","category_name":"公园户外","address":"厦门路180号"},{"poiid":"B2094654DA6FA1FF4492","title":"上海科技京城B区","lon":"121.47696","lat":"31.23949","category":"46","category_name":"楼宇","address":"浙江中路598"},{"poiid":"B2094750DB6CA4FA419B","title":"上海市，黄浦区，南京路步行街","lon":"121.4748171","lat":"31.2371356","category":"500","category_name":"未知分类","address":null},{"poiid":"B2094654DA6FA0FD469D","title":"上海大勤金属材料有限公司","lon":"121.47564","lat":"31.23964","category":"123","category_name":"家具建材市场","address":"厦门路144"},{"poiid":"B2094751DA68A5FA4299","title":"云笼坊第一笼","lon":"121.474488","lat":"31.239342","category":"247","category_name":"餐饮美食","address":"黄河路86号"},{"poiid":"B2094654DA6FA1FE459B","title":"上海科技京城A区","lon":"121.47695","lat":"31.2395","category":"46","category_name":"楼宇","address":"浙江中路598"},{"poiid":"B2094757D169A3F8479B","title":"厦门路双拥弄","lon":"121.47570483","lat":"31.239770103","category":"500","category_name":"未知分类","address":"上海厦门路"},{"poiid":"B2094654DA68A3FC4092","title":"新中邨","lon":"121.475","lat":"31.2404","category":"47","category_name":"住宅区","address":"新昌路245弄4-10号"},{"poiid":"B2094654DA6FA0FC4293","title":"保康里","lon":"121.47583","lat":"31.23866","category":"47","category_name":"住宅区","address":"北京东路756弄"},{"poiid":"B2094757D169A2FF479C","title":"黄公馆","lon":"121.474446738","lat":"31.2392894932","category":"247","category_name":"餐饮美食","address":"上海黄浦区厦门路"},{"poiid":"B2094654DA6FA0FD439C","title":"衍庆里","lon":"121.47401","lat":"31.23939","category":"47","category_name":"住宅区","address":"厦门路230弄2-76号"},{"poiid":"B2094752D769A7F4479A","title":"星巴克福建中路店","lon":"121.475582","lat":"31.238281","category":"247","category_name":"餐饮美食","address":"福建中路353号"},{"poiid":"B2094752D365A5F9489E","title":"江苏路地铁站","lon":"121.47479","lat":"31.239936","category":"36","category_name":"地铁站","address":null},{"poiid":"B2094757D06BABFD4393","title":"浙江中路桥","lon":"121.476404","lat":"31.240584","category":"500","category_name":"未知分类","address":"上海浙江中路南苏州路"},{"poiid":"B2094654DB6BA4F44992","title":"新世界大酒店","lon":"121.47656","lat":"31.23728","category":"74","category_name":"江苏菜","address":"黄浦区广西北路492号(近牛庄路)"},{"poiid":"B2094757D06FAAF5479F","title":"美华大厦","lon":"121.47356273","lat":"31.238155469","category":"253","category_name":"校园生活","address":"上海市普陀区中山北路1777号"},{"poiid":"B2094752D665A5FE469D","title":"上海外滩","lon":"121.473537","lat":"31.239756","category":"627","category_name":"一般地点标志","address":null},{"poiid":"B2094655D26FA6FB4092","title":"尊德里(南苏州路)","lon":"121.47553","lat":"31.24058","category":"47","category_name":"住宅区","address":"厦门路136弄"},{"poiid":"B2094654DA6FA0FC499B","title":"厦门路菜店","lon":"121.47433","lat":"31.23914","category":"117","category_name":"便民商店/便利店","address":"厦门路223号"},{"poiid":"B2094654DA6FA0FD4892","title":"厦门小区","lon":"121.47589","lat":"31.24043","category":"47","category_name":"住宅区","address":"浙江中路667"}]