[{"poiid":"B2094654D564AAFD4699","title":"花园饭店","lon":"121.45981","lat":"31.21981","category":"213","category_name":"五星级宾馆","address":"卢湾区茂名南路58号(近淮海中路)"},{"poiid":"B2094654D564AAF9439B","title":"兰心大戏院","lon":"121.46051","lat":"31.2209","category":"180","category_name":"剧场","address":"卢湾区茂名南路57(近长乐路口)"},{"poiid":"B2094655D26AAAFC459F","title":"融合马来西亚餐厅","lon":"121.4594","lat":"31.21736","category":"110","category_name":"其他亚洲菜","address":"卢湾区淮海中路918号百盛购物中心8楼(近陕西南路)"},{"poiid":"B2094753D76FAAFA449C","title":"上海滩国泰旗舰店","lon":"121.466011","lat":"31.216125","category":"249","category_name":"购物服务","address":"淮海中路868号"},{"poiid":"B209475CD564A7F84292","title":"上海滩新天地店","lon":"121.47463","lat":"31.22164","category":"119","category_name":"商场","address":"\"太仓路181弄新天地北里15号\r\n\""},{"poiid":"B209475CD564A7F8439E","title":"上海滩中信泰富店","lon":"121.45602","lat":"31.22851","category":"119","category_name":"商场","address":"\"南京西路1168号中信泰富广场，店铺号221.\r\n\""},{"poiid":"B2094757D06FA2F9469A","title":"兰心餐厅","lon":"121.45978","lat":"31.22135","category":"76","category_name":"上海菜","address":"卢湾区进贤路130号(近茂名南路)"},{"poiid":"B2094757D465A4F9439F","title":"PIER39号码头","lon":"121.458225054","lat":"31.220526793","category":"247","category_name":"餐饮美食","address":"进贤路172号近陕西南路"},{"poiid":"B2094757DB68AAFF4792","title":"丽江驿 MONSOON","lon":"121.460094","lat":"31.221228","category":"99","category_name":"泰国／越南菜品餐厅","address":"卢湾区茂名南路56号56食尚谷内(近长乐路)"},{"poiid":"B2094757D464A7FE459F","title":"唐宫1号 锦江迪生店","lon":"121.459768054","lat":"31.220746793","category":"247","category_name":"餐饮美食","address":"卢湾区长乐路400号锦江迪生3-4楼(近茂名南路)"},{"poiid":"B2094757D06FA6FE489E","title":"王品台塑牛排(长乐店)","lon":"121.45989","lat":"31.22049","category":"94","category_name":"西餐厅","address":"卢湾区长乐路400号锦江迪生商厦2楼(近茂名南路)"},{"poiid":"B2094654DB64A5FD409D","title":"苏浙汇","lon":"121.46125","lat":"31.21837","category":"76","category_name":"上海菜","address":"卢湾区茂名南路127号(近淮海路)"},{"poiid":"B2094757D06FA1F9419F","title":"滴水洞(茂名南路店)","lon":"121.4601","lat":"31.22061","category":"77","category_name":"湖南菜","address":"卢湾区茂名南路56号2楼(近长乐路)"},{"poiid":"B2094757D06FA2F5499C","title":"玲珑餐厅","lon":"121.45882","lat":"31.21798","category":"76","category_name":"上海菜","address":"卢湾区陕西南路57号(新乐路口)"},{"poiid":"B2094757D06FA7F44099","title":"锦江小礼堂","lon":"121.46134988","lat":"31.220052989","category":"217","category_name":"旅馆招待所","address":"卢湾区茂名南路59号"},{"poiid":"B2094757D069A0F9479A","title":"天都里印度餐厅","lon":"121.461","lat":"31.22016","category":"102","category_name":"印度风味","address":"卢湾区茂名南路59号锦江饭店南楼大堂(近长乐路)"},{"poiid":"B2094757D16EA3FC459B","title":"Bellissimo","lon":"121.458933538","lat":"31.2205624941","category":"94","category_name":"西餐厅","address":"卢湾区长乐路434弄7号1-3楼"},{"poiid":"B2094757D06FA0FC439E","title":"锦江迪生商厦","lon":"121.45968873","lat":"31.221020103","category":"119","category_name":"商场","address":"卢湾区长乐路400号(近茂名南路)"},{"poiid":"B2094655D26AABFB439F","title":"天鹅申阁西菜社","lon":"121.45926","lat":"31.22131","category":"247","category_name":"餐饮美食","address":"进贤路169号"},{"poiid":"B2094757D06FABF8459F","title":"Maison Pourcel","lon":"121.458155","lat":"31.220484","category":"94","category_name":"西餐厅","address":"卢湾区陕西南路35号6,8楼(近长乐路)"},{"poiid":"B2094757D06FA0F9419F","title":"清迈天堂","lon":"121.46022","lat":"31.2212","category":"99","category_name":"泰国／越南菜品餐厅","address":"卢湾区进贤路145号(近茂名南路)"},{"poiid":"B2094750D66CABFE4592","title":"兰心大剧院","lon":"121.45774","lat":"31.219259","category":"248","category_name":"生活娱乐","address":"茂名南路57号"},{"poiid":"B2094750D068A2FA449C","title":"Tikka","lon":"121.46011","lat":"31.22115","category":"102","category_name":"印度风味","address":"卢湾区茂名南路56号(近长乐路)"},{"poiid":"B2094757D06FABFE439B","title":"粋寿司","lon":"121.46058308","lat":"31.220771748","category":"95","category_name":"日本料理","address":"卢湾区长乐路175-2号(近茂名南路)"},{"poiid":"B2094654DB64A5F54099","title":"松阪烤肉","lon":"121.46118","lat":"31.21912","category":"87","category_name":"特色／地方风味餐厅","address":"卢湾区茂名南路59号锦江宾馆美食街(近长乐路)"},{"poiid":"B2094757D068A7F8459F","title":"净心轩","lon":"121.46047","lat":"31.22114","category":"89","category_name":"中式素餐馆","address":"卢湾区茂名南路56号56食尚谷D区1号(近长乐路)"},{"poiid":"B2094757DB6FA4F9469A","title":"白木屋","lon":"121.4612600956912","lat":"31.21832756200628","category":"500","category_name":"未知分类","address":"东湖路30号2楼近淮海中路"},{"poiid":"B2094757D068A0FF4893","title":"锦庐 The Chinoise Story","lon":"121.46073413098","lat":"31.220246592787","category":"247","category_name":"餐饮美食","address":"卢湾区茂名南路59号锦江饭店锦北楼(近长乐路)"},{"poiid":"B2094654DB64A6FC469F","title":"老夜上海","lon":"121.46046","lat":"31.22045","category":"76","category_name":"上海菜","address":"卢湾区茂名南路59号老锦江饭店北楼11-12楼(近长乐路)"},{"poiid":"B2094757DA69A3F4419B","title":"福得德","lon":"121.46017423652","lat":"31.221155993403","category":"76","category_name":"上海菜","address":"卢湾区茂名南路56号B区1楼(近进贤路)"},{"poiid":"B209475DDA68A2FA429E","title":"万岛日本料理铁板烧（锦江迪生店）","lon":"121.460075","lat":"31.220945","category":"247","category_name":"餐饮美食","address":"上海市 长乐路400号(近茂名南路)"},{"poiid":"B2094757D068A0FC409C","title":"梅园村锦梅食府","lon":"121.460920662","lat":"31.2202856175","category":"74","category_name":"江苏菜","address":"卢湾区茂名南路59号老锦江食街内(近长乐路)"},{"poiid":"B2094750DB6BA0F8489D","title":"徐小猫的店","lon":"121.458412","lat":"31.218978","category":"260","category_name":"其他","address":"卢湾区陕西南路39弄81号1楼(近新乐路)"},{"poiid":"B2094655D26AAAFE439D","title":"渝乡人家淮海路百盛店","lon":"121.4594","lat":"31.21736","category":"71","category_name":"四川菜","address":"卢湾区淮海中路918号百盛购物中心8楼(近陕西南路)"},{"poiid":"B2094757D06FA4F44099","title":"台湾小吃鲁肉饭(长乐店)","lon":"121.45939","lat":"31.22003","category":"68","category_name":"快餐厅","address":"卢湾区长乐路203号(近茂名南路)"},{"poiid":"B2094757D168A6F9449A","title":"屋企汤馆","lon":"121.460766738","lat":"31.2209171016","category":"72","category_name":"广东菜","address":"卢湾区长乐路175号(近兰心大戏院)"},{"poiid":"B2094757D16EA0FB4498","title":"花园饭店33楼欧陆法式餐厅","lon":"121.460312738","lat":"31.2179050375","category":"500","category_name":"未知分类","address":"上海市静安区茂名南路58号"},{"poiid":"B2094654DB64A7F9479B","title":"山里","lon":"121.459704054","lat":"31.220028793","category":"95","category_name":"日本料理","address":"卢湾区茂名南路58号花园饭店2楼(近淮海中路)"},{"poiid":"B2094752D76CA3FD4393","title":"tap coffee","lon":"121.461437","lat":"31.21855","category":"247","category_name":"餐饮美食","address":"南昌路150号"},{"poiid":"B2094757D06FABFC4092","title":"百盛购物中心超市","lon":"121.459173354","lat":"31.2173432528","category":"118","category_name":"超级市场","address":"卢湾区淮海中路918号百盛购物中心B1楼(近陕西南路)"},{"poiid":"B2094654DB65A2FD409A","title":"玫瑰咖啡厅","lon":"121.459704054","lat":"31.220028793","category":"268","category_name":"自助","address":"卢湾区茂名南路58号花园饭店1楼(近淮海中路)"},{"poiid":"B2094655D26EA5F44193","title":"阿毛饭店(富民店)","lon":"121.45826","lat":"31.21851","category":"76","category_name":"上海菜","address":"卢湾区陕西南路53号(近长乐路)"},{"poiid":"B2094757D068A6FB429E","title":"康骏会馆(长乐店)","lon":"121.459905","lat":"31.220958","category":"500","category_name":"未知分类","address":"卢湾区长乐路400号3楼(长乐路茂名南路)"},{"poiid":"B2094751DA64A3FC4392","title":"DAISO大创生活馆","lon":"121.459449","lat":"31.219421","category":"249","category_name":"购物服务","address":"上海市淮海中路900号B1"},{"poiid":"B2094757D168A0F94993","title":"一龙居酒屋","lon":"121.458361038","lat":"31.2203407894","category":"95","category_name":"日本料理","address":"卢湾区长乐路207号"},{"poiid":"B2094757D06AA7FD429C","title":"FC日式造型(锦江迪生店)","lon":"121.459907","lat":"31.220695","category":"260","category_name":"其他","address":"上海卢湾区长乐路400号锦江迪生3楼(近茂名南路)"},{"poiid":"B2094757D66DA1F8479F","title":"锦梅食府","lon":"121.461082738","lat":"31.2191440639","category":"247","category_name":"餐饮美食","address":"上海市静安区陕西南路"},{"poiid":"B2094654DB64A5F54093","title":"山茶花铁板烧","lon":"121.459704054","lat":"31.220028793","category":"269","category_name":"烧烤","address":"卢湾区茂名南路58号花园饭店33楼(近淮海中路)"},{"poiid":"B2094757D06FAAFA4098","title":"乐太郎","lon":"121.45997","lat":"31.22049","category":"95","category_name":"日本料理","address":"卢湾区长乐路398号1楼B1(近茂名南路)"},{"poiid":"B2094655D26EA2F84192","title":"福烤锦花","lon":"121.45827","lat":"31.22018","category":"269","category_name":"烧烤","address":"卢湾区长乐路223号(近陕西南路)"},{"poiid":"B2094654D564AAFD4699","title":"花园饭店","lon":"121.45981","lat":"31.21981","category":"213","category_name":"五星级宾馆","address":"卢湾区茂名南路58号(近淮海中路)"},{"poiid":"B2094654D564AAF9439B","title":"兰心大戏院","lon":"121.46051","lat":"31.2209","category":"180","category_name":"剧场","address":"卢湾区茂名南路57(近长乐路口)"},{"poiid":"B2094655D26AAAFC459F","title":"融合马来西亚餐厅","lon":"121.4594","lat":"31.21736","category":"110","category_name":"其他亚洲菜","address":"卢湾区淮海中路918号百盛购物中心8楼(近陕西南路)"},{"poiid":"B2094753D76FAAFA449C","title":"上海滩国泰旗舰店","lon":"121.466011","lat":"31.216125","category":"249","category_name":"购物服务","address":"淮海中路868号"},{"poiid":"B209475CD564A7F84292","title":"上海滩新天地店","lon":"121.47463","lat":"31.22164","category":"119","category_name":"商场","address":"\"太仓路181弄新天地北里15号\r\n\""},{"poiid":"B209475CD564A7F8439E","title":"上海滩中信泰富店","lon":"121.45602","lat":"31.22851","category":"119","category_name":"商场","address":"\"南京西路1168号中信泰富广场，店铺号221.\r\n\""},{"poiid":"B2094757D06FA2F9469A","title":"兰心餐厅","lon":"121.45978","lat":"31.22135","category":"76","category_name":"上海菜","address":"卢湾区进贤路130号(近茂名南路)"},{"poiid":"B2094757D465A4F9439F","title":"PIER39号码头","lon":"121.458225054","lat":"31.220526793","category":"247","category_name":"餐饮美食","address":"进贤路172号近陕西南路"},{"poiid":"B2094757DB68AAFF4792","title":"丽江驿 MONSOON","lon":"121.460094","lat":"31.221228","category":"99","category_name":"泰国／越南菜品餐厅","address":"卢湾区茂名南路56号56食尚谷内(近长乐路)"},{"poiid":"B2094757D464A7FE459F","title":"唐宫1号 锦江迪生店","lon":"121.459768054","lat":"31.220746793","category":"247","category_name":"餐饮美食","address":"卢湾区长乐路400号锦江迪生3-4楼(近茂名南路)"},{"poiid":"B2094757D06FA6FE489E","title":"王品台塑牛排(长乐店)","lon":"121.45989","lat":"31.22049","category":"94","category_name":"西餐厅","address":"卢湾区长乐路400号锦江迪生商厦2楼(近茂名南路)"},{"poiid":"B2094654DB64A5FD409D","title":"苏浙汇","lon":"121.46125","lat":"31.21837","category":"76","category_name":"上海菜","address":"卢湾区茂名南路127号(近淮海路)"},{"poiid":"B2094757D06FA1F9419F","title":"滴水洞(茂名南路店)","lon":"121.4601","lat":"31.22061","category":"77","category_name":"湖南菜","address":"卢湾区茂名南路56号2楼(近长乐路)"},{"poiid":"B2094757D06FA2F5499C","title":"玲珑餐厅","lon":"121.45882","lat":"31.21798","category":"76","category_name":"上海菜","address":"卢湾区陕西南路57号(新乐路口)"},{"poiid":"B2094757D06FA7F44099","title":"锦江小礼堂","lon":"121.46134988","lat":"31.220052989","category":"217","category_name":"旅馆招待所","address":"卢湾区茂名南路59号"},{"poiid":"B2094757D069A0F9479A","title":"天都里印度餐厅","lon":"121.461","lat":"31.22016","category":"102","category_name":"印度风味","address":"卢湾区茂名南路59号锦江饭店南楼大堂(近长乐路)"},{"poiid":"B2094757D16EA3FC459B","title":"Bellissimo","lon":"121.458933538","lat":"31.2205624941","category":"94","category_name":"西餐厅","address":"卢湾区长乐路434弄7号1-3楼"},{"poiid":"B2094757D06FA0FC439E","title":"锦江迪生商厦","lon":"121.45968873","lat":"31.221020103","category":"119","category_name":"商场","address":"卢湾区长乐路400号(近茂名南路)"},{"poiid":"B2094655D26AABFB439F","title":"天鹅申阁西菜社","lon":"121.45926","lat":"31.22131","category":"247","category_name":"餐饮美食","address":"进贤路169号"},{"poiid":"B2094757D06FABF8459F","title":"Maison Pourcel","lon":"121.458155","lat":"31.220484","category":"94","category_name":"西餐厅","address":"卢湾区陕西南路35号6,8楼(近长乐路)"},{"poiid":"B2094757D06FA0F9419F","title":"清迈天堂","lon":"121.46022","lat":"31.2212","category":"99","category_name":"泰国／越南菜品餐厅","address":"卢湾区进贤路145号(近茂名南路)"},{"poiid":"B2094750D66CABFE4592","title":"兰心大剧院","lon":"121.45774","lat":"31.219259","category":"248","category_name":"生活娱乐","address":"茂名南路57号"},{"poiid":"B2094750D068A2FA449C","title":"Tikka","lon":"121.46011","lat":"31.22115","category":"102","category_name":"印度风味","address":"卢湾区茂名南路56号(近长乐路)"},{"poiid":"B2094757D06FABFE439B","title":"粋寿司","lon":"121.46058308","lat":"31.220771748","category":"95","category_name":"日本料理","address":"卢湾区长乐路175-2号(近茂名南路)"},{"poiid":"B2094654DB64A5F54099","title":"松阪烤肉","lon":"121.46118","lat":"31.21912","category":"87","category_name":"特色／地方风味餐厅","address":"卢湾区茂名南路59号锦江宾馆美食街(近长乐路)"},{"poiid":"B2094757D068A7F8459F","title":"净心轩","lon":"121.46047","lat":"31.22114","category":"89","category_name":"中式素餐馆","address":"卢湾区茂名南路56号56食尚谷D区1号(近长乐路)"},{"poiid":"B2094757DB6FA4F9469A","title":"白木屋","lon":"121.4612600956912","lat":"31.21832756200628","category":"500","category_name":"未知分类","address":"东湖路30号2楼近淮海中路"},{"poiid":"B2094757D068A0FF4893","title":"锦庐 The Chinoise Story","lon":"121.46073413098","lat":"31.220246592787","category":"247","category_name":"餐饮美食","address":"卢湾区茂名南路59号锦江饭店锦北楼(近长乐路)"},{"poiid":"B2094654DB64A6FC469F","title":"老夜上海","lon":"121.46046","lat":"31.22045","category":"76","category_name":"上海菜","address":"卢湾区茂名南路59号老锦江饭店北楼11-12楼(近长乐路)"},{"poiid":"B2094757DA69A3F4419B","title":"福得德","lon":"121.46017423652","lat":"31.221155993403","category":"76","category_name":"上海菜","address":"卢湾区茂名南路56号B区1楼(近进贤路)"},{"poiid":"B209475DDA68A2FA429E","title":"万岛日本料理铁板烧（锦江迪生店）","lon":"121.460075","lat":"31.220945","category":"247","category_name":"餐饮美食","address":"上海市 长乐路400号(近茂名南路)"},{"poiid":"B2094757D068A0FC409C","title":"梅园村锦梅食府","lon":"121.460920662","lat":"31.2202856175","category":"74","category_name":"江苏菜","address":"卢湾区茂名南路59号老锦江食街内(近长乐路)"},{"poiid":"B2094750DB6BA0F8489D","title":"徐小猫的店","lon":"121.458412","lat":"31.218978","category":"260","category_name":"其他","address":"卢湾区陕西南路39弄81号1楼(近新乐路)"},{"poiid":"B2094655D26AAAFE439D","title":"渝乡人家淮海路百盛店","lon":"121.4594","lat":"31.21736","category":"71","category_name":"四川菜","address":"卢湾区淮海中路918号百盛购物中心8楼(近陕西南路)"},{"poiid":"B2094757D06FA4F44099","title":"台湾小吃鲁肉饭(长乐店)","lon":"121.45939","lat":"31.22003","category":"68","category_name":"快餐厅","address":"卢湾区长乐路203号(近茂名南路)"},{"poiid":"B2094757D168A6F9449A","title":"屋企汤馆","lon":"121.460766738","lat":"31.2209171016","category":"72","category_name":"广东菜","address":"卢湾区长乐路175号(近兰心大戏院)"},{"poiid":"B2094757D16EA0FB4498","title":"花园饭店33楼欧陆法式餐厅","lon":"121.460312738","lat":"31.2179050375","category":"500","category_name":"未知分类","address":"上海市静安区茂名南路58号"},{"poiid":"B2094654DB64A7F9479B","title":"山里","lon":"121.459704054","lat":"31.220028793","category":"95","category_name":"日本料理","address":"卢湾区茂名南路58号花园饭店2楼(近淮海中路)"},{"poiid":"B2094752D76CA3FD4393","title":"tap coffee","lon":"121.461437","lat":"31.21855","category":"247","category_name":"餐饮美食","address":"南昌路150号"},{"poiid":"B2094757D06FABFC4092","title":"百盛购物中心超市","lon":"121.459173354","lat":"31.2173432528","category":"118","category_name":"超级市场","address":"卢湾区淮海中路918号百盛购物中心B1楼(近陕西南路)"},{"poiid":"B2094654DB65A2FD409A","title":"玫瑰咖啡厅","lon":"121.459704054","lat":"31.220028793","category":"268","category_name":"自助","address":"卢湾区茂名南路58号花园饭店1楼(近淮海中路)"},{"poiid":"B2094655D26EA5F44193","title":"阿毛饭店(富民店)","lon":"121.45826","lat":"31.21851","category":"76","category_name":"上海菜","address":"卢湾区陕西南路53号(近长乐路)"},{"poiid":"B2094757D068A6FB429E","title":"康骏会馆(长乐店)","lon":"121.459905","lat":"31.220958","category":"500","category_name":"未知分类","address":"卢湾区长乐路400号3楼(长乐路茂名南路)"},{"poiid":"B2094751DA64A3FC4392","title":"DAISO大创生活馆","lon":"121.459449","lat":"31.219421","category":"249","category_name":"购物服务","address":"上海市淮海中路900号B1"},{"poiid":"B2094757D168A0F94993","title":"一龙居酒屋","lon":"121.458361038","lat":"31.2203407894","category":"95","category_name":"日本料理","address":"卢湾区长乐路207号"},{"poiid":"B2094757D06AA7FD429C","title":"FC日式造型(锦江迪生店)","lon":"121.459907","lat":"31.220695","category":"260","category_name":"其他","address":"上海卢湾区长乐路400号锦江迪生3楼(近茂名南路)"},{"poiid":"B2094757D66DA1F8479F","title":"锦梅食府","lon":"121.461082738","lat":"31.2191440639","category":"247","category_name":"餐饮美食","address":"上海市静安区陕西南路"},{"poiid":"B2094654DB64A5F54093","title":"山茶花铁板烧","lon":"121.459704054","lat":"31.220028793","category":"269","category_name":"烧烤","address":"卢湾区茂名南路58号花园饭店33楼(近淮海中路)"},{"poiid":"B2094757D06FAAFA4098","title":"乐太郎","lon":"121.45997","lat":"31.22049","category":"95","category_name":"日本料理","address":"卢湾区长乐路398号1楼B1(近茂名南路)"},{"poiid":"B2094655D26EA2F84192","title":"福烤锦花","lon":"121.45827","lat":"31.22018","category":"269","category_name":"烧烤","address":"卢湾区长乐路223号(近陕西南路)"},{"poiid":"B2094654D564AAFD4699","title":"花园饭店","lon":"121.45981","lat":"31.21981","category":"213","category_name":"五星级宾馆","address":"卢湾区茂名南路58号(近淮海中路)"},{"poiid":"B2094654D564AAF9439B","title":"兰心大戏院","lon":"121.46051","lat":"31.2209","category":"180","category_name":"剧场","address":"卢湾区茂名南路57(近长乐路口)"},{"poiid":"B2094655D26AAAFC459F","title":"融合马来西亚餐厅","lon":"121.4594","lat":"31.21736","category":"110","category_name":"其他亚洲菜","address":"卢湾区淮海中路918号百盛购物中心8楼(近陕西南路)"},{"poiid":"B2094753D76FAAFA449C","title":"上海滩国泰旗舰店","lon":"121.466011","lat":"31.216125","category":"249","category_name":"购物服务","address":"淮海中路868号"},{"poiid":"B209475CD564A7F84292","title":"上海滩新天地店","lon":"121.47463","lat":"31.22164","category":"119","category_name":"商场","address":"\"太仓路181弄新天地北里15号\r\n\""},{"poiid":"B209475CD564A7F8439E","title":"上海滩中信泰富店","lon":"121.45602","lat":"31.22851","category":"119","category_name":"商场","address":"\"南京西路1168号中信泰富广场，店铺号221.\r\n\""},{"poiid":"B2094757D06FA2F9469A","title":"兰心餐厅","lon":"121.45978","lat":"31.22135","category":"76","category_name":"上海菜","address":"卢湾区进贤路130号(近茂名南路)"},{"poiid":"B2094757D465A4F9439F","title":"PIER39号码头","lon":"121.458225054","lat":"31.220526793","category":"247","category_name":"餐饮美食","address":"进贤路172号近陕西南路"},{"poiid":"B2094757DB68AAFF4792","title":"丽江驿 MONSOON","lon":"121.460094","lat":"31.221228","category":"99","category_name":"泰国／越南菜品餐厅","address":"卢湾区茂名南路56号56食尚谷内(近长乐路)"},{"poiid":"B2094757D464A7FE459F","title":"唐宫1号 锦江迪生店","lon":"121.459768054","lat":"31.220746793","category":"247","category_name":"餐饮美食","address":"卢湾区长乐路400号锦江迪生3-4楼(近茂名南路)"},{"poiid":"B2094757D06FA6FE489E","title":"王品台塑牛排(长乐店)","lon":"121.45989","lat":"31.22049","category":"94","category_name":"西餐厅","address":"卢湾区长乐路400号锦江迪生商厦2楼(近茂名南路)"},{"poiid":"B2094654DB64A5FD409D","title":"苏浙汇","lon":"121.46125","lat":"31.21837","category":"76","category_name":"上海菜","address":"卢湾区茂名南路127号(近淮海路)"},{"poiid":"B2094757D06FA1F9419F","title":"滴水洞(茂名南路店)","lon":"121.4601","lat":"31.22061","category":"77","category_name":"湖南菜","address":"卢湾区茂名南路56号2楼(近长乐路)"},{"poiid":"B2094757D06FA2F5499C","title":"玲珑餐厅","lon":"121.45882","lat":"31.21798","category":"76","category_name":"上海菜","address":"卢湾区陕西南路57号(新乐路口)"},{"poiid":"B2094757D06FA7F44099","title":"锦江小礼堂","lon":"121.46134988","lat":"31.220052989","category":"217","category_name":"旅馆招待所","address":"卢湾区茂名南路59号"},{"poiid":"B2094757D069A0F9479A","title":"天都里印度餐厅","lon":"121.461","lat":"31.22016","category":"102","category_name":"印度风味","address":"卢湾区茂名南路59号锦江饭店南楼大堂(近长乐路)"},{"poiid":"B2094757D16EA3FC459B","title":"Bellissimo","lon":"121.458933538","lat":"31.2205624941","category":"94","category_name":"西餐厅","address":"卢湾区长乐路434弄7号1-3楼"},{"poiid":"B2094757D06FA0FC439E","title":"锦江迪生商厦","lon":"121.45968873","lat":"31.221020103","category":"119","category_name":"商场","address":"卢湾区长乐路400号(近茂名南路)"},{"poiid":"B2094655D26AABFB439F","title":"天鹅申阁西菜社","lon":"121.45926","lat":"31.22131","category":"247","category_name":"餐饮美食","address":"进贤路169号"},{"poiid":"B2094757D06FABF8459F","title":"Maison Pourcel","lon":"121.458155","lat":"31.220484","category":"94","category_name":"西餐厅","address":"卢湾区陕西南路35号6,8楼(近长乐路)"},{"poiid":"B2094757D06FA0F9419F","title":"清迈天堂","lon":"121.46022","lat":"31.2212","category":"99","category_name":"泰国／越南菜品餐厅","address":"卢湾区进贤路145号(近茂名南路)"},{"poiid":"B2094750D66CABFE4592","title":"兰心大剧院","lon":"121.45774","lat":"31.219259","category":"248","category_name":"生活娱乐","address":"茂名南路57号"},{"poiid":"B2094750D068A2FA449C","title":"Tikka","lon":"121.46011","lat":"31.22115","category":"102","category_name":"印度风味","address":"卢湾区茂名南路56号(近长乐路)"},{"poiid":"B2094757D06FABFE439B","title":"粋寿司","lon":"121.46058308","lat":"31.220771748","category":"95","category_name":"日本料理","address":"卢湾区长乐路175-2号(近茂名南路)"},{"poiid":"B2094654DB64A5F54099","title":"松阪烤肉","lon":"121.46118","lat":"31.21912","category":"87","category_name":"特色／地方风味餐厅","address":"卢湾区茂名南路59号锦江宾馆美食街(近长乐路)"},{"poiid":"B2094757D068A7F8459F","title":"净心轩","lon":"121.46047","lat":"31.22114","category":"89","category_name":"中式素餐馆","address":"卢湾区茂名南路56号56食尚谷D区1号(近长乐路)"},{"poiid":"B2094757DB6FA4F9469A","title":"白木屋","lon":"121.4612600956912","lat":"31.21832756200628","category":"500","category_name":"未知分类","address":"东湖路30号2楼近淮海中路"},{"poiid":"B2094757D068A0FF4893","title":"锦庐 The Chinoise Story","lon":"121.46073413098","lat":"31.220246592787","category":"247","category_name":"餐饮美食","address":"卢湾区茂名南路59号锦江饭店锦北楼(近长乐路)"},{"poiid":"B2094654DB64A6FC469F","title":"老夜上海","lon":"121.46046","lat":"31.22045","category":"76","category_name":"上海菜","address":"卢湾区茂名南路59号老锦江饭店北楼11-12楼(近长乐路)"},{"poiid":"B2094757DA69A3F4419B","title":"福得德","lon":"121.46017423652","lat":"31.221155993403","category":"76","category_name":"上海菜","address":"卢湾区茂名南路56号B区1楼(近进贤路)"},{"poiid":"B209475DDA68A2FA429E","title":"万岛日本料理铁板烧（锦江迪生店）","lon":"121.460075","lat":"31.220945","category":"247","category_name":"餐饮美食","address":"上海市 长乐路400号(近茂名南路)"},{"poiid":"B2094757D068A0FC409C","title":"梅园村锦梅食府","lon":"121.460920662","lat":"31.2202856175","category":"74","category_name":"江苏菜","address":"卢湾区茂名南路59号老锦江食街内(近长乐路)"},{"poiid":"B2094750DB6BA0F8489D","title":"徐小猫的店","lon":"121.458412","lat":"31.218978","category":"260","category_name":"其他","address":"卢湾区陕西南路39弄81号1楼(近新乐路)"},{"poiid":"B2094655D26AAAFE439D","title":"渝乡人家淮海路百盛店","lon":"121.4594","lat":"31.21736","category":"71","category_name":"四川菜","address":"卢湾区淮海中路918号百盛购物中心8楼(近陕西南路)"},{"poiid":"B2094757D06FA4F44099","title":"台湾小吃鲁肉饭(长乐店)","lon":"121.45939","lat":"31.22003","category":"68","category_name":"快餐厅","address":"卢湾区长乐路203号(近茂名南路)"},{"poiid":"B2094757D168A6F9449A","title":"屋企汤馆","lon":"121.460766738","lat":"31.2209171016","category":"72","category_name":"广东菜","address":"卢湾区长乐路175号(近兰心大戏院)"},{"poiid":"B2094757D16EA0FB4498","title":"花园饭店33楼欧陆法式餐厅","lon":"121.460312738","lat":"31.2179050375","category":"500","category_name":"未知分类","address":"上海市静安区茂名南路58号"},{"poiid":"B2094654DB64A7F9479B","title":"山里","lon":"121.459704054","lat":"31.220028793","category":"95","category_name":"日本料理","address":"卢湾区茂名南路58号花园饭店2楼(近淮海中路)"},{"poiid":"B2094752D76CA3FD4393","title":"tap coffee","lon":"121.461437","lat":"31.21855","category":"247","category_name":"餐饮美食","address":"南昌路150号"},{"poiid":"B2094757D06FABFC4092","title":"百盛购物中心超市","lon":"121.459173354","lat":"31.2173432528","category":"118","category_name":"超级市场","address":"卢湾区淮海中路918号百盛购物中心B1楼(近陕西南路)"},{"poiid":"B2094654DB65A2FD409A","title":"玫瑰咖啡厅","lon":"121.459704054","lat":"31.220028793","category":"268","category_name":"自助","address":"卢湾区茂名南路58号花园饭店1楼(近淮海中路)"},{"poiid":"B2094655D26EA5F44193","title":"阿毛饭店(富民店)","lon":"121.45826","lat":"31.21851","category":"76","category_name":"上海菜","address":"卢湾区陕西南路53号(近长乐路)"},{"poiid":"B2094757D068A6FB429E","title":"康骏会馆(长乐店)","lon":"121.459905","lat":"31.220958","category":"500","category_name":"未知分类","address":"卢湾区长乐路400号3楼(长乐路茂名南路)"},{"poiid":"B2094751DA64A3FC4392","title":"DAISO大创生活馆","lon":"121.459449","lat":"31.219421","category":"249","category_name":"购物服务","address":"上海市淮海中路900号B1"},{"poiid":"B2094757D168A0F94993","title":"一龙居酒屋","lon":"121.458361038","lat":"31.2203407894","category":"95","category_name":"日本料理","address":"卢湾区长乐路207号"},{"poiid":"B2094757D06AA7FD429C","title":"FC日式造型(锦江迪生店)","lon":"121.459907","lat":"31.220695","category":"260","category_name":"其他","address":"上海卢湾区长乐路400号锦江迪生3楼(近茂名南路)"},{"poiid":"B2094757D66DA1F8479F","title":"锦梅食府","lon":"121.461082738","lat":"31.2191440639","category":"247","category_name":"餐饮美食","address":"上海市静安区陕西南路"},{"poiid":"B2094654DB64A5F54093","title":"山茶花铁板烧","lon":"121.459704054","lat":"31.220028793","category":"269","category_name":"烧烤","address":"卢湾区茂名南路58号花园饭店33楼(近淮海中路)"},{"poiid":"B2094757D06FAAFA4098","title":"乐太郎","lon":"121.45997","lat":"31.22049","category":"95","category_name":"日本料理","address":"卢湾区长乐路398号1楼B1(近茂名南路)"},{"poiid":"B2094655D26EA2F84192","title":"福烤锦花","lon":"121.45827","lat":"31.22018","category":"269","category_name":"烧烤","address":"卢湾区长乐路223号(近陕西南路)"},{"poiid":"B2094654D564AAFD4699","title":"花园饭店","lon":"121.45981","lat":"31.21981","category":"213","category_name":"五星级宾馆","address":"卢湾区茂名南路58号(近淮海中路)"},{"poiid":"B2094654D564AAF9439B","title":"兰心大戏院","lon":"121.46051","lat":"31.2209","category":"180","category_name":"剧场","address":"卢湾区茂名南路57(近长乐路口)"},{"poiid":"B2094655D26AAAFC459F","title":"融合马来西亚餐厅","lon":"121.4594","lat":"31.21736","category":"110","category_name":"其他亚洲菜","address":"卢湾区淮海中路918号百盛购物中心8楼(近陕西南路)"},{"poiid":"B2094753D76FAAFA449C","title":"上海滩国泰旗舰店","lon":"121.466011","lat":"31.216125","category":"249","category_name":"购物服务","address":"淮海中路868号"},{"poiid":"B209475CD564A7F84292","title":"上海滩新天地店","lon":"121.47463","lat":"31.22164","category":"119","category_name":"商场","address":"\"太仓路181弄新天地北里15号\r\n\""},{"poiid":"B209475CD564A7F8439E","title":"上海滩中信泰富店","lon":"121.45602","lat":"31.22851","category":"119","category_name":"商场","address":"\"南京西路1168号中信泰富广场，店铺号221.\r\n\""},{"poiid":"B2094757D06FA2F9469A","title":"兰心餐厅","lon":"121.45978","lat":"31.22135","category":"76","category_name":"上海菜","address":"卢湾区进贤路130号(近茂名南路)"},{"poiid":"B2094757D465A4F9439F","title":"PIER39号码头","lon":"121.458225054","lat":"31.220526793","category":"247","category_name":"餐饮美食","address":"进贤路172号近陕西南路"},{"poiid":"B2094757DB68AAFF4792","title":"丽江驿 MONSOON","lon":"121.460094","lat":"31.221228","category":"99","category_name":"泰国／越南菜品餐厅","address":"卢湾区茂名南路56号56食尚谷内(近长乐路)"},{"poiid":"B2094757D464A7FE459F","title":"唐宫1号 锦江迪生店","lon":"121.459768054","lat":"31.220746793","category":"247","category_name":"餐饮美食","address":"卢湾区长乐路400号锦江迪生3-4楼(近茂名南路)"},{"poiid":"B2094757D06FA6FE489E","title":"王品台塑牛排(长乐店)","lon":"121.45989","lat":"31.22049","category":"94","category_name":"西餐厅","address":"卢湾区长乐路400号锦江迪生商厦2楼(近茂名南路)"},{"poiid":"B2094654DB64A5FD409D","title":"苏浙汇","lon":"121.46125","lat":"31.21837","category":"76","category_name":"上海菜","address":"卢湾区茂名南路127号(近淮海路)"},{"poiid":"B2094757D06FA1F9419F","title":"滴水洞(茂名南路店)","lon":"121.4601","lat":"31.22061","category":"77","category_name":"湖南菜","address":"卢湾区茂名南路56号2楼(近长乐路)"},{"poiid":"B2094757D06FA2F5499C","title":"玲珑餐厅","lon":"121.45882","lat":"31.21798","category":"76","category_name":"上海菜","address":"卢湾区陕西南路57号(新乐路口)"},{"poiid":"B2094757D06FA7F44099","title":"锦江小礼堂","lon":"121.46134988","lat":"31.220052989","category":"217","category_name":"旅馆招待所","address":"卢湾区茂名南路59号"},{"poiid":"B2094757D069A0F9479A","title":"天都里印度餐厅","lon":"121.461","lat":"31.22016","category":"102","category_name":"印度风味","address":"卢湾区茂名南路59号锦江饭店南楼大堂(近长乐路)"},{"poiid":"B2094757D16EA3FC459B","title":"Bellissimo","lon":"121.458933538","lat":"31.2205624941","category":"94","category_name":"西餐厅","address":"卢湾区长乐路434弄7号1-3楼"},{"poiid":"B2094757D06FA0FC439E","title":"锦江迪生商厦","lon":"121.45968873","lat":"31.221020103","category":"119","category_name":"商场","address":"卢湾区长乐路400号(近茂名南路)"},{"poiid":"B2094655D26AABFB439F","title":"天鹅申阁西菜社","lon":"121.45926","lat":"31.22131","category":"247","category_name":"餐饮美食","address":"进贤路169号"},{"poiid":"B2094757D06FABF8459F","title":"Maison Pourcel","lon":"121.458155","lat":"31.220484","category":"94","category_name":"西餐厅","address":"卢湾区陕西南路35号6,8楼(近长乐路)"},{"poiid":"B2094757D06FA0F9419F","title":"清迈天堂","lon":"121.46022","lat":"31.2212","category":"99","category_name":"泰国／越南菜品餐厅","address":"卢湾区进贤路145号(近茂名南路)"},{"poiid":"B2094750D66CABFE4592","title":"兰心大剧院","lon":"121.45774","lat":"31.219259","category":"248","category_name":"生活娱乐","address":"茂名南路57号"},{"poiid":"B2094750D068A2FA449C","title":"Tikka","lon":"121.46011","lat":"31.22115","category":"102","category_name":"印度风味","address":"卢湾区茂名南路56号(近长乐路)"},{"poiid":"B2094757D06FABFE439B","title":"粋寿司","lon":"121.46058308","lat":"31.220771748","category":"95","category_name":"日本料理","address":"卢湾区长乐路175-2号(近茂名南路)"},{"poiid":"B2094654DB64A5F54099","title":"松阪烤肉","lon":"121.46118","lat":"31.21912","category":"87","category_name":"特色／地方风味餐厅","address":"卢湾区茂名南路59号锦江宾馆美食街(近长乐路)"},{"poiid":"B2094757D068A7F8459F","title":"净心轩","lon":"121.46047","lat":"31.22114","category":"89","category_name":"中式素餐馆","address":"卢湾区茂名南路56号56食尚谷D区1号(近长乐路)"},{"poiid":"B2094757DB6FA4F9469A","title":"白木屋","lon":"121.4612600956912","lat":"31.21832756200628","category":"500","category_name":"未知分类","address":"东湖路30号2楼近淮海中路"},{"poiid":"B2094757D068A0FF4893","title":"锦庐 The Chinoise Story","lon":"121.46073413098","lat":"31.220246592787","category":"247","category_name":"餐饮美食","address":"卢湾区茂名南路59号锦江饭店锦北楼(近长乐路)"},{"poiid":"B2094654DB64A6FC469F","title":"老夜上海","lon":"121.46046","lat":"31.22045","category":"76","category_name":"上海菜","address":"卢湾区茂名南路59号老锦江饭店北楼11-12楼(近长乐路)"},{"poiid":"B2094757DA69A3F4419B","title":"福得德","lon":"121.46017423652","lat":"31.221155993403","category":"76","category_name":"上海菜","address":"卢湾区茂名南路56号B区1楼(近进贤路)"},{"poiid":"B209475DDA68A2FA429E","title":"万岛日本料理铁板烧（锦江迪生店）","lon":"121.460075","lat":"31.220945","category":"247","category_name":"餐饮美食","address":"上海市 长乐路400号(近茂名南路)"},{"poiid":"B2094757D068A0FC409C","title":"梅园村锦梅食府","lon":"121.460920662","lat":"31.2202856175","category":"74","category_name":"江苏菜","address":"卢湾区茂名南路59号老锦江食街内(近长乐路)"},{"poiid":"B2094750DB6BA0F8489D","title":"徐小猫的店","lon":"121.458412","lat":"31.218978","category":"260","category_name":"其他","address":"卢湾区陕西南路39弄81号1楼(近新乐路)"},{"poiid":"B2094655D26AAAFE439D","title":"渝乡人家淮海路百盛店","lon":"121.4594","lat":"31.21736","category":"71","category_name":"四川菜","address":"卢湾区淮海中路918号百盛购物中心8楼(近陕西南路)"},{"poiid":"B2094757D06FA4F44099","title":"台湾小吃鲁肉饭(长乐店)","lon":"121.45939","lat":"31.22003","category":"68","category_name":"快餐厅","address":"卢湾区长乐路203号(近茂名南路)"},{"poiid":"B2094757D168A6F9449A","title":"屋企汤馆","lon":"121.460766738","lat":"31.2209171016","category":"72","category_name":"广东菜","address":"卢湾区长乐路175号(近兰心大戏院)"},{"poiid":"B2094757D16EA0FB4498","title":"花园饭店33楼欧陆法式餐厅","lon":"121.460312738","lat":"31.2179050375","category":"500","category_name":"未知分类","address":"上海市静安区茂名南路58号"},{"poiid":"B2094654DB64A7F9479B","title":"山里","lon":"121.459704054","lat":"31.220028793","category":"95","category_name":"日本料理","address":"卢湾区茂名南路58号花园饭店2楼(近淮海中路)"},{"poiid":"B2094752D76CA3FD4393","title":"tap coffee","lon":"121.461437","lat":"31.21855","category":"247","category_name":"餐饮美食","address":"南昌路150号"},{"poiid":"B2094757D06FABFC4092","title":"百盛购物中心超市","lon":"121.459173354","lat":"31.2173432528","category":"118","category_name":"超级市场","address":"卢湾区淮海中路918号百盛购物中心B1楼(近陕西南路)"},{"poiid":"B2094654DB65A2FD409A","title":"玫瑰咖啡厅","lon":"121.459704054","lat":"31.220028793","category":"268","category_name":"自助","address":"卢湾区茂名南路58号花园饭店1楼(近淮海中路)"},{"poiid":"B2094655D26EA5F44193","title":"阿毛饭店(富民店)","lon":"121.45826","lat":"31.21851","category":"76","category_name":"上海菜","address":"卢湾区陕西南路53号(近长乐路)"},{"poiid":"B2094757D068A6FB429E","title":"康骏会馆(长乐店)","lon":"121.459905","lat":"31.220958","category":"500","category_name":"未知分类","address":"卢湾区长乐路400号3楼(长乐路茂名南路)"},{"poiid":"B2094751DA64A3FC4392","title":"DAISO大创生活馆","lon":"121.459449","lat":"31.219421","category":"249","category_name":"购物服务","address":"上海市淮海中路900号B1"},{"poiid":"B2094757D168A0F94993","title":"一龙居酒屋","lon":"121.458361038","lat":"31.2203407894","category":"95","category_name":"日本料理","address":"卢湾区长乐路207号"},{"poiid":"B2094757D06AA7FD429C","title":"FC日式造型(锦江迪生店)","lon":"121.459907","lat":"31.220695","category":"260","category_name":"其他","address":"上海卢湾区长乐路400号锦江迪生3楼(近茂名南路)"},{"poiid":"B2094757D66DA1F8479F","title":"锦梅食府","lon":"121.461082738","lat":"31.2191440639","category":"247","category_name":"餐饮美食","address":"上海市静安区陕西南路"},{"poiid":"B2094654DB64A5F54093","title":"山茶花铁板烧","lon":"121.459704054","lat":"31.220028793","category":"269","category_name":"烧烤","address":"卢湾区茂名南路58号花园饭店33楼(近淮海中路)"},{"poiid":"B2094757D06FAAFA4098","title":"乐太郎","lon":"121.45997","lat":"31.22049","category":"95","category_name":"日本料理","address":"卢湾区长乐路398号1楼B1(近茂名南路)"},{"poiid":"B2094655D26EA2F84192","title":"福烤锦花","lon":"121.45827","lat":"31.22018","category":"269","category_name":"烧烤","address":"卢湾区长乐路223号(近陕西南路)"},{"poiid":"B2094654D564AAFD4699","title":"花园饭店","lon":"121.45981","lat":"31.21981","category":"213","category_name":"五星级宾馆","address":"卢湾区茂名南路58号(近淮海中路)"},{"poiid":"B2094654D564AAF9439B","title":"兰心大戏院","lon":"121.46051","lat":"31.2209","category":"180","category_name":"剧场","address":"卢湾区茂名南路57(近长乐路口)"},{"poiid":"B2094655D26AAAFC459F","title":"融合马来西亚餐厅","lon":"121.4594","lat":"31.21736","category":"110","category_name":"其他亚洲菜","address":"卢湾区淮海中路918号百盛购物中心8楼(近陕西南路)"},{"poiid":"B2094753D76FAAFA449C","title":"上海滩国泰旗舰店","lon":"121.466011","lat":"31.216125","category":"249","category_name":"购物服务","address":"淮海中路868号"},{"poiid":"B209475CD564A7F84292","title":"上海滩新天地店","lon":"121.47463","lat":"31.22164","category":"119","category_name":"商场","address":"\"太仓路181弄新天地北里15号\r\n\""},{"poiid":"B209475CD564A7F8439E","title":"上海滩中信泰富店","lon":"121.45602","lat":"31.22851","category":"119","category_name":"商场","address":"\"南京西路1168号中信泰富广场，店铺号221.\r\n\""},{"poiid":"B2094757D06FA2F9469A","title":"兰心餐厅","lon":"121.45978","lat":"31.22135","category":"76","category_name":"上海菜","address":"卢湾区进贤路130号(近茂名南路)"},{"poiid":"B2094757D465A4F9439F","title":"PIER39号码头","lon":"121.458225054","lat":"31.220526793","category":"247","category_name":"餐饮美食","address":"进贤路172号近陕西南路"},{"poiid":"B2094757DB68AAFF4792","title":"丽江驿 MONSOON","lon":"121.460094","lat":"31.221228","category":"99","category_name":"泰国／越南菜品餐厅","address":"卢湾区茂名南路56号56食尚谷内(近长乐路)"},{"poiid":"B2094757D464A7FE459F","title":"唐宫1号 锦江迪生店","lon":"121.459768054","lat":"31.220746793","category":"247","category_name":"餐饮美食","address":"卢湾区长乐路400号锦江迪生3-4楼(近茂名南路)"},{"poiid":"B2094757D06FA6FE489E","title":"王品台塑牛排(长乐店)","lon":"121.45989","lat":"31.22049","category":"94","category_name":"西餐厅","address":"卢湾区长乐路400号锦江迪生商厦2楼(近茂名南路)"},{"poiid":"B2094654DB64A5FD409D","title":"苏浙汇","lon":"121.46125","lat":"31.21837","category":"76","category_name":"上海菜","address":"卢湾区茂名南路127号(近淮海路)"},{"poiid":"B2094757D06FA1F9419F","title":"滴水洞(茂名南路店)","lon":"121.4601","lat":"31.22061","category":"77","category_name":"湖南菜","address":"卢湾区茂名南路56号2楼(近长乐路)"},{"poiid":"B2094757D06FA2F5499C","title":"玲珑餐厅","lon":"121.45882","lat":"31.21798","category":"76","category_name":"上海菜","address":"卢湾区陕西南路57号(新乐路口)"},{"poiid":"B2094757D06FA7F44099","title":"锦江小礼堂","lon":"121.46134988","lat":"31.220052989","category":"217","category_name":"旅馆招待所","address":"卢湾区茂名南路59号"},{"poiid":"B2094757D069A0F9479A","title":"天都里印度餐厅","lon":"121.461","lat":"31.22016","category":"102","category_name":"印度风味","address":"卢湾区茂名南路59号锦江饭店南楼大堂(近长乐路)"},{"poiid":"B2094757D16EA3FC459B","title":"Bellissimo","lon":"121.458933538","lat":"31.2205624941","category":"94","category_name":"西餐厅","address":"卢湾区长乐路434弄7号1-3楼"},{"poiid":"B2094757D06FA0FC439E","title":"锦江迪生商厦","lon":"121.45968873","lat":"31.221020103","category":"119","category_name":"商场","address":"卢湾区长乐路400号(近茂名南路)"},{"poiid":"B2094655D26AABFB439F","title":"天鹅申阁西菜社","lon":"121.45926","lat":"31.22131","category":"247","category_name":"餐饮美食","address":"进贤路169号"},{"poiid":"B2094757D06FABF8459F","title":"Maison Pourcel","lon":"121.458155","lat":"31.220484","category":"94","category_name":"西餐厅","address":"卢湾区陕西南路35号6,8楼(近长乐路)"},{"poiid":"B2094757D06FA0F9419F","title":"清迈天堂","lon":"121.46022","lat":"31.2212","category":"99","category_name":"泰国／越南菜品餐厅","address":"卢湾区进贤路145号(近茂名南路)"},{"poiid":"B2094750D66CABFE4592","title":"兰心大剧院","lon":"121.45774","lat":"31.219259","category":"248","category_name":"生活娱乐","address":"茂名南路57号"},{"poiid":"B2094750D068A2FA449C","title":"Tikka","lon":"121.46011","lat":"31.22115","category":"102","category_name":"印度风味","address":"卢湾区茂名南路56号(近长乐路)"},{"poiid":"B2094757D06FABFE439B","title":"粋寿司","lon":"121.46058308","lat":"31.220771748","category":"95","category_name":"日本料理","address":"卢湾区长乐路175-2号(近茂名南路)"},{"poiid":"B2094654DB64A5F54099","title":"松阪烤肉","lon":"121.46118","lat":"31.21912","category":"87","category_name":"特色／地方风味餐厅","address":"卢湾区茂名南路59号锦江宾馆美食街(近长乐路)"},{"poiid":"B2094757D068A7F8459F","title":"净心轩","lon":"121.46047","lat":"31.22114","category":"89","category_name":"中式素餐馆","address":"卢湾区茂名南路56号56食尚谷D区1号(近长乐路)"},{"poiid":"B2094757DB6FA4F9469A","title":"白木屋","lon":"121.4612600956912","lat":"31.21832756200628","category":"500","category_name":"未知分类","address":"东湖路30号2楼近淮海中路"},{"poiid":"B2094757D068A0FF4893","title":"锦庐 The Chinoise Story","lon":"121.46073413098","lat":"31.220246592787","category":"247","category_name":"餐饮美食","address":"卢湾区茂名南路59号锦江饭店锦北楼(近长乐路)"},{"poiid":"B2094654DB64A6FC469F","title":"老夜上海","lon":"121.46046","lat":"31.22045","category":"76","category_name":"上海菜","address":"卢湾区茂名南路59号老锦江饭店北楼11-12楼(近长乐路)"},{"poiid":"B2094757DA69A3F4419B","title":"福得德","lon":"121.46017423652","lat":"31.221155993403","category":"76","category_name":"上海菜","address":"卢湾区茂名南路56号B区1楼(近进贤路)"},{"poiid":"B209475DDA68A2FA429E","title":"万岛日本料理铁板烧（锦江迪生店）","lon":"121.460075","lat":"31.220945","category":"247","category_name":"餐饮美食","address":"上海市 长乐路400号(近茂名南路)"},{"poiid":"B2094757D068A0FC409C","title":"梅园村锦梅食府","lon":"121.460920662","lat":"31.2202856175","category":"74","category_name":"江苏菜","address":"卢湾区茂名南路59号老锦江食街内(近长乐路)"},{"poiid":"B2094750DB6BA0F8489D","title":"徐小猫的店","lon":"121.458412","lat":"31.218978","category":"260","category_name":"其他","address":"卢湾区陕西南路39弄81号1楼(近新乐路)"},{"poiid":"B2094655D26AAAFE439D","title":"渝乡人家淮海路百盛店","lon":"121.4594","lat":"31.21736","category":"71","category_name":"四川菜","address":"卢湾区淮海中路918号百盛购物中心8楼(近陕西南路)"},{"poiid":"B2094757D06FA4F44099","title":"台湾小吃鲁肉饭(长乐店)","lon":"121.45939","lat":"31.22003","category":"68","category_name":"快餐厅","address":"卢湾区长乐路203号(近茂名南路)"},{"poiid":"B2094757D168A6F9449A","title":"屋企汤馆","lon":"121.460766738","lat":"31.2209171016","category":"72","category_name":"广东菜","address":"卢湾区长乐路175号(近兰心大戏院)"},{"poiid":"B2094757D16EA0FB4498","title":"花园饭店33楼欧陆法式餐厅","lon":"121.460312738","lat":"31.2179050375","category":"500","category_name":"未知分类","address":"上海市静安区茂名南路58号"},{"poiid":"B2094654DB64A7F9479B","title":"山里","lon":"121.459704054","lat":"31.220028793","category":"95","category_name":"日本料理","address":"卢湾区茂名南路58号花园饭店2楼(近淮海中路)"},{"poiid":"B2094752D76CA3FD4393","title":"tap coffee","lon":"121.461437","lat":"31.21855","category":"247","category_name":"餐饮美食","address":"南昌路150号"},{"poiid":"B2094757D06FABFC4092","title":"百盛购物中心超市","lon":"121.459173354","lat":"31.2173432528","category":"118","category_name":"超级市场","address":"卢湾区淮海中路918号百盛购物中心B1楼(近陕西南路)"},{"poiid":"B2094654DB65A2FD409A","title":"玫瑰咖啡厅","lon":"121.459704054","lat":"31.220028793","category":"268","category_name":"自助","address":"卢湾区茂名南路58号花园饭店1楼(近淮海中路)"},{"poiid":"B2094655D26EA5F44193","title":"阿毛饭店(富民店)","lon":"121.45826","lat":"31.21851","category":"76","category_name":"上海菜","address":"卢湾区陕西南路53号(近长乐路)"},{"poiid":"B2094757D068A6FB429E","title":"康骏会馆(长乐店)","lon":"121.459905","lat":"31.220958","category":"500","category_name":"未知分类","address":"卢湾区长乐路400号3楼(长乐路茂名南路)"},{"poiid":"B2094751DA64A3FC4392","title":"DAISO大创生活馆","lon":"121.459449","lat":"31.219421","category":"249","category_name":"购物服务","address":"上海市淮海中路900号B1"},{"poiid":"B2094757D168A0F94993","title":"一龙居酒屋","lon":"121.458361038","lat":"31.2203407894","category":"95","category_name":"日本料理","address":"卢湾区长乐路207号"},{"poiid":"B2094757D06AA7FD429C","title":"FC日式造型(锦江迪生店)","lon":"121.459907","lat":"31.220695","category":"260","category_name":"其他","address":"上海卢湾区长乐路400号锦江迪生3楼(近茂名南路)"},{"poiid":"B2094757D66DA1F8479F","title":"锦梅食府","lon":"121.461082738","lat":"31.2191440639","category":"247","category_name":"餐饮美食","address":"上海市静安区陕西南路"},{"poiid":"B2094654DB64A5F54093","title":"山茶花铁板烧","lon":"121.459704054","lat":"31.220028793","category":"269","category_name":"烧烤","address":"卢湾区茂名南路58号花园饭店33楼(近淮海中路)"},{"poiid":"B2094757D06FAAFA4098","title":"乐太郎","lon":"121.45997","lat":"31.22049","category":"95","category_name":"日本料理","address":"卢湾区长乐路398号1楼B1(近茂名南路)"},{"poiid":"B2094655D26EA2F84192","title":"福烤锦花","lon":"121.45827","lat":"31.22018","category":"269","category_name":"烧烤","address":"卢湾区长乐路223号(近陕西南路)"}]