[{"poiid":"B2094654DA6FAAF5479E","title":"上海长征医院","lon":"121.46721","lat":"31.23279","category":"162","category_name":"医院","address":"黄浦区凤阳路415号(近成都北路)"},{"poiid":"B2094757D06EAAF4459F","title":"k1 3 cafe bar (木鸭梨餐吧)","lon":"121.46831373","lat":"31.230925314","category":"94","category_name":"西餐厅","address":"黄浦区南京西路456号科勒设计中心4楼(近仙乐斯广场)"},{"poiid":"B2094757D06FA2F44998","title":"Lingo Bistrot","lon":"121.46923","lat":"31.23113","category":"94","category_name":"西餐厅","address":"静安区南京西路388号仙乐斯广场1楼109室(近黄陂北路)"},{"poiid":"B2094753D76FAAFA449C","title":"上海滩国泰旗舰店","lon":"121.466011","lat":"31.216125","category":"249","category_name":"购物服务","address":"淮海中路868号"},{"poiid":"B209475CD564A7F84292","title":"上海滩新天地店","lon":"121.47463","lat":"31.22164","category":"119","category_name":"商场","address":"\"太仓路181弄新天地北里15号\r\n\""},{"poiid":"B209475CD564A7F8439E","title":"上海滩中信泰富店","lon":"121.45602","lat":"31.22851","category":"119","category_name":"商场","address":"\"南京西路1168号中信泰富广场，店铺号221.\r\n\""},{"poiid":"B2094757D16FA6FF459C","title":"雅科","lon":"121.47077873","lat":"31.231950336","category":"76","category_name":"上海菜","address":"黄浦区南京西路248号大光明影院3楼屋顶花园(近黄河路)"},{"poiid":"B2094757DA6EABFF499A","title":"爆爆椒香辣虾干锅三绝(人民广场店)","lon":"121.470959999998","lat":"31.2325700000003","category":"71","category_name":"四川菜","address":"黄浦区南京西路258号世茂商都5楼(近黄河路)"},{"poiid":"B2094654DB64A5FD4099","title":"苏浙汇(黄浦店)","lon":"121.47048","lat":"31.23164","category":"76","category_name":"上海菜","address":"黄浦区南京西路288号创兴金融中心3楼(近新昌路)"},{"poiid":"B2094757D06EAAFD4292","title":"老克勒上海菜 南京西路店","lon":"121.47031","lat":"31.23222","category":"76","category_name":"上海菜","address":"黄浦区南京西路288号创兴金融中心2楼(近新昌路)"},{"poiid":"B2094757D06FA3F5439B","title":"香港仔码头茶餐厅(凤阳店)","lon":"121.47068","lat":"31.23366","category":"72","category_name":"广东菜","address":"黄浦区凤阳路280号(近黄河路)"},{"poiid":"B2094654DA68A3FD479C","title":"天安中心","lon":"121.46978","lat":"31.23174","category":"46","category_name":"楼宇","address":"上海南京西路338号"},{"poiid":"B2094654DA68A3FD499F","title":"COSTA COFFEE(仙乐斯店)","lon":"121.46944","lat":"31.23127","category":"65","category_name":"咖啡厅","address":"黄浦区南京西路388号仙乐斯广场1楼(近黄陂北路)"},{"poiid":"B2094757D06FA7F8409B","title":"老丰阁(仙乐斯店)","lon":"121.46905","lat":"31.23075","category":"76","category_name":"上海菜","address":"上海静安区南京西路388号仙乐斯广场7楼(近黄陂北路)  "},{"poiid":"B2094757D16EA2FB419D","title":"长征医院门诊部","lon":"121.466702738","lat":"31.2317713329","category":"162","category_name":"医院","address":"上海成都北路480号"},{"poiid":"B209475DD06CA3FC419A","title":"南京大排档","lon":"121.470893","lat":"31.232265","category":"247","category_name":"餐饮美食","address":"上海市 南京西路258号世茂商都3楼(近新昌路)"},{"poiid":"B2094750DB6CA1F8439B","title":"人民公园","lon":"121.466559","lat":"31.233402","category":"196","category_name":"公园","address":"黄浦区南京西路75号人民公园内(近黄陂北路)"},{"poiid":"B2094654DB69A5FF409B","title":"麦当劳(仙乐斯店)","lon":"121.4691","lat":"31.23121","category":"68","category_name":"快餐厅","address":"静安区南京西路388号仙乐斯广场内(近黄陂北路)"},{"poiid":"B2094654DA68A3F5419A","title":"明天广场","lon":"121.46916","lat":"31.23071","category":"46","category_name":"楼宇","address":"碧云东壹栋位于浦东金藏路51号(浙桥路口)"},{"poiid":"B2094757D06FA3FE469D","title":"旺旺大厦","lon":"121.469","lat":"31.234","category":"46","category_name":"楼宇","address":"丰台学城海鹰路1号,3号"},{"poiid":"B2094757DB68AAFE469C","title":"俏江南 仙乐斯广场店","lon":"121.469229054","lat":"31.231252793","category":"71","category_name":"四川菜","address":"静安区南京西路388号仙乐斯广场2楼(近黄陂北路)"},{"poiid":"B2094757D06FA1F4499D","title":"创兴金融中心","lon":"121.4704895","lat":"31.231645584","category":"46","category_name":"楼宇","address":"上海南京西路288号"},{"poiid":"B2094757D06FA6FF4598","title":"晶采世纪大厦","lon":"121.468","lat":"31.2329","category":"46","category_name":"楼宇","address":"珠江新城华穗路与华利路交汇处"},{"poiid":"B209475DD06CA3FC469F","title":"南京大牌档","lon":"121.470848","lat":"31.232343","category":"500","category_name":"未知分类","address":"上海市 南京西路258号世茂商都3楼(近新昌路)"},{"poiid":"B209475DD56BAAFC4893","title":"南京大排档","lon":"121.470718","lat":"31.231937","category":"247","category_name":"餐饮美食","address":"上海市 南京西路258号世贸商都3楼"},{"poiid":"B2094757DB68A5FF449C","title":"上海 来福士","lon":"121.4678278181757","lat":"31.23394058782101","category":"247","category_name":"餐饮美食","address":"人民广场"},{"poiid":"B2094753DB6DA7FF499F","title":"上海明天广场JW万豪酒店","lon":"121.468935","lat":"31.230925","category":"213","category_name":"五星级宾馆","address":"上海黄浦区南京西路399号"},{"poiid":"B2094757DB65A2FD4093","title":"红料理（仙乐斯广场店）","lon":"121.469","lat":"31.2314","category":"257","category_name":"中餐厅","address":"上海黄浦区南京西路388号 仙乐斯广场地下一层"},{"poiid":"B2094757D06AA5F54592","title":"世贸商都","lon":"121.470635","lat":"31.232439","category":"119","category_name":"商场","address":"上海南京西路258号"},{"poiid":"B2094757DB6DA3F4449D","title":"三人行","lon":"121.469367","lat":"31.233615","category":"247","category_name":"餐饮美食","address":"世贸百联店"},{"poiid":"B2094757D56DA0F8459A","title":"仙乐斯营业厅","lon":"121.46903","lat":"31.231186","category":"151","category_name":"电讯营业厅","address":"黄浦区南京西路388号104单元"},{"poiid":"B2094751D56FA4F4419B","title":"木有鸭梨餐吧","lon":"121.4664323","lat":"31.2333259","category":"247","category_name":"餐饮美食","address":"南京西路456号4楼"},{"poiid":"B2094757D16FAAFA429B","title":"长征医院住院部","lon":"121.466941738","lat":"31.2327763544","category":"162","category_name":"医院","address":"上海凤阳路415号"},{"poiid":"B2094757D069A4FD469D","title":"icare美发沙龙","lon":"121.46888073","lat":"31.230895314","category":"148","category_name":"美容美发店","address":"黄浦区南京西路388号仙乐斯广场3楼306室(近上海大剧院)"},{"poiid":"B2094757D065A7F44593","title":"日月光中心 OLIVE DES OLIVE","lon":"121.46757623","lat":"31.232956358","category":"500","category_name":"未知分类","address":"上海打浦桥"},{"poiid":"B2094752DA65A2FD439E","title":"上海明天广场JW万豪酒店","lon":"121.46729","lat":"31.233113","category":"500","category_name":"未知分类","address":"上海市 南京西路399号"},{"poiid":"B2094655D26DA3FF469E","title":"上海保时捷中心","lon":"121.47048","lat":"31.2321","category":"158","category_name":"汽车销售","address":"黄浦区南京西路288号创新金融中心1楼(近新昌路)"},{"poiid":"B2094654DA68A3FC469C","title":"智富广场","lon":"121.46977","lat":"31.23286","category":"46","category_name":"楼宇","address":"上海新昌路80号"},{"poiid":"B2094757D064A5F9499C","title":"富淳饭店天安店","lon":"121.46993873","lat":"31.230986316","category":"72","category_name":"广东菜","address":"黄浦区南京西路338号天安中心大厦B1楼"},{"poiid":"B2094654DA6FAAF5489C","title":"中华保险华盛大厦","lon":"121.46685","lat":"31.23415","category":"46","category_name":"楼宇","address":"成都北路600"},{"poiid":"B2094654DA68A3FC4893","title":"盛鑫面馆","lon":"121.470061054","lat":"31.233492793","category":"68","category_name":"快餐厅","address":"黄浦区凤阳路311号(近黄河路)"},{"poiid":"B2094751D465A3FD4699","title":"星巴克明天广场店","lon":"121.469766","lat":"31.231376","category":"247","category_name":"餐饮美食","address":"南京西路399号明天广场一楼"},{"poiid":"B2094757D06AA7F8439F","title":"上海科勒设计中心","lon":"121.46708813","lat":"31.231715631","category":"260","category_name":"其他","address":"静安区南京西路456号(近仙乐斯广场)"},{"poiid":"B209475CD064ABF8459C","title":"加州扒房  JW's California Grill","lon":"121.46862030029","lat":"31.230876097571","category":"104","category_name":"牛扒店","address":"南京西路399号JW万豪酒店40楼近黄陂北路"},{"poiid":"B2094757D064A2FF449E","title":"斗牛士台湾牛肉面(仙乐斯店)","lon":"121.468935","lat":"31.231409","category":"68","category_name":"快餐厅","address":"静安区南京西路388号仙乐斯广场B1楼02号商铺(近黄陂北路)"},{"poiid":"B209475DD76EA3FA429B","title":"南京大排档","lon":"121.470855","lat":"31.232315","category":"247","category_name":"餐饮美食","address":"上海市 南京西路258号世贸商都3楼"},{"poiid":"B2094757DB6DA3FD4792","title":"迪美·芋贵人","lon":"121.469672","lat":"31.232782","category":"247","category_name":"餐饮美食","address":"人民广场·地下迪美"},{"poiid":"B2094757D16CA3FD409B","title":"上海木偶剧团仙乐斯演艺厅","lon":"121.4691","lat":"31.2309","category":"179","category_name":"音乐厅","address":"静安区南京西路388号仙乐斯广场5楼(近黄陂北路)"},{"poiid":"B209475CD065A2F44292","title":"木鸭梨餐吧 南京西路店 cafe bar","lon":"121.46831","lat":"31.23109","category":"65","category_name":"咖啡厅","address":"南京西路456号科勒设计中心4楼(近仙乐斯广场)"},{"poiid":"B2094757D069ABFD409C","title":"人民广场上海歌城","lon":"121.470956","lat":"31.232594","category":"500","category_name":"未知分类","address":"上海人民广场"},{"poiid":"B2094654DA6FAAF5479E","title":"上海长征医院","lon":"121.46721","lat":"31.23279","category":"162","category_name":"医院","address":"黄浦区凤阳路415号(近成都北路)"},{"poiid":"B2094757D06EAAF4459F","title":"k1 3 cafe bar (木鸭梨餐吧)","lon":"121.46831373","lat":"31.230925314","category":"94","category_name":"西餐厅","address":"黄浦区南京西路456号科勒设计中心4楼(近仙乐斯广场)"},{"poiid":"B2094757D06FA2F44998","title":"Lingo Bistrot","lon":"121.46923","lat":"31.23113","category":"94","category_name":"西餐厅","address":"静安区南京西路388号仙乐斯广场1楼109室(近黄陂北路)"},{"poiid":"B2094753D76FAAFA449C","title":"上海滩国泰旗舰店","lon":"121.466011","lat":"31.216125","category":"249","category_name":"购物服务","address":"淮海中路868号"},{"poiid":"B209475CD564A7F84292","title":"上海滩新天地店","lon":"121.47463","lat":"31.22164","category":"119","category_name":"商场","address":"\"太仓路181弄新天地北里15号\r\n\""},{"poiid":"B209475CD564A7F8439E","title":"上海滩中信泰富店","lon":"121.45602","lat":"31.22851","category":"119","category_name":"商场","address":"\"南京西路1168号中信泰富广场，店铺号221.\r\n\""},{"poiid":"B2094757D16FA6FF459C","title":"雅科","lon":"121.47077873","lat":"31.231950336","category":"76","category_name":"上海菜","address":"黄浦区南京西路248号大光明影院3楼屋顶花园(近黄河路)"},{"poiid":"B2094757DA6EABFF499A","title":"爆爆椒香辣虾干锅三绝(人民广场店)","lon":"121.470959999998","lat":"31.2325700000003","category":"71","category_name":"四川菜","address":"黄浦区南京西路258号世茂商都5楼(近黄河路)"},{"poiid":"B2094654DB64A5FD4099","title":"苏浙汇(黄浦店)","lon":"121.47048","lat":"31.23164","category":"76","category_name":"上海菜","address":"黄浦区南京西路288号创兴金融中心3楼(近新昌路)"},{"poiid":"B2094757D06EAAFD4292","title":"老克勒上海菜 南京西路店","lon":"121.47031","lat":"31.23222","category":"76","category_name":"上海菜","address":"黄浦区南京西路288号创兴金融中心2楼(近新昌路)"},{"poiid":"B2094757D06FA3F5439B","title":"香港仔码头茶餐厅(凤阳店)","lon":"121.47068","lat":"31.23366","category":"72","category_name":"广东菜","address":"黄浦区凤阳路280号(近黄河路)"},{"poiid":"B2094654DA68A3FD479C","title":"天安中心","lon":"121.46978","lat":"31.23174","category":"46","category_name":"楼宇","address":"上海南京西路338号"},{"poiid":"B2094654DA68A3FD499F","title":"COSTA COFFEE(仙乐斯店)","lon":"121.46944","lat":"31.23127","category":"65","category_name":"咖啡厅","address":"黄浦区南京西路388号仙乐斯广场1楼(近黄陂北路)"},{"poiid":"B2094757D06FA7F8409B","title":"老丰阁(仙乐斯店)","lon":"121.46905","lat":"31.23075","category":"76","category_name":"上海菜","address":"上海静安区南京西路388号仙乐斯广场7楼(近黄陂北路)  "},{"poiid":"B2094757D16EA2FB419D","title":"长征医院门诊部","lon":"121.466702738","lat":"31.2317713329","category":"162","category_name":"医院","address":"上海成都北路480号"},{"poiid":"B209475DD06CA3FC419A","title":"南京大排档","lon":"121.470893","lat":"31.232265","category":"247","category_name":"餐饮美食","address":"上海市 南京西路258号世茂商都3楼(近新昌路)"},{"poiid":"B2094750DB6CA1F8439B","title":"人民公园","lon":"121.466559","lat":"31.233402","category":"196","category_name":"公园","address":"黄浦区南京西路75号人民公园内(近黄陂北路)"},{"poiid":"B2094654DB69A5FF409B","title":"麦当劳(仙乐斯店)","lon":"121.4691","lat":"31.23121","category":"68","category_name":"快餐厅","address":"静安区南京西路388号仙乐斯广场内(近黄陂北路)"},{"poiid":"B2094654DA68A3F5419A","title":"明天广场","lon":"121.46916","lat":"31.23071","category":"46","category_name":"楼宇","address":"碧云东壹栋位于浦东金藏路51号(浙桥路口)"},{"poiid":"B2094757D06FA3FE469D","title":"旺旺大厦","lon":"121.469","lat":"31.234","category":"46","category_name":"楼宇","address":"丰台学城海鹰路1号,3号"},{"poiid":"B2094757DB68AAFE469C","title":"俏江南 仙乐斯广场店","lon":"121.469229054","lat":"31.231252793","category":"71","category_name":"四川菜","address":"静安区南京西路388号仙乐斯广场2楼(近黄陂北路)"},{"poiid":"B2094757D06FA1F4499D","title":"创兴金融中心","lon":"121.4704895","lat":"31.231645584","category":"46","category_name":"楼宇","address":"上海南京西路288号"},{"poiid":"B2094757D06FA6FF4598","title":"晶采世纪大厦","lon":"121.468","lat":"31.2329","category":"46","category_name":"楼宇","address":"珠江新城华穗路与华利路交汇处"},{"poiid":"B209475DD06CA3FC469F","title":"南京大牌档","lon":"121.470848","lat":"31.232343","category":"500","category_name":"未知分类","address":"上海市 南京西路258号世茂商都3楼(近新昌路)"},{"poiid":"B209475DD56BAAFC4893","title":"南京大排档","lon":"121.470718","lat":"31.231937","category":"247","category_name":"餐饮美食","address":"上海市 南京西路258号世贸商都3楼"},{"poiid":"B2094757DB68A5FF449C","title":"上海 来福士","lon":"121.4678278181757","lat":"31.23394058782101","category":"247","category_name":"餐饮美食","address":"人民广场"},{"poiid":"B2094753DB6DA7FF499F","title":"上海明天广场JW万豪酒店","lon":"121.468935","lat":"31.230925","category":"213","category_name":"五星级宾馆","address":"上海黄浦区南京西路399号"},{"poiid":"B2094757DB65A2FD4093","title":"红料理（仙乐斯广场店）","lon":"121.469","lat":"31.2314","category":"257","category_name":"中餐厅","address":"上海黄浦区南京西路388号 仙乐斯广场地下一层"},{"poiid":"B2094757D06AA5F54592","title":"世贸商都","lon":"121.470635","lat":"31.232439","category":"119","category_name":"商场","address":"上海南京西路258号"},{"poiid":"B2094757DB6DA3F4449D","title":"三人行","lon":"121.469367","lat":"31.233615","category":"247","category_name":"餐饮美食","address":"世贸百联店"},{"poiid":"B2094757D56DA0F8459A","title":"仙乐斯营业厅","lon":"121.46903","lat":"31.231186","category":"151","category_name":"电讯营业厅","address":"黄浦区南京西路388号104单元"},{"poiid":"B2094751D56FA4F4419B","title":"木有鸭梨餐吧","lon":"121.4664323","lat":"31.2333259","category":"247","category_name":"餐饮美食","address":"南京西路456号4楼"},{"poiid":"B2094757D16FAAFA429B","title":"长征医院住院部","lon":"121.466941738","lat":"31.2327763544","category":"162","category_name":"医院","address":"上海凤阳路415号"},{"poiid":"B2094757D069A4FD469D","title":"icare美发沙龙","lon":"121.46888073","lat":"31.230895314","category":"148","category_name":"美容美发店","address":"黄浦区南京西路388号仙乐斯广场3楼306室(近上海大剧院)"},{"poiid":"B2094757D065A7F44593","title":"日月光中心 OLIVE DES OLIVE","lon":"121.46757623","lat":"31.232956358","category":"500","category_name":"未知分类","address":"上海打浦桥"},{"poiid":"B2094752DA65A2FD439E","title":"上海明天广场JW万豪酒店","lon":"121.46729","lat":"31.233113","category":"500","category_name":"未知分类","address":"上海市 南京西路399号"},{"poiid":"B2094655D26DA3FF469E","title":"上海保时捷中心","lon":"121.47048","lat":"31.2321","category":"158","category_name":"汽车销售","address":"黄浦区南京西路288号创新金融中心1楼(近新昌路)"},{"poiid":"B2094654DA68A3FC469C","title":"智富广场","lon":"121.46977","lat":"31.23286","category":"46","category_name":"楼宇","address":"上海新昌路80号"},{"poiid":"B2094757D064A5F9499C","title":"富淳饭店天安店","lon":"121.46993873","lat":"31.230986316","category":"72","category_name":"广东菜","address":"黄浦区南京西路338号天安中心大厦B1楼"},{"poiid":"B2094654DA6FAAF5489C","title":"中华保险华盛大厦","lon":"121.46685","lat":"31.23415","category":"46","category_name":"楼宇","address":"成都北路600"},{"poiid":"B2094654DA68A3FC4893","title":"盛鑫面馆","lon":"121.470061054","lat":"31.233492793","category":"68","category_name":"快餐厅","address":"黄浦区凤阳路311号(近黄河路)"},{"poiid":"B2094751D465A3FD4699","title":"星巴克明天广场店","lon":"121.469766","lat":"31.231376","category":"247","category_name":"餐饮美食","address":"南京西路399号明天广场一楼"},{"poiid":"B2094757D06AA7F8439F","title":"上海科勒设计中心","lon":"121.46708813","lat":"31.231715631","category":"260","category_name":"其他","address":"静安区南京西路456号(近仙乐斯广场)"},{"poiid":"B209475CD064ABF8459C","title":"加州扒房  JW's California Grill","lon":"121.46862030029","lat":"31.230876097571","category":"104","category_name":"牛扒店","address":"南京西路399号JW万豪酒店40楼近黄陂北路"},{"poiid":"B2094757D064A2FF449E","title":"斗牛士台湾牛肉面(仙乐斯店)","lon":"121.468935","lat":"31.231409","category":"68","category_name":"快餐厅","address":"静安区南京西路388号仙乐斯广场B1楼02号商铺(近黄陂北路)"},{"poiid":"B209475DD76EA3FA429B","title":"南京大排档","lon":"121.470855","lat":"31.232315","category":"247","category_name":"餐饮美食","address":"上海市 南京西路258号世贸商都3楼"},{"poiid":"B2094757DB6DA3FD4792","title":"迪美·芋贵人","lon":"121.469672","lat":"31.232782","category":"247","category_name":"餐饮美食","address":"人民广场·地下迪美"},{"poiid":"B2094757D16CA3FD409B","title":"上海木偶剧团仙乐斯演艺厅","lon":"121.4691","lat":"31.2309","category":"179","category_name":"音乐厅","address":"静安区南京西路388号仙乐斯广场5楼(近黄陂北路)"},{"poiid":"B209475CD065A2F44292","title":"木鸭梨餐吧 南京西路店 cafe bar","lon":"121.46831","lat":"31.23109","category":"65","category_name":"咖啡厅","address":"南京西路456号科勒设计中心4楼(近仙乐斯广场)"},{"poiid":"B2094757D069ABFD409C","title":"人民广场上海歌城","lon":"121.470956","lat":"31.232594","category":"500","category_name":"未知分类","address":"上海人民广场"},{"poiid":"B2094654DA6FAAF5479E","title":"上海长征医院","lon":"121.46721","lat":"31.23279","category":"162","category_name":"医院","address":"黄浦区凤阳路415号(近成都北路)"},{"poiid":"B2094757D06EAAF4459F","title":"k1 3 cafe bar (木鸭梨餐吧)","lon":"121.46831373","lat":"31.230925314","category":"94","category_name":"西餐厅","address":"黄浦区南京西路456号科勒设计中心4楼(近仙乐斯广场)"},{"poiid":"B2094757D06FA2F44998","title":"Lingo Bistrot","lon":"121.46923","lat":"31.23113","category":"94","category_name":"西餐厅","address":"静安区南京西路388号仙乐斯广场1楼109室(近黄陂北路)"},{"poiid":"B2094753D76FAAFA449C","title":"上海滩国泰旗舰店","lon":"121.466011","lat":"31.216125","category":"249","category_name":"购物服务","address":"淮海中路868号"},{"poiid":"B209475CD564A7F84292","title":"上海滩新天地店","lon":"121.47463","lat":"31.22164","category":"119","category_name":"商场","address":"\"太仓路181弄新天地北里15号\r\n\""},{"poiid":"B209475CD564A7F8439E","title":"上海滩中信泰富店","lon":"121.45602","lat":"31.22851","category":"119","category_name":"商场","address":"\"南京西路1168号中信泰富广场，店铺号221.\r\n\""},{"poiid":"B2094757D16FA6FF459C","title":"雅科","lon":"121.47077873","lat":"31.231950336","category":"76","category_name":"上海菜","address":"黄浦区南京西路248号大光明影院3楼屋顶花园(近黄河路)"},{"poiid":"B2094757DA6EABFF499A","title":"爆爆椒香辣虾干锅三绝(人民广场店)","lon":"121.470959999998","lat":"31.2325700000003","category":"71","category_name":"四川菜","address":"黄浦区南京西路258号世茂商都5楼(近黄河路)"},{"poiid":"B2094654DB64A5FD4099","title":"苏浙汇(黄浦店)","lon":"121.47048","lat":"31.23164","category":"76","category_name":"上海菜","address":"黄浦区南京西路288号创兴金融中心3楼(近新昌路)"},{"poiid":"B2094757D06EAAFD4292","title":"老克勒上海菜 南京西路店","lon":"121.47031","lat":"31.23222","category":"76","category_name":"上海菜","address":"黄浦区南京西路288号创兴金融中心2楼(近新昌路)"},{"poiid":"B2094757D06FA3F5439B","title":"香港仔码头茶餐厅(凤阳店)","lon":"121.47068","lat":"31.23366","category":"72","category_name":"广东菜","address":"黄浦区凤阳路280号(近黄河路)"},{"poiid":"B2094654DA68A3FD479C","title":"天安中心","lon":"121.46978","lat":"31.23174","category":"46","category_name":"楼宇","address":"上海南京西路338号"},{"poiid":"B2094654DA68A3FD499F","title":"COSTA COFFEE(仙乐斯店)","lon":"121.46944","lat":"31.23127","category":"65","category_name":"咖啡厅","address":"黄浦区南京西路388号仙乐斯广场1楼(近黄陂北路)"},{"poiid":"B2094757D06FA7F8409B","title":"老丰阁(仙乐斯店)","lon":"121.46905","lat":"31.23075","category":"76","category_name":"上海菜","address":"上海静安区南京西路388号仙乐斯广场7楼(近黄陂北路)  "},{"poiid":"B2094757D16EA2FB419D","title":"长征医院门诊部","lon":"121.466702738","lat":"31.2317713329","category":"162","category_name":"医院","address":"上海成都北路480号"},{"poiid":"B209475DD06CA3FC419A","title":"南京大排档","lon":"121.470893","lat":"31.232265","category":"247","category_name":"餐饮美食","address":"上海市 南京西路258号世茂商都3楼(近新昌路)"},{"poiid":"B2094750DB6CA1F8439B","title":"人民公园","lon":"121.466559","lat":"31.233402","category":"196","category_name":"公园","address":"黄浦区南京西路75号人民公园内(近黄陂北路)"},{"poiid":"B2094654DB69A5FF409B","title":"麦当劳(仙乐斯店)","lon":"121.4691","lat":"31.23121","category":"68","category_name":"快餐厅","address":"静安区南京西路388号仙乐斯广场内(近黄陂北路)"},{"poiid":"B2094654DA68A3F5419A","title":"明天广场","lon":"121.46916","lat":"31.23071","category":"46","category_name":"楼宇","address":"碧云东壹栋位于浦东金藏路51号(浙桥路口)"},{"poiid":"B2094757D06FA3FE469D","title":"旺旺大厦","lon":"121.469","lat":"31.234","category":"46","category_name":"楼宇","address":"丰台学城海鹰路1号,3号"},{"poiid":"B2094757DB68AAFE469C","title":"俏江南 仙乐斯广场店","lon":"121.469229054","lat":"31.231252793","category":"71","category_name":"四川菜","address":"静安区南京西路388号仙乐斯广场2楼(近黄陂北路)"},{"poiid":"B2094757D06FA1F4499D","title":"创兴金融中心","lon":"121.4704895","lat":"31.231645584","category":"46","category_name":"楼宇","address":"上海南京西路288号"},{"poiid":"B2094757D06FA6FF4598","title":"晶采世纪大厦","lon":"121.468","lat":"31.2329","category":"46","category_name":"楼宇","address":"珠江新城华穗路与华利路交汇处"},{"poiid":"B209475DD06CA3FC469F","title":"南京大牌档","lon":"121.470848","lat":"31.232343","category":"500","category_name":"未知分类","address":"上海市 南京西路258号世茂商都3楼(近新昌路)"},{"poiid":"B209475DD56BAAFC4893","title":"南京大排档","lon":"121.470718","lat":"31.231937","category":"247","category_name":"餐饮美食","address":"上海市 南京西路258号世贸商都3楼"},{"poiid":"B2094757DB68A5FF449C","title":"上海 来福士","lon":"121.4678278181757","lat":"31.23394058782101","category":"247","category_name":"餐饮美食","address":"人民广场"},{"poiid":"B2094753DB6DA7FF499F","title":"上海明天广场JW万豪酒店","lon":"121.468935","lat":"31.230925","category":"213","category_name":"五星级宾馆","address":"上海黄浦区南京西路399号"},{"poiid":"B2094757DB65A2FD4093","title":"红料理（仙乐斯广场店）","lon":"121.469","lat":"31.2314","category":"257","category_name":"中餐厅","address":"上海黄浦区南京西路388号 仙乐斯广场地下一层"},{"poiid":"B2094757D06AA5F54592","title":"世贸商都","lon":"121.470635","lat":"31.232439","category":"119","category_name":"商场","address":"上海南京西路258号"},{"poiid":"B2094757DB6DA3F4449D","title":"三人行","lon":"121.469367","lat":"31.233615","category":"247","category_name":"餐饮美食","address":"世贸百联店"},{"poiid":"B2094757D56DA0F8459A","title":"仙乐斯营业厅","lon":"121.46903","lat":"31.231186","category":"151","category_name":"电讯营业厅","address":"黄浦区南京西路388号104单元"},{"poiid":"B2094751D56FA4F4419B","title":"木有鸭梨餐吧","lon":"121.4664323","lat":"31.2333259","category":"247","category_name":"餐饮美食","address":"南京西路456号4楼"},{"poiid":"B2094757D16FAAFA429B","title":"长征医院住院部","lon":"121.466941738","lat":"31.2327763544","category":"162","category_name":"医院","address":"上海凤阳路415号"},{"poiid":"B2094757D069A4FD469D","title":"icare美发沙龙","lon":"121.46888073","lat":"31.230895314","category":"148","category_name":"美容美发店","address":"黄浦区南京西路388号仙乐斯广场3楼306室(近上海大剧院)"},{"poiid":"B2094757D065A7F44593","title":"日月光中心 OLIVE DES OLIVE","lon":"121.46757623","lat":"31.232956358","category":"500","category_name":"未知分类","address":"上海打浦桥"},{"poiid":"B2094752DA65A2FD439E","title":"上海明天广场JW万豪酒店","lon":"121.46729","lat":"31.233113","category":"500","category_name":"未知分类","address":"上海市 南京西路399号"},{"poiid":"B2094655D26DA3FF469E","title":"上海保时捷中心","lon":"121.47048","lat":"31.2321","category":"158","category_name":"汽车销售","address":"黄浦区南京西路288号创新金融中心1楼(近新昌路)"},{"poiid":"B2094654DA68A3FC469C","title":"智富广场","lon":"121.46977","lat":"31.23286","category":"46","category_name":"楼宇","address":"上海新昌路80号"},{"poiid":"B2094757D064A5F9499C","title":"富淳饭店天安店","lon":"121.46993873","lat":"31.230986316","category":"72","category_name":"广东菜","address":"黄浦区南京西路338号天安中心大厦B1楼"},{"poiid":"B2094654DA6FAAF5489C","title":"中华保险华盛大厦","lon":"121.46685","lat":"31.23415","category":"46","category_name":"楼宇","address":"成都北路600"},{"poiid":"B2094654DA68A3FC4893","title":"盛鑫面馆","lon":"121.470061054","lat":"31.233492793","category":"68","category_name":"快餐厅","address":"黄浦区凤阳路311号(近黄河路)"},{"poiid":"B2094751D465A3FD4699","title":"星巴克明天广场店","lon":"121.469766","lat":"31.231376","category":"247","category_name":"餐饮美食","address":"南京西路399号明天广场一楼"},{"poiid":"B2094757D06AA7F8439F","title":"上海科勒设计中心","lon":"121.46708813","lat":"31.231715631","category":"260","category_name":"其他","address":"静安区南京西路456号(近仙乐斯广场)"},{"poiid":"B209475CD064ABF8459C","title":"加州扒房  JW's California Grill","lon":"121.46862030029","lat":"31.230876097571","category":"104","category_name":"牛扒店","address":"南京西路399号JW万豪酒店40楼近黄陂北路"},{"poiid":"B2094757D064A2FF449E","title":"斗牛士台湾牛肉面(仙乐斯店)","lon":"121.468935","lat":"31.231409","category":"68","category_name":"快餐厅","address":"静安区南京西路388号仙乐斯广场B1楼02号商铺(近黄陂北路)"},{"poiid":"B209475DD76EA3FA429B","title":"南京大排档","lon":"121.470855","lat":"31.232315","category":"247","category_name":"餐饮美食","address":"上海市 南京西路258号世贸商都3楼"},{"poiid":"B2094757DB6DA3FD4792","title":"迪美·芋贵人","lon":"121.469672","lat":"31.232782","category":"247","category_name":"餐饮美食","address":"人民广场·地下迪美"},{"poiid":"B2094757D16CA3FD409B","title":"上海木偶剧团仙乐斯演艺厅","lon":"121.4691","lat":"31.2309","category":"179","category_name":"音乐厅","address":"静安区南京西路388号仙乐斯广场5楼(近黄陂北路)"},{"poiid":"B209475CD065A2F44292","title":"木鸭梨餐吧 南京西路店 cafe bar","lon":"121.46831","lat":"31.23109","category":"65","category_name":"咖啡厅","address":"南京西路456号科勒设计中心4楼(近仙乐斯广场)"},{"poiid":"B2094757D069ABFD409C","title":"人民广场上海歌城","lon":"121.470956","lat":"31.232594","category":"500","category_name":"未知分类","address":"上海人民广场"},{"poiid":"B2094654DA6FAAF5479E","title":"上海长征医院","lon":"121.46721","lat":"31.23279","category":"162","category_name":"医院","address":"黄浦区凤阳路415号(近成都北路)"},{"poiid":"B2094757D06EAAF4459F","title":"k1 3 cafe bar (木鸭梨餐吧)","lon":"121.46831373","lat":"31.230925314","category":"94","category_name":"西餐厅","address":"黄浦区南京西路456号科勒设计中心4楼(近仙乐斯广场)"},{"poiid":"B2094757D06FA2F44998","title":"Lingo Bistrot","lon":"121.46923","lat":"31.23113","category":"94","category_name":"西餐厅","address":"静安区南京西路388号仙乐斯广场1楼109室(近黄陂北路)"},{"poiid":"B2094753D76FAAFA449C","title":"上海滩国泰旗舰店","lon":"121.466011","lat":"31.216125","category":"249","category_name":"购物服务","address":"淮海中路868号"},{"poiid":"B209475CD564A7F84292","title":"上海滩新天地店","lon":"121.47463","lat":"31.22164","category":"119","category_name":"商场","address":"\"太仓路181弄新天地北里15号\r\n\""},{"poiid":"B209475CD564A7F8439E","title":"上海滩中信泰富店","lon":"121.45602","lat":"31.22851","category":"119","category_name":"商场","address":"\"南京西路1168号中信泰富广场，店铺号221.\r\n\""},{"poiid":"B2094757D16FA6FF459C","title":"雅科","lon":"121.47077873","lat":"31.231950336","category":"76","category_name":"上海菜","address":"黄浦区南京西路248号大光明影院3楼屋顶花园(近黄河路)"},{"poiid":"B2094757DA6EABFF499A","title":"爆爆椒香辣虾干锅三绝(人民广场店)","lon":"121.470959999998","lat":"31.2325700000003","category":"71","category_name":"四川菜","address":"黄浦区南京西路258号世茂商都5楼(近黄河路)"},{"poiid":"B2094654DB64A5FD4099","title":"苏浙汇(黄浦店)","lon":"121.47048","lat":"31.23164","category":"76","category_name":"上海菜","address":"黄浦区南京西路288号创兴金融中心3楼(近新昌路)"},{"poiid":"B2094757D06EAAFD4292","title":"老克勒上海菜 南京西路店","lon":"121.47031","lat":"31.23222","category":"76","category_name":"上海菜","address":"黄浦区南京西路288号创兴金融中心2楼(近新昌路)"},{"poiid":"B2094757D06FA3F5439B","title":"香港仔码头茶餐厅(凤阳店)","lon":"121.47068","lat":"31.23366","category":"72","category_name":"广东菜","address":"黄浦区凤阳路280号(近黄河路)"},{"poiid":"B2094654DA68A3FD479C","title":"天安中心","lon":"121.46978","lat":"31.23174","category":"46","category_name":"楼宇","address":"上海南京西路338号"},{"poiid":"B2094654DA68A3FD499F","title":"COSTA COFFEE(仙乐斯店)","lon":"121.46944","lat":"31.23127","category":"65","category_name":"咖啡厅","address":"黄浦区南京西路388号仙乐斯广场1楼(近黄陂北路)"},{"poiid":"B2094757D06FA7F8409B","title":"老丰阁(仙乐斯店)","lon":"121.46905","lat":"31.23075","category":"76","category_name":"上海菜","address":"上海静安区南京西路388号仙乐斯广场7楼(近黄陂北路)  "},{"poiid":"B2094757D16EA2FB419D","title":"长征医院门诊部","lon":"121.466702738","lat":"31.2317713329","category":"162","category_name":"医院","address":"上海成都北路480号"},{"poiid":"B209475DD06CA3FC419A","title":"南京大排档","lon":"121.470893","lat":"31.232265","category":"247","category_name":"餐饮美食","address":"上海市 南京西路258号世茂商都3楼(近新昌路)"},{"poiid":"B2094750DB6CA1F8439B","title":"人民公园","lon":"121.466559","lat":"31.233402","category":"196","category_name":"公园","address":"黄浦区南京西路75号人民公园内(近黄陂北路)"},{"poiid":"B2094654DB69A5FF409B","title":"麦当劳(仙乐斯店)","lon":"121.4691","lat":"31.23121","category":"68","category_name":"快餐厅","address":"静安区南京西路388号仙乐斯广场内(近黄陂北路)"},{"poiid":"B2094654DA68A3F5419A","title":"明天广场","lon":"121.46916","lat":"31.23071","category":"46","category_name":"楼宇","address":"碧云东壹栋位于浦东金藏路51号(浙桥路口)"},{"poiid":"B2094757D06FA3FE469D","title":"旺旺大厦","lon":"121.469","lat":"31.234","category":"46","category_name":"楼宇","address":"丰台学城海鹰路1号,3号"},{"poiid":"B2094757DB68AAFE469C","title":"俏江南 仙乐斯广场店","lon":"121.469229054","lat":"31.231252793","category":"71","category_name":"四川菜","address":"静安区南京西路388号仙乐斯广场2楼(近黄陂北路)"},{"poiid":"B2094757D06FA1F4499D","title":"创兴金融中心","lon":"121.4704895","lat":"31.231645584","category":"46","category_name":"楼宇","address":"上海南京西路288号"},{"poiid":"B2094757D06FA6FF4598","title":"晶采世纪大厦","lon":"121.468","lat":"31.2329","category":"46","category_name":"楼宇","address":"珠江新城华穗路与华利路交汇处"},{"poiid":"B209475DD06CA3FC469F","title":"南京大牌档","lon":"121.470848","lat":"31.232343","category":"500","category_name":"未知分类","address":"上海市 南京西路258号世茂商都3楼(近新昌路)"},{"poiid":"B209475DD56BAAFC4893","title":"南京大排档","lon":"121.470718","lat":"31.231937","category":"247","category_name":"餐饮美食","address":"上海市 南京西路258号世贸商都3楼"},{"poiid":"B2094757DB68A5FF449C","title":"上海 来福士","lon":"121.4678278181757","lat":"31.23394058782101","category":"247","category_name":"餐饮美食","address":"人民广场"},{"poiid":"B2094753DB6DA7FF499F","title":"上海明天广场JW万豪酒店","lon":"121.468935","lat":"31.230925","category":"213","category_name":"五星级宾馆","address":"上海黄浦区南京西路399号"},{"poiid":"B2094757DB65A2FD4093","title":"红料理（仙乐斯广场店）","lon":"121.469","lat":"31.2314","category":"257","category_name":"中餐厅","address":"上海黄浦区南京西路388号 仙乐斯广场地下一层"},{"poiid":"B2094757D06AA5F54592","title":"世贸商都","lon":"121.470635","lat":"31.232439","category":"119","category_name":"商场","address":"上海南京西路258号"},{"poiid":"B2094757DB6DA3F4449D","title":"三人行","lon":"121.469367","lat":"31.233615","category":"247","category_name":"餐饮美食","address":"世贸百联店"},{"poiid":"B2094757D56DA0F8459A","title":"仙乐斯营业厅","lon":"121.46903","lat":"31.231186","category":"151","category_name":"电讯营业厅","address":"黄浦区南京西路388号104单元"},{"poiid":"B2094751D56FA4F4419B","title":"木有鸭梨餐吧","lon":"121.4664323","lat":"31.2333259","category":"247","category_name":"餐饮美食","address":"南京西路456号4楼"},{"poiid":"B2094757D16FAAFA429B","title":"长征医院住院部","lon":"121.466941738","lat":"31.2327763544","category":"162","category_name":"医院","address":"上海凤阳路415号"},{"poiid":"B2094757D069A4FD469D","title":"icare美发沙龙","lon":"121.46888073","lat":"31.230895314","category":"148","category_name":"美容美发店","address":"黄浦区南京西路388号仙乐斯广场3楼306室(近上海大剧院)"},{"poiid":"B2094757D065A7F44593","title":"日月光中心 OLIVE DES OLIVE","lon":"121.46757623","lat":"31.232956358","category":"500","category_name":"未知分类","address":"上海打浦桥"},{"poiid":"B2094752DA65A2FD439E","title":"上海明天广场JW万豪酒店","lon":"121.46729","lat":"31.233113","category":"500","category_name":"未知分类","address":"上海市 南京西路399号"},{"poiid":"B2094655D26DA3FF469E","title":"上海保时捷中心","lon":"121.47048","lat":"31.2321","category":"158","category_name":"汽车销售","address":"黄浦区南京西路288号创新金融中心1楼(近新昌路)"},{"poiid":"B2094654DA68A3FC469C","title":"智富广场","lon":"121.46977","lat":"31.23286","category":"46","category_name":"楼宇","address":"上海新昌路80号"},{"poiid":"B2094757D064A5F9499C","title":"富淳饭店天安店","lon":"121.46993873","lat":"31.230986316","category":"72","category_name":"广东菜","address":"黄浦区南京西路338号天安中心大厦B1楼"},{"poiid":"B2094654DA6FAAF5489C","title":"中华保险华盛大厦","lon":"121.46685","lat":"31.23415","category":"46","category_name":"楼宇","address":"成都北路600"},{"poiid":"B2094654DA68A3FC4893","title":"盛鑫面馆","lon":"121.470061054","lat":"31.233492793","category":"68","category_name":"快餐厅","address":"黄浦区凤阳路311号(近黄河路)"},{"poiid":"B2094751D465A3FD4699","title":"星巴克明天广场店","lon":"121.469766","lat":"31.231376","category":"247","category_name":"餐饮美食","address":"南京西路399号明天广场一楼"},{"poiid":"B2094757D06AA7F8439F","title":"上海科勒设计中心","lon":"121.46708813","lat":"31.231715631","category":"260","category_name":"其他","address":"静安区南京西路456号(近仙乐斯广场)"},{"poiid":"B209475CD064ABF8459C","title":"加州扒房  JW's California Grill","lon":"121.46862030029","lat":"31.230876097571","category":"104","category_name":"牛扒店","address":"南京西路399号JW万豪酒店40楼近黄陂北路"},{"poiid":"B2094757D064A2FF449E","title":"斗牛士台湾牛肉面(仙乐斯店)","lon":"121.468935","lat":"31.231409","category":"68","category_name":"快餐厅","address":"静安区南京西路388号仙乐斯广场B1楼02号商铺(近黄陂北路)"},{"poiid":"B209475DD76EA3FA429B","title":"南京大排档","lon":"121.470855","lat":"31.232315","category":"247","category_name":"餐饮美食","address":"上海市 南京西路258号世贸商都3楼"},{"poiid":"B2094757DB6DA3FD4792","title":"迪美·芋贵人","lon":"121.469672","lat":"31.232782","category":"247","category_name":"餐饮美食","address":"人民广场·地下迪美"},{"poiid":"B2094757D16CA3FD409B","title":"上海木偶剧团仙乐斯演艺厅","lon":"121.4691","lat":"31.2309","category":"179","category_name":"音乐厅","address":"静安区南京西路388号仙乐斯广场5楼(近黄陂北路)"},{"poiid":"B209475CD065A2F44292","title":"木鸭梨餐吧 南京西路店 cafe bar","lon":"121.46831","lat":"31.23109","category":"65","category_name":"咖啡厅","address":"南京西路456号科勒设计中心4楼(近仙乐斯广场)"},{"poiid":"B2094757D069ABFD409C","title":"人民广场上海歌城","lon":"121.470956","lat":"31.232594","category":"500","category_name":"未知分类","address":"上海人民广场"},{"poiid":"B2094654DA6FAAF5479E","title":"上海长征医院","lon":"121.46721","lat":"31.23279","category":"162","category_name":"医院","address":"黄浦区凤阳路415号(近成都北路)"},{"poiid":"B2094757D06EAAF4459F","title":"k1 3 cafe bar (木鸭梨餐吧)","lon":"121.46831373","lat":"31.230925314","category":"94","category_name":"西餐厅","address":"黄浦区南京西路456号科勒设计中心4楼(近仙乐斯广场)"},{"poiid":"B2094757D06FA2F44998","title":"Lingo Bistrot","lon":"121.46923","lat":"31.23113","category":"94","category_name":"西餐厅","address":"静安区南京西路388号仙乐斯广场1楼109室(近黄陂北路)"},{"poiid":"B2094753D76FAAFA449C","title":"上海滩国泰旗舰店","lon":"121.466011","lat":"31.216125","category":"249","category_name":"购物服务","address":"淮海中路868号"},{"poiid":"B209475CD564A7F84292","title":"上海滩新天地店","lon":"121.47463","lat":"31.22164","category":"119","category_name":"商场","address":"\"太仓路181弄新天地北里15号\r\n\""},{"poiid":"B209475CD564A7F8439E","title":"上海滩中信泰富店","lon":"121.45602","lat":"31.22851","category":"119","category_name":"商场","address":"\"南京西路1168号中信泰富广场，店铺号221.\r\n\""},{"poiid":"B2094757D16FA6FF459C","title":"雅科","lon":"121.47077873","lat":"31.231950336","category":"76","category_name":"上海菜","address":"黄浦区南京西路248号大光明影院3楼屋顶花园(近黄河路)"},{"poiid":"B2094757DA6EABFF499A","title":"爆爆椒香辣虾干锅三绝(人民广场店)","lon":"121.470959999998","lat":"31.2325700000003","category":"71","category_name":"四川菜","address":"黄浦区南京西路258号世茂商都5楼(近黄河路)"},{"poiid":"B2094654DB64A5FD4099","title":"苏浙汇(黄浦店)","lon":"121.47048","lat":"31.23164","category":"76","category_name":"上海菜","address":"黄浦区南京西路288号创兴金融中心3楼(近新昌路)"},{"poiid":"B2094757D06EAAFD4292","title":"老克勒上海菜 南京西路店","lon":"121.47031","lat":"31.23222","category":"76","category_name":"上海菜","address":"黄浦区南京西路288号创兴金融中心2楼(近新昌路)"},{"poiid":"B2094757D06FA3F5439B","title":"香港仔码头茶餐厅(凤阳店)","lon":"121.47068","lat":"31.23366","category":"72","category_name":"广东菜","address":"黄浦区凤阳路280号(近黄河路)"},{"poiid":"B2094654DA68A3FD479C","title":"天安中心","lon":"121.46978","lat":"31.23174","category":"46","category_name":"楼宇","address":"上海南京西路338号"},{"poiid":"B2094654DA68A3FD499F","title":"COSTA COFFEE(仙乐斯店)","lon":"121.46944","lat":"31.23127","category":"65","category_name":"咖啡厅","address":"黄浦区南京西路388号仙乐斯广场1楼(近黄陂北路)"},{"poiid":"B2094757D06FA7F8409B","title":"老丰阁(仙乐斯店)","lon":"121.46905","lat":"31.23075","category":"76","category_name":"上海菜","address":"上海静安区南京西路388号仙乐斯广场7楼(近黄陂北路)  "},{"poiid":"B2094757D16EA2FB419D","title":"长征医院门诊部","lon":"121.466702738","lat":"31.2317713329","category":"162","category_name":"医院","address":"上海成都北路480号"},{"poiid":"B209475DD06CA3FC419A","title":"南京大排档","lon":"121.470893","lat":"31.232265","category":"247","category_name":"餐饮美食","address":"上海市 南京西路258号世茂商都3楼(近新昌路)"},{"poiid":"B2094750DB6CA1F8439B","title":"人民公园","lon":"121.466559","lat":"31.233402","category":"196","category_name":"公园","address":"黄浦区南京西路75号人民公园内(近黄陂北路)"},{"poiid":"B2094654DB69A5FF409B","title":"麦当劳(仙乐斯店)","lon":"121.4691","lat":"31.23121","category":"68","category_name":"快餐厅","address":"静安区南京西路388号仙乐斯广场内(近黄陂北路)"},{"poiid":"B2094654DA68A3F5419A","title":"明天广场","lon":"121.46916","lat":"31.23071","category":"46","category_name":"楼宇","address":"碧云东壹栋位于浦东金藏路51号(浙桥路口)"},{"poiid":"B2094757D06FA3FE469D","title":"旺旺大厦","lon":"121.469","lat":"31.234","category":"46","category_name":"楼宇","address":"丰台学城海鹰路1号,3号"},{"poiid":"B2094757DB68AAFE469C","title":"俏江南 仙乐斯广场店","lon":"121.469229054","lat":"31.231252793","category":"71","category_name":"四川菜","address":"静安区南京西路388号仙乐斯广场2楼(近黄陂北路)"},{"poiid":"B2094757D06FA1F4499D","title":"创兴金融中心","lon":"121.4704895","lat":"31.231645584","category":"46","category_name":"楼宇","address":"上海南京西路288号"},{"poiid":"B2094757D06FA6FF4598","title":"晶采世纪大厦","lon":"121.468","lat":"31.2329","category":"46","category_name":"楼宇","address":"珠江新城华穗路与华利路交汇处"},{"poiid":"B209475DD06CA3FC469F","title":"南京大牌档","lon":"121.470848","lat":"31.232343","category":"500","category_name":"未知分类","address":"上海市 南京西路258号世茂商都3楼(近新昌路)"},{"poiid":"B209475DD56BAAFC4893","title":"南京大排档","lon":"121.470718","lat":"31.231937","category":"247","category_name":"餐饮美食","address":"上海市 南京西路258号世贸商都3楼"},{"poiid":"B2094757DB68A5FF449C","title":"上海 来福士","lon":"121.4678278181757","lat":"31.23394058782101","category":"247","category_name":"餐饮美食","address":"人民广场"},{"poiid":"B2094753DB6DA7FF499F","title":"上海明天广场JW万豪酒店","lon":"121.468935","lat":"31.230925","category":"213","category_name":"五星级宾馆","address":"上海黄浦区南京西路399号"},{"poiid":"B2094757DB65A2FD4093","title":"红料理（仙乐斯广场店）","lon":"121.469","lat":"31.2314","category":"257","category_name":"中餐厅","address":"上海黄浦区南京西路388号 仙乐斯广场地下一层"},{"poiid":"B2094757D06AA5F54592","title":"世贸商都","lon":"121.470635","lat":"31.232439","category":"119","category_name":"商场","address":"上海南京西路258号"},{"poiid":"B2094757DB6DA3F4449D","title":"三人行","lon":"121.469367","lat":"31.233615","category":"247","category_name":"餐饮美食","address":"世贸百联店"},{"poiid":"B2094757D56DA0F8459A","title":"仙乐斯营业厅","lon":"121.46903","lat":"31.231186","category":"151","category_name":"电讯营业厅","address":"黄浦区南京西路388号104单元"},{"poiid":"B2094751D56FA4F4419B","title":"木有鸭梨餐吧","lon":"121.4664323","lat":"31.2333259","category":"247","category_name":"餐饮美食","address":"南京西路456号4楼"},{"poiid":"B2094757D16FAAFA429B","title":"长征医院住院部","lon":"121.466941738","lat":"31.2327763544","category":"162","category_name":"医院","address":"上海凤阳路415号"},{"poiid":"B2094757D069A4FD469D","title":"icare美发沙龙","lon":"121.46888073","lat":"31.230895314","category":"148","category_name":"美容美发店","address":"黄浦区南京西路388号仙乐斯广场3楼306室(近上海大剧院)"},{"poiid":"B2094757D065A7F44593","title":"日月光中心 OLIVE DES OLIVE","lon":"121.46757623","lat":"31.232956358","category":"500","category_name":"未知分类","address":"上海打浦桥"},{"poiid":"B2094752DA65A2FD439E","title":"上海明天广场JW万豪酒店","lon":"121.46729","lat":"31.233113","category":"500","category_name":"未知分类","address":"上海市 南京西路399号"},{"poiid":"B2094655D26DA3FF469E","title":"上海保时捷中心","lon":"121.47048","lat":"31.2321","category":"158","category_name":"汽车销售","address":"黄浦区南京西路288号创新金融中心1楼(近新昌路)"},{"poiid":"B2094654DA68A3FC469C","title":"智富广场","lon":"121.46977","lat":"31.23286","category":"46","category_name":"楼宇","address":"上海新昌路80号"},{"poiid":"B2094757D064A5F9499C","title":"富淳饭店天安店","lon":"121.46993873","lat":"31.230986316","category":"72","category_name":"广东菜","address":"黄浦区南京西路338号天安中心大厦B1楼"},{"poiid":"B2094654DA6FAAF5489C","title":"中华保险华盛大厦","lon":"121.46685","lat":"31.23415","category":"46","category_name":"楼宇","address":"成都北路600"},{"poiid":"B2094654DA68A3FC4893","title":"盛鑫面馆","lon":"121.470061054","lat":"31.233492793","category":"68","category_name":"快餐厅","address":"黄浦区凤阳路311号(近黄河路)"},{"poiid":"B2094751D465A3FD4699","title":"星巴克明天广场店","lon":"121.469766","lat":"31.231376","category":"247","category_name":"餐饮美食","address":"南京西路399号明天广场一楼"},{"poiid":"B2094757D06AA7F8439F","title":"上海科勒设计中心","lon":"121.46708813","lat":"31.231715631","category":"260","category_name":"其他","address":"静安区南京西路456号(近仙乐斯广场)"},{"poiid":"B209475CD064ABF8459C","title":"加州扒房  JW's California Grill","lon":"121.46862030029","lat":"31.230876097571","category":"104","category_name":"牛扒店","address":"南京西路399号JW万豪酒店40楼近黄陂北路"},{"poiid":"B2094757D064A2FF449E","title":"斗牛士台湾牛肉面(仙乐斯店)","lon":"121.468935","lat":"31.231409","category":"68","category_name":"快餐厅","address":"静安区南京西路388号仙乐斯广场B1楼02号商铺(近黄陂北路)"},{"poiid":"B209475DD76EA3FA429B","title":"南京大排档","lon":"121.470855","lat":"31.232315","category":"247","category_name":"餐饮美食","address":"上海市 南京西路258号世贸商都3楼"},{"poiid":"B2094757DB6DA3FD4792","title":"迪美·芋贵人","lon":"121.469672","lat":"31.232782","category":"247","category_name":"餐饮美食","address":"人民广场·地下迪美"},{"poiid":"B2094757D16CA3FD409B","title":"上海木偶剧团仙乐斯演艺厅","lon":"121.4691","lat":"31.2309","category":"179","category_name":"音乐厅","address":"静安区南京西路388号仙乐斯广场5楼(近黄陂北路)"},{"poiid":"B209475CD065A2F44292","title":"木鸭梨餐吧 南京西路店 cafe bar","lon":"121.46831","lat":"31.23109","category":"65","category_name":"咖啡厅","address":"南京西路456号科勒设计中心4楼(近仙乐斯广场)"},{"poiid":"B2094757D069ABFD409C","title":"人民广场上海歌城","lon":"121.470956","lat":"31.232594","category":"500","category_name":"未知分类","address":"上海人民广场"}]