[{"poiid":"B2094757D068A4FF419C","title":"梅陇镇广场","lon":"121.456631071","lat":"31.2264992206","category":"119","category_name":"商场","address":"松江区荣乐东路1133弄"},{"poiid":"B2094757D06FA3F44898","title":"甜蜜蜜(南京西路店)","lon":"121.45788","lat":"31.22816","category":"67","category_name":"甜品店","address":"静安区南京西路1001号凯司令2楼(梅龙镇广场斜对面)"},{"poiid":"B2094757D06FA6F44693","title":"哈根达斯(梅龙镇店)","lon":"121.45737","lat":"31.22847","category":"113","category_name":"冷饮店","address":"静安区南京西路1038号梅龙镇广场1楼109C-D(近江宁路)"},{"poiid":"B2094753D76FAAFA449C","title":"上海滩国泰旗舰店","lon":"121.466011","lat":"31.216125","category":"249","category_name":"购物服务","address":"淮海中路868号"},{"poiid":"B209475CD564A7F84292","title":"上海滩新天地店","lon":"121.47463","lat":"31.22164","category":"119","category_name":"商场","address":"\"太仓路181弄新天地北里15号\r\n\""},{"poiid":"B209475CD564A7F8439E","title":"上海滩中信泰富店","lon":"121.45602","lat":"31.22851","category":"119","category_name":"商场","address":"\"南京西路1168号中信泰富广场，店铺号221.\r\n\""},{"poiid":"B2094757D16FA7FD459E","title":"小杨生煎","lon":"121.45825073","lat":"31.225055189","category":"247","category_name":"餐饮美食","address":"静安区南京西路"},{"poiid":"B2094757D16FA1F4419B","title":"品川(恒隆店)","lon":"121.45439","lat":"31.22758","category":"71","category_name":"四川菜","address":"静安区南京西路1266号恒隆广场5楼(近陕西北路)"},{"poiid":"B2094757D06FA2F5409F","title":"弄堂小馄饨","lon":"121.45834","lat":"31.22876","category":"68","category_name":"快餐厅","address":"静安区南京西路1025弄静安别墅107号(近茂名北路)"},{"poiid":"B2094757D06FA7FC439D","title":"美新点心店","lon":"121.45626446","lat":"31.22563169","category":"68","category_name":"快餐厅","address":"静安区陕西北路105号(近威海路)"},{"poiid":"B2094757D069A2FC439B","title":"稻•绿洲泰国时尚餐厅","lon":"121.45864873","lat":"31.228559264","category":"99","category_name":"泰国／越南菜品餐厅","address":"上海市静安区茂名北路吴江路269号皇普汇1楼"},{"poiid":"B2094654DA6CA1FA489C","title":"上海民主党派大厦","lon":"121.45629","lat":"31.22603","category":"46","category_name":"楼宇","address":"上海市静安区陕西北路128号"},{"poiid":"B2094757D06FA2FD499E","title":"gz cafe","lon":"121.458061218","lat":"31.2260665894","category":"130","category_name":"礼品饰品店","address":"静安区南京西路1025弄静安别墅162号(近江宁路)"},{"poiid":"B2094757D06EAAF9489F","title":"宗祠 KIN","lon":"121.45915473","lat":"31.225732204","category":"67","category_name":"甜品店","address":"静安区茂名北路65号103(近延安中路)"},{"poiid":"B2094757D66CA0F4489E","title":"静安小亭","lon":"121.45834573","lat":"31.225122191","category":"500","category_name":"未知分类","address":"上海市静安区南京西路"},{"poiid":"B2094757D06FA0F5429B","title":"沈坚强游泳俱乐部(威海路店)","lon":"121.45899","lat":"31.22599","category":"220","category_name":"运动场所","address":"静安区威海路681号(近茂名北路)"},{"poiid":"B2094757D06FA6FE439F","title":"2666图书馆","lon":"121.45823373","lat":"31.226929229","category":"181","category_name":"图书馆","address":"静安区南京西路1025弄静安别墅136号(近梅龙镇伊势丹)"},{"poiid":"B2094757D168AAF5499F","title":"伊秀寿司","lon":"121.45819373","lat":"31.224303173","category":"247","category_name":"餐饮美食","address":"上海市静安区南京西路"},{"poiid":"B2094757D06FA0FE4599","title":"寿司处武贞(梅龙镇店)","lon":"121.45699","lat":"31.22835","category":"95","category_name":"日本料理","address":"上海静安区南京西路1038号梅龙镇广场B1楼  "},{"poiid":"B2094654DA6CA1F4499C","title":"文汇新民联合报业集团","lon":"121.45748","lat":"31.22553","category":"61","category_name":"报社","address":"威海路755-757号文新报业大厦"},{"poiid":"B2094757D06BA5F9459C","title":"申汇轩(陕西北路店)","lon":"121.45674","lat":"31.22552","category":"76","category_name":"上海菜","address":"静安区陕西北路128号民主党派大厦裙楼1-2楼(近威海路)"},{"poiid":"B2094757D06FA7F54693","title":"Cafe Specchi","lon":"121.45730106","lat":"31.225408997","category":"65","category_name":"咖啡厅","address":"上海静安区南京西路1266号恒隆广场1F(近陕西北路)  "},{"poiid":"B2094757D064A2F94492","title":"茂名北路威海路","lon":"121.46008673","lat":"31.227478241","category":"260","category_name":"其他","address":"上海茂名北路威海路"},{"poiid":"B2094757D06FA0F9419C","title":"旋转黑糖冰","lon":"121.45781","lat":"31.22573","category":"113","category_name":"冷饮店","address":"静安区威海路708号(近陕西北路)"},{"poiid":"B2094752D665A0FE449E","title":"点点心","lon":"121.457295","lat":"31.227772","category":"247","category_name":"餐饮美食","address":"南京西路889号2楼"},{"poiid":"B2094757D064A5F8419D","title":"森下创作料理","lon":"121.456423738","lat":"31.2258492067","category":"76","category_name":"上海菜","address":"静安区南京西路1025弄静安别墅123号(近吴江路)"},{"poiid":"B2094757D06FA0FA4198","title":"Vale 192","lon":"121.45883373","lat":"31.226695224","category":"94","category_name":"西餐厅","address":"静安区南京西路1025弄静安别墅192号(近茂名北路)"},{"poiid":"B2094654D564ABFF4192","title":"巨富大厦","lon":"121.45722681438","lat":"31.226610095807","category":"46","category_name":"楼宇","address":"越秀区环市东路362-366号"},{"poiid":"B2094757D065A6FD429F","title":"2号线南京西路站","lon":"121.458881738","lat":"31.2285002632","category":"500","category_name":"未知分类","address":"上海市静安区南京西路"},{"poiid":"B2094757D06BA3F54492","title":"Godiva(梅龙镇广场店)","lon":"121.45701","lat":"31.22834","category":"67","category_name":"甜品店","address":"静安区南京西路1038号梅龙镇广场1楼3号商铺(近江宁路)"},{"poiid":"B2094757D06FABFC449C","title":"恒隆尚渝","lon":"121.45453","lat":"31.22724","category":"91","category_name":"台湾菜","address":"静安区南京西路1266号恒隆广场5楼510铺(近陕西北路)"},{"poiid":"B2094757D06BA5FA409B","title":"恒隆广场停车场","lon":"121.45838165","lat":"31.225849151","category":"260","category_name":"其他","address":"上海静安区南京西路1266号(近陕西北路) "},{"poiid":"B2094757D068ABF9479F","title":"上海第二工业大学(静安分校)","lon":"121.45706","lat":"31.22502","category":"52","category_name":"高等院校","address":"静安区陕西北路80号(威海路口)"},{"poiid":"B2094752D36DA3FC479A","title":"夏布洛尔咖啡馆","lon":"121.45848332051","lat":"31.227573760046","category":"65","category_name":"咖啡厅","address":"南京西路1025弄静安别墅93号底楼"},{"poiid":"B2094757D16CA3FC439E","title":"sweet season思维季节","lon":"121.45831673","lat":"31.227850249","category":"65","category_name":"咖啡厅","address":"静安区南京西路1025弄静安别墅67号(近梅陇镇广场)"},{"poiid":"B2094750D26FA4FE429B","title":"starbucks","lon":"121.456367","lat":"31.225322","category":"247","category_name":"餐饮美食","address":"中兴泰富"},{"poiid":"B2094757D06AA5F9499A","title":"波特曼嘉丽Table自助餐厅","lon":"121.45688829","lat":"31.224855074","category":"500","category_name":"未知分类","address":"上海商城"},{"poiid":"B2094654DA6CA1F44692","title":"上海毛泽东旧居","lon":"121.46047","lat":"31.22611","category":"243","category_name":"纪念馆","address":"静安区茂名北路120弄5-9号"},{"poiid":"B2094757D068A4FF479E","title":"埃洛美甲(威海店)","lon":"121.45928","lat":"31.22633","category":"122","category_name":"个人用品/化妆品店","address":"静安区威海路674号(近茂名北路)"},{"poiid":"B2094752D06CA4FD469D","title":"帅锅","lon":"121.457995","lat":"31.226303","category":"247","category_name":"餐饮美食","address":"威海路720号"},{"poiid":"B2094757D069A0FA419F","title":"汤福记","lon":"121.45697321954","lat":"31.225414351802","category":"68","category_name":"快餐厅","address":"静安区威海路737号(近陕西北路)"},{"poiid":"B2094757D165A2FB4793","title":"静安别墅93号","lon":"121.458829738","lat":"31.2273432386","category":"47","category_name":"住宅区","address":"上海南京西路1025号"},{"poiid":"B2094750D66DA6FE489E","title":"金钱豹国际自助餐厅","lon":"121.456871","lat":"31.225461","category":"247","category_name":"餐饮美食","address":null},{"poiid":"B2094757D068A7FD409B","title":"六佰碗","lon":"121.4604187","lat":"31.226131439","category":"68","category_name":"快餐厅","address":"静安区茂名北路148号(近威海路)"},{"poiid":"B2094757D06AA3F8499C","title":"梅龙镇8楼美国领馆驻上海办事处","lon":"121.45987473","lat":"31.226206214","category":"500","category_name":"未知分类","address":"上海市静安区陕西北路"},{"poiid":"B2094751D26BA4FD4699","title":"蜀公馆","lon":"121.4591684","lat":"31.2252296","category":"247","category_name":"餐饮美食","address":"淮海中路776号"},{"poiid":"B2094753D76EAAFE4098","title":"Brotzeit German Beir Bar","lon":"121.456825","lat":"31.226177","category":"500","category_name":"未知分类","address":"上海市 靜安區南京中路金鷹購物中心"},{"poiid":"B2094757D16CA5F4409F","title":"Lynn","lon":"121.45701599","lat":"31.226791381","category":"500","category_name":"未知分类","address":"上海西康路 99-1"},{"poiid":"B2094751D265A6F44199","title":"Rani Curry","lon":"121.45826","lat":"31.22758","category":"102","category_name":"印度风味","address":"静安区南京西路1025弄静安别墅120号1楼(梅龙镇伊势丹对面)"},{"poiid":"B2094757D16CA0FD469C","title":"文汇新民集团","lon":"121.457444","lat":"31.225181","category":"46","category_name":"楼宇","address":"上海威海路755号"},{"poiid":"B2094757D068A4FF419C","title":"梅陇镇广场","lon":"121.456631071","lat":"31.2264992206","category":"119","category_name":"商场","address":"松江区荣乐东路1133弄"},{"poiid":"B2094757D06FA3F44898","title":"甜蜜蜜(南京西路店)","lon":"121.45788","lat":"31.22816","category":"67","category_name":"甜品店","address":"静安区南京西路1001号凯司令2楼(梅龙镇广场斜对面)"},{"poiid":"B2094757D06FA6F44693","title":"哈根达斯(梅龙镇店)","lon":"121.45737","lat":"31.22847","category":"113","category_name":"冷饮店","address":"静安区南京西路1038号梅龙镇广场1楼109C-D(近江宁路)"},{"poiid":"B2094753D76FAAFA449C","title":"上海滩国泰旗舰店","lon":"121.466011","lat":"31.216125","category":"249","category_name":"购物服务","address":"淮海中路868号"},{"poiid":"B209475CD564A7F84292","title":"上海滩新天地店","lon":"121.47463","lat":"31.22164","category":"119","category_name":"商场","address":"\"太仓路181弄新天地北里15号\r\n\""},{"poiid":"B209475CD564A7F8439E","title":"上海滩中信泰富店","lon":"121.45602","lat":"31.22851","category":"119","category_name":"商场","address":"\"南京西路1168号中信泰富广场，店铺号221.\r\n\""},{"poiid":"B2094757D16FA7FD459E","title":"小杨生煎","lon":"121.45825073","lat":"31.225055189","category":"247","category_name":"餐饮美食","address":"静安区南京西路"},{"poiid":"B2094757D16FA1F4419B","title":"品川(恒隆店)","lon":"121.45439","lat":"31.22758","category":"71","category_name":"四川菜","address":"静安区南京西路1266号恒隆广场5楼(近陕西北路)"},{"poiid":"B2094757D06FA2F5409F","title":"弄堂小馄饨","lon":"121.45834","lat":"31.22876","category":"68","category_name":"快餐厅","address":"静安区南京西路1025弄静安别墅107号(近茂名北路)"},{"poiid":"B2094757D06FA7FC439D","title":"美新点心店","lon":"121.45626446","lat":"31.22563169","category":"68","category_name":"快餐厅","address":"静安区陕西北路105号(近威海路)"},{"poiid":"B2094757D069A2FC439B","title":"稻•绿洲泰国时尚餐厅","lon":"121.45864873","lat":"31.228559264","category":"99","category_name":"泰国／越南菜品餐厅","address":"上海市静安区茂名北路吴江路269号皇普汇1楼"},{"poiid":"B2094654DA6CA1FA489C","title":"上海民主党派大厦","lon":"121.45629","lat":"31.22603","category":"46","category_name":"楼宇","address":"上海市静安区陕西北路128号"},{"poiid":"B2094757D06FA2FD499E","title":"gz cafe","lon":"121.458061218","lat":"31.2260665894","category":"130","category_name":"礼品饰品店","address":"静安区南京西路1025弄静安别墅162号(近江宁路)"},{"poiid":"B2094757D06EAAF9489F","title":"宗祠 KIN","lon":"121.45915473","lat":"31.225732204","category":"67","category_name":"甜品店","address":"静安区茂名北路65号103(近延安中路)"},{"poiid":"B2094757D66CA0F4489E","title":"静安小亭","lon":"121.45834573","lat":"31.225122191","category":"500","category_name":"未知分类","address":"上海市静安区南京西路"},{"poiid":"B2094757D06FA0F5429B","title":"沈坚强游泳俱乐部(威海路店)","lon":"121.45899","lat":"31.22599","category":"220","category_name":"运动场所","address":"静安区威海路681号(近茂名北路)"},{"poiid":"B2094757D06FA6FE439F","title":"2666图书馆","lon":"121.45823373","lat":"31.226929229","category":"181","category_name":"图书馆","address":"静安区南京西路1025弄静安别墅136号(近梅龙镇伊势丹)"},{"poiid":"B2094757D168AAF5499F","title":"伊秀寿司","lon":"121.45819373","lat":"31.224303173","category":"247","category_name":"餐饮美食","address":"上海市静安区南京西路"},{"poiid":"B2094757D06FA0FE4599","title":"寿司处武贞(梅龙镇店)","lon":"121.45699","lat":"31.22835","category":"95","category_name":"日本料理","address":"上海静安区南京西路1038号梅龙镇广场B1楼  "},{"poiid":"B2094654DA6CA1F4499C","title":"文汇新民联合报业集团","lon":"121.45748","lat":"31.22553","category":"61","category_name":"报社","address":"威海路755-757号文新报业大厦"},{"poiid":"B2094757D06BA5F9459C","title":"申汇轩(陕西北路店)","lon":"121.45674","lat":"31.22552","category":"76","category_name":"上海菜","address":"静安区陕西北路128号民主党派大厦裙楼1-2楼(近威海路)"},{"poiid":"B2094757D06FA7F54693","title":"Cafe Specchi","lon":"121.45730106","lat":"31.225408997","category":"65","category_name":"咖啡厅","address":"上海静安区南京西路1266号恒隆广场1F(近陕西北路)  "},{"poiid":"B2094757D064A2F94492","title":"茂名北路威海路","lon":"121.46008673","lat":"31.227478241","category":"260","category_name":"其他","address":"上海茂名北路威海路"},{"poiid":"B2094757D06FA0F9419C","title":"旋转黑糖冰","lon":"121.45781","lat":"31.22573","category":"113","category_name":"冷饮店","address":"静安区威海路708号(近陕西北路)"},{"poiid":"B2094752D665A0FE449E","title":"点点心","lon":"121.457295","lat":"31.227772","category":"247","category_name":"餐饮美食","address":"南京西路889号2楼"},{"poiid":"B2094757D064A5F8419D","title":"森下创作料理","lon":"121.456423738","lat":"31.2258492067","category":"76","category_name":"上海菜","address":"静安区南京西路1025弄静安别墅123号(近吴江路)"},{"poiid":"B2094757D06FA0FA4198","title":"Vale 192","lon":"121.45883373","lat":"31.226695224","category":"94","category_name":"西餐厅","address":"静安区南京西路1025弄静安别墅192号(近茂名北路)"},{"poiid":"B2094654D564ABFF4192","title":"巨富大厦","lon":"121.45722681438","lat":"31.226610095807","category":"46","category_name":"楼宇","address":"越秀区环市东路362-366号"},{"poiid":"B2094757D065A6FD429F","title":"2号线南京西路站","lon":"121.458881738","lat":"31.2285002632","category":"500","category_name":"未知分类","address":"上海市静安区南京西路"},{"poiid":"B2094757D06BA3F54492","title":"Godiva(梅龙镇广场店)","lon":"121.45701","lat":"31.22834","category":"67","category_name":"甜品店","address":"静安区南京西路1038号梅龙镇广场1楼3号商铺(近江宁路)"},{"poiid":"B2094757D06FABFC449C","title":"恒隆尚渝","lon":"121.45453","lat":"31.22724","category":"91","category_name":"台湾菜","address":"静安区南京西路1266号恒隆广场5楼510铺(近陕西北路)"},{"poiid":"B2094757D06BA5FA409B","title":"恒隆广场停车场","lon":"121.45838165","lat":"31.225849151","category":"260","category_name":"其他","address":"上海静安区南京西路1266号(近陕西北路) "},{"poiid":"B2094757D068ABF9479F","title":"上海第二工业大学(静安分校)","lon":"121.45706","lat":"31.22502","category":"52","category_name":"高等院校","address":"静安区陕西北路80号(威海路口)"},{"poiid":"B2094752D36DA3FC479A","title":"夏布洛尔咖啡馆","lon":"121.45848332051","lat":"31.227573760046","category":"65","category_name":"咖啡厅","address":"南京西路1025弄静安别墅93号底楼"},{"poiid":"B2094757D16CA3FC439E","title":"sweet season思维季节","lon":"121.45831673","lat":"31.227850249","category":"65","category_name":"咖啡厅","address":"静安区南京西路1025弄静安别墅67号(近梅陇镇广场)"},{"poiid":"B2094750D26FA4FE429B","title":"starbucks","lon":"121.456367","lat":"31.225322","category":"247","category_name":"餐饮美食","address":"中兴泰富"},{"poiid":"B2094757D06AA5F9499A","title":"波特曼嘉丽Table自助餐厅","lon":"121.45688829","lat":"31.224855074","category":"500","category_name":"未知分类","address":"上海商城"},{"poiid":"B2094654DA6CA1F44692","title":"上海毛泽东旧居","lon":"121.46047","lat":"31.22611","category":"243","category_name":"纪念馆","address":"静安区茂名北路120弄5-9号"},{"poiid":"B2094757D068A4FF479E","title":"埃洛美甲(威海店)","lon":"121.45928","lat":"31.22633","category":"122","category_name":"个人用品/化妆品店","address":"静安区威海路674号(近茂名北路)"},{"poiid":"B2094752D06CA4FD469D","title":"帅锅","lon":"121.457995","lat":"31.226303","category":"247","category_name":"餐饮美食","address":"威海路720号"},{"poiid":"B2094757D069A0FA419F","title":"汤福记","lon":"121.45697321954","lat":"31.225414351802","category":"68","category_name":"快餐厅","address":"静安区威海路737号(近陕西北路)"},{"poiid":"B2094757D165A2FB4793","title":"静安别墅93号","lon":"121.458829738","lat":"31.2273432386","category":"47","category_name":"住宅区","address":"上海南京西路1025号"},{"poiid":"B2094750D66DA6FE489E","title":"金钱豹国际自助餐厅","lon":"121.456871","lat":"31.225461","category":"247","category_name":"餐饮美食","address":null},{"poiid":"B2094757D068A7FD409B","title":"六佰碗","lon":"121.4604187","lat":"31.226131439","category":"68","category_name":"快餐厅","address":"静安区茂名北路148号(近威海路)"},{"poiid":"B2094757D06AA3F8499C","title":"梅龙镇8楼美国领馆驻上海办事处","lon":"121.45987473","lat":"31.226206214","category":"500","category_name":"未知分类","address":"上海市静安区陕西北路"},{"poiid":"B2094751D26BA4FD4699","title":"蜀公馆","lon":"121.4591684","lat":"31.2252296","category":"247","category_name":"餐饮美食","address":"淮海中路776号"},{"poiid":"B2094753D76EAAFE4098","title":"Brotzeit German Beir Bar","lon":"121.456825","lat":"31.226177","category":"500","category_name":"未知分类","address":"上海市 靜安區南京中路金鷹購物中心"},{"poiid":"B2094757D16CA5F4409F","title":"Lynn","lon":"121.45701599","lat":"31.226791381","category":"500","category_name":"未知分类","address":"上海西康路 99-1"},{"poiid":"B2094751D265A6F44199","title":"Rani Curry","lon":"121.45826","lat":"31.22758","category":"102","category_name":"印度风味","address":"静安区南京西路1025弄静安别墅120号1楼(梅龙镇伊势丹对面)"},{"poiid":"B2094757D16CA0FD469C","title":"文汇新民集团","lon":"121.457444","lat":"31.225181","category":"46","category_name":"楼宇","address":"上海威海路755号"},{"poiid":"B2094757D068A4FF419C","title":"梅陇镇广场","lon":"121.456631071","lat":"31.2264992206","category":"119","category_name":"商场","address":"松江区荣乐东路1133弄"},{"poiid":"B2094757D06FA3F44898","title":"甜蜜蜜(南京西路店)","lon":"121.45788","lat":"31.22816","category":"67","category_name":"甜品店","address":"静安区南京西路1001号凯司令2楼(梅龙镇广场斜对面)"},{"poiid":"B2094757D06FA6F44693","title":"哈根达斯(梅龙镇店)","lon":"121.45737","lat":"31.22847","category":"113","category_name":"冷饮店","address":"静安区南京西路1038号梅龙镇广场1楼109C-D(近江宁路)"},{"poiid":"B2094753D76FAAFA449C","title":"上海滩国泰旗舰店","lon":"121.466011","lat":"31.216125","category":"249","category_name":"购物服务","address":"淮海中路868号"},{"poiid":"B209475CD564A7F84292","title":"上海滩新天地店","lon":"121.47463","lat":"31.22164","category":"119","category_name":"商场","address":"\"太仓路181弄新天地北里15号\r\n\""},{"poiid":"B209475CD564A7F8439E","title":"上海滩中信泰富店","lon":"121.45602","lat":"31.22851","category":"119","category_name":"商场","address":"\"南京西路1168号中信泰富广场，店铺号221.\r\n\""},{"poiid":"B2094757D16FA7FD459E","title":"小杨生煎","lon":"121.45825073","lat":"31.225055189","category":"247","category_name":"餐饮美食","address":"静安区南京西路"},{"poiid":"B2094757D16FA1F4419B","title":"品川(恒隆店)","lon":"121.45439","lat":"31.22758","category":"71","category_name":"四川菜","address":"静安区南京西路1266号恒隆广场5楼(近陕西北路)"},{"poiid":"B2094757D06FA2F5409F","title":"弄堂小馄饨","lon":"121.45834","lat":"31.22876","category":"68","category_name":"快餐厅","address":"静安区南京西路1025弄静安别墅107号(近茂名北路)"},{"poiid":"B2094757D06FA7FC439D","title":"美新点心店","lon":"121.45626446","lat":"31.22563169","category":"68","category_name":"快餐厅","address":"静安区陕西北路105号(近威海路)"},{"poiid":"B2094757D069A2FC439B","title":"稻•绿洲泰国时尚餐厅","lon":"121.45864873","lat":"31.228559264","category":"99","category_name":"泰国／越南菜品餐厅","address":"上海市静安区茂名北路吴江路269号皇普汇1楼"},{"poiid":"B2094654DA6CA1FA489C","title":"上海民主党派大厦","lon":"121.45629","lat":"31.22603","category":"46","category_name":"楼宇","address":"上海市静安区陕西北路128号"},{"poiid":"B2094757D06FA2FD499E","title":"gz cafe","lon":"121.458061218","lat":"31.2260665894","category":"130","category_name":"礼品饰品店","address":"静安区南京西路1025弄静安别墅162号(近江宁路)"},{"poiid":"B2094757D06EAAF9489F","title":"宗祠 KIN","lon":"121.45915473","lat":"31.225732204","category":"67","category_name":"甜品店","address":"静安区茂名北路65号103(近延安中路)"},{"poiid":"B2094757D66CA0F4489E","title":"静安小亭","lon":"121.45834573","lat":"31.225122191","category":"500","category_name":"未知分类","address":"上海市静安区南京西路"},{"poiid":"B2094757D06FA0F5429B","title":"沈坚强游泳俱乐部(威海路店)","lon":"121.45899","lat":"31.22599","category":"220","category_name":"运动场所","address":"静安区威海路681号(近茂名北路)"},{"poiid":"B2094757D06FA6FE439F","title":"2666图书馆","lon":"121.45823373","lat":"31.226929229","category":"181","category_name":"图书馆","address":"静安区南京西路1025弄静安别墅136号(近梅龙镇伊势丹)"},{"poiid":"B2094757D168AAF5499F","title":"伊秀寿司","lon":"121.45819373","lat":"31.224303173","category":"247","category_name":"餐饮美食","address":"上海市静安区南京西路"},{"poiid":"B2094757D06FA0FE4599","title":"寿司处武贞(梅龙镇店)","lon":"121.45699","lat":"31.22835","category":"95","category_name":"日本料理","address":"上海静安区南京西路1038号梅龙镇广场B1楼  "},{"poiid":"B2094654DA6CA1F4499C","title":"文汇新民联合报业集团","lon":"121.45748","lat":"31.22553","category":"61","category_name":"报社","address":"威海路755-757号文新报业大厦"},{"poiid":"B2094757D06BA5F9459C","title":"申汇轩(陕西北路店)","lon":"121.45674","lat":"31.22552","category":"76","category_name":"上海菜","address":"静安区陕西北路128号民主党派大厦裙楼1-2楼(近威海路)"},{"poiid":"B2094757D06FA7F54693","title":"Cafe Specchi","lon":"121.45730106","lat":"31.225408997","category":"65","category_name":"咖啡厅","address":"上海静安区南京西路1266号恒隆广场1F(近陕西北路)  "},{"poiid":"B2094757D064A2F94492","title":"茂名北路威海路","lon":"121.46008673","lat":"31.227478241","category":"260","category_name":"其他","address":"上海茂名北路威海路"},{"poiid":"B2094757D06FA0F9419C","title":"旋转黑糖冰","lon":"121.45781","lat":"31.22573","category":"113","category_name":"冷饮店","address":"静安区威海路708号(近陕西北路)"},{"poiid":"B2094752D665A0FE449E","title":"点点心","lon":"121.457295","lat":"31.227772","category":"247","category_name":"餐饮美食","address":"南京西路889号2楼"},{"poiid":"B2094757D064A5F8419D","title":"森下创作料理","lon":"121.456423738","lat":"31.2258492067","category":"76","category_name":"上海菜","address":"静安区南京西路1025弄静安别墅123号(近吴江路)"},{"poiid":"B2094757D06FA0FA4198","title":"Vale 192","lon":"121.45883373","lat":"31.226695224","category":"94","category_name":"西餐厅","address":"静安区南京西路1025弄静安别墅192号(近茂名北路)"},{"poiid":"B2094654D564ABFF4192","title":"巨富大厦","lon":"121.45722681438","lat":"31.226610095807","category":"46","category_name":"楼宇","address":"越秀区环市东路362-366号"},{"poiid":"B2094757D065A6FD429F","title":"2号线南京西路站","lon":"121.458881738","lat":"31.2285002632","category":"500","category_name":"未知分类","address":"上海市静安区南京西路"},{"poiid":"B2094757D06BA3F54492","title":"Godiva(梅龙镇广场店)","lon":"121.45701","lat":"31.22834","category":"67","category_name":"甜品店","address":"静安区南京西路1038号梅龙镇广场1楼3号商铺(近江宁路)"},{"poiid":"B2094757D06FABFC449C","title":"恒隆尚渝","lon":"121.45453","lat":"31.22724","category":"91","category_name":"台湾菜","address":"静安区南京西路1266号恒隆广场5楼510铺(近陕西北路)"},{"poiid":"B2094757D06BA5FA409B","title":"恒隆广场停车场","lon":"121.45838165","lat":"31.225849151","category":"260","category_name":"其他","address":"上海静安区南京西路1266号(近陕西北路) "},{"poiid":"B2094757D068ABF9479F","title":"上海第二工业大学(静安分校)","lon":"121.45706","lat":"31.22502","category":"52","category_name":"高等院校","address":"静安区陕西北路80号(威海路口)"},{"poiid":"B2094752D36DA3FC479A","title":"夏布洛尔咖啡馆","lon":"121.45848332051","lat":"31.227573760046","category":"65","category_name":"咖啡厅","address":"南京西路1025弄静安别墅93号底楼"},{"poiid":"B2094757D16CA3FC439E","title":"sweet season思维季节","lon":"121.45831673","lat":"31.227850249","category":"65","category_name":"咖啡厅","address":"静安区南京西路1025弄静安别墅67号(近梅陇镇广场)"},{"poiid":"B2094750D26FA4FE429B","title":"starbucks","lon":"121.456367","lat":"31.225322","category":"247","category_name":"餐饮美食","address":"中兴泰富"},{"poiid":"B2094757D06AA5F9499A","title":"波特曼嘉丽Table自助餐厅","lon":"121.45688829","lat":"31.224855074","category":"500","category_name":"未知分类","address":"上海商城"},{"poiid":"B2094654DA6CA1F44692","title":"上海毛泽东旧居","lon":"121.46047","lat":"31.22611","category":"243","category_name":"纪念馆","address":"静安区茂名北路120弄5-9号"},{"poiid":"B2094757D068A4FF479E","title":"埃洛美甲(威海店)","lon":"121.45928","lat":"31.22633","category":"122","category_name":"个人用品/化妆品店","address":"静安区威海路674号(近茂名北路)"},{"poiid":"B2094752D06CA4FD469D","title":"帅锅","lon":"121.457995","lat":"31.226303","category":"247","category_name":"餐饮美食","address":"威海路720号"},{"poiid":"B2094757D069A0FA419F","title":"汤福记","lon":"121.45697321954","lat":"31.225414351802","category":"68","category_name":"快餐厅","address":"静安区威海路737号(近陕西北路)"},{"poiid":"B2094757D165A2FB4793","title":"静安别墅93号","lon":"121.458829738","lat":"31.2273432386","category":"47","category_name":"住宅区","address":"上海南京西路1025号"},{"poiid":"B2094750D66DA6FE489E","title":"金钱豹国际自助餐厅","lon":"121.456871","lat":"31.225461","category":"247","category_name":"餐饮美食","address":null},{"poiid":"B2094757D068A7FD409B","title":"六佰碗","lon":"121.4604187","lat":"31.226131439","category":"68","category_name":"快餐厅","address":"静安区茂名北路148号(近威海路)"},{"poiid":"B2094757D06AA3F8499C","title":"梅龙镇8楼美国领馆驻上海办事处","lon":"121.45987473","lat":"31.226206214","category":"500","category_name":"未知分类","address":"上海市静安区陕西北路"},{"poiid":"B2094751D26BA4FD4699","title":"蜀公馆","lon":"121.4591684","lat":"31.2252296","category":"247","category_name":"餐饮美食","address":"淮海中路776号"},{"poiid":"B2094753D76EAAFE4098","title":"Brotzeit German Beir Bar","lon":"121.456825","lat":"31.226177","category":"500","category_name":"未知分类","address":"上海市 靜安區南京中路金鷹購物中心"},{"poiid":"B2094757D16CA5F4409F","title":"Lynn","lon":"121.45701599","lat":"31.226791381","category":"500","category_name":"未知分类","address":"上海西康路 99-1"},{"poiid":"B2094751D265A6F44199","title":"Rani Curry","lon":"121.45826","lat":"31.22758","category":"102","category_name":"印度风味","address":"静安区南京西路1025弄静安别墅120号1楼(梅龙镇伊势丹对面)"},{"poiid":"B2094757D16CA0FD469C","title":"文汇新民集团","lon":"121.457444","lat":"31.225181","category":"46","category_name":"楼宇","address":"上海威海路755号"},{"poiid":"B2094757D068A4FF419C","title":"梅陇镇广场","lon":"121.456631071","lat":"31.2264992206","category":"119","category_name":"商场","address":"松江区荣乐东路1133弄"},{"poiid":"B2094757D06FA3F44898","title":"甜蜜蜜(南京西路店)","lon":"121.45788","lat":"31.22816","category":"67","category_name":"甜品店","address":"静安区南京西路1001号凯司令2楼(梅龙镇广场斜对面)"},{"poiid":"B2094757D06FA6F44693","title":"哈根达斯(梅龙镇店)","lon":"121.45737","lat":"31.22847","category":"113","category_name":"冷饮店","address":"静安区南京西路1038号梅龙镇广场1楼109C-D(近江宁路)"},{"poiid":"B2094753D76FAAFA449C","title":"上海滩国泰旗舰店","lon":"121.466011","lat":"31.216125","category":"249","category_name":"购物服务","address":"淮海中路868号"},{"poiid":"B209475CD564A7F84292","title":"上海滩新天地店","lon":"121.47463","lat":"31.22164","category":"119","category_name":"商场","address":"\"太仓路181弄新天地北里15号\r\n\""},{"poiid":"B209475CD564A7F8439E","title":"上海滩中信泰富店","lon":"121.45602","lat":"31.22851","category":"119","category_name":"商场","address":"\"南京西路1168号中信泰富广场，店铺号221.\r\n\""},{"poiid":"B2094757D16FA7FD459E","title":"小杨生煎","lon":"121.45825073","lat":"31.225055189","category":"247","category_name":"餐饮美食","address":"静安区南京西路"},{"poiid":"B2094757D16FA1F4419B","title":"品川(恒隆店)","lon":"121.45439","lat":"31.22758","category":"71","category_name":"四川菜","address":"静安区南京西路1266号恒隆广场5楼(近陕西北路)"},{"poiid":"B2094757D06FA2F5409F","title":"弄堂小馄饨","lon":"121.45834","lat":"31.22876","category":"68","category_name":"快餐厅","address":"静安区南京西路1025弄静安别墅107号(近茂名北路)"},{"poiid":"B2094757D06FA7FC439D","title":"美新点心店","lon":"121.45626446","lat":"31.22563169","category":"68","category_name":"快餐厅","address":"静安区陕西北路105号(近威海路)"},{"poiid":"B2094757D069A2FC439B","title":"稻•绿洲泰国时尚餐厅","lon":"121.45864873","lat":"31.228559264","category":"99","category_name":"泰国／越南菜品餐厅","address":"上海市静安区茂名北路吴江路269号皇普汇1楼"},{"poiid":"B2094654DA6CA1FA489C","title":"上海民主党派大厦","lon":"121.45629","lat":"31.22603","category":"46","category_name":"楼宇","address":"上海市静安区陕西北路128号"},{"poiid":"B2094757D06FA2FD499E","title":"gz cafe","lon":"121.458061218","lat":"31.2260665894","category":"130","category_name":"礼品饰品店","address":"静安区南京西路1025弄静安别墅162号(近江宁路)"},{"poiid":"B2094757D06EAAF9489F","title":"宗祠 KIN","lon":"121.45915473","lat":"31.225732204","category":"67","category_name":"甜品店","address":"静安区茂名北路65号103(近延安中路)"},{"poiid":"B2094757D66CA0F4489E","title":"静安小亭","lon":"121.45834573","lat":"31.225122191","category":"500","category_name":"未知分类","address":"上海市静安区南京西路"},{"poiid":"B2094757D06FA0F5429B","title":"沈坚强游泳俱乐部(威海路店)","lon":"121.45899","lat":"31.22599","category":"220","category_name":"运动场所","address":"静安区威海路681号(近茂名北路)"},{"poiid":"B2094757D06FA6FE439F","title":"2666图书馆","lon":"121.45823373","lat":"31.226929229","category":"181","category_name":"图书馆","address":"静安区南京西路1025弄静安别墅136号(近梅龙镇伊势丹)"},{"poiid":"B2094757D168AAF5499F","title":"伊秀寿司","lon":"121.45819373","lat":"31.224303173","category":"247","category_name":"餐饮美食","address":"上海市静安区南京西路"},{"poiid":"B2094757D06FA0FE4599","title":"寿司处武贞(梅龙镇店)","lon":"121.45699","lat":"31.22835","category":"95","category_name":"日本料理","address":"上海静安区南京西路1038号梅龙镇广场B1楼  "},{"poiid":"B2094654DA6CA1F4499C","title":"文汇新民联合报业集团","lon":"121.45748","lat":"31.22553","category":"61","category_name":"报社","address":"威海路755-757号文新报业大厦"},{"poiid":"B2094757D06BA5F9459C","title":"申汇轩(陕西北路店)","lon":"121.45674","lat":"31.22552","category":"76","category_name":"上海菜","address":"静安区陕西北路128号民主党派大厦裙楼1-2楼(近威海路)"},{"poiid":"B2094757D06FA7F54693","title":"Cafe Specchi","lon":"121.45730106","lat":"31.225408997","category":"65","category_name":"咖啡厅","address":"上海静安区南京西路1266号恒隆广场1F(近陕西北路)  "},{"poiid":"B2094757D064A2F94492","title":"茂名北路威海路","lon":"121.46008673","lat":"31.227478241","category":"260","category_name":"其他","address":"上海茂名北路威海路"},{"poiid":"B2094757D06FA0F9419C","title":"旋转黑糖冰","lon":"121.45781","lat":"31.22573","category":"113","category_name":"冷饮店","address":"静安区威海路708号(近陕西北路)"},{"poiid":"B2094752D665A0FE449E","title":"点点心","lon":"121.457295","lat":"31.227772","category":"247","category_name":"餐饮美食","address":"南京西路889号2楼"},{"poiid":"B2094757D064A5F8419D","title":"森下创作料理","lon":"121.456423738","lat":"31.2258492067","category":"76","category_name":"上海菜","address":"静安区南京西路1025弄静安别墅123号(近吴江路)"},{"poiid":"B2094757D06FA0FA4198","title":"Vale 192","lon":"121.45883373","lat":"31.226695224","category":"94","category_name":"西餐厅","address":"静安区南京西路1025弄静安别墅192号(近茂名北路)"},{"poiid":"B2094654D564ABFF4192","title":"巨富大厦","lon":"121.45722681438","lat":"31.226610095807","category":"46","category_name":"楼宇","address":"越秀区环市东路362-366号"},{"poiid":"B2094757D065A6FD429F","title":"2号线南京西路站","lon":"121.458881738","lat":"31.2285002632","category":"500","category_name":"未知分类","address":"上海市静安区南京西路"},{"poiid":"B2094757D06BA3F54492","title":"Godiva(梅龙镇广场店)","lon":"121.45701","lat":"31.22834","category":"67","category_name":"甜品店","address":"静安区南京西路1038号梅龙镇广场1楼3号商铺(近江宁路)"},{"poiid":"B2094757D06FABFC449C","title":"恒隆尚渝","lon":"121.45453","lat":"31.22724","category":"91","category_name":"台湾菜","address":"静安区南京西路1266号恒隆广场5楼510铺(近陕西北路)"},{"poiid":"B2094757D06BA5FA409B","title":"恒隆广场停车场","lon":"121.45838165","lat":"31.225849151","category":"260","category_name":"其他","address":"上海静安区南京西路1266号(近陕西北路) "},{"poiid":"B2094757D068ABF9479F","title":"上海第二工业大学(静安分校)","lon":"121.45706","lat":"31.22502","category":"52","category_name":"高等院校","address":"静安区陕西北路80号(威海路口)"},{"poiid":"B2094752D36DA3FC479A","title":"夏布洛尔咖啡馆","lon":"121.45848332051","lat":"31.227573760046","category":"65","category_name":"咖啡厅","address":"南京西路1025弄静安别墅93号底楼"},{"poiid":"B2094757D16CA3FC439E","title":"sweet season思维季节","lon":"121.45831673","lat":"31.227850249","category":"65","category_name":"咖啡厅","address":"静安区南京西路1025弄静安别墅67号(近梅陇镇广场)"},{"poiid":"B2094750D26FA4FE429B","title":"starbucks","lon":"121.456367","lat":"31.225322","category":"247","category_name":"餐饮美食","address":"中兴泰富"},{"poiid":"B2094757D06AA5F9499A","title":"波特曼嘉丽Table自助餐厅","lon":"121.45688829","lat":"31.224855074","category":"500","category_name":"未知分类","address":"上海商城"},{"poiid":"B2094654DA6CA1F44692","title":"上海毛泽东旧居","lon":"121.46047","lat":"31.22611","category":"243","category_name":"纪念馆","address":"静安区茂名北路120弄5-9号"},{"poiid":"B2094757D068A4FF479E","title":"埃洛美甲(威海店)","lon":"121.45928","lat":"31.22633","category":"122","category_name":"个人用品/化妆品店","address":"静安区威海路674号(近茂名北路)"},{"poiid":"B2094752D06CA4FD469D","title":"帅锅","lon":"121.457995","lat":"31.226303","category":"247","category_name":"餐饮美食","address":"威海路720号"},{"poiid":"B2094757D069A0FA419F","title":"汤福记","lon":"121.45697321954","lat":"31.225414351802","category":"68","category_name":"快餐厅","address":"静安区威海路737号(近陕西北路)"},{"poiid":"B2094757D165A2FB4793","title":"静安别墅93号","lon":"121.458829738","lat":"31.2273432386","category":"47","category_name":"住宅区","address":"上海南京西路1025号"},{"poiid":"B2094750D66DA6FE489E","title":"金钱豹国际自助餐厅","lon":"121.456871","lat":"31.225461","category":"247","category_name":"餐饮美食","address":null},{"poiid":"B2094757D068A7FD409B","title":"六佰碗","lon":"121.4604187","lat":"31.226131439","category":"68","category_name":"快餐厅","address":"静安区茂名北路148号(近威海路)"},{"poiid":"B2094757D06AA3F8499C","title":"梅龙镇8楼美国领馆驻上海办事处","lon":"121.45987473","lat":"31.226206214","category":"500","category_name":"未知分类","address":"上海市静安区陕西北路"},{"poiid":"B2094751D26BA4FD4699","title":"蜀公馆","lon":"121.4591684","lat":"31.2252296","category":"247","category_name":"餐饮美食","address":"淮海中路776号"},{"poiid":"B2094753D76EAAFE4098","title":"Brotzeit German Beir Bar","lon":"121.456825","lat":"31.226177","category":"500","category_name":"未知分类","address":"上海市 靜安區南京中路金鷹購物中心"},{"poiid":"B2094757D16CA5F4409F","title":"Lynn","lon":"121.45701599","lat":"31.226791381","category":"500","category_name":"未知分类","address":"上海西康路 99-1"},{"poiid":"B2094751D265A6F44199","title":"Rani Curry","lon":"121.45826","lat":"31.22758","category":"102","category_name":"印度风味","address":"静安区南京西路1025弄静安别墅120号1楼(梅龙镇伊势丹对面)"},{"poiid":"B2094757D16CA0FD469C","title":"文汇新民集团","lon":"121.457444","lat":"31.225181","category":"46","category_name":"楼宇","address":"上海威海路755号"},{"poiid":"B2094757D068A4FF419C","title":"梅陇镇广场","lon":"121.456631071","lat":"31.2264992206","category":"119","category_name":"商场","address":"松江区荣乐东路1133弄"},{"poiid":"B2094757D06FA3F44898","title":"甜蜜蜜(南京西路店)","lon":"121.45788","lat":"31.22816","category":"67","category_name":"甜品店","address":"静安区南京西路1001号凯司令2楼(梅龙镇广场斜对面)"},{"poiid":"B2094757D06FA6F44693","title":"哈根达斯(梅龙镇店)","lon":"121.45737","lat":"31.22847","category":"113","category_name":"冷饮店","address":"静安区南京西路1038号梅龙镇广场1楼109C-D(近江宁路)"},{"poiid":"B2094753D76FAAFA449C","title":"上海滩国泰旗舰店","lon":"121.466011","lat":"31.216125","category":"249","category_name":"购物服务","address":"淮海中路868号"},{"poiid":"B209475CD564A7F84292","title":"上海滩新天地店","lon":"121.47463","lat":"31.22164","category":"119","category_name":"商场","address":"\"太仓路181弄新天地北里15号\r\n\""},{"poiid":"B209475CD564A7F8439E","title":"上海滩中信泰富店","lon":"121.45602","lat":"31.22851","category":"119","category_name":"商场","address":"\"南京西路1168号中信泰富广场，店铺号221.\r\n\""},{"poiid":"B2094757D16FA7FD459E","title":"小杨生煎","lon":"121.45825073","lat":"31.225055189","category":"247","category_name":"餐饮美食","address":"静安区南京西路"},{"poiid":"B2094757D16FA1F4419B","title":"品川(恒隆店)","lon":"121.45439","lat":"31.22758","category":"71","category_name":"四川菜","address":"静安区南京西路1266号恒隆广场5楼(近陕西北路)"},{"poiid":"B2094757D06FA2F5409F","title":"弄堂小馄饨","lon":"121.45834","lat":"31.22876","category":"68","category_name":"快餐厅","address":"静安区南京西路1025弄静安别墅107号(近茂名北路)"},{"poiid":"B2094757D06FA7FC439D","title":"美新点心店","lon":"121.45626446","lat":"31.22563169","category":"68","category_name":"快餐厅","address":"静安区陕西北路105号(近威海路)"},{"poiid":"B2094757D069A2FC439B","title":"稻•绿洲泰国时尚餐厅","lon":"121.45864873","lat":"31.228559264","category":"99","category_name":"泰国／越南菜品餐厅","address":"上海市静安区茂名北路吴江路269号皇普汇1楼"},{"poiid":"B2094654DA6CA1FA489C","title":"上海民主党派大厦","lon":"121.45629","lat":"31.22603","category":"46","category_name":"楼宇","address":"上海市静安区陕西北路128号"},{"poiid":"B2094757D06FA2FD499E","title":"gz cafe","lon":"121.458061218","lat":"31.2260665894","category":"130","category_name":"礼品饰品店","address":"静安区南京西路1025弄静安别墅162号(近江宁路)"},{"poiid":"B2094757D06EAAF9489F","title":"宗祠 KIN","lon":"121.45915473","lat":"31.225732204","category":"67","category_name":"甜品店","address":"静安区茂名北路65号103(近延安中路)"},{"poiid":"B2094757D66CA0F4489E","title":"静安小亭","lon":"121.45834573","lat":"31.225122191","category":"500","category_name":"未知分类","address":"上海市静安区南京西路"},{"poiid":"B2094757D06FA0F5429B","title":"沈坚强游泳俱乐部(威海路店)","lon":"121.45899","lat":"31.22599","category":"220","category_name":"运动场所","address":"静安区威海路681号(近茂名北路)"},{"poiid":"B2094757D06FA6FE439F","title":"2666图书馆","lon":"121.45823373","lat":"31.226929229","category":"181","category_name":"图书馆","address":"静安区南京西路1025弄静安别墅136号(近梅龙镇伊势丹)"},{"poiid":"B2094757D168AAF5499F","title":"伊秀寿司","lon":"121.45819373","lat":"31.224303173","category":"247","category_name":"餐饮美食","address":"上海市静安区南京西路"},{"poiid":"B2094757D06FA0FE4599","title":"寿司处武贞(梅龙镇店)","lon":"121.45699","lat":"31.22835","category":"95","category_name":"日本料理","address":"上海静安区南京西路1038号梅龙镇广场B1楼  "},{"poiid":"B2094654DA6CA1F4499C","title":"文汇新民联合报业集团","lon":"121.45748","lat":"31.22553","category":"61","category_name":"报社","address":"威海路755-757号文新报业大厦"},{"poiid":"B2094757D06BA5F9459C","title":"申汇轩(陕西北路店)","lon":"121.45674","lat":"31.22552","category":"76","category_name":"上海菜","address":"静安区陕西北路128号民主党派大厦裙楼1-2楼(近威海路)"},{"poiid":"B2094757D06FA7F54693","title":"Cafe Specchi","lon":"121.45730106","lat":"31.225408997","category":"65","category_name":"咖啡厅","address":"上海静安区南京西路1266号恒隆广场1F(近陕西北路)  "},{"poiid":"B2094757D064A2F94492","title":"茂名北路威海路","lon":"121.46008673","lat":"31.227478241","category":"260","category_name":"其他","address":"上海茂名北路威海路"},{"poiid":"B2094757D06FA0F9419C","title":"旋转黑糖冰","lon":"121.45781","lat":"31.22573","category":"113","category_name":"冷饮店","address":"静安区威海路708号(近陕西北路)"},{"poiid":"B2094752D665A0FE449E","title":"点点心","lon":"121.457295","lat":"31.227772","category":"247","category_name":"餐饮美食","address":"南京西路889号2楼"},{"poiid":"B2094757D064A5F8419D","title":"森下创作料理","lon":"121.456423738","lat":"31.2258492067","category":"76","category_name":"上海菜","address":"静安区南京西路1025弄静安别墅123号(近吴江路)"},{"poiid":"B2094757D06FA0FA4198","title":"Vale 192","lon":"121.45883373","lat":"31.226695224","category":"94","category_name":"西餐厅","address":"静安区南京西路1025弄静安别墅192号(近茂名北路)"},{"poiid":"B2094654D564ABFF4192","title":"巨富大厦","lon":"121.45722681438","lat":"31.226610095807","category":"46","category_name":"楼宇","address":"越秀区环市东路362-366号"},{"poiid":"B2094757D065A6FD429F","title":"2号线南京西路站","lon":"121.458881738","lat":"31.2285002632","category":"500","category_name":"未知分类","address":"上海市静安区南京西路"},{"poiid":"B2094757D06BA3F54492","title":"Godiva(梅龙镇广场店)","lon":"121.45701","lat":"31.22834","category":"67","category_name":"甜品店","address":"静安区南京西路1038号梅龙镇广场1楼3号商铺(近江宁路)"},{"poiid":"B2094757D06FABFC449C","title":"恒隆尚渝","lon":"121.45453","lat":"31.22724","category":"91","category_name":"台湾菜","address":"静安区南京西路1266号恒隆广场5楼510铺(近陕西北路)"},{"poiid":"B2094757D06BA5FA409B","title":"恒隆广场停车场","lon":"121.45838165","lat":"31.225849151","category":"260","category_name":"其他","address":"上海静安区南京西路1266号(近陕西北路) "},{"poiid":"B2094757D068ABF9479F","title":"上海第二工业大学(静安分校)","lon":"121.45706","lat":"31.22502","category":"52","category_name":"高等院校","address":"静安区陕西北路80号(威海路口)"},{"poiid":"B2094752D36DA3FC479A","title":"夏布洛尔咖啡馆","lon":"121.45848332051","lat":"31.227573760046","category":"65","category_name":"咖啡厅","address":"南京西路1025弄静安别墅93号底楼"},{"poiid":"B2094757D16CA3FC439E","title":"sweet season思维季节","lon":"121.45831673","lat":"31.227850249","category":"65","category_name":"咖啡厅","address":"静安区南京西路1025弄静安别墅67号(近梅陇镇广场)"},{"poiid":"B2094750D26FA4FE429B","title":"starbucks","lon":"121.456367","lat":"31.225322","category":"247","category_name":"餐饮美食","address":"中兴泰富"},{"poiid":"B2094757D06AA5F9499A","title":"波特曼嘉丽Table自助餐厅","lon":"121.45688829","lat":"31.224855074","category":"500","category_name":"未知分类","address":"上海商城"},{"poiid":"B2094654DA6CA1F44692","title":"上海毛泽东旧居","lon":"121.46047","lat":"31.22611","category":"243","category_name":"纪念馆","address":"静安区茂名北路120弄5-9号"},{"poiid":"B2094757D068A4FF479E","title":"埃洛美甲(威海店)","lon":"121.45928","lat":"31.22633","category":"122","category_name":"个人用品/化妆品店","address":"静安区威海路674号(近茂名北路)"},{"poiid":"B2094752D06CA4FD469D","title":"帅锅","lon":"121.457995","lat":"31.226303","category":"247","category_name":"餐饮美食","address":"威海路720号"},{"poiid":"B2094757D069A0FA419F","title":"汤福记","lon":"121.45697321954","lat":"31.225414351802","category":"68","category_name":"快餐厅","address":"静安区威海路737号(近陕西北路)"},{"poiid":"B2094757D165A2FB4793","title":"静安别墅93号","lon":"121.458829738","lat":"31.2273432386","category":"47","category_name":"住宅区","address":"上海南京西路1025号"},{"poiid":"B2094750D66DA6FE489E","title":"金钱豹国际自助餐厅","lon":"121.456871","lat":"31.225461","category":"247","category_name":"餐饮美食","address":null},{"poiid":"B2094757D068A7FD409B","title":"六佰碗","lon":"121.4604187","lat":"31.226131439","category":"68","category_name":"快餐厅","address":"静安区茂名北路148号(近威海路)"},{"poiid":"B2094757D06AA3F8499C","title":"梅龙镇8楼美国领馆驻上海办事处","lon":"121.45987473","lat":"31.226206214","category":"500","category_name":"未知分类","address":"上海市静安区陕西北路"},{"poiid":"B2094751D26BA4FD4699","title":"蜀公馆","lon":"121.4591684","lat":"31.2252296","category":"247","category_name":"餐饮美食","address":"淮海中路776号"},{"poiid":"B2094753D76EAAFE4098","title":"Brotzeit German Beir Bar","lon":"121.456825","lat":"31.226177","category":"500","category_name":"未知分类","address":"上海市 靜安區南京中路金鷹購物中心"},{"poiid":"B2094757D16CA5F4409F","title":"Lynn","lon":"121.45701599","lat":"31.226791381","category":"500","category_name":"未知分类","address":"上海西康路 99-1"},{"poiid":"B2094751D265A6F44199","title":"Rani Curry","lon":"121.45826","lat":"31.22758","category":"102","category_name":"印度风味","address":"静安区南京西路1025弄静安别墅120号1楼(梅龙镇伊势丹对面)"},{"poiid":"B2094757D16CA0FD469C","title":"文汇新民集团","lon":"121.457444","lat":"31.225181","category":"46","category_name":"楼宇","address":"上海威海路755号"}]