[{"poiid":"B2094757D168A4FC4098","title":"粤新餐厅","lon":"121.452995586","lat":"31.2370825651","category":"72","category_name":"广东菜","address":"静安区江宁路428号静安体育中心1楼(近艺海剧院)"},{"poiid":"B2094757D06FA2FA4199","title":"Anken Green's Warehouse Cafe","lon":"121.451865","lat":"31.240447","category":"94","category_name":"西餐厅","address":"上海静安区淮安路668号1楼近西苏州路"},{"poiid":"B2094757D16CA1FD4393","title":"星满天羽毛球馆","lon":"121.453606486","lat":"31.2396057145","category":"500","category_name":"未知分类","address":"静安区西苏州河路53号(近昌平路)"},{"poiid":"B2094753D76FAAFA449C","title":"上海滩国泰旗舰店","lon":"121.466011","lat":"31.216125","category":"249","category_name":"购物服务","address":"淮海中路868号"},{"poiid":"B209475CD564A7F84292","title":"上海滩新天地店","lon":"121.47463","lat":"31.22164","category":"119","category_name":"商场","address":"\"太仓路181弄新天地北里15号\r\n\""},{"poiid":"B209475CD564A7F8439E","title":"上海滩中信泰富店","lon":"121.45602","lat":"31.22851","category":"119","category_name":"商场","address":"\"南京西路1168号中信泰富广场，店铺号221.\r\n\""},{"poiid":"B2094654DA6CA5FA409F","title":"静安河滨花园","lon":"121.45119","lat":"31.241392","category":"47","category_name":"住宅区","address":"上海市闸北区汉中路333弄"},{"poiid":"B2094654DA6CA5F4409E","title":"帆顺海味馆","lon":"121.45532719303","lat":"31.237192665273","category":"76","category_name":"上海菜","address":"静安区康定路18号(泰兴路口)"},{"poiid":"B2094757D16FA0F84599","title":"多福苑","lon":"121.45427","lat":"31.23595","category":"96","category_name":"韩国料理","address":"静安区石门二路221号(近新闸路)"},{"poiid":"B2094655D26BA2FA449E","title":"泰兴路","lon":"121.45517","lat":"31.23698","category":"38","category_name":"公交车站","address":""},{"poiid":"B2094752D16EA2F5449F","title":"上海金钱豹大酒店","lon":"121.453438","lat":"31.238001","category":"247","category_name":"餐饮美食","address":"杨树浦路2866号时尚中心2号门10号楼"},{"poiid":"B2094655D265A7FB429C","title":"天鼎大厦","lon":"121.45327","lat":"31.24039","category":"46","category_name":"楼宇","address":"上海市静安区西苏州路65弄"},{"poiid":"B2094654DA6CA4F84599","title":"三乐新村","lon":"121.45129","lat":"31.238897","category":"47","category_name":"住宅区","address":"昌化路400弄2-4号"},{"poiid":"B2094655D265ABFC419D","title":"三乐小区(北门)","lon":"121.45172","lat":"31.23995","category":"47","category_name":"住宅区","address":"淮安路687弄2-34号"},{"poiid":"B2094655D26CABFF4899","title":"天鼎花园(三乐新村东北)","lon":"121.45195","lat":"31.23923","category":"47","category_name":"住宅区","address":"西苏州路65弄1-26号"},{"poiid":"B2094654DA6CA4F84192","title":"天鼎花园(侧门)","lon":"121.45327","lat":"31.24037","category":"47","category_name":"住宅区","address":"西苏州路65弄1-23号"},{"poiid":"B2094654DA6CA4F8489E","title":"静教院附校","lon":"121.44944","lat":"31.23785","category":"56","category_name":"小学","address":"江宁路688"},{"poiid":"B2094654DA6CA5F94392","title":"上海机床科技工业园","lon":"121.45213","lat":"31.24007","category":"45","category_name":"产业园区","address":"淮安路681号"},{"poiid":"B2094757D06BA3FF499D","title":"句容小区","lon":"121.44979","lat":"31.240408","category":"47","category_name":"住宅区","address":"上海静安区海防路100弄"},{"poiid":"B2094654DA6CA3F44299","title":"华通大厦","lon":"121.45270194078","lat":"31.241610662152","category":"46","category_name":"楼宇","address":"华通大厦位于静安西康路618号"},{"poiid":"B2094655D26BA0FF499B","title":"联谊西康大厦","lon":"121.453","lat":"31.2412","category":"46","category_name":"楼宇","address":"联谊西康大厦位于静安西康路578号"},{"poiid":"B2094757D06FAAF5449F","title":"TBWA\\Group\\China","lon":"121.45222328","lat":"31.240855463","category":"46","category_name":"楼宇","address":"香港西苏州路71号8楼"},{"poiid":"B2094757D66DA0F5489B","title":"昌化饮食店","lon":"121.451407","lat":"31.237876","category":"68","category_name":"快餐厅","address":"静安区昌化路382号(近昌平路)"},{"poiid":"B2094752DA64A0FC449E","title":"夜市豆浆","lon":"121.453699","lat":"31.238223","category":"247","category_name":"餐饮美食","address":"上海市 霍山路"},{"poiid":"B2094454D16EA6FC499E","title":"觉jue.so","lon":"121.45374","lat":"31.24043","category":"247","category_name":"餐饮美食","address":"上海市静安区西苏州路113号"},{"poiid":"B2094757D16FA6FC4899","title":"天鼎花園","lon":"121.45361637","lat":"31.241504915","category":"47","category_name":"住宅区","address":"西苏州路65弄19号501"},{"poiid":"B2094757D06AA2F44692","title":"昌化路烧烤","lon":"121.45114","lat":"31.23754","category":"68","category_name":"快餐厅","address":"普陀区昌化路(近昌平路)"},{"poiid":"B2094757D56CABFA479E","title":"凯司令西点房 昌化路店","lon":"121.4519974","lat":"31.2373187","category":"67","category_name":"甜品店","address":"普陀区昌化路320-1号(近昌平路)"},{"poiid":"B2094757D06AAAFD409C","title":"港喜.映像","lon":"121.45329214","lat":"31.239299612","category":"500","category_name":"未知分类","address":"上海市江宁路91号"},{"poiid":"B2094654DA6CA4F84198","title":"南草坪","lon":"121.4541","lat":"31.23791","category":"47","category_name":"住宅区","address":"泰兴路689弄1-65号"},{"poiid":"B2094655D265A4FE479B","title":"静安都市工业园区","lon":"121.45104","lat":"31.2394","category":"45","category_name":"产业园区","address":"淮安路717"},{"poiid":"B2094757D16DA4F94598","title":"Modetex M.B.","lon":"121.45319046","lat":"31.239052966","category":"500","category_name":"未知分类","address":"上海rachel workshop"},{"poiid":"B2094654DA6CA5F9419C","title":"上海友好商场","lon":"121.45204","lat":"31.24119","category":"46","category_name":"楼宇","address":"西苏州路71号"},{"poiid":"B2094757DA69A2F5449A","title":"旅游情报网","lon":"121.45132170681","lat":"31.23957591309","category":"63","category_name":"出版社","address":"淮安路735号"},{"poiid":"B2094757D06FA7FD409A","title":"TBWA","lon":"121.45222835","lat":"31.241309691","category":"46","category_name":"楼宇","address":"上海西苏州路71号8楼"},{"poiid":"B2094655D269ABF8409E","title":"江宁路街道图书馆","lon":"121.45205","lat":"31.24119","category":"247","category_name":"餐饮美食","address":"静安区西苏州路71号(近海防路)"},{"poiid":"B2094757D16EABF94593","title":"1626潮流杂志","lon":"121.453386","lat":"31.238981","category":"500","category_name":"未知分类","address":"上海市昌平路68号"},{"poiid":"B2094753D56CA7FA4892","title":"人民大舞台","lon":"121.454116","lat":"31.237812","category":"500","category_name":"未知分类","address":"上海市 上海市九江路663号"},{"poiid":"B2094654DA6CA3FF4992","title":"平安大厦","lon":"121.454","lat":"31.2424","category":"46","category_name":"楼宇","address":"朝阳区天辰东路7号"},{"poiid":"B2094757D06FA6FA4892","title":"FIT复古自行车专卖","lon":"121.452538","lat":"31.238503","category":"140","category_name":"体育用品店","address":"上海静安区昌平路102号"},{"poiid":"B2094757D06BA3FB439F","title":"西苏州路","lon":"121.454711238","lat":"31.2390259876","category":"500","category_name":"未知分类","address":"上海西苏州路"},{"poiid":"B2094655D26DA3FB439B","title":"静安国际广场","lon":"121.455","lat":"31.2371","category":"46","category_name":"楼宇","address":"上海市静安区新闸路1518号"},{"poiid":"B2094654DA6CA3F4429A","title":"华通公寓","lon":"121.454","lat":"31.2406","category":"47","category_name":"住宅区","address":"西康路520弄"},{"poiid":"B2094757D16AA5FD499A","title":"查查额够库","lon":"121.45211398","lat":"31.238962451","category":"500","category_name":"未知分类","address":"上海昌平路江宁路"},{"poiid":"B2094757D16EA0FA419F","title":"小闫葱油饼","lon":"121.451053","lat":"31.237787","category":"68","category_name":"快餐厅","address":"静安区昌平路194号(近昌化路)"},{"poiid":"B2094654DA6CA5F94193","title":"江宁路街道社区文化活动中心图书馆","lon":"121.45199","lat":"31.24108","category":"181","category_name":"图书馆","address":""},{"poiid":"B2094654DA6CA4FE489A","title":"良友金伴NO.128","lon":"121.45158","lat":"31.23808","category":"117","category_name":"便民商店/便利店","address":"昌平路158"},{"poiid":"B2094757D165A7FD439D","title":"奥特斗技场","lon":"121.45181958","lat":"31.239023603","category":"500","category_name":"未知分类","address":"上海M78星云"},{"poiid":"B2094655D265A2F94498","title":"东方莱茵","lon":"121.45524","lat":"31.24068","category":"47","category_name":"住宅区","address":"东方莱茵位于闸北汉中路333弄"},{"poiid":"B2094654DA6CA5F94599","title":"上海捷讯传媒有限公司","lon":"121.45066","lat":"31.23936","category":"252","category_name":"楼宇机构","address":"淮安路735号"},{"poiid":"B2094757D168A4FC4098","title":"粤新餐厅","lon":"121.452995586","lat":"31.2370825651","category":"72","category_name":"广东菜","address":"静安区江宁路428号静安体育中心1楼(近艺海剧院)"},{"poiid":"B2094757D06FA2FA4199","title":"Anken Green's Warehouse Cafe","lon":"121.451865","lat":"31.240447","category":"94","category_name":"西餐厅","address":"上海静安区淮安路668号1楼近西苏州路"},{"poiid":"B2094757D16CA1FD4393","title":"星满天羽毛球馆","lon":"121.453606486","lat":"31.2396057145","category":"500","category_name":"未知分类","address":"静安区西苏州河路53号(近昌平路)"},{"poiid":"B2094753D76FAAFA449C","title":"上海滩国泰旗舰店","lon":"121.466011","lat":"31.216125","category":"249","category_name":"购物服务","address":"淮海中路868号"},{"poiid":"B209475CD564A7F84292","title":"上海滩新天地店","lon":"121.47463","lat":"31.22164","category":"119","category_name":"商场","address":"\"太仓路181弄新天地北里15号\r\n\""},{"poiid":"B209475CD564A7F8439E","title":"上海滩中信泰富店","lon":"121.45602","lat":"31.22851","category":"119","category_name":"商场","address":"\"南京西路1168号中信泰富广场，店铺号221.\r\n\""},{"poiid":"B2094654DA6CA5FA409F","title":"静安河滨花园","lon":"121.45119","lat":"31.241392","category":"47","category_name":"住宅区","address":"上海市闸北区汉中路333弄"},{"poiid":"B2094654DA6CA5F4409E","title":"帆顺海味馆","lon":"121.45532719303","lat":"31.237192665273","category":"76","category_name":"上海菜","address":"静安区康定路18号(泰兴路口)"},{"poiid":"B2094757D16FA0F84599","title":"多福苑","lon":"121.45427","lat":"31.23595","category":"96","category_name":"韩国料理","address":"静安区石门二路221号(近新闸路)"},{"poiid":"B2094655D26BA2FA449E","title":"泰兴路","lon":"121.45517","lat":"31.23698","category":"38","category_name":"公交车站","address":""},{"poiid":"B2094752D16EA2F5449F","title":"上海金钱豹大酒店","lon":"121.453438","lat":"31.238001","category":"247","category_name":"餐饮美食","address":"杨树浦路2866号时尚中心2号门10号楼"},{"poiid":"B2094655D265A7FB429C","title":"天鼎大厦","lon":"121.45327","lat":"31.24039","category":"46","category_name":"楼宇","address":"上海市静安区西苏州路65弄"},{"poiid":"B2094654DA6CA4F84599","title":"三乐新村","lon":"121.45129","lat":"31.238897","category":"47","category_name":"住宅区","address":"昌化路400弄2-4号"},{"poiid":"B2094655D265ABFC419D","title":"三乐小区(北门)","lon":"121.45172","lat":"31.23995","category":"47","category_name":"住宅区","address":"淮安路687弄2-34号"},{"poiid":"B2094655D26CABFF4899","title":"天鼎花园(三乐新村东北)","lon":"121.45195","lat":"31.23923","category":"47","category_name":"住宅区","address":"西苏州路65弄1-26号"},{"poiid":"B2094654DA6CA4F84192","title":"天鼎花园(侧门)","lon":"121.45327","lat":"31.24037","category":"47","category_name":"住宅区","address":"西苏州路65弄1-23号"},{"poiid":"B2094654DA6CA4F8489E","title":"静教院附校","lon":"121.44944","lat":"31.23785","category":"56","category_name":"小学","address":"江宁路688"},{"poiid":"B2094654DA6CA5F94392","title":"上海机床科技工业园","lon":"121.45213","lat":"31.24007","category":"45","category_name":"产业园区","address":"淮安路681号"},{"poiid":"B2094757D06BA3FF499D","title":"句容小区","lon":"121.44979","lat":"31.240408","category":"47","category_name":"住宅区","address":"上海静安区海防路100弄"},{"poiid":"B2094654DA6CA3F44299","title":"华通大厦","lon":"121.45270194078","lat":"31.241610662152","category":"46","category_name":"楼宇","address":"华通大厦位于静安西康路618号"},{"poiid":"B2094655D26BA0FF499B","title":"联谊西康大厦","lon":"121.453","lat":"31.2412","category":"46","category_name":"楼宇","address":"联谊西康大厦位于静安西康路578号"},{"poiid":"B2094757D06FAAF5449F","title":"TBWA\\Group\\China","lon":"121.45222328","lat":"31.240855463","category":"46","category_name":"楼宇","address":"香港西苏州路71号8楼"},{"poiid":"B2094757D66DA0F5489B","title":"昌化饮食店","lon":"121.451407","lat":"31.237876","category":"68","category_name":"快餐厅","address":"静安区昌化路382号(近昌平路)"},{"poiid":"B2094752DA64A0FC449E","title":"夜市豆浆","lon":"121.453699","lat":"31.238223","category":"247","category_name":"餐饮美食","address":"上海市 霍山路"},{"poiid":"B2094454D16EA6FC499E","title":"觉jue.so","lon":"121.45374","lat":"31.24043","category":"247","category_name":"餐饮美食","address":"上海市静安区西苏州路113号"},{"poiid":"B2094757D16FA6FC4899","title":"天鼎花園","lon":"121.45361637","lat":"31.241504915","category":"47","category_name":"住宅区","address":"西苏州路65弄19号501"},{"poiid":"B2094757D06AA2F44692","title":"昌化路烧烤","lon":"121.45114","lat":"31.23754","category":"68","category_name":"快餐厅","address":"普陀区昌化路(近昌平路)"},{"poiid":"B2094757D56CABFA479E","title":"凯司令西点房 昌化路店","lon":"121.4519974","lat":"31.2373187","category":"67","category_name":"甜品店","address":"普陀区昌化路320-1号(近昌平路)"},{"poiid":"B2094757D06AAAFD409C","title":"港喜.映像","lon":"121.45329214","lat":"31.239299612","category":"500","category_name":"未知分类","address":"上海市江宁路91号"},{"poiid":"B2094654DA6CA4F84198","title":"南草坪","lon":"121.4541","lat":"31.23791","category":"47","category_name":"住宅区","address":"泰兴路689弄1-65号"},{"poiid":"B2094655D265A4FE479B","title":"静安都市工业园区","lon":"121.45104","lat":"31.2394","category":"45","category_name":"产业园区","address":"淮安路717"},{"poiid":"B2094757D16DA4F94598","title":"Modetex M.B.","lon":"121.45319046","lat":"31.239052966","category":"500","category_name":"未知分类","address":"上海rachel workshop"},{"poiid":"B2094654DA6CA5F9419C","title":"上海友好商场","lon":"121.45204","lat":"31.24119","category":"46","category_name":"楼宇","address":"西苏州路71号"},{"poiid":"B2094757DA69A2F5449A","title":"旅游情报网","lon":"121.45132170681","lat":"31.23957591309","category":"63","category_name":"出版社","address":"淮安路735号"},{"poiid":"B2094757D06FA7FD409A","title":"TBWA","lon":"121.45222835","lat":"31.241309691","category":"46","category_name":"楼宇","address":"上海西苏州路71号8楼"},{"poiid":"B2094655D269ABF8409E","title":"江宁路街道图书馆","lon":"121.45205","lat":"31.24119","category":"247","category_name":"餐饮美食","address":"静安区西苏州路71号(近海防路)"},{"poiid":"B2094757D16EABF94593","title":"1626潮流杂志","lon":"121.453386","lat":"31.238981","category":"500","category_name":"未知分类","address":"上海市昌平路68号"},{"poiid":"B2094753D56CA7FA4892","title":"人民大舞台","lon":"121.454116","lat":"31.237812","category":"500","category_name":"未知分类","address":"上海市 上海市九江路663号"},{"poiid":"B2094654DA6CA3FF4992","title":"平安大厦","lon":"121.454","lat":"31.2424","category":"46","category_name":"楼宇","address":"朝阳区天辰东路7号"},{"poiid":"B2094757D06FA6FA4892","title":"FIT复古自行车专卖","lon":"121.452538","lat":"31.238503","category":"140","category_name":"体育用品店","address":"上海静安区昌平路102号"},{"poiid":"B2094757D06BA3FB439F","title":"西苏州路","lon":"121.454711238","lat":"31.2390259876","category":"500","category_name":"未知分类","address":"上海西苏州路"},{"poiid":"B2094655D26DA3FB439B","title":"静安国际广场","lon":"121.455","lat":"31.2371","category":"46","category_name":"楼宇","address":"上海市静安区新闸路1518号"},{"poiid":"B2094654DA6CA3F4429A","title":"华通公寓","lon":"121.454","lat":"31.2406","category":"47","category_name":"住宅区","address":"西康路520弄"},{"poiid":"B2094757D16AA5FD499A","title":"查查额够库","lon":"121.45211398","lat":"31.238962451","category":"500","category_name":"未知分类","address":"上海昌平路江宁路"},{"poiid":"B2094757D16EA0FA419F","title":"小闫葱油饼","lon":"121.451053","lat":"31.237787","category":"68","category_name":"快餐厅","address":"静安区昌平路194号(近昌化路)"},{"poiid":"B2094654DA6CA5F94193","title":"江宁路街道社区文化活动中心图书馆","lon":"121.45199","lat":"31.24108","category":"181","category_name":"图书馆","address":""},{"poiid":"B2094654DA6CA4FE489A","title":"良友金伴NO.128","lon":"121.45158","lat":"31.23808","category":"117","category_name":"便民商店/便利店","address":"昌平路158"},{"poiid":"B2094757D165A7FD439D","title":"奥特斗技场","lon":"121.45181958","lat":"31.239023603","category":"500","category_name":"未知分类","address":"上海M78星云"},{"poiid":"B2094655D265A2F94498","title":"东方莱茵","lon":"121.45524","lat":"31.24068","category":"47","category_name":"住宅区","address":"东方莱茵位于闸北汉中路333弄"},{"poiid":"B2094654DA6CA5F94599","title":"上海捷讯传媒有限公司","lon":"121.45066","lat":"31.23936","category":"252","category_name":"楼宇机构","address":"淮安路735号"},{"poiid":"B2094757D168A4FC4098","title":"粤新餐厅","lon":"121.452995586","lat":"31.2370825651","category":"72","category_name":"广东菜","address":"静安区江宁路428号静安体育中心1楼(近艺海剧院)"},{"poiid":"B2094757D06FA2FA4199","title":"Anken Green's Warehouse Cafe","lon":"121.451865","lat":"31.240447","category":"94","category_name":"西餐厅","address":"上海静安区淮安路668号1楼近西苏州路"},{"poiid":"B2094757D16CA1FD4393","title":"星满天羽毛球馆","lon":"121.453606486","lat":"31.2396057145","category":"500","category_name":"未知分类","address":"静安区西苏州河路53号(近昌平路)"},{"poiid":"B2094753D76FAAFA449C","title":"上海滩国泰旗舰店","lon":"121.466011","lat":"31.216125","category":"249","category_name":"购物服务","address":"淮海中路868号"},{"poiid":"B209475CD564A7F84292","title":"上海滩新天地店","lon":"121.47463","lat":"31.22164","category":"119","category_name":"商场","address":"\"太仓路181弄新天地北里15号\r\n\""},{"poiid":"B209475CD564A7F8439E","title":"上海滩中信泰富店","lon":"121.45602","lat":"31.22851","category":"119","category_name":"商场","address":"\"南京西路1168号中信泰富广场，店铺号221.\r\n\""},{"poiid":"B2094654DA6CA5FA409F","title":"静安河滨花园","lon":"121.45119","lat":"31.241392","category":"47","category_name":"住宅区","address":"上海市闸北区汉中路333弄"},{"poiid":"B2094654DA6CA5F4409E","title":"帆顺海味馆","lon":"121.45532719303","lat":"31.237192665273","category":"76","category_name":"上海菜","address":"静安区康定路18号(泰兴路口)"},{"poiid":"B2094757D16FA0F84599","title":"多福苑","lon":"121.45427","lat":"31.23595","category":"96","category_name":"韩国料理","address":"静安区石门二路221号(近新闸路)"},{"poiid":"B2094655D26BA2FA449E","title":"泰兴路","lon":"121.45517","lat":"31.23698","category":"38","category_name":"公交车站","address":""},{"poiid":"B2094752D16EA2F5449F","title":"上海金钱豹大酒店","lon":"121.453438","lat":"31.238001","category":"247","category_name":"餐饮美食","address":"杨树浦路2866号时尚中心2号门10号楼"},{"poiid":"B2094655D265A7FB429C","title":"天鼎大厦","lon":"121.45327","lat":"31.24039","category":"46","category_name":"楼宇","address":"上海市静安区西苏州路65弄"},{"poiid":"B2094654DA6CA4F84599","title":"三乐新村","lon":"121.45129","lat":"31.238897","category":"47","category_name":"住宅区","address":"昌化路400弄2-4号"},{"poiid":"B2094655D265ABFC419D","title":"三乐小区(北门)","lon":"121.45172","lat":"31.23995","category":"47","category_name":"住宅区","address":"淮安路687弄2-34号"},{"poiid":"B2094655D26CABFF4899","title":"天鼎花园(三乐新村东北)","lon":"121.45195","lat":"31.23923","category":"47","category_name":"住宅区","address":"西苏州路65弄1-26号"},{"poiid":"B2094654DA6CA4F84192","title":"天鼎花园(侧门)","lon":"121.45327","lat":"31.24037","category":"47","category_name":"住宅区","address":"西苏州路65弄1-23号"},{"poiid":"B2094654DA6CA4F8489E","title":"静教院附校","lon":"121.44944","lat":"31.23785","category":"56","category_name":"小学","address":"江宁路688"},{"poiid":"B2094654DA6CA5F94392","title":"上海机床科技工业园","lon":"121.45213","lat":"31.24007","category":"45","category_name":"产业园区","address":"淮安路681号"},{"poiid":"B2094757D06BA3FF499D","title":"句容小区","lon":"121.44979","lat":"31.240408","category":"47","category_name":"住宅区","address":"上海静安区海防路100弄"},{"poiid":"B2094654DA6CA3F44299","title":"华通大厦","lon":"121.45270194078","lat":"31.241610662152","category":"46","category_name":"楼宇","address":"华通大厦位于静安西康路618号"},{"poiid":"B2094655D26BA0FF499B","title":"联谊西康大厦","lon":"121.453","lat":"31.2412","category":"46","category_name":"楼宇","address":"联谊西康大厦位于静安西康路578号"},{"poiid":"B2094757D06FAAF5449F","title":"TBWA\\Group\\China","lon":"121.45222328","lat":"31.240855463","category":"46","category_name":"楼宇","address":"香港西苏州路71号8楼"},{"poiid":"B2094757D66DA0F5489B","title":"昌化饮食店","lon":"121.451407","lat":"31.237876","category":"68","category_name":"快餐厅","address":"静安区昌化路382号(近昌平路)"},{"poiid":"B2094752DA64A0FC449E","title":"夜市豆浆","lon":"121.453699","lat":"31.238223","category":"247","category_name":"餐饮美食","address":"上海市 霍山路"},{"poiid":"B2094454D16EA6FC499E","title":"觉jue.so","lon":"121.45374","lat":"31.24043","category":"247","category_name":"餐饮美食","address":"上海市静安区西苏州路113号"},{"poiid":"B2094757D16FA6FC4899","title":"天鼎花園","lon":"121.45361637","lat":"31.241504915","category":"47","category_name":"住宅区","address":"西苏州路65弄19号501"},{"poiid":"B2094757D06AA2F44692","title":"昌化路烧烤","lon":"121.45114","lat":"31.23754","category":"68","category_name":"快餐厅","address":"普陀区昌化路(近昌平路)"},{"poiid":"B2094757D56CABFA479E","title":"凯司令西点房 昌化路店","lon":"121.4519974","lat":"31.2373187","category":"67","category_name":"甜品店","address":"普陀区昌化路320-1号(近昌平路)"},{"poiid":"B2094757D06AAAFD409C","title":"港喜.映像","lon":"121.45329214","lat":"31.239299612","category":"500","category_name":"未知分类","address":"上海市江宁路91号"},{"poiid":"B2094654DA6CA4F84198","title":"南草坪","lon":"121.4541","lat":"31.23791","category":"47","category_name":"住宅区","address":"泰兴路689弄1-65号"},{"poiid":"B2094655D265A4FE479B","title":"静安都市工业园区","lon":"121.45104","lat":"31.2394","category":"45","category_name":"产业园区","address":"淮安路717"},{"poiid":"B2094757D16DA4F94598","title":"Modetex M.B.","lon":"121.45319046","lat":"31.239052966","category":"500","category_name":"未知分类","address":"上海rachel workshop"},{"poiid":"B2094654DA6CA5F9419C","title":"上海友好商场","lon":"121.45204","lat":"31.24119","category":"46","category_name":"楼宇","address":"西苏州路71号"},{"poiid":"B2094757DA69A2F5449A","title":"旅游情报网","lon":"121.45132170681","lat":"31.23957591309","category":"63","category_name":"出版社","address":"淮安路735号"},{"poiid":"B2094757D06FA7FD409A","title":"TBWA","lon":"121.45222835","lat":"31.241309691","category":"46","category_name":"楼宇","address":"上海西苏州路71号8楼"},{"poiid":"B2094655D269ABF8409E","title":"江宁路街道图书馆","lon":"121.45205","lat":"31.24119","category":"247","category_name":"餐饮美食","address":"静安区西苏州路71号(近海防路)"},{"poiid":"B2094757D16EABF94593","title":"1626潮流杂志","lon":"121.453386","lat":"31.238981","category":"500","category_name":"未知分类","address":"上海市昌平路68号"},{"poiid":"B2094753D56CA7FA4892","title":"人民大舞台","lon":"121.454116","lat":"31.237812","category":"500","category_name":"未知分类","address":"上海市 上海市九江路663号"},{"poiid":"B2094654DA6CA3FF4992","title":"平安大厦","lon":"121.454","lat":"31.2424","category":"46","category_name":"楼宇","address":"朝阳区天辰东路7号"},{"poiid":"B2094757D06FA6FA4892","title":"FIT复古自行车专卖","lon":"121.452538","lat":"31.238503","category":"140","category_name":"体育用品店","address":"上海静安区昌平路102号"},{"poiid":"B2094757D06BA3FB439F","title":"西苏州路","lon":"121.454711238","lat":"31.2390259876","category":"500","category_name":"未知分类","address":"上海西苏州路"},{"poiid":"B2094655D26DA3FB439B","title":"静安国际广场","lon":"121.455","lat":"31.2371","category":"46","category_name":"楼宇","address":"上海市静安区新闸路1518号"},{"poiid":"B2094654DA6CA3F4429A","title":"华通公寓","lon":"121.454","lat":"31.2406","category":"47","category_name":"住宅区","address":"西康路520弄"},{"poiid":"B2094757D16AA5FD499A","title":"查查额够库","lon":"121.45211398","lat":"31.238962451","category":"500","category_name":"未知分类","address":"上海昌平路江宁路"},{"poiid":"B2094757D16EA0FA419F","title":"小闫葱油饼","lon":"121.451053","lat":"31.237787","category":"68","category_name":"快餐厅","address":"静安区昌平路194号(近昌化路)"},{"poiid":"B2094654DA6CA5F94193","title":"江宁路街道社区文化活动中心图书馆","lon":"121.45199","lat":"31.24108","category":"181","category_name":"图书馆","address":""},{"poiid":"B2094654DA6CA4FE489A","title":"良友金伴NO.128","lon":"121.45158","lat":"31.23808","category":"117","category_name":"便民商店/便利店","address":"昌平路158"},{"poiid":"B2094757D165A7FD439D","title":"奥特斗技场","lon":"121.45181958","lat":"31.239023603","category":"500","category_name":"未知分类","address":"上海M78星云"},{"poiid":"B2094655D265A2F94498","title":"东方莱茵","lon":"121.45524","lat":"31.24068","category":"47","category_name":"住宅区","address":"东方莱茵位于闸北汉中路333弄"},{"poiid":"B2094654DA6CA5F94599","title":"上海捷讯传媒有限公司","lon":"121.45066","lat":"31.23936","category":"252","category_name":"楼宇机构","address":"淮安路735号"}]