[{"poiid":"B2094654DB69A0FA449B","title":"萤七人间 People seven","lon":"121.45002676183","lat":"31.219220560138","category":"257","category_name":"中餐厅","address":"巨鹿路805号近富民路"},{"poiid":"B2094654DB69A0FA449C","title":"椰香天堂泰国料理","lon":"121.44991","lat":"31.22092","category":"99","category_name":"泰国／越南菜品餐厅","address":"静安区富民路38号(近延安中路)"},{"poiid":"B2094757D06FA3FB419F","title":"窩","lon":"121.44984693","lat":"31.220437979","category":"65","category_name":"咖啡厅","address":"静安区巨鹿路786弄66号1楼(近富民路)"},{"poiid":"B2094753D76FAAFA449C","title":"上海滩国泰旗舰店","lon":"121.466011","lat":"31.216125","category":"249","category_name":"购物服务","address":"淮海中路868号"},{"poiid":"B209475CD564A7F84292","title":"上海滩新天地店","lon":"121.47463","lat":"31.22164","category":"119","category_name":"商场","address":"\"太仓路181弄新天地北里15号\r\n\""},{"poiid":"B209475CD564A7F8439E","title":"上海滩中信泰富店","lon":"121.45602","lat":"31.22851","category":"119","category_name":"商场","address":"\"南京西路1168号中信泰富广场，店铺号221.\r\n\""},{"poiid":"B2094757D06FA0F44593","title":"柒寿司(富民路店)","lon":"121.45014813109981","lat":"31.221289026267844","category":"95","category_name":"日本料理","address":"上海静安寺富民路51号"},{"poiid":"B2094757D068A7FA4698","title":"Dr. Beer","lon":"121.450329386","lat":"31.2207334453","category":"500","category_name":"未知分类","address":"上海市富民路80号(巨鹿路)"},{"poiid":"B2094655D26CAAF44692","title":"璞丽酒店(常德路)","lon":"121.44858","lat":"31.22251","category":"250","category_name":"公园户外","address":"静安区常德路1号(近延安中路)"},{"poiid":"B2094655D26EA1FE449F","title":"上海延安饭店","lon":"121.44827","lat":"31.22062","category":"214","category_name":"四星级宾馆","address":"静安区延安中路1111号(近华山路)"},{"poiid":"B2094757D569A3F9469A","title":"香格里拉大酒店(上海静安嘉里中心店)","lon":"121.45073378","lat":"31.22310384","category":"251","category_name":"出行住宿","address":"中国上海市静安区铜仁路"},{"poiid":"B2094757D06FA3FE489A","title":"南麓.浙里","lon":"121.45108","lat":"31.21981","category":"76","category_name":"上海菜","address":"静安区巨鹿路768号巨富大厦2楼(近富民路)"},{"poiid":"B2094654D564ABFA4693","title":"辉哥火锅","lon":"121.45095","lat":"31.2199","category":"86","category_name":"火锅店","address":"静安区巨鹿路795号(近富民路)"},{"poiid":"B2094757D16DA2F5419F","title":"泰籽","lon":"121.450883586","lat":"31.2201752344","category":"99","category_name":"泰国／越南菜品餐厅","address":"静安区巨鹿路768号巨富大厦G楼A-B室(近富民路)"},{"poiid":"B209475CD66BABF4409F","title":"大董烤鸭店","lon":"121.448539","lat":"31.223339","category":"247","category_name":"餐饮美食","address":"上海市 南京西路1601号越洋广场芮欧百货5楼"},{"poiid":"B2094655D264A1FF479D","title":"上海静安嘉里商务中心(北区)","lon":"121.44928","lat":"31.22384","category":"46","category_name":"楼宇","address":""},{"poiid":"B209475CD56BA2F44892","title":"翠园","lon":"121.449012","lat":"31.22355","category":"500","category_name":"未知分类","address":"上海市 延安西路1238号嘉里中心S4—01"},{"poiid":"B2094757D06FA5FC489D","title":"Le Creme Milano(富民路店)","lon":"121.451104","lat":"31.219465","category":"67","category_name":"甜品店","address":"静安区富民路173号(富民路巨鹿路)"},{"poiid":"B2094757D06FAAFD459F","title":"Pho Asia","lon":"121.450447","lat":"31.220718","category":"99","category_name":"泰国／越南菜品餐厅","address":"静安区富民路85号巨富大厦(近巨鹿路)"},{"poiid":"B2094757D465A3FD4699","title":"阿毛餐厅 富民路店","lon":"121.45041531544","lat":"31.219963834542","category":"247","category_name":"餐饮美食","address":"静安区富民路98号(近巨鹿路)"},{"poiid":"B2094751D56EA0F9489D","title":"Antoni Restaurant","lon":"121.4503","lat":"31.21974","category":"94","category_name":"西餐厅","address":"静安区巨鹿路794号(近富民路)"},{"poiid":"B2094655D26DABF4499E","title":"上海展览中心(5号门)","lon":"121.45153","lat":"31.22291","category":"183","category_name":"展览馆","address":""},{"poiid":"B2094757D068ABF4459C","title":"香港肥杜火锅","lon":"121.45016495","lat":"31.220844179","category":"86","category_name":"火锅店","address":"静安区富民路85号巨富大厦1楼(近巨鹿路)"},{"poiid":"B2094757D06FA6F4449F","title":"清风人家(静安店)","lon":"121.44802","lat":"31.22035","category":"260","category_name":"其他","address":"静安区延安中路1109号(近延安饭店)"},{"poiid":"B2094757D064A6F54998","title":"Juice","lon":"121.450010586","lat":"31.2197952269","category":"141","category_name":"服装鞋帽皮具店","address":"上海市静安区巨鹿路832号"},{"poiid":"B2094757D068A4FB419A","title":"富民路巨鹿路","lon":"121.45020024","lat":"31.221579561","category":"260","category_name":"其他","address":"上海静安区富民路巨鹿路口"},{"poiid":"B2094753DA65ABFB459F","title":"小贝壳海鲜火锅","lon":"121.448814","lat":"31.222833","category":"247","category_name":"餐饮美食","address":"上海市 万航渡路1号"},{"poiid":"B209475DD16EA4FC499F","title":"百美汇影城","lon":"121.448913","lat":"31.223381","category":"178","category_name":"电影院","address":"上海市 上海市静安区南京西路1551号静安嘉里中心商场N4-01室"},{"poiid":"B2094757D66DA5FF4798","title":"苏浙汇","lon":"121.44903058","lat":"31.221403258","category":"500","category_name":"未知分类","address":"上海延安西路"},{"poiid":"B2094757D06FA5F9459C","title":"JA Cafe (静安公园内)","lon":"121.4465","lat":"31.22271","category":"260","category_name":"其他","address":"静安区南京西路1649号静安公园内(近静安公园)"},{"poiid":"B2094757D16AA7FC439F","title":"莹七餐厅","lon":"121.449147586","lat":"31.221130253","category":"500","category_name":"未知分类","address":"上海巨鹿路805号"},{"poiid":"B2094757D069A5FC499B","title":"翠华","lon":"121.44918058","lat":"31.221185254","category":"249","category_name":"购物服务","address":"上海静安区华山路"},{"poiid":"B2094757D16DA3FC469C","title":"喫茶去茶社ZEN TEA ROOM","lon":"121.45004866","lat":"31.2195266501","category":"247","category_name":"餐饮美食","address":"上海卢湾区巨鹿路796号(近富民路)"},{"poiid":"B2094757D06FA6FC4999","title":"COSTA COFFEE(越洋广场店)","lon":"121.44875","lat":"31.2223","category":"65","category_name":"咖啡厅","address":"静安区南京西路1601号越洋广场1楼B单元(近常德路)"},{"poiid":"B2094757D065A3FA459D","title":"coconut paradise","lon":"121.449070586","lat":"31.2214652596","category":"500","category_name":"未知分类","address":"上海市静安区富民路38号近巨鹿路"},{"poiid":"B209475DD06EA7FC4498","title":"KABB","lon":"121.449417","lat":"31.223478","category":"500","category_name":"未知分类","address":"上海市 靜安嘉里中心"},{"poiid":"B2094654DA6CA0FD4999","title":"上海展览中心(4号门)","lon":"121.45215","lat":"31.22304","category":"183","category_name":"展览馆","address":"延安中路1000"},{"poiid":"B2094757D069A2F5479E","title":"和兴汤馆","lon":"121.44792946","lat":"31.221589774","category":"72","category_name":"广东菜","address":"静安区延安中路1123号(近富民路)"},{"poiid":"B2094757D169A0F84593","title":"一哥火锅","lon":"121.449226586","lat":"31.2211502534","category":"247","category_name":"餐饮美食","address":"上海市静安区华山路"},{"poiid":"B2094654DB6BA6FC429E","title":"格林豪泰(上海延安中路店)","lon":"121.4485","lat":"31.22102","category":"216","category_name":"经济型连锁酒店","address":"上海市延安中路1111号(近华山路)"},{"poiid":"B2094757D16DA1F5419A","title":"延安高架","lon":"121.45033958","lat":"31.222230274","category":"500","category_name":"未知分类","address":"上海市静安区"},{"poiid":"B2094757D069A2FF4599","title":"华东模范中学","lon":"121.4503","lat":"31.22113","category":"55","category_name":"中学","address":"静安区富民路43号(富民路延安中路)"},{"poiid":"B2094757D068A5FF409D","title":"阿毛酒家","lon":"121.45116153","lat":"31.220067263","category":"247","category_name":"餐饮美食","address":"上海富民路98号(巨鹿路)"},{"poiid":"B209475CDB6FA1FC499E","title":"PINTXOS","lon":"121.449722","lat":"31.223426","category":"500","category_name":"未知分类","address":"上海市 静安嘉里中心SB1-10"},{"poiid":"B2094654DB69AAF84092","title":"延安饭店东方厅","lon":"121.44627536163","lat":"31.220577794887","category":"247","category_name":"餐饮美食","address":"静安区延安中路1111号延安饭店12楼(近华山路)"},{"poiid":"B2094655D26EA6F4449A","title":"尼泊尔餐厅","lon":"121.45008","lat":"31.21929","category":"102","category_name":"印度风味","address":"静安区巨鹿路819弄4号"},{"poiid":"B2094654D564ABFA479A","title":"汇元坊","lon":"121.45104","lat":"31.21995","category":"76","category_name":"上海菜","address":"静安区巨鹿路793号(近富民路)"},{"poiid":"B2094753DA68A2F54393","title":"七條","lon":"121.451377","lat":"31.221981","category":"500","category_name":"未知分类","address":"上海市 芮欧百货B2"},{"poiid":"B209475DD264A2FB4192","title":"bunlife","lon":"121.449737","lat":"31.223474","category":"500","category_name":"未知分类","address":"上海市 嘉里中心"},{"poiid":"B2094757D16AA1FD4398","title":"厚味香辣馆","lon":"121.449156586","lat":"31.2211242529","category":"247","category_name":"餐饮美食","address":"上海市静安区静安寺"},{"poiid":"B2094654DB69A0FA449B","title":"萤七人间 People seven","lon":"121.45002676183","lat":"31.219220560138","category":"257","category_name":"中餐厅","address":"巨鹿路805号近富民路"},{"poiid":"B2094654DB69A0FA449C","title":"椰香天堂泰国料理","lon":"121.44991","lat":"31.22092","category":"99","category_name":"泰国／越南菜品餐厅","address":"静安区富民路38号(近延安中路)"},{"poiid":"B2094757D06FA3FB419F","title":"窩","lon":"121.44984693","lat":"31.220437979","category":"65","category_name":"咖啡厅","address":"静安区巨鹿路786弄66号1楼(近富民路)"},{"poiid":"B2094753D76FAAFA449C","title":"上海滩国泰旗舰店","lon":"121.466011","lat":"31.216125","category":"249","category_name":"购物服务","address":"淮海中路868号"},{"poiid":"B209475CD564A7F84292","title":"上海滩新天地店","lon":"121.47463","lat":"31.22164","category":"119","category_name":"商场","address":"\"太仓路181弄新天地北里15号\r\n\""},{"poiid":"B209475CD564A7F8439E","title":"上海滩中信泰富店","lon":"121.45602","lat":"31.22851","category":"119","category_name":"商场","address":"\"南京西路1168号中信泰富广场，店铺号221.\r\n\""},{"poiid":"B2094757D06FA0F44593","title":"柒寿司(富民路店)","lon":"121.45014813109981","lat":"31.221289026267844","category":"95","category_name":"日本料理","address":"上海静安寺富民路51号"},{"poiid":"B2094757D068A7FA4698","title":"Dr. Beer","lon":"121.450329386","lat":"31.2207334453","category":"500","category_name":"未知分类","address":"上海市富民路80号(巨鹿路)"},{"poiid":"B2094655D26CAAF44692","title":"璞丽酒店(常德路)","lon":"121.44858","lat":"31.22251","category":"250","category_name":"公园户外","address":"静安区常德路1号(近延安中路)"},{"poiid":"B2094655D26EA1FE449F","title":"上海延安饭店","lon":"121.44827","lat":"31.22062","category":"214","category_name":"四星级宾馆","address":"静安区延安中路1111号(近华山路)"},{"poiid":"B2094757D569A3F9469A","title":"香格里拉大酒店(上海静安嘉里中心店)","lon":"121.45073378","lat":"31.22310384","category":"251","category_name":"出行住宿","address":"中国上海市静安区铜仁路"},{"poiid":"B2094757D06FA3FE489A","title":"南麓.浙里","lon":"121.45108","lat":"31.21981","category":"76","category_name":"上海菜","address":"静安区巨鹿路768号巨富大厦2楼(近富民路)"},{"poiid":"B2094654D564ABFA4693","title":"辉哥火锅","lon":"121.45095","lat":"31.2199","category":"86","category_name":"火锅店","address":"静安区巨鹿路795号(近富民路)"},{"poiid":"B2094757D16DA2F5419F","title":"泰籽","lon":"121.450883586","lat":"31.2201752344","category":"99","category_name":"泰国／越南菜品餐厅","address":"静安区巨鹿路768号巨富大厦G楼A-B室(近富民路)"},{"poiid":"B209475CD66BABF4409F","title":"大董烤鸭店","lon":"121.448539","lat":"31.223339","category":"247","category_name":"餐饮美食","address":"上海市 南京西路1601号越洋广场芮欧百货5楼"},{"poiid":"B2094655D264A1FF479D","title":"上海静安嘉里商务中心(北区)","lon":"121.44928","lat":"31.22384","category":"46","category_name":"楼宇","address":""},{"poiid":"B209475CD56BA2F44892","title":"翠园","lon":"121.449012","lat":"31.22355","category":"500","category_name":"未知分类","address":"上海市 延安西路1238号嘉里中心S4—01"},{"poiid":"B2094757D06FA5FC489D","title":"Le Creme Milano(富民路店)","lon":"121.451104","lat":"31.219465","category":"67","category_name":"甜品店","address":"静安区富民路173号(富民路巨鹿路)"},{"poiid":"B2094757D06FAAFD459F","title":"Pho Asia","lon":"121.450447","lat":"31.220718","category":"99","category_name":"泰国／越南菜品餐厅","address":"静安区富民路85号巨富大厦(近巨鹿路)"},{"poiid":"B2094757D465A3FD4699","title":"阿毛餐厅 富民路店","lon":"121.45041531544","lat":"31.219963834542","category":"247","category_name":"餐饮美食","address":"静安区富民路98号(近巨鹿路)"},{"poiid":"B2094751D56EA0F9489D","title":"Antoni Restaurant","lon":"121.4503","lat":"31.21974","category":"94","category_name":"西餐厅","address":"静安区巨鹿路794号(近富民路)"},{"poiid":"B2094655D26DABF4499E","title":"上海展览中心(5号门)","lon":"121.45153","lat":"31.22291","category":"183","category_name":"展览馆","address":""},{"poiid":"B2094757D068ABF4459C","title":"香港肥杜火锅","lon":"121.45016495","lat":"31.220844179","category":"86","category_name":"火锅店","address":"静安区富民路85号巨富大厦1楼(近巨鹿路)"},{"poiid":"B2094757D06FA6F4449F","title":"清风人家(静安店)","lon":"121.44802","lat":"31.22035","category":"260","category_name":"其他","address":"静安区延安中路1109号(近延安饭店)"},{"poiid":"B2094757D064A6F54998","title":"Juice","lon":"121.450010586","lat":"31.2197952269","category":"141","category_name":"服装鞋帽皮具店","address":"上海市静安区巨鹿路832号"},{"poiid":"B2094757D068A4FB419A","title":"富民路巨鹿路","lon":"121.45020024","lat":"31.221579561","category":"260","category_name":"其他","address":"上海静安区富民路巨鹿路口"},{"poiid":"B2094753DA65ABFB459F","title":"小贝壳海鲜火锅","lon":"121.448814","lat":"31.222833","category":"247","category_name":"餐饮美食","address":"上海市 万航渡路1号"},{"poiid":"B209475DD16EA4FC499F","title":"百美汇影城","lon":"121.448913","lat":"31.223381","category":"178","category_name":"电影院","address":"上海市 上海市静安区南京西路1551号静安嘉里中心商场N4-01室"},{"poiid":"B2094757D66DA5FF4798","title":"苏浙汇","lon":"121.44903058","lat":"31.221403258","category":"500","category_name":"未知分类","address":"上海延安西路"},{"poiid":"B2094757D06FA5F9459C","title":"JA Cafe (静安公园内)","lon":"121.4465","lat":"31.22271","category":"260","category_name":"其他","address":"静安区南京西路1649号静安公园内(近静安公园)"},{"poiid":"B2094757D16AA7FC439F","title":"莹七餐厅","lon":"121.449147586","lat":"31.221130253","category":"500","category_name":"未知分类","address":"上海巨鹿路805号"},{"poiid":"B2094757D069A5FC499B","title":"翠华","lon":"121.44918058","lat":"31.221185254","category":"249","category_name":"购物服务","address":"上海静安区华山路"},{"poiid":"B2094757D16DA3FC469C","title":"喫茶去茶社ZEN TEA ROOM","lon":"121.45004866","lat":"31.2195266501","category":"247","category_name":"餐饮美食","address":"上海卢湾区巨鹿路796号(近富民路)"},{"poiid":"B2094757D06FA6FC4999","title":"COSTA COFFEE(越洋广场店)","lon":"121.44875","lat":"31.2223","category":"65","category_name":"咖啡厅","address":"静安区南京西路1601号越洋广场1楼B单元(近常德路)"},{"poiid":"B2094757D065A3FA459D","title":"coconut paradise","lon":"121.449070586","lat":"31.2214652596","category":"500","category_name":"未知分类","address":"上海市静安区富民路38号近巨鹿路"},{"poiid":"B209475DD06EA7FC4498","title":"KABB","lon":"121.449417","lat":"31.223478","category":"500","category_name":"未知分类","address":"上海市 靜安嘉里中心"},{"poiid":"B2094654DA6CA0FD4999","title":"上海展览中心(4号门)","lon":"121.45215","lat":"31.22304","category":"183","category_name":"展览馆","address":"延安中路1000"},{"poiid":"B2094757D069A2F5479E","title":"和兴汤馆","lon":"121.44792946","lat":"31.221589774","category":"72","category_name":"广东菜","address":"静安区延安中路1123号(近富民路)"},{"poiid":"B2094757D169A0F84593","title":"一哥火锅","lon":"121.449226586","lat":"31.2211502534","category":"247","category_name":"餐饮美食","address":"上海市静安区华山路"},{"poiid":"B2094654DB6BA6FC429E","title":"格林豪泰(上海延安中路店)","lon":"121.4485","lat":"31.22102","category":"216","category_name":"经济型连锁酒店","address":"上海市延安中路1111号(近华山路)"},{"poiid":"B2094757D16DA1F5419A","title":"延安高架","lon":"121.45033958","lat":"31.222230274","category":"500","category_name":"未知分类","address":"上海市静安区"},{"poiid":"B2094757D069A2FF4599","title":"华东模范中学","lon":"121.4503","lat":"31.22113","category":"55","category_name":"中学","address":"静安区富民路43号(富民路延安中路)"},{"poiid":"B2094757D068A5FF409D","title":"阿毛酒家","lon":"121.45116153","lat":"31.220067263","category":"247","category_name":"餐饮美食","address":"上海富民路98号(巨鹿路)"},{"poiid":"B209475CDB6FA1FC499E","title":"PINTXOS","lon":"121.449722","lat":"31.223426","category":"500","category_name":"未知分类","address":"上海市 静安嘉里中心SB1-10"},{"poiid":"B2094654DB69AAF84092","title":"延安饭店东方厅","lon":"121.44627536163","lat":"31.220577794887","category":"247","category_name":"餐饮美食","address":"静安区延安中路1111号延安饭店12楼(近华山路)"},{"poiid":"B2094655D26EA6F4449A","title":"尼泊尔餐厅","lon":"121.45008","lat":"31.21929","category":"102","category_name":"印度风味","address":"静安区巨鹿路819弄4号"},{"poiid":"B2094654D564ABFA479A","title":"汇元坊","lon":"121.45104","lat":"31.21995","category":"76","category_name":"上海菜","address":"静安区巨鹿路793号(近富民路)"},{"poiid":"B2094753DA68A2F54393","title":"七條","lon":"121.451377","lat":"31.221981","category":"500","category_name":"未知分类","address":"上海市 芮欧百货B2"},{"poiid":"B209475DD264A2FB4192","title":"bunlife","lon":"121.449737","lat":"31.223474","category":"500","category_name":"未知分类","address":"上海市 嘉里中心"},{"poiid":"B2094757D16AA1FD4398","title":"厚味香辣馆","lon":"121.449156586","lat":"31.2211242529","category":"247","category_name":"餐饮美食","address":"上海市静安区静安寺"},{"poiid":"B2094654DB69A0FA449B","title":"萤七人间 People seven","lon":"121.45002676183","lat":"31.219220560138","category":"257","category_name":"中餐厅","address":"巨鹿路805号近富民路"},{"poiid":"B2094654DB69A0FA449C","title":"椰香天堂泰国料理","lon":"121.44991","lat":"31.22092","category":"99","category_name":"泰国／越南菜品餐厅","address":"静安区富民路38号(近延安中路)"},{"poiid":"B2094757D06FA3FB419F","title":"窩","lon":"121.44984693","lat":"31.220437979","category":"65","category_name":"咖啡厅","address":"静安区巨鹿路786弄66号1楼(近富民路)"},{"poiid":"B2094753D76FAAFA449C","title":"上海滩国泰旗舰店","lon":"121.466011","lat":"31.216125","category":"249","category_name":"购物服务","address":"淮海中路868号"},{"poiid":"B209475CD564A7F84292","title":"上海滩新天地店","lon":"121.47463","lat":"31.22164","category":"119","category_name":"商场","address":"\"太仓路181弄新天地北里15号\r\n\""},{"poiid":"B209475CD564A7F8439E","title":"上海滩中信泰富店","lon":"121.45602","lat":"31.22851","category":"119","category_name":"商场","address":"\"南京西路1168号中信泰富广场，店铺号221.\r\n\""},{"poiid":"B2094757D06FA0F44593","title":"柒寿司(富民路店)","lon":"121.45014813109981","lat":"31.221289026267844","category":"95","category_name":"日本料理","address":"上海静安寺富民路51号"},{"poiid":"B2094757D068A7FA4698","title":"Dr. Beer","lon":"121.450329386","lat":"31.2207334453","category":"500","category_name":"未知分类","address":"上海市富民路80号(巨鹿路)"},{"poiid":"B2094655D26CAAF44692","title":"璞丽酒店(常德路)","lon":"121.44858","lat":"31.22251","category":"250","category_name":"公园户外","address":"静安区常德路1号(近延安中路)"},{"poiid":"B2094655D26EA1FE449F","title":"上海延安饭店","lon":"121.44827","lat":"31.22062","category":"214","category_name":"四星级宾馆","address":"静安区延安中路1111号(近华山路)"},{"poiid":"B2094757D569A3F9469A","title":"香格里拉大酒店(上海静安嘉里中心店)","lon":"121.45073378","lat":"31.22310384","category":"251","category_name":"出行住宿","address":"中国上海市静安区铜仁路"},{"poiid":"B2094757D06FA3FE489A","title":"南麓.浙里","lon":"121.45108","lat":"31.21981","category":"76","category_name":"上海菜","address":"静安区巨鹿路768号巨富大厦2楼(近富民路)"},{"poiid":"B2094654D564ABFA4693","title":"辉哥火锅","lon":"121.45095","lat":"31.2199","category":"86","category_name":"火锅店","address":"静安区巨鹿路795号(近富民路)"},{"poiid":"B2094757D16DA2F5419F","title":"泰籽","lon":"121.450883586","lat":"31.2201752344","category":"99","category_name":"泰国／越南菜品餐厅","address":"静安区巨鹿路768号巨富大厦G楼A-B室(近富民路)"},{"poiid":"B209475CD66BABF4409F","title":"大董烤鸭店","lon":"121.448539","lat":"31.223339","category":"247","category_name":"餐饮美食","address":"上海市 南京西路1601号越洋广场芮欧百货5楼"},{"poiid":"B2094655D264A1FF479D","title":"上海静安嘉里商务中心(北区)","lon":"121.44928","lat":"31.22384","category":"46","category_name":"楼宇","address":""},{"poiid":"B209475CD56BA2F44892","title":"翠园","lon":"121.449012","lat":"31.22355","category":"500","category_name":"未知分类","address":"上海市 延安西路1238号嘉里中心S4—01"},{"poiid":"B2094757D06FA5FC489D","title":"Le Creme Milano(富民路店)","lon":"121.451104","lat":"31.219465","category":"67","category_name":"甜品店","address":"静安区富民路173号(富民路巨鹿路)"},{"poiid":"B2094757D06FAAFD459F","title":"Pho Asia","lon":"121.450447","lat":"31.220718","category":"99","category_name":"泰国／越南菜品餐厅","address":"静安区富民路85号巨富大厦(近巨鹿路)"},{"poiid":"B2094757D465A3FD4699","title":"阿毛餐厅 富民路店","lon":"121.45041531544","lat":"31.219963834542","category":"247","category_name":"餐饮美食","address":"静安区富民路98号(近巨鹿路)"},{"poiid":"B2094751D56EA0F9489D","title":"Antoni Restaurant","lon":"121.4503","lat":"31.21974","category":"94","category_name":"西餐厅","address":"静安区巨鹿路794号(近富民路)"},{"poiid":"B2094655D26DABF4499E","title":"上海展览中心(5号门)","lon":"121.45153","lat":"31.22291","category":"183","category_name":"展览馆","address":""},{"poiid":"B2094757D068ABF4459C","title":"香港肥杜火锅","lon":"121.45016495","lat":"31.220844179","category":"86","category_name":"火锅店","address":"静安区富民路85号巨富大厦1楼(近巨鹿路)"},{"poiid":"B2094757D06FA6F4449F","title":"清风人家(静安店)","lon":"121.44802","lat":"31.22035","category":"260","category_name":"其他","address":"静安区延安中路1109号(近延安饭店)"},{"poiid":"B2094757D064A6F54998","title":"Juice","lon":"121.450010586","lat":"31.2197952269","category":"141","category_name":"服装鞋帽皮具店","address":"上海市静安区巨鹿路832号"},{"poiid":"B2094757D068A4FB419A","title":"富民路巨鹿路","lon":"121.45020024","lat":"31.221579561","category":"260","category_name":"其他","address":"上海静安区富民路巨鹿路口"},{"poiid":"B2094753DA65ABFB459F","title":"小贝壳海鲜火锅","lon":"121.448814","lat":"31.222833","category":"247","category_name":"餐饮美食","address":"上海市 万航渡路1号"},{"poiid":"B209475DD16EA4FC499F","title":"百美汇影城","lon":"121.448913","lat":"31.223381","category":"178","category_name":"电影院","address":"上海市 上海市静安区南京西路1551号静安嘉里中心商场N4-01室"},{"poiid":"B2094757D66DA5FF4798","title":"苏浙汇","lon":"121.44903058","lat":"31.221403258","category":"500","category_name":"未知分类","address":"上海延安西路"},{"poiid":"B2094757D06FA5F9459C","title":"JA Cafe (静安公园内)","lon":"121.4465","lat":"31.22271","category":"260","category_name":"其他","address":"静安区南京西路1649号静安公园内(近静安公园)"},{"poiid":"B2094757D16AA7FC439F","title":"莹七餐厅","lon":"121.449147586","lat":"31.221130253","category":"500","category_name":"未知分类","address":"上海巨鹿路805号"},{"poiid":"B2094757D069A5FC499B","title":"翠华","lon":"121.44918058","lat":"31.221185254","category":"249","category_name":"购物服务","address":"上海静安区华山路"},{"poiid":"B2094757D16DA3FC469C","title":"喫茶去茶社ZEN TEA ROOM","lon":"121.45004866","lat":"31.2195266501","category":"247","category_name":"餐饮美食","address":"上海卢湾区巨鹿路796号(近富民路)"},{"poiid":"B2094757D06FA6FC4999","title":"COSTA COFFEE(越洋广场店)","lon":"121.44875","lat":"31.2223","category":"65","category_name":"咖啡厅","address":"静安区南京西路1601号越洋广场1楼B单元(近常德路)"},{"poiid":"B2094757D065A3FA459D","title":"coconut paradise","lon":"121.449070586","lat":"31.2214652596","category":"500","category_name":"未知分类","address":"上海市静安区富民路38号近巨鹿路"},{"poiid":"B209475DD06EA7FC4498","title":"KABB","lon":"121.449417","lat":"31.223478","category":"500","category_name":"未知分类","address":"上海市 靜安嘉里中心"},{"poiid":"B2094654DA6CA0FD4999","title":"上海展览中心(4号门)","lon":"121.45215","lat":"31.22304","category":"183","category_name":"展览馆","address":"延安中路1000"},{"poiid":"B2094757D069A2F5479E","title":"和兴汤馆","lon":"121.44792946","lat":"31.221589774","category":"72","category_name":"广东菜","address":"静安区延安中路1123号(近富民路)"},{"poiid":"B2094757D169A0F84593","title":"一哥火锅","lon":"121.449226586","lat":"31.2211502534","category":"247","category_name":"餐饮美食","address":"上海市静安区华山路"},{"poiid":"B2094654DB6BA6FC429E","title":"格林豪泰(上海延安中路店)","lon":"121.4485","lat":"31.22102","category":"216","category_name":"经济型连锁酒店","address":"上海市延安中路1111号(近华山路)"},{"poiid":"B2094757D16DA1F5419A","title":"延安高架","lon":"121.45033958","lat":"31.222230274","category":"500","category_name":"未知分类","address":"上海市静安区"},{"poiid":"B2094757D069A2FF4599","title":"华东模范中学","lon":"121.4503","lat":"31.22113","category":"55","category_name":"中学","address":"静安区富民路43号(富民路延安中路)"},{"poiid":"B2094757D068A5FF409D","title":"阿毛酒家","lon":"121.45116153","lat":"31.220067263","category":"247","category_name":"餐饮美食","address":"上海富民路98号(巨鹿路)"},{"poiid":"B209475CDB6FA1FC499E","title":"PINTXOS","lon":"121.449722","lat":"31.223426","category":"500","category_name":"未知分类","address":"上海市 静安嘉里中心SB1-10"},{"poiid":"B2094654DB69AAF84092","title":"延安饭店东方厅","lon":"121.44627536163","lat":"31.220577794887","category":"247","category_name":"餐饮美食","address":"静安区延安中路1111号延安饭店12楼(近华山路)"},{"poiid":"B2094655D26EA6F4449A","title":"尼泊尔餐厅","lon":"121.45008","lat":"31.21929","category":"102","category_name":"印度风味","address":"静安区巨鹿路819弄4号"},{"poiid":"B2094654D564ABFA479A","title":"汇元坊","lon":"121.45104","lat":"31.21995","category":"76","category_name":"上海菜","address":"静安区巨鹿路793号(近富民路)"},{"poiid":"B2094753DA68A2F54393","title":"七條","lon":"121.451377","lat":"31.221981","category":"500","category_name":"未知分类","address":"上海市 芮欧百货B2"},{"poiid":"B209475DD264A2FB4192","title":"bunlife","lon":"121.449737","lat":"31.223474","category":"500","category_name":"未知分类","address":"上海市 嘉里中心"},{"poiid":"B2094757D16AA1FD4398","title":"厚味香辣馆","lon":"121.449156586","lat":"31.2211242529","category":"247","category_name":"餐饮美食","address":"上海市静安区静安寺"},{"poiid":"B2094654DB69A0FA449B","title":"萤七人间 People seven","lon":"121.45002676183","lat":"31.219220560138","category":"257","category_name":"中餐厅","address":"巨鹿路805号近富民路"},{"poiid":"B2094654DB69A0FA449C","title":"椰香天堂泰国料理","lon":"121.44991","lat":"31.22092","category":"99","category_name":"泰国／越南菜品餐厅","address":"静安区富民路38号(近延安中路)"},{"poiid":"B2094757D06FA3FB419F","title":"窩","lon":"121.44984693","lat":"31.220437979","category":"65","category_name":"咖啡厅","address":"静安区巨鹿路786弄66号1楼(近富民路)"},{"poiid":"B2094753D76FAAFA449C","title":"上海滩国泰旗舰店","lon":"121.466011","lat":"31.216125","category":"249","category_name":"购物服务","address":"淮海中路868号"},{"poiid":"B209475CD564A7F84292","title":"上海滩新天地店","lon":"121.47463","lat":"31.22164","category":"119","category_name":"商场","address":"\"太仓路181弄新天地北里15号\r\n\""},{"poiid":"B209475CD564A7F8439E","title":"上海滩中信泰富店","lon":"121.45602","lat":"31.22851","category":"119","category_name":"商场","address":"\"南京西路1168号中信泰富广场，店铺号221.\r\n\""},{"poiid":"B2094757D06FA0F44593","title":"柒寿司(富民路店)","lon":"121.45014813109981","lat":"31.221289026267844","category":"95","category_name":"日本料理","address":"上海静安寺富民路51号"},{"poiid":"B2094757D068A7FA4698","title":"Dr. Beer","lon":"121.450329386","lat":"31.2207334453","category":"500","category_name":"未知分类","address":"上海市富民路80号(巨鹿路)"},{"poiid":"B2094655D26CAAF44692","title":"璞丽酒店(常德路)","lon":"121.44858","lat":"31.22251","category":"250","category_name":"公园户外","address":"静安区常德路1号(近延安中路)"},{"poiid":"B2094655D26EA1FE449F","title":"上海延安饭店","lon":"121.44827","lat":"31.22062","category":"214","category_name":"四星级宾馆","address":"静安区延安中路1111号(近华山路)"},{"poiid":"B2094757D569A3F9469A","title":"香格里拉大酒店(上海静安嘉里中心店)","lon":"121.45073378","lat":"31.22310384","category":"251","category_name":"出行住宿","address":"中国上海市静安区铜仁路"},{"poiid":"B2094757D06FA3FE489A","title":"南麓.浙里","lon":"121.45108","lat":"31.21981","category":"76","category_name":"上海菜","address":"静安区巨鹿路768号巨富大厦2楼(近富民路)"},{"poiid":"B2094654D564ABFA4693","title":"辉哥火锅","lon":"121.45095","lat":"31.2199","category":"86","category_name":"火锅店","address":"静安区巨鹿路795号(近富民路)"},{"poiid":"B2094757D16DA2F5419F","title":"泰籽","lon":"121.450883586","lat":"31.2201752344","category":"99","category_name":"泰国／越南菜品餐厅","address":"静安区巨鹿路768号巨富大厦G楼A-B室(近富民路)"},{"poiid":"B209475CD66BABF4409F","title":"大董烤鸭店","lon":"121.448539","lat":"31.223339","category":"247","category_name":"餐饮美食","address":"上海市 南京西路1601号越洋广场芮欧百货5楼"},{"poiid":"B2094655D264A1FF479D","title":"上海静安嘉里商务中心(北区)","lon":"121.44928","lat":"31.22384","category":"46","category_name":"楼宇","address":""},{"poiid":"B209475CD56BA2F44892","title":"翠园","lon":"121.449012","lat":"31.22355","category":"500","category_name":"未知分类","address":"上海市 延安西路1238号嘉里中心S4—01"},{"poiid":"B2094757D06FA5FC489D","title":"Le Creme Milano(富民路店)","lon":"121.451104","lat":"31.219465","category":"67","category_name":"甜品店","address":"静安区富民路173号(富民路巨鹿路)"},{"poiid":"B2094757D06FAAFD459F","title":"Pho Asia","lon":"121.450447","lat":"31.220718","category":"99","category_name":"泰国／越南菜品餐厅","address":"静安区富民路85号巨富大厦(近巨鹿路)"},{"poiid":"B2094757D465A3FD4699","title":"阿毛餐厅 富民路店","lon":"121.45041531544","lat":"31.219963834542","category":"247","category_name":"餐饮美食","address":"静安区富民路98号(近巨鹿路)"},{"poiid":"B2094751D56EA0F9489D","title":"Antoni Restaurant","lon":"121.4503","lat":"31.21974","category":"94","category_name":"西餐厅","address":"静安区巨鹿路794号(近富民路)"},{"poiid":"B2094655D26DABF4499E","title":"上海展览中心(5号门)","lon":"121.45153","lat":"31.22291","category":"183","category_name":"展览馆","address":""},{"poiid":"B2094757D068ABF4459C","title":"香港肥杜火锅","lon":"121.45016495","lat":"31.220844179","category":"86","category_name":"火锅店","address":"静安区富民路85号巨富大厦1楼(近巨鹿路)"},{"poiid":"B2094757D06FA6F4449F","title":"清风人家(静安店)","lon":"121.44802","lat":"31.22035","category":"260","category_name":"其他","address":"静安区延安中路1109号(近延安饭店)"},{"poiid":"B2094757D064A6F54998","title":"Juice","lon":"121.450010586","lat":"31.2197952269","category":"141","category_name":"服装鞋帽皮具店","address":"上海市静安区巨鹿路832号"},{"poiid":"B2094757D068A4FB419A","title":"富民路巨鹿路","lon":"121.45020024","lat":"31.221579561","category":"260","category_name":"其他","address":"上海静安区富民路巨鹿路口"},{"poiid":"B2094753DA65ABFB459F","title":"小贝壳海鲜火锅","lon":"121.448814","lat":"31.222833","category":"247","category_name":"餐饮美食","address":"上海市 万航渡路1号"},{"poiid":"B209475DD16EA4FC499F","title":"百美汇影城","lon":"121.448913","lat":"31.223381","category":"178","category_name":"电影院","address":"上海市 上海市静安区南京西路1551号静安嘉里中心商场N4-01室"},{"poiid":"B2094757D66DA5FF4798","title":"苏浙汇","lon":"121.44903058","lat":"31.221403258","category":"500","category_name":"未知分类","address":"上海延安西路"},{"poiid":"B2094757D06FA5F9459C","title":"JA Cafe (静安公园内)","lon":"121.4465","lat":"31.22271","category":"260","category_name":"其他","address":"静安区南京西路1649号静安公园内(近静安公园)"},{"poiid":"B2094757D16AA7FC439F","title":"莹七餐厅","lon":"121.449147586","lat":"31.221130253","category":"500","category_name":"未知分类","address":"上海巨鹿路805号"},{"poiid":"B2094757D069A5FC499B","title":"翠华","lon":"121.44918058","lat":"31.221185254","category":"249","category_name":"购物服务","address":"上海静安区华山路"},{"poiid":"B2094757D16DA3FC469C","title":"喫茶去茶社ZEN TEA ROOM","lon":"121.45004866","lat":"31.2195266501","category":"247","category_name":"餐饮美食","address":"上海卢湾区巨鹿路796号(近富民路)"},{"poiid":"B2094757D06FA6FC4999","title":"COSTA COFFEE(越洋广场店)","lon":"121.44875","lat":"31.2223","category":"65","category_name":"咖啡厅","address":"静安区南京西路1601号越洋广场1楼B单元(近常德路)"},{"poiid":"B2094757D065A3FA459D","title":"coconut paradise","lon":"121.449070586","lat":"31.2214652596","category":"500","category_name":"未知分类","address":"上海市静安区富民路38号近巨鹿路"},{"poiid":"B209475DD06EA7FC4498","title":"KABB","lon":"121.449417","lat":"31.223478","category":"500","category_name":"未知分类","address":"上海市 靜安嘉里中心"},{"poiid":"B2094654DA6CA0FD4999","title":"上海展览中心(4号门)","lon":"121.45215","lat":"31.22304","category":"183","category_name":"展览馆","address":"延安中路1000"},{"poiid":"B2094757D069A2F5479E","title":"和兴汤馆","lon":"121.44792946","lat":"31.221589774","category":"72","category_name":"广东菜","address":"静安区延安中路1123号(近富民路)"},{"poiid":"B2094757D169A0F84593","title":"一哥火锅","lon":"121.449226586","lat":"31.2211502534","category":"247","category_name":"餐饮美食","address":"上海市静安区华山路"},{"poiid":"B2094654DB6BA6FC429E","title":"格林豪泰(上海延安中路店)","lon":"121.4485","lat":"31.22102","category":"216","category_name":"经济型连锁酒店","address":"上海市延安中路1111号(近华山路)"},{"poiid":"B2094757D16DA1F5419A","title":"延安高架","lon":"121.45033958","lat":"31.222230274","category":"500","category_name":"未知分类","address":"上海市静安区"},{"poiid":"B2094757D069A2FF4599","title":"华东模范中学","lon":"121.4503","lat":"31.22113","category":"55","category_name":"中学","address":"静安区富民路43号(富民路延安中路)"},{"poiid":"B2094757D068A5FF409D","title":"阿毛酒家","lon":"121.45116153","lat":"31.220067263","category":"247","category_name":"餐饮美食","address":"上海富民路98号(巨鹿路)"},{"poiid":"B209475CDB6FA1FC499E","title":"PINTXOS","lon":"121.449722","lat":"31.223426","category":"500","category_name":"未知分类","address":"上海市 静安嘉里中心SB1-10"},{"poiid":"B2094654DB69AAF84092","title":"延安饭店东方厅","lon":"121.44627536163","lat":"31.220577794887","category":"247","category_name":"餐饮美食","address":"静安区延安中路1111号延安饭店12楼(近华山路)"},{"poiid":"B2094655D26EA6F4449A","title":"尼泊尔餐厅","lon":"121.45008","lat":"31.21929","category":"102","category_name":"印度风味","address":"静安区巨鹿路819弄4号"},{"poiid":"B2094654D564ABFA479A","title":"汇元坊","lon":"121.45104","lat":"31.21995","category":"76","category_name":"上海菜","address":"静安区巨鹿路793号(近富民路)"},{"poiid":"B2094753DA68A2F54393","title":"七條","lon":"121.451377","lat":"31.221981","category":"500","category_name":"未知分类","address":"上海市 芮欧百货B2"},{"poiid":"B209475DD264A2FB4192","title":"bunlife","lon":"121.449737","lat":"31.223474","category":"500","category_name":"未知分类","address":"上海市 嘉里中心"},{"poiid":"B2094757D16AA1FD4398","title":"厚味香辣馆","lon":"121.449156586","lat":"31.2211242529","category":"247","category_name":"餐饮美食","address":"上海市静安区静安寺"},{"poiid":"B2094654DB69A0FA449B","title":"萤七人间 People seven","lon":"121.45002676183","lat":"31.219220560138","category":"257","category_name":"中餐厅","address":"巨鹿路805号近富民路"},{"poiid":"B2094654DB69A0FA449C","title":"椰香天堂泰国料理","lon":"121.44991","lat":"31.22092","category":"99","category_name":"泰国／越南菜品餐厅","address":"静安区富民路38号(近延安中路)"},{"poiid":"B2094757D06FA3FB419F","title":"窩","lon":"121.44984693","lat":"31.220437979","category":"65","category_name":"咖啡厅","address":"静安区巨鹿路786弄66号1楼(近富民路)"},{"poiid":"B2094753D76FAAFA449C","title":"上海滩国泰旗舰店","lon":"121.466011","lat":"31.216125","category":"249","category_name":"购物服务","address":"淮海中路868号"},{"poiid":"B209475CD564A7F84292","title":"上海滩新天地店","lon":"121.47463","lat":"31.22164","category":"119","category_name":"商场","address":"\"太仓路181弄新天地北里15号\r\n\""},{"poiid":"B209475CD564A7F8439E","title":"上海滩中信泰富店","lon":"121.45602","lat":"31.22851","category":"119","category_name":"商场","address":"\"南京西路1168号中信泰富广场，店铺号221.\r\n\""},{"poiid":"B2094757D06FA0F44593","title":"柒寿司(富民路店)","lon":"121.45014813109981","lat":"31.221289026267844","category":"95","category_name":"日本料理","address":"上海静安寺富民路51号"},{"poiid":"B2094757D068A7FA4698","title":"Dr. Beer","lon":"121.450329386","lat":"31.2207334453","category":"500","category_name":"未知分类","address":"上海市富民路80号(巨鹿路)"},{"poiid":"B2094655D26CAAF44692","title":"璞丽酒店(常德路)","lon":"121.44858","lat":"31.22251","category":"250","category_name":"公园户外","address":"静安区常德路1号(近延安中路)"},{"poiid":"B2094655D26EA1FE449F","title":"上海延安饭店","lon":"121.44827","lat":"31.22062","category":"214","category_name":"四星级宾馆","address":"静安区延安中路1111号(近华山路)"},{"poiid":"B2094757D569A3F9469A","title":"香格里拉大酒店(上海静安嘉里中心店)","lon":"121.45073378","lat":"31.22310384","category":"251","category_name":"出行住宿","address":"中国上海市静安区铜仁路"},{"poiid":"B2094757D06FA3FE489A","title":"南麓.浙里","lon":"121.45108","lat":"31.21981","category":"76","category_name":"上海菜","address":"静安区巨鹿路768号巨富大厦2楼(近富民路)"},{"poiid":"B2094654D564ABFA4693","title":"辉哥火锅","lon":"121.45095","lat":"31.2199","category":"86","category_name":"火锅店","address":"静安区巨鹿路795号(近富民路)"},{"poiid":"B2094757D16DA2F5419F","title":"泰籽","lon":"121.450883586","lat":"31.2201752344","category":"99","category_name":"泰国／越南菜品餐厅","address":"静安区巨鹿路768号巨富大厦G楼A-B室(近富民路)"},{"poiid":"B209475CD66BABF4409F","title":"大董烤鸭店","lon":"121.448539","lat":"31.223339","category":"247","category_name":"餐饮美食","address":"上海市 南京西路1601号越洋广场芮欧百货5楼"},{"poiid":"B2094655D264A1FF479D","title":"上海静安嘉里商务中心(北区)","lon":"121.44928","lat":"31.22384","category":"46","category_name":"楼宇","address":""},{"poiid":"B209475CD56BA2F44892","title":"翠园","lon":"121.449012","lat":"31.22355","category":"500","category_name":"未知分类","address":"上海市 延安西路1238号嘉里中心S4—01"},{"poiid":"B2094757D06FA5FC489D","title":"Le Creme Milano(富民路店)","lon":"121.451104","lat":"31.219465","category":"67","category_name":"甜品店","address":"静安区富民路173号(富民路巨鹿路)"},{"poiid":"B2094757D06FAAFD459F","title":"Pho Asia","lon":"121.450447","lat":"31.220718","category":"99","category_name":"泰国／越南菜品餐厅","address":"静安区富民路85号巨富大厦(近巨鹿路)"},{"poiid":"B2094757D465A3FD4699","title":"阿毛餐厅 富民路店","lon":"121.45041531544","lat":"31.219963834542","category":"247","category_name":"餐饮美食","address":"静安区富民路98号(近巨鹿路)"},{"poiid":"B2094751D56EA0F9489D","title":"Antoni Restaurant","lon":"121.4503","lat":"31.21974","category":"94","category_name":"西餐厅","address":"静安区巨鹿路794号(近富民路)"},{"poiid":"B2094655D26DABF4499E","title":"上海展览中心(5号门)","lon":"121.45153","lat":"31.22291","category":"183","category_name":"展览馆","address":""},{"poiid":"B2094757D068ABF4459C","title":"香港肥杜火锅","lon":"121.45016495","lat":"31.220844179","category":"86","category_name":"火锅店","address":"静安区富民路85号巨富大厦1楼(近巨鹿路)"},{"poiid":"B2094757D06FA6F4449F","title":"清风人家(静安店)","lon":"121.44802","lat":"31.22035","category":"260","category_name":"其他","address":"静安区延安中路1109号(近延安饭店)"},{"poiid":"B2094757D064A6F54998","title":"Juice","lon":"121.450010586","lat":"31.2197952269","category":"141","category_name":"服装鞋帽皮具店","address":"上海市静安区巨鹿路832号"},{"poiid":"B2094757D068A4FB419A","title":"富民路巨鹿路","lon":"121.45020024","lat":"31.221579561","category":"260","category_name":"其他","address":"上海静安区富民路巨鹿路口"},{"poiid":"B2094753DA65ABFB459F","title":"小贝壳海鲜火锅","lon":"121.448814","lat":"31.222833","category":"247","category_name":"餐饮美食","address":"上海市 万航渡路1号"},{"poiid":"B209475DD16EA4FC499F","title":"百美汇影城","lon":"121.448913","lat":"31.223381","category":"178","category_name":"电影院","address":"上海市 上海市静安区南京西路1551号静安嘉里中心商场N4-01室"},{"poiid":"B2094757D66DA5FF4798","title":"苏浙汇","lon":"121.44903058","lat":"31.221403258","category":"500","category_name":"未知分类","address":"上海延安西路"},{"poiid":"B2094757D06FA5F9459C","title":"JA Cafe (静安公园内)","lon":"121.4465","lat":"31.22271","category":"260","category_name":"其他","address":"静安区南京西路1649号静安公园内(近静安公园)"},{"poiid":"B2094757D16AA7FC439F","title":"莹七餐厅","lon":"121.449147586","lat":"31.221130253","category":"500","category_name":"未知分类","address":"上海巨鹿路805号"},{"poiid":"B2094757D069A5FC499B","title":"翠华","lon":"121.44918058","lat":"31.221185254","category":"249","category_name":"购物服务","address":"上海静安区华山路"},{"poiid":"B2094757D16DA3FC469C","title":"喫茶去茶社ZEN TEA ROOM","lon":"121.45004866","lat":"31.2195266501","category":"247","category_name":"餐饮美食","address":"上海卢湾区巨鹿路796号(近富民路)"},{"poiid":"B2094757D06FA6FC4999","title":"COSTA COFFEE(越洋广场店)","lon":"121.44875","lat":"31.2223","category":"65","category_name":"咖啡厅","address":"静安区南京西路1601号越洋广场1楼B单元(近常德路)"},{"poiid":"B2094757D065A3FA459D","title":"coconut paradise","lon":"121.449070586","lat":"31.2214652596","category":"500","category_name":"未知分类","address":"上海市静安区富民路38号近巨鹿路"},{"poiid":"B209475DD06EA7FC4498","title":"KABB","lon":"121.449417","lat":"31.223478","category":"500","category_name":"未知分类","address":"上海市 靜安嘉里中心"},{"poiid":"B2094654DA6CA0FD4999","title":"上海展览中心(4号门)","lon":"121.45215","lat":"31.22304","category":"183","category_name":"展览馆","address":"延安中路1000"},{"poiid":"B2094757D069A2F5479E","title":"和兴汤馆","lon":"121.44792946","lat":"31.221589774","category":"72","category_name":"广东菜","address":"静安区延安中路1123号(近富民路)"},{"poiid":"B2094757D169A0F84593","title":"一哥火锅","lon":"121.449226586","lat":"31.2211502534","category":"247","category_name":"餐饮美食","address":"上海市静安区华山路"},{"poiid":"B2094654DB6BA6FC429E","title":"格林豪泰(上海延安中路店)","lon":"121.4485","lat":"31.22102","category":"216","category_name":"经济型连锁酒店","address":"上海市延安中路1111号(近华山路)"},{"poiid":"B2094757D16DA1F5419A","title":"延安高架","lon":"121.45033958","lat":"31.222230274","category":"500","category_name":"未知分类","address":"上海市静安区"},{"poiid":"B2094757D069A2FF4599","title":"华东模范中学","lon":"121.4503","lat":"31.22113","category":"55","category_name":"中学","address":"静安区富民路43号(富民路延安中路)"},{"poiid":"B2094757D068A5FF409D","title":"阿毛酒家","lon":"121.45116153","lat":"31.220067263","category":"247","category_name":"餐饮美食","address":"上海富民路98号(巨鹿路)"},{"poiid":"B209475CDB6FA1FC499E","title":"PINTXOS","lon":"121.449722","lat":"31.223426","category":"500","category_name":"未知分类","address":"上海市 静安嘉里中心SB1-10"},{"poiid":"B2094654DB69AAF84092","title":"延安饭店东方厅","lon":"121.44627536163","lat":"31.220577794887","category":"247","category_name":"餐饮美食","address":"静安区延安中路1111号延安饭店12楼(近华山路)"},{"poiid":"B2094655D26EA6F4449A","title":"尼泊尔餐厅","lon":"121.45008","lat":"31.21929","category":"102","category_name":"印度风味","address":"静安区巨鹿路819弄4号"},{"poiid":"B2094654D564ABFA479A","title":"汇元坊","lon":"121.45104","lat":"31.21995","category":"76","category_name":"上海菜","address":"静安区巨鹿路793号(近富民路)"},{"poiid":"B2094753DA68A2F54393","title":"七條","lon":"121.451377","lat":"31.221981","category":"500","category_name":"未知分类","address":"上海市 芮欧百货B2"},{"poiid":"B209475DD264A2FB4192","title":"bunlife","lon":"121.449737","lat":"31.223474","category":"500","category_name":"未知分类","address":"上海市 嘉里中心"},{"poiid":"B2094757D16AA1FD4398","title":"厚味香辣馆","lon":"121.449156586","lat":"31.2211242529","category":"247","category_name":"餐饮美食","address":"上海市静安区静安寺"}]