[{"poiid":"B2094757D06FA0F44793","title":"小肥羊(金杨路店)","lon":"121.57667","lat":"31.24717","category":"86","category_name":"火锅店","address":"上海浦东新区金杨路283号(近金口路 装修中 约于4月底恢复营业)  "},{"poiid":"B2094757D068A2FC499D","title":"金杨新村","lon":"121.580062","lat":"31.249486","category":"252","category_name":"楼宇机构","address":"上海金杨路枣庄路"},{"poiid":"B2094654D568A0FB4798","title":"兰州拉面金杨拉面王","lon":"121.57984","lat":"31.24853","category":"68","category_name":"快餐厅","address":"浦东新区金杨路460号(近金口路)"},{"poiid":"B2094757D06FA7F4459A","title":"仁义火锅城(金杨路店)","lon":"121.5726","lat":"31.24648","category":"86","category_name":"火锅店","address":"浦东新区金杨路81号(居家桥路云山路间)"},{"poiid":"B2094757D06FA3F94598","title":"云山路地铁站","lon":"121.57365339","lat":"31.250920065","category":"36","category_name":"地铁站","address":"上海轨道交通,六号线,轨交云山路站,6"},{"poiid":"B2094757D068AAFE4092","title":"泓叶精菜坊","lon":"121.5765094","lat":"31.2531084","category":"72","category_name":"广东菜","address":"上海浦东新区张杨路3501号(枣庄路口 2月6日试营业)"},{"poiid":"B2094757D06FA6F54399","title":"肯德基 KFC (金杨店)","lon":"121.580584","lat":"31.249445","category":"500","category_name":"未知分类","address":"浦东新区金杨路524号(近枣庄路)"},{"poiid":"B2094757D06FAAFF4299","title":"湘乐汇(金桥国际店)","lon":"121.58017","lat":"31.25577","category":"77","category_name":"湖南菜","address":"浦东新区张杨路3501号金桥国际商业广场12座2楼(近枣庄路)"},{"poiid":"B2094757D068A2FF4993","title":"金杨花园","lon":"121.57728026","lat":"31.248318809","category":"47","category_name":"住宅区","address":"浦东新区金杨路311号(金口路口)"},{"poiid":"B2094757D064A2FC4998","title":"云山路张杨路","lon":"121.572011339","lat":"31.2496217887","category":"500","category_name":"未知分类","address":"上海市浦东新区"},{"poiid":"B2094654DA69A3FC4292","title":"新梅居-来来顺热气涮羊肉","lon":"121.57688","lat":"31.24302","category":"86","category_name":"火锅店","address":"浦东新区云山路1427-1433号(银山路口)"},{"poiid":"B2094757D064A0FC499B","title":"金杨中学羽毛球馆","lon":"121.57733","lat":"31.24878","category":"220","category_name":"运动场所","address":"浦东新区金口路166号金杨中学内"},{"poiid":"B2094757D068A4FC4793","title":"金杨地段医院","lon":"121.57317","lat":"31.24685","category":"162","category_name":"医院","address":"浦东新区金杨路121号(金杨路云山路)"},{"poiid":"B2094654D568A7F8479B","title":"颐品茶道 金桥店","lon":"121.57692826785","lat":"31.253004871059","category":"260","category_name":"其他","address":"浦东新区张杨路3399号(枣庄路口)"},{"poiid":"B2094757D06FA5F84499","title":"85度C(金杨店)","lon":"121.57983033","lat":"31.248967773","category":"112","category_name":"糕饼店","address":"浦东新区金杨路483号1楼"},{"poiid":"B2094751D26AA4FA4699","title":"金桥国际商业广场","lon":"121.576516","lat":"31.253373","category":"247","category_name":"餐饮美食","address":"浦东金桥国际商业广场12座2F"},{"poiid":"B2094757D06BA2FF449E","title":"金杨新村五街坊","lon":"121.57701","lat":"31.24651","category":"47","category_name":"住宅区","address":"上海市浦东新区金杨路金杨路220弄1-65号"},{"poiid":"B2094757D06AA2FD489F","title":"小宁波海鲜城","lon":"121.57436","lat":"31.24566","category":"75","category_name":"浙江菜","address":"浦东新区云山路1230号(近金杨路)"},{"poiid":"B2094454D36EA0FC4598","title":"Maan coffee","lon":"121.57595","lat":"31.25358","category":"247","category_name":"餐饮美食","address":"上海市 漫咖啡（金桥店）"},{"poiid":"B2094654DA69A3FD429F","title":"金杨新村五街坊(一号门)","lon":"121.57691","lat":"31.24731","category":"47","category_name":"住宅区","address":"金杨路308弄1-52号"},{"poiid":"B2094655D36CA0FE419C","title":"金杨路枣庄路","lon":"121.58121","lat":"31.25098","category":"38","category_name":"公交车站","address":"上海金杨路枣庄路金桥路"},{"poiid":"B2094750D464A4FD419F","title":"仁济医院","lon":"121.576828","lat":"31.251922","category":"162","category_name":"医院","address":"东方路1630"},{"poiid":"B2094654DA69A1F84293","title":"香山新村东北街坊","lon":"121.578","lat":"31.2483","category":"47","category_name":"住宅区","address":"德平路1065弄1-50号"},{"poiid":"B2094750DB6EA6F9439D","title":"红宝石金杨店","lon":"121.581665","lat":"31.248418","category":"67","category_name":"甜品店","address":"浦东新区金杨路486号(近枣庄路)"},{"poiid":"B2094757D065A2FB469C","title":"夜排挡","lon":"121.57631","lat":"31.24709","category":"68","category_name":"快餐厅","address":"浦东新区金杨新村两街坊口"},{"poiid":"B2094757D064A1F9459B","title":"缘品火锅坊","lon":"121.58073","lat":"31.24992","category":"86","category_name":"火锅店","address":"浦东新区金杨路558号(近枣庄路)"},{"poiid":"B2094757D16DA3F94099","title":"金杨中学","lon":"121.57744","lat":"31.24893","category":"55","category_name":"中学","address":"上海浦东新区金口路133号  "},{"poiid":"B2094757D66BABFE499E","title":"重庆鸡公煲 金杨店","lon":"121.57849","lat":"31.24768","category":"71","category_name":"四川菜","address":"浦东新区金杨路252号(近云山路)"},{"poiid":"B2094757D069AAF44993","title":"格力特健身中心","lon":"121.58154","lat":"31.25021","category":"148","category_name":"美容美发店","address":"浦东新区金杨路628号家得利超市3楼(近枣庄路)"},{"poiid":"B2094757D06FA6FF4199","title":"金杨七街坊","lon":"121.58035","lat":"31.247866","category":"47","category_name":"住宅区","address":"上海浦东新区枣庄路810弄(近金杨路)"},{"poiid":"B2094655D36CA0FE4299","title":"金杨路金口路","lon":"121.57954","lat":"31.24855","category":"38","category_name":"公交车站","address":""},{"poiid":"B2094757D064A7FF4793","title":"新亚大包(金杨店)","lon":"121.58026","lat":"31.25067","category":"68","category_name":"快餐厅","address":"浦东新区枣庄路765号(近金杨路)"},{"poiid":"B2094757D16CA3F9449B","title":"金童幼儿园","lon":"121.57510674","lat":"31.248309275","category":"57","category_name":"幼儿园","address":"浦东新区枣庄路685弄内(近张杨路)"},{"poiid":"B2094655D26EA3FF419E","title":"金杨公园","lon":"121.5776","lat":"31.24821","category":"196","category_name":"公园","address":""},{"poiid":"B2094757D568A0FF4893","title":"老式葱油饼","lon":"121.5770111","lat":"31.246515","category":"68","category_name":"快餐厅","address":"浦东新区金杨路308弄大门内(近金口路)"},{"poiid":"B2094654DA69A3FD4298","title":"文峰美发美容(金杨路)","lon":"121.57852","lat":"31.2476","category":"148","category_name":"美容美发店","address":""},{"poiid":"B2094752D56DABFB4799","title":"蜀华火锅","lon":"121.574933","lat":"31.246289","category":"247","category_name":"餐饮美食","address":"浦东新区云山路1228号"},{"poiid":"B2094655D26CA5FB4899","title":"金杨新村二街坊","lon":"121.57393","lat":"31.248949","category":"47","category_name":"住宅区","address":"云山路1043弄1-37号"},{"poiid":"B2094757D16CA4F8459C","title":"日出茶太 金杨店 CHATIME","lon":"121.580298","lat":"31.249158","category":"113","category_name":"冷饮店","address":"浦东新区金杨路500号(近枣庄路)"},{"poiid":"B2094757D764A5F9419A","title":"黔香阁 云山路店","lon":"121.575789","lat":"31.244336","category":"83","category_name":"云贵菜","address":"云山路133号近杨高中路"},{"poiid":"B2094757D168A5FC449F","title":"大壶春(云山路店)","lon":"121.57639","lat":"31.24367","category":"68","category_name":"快餐厅","address":"浦东新区云山路(近灵山路)"},{"poiid":"B2094757D064A1F94499","title":"新世纪名苑","lon":"121.57529","lat":"31.252804","category":"47","category_name":"住宅区","address":"上海市浦东新区枣庄路500弄"},{"poiid":"B2094750D164ABFA489B","title":"五角场","lon":"121.577552","lat":"31.248788","category":"500","category_name":"未知分类","address":null},{"poiid":"B2094654DA69A3FD459B","title":"金杨新村五街坊(五号门)","lon":"121.57511","lat":"31.24693","category":"47","category_name":"住宅区","address":"金杨路220弄1-65号"},{"poiid":"B2094655D26DA6F8489B","title":"好德No.3053","lon":"121.57592","lat":"31.24743","category":"117","category_name":"便民商店/便利店","address":"金杨路255-257号"},{"poiid":"B2094757D064A0FC4699","title":"美格菲音乐餐厅","lon":"121.579","lat":"31.24011","category":"94","category_name":"西餐厅","address":"浦东新区蓝天路601号(近云山路)"},{"poiid":"B2094655D36CA0FF4299","title":"金口路","lon":"121.57901","lat":"31.24814","category":"38","category_name":"公交车站","address":""},{"poiid":"B2094757D66DA2F5439C","title":"新西兰牛肉面","lon":"121.57456","lat":"31.24608","category":"68","category_name":"快餐厅","address":"浦东新区云山路1225号(金杨路云山路)"},{"poiid":"B2094654D568A0F44199","title":"光明乳业枣庄配送站","lon":"121.57676","lat":"31.24962","category":"117","category_name":"便民商店/便利店","address":""},{"poiid":"B2094757D16EABF9499A","title":"香山新村","lon":"121.57532369025","lat":"31.248709855441","category":"252","category_name":"楼宇机构","address":"上海德平路1125弄"},{"poiid":"B2094757D06FA0F44793","title":"小肥羊(金杨路店)","lon":"121.57667","lat":"31.24717","category":"86","category_name":"火锅店","address":"上海浦东新区金杨路283号(近金口路 装修中 约于4月底恢复营业)  "},{"poiid":"B2094757D068A2FC499D","title":"金杨新村","lon":"121.580062","lat":"31.249486","category":"252","category_name":"楼宇机构","address":"上海金杨路枣庄路"},{"poiid":"B2094654D568A0FB4798","title":"兰州拉面金杨拉面王","lon":"121.57984","lat":"31.24853","category":"68","category_name":"快餐厅","address":"浦东新区金杨路460号(近金口路)"},{"poiid":"B2094757D06FA7F4459A","title":"仁义火锅城(金杨路店)","lon":"121.5726","lat":"31.24648","category":"86","category_name":"火锅店","address":"浦东新区金杨路81号(居家桥路云山路间)"},{"poiid":"B2094757D06FA3F94598","title":"云山路地铁站","lon":"121.57365339","lat":"31.250920065","category":"36","category_name":"地铁站","address":"上海轨道交通,六号线,轨交云山路站,6"},{"poiid":"B2094757D068AAFE4092","title":"泓叶精菜坊","lon":"121.5765094","lat":"31.2531084","category":"72","category_name":"广东菜","address":"上海浦东新区张杨路3501号(枣庄路口 2月6日试营业)"},{"poiid":"B2094757D06FA6F54399","title":"肯德基 KFC (金杨店)","lon":"121.580584","lat":"31.249445","category":"500","category_name":"未知分类","address":"浦东新区金杨路524号(近枣庄路)"},{"poiid":"B2094757D06FAAFF4299","title":"湘乐汇(金桥国际店)","lon":"121.58017","lat":"31.25577","category":"77","category_name":"湖南菜","address":"浦东新区张杨路3501号金桥国际商业广场12座2楼(近枣庄路)"},{"poiid":"B2094757D068A2FF4993","title":"金杨花园","lon":"121.57728026","lat":"31.248318809","category":"47","category_name":"住宅区","address":"浦东新区金杨路311号(金口路口)"},{"poiid":"B2094757D064A2FC4998","title":"云山路张杨路","lon":"121.572011339","lat":"31.2496217887","category":"500","category_name":"未知分类","address":"上海市浦东新区"},{"poiid":"B2094654DA69A3FC4292","title":"新梅居-来来顺热气涮羊肉","lon":"121.57688","lat":"31.24302","category":"86","category_name":"火锅店","address":"浦东新区云山路1427-1433号(银山路口)"},{"poiid":"B2094757D064A0FC499B","title":"金杨中学羽毛球馆","lon":"121.57733","lat":"31.24878","category":"220","category_name":"运动场所","address":"浦东新区金口路166号金杨中学内"},{"poiid":"B2094757D068A4FC4793","title":"金杨地段医院","lon":"121.57317","lat":"31.24685","category":"162","category_name":"医院","address":"浦东新区金杨路121号(金杨路云山路)"},{"poiid":"B2094654D568A7F8479B","title":"颐品茶道 金桥店","lon":"121.57692826785","lat":"31.253004871059","category":"260","category_name":"其他","address":"浦东新区张杨路3399号(枣庄路口)"},{"poiid":"B2094757D06FA5F84499","title":"85度C(金杨店)","lon":"121.57983033","lat":"31.248967773","category":"112","category_name":"糕饼店","address":"浦东新区金杨路483号1楼"},{"poiid":"B2094751D26AA4FA4699","title":"金桥国际商业广场","lon":"121.576516","lat":"31.253373","category":"247","category_name":"餐饮美食","address":"浦东金桥国际商业广场12座2F"},{"poiid":"B2094757D06BA2FF449E","title":"金杨新村五街坊","lon":"121.57701","lat":"31.24651","category":"47","category_name":"住宅区","address":"上海市浦东新区金杨路金杨路220弄1-65号"},{"poiid":"B2094757D06AA2FD489F","title":"小宁波海鲜城","lon":"121.57436","lat":"31.24566","category":"75","category_name":"浙江菜","address":"浦东新区云山路1230号(近金杨路)"},{"poiid":"B2094454D36EA0FC4598","title":"Maan coffee","lon":"121.57595","lat":"31.25358","category":"247","category_name":"餐饮美食","address":"上海市 漫咖啡（金桥店）"},{"poiid":"B2094654DA69A3FD429F","title":"金杨新村五街坊(一号门)","lon":"121.57691","lat":"31.24731","category":"47","category_name":"住宅区","address":"金杨路308弄1-52号"},{"poiid":"B2094655D36CA0FE419C","title":"金杨路枣庄路","lon":"121.58121","lat":"31.25098","category":"38","category_name":"公交车站","address":"上海金杨路枣庄路金桥路"},{"poiid":"B2094750D464A4FD419F","title":"仁济医院","lon":"121.576828","lat":"31.251922","category":"162","category_name":"医院","address":"东方路1630"},{"poiid":"B2094654DA69A1F84293","title":"香山新村东北街坊","lon":"121.578","lat":"31.2483","category":"47","category_name":"住宅区","address":"德平路1065弄1-50号"},{"poiid":"B2094750DB6EA6F9439D","title":"红宝石金杨店","lon":"121.581665","lat":"31.248418","category":"67","category_name":"甜品店","address":"浦东新区金杨路486号(近枣庄路)"},{"poiid":"B2094757D065A2FB469C","title":"夜排挡","lon":"121.57631","lat":"31.24709","category":"68","category_name":"快餐厅","address":"浦东新区金杨新村两街坊口"},{"poiid":"B2094757D064A1F9459B","title":"缘品火锅坊","lon":"121.58073","lat":"31.24992","category":"86","category_name":"火锅店","address":"浦东新区金杨路558号(近枣庄路)"},{"poiid":"B2094757D16DA3F94099","title":"金杨中学","lon":"121.57744","lat":"31.24893","category":"55","category_name":"中学","address":"上海浦东新区金口路133号  "},{"poiid":"B2094757D66BABFE499E","title":"重庆鸡公煲 金杨店","lon":"121.57849","lat":"31.24768","category":"71","category_name":"四川菜","address":"浦东新区金杨路252号(近云山路)"},{"poiid":"B2094757D069AAF44993","title":"格力特健身中心","lon":"121.58154","lat":"31.25021","category":"148","category_name":"美容美发店","address":"浦东新区金杨路628号家得利超市3楼(近枣庄路)"},{"poiid":"B2094757D06FA6FF4199","title":"金杨七街坊","lon":"121.58035","lat":"31.247866","category":"47","category_name":"住宅区","address":"上海浦东新区枣庄路810弄(近金杨路)"},{"poiid":"B2094655D36CA0FE4299","title":"金杨路金口路","lon":"121.57954","lat":"31.24855","category":"38","category_name":"公交车站","address":""},{"poiid":"B2094757D064A7FF4793","title":"新亚大包(金杨店)","lon":"121.58026","lat":"31.25067","category":"68","category_name":"快餐厅","address":"浦东新区枣庄路765号(近金杨路)"},{"poiid":"B2094757D16CA3F9449B","title":"金童幼儿园","lon":"121.57510674","lat":"31.248309275","category":"57","category_name":"幼儿园","address":"浦东新区枣庄路685弄内(近张杨路)"},{"poiid":"B2094655D26EA3FF419E","title":"金杨公园","lon":"121.5776","lat":"31.24821","category":"196","category_name":"公园","address":""},{"poiid":"B2094757D568A0FF4893","title":"老式葱油饼","lon":"121.5770111","lat":"31.246515","category":"68","category_name":"快餐厅","address":"浦东新区金杨路308弄大门内(近金口路)"},{"poiid":"B2094654DA69A3FD4298","title":"文峰美发美容(金杨路)","lon":"121.57852","lat":"31.2476","category":"148","category_name":"美容美发店","address":""},{"poiid":"B2094752D56DABFB4799","title":"蜀华火锅","lon":"121.574933","lat":"31.246289","category":"247","category_name":"餐饮美食","address":"浦东新区云山路1228号"},{"poiid":"B2094655D26CA5FB4899","title":"金杨新村二街坊","lon":"121.57393","lat":"31.248949","category":"47","category_name":"住宅区","address":"云山路1043弄1-37号"},{"poiid":"B2094757D16CA4F8459C","title":"日出茶太 金杨店 CHATIME","lon":"121.580298","lat":"31.249158","category":"113","category_name":"冷饮店","address":"浦东新区金杨路500号(近枣庄路)"},{"poiid":"B2094757D764A5F9419A","title":"黔香阁 云山路店","lon":"121.575789","lat":"31.244336","category":"83","category_name":"云贵菜","address":"云山路133号近杨高中路"},{"poiid":"B2094757D168A5FC449F","title":"大壶春(云山路店)","lon":"121.57639","lat":"31.24367","category":"68","category_name":"快餐厅","address":"浦东新区云山路(近灵山路)"},{"poiid":"B2094757D064A1F94499","title":"新世纪名苑","lon":"121.57529","lat":"31.252804","category":"47","category_name":"住宅区","address":"上海市浦东新区枣庄路500弄"},{"poiid":"B2094750D164ABFA489B","title":"五角场","lon":"121.577552","lat":"31.248788","category":"500","category_name":"未知分类","address":null},{"poiid":"B2094654DA69A3FD459B","title":"金杨新村五街坊(五号门)","lon":"121.57511","lat":"31.24693","category":"47","category_name":"住宅区","address":"金杨路220弄1-65号"},{"poiid":"B2094655D26DA6F8489B","title":"好德No.3053","lon":"121.57592","lat":"31.24743","category":"117","category_name":"便民商店/便利店","address":"金杨路255-257号"},{"poiid":"B2094757D064A0FC4699","title":"美格菲音乐餐厅","lon":"121.579","lat":"31.24011","category":"94","category_name":"西餐厅","address":"浦东新区蓝天路601号(近云山路)"},{"poiid":"B2094655D36CA0FF4299","title":"金口路","lon":"121.57901","lat":"31.24814","category":"38","category_name":"公交车站","address":""},{"poiid":"B2094757D66DA2F5439C","title":"新西兰牛肉面","lon":"121.57456","lat":"31.24608","category":"68","category_name":"快餐厅","address":"浦东新区云山路1225号(金杨路云山路)"},{"poiid":"B2094654D568A0F44199","title":"光明乳业枣庄配送站","lon":"121.57676","lat":"31.24962","category":"117","category_name":"便民商店/便利店","address":""},{"poiid":"B2094757D16EABF9499A","title":"香山新村","lon":"121.57532369025","lat":"31.248709855441","category":"252","category_name":"楼宇机构","address":"上海德平路1125弄"},{"poiid":"B2094757D06FA0F44793","title":"小肥羊(金杨路店)","lon":"121.57667","lat":"31.24717","category":"86","category_name":"火锅店","address":"上海浦东新区金杨路283号(近金口路 装修中 约于4月底恢复营业)  "},{"poiid":"B2094757D068A2FC499D","title":"金杨新村","lon":"121.580062","lat":"31.249486","category":"252","category_name":"楼宇机构","address":"上海金杨路枣庄路"},{"poiid":"B2094654D568A0FB4798","title":"兰州拉面金杨拉面王","lon":"121.57984","lat":"31.24853","category":"68","category_name":"快餐厅","address":"浦东新区金杨路460号(近金口路)"},{"poiid":"B2094757D06FA7F4459A","title":"仁义火锅城(金杨路店)","lon":"121.5726","lat":"31.24648","category":"86","category_name":"火锅店","address":"浦东新区金杨路81号(居家桥路云山路间)"},{"poiid":"B2094757D06FA3F94598","title":"云山路地铁站","lon":"121.57365339","lat":"31.250920065","category":"36","category_name":"地铁站","address":"上海轨道交通,六号线,轨交云山路站,6"},{"poiid":"B2094757D068AAFE4092","title":"泓叶精菜坊","lon":"121.5765094","lat":"31.2531084","category":"72","category_name":"广东菜","address":"上海浦东新区张杨路3501号(枣庄路口 2月6日试营业)"},{"poiid":"B2094757D06FA6F54399","title":"肯德基 KFC (金杨店)","lon":"121.580584","lat":"31.249445","category":"500","category_name":"未知分类","address":"浦东新区金杨路524号(近枣庄路)"},{"poiid":"B2094757D06FAAFF4299","title":"湘乐汇(金桥国际店)","lon":"121.58017","lat":"31.25577","category":"77","category_name":"湖南菜","address":"浦东新区张杨路3501号金桥国际商业广场12座2楼(近枣庄路)"},{"poiid":"B2094757D068A2FF4993","title":"金杨花园","lon":"121.57728026","lat":"31.248318809","category":"47","category_name":"住宅区","address":"浦东新区金杨路311号(金口路口)"},{"poiid":"B2094757D064A2FC4998","title":"云山路张杨路","lon":"121.572011339","lat":"31.2496217887","category":"500","category_name":"未知分类","address":"上海市浦东新区"},{"poiid":"B2094654DA69A3FC4292","title":"新梅居-来来顺热气涮羊肉","lon":"121.57688","lat":"31.24302","category":"86","category_name":"火锅店","address":"浦东新区云山路1427-1433号(银山路口)"},{"poiid":"B2094757D064A0FC499B","title":"金杨中学羽毛球馆","lon":"121.57733","lat":"31.24878","category":"220","category_name":"运动场所","address":"浦东新区金口路166号金杨中学内"},{"poiid":"B2094757D068A4FC4793","title":"金杨地段医院","lon":"121.57317","lat":"31.24685","category":"162","category_name":"医院","address":"浦东新区金杨路121号(金杨路云山路)"},{"poiid":"B2094654D568A7F8479B","title":"颐品茶道 金桥店","lon":"121.57692826785","lat":"31.253004871059","category":"260","category_name":"其他","address":"浦东新区张杨路3399号(枣庄路口)"},{"poiid":"B2094757D06FA5F84499","title":"85度C(金杨店)","lon":"121.57983033","lat":"31.248967773","category":"112","category_name":"糕饼店","address":"浦东新区金杨路483号1楼"},{"poiid":"B2094751D26AA4FA4699","title":"金桥国际商业广场","lon":"121.576516","lat":"31.253373","category":"247","category_name":"餐饮美食","address":"浦东金桥国际商业广场12座2F"},{"poiid":"B2094757D06BA2FF449E","title":"金杨新村五街坊","lon":"121.57701","lat":"31.24651","category":"47","category_name":"住宅区","address":"上海市浦东新区金杨路金杨路220弄1-65号"},{"poiid":"B2094757D06AA2FD489F","title":"小宁波海鲜城","lon":"121.57436","lat":"31.24566","category":"75","category_name":"浙江菜","address":"浦东新区云山路1230号(近金杨路)"},{"poiid":"B2094454D36EA0FC4598","title":"Maan coffee","lon":"121.57595","lat":"31.25358","category":"247","category_name":"餐饮美食","address":"上海市 漫咖啡（金桥店）"},{"poiid":"B2094654DA69A3FD429F","title":"金杨新村五街坊(一号门)","lon":"121.57691","lat":"31.24731","category":"47","category_name":"住宅区","address":"金杨路308弄1-52号"},{"poiid":"B2094655D36CA0FE419C","title":"金杨路枣庄路","lon":"121.58121","lat":"31.25098","category":"38","category_name":"公交车站","address":"上海金杨路枣庄路金桥路"},{"poiid":"B2094750D464A4FD419F","title":"仁济医院","lon":"121.576828","lat":"31.251922","category":"162","category_name":"医院","address":"东方路1630"},{"poiid":"B2094654DA69A1F84293","title":"香山新村东北街坊","lon":"121.578","lat":"31.2483","category":"47","category_name":"住宅区","address":"德平路1065弄1-50号"},{"poiid":"B2094750DB6EA6F9439D","title":"红宝石金杨店","lon":"121.581665","lat":"31.248418","category":"67","category_name":"甜品店","address":"浦东新区金杨路486号(近枣庄路)"},{"poiid":"B2094757D065A2FB469C","title":"夜排挡","lon":"121.57631","lat":"31.24709","category":"68","category_name":"快餐厅","address":"浦东新区金杨新村两街坊口"},{"poiid":"B2094757D064A1F9459B","title":"缘品火锅坊","lon":"121.58073","lat":"31.24992","category":"86","category_name":"火锅店","address":"浦东新区金杨路558号(近枣庄路)"},{"poiid":"B2094757D16DA3F94099","title":"金杨中学","lon":"121.57744","lat":"31.24893","category":"55","category_name":"中学","address":"上海浦东新区金口路133号  "},{"poiid":"B2094757D66BABFE499E","title":"重庆鸡公煲 金杨店","lon":"121.57849","lat":"31.24768","category":"71","category_name":"四川菜","address":"浦东新区金杨路252号(近云山路)"},{"poiid":"B2094757D069AAF44993","title":"格力特健身中心","lon":"121.58154","lat":"31.25021","category":"148","category_name":"美容美发店","address":"浦东新区金杨路628号家得利超市3楼(近枣庄路)"},{"poiid":"B2094757D06FA6FF4199","title":"金杨七街坊","lon":"121.58035","lat":"31.247866","category":"47","category_name":"住宅区","address":"上海浦东新区枣庄路810弄(近金杨路)"},{"poiid":"B2094655D36CA0FE4299","title":"金杨路金口路","lon":"121.57954","lat":"31.24855","category":"38","category_name":"公交车站","address":""},{"poiid":"B2094757D064A7FF4793","title":"新亚大包(金杨店)","lon":"121.58026","lat":"31.25067","category":"68","category_name":"快餐厅","address":"浦东新区枣庄路765号(近金杨路)"},{"poiid":"B2094757D16CA3F9449B","title":"金童幼儿园","lon":"121.57510674","lat":"31.248309275","category":"57","category_name":"幼儿园","address":"浦东新区枣庄路685弄内(近张杨路)"},{"poiid":"B2094655D26EA3FF419E","title":"金杨公园","lon":"121.5776","lat":"31.24821","category":"196","category_name":"公园","address":""},{"poiid":"B2094757D568A0FF4893","title":"老式葱油饼","lon":"121.5770111","lat":"31.246515","category":"68","category_name":"快餐厅","address":"浦东新区金杨路308弄大门内(近金口路)"},{"poiid":"B2094654DA69A3FD4298","title":"文峰美发美容(金杨路)","lon":"121.57852","lat":"31.2476","category":"148","category_name":"美容美发店","address":""},{"poiid":"B2094752D56DABFB4799","title":"蜀华火锅","lon":"121.574933","lat":"31.246289","category":"247","category_name":"餐饮美食","address":"浦东新区云山路1228号"},{"poiid":"B2094655D26CA5FB4899","title":"金杨新村二街坊","lon":"121.57393","lat":"31.248949","category":"47","category_name":"住宅区","address":"云山路1043弄1-37号"},{"poiid":"B2094757D16CA4F8459C","title":"日出茶太 金杨店 CHATIME","lon":"121.580298","lat":"31.249158","category":"113","category_name":"冷饮店","address":"浦东新区金杨路500号(近枣庄路)"},{"poiid":"B2094757D764A5F9419A","title":"黔香阁 云山路店","lon":"121.575789","lat":"31.244336","category":"83","category_name":"云贵菜","address":"云山路133号近杨高中路"},{"poiid":"B2094757D168A5FC449F","title":"大壶春(云山路店)","lon":"121.57639","lat":"31.24367","category":"68","category_name":"快餐厅","address":"浦东新区云山路(近灵山路)"},{"poiid":"B2094757D064A1F94499","title":"新世纪名苑","lon":"121.57529","lat":"31.252804","category":"47","category_name":"住宅区","address":"上海市浦东新区枣庄路500弄"},{"poiid":"B2094750D164ABFA489B","title":"五角场","lon":"121.577552","lat":"31.248788","category":"500","category_name":"未知分类","address":null},{"poiid":"B2094654DA69A3FD459B","title":"金杨新村五街坊(五号门)","lon":"121.57511","lat":"31.24693","category":"47","category_name":"住宅区","address":"金杨路220弄1-65号"},{"poiid":"B2094655D26DA6F8489B","title":"好德No.3053","lon":"121.57592","lat":"31.24743","category":"117","category_name":"便民商店/便利店","address":"金杨路255-257号"},{"poiid":"B2094757D064A0FC4699","title":"美格菲音乐餐厅","lon":"121.579","lat":"31.24011","category":"94","category_name":"西餐厅","address":"浦东新区蓝天路601号(近云山路)"},{"poiid":"B2094655D36CA0FF4299","title":"金口路","lon":"121.57901","lat":"31.24814","category":"38","category_name":"公交车站","address":""},{"poiid":"B2094757D66DA2F5439C","title":"新西兰牛肉面","lon":"121.57456","lat":"31.24608","category":"68","category_name":"快餐厅","address":"浦东新区云山路1225号(金杨路云山路)"},{"poiid":"B2094654D568A0F44199","title":"光明乳业枣庄配送站","lon":"121.57676","lat":"31.24962","category":"117","category_name":"便民商店/便利店","address":""},{"poiid":"B2094757D16EABF9499A","title":"香山新村","lon":"121.57532369025","lat":"31.248709855441","category":"252","category_name":"楼宇机构","address":"上海德平路1125弄"},{"poiid":"B2094757D06FA0F44793","title":"小肥羊(金杨路店)","lon":"121.57667","lat":"31.24717","category":"86","category_name":"火锅店","address":"上海浦东新区金杨路283号(近金口路 装修中 约于4月底恢复营业)  "},{"poiid":"B2094757D068A2FC499D","title":"金杨新村","lon":"121.580062","lat":"31.249486","category":"252","category_name":"楼宇机构","address":"上海金杨路枣庄路"},{"poiid":"B2094654D568A0FB4798","title":"兰州拉面金杨拉面王","lon":"121.57984","lat":"31.24853","category":"68","category_name":"快餐厅","address":"浦东新区金杨路460号(近金口路)"},{"poiid":"B2094757D06FA7F4459A","title":"仁义火锅城(金杨路店)","lon":"121.5726","lat":"31.24648","category":"86","category_name":"火锅店","address":"浦东新区金杨路81号(居家桥路云山路间)"},{"poiid":"B2094757D06FA3F94598","title":"云山路地铁站","lon":"121.57365339","lat":"31.250920065","category":"36","category_name":"地铁站","address":"上海轨道交通,六号线,轨交云山路站,6"},{"poiid":"B2094757D068AAFE4092","title":"泓叶精菜坊","lon":"121.5765094","lat":"31.2531084","category":"72","category_name":"广东菜","address":"上海浦东新区张杨路3501号(枣庄路口 2月6日试营业)"},{"poiid":"B2094757D06FA6F54399","title":"肯德基 KFC (金杨店)","lon":"121.580584","lat":"31.249445","category":"500","category_name":"未知分类","address":"浦东新区金杨路524号(近枣庄路)"},{"poiid":"B2094757D06FAAFF4299","title":"湘乐汇(金桥国际店)","lon":"121.58017","lat":"31.25577","category":"77","category_name":"湖南菜","address":"浦东新区张杨路3501号金桥国际商业广场12座2楼(近枣庄路)"},{"poiid":"B2094757D068A2FF4993","title":"金杨花园","lon":"121.57728026","lat":"31.248318809","category":"47","category_name":"住宅区","address":"浦东新区金杨路311号(金口路口)"},{"poiid":"B2094757D064A2FC4998","title":"云山路张杨路","lon":"121.572011339","lat":"31.2496217887","category":"500","category_name":"未知分类","address":"上海市浦东新区"},{"poiid":"B2094654DA69A3FC4292","title":"新梅居-来来顺热气涮羊肉","lon":"121.57688","lat":"31.24302","category":"86","category_name":"火锅店","address":"浦东新区云山路1427-1433号(银山路口)"},{"poiid":"B2094757D064A0FC499B","title":"金杨中学羽毛球馆","lon":"121.57733","lat":"31.24878","category":"220","category_name":"运动场所","address":"浦东新区金口路166号金杨中学内"},{"poiid":"B2094757D068A4FC4793","title":"金杨地段医院","lon":"121.57317","lat":"31.24685","category":"162","category_name":"医院","address":"浦东新区金杨路121号(金杨路云山路)"},{"poiid":"B2094654D568A7F8479B","title":"颐品茶道 金桥店","lon":"121.57692826785","lat":"31.253004871059","category":"260","category_name":"其他","address":"浦东新区张杨路3399号(枣庄路口)"},{"poiid":"B2094757D06FA5F84499","title":"85度C(金杨店)","lon":"121.57983033","lat":"31.248967773","category":"112","category_name":"糕饼店","address":"浦东新区金杨路483号1楼"},{"poiid":"B2094751D26AA4FA4699","title":"金桥国际商业广场","lon":"121.576516","lat":"31.253373","category":"247","category_name":"餐饮美食","address":"浦东金桥国际商业广场12座2F"},{"poiid":"B2094757D06BA2FF449E","title":"金杨新村五街坊","lon":"121.57701","lat":"31.24651","category":"47","category_name":"住宅区","address":"上海市浦东新区金杨路金杨路220弄1-65号"},{"poiid":"B2094757D06AA2FD489F","title":"小宁波海鲜城","lon":"121.57436","lat":"31.24566","category":"75","category_name":"浙江菜","address":"浦东新区云山路1230号(近金杨路)"},{"poiid":"B2094454D36EA0FC4598","title":"Maan coffee","lon":"121.57595","lat":"31.25358","category":"247","category_name":"餐饮美食","address":"上海市 漫咖啡（金桥店）"},{"poiid":"B2094654DA69A3FD429F","title":"金杨新村五街坊(一号门)","lon":"121.57691","lat":"31.24731","category":"47","category_name":"住宅区","address":"金杨路308弄1-52号"},{"poiid":"B2094655D36CA0FE419C","title":"金杨路枣庄路","lon":"121.58121","lat":"31.25098","category":"38","category_name":"公交车站","address":"上海金杨路枣庄路金桥路"},{"poiid":"B2094750D464A4FD419F","title":"仁济医院","lon":"121.576828","lat":"31.251922","category":"162","category_name":"医院","address":"东方路1630"},{"poiid":"B2094654DA69A1F84293","title":"香山新村东北街坊","lon":"121.578","lat":"31.2483","category":"47","category_name":"住宅区","address":"德平路1065弄1-50号"},{"poiid":"B2094750DB6EA6F9439D","title":"红宝石金杨店","lon":"121.581665","lat":"31.248418","category":"67","category_name":"甜品店","address":"浦东新区金杨路486号(近枣庄路)"},{"poiid":"B2094757D065A2FB469C","title":"夜排挡","lon":"121.57631","lat":"31.24709","category":"68","category_name":"快餐厅","address":"浦东新区金杨新村两街坊口"},{"poiid":"B2094757D064A1F9459B","title":"缘品火锅坊","lon":"121.58073","lat":"31.24992","category":"86","category_name":"火锅店","address":"浦东新区金杨路558号(近枣庄路)"},{"poiid":"B2094757D16DA3F94099","title":"金杨中学","lon":"121.57744","lat":"31.24893","category":"55","category_name":"中学","address":"上海浦东新区金口路133号  "},{"poiid":"B2094757D66BABFE499E","title":"重庆鸡公煲 金杨店","lon":"121.57849","lat":"31.24768","category":"71","category_name":"四川菜","address":"浦东新区金杨路252号(近云山路)"},{"poiid":"B2094757D069AAF44993","title":"格力特健身中心","lon":"121.58154","lat":"31.25021","category":"148","category_name":"美容美发店","address":"浦东新区金杨路628号家得利超市3楼(近枣庄路)"},{"poiid":"B2094757D06FA6FF4199","title":"金杨七街坊","lon":"121.58035","lat":"31.247866","category":"47","category_name":"住宅区","address":"上海浦东新区枣庄路810弄(近金杨路)"},{"poiid":"B2094655D36CA0FE4299","title":"金杨路金口路","lon":"121.57954","lat":"31.24855","category":"38","category_name":"公交车站","address":""},{"poiid":"B2094757D064A7FF4793","title":"新亚大包(金杨店)","lon":"121.58026","lat":"31.25067","category":"68","category_name":"快餐厅","address":"浦东新区枣庄路765号(近金杨路)"},{"poiid":"B2094757D16CA3F9449B","title":"金童幼儿园","lon":"121.57510674","lat":"31.248309275","category":"57","category_name":"幼儿园","address":"浦东新区枣庄路685弄内(近张杨路)"},{"poiid":"B2094655D26EA3FF419E","title":"金杨公园","lon":"121.5776","lat":"31.24821","category":"196","category_name":"公园","address":""},{"poiid":"B2094757D568A0FF4893","title":"老式葱油饼","lon":"121.5770111","lat":"31.246515","category":"68","category_name":"快餐厅","address":"浦东新区金杨路308弄大门内(近金口路)"},{"poiid":"B2094654DA69A3FD4298","title":"文峰美发美容(金杨路)","lon":"121.57852","lat":"31.2476","category":"148","category_name":"美容美发店","address":""},{"poiid":"B2094752D56DABFB4799","title":"蜀华火锅","lon":"121.574933","lat":"31.246289","category":"247","category_name":"餐饮美食","address":"浦东新区云山路1228号"},{"poiid":"B2094655D26CA5FB4899","title":"金杨新村二街坊","lon":"121.57393","lat":"31.248949","category":"47","category_name":"住宅区","address":"云山路1043弄1-37号"},{"poiid":"B2094757D16CA4F8459C","title":"日出茶太 金杨店 CHATIME","lon":"121.580298","lat":"31.249158","category":"113","category_name":"冷饮店","address":"浦东新区金杨路500号(近枣庄路)"},{"poiid":"B2094757D764A5F9419A","title":"黔香阁 云山路店","lon":"121.575789","lat":"31.244336","category":"83","category_name":"云贵菜","address":"云山路133号近杨高中路"},{"poiid":"B2094757D168A5FC449F","title":"大壶春(云山路店)","lon":"121.57639","lat":"31.24367","category":"68","category_name":"快餐厅","address":"浦东新区云山路(近灵山路)"},{"poiid":"B2094757D064A1F94499","title":"新世纪名苑","lon":"121.57529","lat":"31.252804","category":"47","category_name":"住宅区","address":"上海市浦东新区枣庄路500弄"},{"poiid":"B2094750D164ABFA489B","title":"五角场","lon":"121.577552","lat":"31.248788","category":"500","category_name":"未知分类","address":null},{"poiid":"B2094654DA69A3FD459B","title":"金杨新村五街坊(五号门)","lon":"121.57511","lat":"31.24693","category":"47","category_name":"住宅区","address":"金杨路220弄1-65号"},{"poiid":"B2094655D26DA6F8489B","title":"好德No.3053","lon":"121.57592","lat":"31.24743","category":"117","category_name":"便民商店/便利店","address":"金杨路255-257号"},{"poiid":"B2094757D064A0FC4699","title":"美格菲音乐餐厅","lon":"121.579","lat":"31.24011","category":"94","category_name":"西餐厅","address":"浦东新区蓝天路601号(近云山路)"},{"poiid":"B2094655D36CA0FF4299","title":"金口路","lon":"121.57901","lat":"31.24814","category":"38","category_name":"公交车站","address":""},{"poiid":"B2094757D66DA2F5439C","title":"新西兰牛肉面","lon":"121.57456","lat":"31.24608","category":"68","category_name":"快餐厅","address":"浦东新区云山路1225号(金杨路云山路)"},{"poiid":"B2094654D568A0F44199","title":"光明乳业枣庄配送站","lon":"121.57676","lat":"31.24962","category":"117","category_name":"便民商店/便利店","address":""},{"poiid":"B2094757D16EABF9499A","title":"香山新村","lon":"121.57532369025","lat":"31.248709855441","category":"252","category_name":"楼宇机构","address":"上海德平路1125弄"}]