[{"poiid":"B2094757D068ABFA409D","title":"韩湘水博园","lon":"121.33102977","lat":"30.984719828","category":"196","category_name":"公园","address":"闵行区江川西路3805号"},{"poiid":"B2094757D068ABF4409C","title":"上海仙鹤园","lon":"121.331335","lat":"30.995732","category":"260","category_name":"其他","address":"上海仙鹤路"},{"poiid":"B2094655D26BA1F94199","title":"民仙路仙鹤路","lon":"121.33912","lat":"30.99294","category":"38","category_name":"公交车站","address":""},{"poiid":"B2094654DB6FABF54998","title":"领先食品(上海)发展有限公司","lon":"121.34564","lat":"30.98753","category":"263","category_name":"公司","address":"江川路2285号"},{"poiid":"B2094757D16CA0FA409B","title":"上海市自来水闵行有限公司第二水厂","lon":"121.3456721","lat":"30.98572573","category":"500","category_name":"未知分类","address":"上海市闵行区江川西路2009号"},{"poiid":"B2094655D36CA7FF469D","title":"红钢","lon":"121.35205","lat":"30.98841","category":"38","category_name":"公交车站","address":""},{"poiid":"B2094757D165A7F9499B","title":"莘荷线","lon":"121.348839","lat":"30.987572","category":"500","category_name":"未知分类","address":"上海莘庄—荷巷桥"},{"poiid":"B2094654DB6FAAFD4899","title":"盛源花苑","lon":"121.33554","lat":"30.99339","category":"47","category_name":"住宅区","address":"马桥镇"},{"poiid":"B2094654DB6FAAFD4192","title":"上重万登商贸铸钢宿舍","lon":"121.35514","lat":"30.98946","category":"47","category_name":"住宅区","address":""},{"poiid":"B2094757D16EA3FA4393","title":"上海电气重工集团","lon":"121.358845272","lat":"30.9976439103","category":"46","category_name":"楼宇","address":"上海闵行区东川路3988号"},{"poiid":"B2094654DB6FAAFC4092","title":"大成嘉吉高果糖(上海)有限公司","lon":"121.35337","lat":"30.98649","category":"263","category_name":"公司","address":"江川路2017-1号"},{"poiid":"B2094654DB6FAAFD4898","title":"上海仙鹤墓园烟杂服务部","lon":"121.33133","lat":"30.99573","category":"117","category_name":"便民商店/便利店","address":""},{"poiid":"B2094654DB6FAAFD499E","title":"万家公园","lon":"121.32972","lat":"30.99202","category":"196","category_name":"公园","address":"马桥镇"},{"poiid":"B2094750DA6AAAF94593","title":"浦江书院","lon":"121.331214","lat":"30.983072","category":"250","category_name":"公园户外","address":"江川路3805号"},{"poiid":"B2094654DB6FAAFC429D","title":"闵行区青少年实践教育基地","lon":"121.36145","lat":"30.99088","category":"253","category_name":"校园生活","address":"江川路1855"},{"poiid":"B2094654DB64A0F4409A","title":"上海申储物流有限公司","lon":"121.35545","lat":"30.98243","category":"248","category_name":"生活娱乐","address":"西畴路376号"},{"poiid":"B2094654DB6FAAFC419D","title":"中盐上海食盐配送中心","lon":"121.35227","lat":"30.97942","category":"248","category_name":"生活娱乐","address":"西畴路526"},{"poiid":"B2094654DB6FAAF84199","title":"上海鹤墓园骨灰寄存室","lon":"121.33132","lat":"30.99569","category":"248","category_name":"生活娱乐","address":""},{"poiid":"B2094757D16EAAF5479A","title":"北松公路","lon":"121.361456","lat":"30.99088","category":"500","category_name":"未知分类","address":"上海北松公路 闵行区至松江区"},{"poiid":"B2094757D164A6FD489E","title":"昆阳路","lon":"121.327817403","lat":"30.9969092777","category":"500","category_name":"未知分类","address":"上海闵行区"},{"poiid":"B2094654DB6FABF44398","title":"上海上船川田钢结构有限公司","lon":"121.35224","lat":"30.97272","category":"263","category_name":"公司","address":""}]