[{"poiid":"B2094753D36EA1FC409D","title":"啡你啡思,faneeface,coffee","lon":"121.466694","lat":"31.225741","category":"113","category_name":"冷饮店","address":"大沽路396号"},{"poiid":"B2094757D06FA0FD4999","title":"上海大剧院-大剧场(Shanghai Grand Theatre - Lyric Theatre)","lon":"121.46956921","lat":"31.225844356","category":"260","category_name":"其他","address":"黄浦区人民大道300号大剧院内(近黄陂南路)"},{"poiid":"B2094757D06FABFF459F","title":"Masala art香料艺术 印度餐厅","lon":"121.46685028","lat":"31.225439071","category":"260","category_name":"其他","address":"静安区大沽路401号(近成都北路)"},{"poiid":"B2094753D76FAAFA449C","title":"上海滩国泰旗舰店","lon":"121.466011","lat":"31.216125","category":"249","category_name":"购物服务","address":"淮海中路868号"},{"poiid":"B209475CD564A7F84292","title":"上海滩新天地店","lon":"121.47463","lat":"31.22164","category":"119","category_name":"商场","address":"\"太仓路181弄新天地北里15号\r\n\""},{"poiid":"B209475CD564A7F8439E","title":"上海滩中信泰富店","lon":"121.45602","lat":"31.22851","category":"119","category_name":"商场","address":"\"南京西路1168号中信泰富广场，店铺号221.\r\n\""},{"poiid":"B2094757D064A0F54893","title":"大沽路","lon":"121.467274","lat":"31.225619","category":"500","category_name":"未知分类","address":"上海静安区大沽路"},{"poiid":"B2094757D068A3FF429A","title":"中共二大会址纪念馆","lon":"121.4666786917877","lat":"31.224276565352096","category":"260","category_name":"其他","address":"上海静安区老成都北路7弄30号（近延安中路）"},{"poiid":"B2094654DB6BA4FD489F","title":"新华联大厦","lon":"121.471","lat":"31.2248","category":"46","category_name":"楼宇","address":"越秀区广州沿江中路298号"},{"poiid":"B2094655D268ABFF409F","title":"延安东路立交桥","lon":"121.469","lat":"31.22467","category":"250","category_name":"公园户外","address":""},{"poiid":"B2094751DA6DA0FA479B","title":"猫屎咖啡(新天地店)","lon":"121.4691613","lat":"31.2232952","category":"247","category_name":"餐饮美食","address":"太仓路200号"},{"poiid":"B2094757D56CA1FE429D","title":"星巴克 力宝广场店 Starbucks Cafe","lon":"121.47456367878","lat":"31.223538465013","category":"247","category_name":"餐饮美食","address":"淮海中路222号力宝广场1楼近嵩山路"},{"poiid":"B2094757D06AA6FA469D","title":"爸爸马里奥比萨","lon":"121.46684","lat":"31.22544","category":"94","category_name":"西餐厅","address":"静安区大沽路370号-1(近成都北路)"},{"poiid":"B2094752D16CAAF94893","title":"ABC Cooking Studio（K11店）","lon":"121.469221","lat":"31.225111","category":"247","category_name":"餐饮美食","address":null},{"poiid":"B2094752D069A4FB489A","title":"鸿星荟","lon":"121.468619","lat":"31.225721","category":"247","category_name":"餐饮美食","address":"淮海中路300号K11购物艺术中心"},{"poiid":"B2094757DB6FA4FA439A","title":"揽香","lon":"121.469027","lat":"31.224747","category":"247","category_name":"餐饮美食","address":"卢湾区中环广场"},{"poiid":"B209475CD76EA0F54692","title":"环贸iapm","lon":"121.469993","lat":"31.223688","category":"500","category_name":"未知分类","address":"上海市 卢湾区淮海中路999号"},{"poiid":"B2094757DB6CA5F84593","title":"Element Fresh","lon":"121.470734","lat":"31.223412","category":"247","category_name":"餐饮美食","address":"Xin tian Di"},{"poiid":"B2094654D564A5FB489E","title":"都市风情街","lon":"121.46743","lat":"31.22232","category":"116","category_name":"特色商业街","address":"卢湾区长乐路190号都市风情街内(近成都南路)"},{"poiid":"B2094757D068A6F5479A","title":"Nolita","lon":"121.46507","lat":"31.22554","category":"94","category_name":"西餐厅","address":"静安区大沽路422号"},{"poiid":"B2094752D06EA5F44092","title":"Pizza Marzano（披萨马上诺）","lon":"121.46927","lat":"31.225073","category":"247","category_name":"餐饮美食","address":null},{"poiid":"B2094750D664A3FA469C","title":"Twins日本料理","lon":"121.467","lat":"31.2255","category":"95","category_name":"日本料理","address":"大沽路393号近大沽路成都北路东北角"},{"poiid":"B2094752D16DAAFE4898","title":"合点寿司","lon":"121.469321","lat":"31.225022","category":"247","category_name":"餐饮美食","address":"淮海中路300号K11购物艺术中心302号铺(近黄陂南路)"},{"poiid":"B2094757D064ABFE419A","title":"卢湾区瑞金二路派出所","lon":"121.46855807","lat":"31.224189838","category":"609","category_name":"警察局","address":"上海卢湾区巨鹿路9号"},{"poiid":"B2094654DA6EA1FF419F","title":"永新大厦","lon":"121.468","lat":"31.2233","category":"46","category_name":"楼宇","address":"卢湾区淮海中路527号"},{"poiid":"B2094655D36DA0F8439A","title":"延安中路重庆北路","lon":"121.46864","lat":"31.22399","category":"38","category_name":"公交车站","address":""},{"poiid":"B2094654DB65A1F54893","title":"金鹿大楼东楼(巨鹿路)","lon":"121.46926","lat":"31.2236","category":"46","category_name":"楼宇","address":"巨鹿路1号"},{"poiid":"B2094757D168A4F9409D","title":"老成都北路大沽路","lon":"121.468626338","lat":"31.224545779","category":"500","category_name":"未知分类","address":"上海老成都北路大沽路"},{"poiid":"B2094757D16AA0F84092","title":"成都北路延安东路公交站","lon":"121.468385938","lat":"31.2245998801","category":"38","category_name":"公交车站","address":"上海成都北路延安东路"},{"poiid":"B2094654DB65A2FD479F","title":"金鹿大楼西楼","lon":"121.4687","lat":"31.22344","category":"46","category_name":"楼宇","address":"巨鹿路17"},{"poiid":"B209475DD46BA1F9489A","title":"辣满堂","lon":"121.467994","lat":"31.223684","category":"247","category_name":"餐饮美食","address":"上海市 淮海路"},{"poiid":"B2094654DB65A4FA409C","title":"延安中路大型公共绿地","lon":"121.46636","lat":"31.22469","category":"196","category_name":"公园","address":""},{"poiid":"B2094757D169A7FA499B","title":"上海南北高架路","lon":"121.469402124","lat":"31.2242015532","category":"260","category_name":"其他","address":"上海市南北高架路"},{"poiid":"B2094757D06FA7F4449A","title":"九龙柱","lon":"121.46953","lat":"31.22385","category":"260","category_name":"其他","address":"黄浦区重庆路和延安路交叉口延安高架中间(延安东路延安中路)"},{"poiid":"B2094757D16AA7F9469D","title":"华东理工大学奉贤c教","lon":"121.46867103","lat":"31.224417376","category":"500","category_name":"未知分类","address":"上海海思路999"},{"poiid":"B2094654D564A5FA419F","title":"延中公园(长乐路)","lon":"121.46879","lat":"31.22282","category":"196","category_name":"公园","address":""},{"poiid":"B2094757D56CA1F5499C","title":"Shanghai Fans","lon":"121.46997614744","lat":"31.224526875897","category":"247","category_name":"餐饮美食","address":"马当路119号新天地1号楼04单元近太仓路"},{"poiid":"B2094751D56EA4FB439D","title":"G-Star RAW旗舰店","lon":"121.468709","lat":"31.224713","category":"249","category_name":"购物服务","address":"淮海中路344号"},{"poiid":"B2094752D368A0FC409C","title":"鸿兴荟海鲜酒家","lon":"121.468865","lat":"31.225067","category":"247","category_name":"餐饮美食","address":"黄浦区淮海中路300号K11购物艺术中心4楼405-501号"},{"poiid":"B2094757D16AABF4489D","title":"queenlady造型工作室","lon":"121.468740738","lat":"31.2235491577","category":"148","category_name":"美容美发店","address":"上海巨鹿路1号409室"},{"poiid":"B2094752D56BA2F44893","title":"Celeb de TOMATO","lon":"121.469363","lat":"31.225076","category":"247","category_name":"餐饮美食","address":"上海市淮海中路300号"},{"poiid":"B2094757D06BA4F44299","title":"Club NYX","lon":"121.4719","lat":"31.22345","category":"260","category_name":"其他","address":"卢湾区淡水路66弄2号1-2楼(近金陵西路)"},{"poiid":"B2094757D66EA6FC489F","title":"魏氏牛肉面","lon":"121.46797173","lat":"31.225016189","category":"247","category_name":"餐饮美食","address":"上海市静安区成都北路127号"},{"poiid":"B2094757D064A1FB499A","title":"2008桌球","lon":"121.46891587","lat":"31.224531953","category":"248","category_name":"生活娱乐","address":"上海迪美"},{"poiid":"B2094757D66AAAF9409A","title":"满腹满足","lon":"121.4672441875","lat":"31.225639359331","category":"95","category_name":"日本料理","address":"静安区大沽路395号(近成都北路)"},{"poiid":"B2094655D36DA7F9459B","title":"重庆北路","lon":"121.47011","lat":"31.22468","category":"38","category_name":"公交车站","address":""},{"poiid":"B2094757D169A3FE449D","title":"延安东路重庆北路775浦西终点","lon":"121.46896073","lat":"31.224728182","category":"500","category_name":"未知分类","address":"上海延安东路重庆北路"},{"poiid":"B2094750D36DA1FE439E","title":"七葉和茶","lon":"121.466247","lat":"31.223526","category":"247","category_name":"餐饮美食","address":"美羅城"},{"poiid":"B2094752D06FA3FC469A","title":"淮海中路300号K11购物艺术中心301-307号铺(近黄陂南路地铁站)","lon":"121.469126","lat":"31.225035","category":"247","category_name":"餐饮美食","address":"淮海中路300号K11购物艺术中心301-307号铺(近黄陂南路地铁站)"},{"poiid":"B2094752D66AA5F54793","title":"Small Spice","lon":"121.470896","lat":"31.223251","category":"247","category_name":"餐饮美食","address":"淡水路250号"},{"poiid":"B2094753D36EA1FC409D","title":"啡你啡思,faneeface,coffee","lon":"121.466694","lat":"31.225741","category":"113","category_name":"冷饮店","address":"大沽路396号"},{"poiid":"B2094757D06FA0FD4999","title":"上海大剧院-大剧场(Shanghai Grand Theatre - Lyric Theatre)","lon":"121.46956921","lat":"31.225844356","category":"260","category_name":"其他","address":"黄浦区人民大道300号大剧院内(近黄陂南路)"},{"poiid":"B2094757D06FABFF459F","title":"Masala art香料艺术 印度餐厅","lon":"121.46685028","lat":"31.225439071","category":"260","category_name":"其他","address":"静安区大沽路401号(近成都北路)"},{"poiid":"B2094753D76FAAFA449C","title":"上海滩国泰旗舰店","lon":"121.466011","lat":"31.216125","category":"249","category_name":"购物服务","address":"淮海中路868号"},{"poiid":"B209475CD564A7F84292","title":"上海滩新天地店","lon":"121.47463","lat":"31.22164","category":"119","category_name":"商场","address":"\"太仓路181弄新天地北里15号\r\n\""},{"poiid":"B209475CD564A7F8439E","title":"上海滩中信泰富店","lon":"121.45602","lat":"31.22851","category":"119","category_name":"商场","address":"\"南京西路1168号中信泰富广场，店铺号221.\r\n\""},{"poiid":"B2094757D064A0F54893","title":"大沽路","lon":"121.467274","lat":"31.225619","category":"500","category_name":"未知分类","address":"上海静安区大沽路"},{"poiid":"B2094757D068A3FF429A","title":"中共二大会址纪念馆","lon":"121.4666786917877","lat":"31.224276565352096","category":"260","category_name":"其他","address":"上海静安区老成都北路7弄30号（近延安中路）"},{"poiid":"B2094654DB6BA4FD489F","title":"新华联大厦","lon":"121.471","lat":"31.2248","category":"46","category_name":"楼宇","address":"越秀区广州沿江中路298号"},{"poiid":"B2094655D268ABFF409F","title":"延安东路立交桥","lon":"121.469","lat":"31.22467","category":"250","category_name":"公园户外","address":""},{"poiid":"B2094751DA6DA0FA479B","title":"猫屎咖啡(新天地店)","lon":"121.4691613","lat":"31.2232952","category":"247","category_name":"餐饮美食","address":"太仓路200号"},{"poiid":"B2094757D56CA1FE429D","title":"星巴克 力宝广场店 Starbucks Cafe","lon":"121.47456367878","lat":"31.223538465013","category":"247","category_name":"餐饮美食","address":"淮海中路222号力宝广场1楼近嵩山路"},{"poiid":"B2094757D06AA6FA469D","title":"爸爸马里奥比萨","lon":"121.46684","lat":"31.22544","category":"94","category_name":"西餐厅","address":"静安区大沽路370号-1(近成都北路)"},{"poiid":"B2094752D16CAAF94893","title":"ABC Cooking Studio（K11店）","lon":"121.469221","lat":"31.225111","category":"247","category_name":"餐饮美食","address":null},{"poiid":"B2094752D069A4FB489A","title":"鸿星荟","lon":"121.468619","lat":"31.225721","category":"247","category_name":"餐饮美食","address":"淮海中路300号K11购物艺术中心"},{"poiid":"B2094757DB6FA4FA439A","title":"揽香","lon":"121.469027","lat":"31.224747","category":"247","category_name":"餐饮美食","address":"卢湾区中环广场"},{"poiid":"B209475CD76EA0F54692","title":"环贸iapm","lon":"121.469993","lat":"31.223688","category":"500","category_name":"未知分类","address":"上海市 卢湾区淮海中路999号"},{"poiid":"B2094757DB6CA5F84593","title":"Element Fresh","lon":"121.470734","lat":"31.223412","category":"247","category_name":"餐饮美食","address":"Xin tian Di"},{"poiid":"B2094654D564A5FB489E","title":"都市风情街","lon":"121.46743","lat":"31.22232","category":"116","category_name":"特色商业街","address":"卢湾区长乐路190号都市风情街内(近成都南路)"},{"poiid":"B2094757D068A6F5479A","title":"Nolita","lon":"121.46507","lat":"31.22554","category":"94","category_name":"西餐厅","address":"静安区大沽路422号"},{"poiid":"B2094752D06EA5F44092","title":"Pizza Marzano（披萨马上诺）","lon":"121.46927","lat":"31.225073","category":"247","category_name":"餐饮美食","address":null},{"poiid":"B2094750D664A3FA469C","title":"Twins日本料理","lon":"121.467","lat":"31.2255","category":"95","category_name":"日本料理","address":"大沽路393号近大沽路成都北路东北角"},{"poiid":"B2094752D16DAAFE4898","title":"合点寿司","lon":"121.469321","lat":"31.225022","category":"247","category_name":"餐饮美食","address":"淮海中路300号K11购物艺术中心302号铺(近黄陂南路)"},{"poiid":"B2094757D064ABFE419A","title":"卢湾区瑞金二路派出所","lon":"121.46855807","lat":"31.224189838","category":"609","category_name":"警察局","address":"上海卢湾区巨鹿路9号"},{"poiid":"B2094654DA6EA1FF419F","title":"永新大厦","lon":"121.468","lat":"31.2233","category":"46","category_name":"楼宇","address":"卢湾区淮海中路527号"},{"poiid":"B2094655D36DA0F8439A","title":"延安中路重庆北路","lon":"121.46864","lat":"31.22399","category":"38","category_name":"公交车站","address":""},{"poiid":"B2094654DB65A1F54893","title":"金鹿大楼东楼(巨鹿路)","lon":"121.46926","lat":"31.2236","category":"46","category_name":"楼宇","address":"巨鹿路1号"},{"poiid":"B2094757D168A4F9409D","title":"老成都北路大沽路","lon":"121.468626338","lat":"31.224545779","category":"500","category_name":"未知分类","address":"上海老成都北路大沽路"},{"poiid":"B2094757D16AA0F84092","title":"成都北路延安东路公交站","lon":"121.468385938","lat":"31.2245998801","category":"38","category_name":"公交车站","address":"上海成都北路延安东路"},{"poiid":"B2094654DB65A2FD479F","title":"金鹿大楼西楼","lon":"121.4687","lat":"31.22344","category":"46","category_name":"楼宇","address":"巨鹿路17"},{"poiid":"B209475DD46BA1F9489A","title":"辣满堂","lon":"121.467994","lat":"31.223684","category":"247","category_name":"餐饮美食","address":"上海市 淮海路"},{"poiid":"B2094654DB65A4FA409C","title":"延安中路大型公共绿地","lon":"121.46636","lat":"31.22469","category":"196","category_name":"公园","address":""},{"poiid":"B2094757D169A7FA499B","title":"上海南北高架路","lon":"121.469402124","lat":"31.2242015532","category":"260","category_name":"其他","address":"上海市南北高架路"},{"poiid":"B2094757D06FA7F4449A","title":"九龙柱","lon":"121.46953","lat":"31.22385","category":"260","category_name":"其他","address":"黄浦区重庆路和延安路交叉口延安高架中间(延安东路延安中路)"},{"poiid":"B2094757D16AA7F9469D","title":"华东理工大学奉贤c教","lon":"121.46867103","lat":"31.224417376","category":"500","category_name":"未知分类","address":"上海海思路999"},{"poiid":"B2094654D564A5FA419F","title":"延中公园(长乐路)","lon":"121.46879","lat":"31.22282","category":"196","category_name":"公园","address":""},{"poiid":"B2094757D56CA1F5499C","title":"Shanghai Fans","lon":"121.46997614744","lat":"31.224526875897","category":"247","category_name":"餐饮美食","address":"马当路119号新天地1号楼04单元近太仓路"},{"poiid":"B2094751D56EA4FB439D","title":"G-Star RAW旗舰店","lon":"121.468709","lat":"31.224713","category":"249","category_name":"购物服务","address":"淮海中路344号"},{"poiid":"B2094752D368A0FC409C","title":"鸿兴荟海鲜酒家","lon":"121.468865","lat":"31.225067","category":"247","category_name":"餐饮美食","address":"黄浦区淮海中路300号K11购物艺术中心4楼405-501号"},{"poiid":"B2094757D16AABF4489D","title":"queenlady造型工作室","lon":"121.468740738","lat":"31.2235491577","category":"148","category_name":"美容美发店","address":"上海巨鹿路1号409室"},{"poiid":"B2094752D56BA2F44893","title":"Celeb de TOMATO","lon":"121.469363","lat":"31.225076","category":"247","category_name":"餐饮美食","address":"上海市淮海中路300号"},{"poiid":"B2094757D06BA4F44299","title":"Club NYX","lon":"121.4719","lat":"31.22345","category":"260","category_name":"其他","address":"卢湾区淡水路66弄2号1-2楼(近金陵西路)"},{"poiid":"B2094757D66EA6FC489F","title":"魏氏牛肉面","lon":"121.46797173","lat":"31.225016189","category":"247","category_name":"餐饮美食","address":"上海市静安区成都北路127号"},{"poiid":"B2094757D064A1FB499A","title":"2008桌球","lon":"121.46891587","lat":"31.224531953","category":"248","category_name":"生活娱乐","address":"上海迪美"},{"poiid":"B2094757D66AAAF9409A","title":"满腹满足","lon":"121.4672441875","lat":"31.225639359331","category":"95","category_name":"日本料理","address":"静安区大沽路395号(近成都北路)"},{"poiid":"B2094655D36DA7F9459B","title":"重庆北路","lon":"121.47011","lat":"31.22468","category":"38","category_name":"公交车站","address":""},{"poiid":"B2094757D169A3FE449D","title":"延安东路重庆北路775浦西终点","lon":"121.46896073","lat":"31.224728182","category":"500","category_name":"未知分类","address":"上海延安东路重庆北路"},{"poiid":"B2094750D36DA1FE439E","title":"七葉和茶","lon":"121.466247","lat":"31.223526","category":"247","category_name":"餐饮美食","address":"美羅城"},{"poiid":"B2094752D06FA3FC469A","title":"淮海中路300号K11购物艺术中心301-307号铺(近黄陂南路地铁站)","lon":"121.469126","lat":"31.225035","category":"247","category_name":"餐饮美食","address":"淮海中路300号K11购物艺术中心301-307号铺(近黄陂南路地铁站)"},{"poiid":"B2094752D66AA5F54793","title":"Small Spice","lon":"121.470896","lat":"31.223251","category":"247","category_name":"餐饮美食","address":"淡水路250号"},{"poiid":"B2094753D36EA1FC409D","title":"啡你啡思,faneeface,coffee","lon":"121.466694","lat":"31.225741","category":"113","category_name":"冷饮店","address":"大沽路396号"},{"poiid":"B2094757D06FA0FD4999","title":"上海大剧院-大剧场(Shanghai Grand Theatre - Lyric Theatre)","lon":"121.46956921","lat":"31.225844356","category":"260","category_name":"其他","address":"黄浦区人民大道300号大剧院内(近黄陂南路)"},{"poiid":"B2094757D06FABFF459F","title":"Masala art香料艺术 印度餐厅","lon":"121.46685028","lat":"31.225439071","category":"260","category_name":"其他","address":"静安区大沽路401号(近成都北路)"},{"poiid":"B2094753D76FAAFA449C","title":"上海滩国泰旗舰店","lon":"121.466011","lat":"31.216125","category":"249","category_name":"购物服务","address":"淮海中路868号"},{"poiid":"B209475CD564A7F84292","title":"上海滩新天地店","lon":"121.47463","lat":"31.22164","category":"119","category_name":"商场","address":"\"太仓路181弄新天地北里15号\r\n\""},{"poiid":"B209475CD564A7F8439E","title":"上海滩中信泰富店","lon":"121.45602","lat":"31.22851","category":"119","category_name":"商场","address":"\"南京西路1168号中信泰富广场，店铺号221.\r\n\""},{"poiid":"B2094757D064A0F54893","title":"大沽路","lon":"121.467274","lat":"31.225619","category":"500","category_name":"未知分类","address":"上海静安区大沽路"},{"poiid":"B2094757D068A3FF429A","title":"中共二大会址纪念馆","lon":"121.4666786917877","lat":"31.224276565352096","category":"260","category_name":"其他","address":"上海静安区老成都北路7弄30号（近延安中路）"},{"poiid":"B2094654DB6BA4FD489F","title":"新华联大厦","lon":"121.471","lat":"31.2248","category":"46","category_name":"楼宇","address":"越秀区广州沿江中路298号"},{"poiid":"B2094655D268ABFF409F","title":"延安东路立交桥","lon":"121.469","lat":"31.22467","category":"250","category_name":"公园户外","address":""},{"poiid":"B2094751DA6DA0FA479B","title":"猫屎咖啡(新天地店)","lon":"121.4691613","lat":"31.2232952","category":"247","category_name":"餐饮美食","address":"太仓路200号"},{"poiid":"B2094757D56CA1FE429D","title":"星巴克 力宝广场店 Starbucks Cafe","lon":"121.47456367878","lat":"31.223538465013","category":"247","category_name":"餐饮美食","address":"淮海中路222号力宝广场1楼近嵩山路"},{"poiid":"B2094757D06AA6FA469D","title":"爸爸马里奥比萨","lon":"121.46684","lat":"31.22544","category":"94","category_name":"西餐厅","address":"静安区大沽路370号-1(近成都北路)"},{"poiid":"B2094752D16CAAF94893","title":"ABC Cooking Studio（K11店）","lon":"121.469221","lat":"31.225111","category":"247","category_name":"餐饮美食","address":null},{"poiid":"B2094752D069A4FB489A","title":"鸿星荟","lon":"121.468619","lat":"31.225721","category":"247","category_name":"餐饮美食","address":"淮海中路300号K11购物艺术中心"},{"poiid":"B2094757DB6FA4FA439A","title":"揽香","lon":"121.469027","lat":"31.224747","category":"247","category_name":"餐饮美食","address":"卢湾区中环广场"},{"poiid":"B209475CD76EA0F54692","title":"环贸iapm","lon":"121.469993","lat":"31.223688","category":"500","category_name":"未知分类","address":"上海市 卢湾区淮海中路999号"},{"poiid":"B2094757DB6CA5F84593","title":"Element Fresh","lon":"121.470734","lat":"31.223412","category":"247","category_name":"餐饮美食","address":"Xin tian Di"},{"poiid":"B2094654D564A5FB489E","title":"都市风情街","lon":"121.46743","lat":"31.22232","category":"116","category_name":"特色商业街","address":"卢湾区长乐路190号都市风情街内(近成都南路)"},{"poiid":"B2094757D068A6F5479A","title":"Nolita","lon":"121.46507","lat":"31.22554","category":"94","category_name":"西餐厅","address":"静安区大沽路422号"},{"poiid":"B2094752D06EA5F44092","title":"Pizza Marzano（披萨马上诺）","lon":"121.46927","lat":"31.225073","category":"247","category_name":"餐饮美食","address":null},{"poiid":"B2094750D664A3FA469C","title":"Twins日本料理","lon":"121.467","lat":"31.2255","category":"95","category_name":"日本料理","address":"大沽路393号近大沽路成都北路东北角"},{"poiid":"B2094752D16DAAFE4898","title":"合点寿司","lon":"121.469321","lat":"31.225022","category":"247","category_name":"餐饮美食","address":"淮海中路300号K11购物艺术中心302号铺(近黄陂南路)"},{"poiid":"B2094757D064ABFE419A","title":"卢湾区瑞金二路派出所","lon":"121.46855807","lat":"31.224189838","category":"609","category_name":"警察局","address":"上海卢湾区巨鹿路9号"},{"poiid":"B2094654DA6EA1FF419F","title":"永新大厦","lon":"121.468","lat":"31.2233","category":"46","category_name":"楼宇","address":"卢湾区淮海中路527号"},{"poiid":"B2094655D36DA0F8439A","title":"延安中路重庆北路","lon":"121.46864","lat":"31.22399","category":"38","category_name":"公交车站","address":""},{"poiid":"B2094654DB65A1F54893","title":"金鹿大楼东楼(巨鹿路)","lon":"121.46926","lat":"31.2236","category":"46","category_name":"楼宇","address":"巨鹿路1号"},{"poiid":"B2094757D168A4F9409D","title":"老成都北路大沽路","lon":"121.468626338","lat":"31.224545779","category":"500","category_name":"未知分类","address":"上海老成都北路大沽路"},{"poiid":"B2094757D16AA0F84092","title":"成都北路延安东路公交站","lon":"121.468385938","lat":"31.2245998801","category":"38","category_name":"公交车站","address":"上海成都北路延安东路"},{"poiid":"B2094654DB65A2FD479F","title":"金鹿大楼西楼","lon":"121.4687","lat":"31.22344","category":"46","category_name":"楼宇","address":"巨鹿路17"},{"poiid":"B209475DD46BA1F9489A","title":"辣满堂","lon":"121.467994","lat":"31.223684","category":"247","category_name":"餐饮美食","address":"上海市 淮海路"},{"poiid":"B2094654DB65A4FA409C","title":"延安中路大型公共绿地","lon":"121.46636","lat":"31.22469","category":"196","category_name":"公园","address":""},{"poiid":"B2094757D169A7FA499B","title":"上海南北高架路","lon":"121.469402124","lat":"31.2242015532","category":"260","category_name":"其他","address":"上海市南北高架路"},{"poiid":"B2094757D06FA7F4449A","title":"九龙柱","lon":"121.46953","lat":"31.22385","category":"260","category_name":"其他","address":"黄浦区重庆路和延安路交叉口延安高架中间(延安东路延安中路)"},{"poiid":"B2094757D16AA7F9469D","title":"华东理工大学奉贤c教","lon":"121.46867103","lat":"31.224417376","category":"500","category_name":"未知分类","address":"上海海思路999"},{"poiid":"B2094654D564A5FA419F","title":"延中公园(长乐路)","lon":"121.46879","lat":"31.22282","category":"196","category_name":"公园","address":""},{"poiid":"B2094757D56CA1F5499C","title":"Shanghai Fans","lon":"121.46997614744","lat":"31.224526875897","category":"247","category_name":"餐饮美食","address":"马当路119号新天地1号楼04单元近太仓路"},{"poiid":"B2094751D56EA4FB439D","title":"G-Star RAW旗舰店","lon":"121.468709","lat":"31.224713","category":"249","category_name":"购物服务","address":"淮海中路344号"},{"poiid":"B2094752D368A0FC409C","title":"鸿兴荟海鲜酒家","lon":"121.468865","lat":"31.225067","category":"247","category_name":"餐饮美食","address":"黄浦区淮海中路300号K11购物艺术中心4楼405-501号"},{"poiid":"B2094757D16AABF4489D","title":"queenlady造型工作室","lon":"121.468740738","lat":"31.2235491577","category":"148","category_name":"美容美发店","address":"上海巨鹿路1号409室"},{"poiid":"B2094752D56BA2F44893","title":"Celeb de TOMATO","lon":"121.469363","lat":"31.225076","category":"247","category_name":"餐饮美食","address":"上海市淮海中路300号"},{"poiid":"B2094757D06BA4F44299","title":"Club NYX","lon":"121.4719","lat":"31.22345","category":"260","category_name":"其他","address":"卢湾区淡水路66弄2号1-2楼(近金陵西路)"},{"poiid":"B2094757D66EA6FC489F","title":"魏氏牛肉面","lon":"121.46797173","lat":"31.225016189","category":"247","category_name":"餐饮美食","address":"上海市静安区成都北路127号"},{"poiid":"B2094757D064A1FB499A","title":"2008桌球","lon":"121.46891587","lat":"31.224531953","category":"248","category_name":"生活娱乐","address":"上海迪美"},{"poiid":"B2094757D66AAAF9409A","title":"满腹满足","lon":"121.4672441875","lat":"31.225639359331","category":"95","category_name":"日本料理","address":"静安区大沽路395号(近成都北路)"},{"poiid":"B2094655D36DA7F9459B","title":"重庆北路","lon":"121.47011","lat":"31.22468","category":"38","category_name":"公交车站","address":""},{"poiid":"B2094757D169A3FE449D","title":"延安东路重庆北路775浦西终点","lon":"121.46896073","lat":"31.224728182","category":"500","category_name":"未知分类","address":"上海延安东路重庆北路"},{"poiid":"B2094750D36DA1FE439E","title":"七葉和茶","lon":"121.466247","lat":"31.223526","category":"247","category_name":"餐饮美食","address":"美羅城"},{"poiid":"B2094752D06FA3FC469A","title":"淮海中路300号K11购物艺术中心301-307号铺(近黄陂南路地铁站)","lon":"121.469126","lat":"31.225035","category":"247","category_name":"餐饮美食","address":"淮海中路300号K11购物艺术中心301-307号铺(近黄陂南路地铁站)"},{"poiid":"B2094752D66AA5F54793","title":"Small Spice","lon":"121.470896","lat":"31.223251","category":"247","category_name":"餐饮美食","address":"淡水路250号"}]