[{"poiid":"B2094757D06FABFE4393","title":"复旦大学附属中山医院(青浦分院)","lon":"121.13807","lat":"31.15408","category":"162","category_name":"医院","address":"青浦区青浦公园东路1158号"},{"poiid":"B2094757DB6EA6FF429C","title":"上海夏阳湖皇冠假日酒店","lon":"121.1339","lat":"31.15049","category":"72","category_name":"广东菜","address":"青浦区青舟路303号(近夏阳湖)"},{"poiid":"B2094757D068A1FD439D","title":"夏阳湖畔","lon":"121.13520813","lat":"31.150871276","category":"47","category_name":"住宅区","address":"上海青浦区"},{"poiid":"B2094757D068A3F9439E","title":"自由港量贩式KTV(青浦店)","lon":"121.12195","lat":"31.14887","category":"170","category_name":"KTV","address":"青浦区公园路258号(浦仓路口)"},{"poiid":"B2094654DB6AA0FE419E","title":"上海市青浦区图书馆","lon":"121.13671","lat":"31.14783","category":"181","category_name":"图书馆","address":"青浦区青龙路60号(华浦南路青龙路)"},{"poiid":"B2094757D16CAAF94199","title":"澳京豆捞","lon":"121.135293671","lat":"31.1478073198","category":"86","category_name":"火锅店","address":"青浦区华青南路800弄1号(近青浦图书馆)"},{"poiid":"B2094757D664A1F84893","title":"海港一号","lon":"121.132756054","lat":"31.146040793","category":"76","category_name":"上海菜","address":"青浦区华青南路177弄58号(近青湖路)"},{"poiid":"B2094757D168A7FF4192","title":"青浦党校","lon":"121.12828703","lat":"31.156762895","category":"253","category_name":"校园生活","address":"上海华科路"},{"poiid":"B2094751D465A2FE479D","title":"末可甜品小屋","lon":"121.131406","lat":"31.156118","category":"247","category_name":"餐饮美食","address":"青浦区公园东路1688弄23号(近中山医院)"},{"poiid":"B2094654DA6BA4FF4993","title":"上海工商信息学校","lon":"121.13098","lat":"31.15174","category":"55","category_name":"中学","address":"青浦区公园东路2025号(近青浦区电视台)"},{"poiid":"B2094757D16DABF9489C","title":"仁恒运杰河滨花园","lon":"121.136","lat":"31.1474","category":"252","category_name":"楼宇机构","address":"上海市浦东新区锦和路99弄"},{"poiid":"B2094757D06BABFF4693","title":"青浦区政府","lon":"121.12415141","lat":"31.15036197","category":"500","category_name":"未知分类","address":"上海公园路100号"},{"poiid":"B2094655D36CA5FF4392","title":"城中东路保安路","lon":"121.12422","lat":"31.14644","category":"38","category_name":"公交车站","address":""},{"poiid":"B2094654DA6BA4FB449E","title":"公园大观吉富绅花园","lon":"121.13375","lat":"31.15561","category":"47","category_name":"住宅区","address":"上海市青浦区公园东路1688号"},{"poiid":"B2094757D06BA0F8409D","title":"巴黎no.88 bar","lon":"121.13347347","lat":"31.146377457","category":"500","category_name":"未知分类","address":"上海青浦区华青南路511号(巴黎之夜楼上)"},{"poiid":"B2094750D568A0F94392","title":"香港纯Kparyt","lon":"121.126731","lat":"31.146087","category":"170","category_name":"KTV","address":"青浦区青湖路晨兴国际"},{"poiid":"B2094757D064A7F4409D","title":"蓝山咖啡(青浦店)","lon":"121.1367","lat":"31.14814","category":"65","category_name":"咖啡厅","address":"青浦区华青南路800弄1-3号(华浦南路青龙路)"},{"poiid":"B2094757D06BA4FA499D","title":"青浦区行政服务中心","lon":"121.12342184","lat":"31.152591323","category":"500","category_name":"未知分类","address":"上海近郊青浦区外青松公路6189号"},{"poiid":"B2094655D36DA7F8499B","title":"中山医院青浦分院","lon":"121.13481","lat":"31.15335","category":"38","category_name":"公交车站","address":""},{"poiid":"B2094654DA6BABFB459C","title":"夏阳湖国际花园","lon":"121.13573","lat":"31.146868","category":"47","category_name":"住宅区","address":"上海市青浦区青湖路800弄"},{"poiid":"B2094655D36CA7F4469E","title":"桂花园青浦","lon":"121.13511898718","lat":"31.151869426536","category":"38","category_name":"公交车站","address":"沪青平公路4555弄"},{"poiid":"B2094757D16EA3FF4299","title":"青浦区博物馆","lon":"121.133225135","lat":"31.1536129838","category":"179","category_name":"音乐厅","address":"青浦区青浦镇华青南路1000号"},{"poiid":"B2094757D06BA4FA489B","title":"迪欧咖啡(青浦店)","lon":"121.12578","lat":"31.14938","category":"65","category_name":"咖啡厅","address":"青浦区公园路99号(公园路外青松公路)"},{"poiid":"B2094654DA6BABFA409D","title":"梦丹苑","lon":"121.13171","lat":"31.146254","category":"47","category_name":"住宅区","address":"青湖路4625弄"},{"poiid":"B2094752D26FABF84593","title":"巴黎纯K量贩式KTV","lon":"121.134186","lat":"31.146301","category":"170","category_name":"KTV","address":"上海市青浦区华青南路511号"},{"poiid":"B2094757D16CA0FC479C","title":"龙满楼","lon":"121.125225","lat":"31.1558858","category":"76","category_name":"上海菜","address":"青浦区外青松公路6048弄16号(近界泾港路)"},{"poiid":"B2094654DB69A5F9489D","title":"真锅咖啡(青浦夏阳湖店)","lon":"121.1351","lat":"31.15087","category":"65","category_name":"咖啡厅","address":"青浦区华青路767号二楼(青浦博物馆对面)"},{"poiid":"B2094757D16EAAF94992","title":"鼎萃食坊(桥梓湾店)","lon":"121.12837","lat":"31.1509","category":"247","category_name":"餐饮美食","address":"青浦区公园路666弄11号桥梓湾购物中心广场外圈(聚星街公园路)"},{"poiid":"B2094654DA6BABFB409A","title":"新城逸境园","lon":"121.13385","lat":"31.157528","category":"47","category_name":"住宅区","address":"上海市青浦区华科路路255弄"},{"poiid":"B2094655D36DA0FE449D","title":"信息学院","lon":"121.13054","lat":"31.15208","category":"38","category_name":"公交车站","address":""},{"poiid":"B2094757D464A7FF4792","title":"华青乡下菜","lon":"121.13297","lat":"31.15616","category":"76","category_name":"上海菜","address":"青浦区华青北路3号(近青浦电视台)"},{"poiid":"B2094654DA6BA0FF4893","title":"蓬莱山庄","lon":"121.136","lat":"31.1504","category":"47","category_name":"住宅区","address":"青湖路666弄"},{"poiid":"B2094654DA6BA4FF489F","title":"供电局调节调度大楼","lon":"121.13227","lat":"31.15302","category":"46","category_name":"楼宇","address":""},{"poiid":"B2094654DA6BA1F44493","title":"上海市电力公司青浦供电分公司","lon":"121.12709","lat":"31.15271","category":"263","category_name":"公司","address":"外青松公路6155号"},{"poiid":"B2094753D268A0FA4999","title":"上井精致创作料理","lon":"121.130565","lat":"31.146973","category":"247","category_name":"餐饮美食","address":"上海市 运杰城市花园"},{"poiid":"B2094757D568A4FB4998","title":"巴黎之夜","lon":"121.13402018","lat":"31.14663628","category":"170","category_name":"KTV","address":"青浦区华青南路511号(近青湖路)"},{"poiid":"B2094654DA6BABFB409B","title":"青浦信息大楼","lon":"121.13443","lat":"31.15371","category":"46","category_name":"楼宇","address":"公园东路1818号"},{"poiid":"B2094654DA6BABFA4793","title":"上海电视台青浦记者站","lon":"121.13175","lat":"31.1529","category":"59","category_name":"电视台","address":"公园东路1828号"},{"poiid":"B2094757D169A3FB4693","title":"宋记香辣蟹 浦仓路店","lon":"121.12133","lat":"31.1518","category":"71","category_name":"四川菜","address":"青浦区浦仓路528号(近青浦体育场)"},{"poiid":"B2094757D46AA4F94699","title":"太麻里台湾私房牛肉面馆 青湖店","lon":"121.133558","lat":"31.145971","category":"91","category_name":"台湾菜","address":"青浦区青湖路914号"},{"poiid":"B2094655D36CA7FC499A","title":"华科路华青路","lon":"121.13188","lat":"31.15698","category":"38","category_name":"公交车站","address":""},{"poiid":"B2094757D16FA2F94693","title":"欧洲街","lon":"121.125363","lat":"31.150549","category":"500","category_name":"未知分类","address":"上海青浦区公园路"},{"poiid":"B2094757D064A4FE489B","title":"上岛咖啡(青湖路店)","lon":"121.134193571","lat":"31.1456604768","category":"65","category_name":"咖啡厅","address":"青浦区青湖路879号(近华青南路)"},{"poiid":"B2094757D66CA5F8459D","title":"青浦电视台","lon":"121.131744","lat":"31.152905","category":"500","category_name":"未知分类","address":"上海青浦公园东路1828号"},{"poiid":"B2094757D169AAF8489C","title":"青浦区社保中心","lon":"121.122893","lat":"31.149602","category":"500","category_name":"未知分类","address":"上海公园路200号"},{"poiid":"B2094654DA6BA1F4459B","title":"上海市青浦区行政学院(华科路)","lon":"121.12869","lat":"31.1562","category":"52","category_name":"高等院校","address":"青浦区华科路158号"},{"poiid":"B2094654DA6BA0F84698","title":"佳佳宾馆","lon":"121.12803","lat":"31.15657","category":"250","category_name":"公园户外","address":"上海市青浦区华科路109号"},{"poiid":"B2094654DA6BA5FE409C","title":"舜浦大厦","lon":"121.12488","lat":"31.14919","category":"46","category_name":"楼宇","address":"上海青浦区公园路99号"},{"poiid":"B2094654DA6BA6FD419B","title":"上海市青浦区科技文化活动中心","lon":"121.12564","lat":"31.15055","category":"248","category_name":"生活娱乐","address":"公园路78-80"},{"poiid":"B2094655D36CA2F8419F","title":"青湖路外青松公路","lon":"121.12826","lat":"31.14603","category":"38","category_name":"公交车站","address":""},{"poiid":"B2094757D06FABFE4393","title":"复旦大学附属中山医院(青浦分院)","lon":"121.13807","lat":"31.15408","category":"162","category_name":"医院","address":"青浦区青浦公园东路1158号"},{"poiid":"B2094757DB6EA6FF429C","title":"上海夏阳湖皇冠假日酒店","lon":"121.1339","lat":"31.15049","category":"72","category_name":"广东菜","address":"青浦区青舟路303号(近夏阳湖)"},{"poiid":"B2094757D068A1FD439D","title":"夏阳湖畔","lon":"121.13520813","lat":"31.150871276","category":"47","category_name":"住宅区","address":"上海青浦区"},{"poiid":"B2094757D068A3F9439E","title":"自由港量贩式KTV(青浦店)","lon":"121.12195","lat":"31.14887","category":"170","category_name":"KTV","address":"青浦区公园路258号(浦仓路口)"},{"poiid":"B2094654DB6AA0FE419E","title":"上海市青浦区图书馆","lon":"121.13671","lat":"31.14783","category":"181","category_name":"图书馆","address":"青浦区青龙路60号(华浦南路青龙路)"},{"poiid":"B2094757D16CAAF94199","title":"澳京豆捞","lon":"121.135293671","lat":"31.1478073198","category":"86","category_name":"火锅店","address":"青浦区华青南路800弄1号(近青浦图书馆)"},{"poiid":"B2094757D664A1F84893","title":"海港一号","lon":"121.132756054","lat":"31.146040793","category":"76","category_name":"上海菜","address":"青浦区华青南路177弄58号(近青湖路)"},{"poiid":"B2094757D168A7FF4192","title":"青浦党校","lon":"121.12828703","lat":"31.156762895","category":"253","category_name":"校园生活","address":"上海华科路"},{"poiid":"B2094751D465A2FE479D","title":"末可甜品小屋","lon":"121.131406","lat":"31.156118","category":"247","category_name":"餐饮美食","address":"青浦区公园东路1688弄23号(近中山医院)"},{"poiid":"B2094654DA6BA4FF4993","title":"上海工商信息学校","lon":"121.13098","lat":"31.15174","category":"55","category_name":"中学","address":"青浦区公园东路2025号(近青浦区电视台)"},{"poiid":"B2094757D16DABF9489C","title":"仁恒运杰河滨花园","lon":"121.136","lat":"31.1474","category":"252","category_name":"楼宇机构","address":"上海市浦东新区锦和路99弄"},{"poiid":"B2094757D06BABFF4693","title":"青浦区政府","lon":"121.12415141","lat":"31.15036197","category":"500","category_name":"未知分类","address":"上海公园路100号"},{"poiid":"B2094655D36CA5FF4392","title":"城中东路保安路","lon":"121.12422","lat":"31.14644","category":"38","category_name":"公交车站","address":""},{"poiid":"B2094654DA6BA4FB449E","title":"公园大观吉富绅花园","lon":"121.13375","lat":"31.15561","category":"47","category_name":"住宅区","address":"上海市青浦区公园东路1688号"},{"poiid":"B2094757D06BA0F8409D","title":"巴黎no.88 bar","lon":"121.13347347","lat":"31.146377457","category":"500","category_name":"未知分类","address":"上海青浦区华青南路511号(巴黎之夜楼上)"},{"poiid":"B2094750D568A0F94392","title":"香港纯Kparyt","lon":"121.126731","lat":"31.146087","category":"170","category_name":"KTV","address":"青浦区青湖路晨兴国际"},{"poiid":"B2094757D064A7F4409D","title":"蓝山咖啡(青浦店)","lon":"121.1367","lat":"31.14814","category":"65","category_name":"咖啡厅","address":"青浦区华青南路800弄1-3号(华浦南路青龙路)"},{"poiid":"B2094757D06BA4FA499D","title":"青浦区行政服务中心","lon":"121.12342184","lat":"31.152591323","category":"500","category_name":"未知分类","address":"上海近郊青浦区外青松公路6189号"},{"poiid":"B2094655D36DA7F8499B","title":"中山医院青浦分院","lon":"121.13481","lat":"31.15335","category":"38","category_name":"公交车站","address":""},{"poiid":"B2094654DA6BABFB459C","title":"夏阳湖国际花园","lon":"121.13573","lat":"31.146868","category":"47","category_name":"住宅区","address":"上海市青浦区青湖路800弄"},{"poiid":"B2094655D36CA7F4469E","title":"桂花园青浦","lon":"121.13511898718","lat":"31.151869426536","category":"38","category_name":"公交车站","address":"沪青平公路4555弄"},{"poiid":"B2094757D16EA3FF4299","title":"青浦区博物馆","lon":"121.133225135","lat":"31.1536129838","category":"179","category_name":"音乐厅","address":"青浦区青浦镇华青南路1000号"},{"poiid":"B2094757D06BA4FA489B","title":"迪欧咖啡(青浦店)","lon":"121.12578","lat":"31.14938","category":"65","category_name":"咖啡厅","address":"青浦区公园路99号(公园路外青松公路)"},{"poiid":"B2094654DA6BABFA409D","title":"梦丹苑","lon":"121.13171","lat":"31.146254","category":"47","category_name":"住宅区","address":"青湖路4625弄"},{"poiid":"B2094752D26FABF84593","title":"巴黎纯K量贩式KTV","lon":"121.134186","lat":"31.146301","category":"170","category_name":"KTV","address":"上海市青浦区华青南路511号"},{"poiid":"B2094757D16CA0FC479C","title":"龙满楼","lon":"121.125225","lat":"31.1558858","category":"76","category_name":"上海菜","address":"青浦区外青松公路6048弄16号(近界泾港路)"},{"poiid":"B2094654DB69A5F9489D","title":"真锅咖啡(青浦夏阳湖店)","lon":"121.1351","lat":"31.15087","category":"65","category_name":"咖啡厅","address":"青浦区华青路767号二楼(青浦博物馆对面)"},{"poiid":"B2094757D16EAAF94992","title":"鼎萃食坊(桥梓湾店)","lon":"121.12837","lat":"31.1509","category":"247","category_name":"餐饮美食","address":"青浦区公园路666弄11号桥梓湾购物中心广场外圈(聚星街公园路)"},{"poiid":"B2094654DA6BABFB409A","title":"新城逸境园","lon":"121.13385","lat":"31.157528","category":"47","category_name":"住宅区","address":"上海市青浦区华科路路255弄"},{"poiid":"B2094655D36DA0FE449D","title":"信息学院","lon":"121.13054","lat":"31.15208","category":"38","category_name":"公交车站","address":""},{"poiid":"B2094757D464A7FF4792","title":"华青乡下菜","lon":"121.13297","lat":"31.15616","category":"76","category_name":"上海菜","address":"青浦区华青北路3号(近青浦电视台)"},{"poiid":"B2094654DA6BA0FF4893","title":"蓬莱山庄","lon":"121.136","lat":"31.1504","category":"47","category_name":"住宅区","address":"青湖路666弄"},{"poiid":"B2094654DA6BA4FF489F","title":"供电局调节调度大楼","lon":"121.13227","lat":"31.15302","category":"46","category_name":"楼宇","address":""},{"poiid":"B2094654DA6BA1F44493","title":"上海市电力公司青浦供电分公司","lon":"121.12709","lat":"31.15271","category":"263","category_name":"公司","address":"外青松公路6155号"},{"poiid":"B2094753D268A0FA4999","title":"上井精致创作料理","lon":"121.130565","lat":"31.146973","category":"247","category_name":"餐饮美食","address":"上海市 运杰城市花园"},{"poiid":"B2094757D568A4FB4998","title":"巴黎之夜","lon":"121.13402018","lat":"31.14663628","category":"170","category_name":"KTV","address":"青浦区华青南路511号(近青湖路)"},{"poiid":"B2094654DA6BABFB409B","title":"青浦信息大楼","lon":"121.13443","lat":"31.15371","category":"46","category_name":"楼宇","address":"公园东路1818号"},{"poiid":"B2094654DA6BABFA4793","title":"上海电视台青浦记者站","lon":"121.13175","lat":"31.1529","category":"59","category_name":"电视台","address":"公园东路1828号"},{"poiid":"B2094757D169A3FB4693","title":"宋记香辣蟹 浦仓路店","lon":"121.12133","lat":"31.1518","category":"71","category_name":"四川菜","address":"青浦区浦仓路528号(近青浦体育场)"},{"poiid":"B2094757D46AA4F94699","title":"太麻里台湾私房牛肉面馆 青湖店","lon":"121.133558","lat":"31.145971","category":"91","category_name":"台湾菜","address":"青浦区青湖路914号"},{"poiid":"B2094655D36CA7FC499A","title":"华科路华青路","lon":"121.13188","lat":"31.15698","category":"38","category_name":"公交车站","address":""},{"poiid":"B2094757D16FA2F94693","title":"欧洲街","lon":"121.125363","lat":"31.150549","category":"500","category_name":"未知分类","address":"上海青浦区公园路"},{"poiid":"B2094757D064A4FE489B","title":"上岛咖啡(青湖路店)","lon":"121.134193571","lat":"31.1456604768","category":"65","category_name":"咖啡厅","address":"青浦区青湖路879号(近华青南路)"},{"poiid":"B2094757D66CA5F8459D","title":"青浦电视台","lon":"121.131744","lat":"31.152905","category":"500","category_name":"未知分类","address":"上海青浦公园东路1828号"},{"poiid":"B2094757D169AAF8489C","title":"青浦区社保中心","lon":"121.122893","lat":"31.149602","category":"500","category_name":"未知分类","address":"上海公园路200号"},{"poiid":"B2094654DA6BA1F4459B","title":"上海市青浦区行政学院(华科路)","lon":"121.12869","lat":"31.1562","category":"52","category_name":"高等院校","address":"青浦区华科路158号"},{"poiid":"B2094654DA6BA0F84698","title":"佳佳宾馆","lon":"121.12803","lat":"31.15657","category":"250","category_name":"公园户外","address":"上海市青浦区华科路109号"},{"poiid":"B2094654DA6BA5FE409C","title":"舜浦大厦","lon":"121.12488","lat":"31.14919","category":"46","category_name":"楼宇","address":"上海青浦区公园路99号"},{"poiid":"B2094654DA6BA6FD419B","title":"上海市青浦区科技文化活动中心","lon":"121.12564","lat":"31.15055","category":"248","category_name":"生活娱乐","address":"公园路78-80"},{"poiid":"B2094655D36CA2F8419F","title":"青湖路外青松公路","lon":"121.12826","lat":"31.14603","category":"38","category_name":"公交车站","address":""},{"poiid":"B2094757D06FABFE4393","title":"复旦大学附属中山医院(青浦分院)","lon":"121.13807","lat":"31.15408","category":"162","category_name":"医院","address":"青浦区青浦公园东路1158号"},{"poiid":"B2094757DB6EA6FF429C","title":"上海夏阳湖皇冠假日酒店","lon":"121.1339","lat":"31.15049","category":"72","category_name":"广东菜","address":"青浦区青舟路303号(近夏阳湖)"},{"poiid":"B2094757D068A1FD439D","title":"夏阳湖畔","lon":"121.13520813","lat":"31.150871276","category":"47","category_name":"住宅区","address":"上海青浦区"},{"poiid":"B2094757D068A3F9439E","title":"自由港量贩式KTV(青浦店)","lon":"121.12195","lat":"31.14887","category":"170","category_name":"KTV","address":"青浦区公园路258号(浦仓路口)"},{"poiid":"B2094654DB6AA0FE419E","title":"上海市青浦区图书馆","lon":"121.13671","lat":"31.14783","category":"181","category_name":"图书馆","address":"青浦区青龙路60号(华浦南路青龙路)"},{"poiid":"B2094757D16CAAF94199","title":"澳京豆捞","lon":"121.135293671","lat":"31.1478073198","category":"86","category_name":"火锅店","address":"青浦区华青南路800弄1号(近青浦图书馆)"},{"poiid":"B2094757D664A1F84893","title":"海港一号","lon":"121.132756054","lat":"31.146040793","category":"76","category_name":"上海菜","address":"青浦区华青南路177弄58号(近青湖路)"},{"poiid":"B2094757D168A7FF4192","title":"青浦党校","lon":"121.12828703","lat":"31.156762895","category":"253","category_name":"校园生活","address":"上海华科路"},{"poiid":"B2094751D465A2FE479D","title":"末可甜品小屋","lon":"121.131406","lat":"31.156118","category":"247","category_name":"餐饮美食","address":"青浦区公园东路1688弄23号(近中山医院)"},{"poiid":"B2094654DA6BA4FF4993","title":"上海工商信息学校","lon":"121.13098","lat":"31.15174","category":"55","category_name":"中学","address":"青浦区公园东路2025号(近青浦区电视台)"},{"poiid":"B2094757D16DABF9489C","title":"仁恒运杰河滨花园","lon":"121.136","lat":"31.1474","category":"252","category_name":"楼宇机构","address":"上海市浦东新区锦和路99弄"},{"poiid":"B2094757D06BABFF4693","title":"青浦区政府","lon":"121.12415141","lat":"31.15036197","category":"500","category_name":"未知分类","address":"上海公园路100号"},{"poiid":"B2094655D36CA5FF4392","title":"城中东路保安路","lon":"121.12422","lat":"31.14644","category":"38","category_name":"公交车站","address":""},{"poiid":"B2094654DA6BA4FB449E","title":"公园大观吉富绅花园","lon":"121.13375","lat":"31.15561","category":"47","category_name":"住宅区","address":"上海市青浦区公园东路1688号"},{"poiid":"B2094757D06BA0F8409D","title":"巴黎no.88 bar","lon":"121.13347347","lat":"31.146377457","category":"500","category_name":"未知分类","address":"上海青浦区华青南路511号(巴黎之夜楼上)"},{"poiid":"B2094750D568A0F94392","title":"香港纯Kparyt","lon":"121.126731","lat":"31.146087","category":"170","category_name":"KTV","address":"青浦区青湖路晨兴国际"},{"poiid":"B2094757D064A7F4409D","title":"蓝山咖啡(青浦店)","lon":"121.1367","lat":"31.14814","category":"65","category_name":"咖啡厅","address":"青浦区华青南路800弄1-3号(华浦南路青龙路)"},{"poiid":"B2094757D06BA4FA499D","title":"青浦区行政服务中心","lon":"121.12342184","lat":"31.152591323","category":"500","category_name":"未知分类","address":"上海近郊青浦区外青松公路6189号"},{"poiid":"B2094655D36DA7F8499B","title":"中山医院青浦分院","lon":"121.13481","lat":"31.15335","category":"38","category_name":"公交车站","address":""},{"poiid":"B2094654DA6BABFB459C","title":"夏阳湖国际花园","lon":"121.13573","lat":"31.146868","category":"47","category_name":"住宅区","address":"上海市青浦区青湖路800弄"},{"poiid":"B2094655D36CA7F4469E","title":"桂花园青浦","lon":"121.13511898718","lat":"31.151869426536","category":"38","category_name":"公交车站","address":"沪青平公路4555弄"},{"poiid":"B2094757D16EA3FF4299","title":"青浦区博物馆","lon":"121.133225135","lat":"31.1536129838","category":"179","category_name":"音乐厅","address":"青浦区青浦镇华青南路1000号"},{"poiid":"B2094757D06BA4FA489B","title":"迪欧咖啡(青浦店)","lon":"121.12578","lat":"31.14938","category":"65","category_name":"咖啡厅","address":"青浦区公园路99号(公园路外青松公路)"},{"poiid":"B2094654DA6BABFA409D","title":"梦丹苑","lon":"121.13171","lat":"31.146254","category":"47","category_name":"住宅区","address":"青湖路4625弄"},{"poiid":"B2094752D26FABF84593","title":"巴黎纯K量贩式KTV","lon":"121.134186","lat":"31.146301","category":"170","category_name":"KTV","address":"上海市青浦区华青南路511号"},{"poiid":"B2094757D16CA0FC479C","title":"龙满楼","lon":"121.125225","lat":"31.1558858","category":"76","category_name":"上海菜","address":"青浦区外青松公路6048弄16号(近界泾港路)"},{"poiid":"B2094654DB69A5F9489D","title":"真锅咖啡(青浦夏阳湖店)","lon":"121.1351","lat":"31.15087","category":"65","category_name":"咖啡厅","address":"青浦区华青路767号二楼(青浦博物馆对面)"},{"poiid":"B2094757D16EAAF94992","title":"鼎萃食坊(桥梓湾店)","lon":"121.12837","lat":"31.1509","category":"247","category_name":"餐饮美食","address":"青浦区公园路666弄11号桥梓湾购物中心广场外圈(聚星街公园路)"},{"poiid":"B2094654DA6BABFB409A","title":"新城逸境园","lon":"121.13385","lat":"31.157528","category":"47","category_name":"住宅区","address":"上海市青浦区华科路路255弄"},{"poiid":"B2094655D36DA0FE449D","title":"信息学院","lon":"121.13054","lat":"31.15208","category":"38","category_name":"公交车站","address":""},{"poiid":"B2094757D464A7FF4792","title":"华青乡下菜","lon":"121.13297","lat":"31.15616","category":"76","category_name":"上海菜","address":"青浦区华青北路3号(近青浦电视台)"},{"poiid":"B2094654DA6BA0FF4893","title":"蓬莱山庄","lon":"121.136","lat":"31.1504","category":"47","category_name":"住宅区","address":"青湖路666弄"},{"poiid":"B2094654DA6BA4FF489F","title":"供电局调节调度大楼","lon":"121.13227","lat":"31.15302","category":"46","category_name":"楼宇","address":""},{"poiid":"B2094654DA6BA1F44493","title":"上海市电力公司青浦供电分公司","lon":"121.12709","lat":"31.15271","category":"263","category_name":"公司","address":"外青松公路6155号"},{"poiid":"B2094753D268A0FA4999","title":"上井精致创作料理","lon":"121.130565","lat":"31.146973","category":"247","category_name":"餐饮美食","address":"上海市 运杰城市花园"},{"poiid":"B2094757D568A4FB4998","title":"巴黎之夜","lon":"121.13402018","lat":"31.14663628","category":"170","category_name":"KTV","address":"青浦区华青南路511号(近青湖路)"},{"poiid":"B2094654DA6BABFB409B","title":"青浦信息大楼","lon":"121.13443","lat":"31.15371","category":"46","category_name":"楼宇","address":"公园东路1818号"},{"poiid":"B2094654DA6BABFA4793","title":"上海电视台青浦记者站","lon":"121.13175","lat":"31.1529","category":"59","category_name":"电视台","address":"公园东路1828号"},{"poiid":"B2094757D169A3FB4693","title":"宋记香辣蟹 浦仓路店","lon":"121.12133","lat":"31.1518","category":"71","category_name":"四川菜","address":"青浦区浦仓路528号(近青浦体育场)"},{"poiid":"B2094757D46AA4F94699","title":"太麻里台湾私房牛肉面馆 青湖店","lon":"121.133558","lat":"31.145971","category":"91","category_name":"台湾菜","address":"青浦区青湖路914号"},{"poiid":"B2094655D36CA7FC499A","title":"华科路华青路","lon":"121.13188","lat":"31.15698","category":"38","category_name":"公交车站","address":""},{"poiid":"B2094757D16FA2F94693","title":"欧洲街","lon":"121.125363","lat":"31.150549","category":"500","category_name":"未知分类","address":"上海青浦区公园路"},{"poiid":"B2094757D064A4FE489B","title":"上岛咖啡(青湖路店)","lon":"121.134193571","lat":"31.1456604768","category":"65","category_name":"咖啡厅","address":"青浦区青湖路879号(近华青南路)"},{"poiid":"B2094757D66CA5F8459D","title":"青浦电视台","lon":"121.131744","lat":"31.152905","category":"500","category_name":"未知分类","address":"上海青浦公园东路1828号"},{"poiid":"B2094757D169AAF8489C","title":"青浦区社保中心","lon":"121.122893","lat":"31.149602","category":"500","category_name":"未知分类","address":"上海公园路200号"},{"poiid":"B2094654DA6BA1F4459B","title":"上海市青浦区行政学院(华科路)","lon":"121.12869","lat":"31.1562","category":"52","category_name":"高等院校","address":"青浦区华科路158号"},{"poiid":"B2094654DA6BA0F84698","title":"佳佳宾馆","lon":"121.12803","lat":"31.15657","category":"250","category_name":"公园户外","address":"上海市青浦区华科路109号"},{"poiid":"B2094654DA6BA5FE409C","title":"舜浦大厦","lon":"121.12488","lat":"31.14919","category":"46","category_name":"楼宇","address":"上海青浦区公园路99号"},{"poiid":"B2094654DA6BA6FD419B","title":"上海市青浦区科技文化活动中心","lon":"121.12564","lat":"31.15055","category":"248","category_name":"生活娱乐","address":"公园路78-80"},{"poiid":"B2094655D36CA2F8419F","title":"青湖路外青松公路","lon":"121.12826","lat":"31.14603","category":"38","category_name":"公交车站","address":""},{"poiid":"B2094757D06FABFE4393","title":"复旦大学附属中山医院(青浦分院)","lon":"121.13807","lat":"31.15408","category":"162","category_name":"医院","address":"青浦区青浦公园东路1158号"},{"poiid":"B2094757DB6EA6FF429C","title":"上海夏阳湖皇冠假日酒店","lon":"121.1339","lat":"31.15049","category":"72","category_name":"广东菜","address":"青浦区青舟路303号(近夏阳湖)"},{"poiid":"B2094757D068A1FD439D","title":"夏阳湖畔","lon":"121.13520813","lat":"31.150871276","category":"47","category_name":"住宅区","address":"上海青浦区"},{"poiid":"B2094757D068A3F9439E","title":"自由港量贩式KTV(青浦店)","lon":"121.12195","lat":"31.14887","category":"170","category_name":"KTV","address":"青浦区公园路258号(浦仓路口)"},{"poiid":"B2094654DB6AA0FE419E","title":"上海市青浦区图书馆","lon":"121.13671","lat":"31.14783","category":"181","category_name":"图书馆","address":"青浦区青龙路60号(华浦南路青龙路)"},{"poiid":"B2094757D16CAAF94199","title":"澳京豆捞","lon":"121.135293671","lat":"31.1478073198","category":"86","category_name":"火锅店","address":"青浦区华青南路800弄1号(近青浦图书馆)"},{"poiid":"B2094757D664A1F84893","title":"海港一号","lon":"121.132756054","lat":"31.146040793","category":"76","category_name":"上海菜","address":"青浦区华青南路177弄58号(近青湖路)"},{"poiid":"B2094757D168A7FF4192","title":"青浦党校","lon":"121.12828703","lat":"31.156762895","category":"253","category_name":"校园生活","address":"上海华科路"},{"poiid":"B2094751D465A2FE479D","title":"末可甜品小屋","lon":"121.131406","lat":"31.156118","category":"247","category_name":"餐饮美食","address":"青浦区公园东路1688弄23号(近中山医院)"},{"poiid":"B2094654DA6BA4FF4993","title":"上海工商信息学校","lon":"121.13098","lat":"31.15174","category":"55","category_name":"中学","address":"青浦区公园东路2025号(近青浦区电视台)"},{"poiid":"B2094757D16DABF9489C","title":"仁恒运杰河滨花园","lon":"121.136","lat":"31.1474","category":"252","category_name":"楼宇机构","address":"上海市浦东新区锦和路99弄"},{"poiid":"B2094757D06BABFF4693","title":"青浦区政府","lon":"121.12415141","lat":"31.15036197","category":"500","category_name":"未知分类","address":"上海公园路100号"},{"poiid":"B2094655D36CA5FF4392","title":"城中东路保安路","lon":"121.12422","lat":"31.14644","category":"38","category_name":"公交车站","address":""},{"poiid":"B2094654DA6BA4FB449E","title":"公园大观吉富绅花园","lon":"121.13375","lat":"31.15561","category":"47","category_name":"住宅区","address":"上海市青浦区公园东路1688号"},{"poiid":"B2094757D06BA0F8409D","title":"巴黎no.88 bar","lon":"121.13347347","lat":"31.146377457","category":"500","category_name":"未知分类","address":"上海青浦区华青南路511号(巴黎之夜楼上)"},{"poiid":"B2094750D568A0F94392","title":"香港纯Kparyt","lon":"121.126731","lat":"31.146087","category":"170","category_name":"KTV","address":"青浦区青湖路晨兴国际"},{"poiid":"B2094757D064A7F4409D","title":"蓝山咖啡(青浦店)","lon":"121.1367","lat":"31.14814","category":"65","category_name":"咖啡厅","address":"青浦区华青南路800弄1-3号(华浦南路青龙路)"},{"poiid":"B2094757D06BA4FA499D","title":"青浦区行政服务中心","lon":"121.12342184","lat":"31.152591323","category":"500","category_name":"未知分类","address":"上海近郊青浦区外青松公路6189号"},{"poiid":"B2094655D36DA7F8499B","title":"中山医院青浦分院","lon":"121.13481","lat":"31.15335","category":"38","category_name":"公交车站","address":""},{"poiid":"B2094654DA6BABFB459C","title":"夏阳湖国际花园","lon":"121.13573","lat":"31.146868","category":"47","category_name":"住宅区","address":"上海市青浦区青湖路800弄"},{"poiid":"B2094655D36CA7F4469E","title":"桂花园青浦","lon":"121.13511898718","lat":"31.151869426536","category":"38","category_name":"公交车站","address":"沪青平公路4555弄"},{"poiid":"B2094757D16EA3FF4299","title":"青浦区博物馆","lon":"121.133225135","lat":"31.1536129838","category":"179","category_name":"音乐厅","address":"青浦区青浦镇华青南路1000号"},{"poiid":"B2094757D06BA4FA489B","title":"迪欧咖啡(青浦店)","lon":"121.12578","lat":"31.14938","category":"65","category_name":"咖啡厅","address":"青浦区公园路99号(公园路外青松公路)"},{"poiid":"B2094654DA6BABFA409D","title":"梦丹苑","lon":"121.13171","lat":"31.146254","category":"47","category_name":"住宅区","address":"青湖路4625弄"},{"poiid":"B2094752D26FABF84593","title":"巴黎纯K量贩式KTV","lon":"121.134186","lat":"31.146301","category":"170","category_name":"KTV","address":"上海市青浦区华青南路511号"},{"poiid":"B2094757D16CA0FC479C","title":"龙满楼","lon":"121.125225","lat":"31.1558858","category":"76","category_name":"上海菜","address":"青浦区外青松公路6048弄16号(近界泾港路)"},{"poiid":"B2094654DB69A5F9489D","title":"真锅咖啡(青浦夏阳湖店)","lon":"121.1351","lat":"31.15087","category":"65","category_name":"咖啡厅","address":"青浦区华青路767号二楼(青浦博物馆对面)"},{"poiid":"B2094757D16EAAF94992","title":"鼎萃食坊(桥梓湾店)","lon":"121.12837","lat":"31.1509","category":"247","category_name":"餐饮美食","address":"青浦区公园路666弄11号桥梓湾购物中心广场外圈(聚星街公园路)"},{"poiid":"B2094654DA6BABFB409A","title":"新城逸境园","lon":"121.13385","lat":"31.157528","category":"47","category_name":"住宅区","address":"上海市青浦区华科路路255弄"},{"poiid":"B2094655D36DA0FE449D","title":"信息学院","lon":"121.13054","lat":"31.15208","category":"38","category_name":"公交车站","address":""},{"poiid":"B2094757D464A7FF4792","title":"华青乡下菜","lon":"121.13297","lat":"31.15616","category":"76","category_name":"上海菜","address":"青浦区华青北路3号(近青浦电视台)"},{"poiid":"B2094654DA6BA0FF4893","title":"蓬莱山庄","lon":"121.136","lat":"31.1504","category":"47","category_name":"住宅区","address":"青湖路666弄"},{"poiid":"B2094654DA6BA4FF489F","title":"供电局调节调度大楼","lon":"121.13227","lat":"31.15302","category":"46","category_name":"楼宇","address":""},{"poiid":"B2094654DA6BA1F44493","title":"上海市电力公司青浦供电分公司","lon":"121.12709","lat":"31.15271","category":"263","category_name":"公司","address":"外青松公路6155号"},{"poiid":"B2094753D268A0FA4999","title":"上井精致创作料理","lon":"121.130565","lat":"31.146973","category":"247","category_name":"餐饮美食","address":"上海市 运杰城市花园"},{"poiid":"B2094757D568A4FB4998","title":"巴黎之夜","lon":"121.13402018","lat":"31.14663628","category":"170","category_name":"KTV","address":"青浦区华青南路511号(近青湖路)"},{"poiid":"B2094654DA6BABFB409B","title":"青浦信息大楼","lon":"121.13443","lat":"31.15371","category":"46","category_name":"楼宇","address":"公园东路1818号"},{"poiid":"B2094654DA6BABFA4793","title":"上海电视台青浦记者站","lon":"121.13175","lat":"31.1529","category":"59","category_name":"电视台","address":"公园东路1828号"},{"poiid":"B2094757D169A3FB4693","title":"宋记香辣蟹 浦仓路店","lon":"121.12133","lat":"31.1518","category":"71","category_name":"四川菜","address":"青浦区浦仓路528号(近青浦体育场)"},{"poiid":"B2094757D46AA4F94699","title":"太麻里台湾私房牛肉面馆 青湖店","lon":"121.133558","lat":"31.145971","category":"91","category_name":"台湾菜","address":"青浦区青湖路914号"},{"poiid":"B2094655D36CA7FC499A","title":"华科路华青路","lon":"121.13188","lat":"31.15698","category":"38","category_name":"公交车站","address":""},{"poiid":"B2094757D16FA2F94693","title":"欧洲街","lon":"121.125363","lat":"31.150549","category":"500","category_name":"未知分类","address":"上海青浦区公园路"},{"poiid":"B2094757D064A4FE489B","title":"上岛咖啡(青湖路店)","lon":"121.134193571","lat":"31.1456604768","category":"65","category_name":"咖啡厅","address":"青浦区青湖路879号(近华青南路)"},{"poiid":"B2094757D66CA5F8459D","title":"青浦电视台","lon":"121.131744","lat":"31.152905","category":"500","category_name":"未知分类","address":"上海青浦公园东路1828号"},{"poiid":"B2094757D169AAF8489C","title":"青浦区社保中心","lon":"121.122893","lat":"31.149602","category":"500","category_name":"未知分类","address":"上海公园路200号"},{"poiid":"B2094654DA6BA1F4459B","title":"上海市青浦区行政学院(华科路)","lon":"121.12869","lat":"31.1562","category":"52","category_name":"高等院校","address":"青浦区华科路158号"},{"poiid":"B2094654DA6BA0F84698","title":"佳佳宾馆","lon":"121.12803","lat":"31.15657","category":"250","category_name":"公园户外","address":"上海市青浦区华科路109号"},{"poiid":"B2094654DA6BA5FE409C","title":"舜浦大厦","lon":"121.12488","lat":"31.14919","category":"46","category_name":"楼宇","address":"上海青浦区公园路99号"},{"poiid":"B2094654DA6BA6FD419B","title":"上海市青浦区科技文化活动中心","lon":"121.12564","lat":"31.15055","category":"248","category_name":"生活娱乐","address":"公园路78-80"},{"poiid":"B2094655D36CA2F8419F","title":"青湖路外青松公路","lon":"121.12826","lat":"31.14603","category":"38","category_name":"公交车站","address":""}]