[{"poiid":"B2094757D06EAAFA4398","title":"凯德·嘉茂购物广场(七宝)","lon":"121.339686","lat":"31.164475","category":"119","category_name":"商场","address":"上海闵行区七莘路3655号(近沪星路)"},{"poiid":"B2094757D16DA3F5499C","title":"好乐迪KTV","lon":"121.34295776","lat":"31.1626887231","category":"170","category_name":"KTV","address":"上海七宝嘉茂广场三楼"},{"poiid":"B2094655D26BA2FE4592","title":"万科城市花园","lon":"121.34605","lat":"31.15921","category":"38","category_name":"公交车站","address":"上海市闵行区七莘路3333弄"},{"poiid":"B2094757D06FA1F5449D","title":"七宝大光明影城","lon":"121.34048578","lat":"31.165400143","category":"178","category_name":"电影院","address":"上海市闵行区七莘路3655号凯德七宝购物广场3楼(家乐福楼上)"},{"poiid":"B2094757D06FA1F44999","title":"永富茶餐厅","lon":"121.34223","lat":"31.165382","category":"111","category_name":"休闲餐饮场所","address":"闵行区七莘路3655号嘉茂购物广场1楼65室(近沪星路)"},{"poiid":"B2094757D06FA5FC489C","title":"PANKOO釜山料理(七宝店)","lon":"121.33968","lat":"31.16447","category":"96","category_name":"韩国料理","address":"闵行区七莘路3655号嘉茂购物广场4楼(近沪星路)"},{"poiid":"B2094750D165A6FC409D","title":"巴黎春天七宝店","lon":"121.340065","lat":"31.162313","category":"249","category_name":"购物服务","address":"闵行区七莘路3755号巴黎春天内(近沪星路)"},{"poiid":"B2094757D06FA1F8479B","title":"乐购(七宝店)","lon":"121.346509563","lat":"31.1570358462","category":"118","category_name":"超级市场","address":"上海闵行区七宝镇七莘路3155号(近新龙路)"},{"poiid":"B2094757D06FABFC4893","title":"COSTA COFFEE(七宝乐购店)","lon":"121.34655153","lat":"31.158143312","category":"65","category_name":"咖啡厅","address":"闵行区七莘路3155号乐购1楼(近新龙路)"},{"poiid":"B2094757D068A3F5449C","title":"虹桥机场2号航站楼60号登机口","lon":"121.34465856","lat":"31.160800183","category":"21","category_name":"飞机场","address":"上海虹桥机场T2"},{"poiid":"B2094757D06FAAFC4399","title":"阿胖鲁肉饭(吴中路店)","lon":"121.34879","lat":"31.16245","category":"91","category_name":"台湾菜","address":"闵行区吴中路2599号(近航新路)"},{"poiid":"B2094654DB69A4F84398","title":"星巴克 七宝店 Starbucks Cafe","lon":"121.34842061966","lat":"31.155162367368","category":"247","category_name":"餐饮美食","address":"七莘路3155号近新龙路"},{"poiid":"B2094654DA6BABFB4892","title":"必胜客 七宝店 Pizza Hut","lon":"121.34832709738","lat":"31.155256828982","category":"68","category_name":"快餐厅","address":"闵行区七莘路3155号河畔百货1-2楼(近新龙路)"},{"poiid":"B2094757D068A1F8419C","title":"蜀府 七宝嘉茂店","lon":"121.34144067764","lat":"31.165222041858","category":"71","category_name":"四川菜","address":"闵行区七莘路3655号凯德七宝购物广场4楼"},{"poiid":"B2094654DB6BA0F9489F","title":"STARBUCKS COFFEE","lon":"121.3422","lat":"31.16545","category":"65","category_name":"咖啡厅","address":""},{"poiid":"B2094757D068A2F54298","title":"狮子山香港餐厅 七莘路店","lon":"121.341962054","lat":"31.165375793","category":"72","category_name":"广东菜","address":"闵行区七莘路3655号嘉茂购物广场2楼02-13号(近沪星路)"},{"poiid":"B2094757D06AAAFF4898","title":"渔太郎日料(七宝店)","lon":"121.34321196","lat":"31.158011924","category":"95","category_name":"日本料理","address":"闵行区七莘路3333号万科城市花园7区22号(近吴中路)"},{"poiid":"B2094757D068A5FA429D","title":"呷哺呷哺","lon":"121.34187972","lat":"31.1649394805","category":"86","category_name":"火锅店","address":"闵行区七莘路3655号嘉茂购物广场1楼58-59号商铺"},{"poiid":"B2094654DB65A7F54499","title":"巴贝拉 七宝龙城店 Babela's Kitchen","lon":"121.342154054","lat":"31.165384793","category":"247","category_name":"餐饮美食","address":"七莘路3655号嘉茂购物广场(龙城购物中心)48B室近沪星路"},{"poiid":"B2094757D06FA6F9429B","title":"麦当劳(七宝店)","lon":"121.34719085","lat":"31.15681076","category":"68","category_name":"快餐厅","address":"闵行区七莘路3045号(近漕宝路)"},{"poiid":"B2094757D068AAFE479C","title":"味千拉面(嘉茂店)","lon":"121.3419","lat":"31.16462","category":"95","category_name":"日本料理","address":"闵行区七莘路3655号嘉茂购物广场1楼66/67铺位(近沪星路)"},{"poiid":"B2094757D069A3F84199","title":"甜蜜蜜(七宝巴黎春天店)","lon":"121.341062","lat":"31.165562","category":"257","category_name":"中餐厅","address":"闵行区七莘路3755号巴黎春天2楼69-2号(近沪星路)"},{"poiid":"B2094655D26FA2FD409F","title":"嘉茂购物广场","lon":"121.33986","lat":"31.16437","category":"119","category_name":"商场","address":"七莘路3655号(近沪青平公路)"},{"poiid":"B2094757D065A4F94898","title":"秀寿司","lon":"121.34528","lat":"31.16053","category":"95","category_name":"日本料理","address":"闵行区七莘路3333弄万科城市花园9区21号103室"},{"poiid":"B2094654DA6BABF4489E","title":"临江门老火锅","lon":"121.34699","lat":"31.1581","category":"86","category_name":"火锅店","address":"闵行区七莘路3166号七宝乐购对面(近新龙路)"},{"poiid":"B2094757D069A0FE4493","title":"汤姆熊(七宝店)","lon":"121.341889","lat":"31.165002","category":"173","category_name":"游戏厅","address":"上海七宝嘉茂店"},{"poiid":"B2094757D064A3FA419D","title":"万科上海中心","lon":"121.34234142","lat":"31.165143933","category":"500","category_name":"未知分类","address":"上海七莘路3568号"},{"poiid":"B2094757D069A7FF469A","title":"萨莉亚 七宝乐购店","lon":"121.34629","lat":"31.1582","category":"94","category_name":"西餐厅","address":"闵行区七莘路3155号河畔百货4楼(近新龙路)"},{"poiid":"B2094654DB64A6F5469D","title":"家乐福(七宝店)","lon":"121.34049","lat":"31.16482","category":"118","category_name":"超级市场","address":"闵行区七莘路3655号嘉茂购物广场2楼(近沪星路)"},{"poiid":"B2094757D66BA4F5489A","title":"鹅庄 七莘路店","lon":"121.344806","lat":"31.161929","category":"91","category_name":"台湾菜","address":"闵行区七莘路3333号万科城市花园旁"},{"poiid":"B2094751D36AAAFF4692","title":"君日式烧烤","lon":"121.34526","lat":"31.16061","category":"269","category_name":"烧烤","address":"闵行区七莘路3333弄万科城市花园邻里中心210号"},{"poiid":"B209475CDB65ABF44493","title":"上海大华虹桥假日酒店","lon":"121.345046","lat":"31.16155","category":"214","category_name":"四星级宾馆","address":"七莘路3555号"},{"poiid":"B2094654DB64A2FC4498","title":"南国花园","lon":"121.34655","lat":"31.159599","category":"47","category_name":"住宅区","address":"上海市闵行区星站路"},{"poiid":"B2094757DA6EABF4459C","title":"争鲜回转寿司(七宝店)","lon":"121.3461585","lat":"31.1586583","category":"95","category_name":"日本料理","address":"闵行区七莘路3155号七宝乐购"},{"poiid":"B2094757D16CA1F9429D","title":"H3club","lon":"121.34229","lat":"31.16537","category":"148","category_name":"美容美发店","address":"上海闵行区七莘路3655号3楼(近沪星路)  "},{"poiid":"B2094757D064A2F8409C","title":"斗香园(七宝凯德店)","lon":"121.34053286","lat":"31.1630780313","category":"500","category_name":"未知分类","address":"上海闵行区七莘路3655号凯德七宝购物广场1F"},{"poiid":"B2094757D064AAF44793","title":"七宝巴黎春天弘历皇朝","lon":"121.34100856","lat":"31.165599284","category":"500","category_name":"未知分类","address":"上海市闵行区七莘路"},{"poiid":"B2094757D06AABF84192","title":"四海游龙 吴中路店 OVERSEAS DRAGON","lon":"121.34701748506","lat":"31.16254699938","category":"68","category_name":"快餐厅","address":"七莘路3155号河畔百货(乐购七宝店)近吴中路"},{"poiid":"B2094757D66AABFA459E","title":"湘水洞","lon":"121.344960054","lat":"31.160764793","category":"77","category_name":"湖南菜","address":"闵行区七莘路3333弄8区3号101室(近吴中路)"},{"poiid":"B2094750D26DA4FE439E","title":"宝燕壹号 七莘路店","lon":"121.339685","lat":"31.164463","category":"75","category_name":"浙江菜","address":"闵行区七莘路3655号嘉茂购物广场2楼40-42号商铺(近沪星路)"},{"poiid":"B2094757D064A1FF439E","title":"肯德基(龙城店)","lon":"121.34253976","lat":"31.1646734649","category":"68","category_name":"快餐厅","address":"闵行区七莘路3655号嘉茂购物广场内(近沪星路)"},{"poiid":"B2094757D06AA2F94593","title":"肯德基 KFC (乐购店)","lon":"121.346533","lat":"31.158372","category":"68","category_name":"快餐厅","address":"闵行区七莘路3155号七宝乐购1楼"},{"poiid":"B2094655D264A6F4449E","title":"黑三娘七莘路店","lon":"121.34702","lat":"31.15824","category":"247","category_name":"餐饮美食","address":"闵行区七莘路3178号(近吴中路)"},{"poiid":"B2094750D669A5FF449B","title":"呀咪咖喱屋","lon":"121.341232","lat":"31.163555","category":"247","category_name":"餐饮美食","address":"七宝嘉茂广场2楼"},{"poiid":"B2094757D068A5F5439E","title":"华商时代广场","lon":"121.3425772","lat":"31.165198","category":"46","category_name":"楼宇","address":"上海七莘路3599弄"},{"poiid":"B2094654DB64A2FC449C","title":"上岛咖啡七莘路店","lon":"121.34518","lat":"31.16152","category":"260","category_name":"其他","address":"闵行区七莘路3088号鼎味火锅(近漕宝路)"},{"poiid":"B2094655D26BA2F4429A","title":"七莘路吴中路","lon":"121.34505","lat":"31.16116","category":"38","category_name":"公交车站","address":""},{"poiid":"B2094751D368AAF44399","title":"雅科(七宝店)","lon":"121.33968","lat":"31.16446","category":"76","category_name":"上海菜","address":"闵行区七莘路3655号凯德七宝购物广场4楼"},{"poiid":"B2094757D069A3F4409D","title":"789新概念火锅料理(凯德七宝店)","lon":"121.34125441","lat":"31.165677886","category":"86","category_name":"火锅店","address":"闵行区七莘路3655号凯德七宝购物广场4楼"},{"poiid":"B2094751D26EA6FB449E","title":"东北人","lon":"121.34333","lat":"31.1643","category":"247","category_name":"餐饮美食","address":"闵行区沪星路289弄28号顺恒国际商业广场1楼C区"},{"poiid":"B2094757D06EAAFA4398","title":"凯德·嘉茂购物广场(七宝)","lon":"121.339686","lat":"31.164475","category":"119","category_name":"商场","address":"上海闵行区七莘路3655号(近沪星路)"},{"poiid":"B2094757D16DA3F5499C","title":"好乐迪KTV","lon":"121.34295776","lat":"31.1626887231","category":"170","category_name":"KTV","address":"上海七宝嘉茂广场三楼"},{"poiid":"B2094655D26BA2FE4592","title":"万科城市花园","lon":"121.34605","lat":"31.15921","category":"38","category_name":"公交车站","address":"上海市闵行区七莘路3333弄"},{"poiid":"B2094757D06FA1F5449D","title":"七宝大光明影城","lon":"121.34048578","lat":"31.165400143","category":"178","category_name":"电影院","address":"上海市闵行区七莘路3655号凯德七宝购物广场3楼(家乐福楼上)"},{"poiid":"B2094757D06FA1F44999","title":"永富茶餐厅","lon":"121.34223","lat":"31.165382","category":"111","category_name":"休闲餐饮场所","address":"闵行区七莘路3655号嘉茂购物广场1楼65室(近沪星路)"},{"poiid":"B2094757D06FA5FC489C","title":"PANKOO釜山料理(七宝店)","lon":"121.33968","lat":"31.16447","category":"96","category_name":"韩国料理","address":"闵行区七莘路3655号嘉茂购物广场4楼(近沪星路)"},{"poiid":"B2094750D165A6FC409D","title":"巴黎春天七宝店","lon":"121.340065","lat":"31.162313","category":"249","category_name":"购物服务","address":"闵行区七莘路3755号巴黎春天内(近沪星路)"},{"poiid":"B2094757D06FA1F8479B","title":"乐购(七宝店)","lon":"121.346509563","lat":"31.1570358462","category":"118","category_name":"超级市场","address":"上海闵行区七宝镇七莘路3155号(近新龙路)"},{"poiid":"B2094757D06FABFC4893","title":"COSTA COFFEE(七宝乐购店)","lon":"121.34655153","lat":"31.158143312","category":"65","category_name":"咖啡厅","address":"闵行区七莘路3155号乐购1楼(近新龙路)"},{"poiid":"B2094757D068A3F5449C","title":"虹桥机场2号航站楼60号登机口","lon":"121.34465856","lat":"31.160800183","category":"21","category_name":"飞机场","address":"上海虹桥机场T2"},{"poiid":"B2094757D06FAAFC4399","title":"阿胖鲁肉饭(吴中路店)","lon":"121.34879","lat":"31.16245","category":"91","category_name":"台湾菜","address":"闵行区吴中路2599号(近航新路)"},{"poiid":"B2094654DB69A4F84398","title":"星巴克 七宝店 Starbucks Cafe","lon":"121.34842061966","lat":"31.155162367368","category":"247","category_name":"餐饮美食","address":"七莘路3155号近新龙路"},{"poiid":"B2094654DA6BABFB4892","title":"必胜客 七宝店 Pizza Hut","lon":"121.34832709738","lat":"31.155256828982","category":"68","category_name":"快餐厅","address":"闵行区七莘路3155号河畔百货1-2楼(近新龙路)"},{"poiid":"B2094757D068A1F8419C","title":"蜀府 七宝嘉茂店","lon":"121.34144067764","lat":"31.165222041858","category":"71","category_name":"四川菜","address":"闵行区七莘路3655号凯德七宝购物广场4楼"},{"poiid":"B2094654DB6BA0F9489F","title":"STARBUCKS COFFEE","lon":"121.3422","lat":"31.16545","category":"65","category_name":"咖啡厅","address":""},{"poiid":"B2094757D068A2F54298","title":"狮子山香港餐厅 七莘路店","lon":"121.341962054","lat":"31.165375793","category":"72","category_name":"广东菜","address":"闵行区七莘路3655号嘉茂购物广场2楼02-13号(近沪星路)"},{"poiid":"B2094757D06AAAFF4898","title":"渔太郎日料(七宝店)","lon":"121.34321196","lat":"31.158011924","category":"95","category_name":"日本料理","address":"闵行区七莘路3333号万科城市花园7区22号(近吴中路)"},{"poiid":"B2094757D068A5FA429D","title":"呷哺呷哺","lon":"121.34187972","lat":"31.1649394805","category":"86","category_name":"火锅店","address":"闵行区七莘路3655号嘉茂购物广场1楼58-59号商铺"},{"poiid":"B2094654DB65A7F54499","title":"巴贝拉 七宝龙城店 Babela's Kitchen","lon":"121.342154054","lat":"31.165384793","category":"247","category_name":"餐饮美食","address":"七莘路3655号嘉茂购物广场(龙城购物中心)48B室近沪星路"},{"poiid":"B2094757D06FA6F9429B","title":"麦当劳(七宝店)","lon":"121.34719085","lat":"31.15681076","category":"68","category_name":"快餐厅","address":"闵行区七莘路3045号(近漕宝路)"},{"poiid":"B2094757D068AAFE479C","title":"味千拉面(嘉茂店)","lon":"121.3419","lat":"31.16462","category":"95","category_name":"日本料理","address":"闵行区七莘路3655号嘉茂购物广场1楼66/67铺位(近沪星路)"},{"poiid":"B2094757D069A3F84199","title":"甜蜜蜜(七宝巴黎春天店)","lon":"121.341062","lat":"31.165562","category":"257","category_name":"中餐厅","address":"闵行区七莘路3755号巴黎春天2楼69-2号(近沪星路)"},{"poiid":"B2094655D26FA2FD409F","title":"嘉茂购物广场","lon":"121.33986","lat":"31.16437","category":"119","category_name":"商场","address":"七莘路3655号(近沪青平公路)"},{"poiid":"B2094757D065A4F94898","title":"秀寿司","lon":"121.34528","lat":"31.16053","category":"95","category_name":"日本料理","address":"闵行区七莘路3333弄万科城市花园9区21号103室"},{"poiid":"B2094654DA6BABF4489E","title":"临江门老火锅","lon":"121.34699","lat":"31.1581","category":"86","category_name":"火锅店","address":"闵行区七莘路3166号七宝乐购对面(近新龙路)"},{"poiid":"B2094757D069A0FE4493","title":"汤姆熊(七宝店)","lon":"121.341889","lat":"31.165002","category":"173","category_name":"游戏厅","address":"上海七宝嘉茂店"},{"poiid":"B2094757D064A3FA419D","title":"万科上海中心","lon":"121.34234142","lat":"31.165143933","category":"500","category_name":"未知分类","address":"上海七莘路3568号"},{"poiid":"B2094757D069A7FF469A","title":"萨莉亚 七宝乐购店","lon":"121.34629","lat":"31.1582","category":"94","category_name":"西餐厅","address":"闵行区七莘路3155号河畔百货4楼(近新龙路)"},{"poiid":"B2094654DB64A6F5469D","title":"家乐福(七宝店)","lon":"121.34049","lat":"31.16482","category":"118","category_name":"超级市场","address":"闵行区七莘路3655号嘉茂购物广场2楼(近沪星路)"},{"poiid":"B2094757D66BA4F5489A","title":"鹅庄 七莘路店","lon":"121.344806","lat":"31.161929","category":"91","category_name":"台湾菜","address":"闵行区七莘路3333号万科城市花园旁"},{"poiid":"B2094751D36AAAFF4692","title":"君日式烧烤","lon":"121.34526","lat":"31.16061","category":"269","category_name":"烧烤","address":"闵行区七莘路3333弄万科城市花园邻里中心210号"},{"poiid":"B209475CDB65ABF44493","title":"上海大华虹桥假日酒店","lon":"121.345046","lat":"31.16155","category":"214","category_name":"四星级宾馆","address":"七莘路3555号"},{"poiid":"B2094654DB64A2FC4498","title":"南国花园","lon":"121.34655","lat":"31.159599","category":"47","category_name":"住宅区","address":"上海市闵行区星站路"},{"poiid":"B2094757DA6EABF4459C","title":"争鲜回转寿司(七宝店)","lon":"121.3461585","lat":"31.1586583","category":"95","category_name":"日本料理","address":"闵行区七莘路3155号七宝乐购"},{"poiid":"B2094757D16CA1F9429D","title":"H3club","lon":"121.34229","lat":"31.16537","category":"148","category_name":"美容美发店","address":"上海闵行区七莘路3655号3楼(近沪星路)  "},{"poiid":"B2094757D064A2F8409C","title":"斗香园(七宝凯德店)","lon":"121.34053286","lat":"31.1630780313","category":"500","category_name":"未知分类","address":"上海闵行区七莘路3655号凯德七宝购物广场1F"},{"poiid":"B2094757D064AAF44793","title":"七宝巴黎春天弘历皇朝","lon":"121.34100856","lat":"31.165599284","category":"500","category_name":"未知分类","address":"上海市闵行区七莘路"},{"poiid":"B2094757D06AABF84192","title":"四海游龙 吴中路店 OVERSEAS DRAGON","lon":"121.34701748506","lat":"31.16254699938","category":"68","category_name":"快餐厅","address":"七莘路3155号河畔百货(乐购七宝店)近吴中路"},{"poiid":"B2094757D66AABFA459E","title":"湘水洞","lon":"121.344960054","lat":"31.160764793","category":"77","category_name":"湖南菜","address":"闵行区七莘路3333弄8区3号101室(近吴中路)"},{"poiid":"B2094750D26DA4FE439E","title":"宝燕壹号 七莘路店","lon":"121.339685","lat":"31.164463","category":"75","category_name":"浙江菜","address":"闵行区七莘路3655号嘉茂购物广场2楼40-42号商铺(近沪星路)"},{"poiid":"B2094757D064A1FF439E","title":"肯德基(龙城店)","lon":"121.34253976","lat":"31.1646734649","category":"68","category_name":"快餐厅","address":"闵行区七莘路3655号嘉茂购物广场内(近沪星路)"},{"poiid":"B2094757D06AA2F94593","title":"肯德基 KFC (乐购店)","lon":"121.346533","lat":"31.158372","category":"68","category_name":"快餐厅","address":"闵行区七莘路3155号七宝乐购1楼"},{"poiid":"B2094655D264A6F4449E","title":"黑三娘七莘路店","lon":"121.34702","lat":"31.15824","category":"247","category_name":"餐饮美食","address":"闵行区七莘路3178号(近吴中路)"},{"poiid":"B2094750D669A5FF449B","title":"呀咪咖喱屋","lon":"121.341232","lat":"31.163555","category":"247","category_name":"餐饮美食","address":"七宝嘉茂广场2楼"},{"poiid":"B2094757D068A5F5439E","title":"华商时代广场","lon":"121.3425772","lat":"31.165198","category":"46","category_name":"楼宇","address":"上海七莘路3599弄"},{"poiid":"B2094654DB64A2FC449C","title":"上岛咖啡七莘路店","lon":"121.34518","lat":"31.16152","category":"260","category_name":"其他","address":"闵行区七莘路3088号鼎味火锅(近漕宝路)"},{"poiid":"B2094655D26BA2F4429A","title":"七莘路吴中路","lon":"121.34505","lat":"31.16116","category":"38","category_name":"公交车站","address":""},{"poiid":"B2094751D368AAF44399","title":"雅科(七宝店)","lon":"121.33968","lat":"31.16446","category":"76","category_name":"上海菜","address":"闵行区七莘路3655号凯德七宝购物广场4楼"},{"poiid":"B2094757D069A3F4409D","title":"789新概念火锅料理(凯德七宝店)","lon":"121.34125441","lat":"31.165677886","category":"86","category_name":"火锅店","address":"闵行区七莘路3655号凯德七宝购物广场4楼"},{"poiid":"B2094751D26EA6FB449E","title":"东北人","lon":"121.34333","lat":"31.1643","category":"247","category_name":"餐饮美食","address":"闵行区沪星路289弄28号顺恒国际商业广场1楼C区"},{"poiid":"B2094757D06EAAFA4398","title":"凯德·嘉茂购物广场(七宝)","lon":"121.339686","lat":"31.164475","category":"119","category_name":"商场","address":"上海闵行区七莘路3655号(近沪星路)"},{"poiid":"B2094757D16DA3F5499C","title":"好乐迪KTV","lon":"121.34295776","lat":"31.1626887231","category":"170","category_name":"KTV","address":"上海七宝嘉茂广场三楼"},{"poiid":"B2094655D26BA2FE4592","title":"万科城市花园","lon":"121.34605","lat":"31.15921","category":"38","category_name":"公交车站","address":"上海市闵行区七莘路3333弄"},{"poiid":"B2094757D06FA1F5449D","title":"七宝大光明影城","lon":"121.34048578","lat":"31.165400143","category":"178","category_name":"电影院","address":"上海市闵行区七莘路3655号凯德七宝购物广场3楼(家乐福楼上)"},{"poiid":"B2094757D06FA1F44999","title":"永富茶餐厅","lon":"121.34223","lat":"31.165382","category":"111","category_name":"休闲餐饮场所","address":"闵行区七莘路3655号嘉茂购物广场1楼65室(近沪星路)"},{"poiid":"B2094757D06FA5FC489C","title":"PANKOO釜山料理(七宝店)","lon":"121.33968","lat":"31.16447","category":"96","category_name":"韩国料理","address":"闵行区七莘路3655号嘉茂购物广场4楼(近沪星路)"},{"poiid":"B2094750D165A6FC409D","title":"巴黎春天七宝店","lon":"121.340065","lat":"31.162313","category":"249","category_name":"购物服务","address":"闵行区七莘路3755号巴黎春天内(近沪星路)"},{"poiid":"B2094757D06FA1F8479B","title":"乐购(七宝店)","lon":"121.346509563","lat":"31.1570358462","category":"118","category_name":"超级市场","address":"上海闵行区七宝镇七莘路3155号(近新龙路)"},{"poiid":"B2094757D06FABFC4893","title":"COSTA COFFEE(七宝乐购店)","lon":"121.34655153","lat":"31.158143312","category":"65","category_name":"咖啡厅","address":"闵行区七莘路3155号乐购1楼(近新龙路)"},{"poiid":"B2094757D068A3F5449C","title":"虹桥机场2号航站楼60号登机口","lon":"121.34465856","lat":"31.160800183","category":"21","category_name":"飞机场","address":"上海虹桥机场T2"},{"poiid":"B2094757D06FAAFC4399","title":"阿胖鲁肉饭(吴中路店)","lon":"121.34879","lat":"31.16245","category":"91","category_name":"台湾菜","address":"闵行区吴中路2599号(近航新路)"},{"poiid":"B2094654DB69A4F84398","title":"星巴克 七宝店 Starbucks Cafe","lon":"121.34842061966","lat":"31.155162367368","category":"247","category_name":"餐饮美食","address":"七莘路3155号近新龙路"},{"poiid":"B2094654DA6BABFB4892","title":"必胜客 七宝店 Pizza Hut","lon":"121.34832709738","lat":"31.155256828982","category":"68","category_name":"快餐厅","address":"闵行区七莘路3155号河畔百货1-2楼(近新龙路)"},{"poiid":"B2094757D068A1F8419C","title":"蜀府 七宝嘉茂店","lon":"121.34144067764","lat":"31.165222041858","category":"71","category_name":"四川菜","address":"闵行区七莘路3655号凯德七宝购物广场4楼"},{"poiid":"B2094654DB6BA0F9489F","title":"STARBUCKS COFFEE","lon":"121.3422","lat":"31.16545","category":"65","category_name":"咖啡厅","address":""},{"poiid":"B2094757D068A2F54298","title":"狮子山香港餐厅 七莘路店","lon":"121.341962054","lat":"31.165375793","category":"72","category_name":"广东菜","address":"闵行区七莘路3655号嘉茂购物广场2楼02-13号(近沪星路)"},{"poiid":"B2094757D06AAAFF4898","title":"渔太郎日料(七宝店)","lon":"121.34321196","lat":"31.158011924","category":"95","category_name":"日本料理","address":"闵行区七莘路3333号万科城市花园7区22号(近吴中路)"},{"poiid":"B2094757D068A5FA429D","title":"呷哺呷哺","lon":"121.34187972","lat":"31.1649394805","category":"86","category_name":"火锅店","address":"闵行区七莘路3655号嘉茂购物广场1楼58-59号商铺"},{"poiid":"B2094654DB65A7F54499","title":"巴贝拉 七宝龙城店 Babela's Kitchen","lon":"121.342154054","lat":"31.165384793","category":"247","category_name":"餐饮美食","address":"七莘路3655号嘉茂购物广场(龙城购物中心)48B室近沪星路"},{"poiid":"B2094757D06FA6F9429B","title":"麦当劳(七宝店)","lon":"121.34719085","lat":"31.15681076","category":"68","category_name":"快餐厅","address":"闵行区七莘路3045号(近漕宝路)"},{"poiid":"B2094757D068AAFE479C","title":"味千拉面(嘉茂店)","lon":"121.3419","lat":"31.16462","category":"95","category_name":"日本料理","address":"闵行区七莘路3655号嘉茂购物广场1楼66/67铺位(近沪星路)"},{"poiid":"B2094757D069A3F84199","title":"甜蜜蜜(七宝巴黎春天店)","lon":"121.341062","lat":"31.165562","category":"257","category_name":"中餐厅","address":"闵行区七莘路3755号巴黎春天2楼69-2号(近沪星路)"},{"poiid":"B2094655D26FA2FD409F","title":"嘉茂购物广场","lon":"121.33986","lat":"31.16437","category":"119","category_name":"商场","address":"七莘路3655号(近沪青平公路)"},{"poiid":"B2094757D065A4F94898","title":"秀寿司","lon":"121.34528","lat":"31.16053","category":"95","category_name":"日本料理","address":"闵行区七莘路3333弄万科城市花园9区21号103室"},{"poiid":"B2094654DA6BABF4489E","title":"临江门老火锅","lon":"121.34699","lat":"31.1581","category":"86","category_name":"火锅店","address":"闵行区七莘路3166号七宝乐购对面(近新龙路)"},{"poiid":"B2094757D069A0FE4493","title":"汤姆熊(七宝店)","lon":"121.341889","lat":"31.165002","category":"173","category_name":"游戏厅","address":"上海七宝嘉茂店"},{"poiid":"B2094757D064A3FA419D","title":"万科上海中心","lon":"121.34234142","lat":"31.165143933","category":"500","category_name":"未知分类","address":"上海七莘路3568号"},{"poiid":"B2094757D069A7FF469A","title":"萨莉亚 七宝乐购店","lon":"121.34629","lat":"31.1582","category":"94","category_name":"西餐厅","address":"闵行区七莘路3155号河畔百货4楼(近新龙路)"},{"poiid":"B2094654DB64A6F5469D","title":"家乐福(七宝店)","lon":"121.34049","lat":"31.16482","category":"118","category_name":"超级市场","address":"闵行区七莘路3655号嘉茂购物广场2楼(近沪星路)"},{"poiid":"B2094757D66BA4F5489A","title":"鹅庄 七莘路店","lon":"121.344806","lat":"31.161929","category":"91","category_name":"台湾菜","address":"闵行区七莘路3333号万科城市花园旁"},{"poiid":"B2094751D36AAAFF4692","title":"君日式烧烤","lon":"121.34526","lat":"31.16061","category":"269","category_name":"烧烤","address":"闵行区七莘路3333弄万科城市花园邻里中心210号"},{"poiid":"B209475CDB65ABF44493","title":"上海大华虹桥假日酒店","lon":"121.345046","lat":"31.16155","category":"214","category_name":"四星级宾馆","address":"七莘路3555号"},{"poiid":"B2094654DB64A2FC4498","title":"南国花园","lon":"121.34655","lat":"31.159599","category":"47","category_name":"住宅区","address":"上海市闵行区星站路"},{"poiid":"B2094757DA6EABF4459C","title":"争鲜回转寿司(七宝店)","lon":"121.3461585","lat":"31.1586583","category":"95","category_name":"日本料理","address":"闵行区七莘路3155号七宝乐购"},{"poiid":"B2094757D16CA1F9429D","title":"H3club","lon":"121.34229","lat":"31.16537","category":"148","category_name":"美容美发店","address":"上海闵行区七莘路3655号3楼(近沪星路)  "},{"poiid":"B2094757D064A2F8409C","title":"斗香园(七宝凯德店)","lon":"121.34053286","lat":"31.1630780313","category":"500","category_name":"未知分类","address":"上海闵行区七莘路3655号凯德七宝购物广场1F"},{"poiid":"B2094757D064AAF44793","title":"七宝巴黎春天弘历皇朝","lon":"121.34100856","lat":"31.165599284","category":"500","category_name":"未知分类","address":"上海市闵行区七莘路"},{"poiid":"B2094757D06AABF84192","title":"四海游龙 吴中路店 OVERSEAS DRAGON","lon":"121.34701748506","lat":"31.16254699938","category":"68","category_name":"快餐厅","address":"七莘路3155号河畔百货(乐购七宝店)近吴中路"},{"poiid":"B2094757D66AABFA459E","title":"湘水洞","lon":"121.344960054","lat":"31.160764793","category":"77","category_name":"湖南菜","address":"闵行区七莘路3333弄8区3号101室(近吴中路)"},{"poiid":"B2094750D26DA4FE439E","title":"宝燕壹号 七莘路店","lon":"121.339685","lat":"31.164463","category":"75","category_name":"浙江菜","address":"闵行区七莘路3655号嘉茂购物广场2楼40-42号商铺(近沪星路)"},{"poiid":"B2094757D064A1FF439E","title":"肯德基(龙城店)","lon":"121.34253976","lat":"31.1646734649","category":"68","category_name":"快餐厅","address":"闵行区七莘路3655号嘉茂购物广场内(近沪星路)"},{"poiid":"B2094757D06AA2F94593","title":"肯德基 KFC (乐购店)","lon":"121.346533","lat":"31.158372","category":"68","category_name":"快餐厅","address":"闵行区七莘路3155号七宝乐购1楼"},{"poiid":"B2094655D264A6F4449E","title":"黑三娘七莘路店","lon":"121.34702","lat":"31.15824","category":"247","category_name":"餐饮美食","address":"闵行区七莘路3178号(近吴中路)"},{"poiid":"B2094750D669A5FF449B","title":"呀咪咖喱屋","lon":"121.341232","lat":"31.163555","category":"247","category_name":"餐饮美食","address":"七宝嘉茂广场2楼"},{"poiid":"B2094757D068A5F5439E","title":"华商时代广场","lon":"121.3425772","lat":"31.165198","category":"46","category_name":"楼宇","address":"上海七莘路3599弄"},{"poiid":"B2094654DB64A2FC449C","title":"上岛咖啡七莘路店","lon":"121.34518","lat":"31.16152","category":"260","category_name":"其他","address":"闵行区七莘路3088号鼎味火锅(近漕宝路)"},{"poiid":"B2094655D26BA2F4429A","title":"七莘路吴中路","lon":"121.34505","lat":"31.16116","category":"38","category_name":"公交车站","address":""},{"poiid":"B2094751D368AAF44399","title":"雅科(七宝店)","lon":"121.33968","lat":"31.16446","category":"76","category_name":"上海菜","address":"闵行区七莘路3655号凯德七宝购物广场4楼"},{"poiid":"B2094757D069A3F4409D","title":"789新概念火锅料理(凯德七宝店)","lon":"121.34125441","lat":"31.165677886","category":"86","category_name":"火锅店","address":"闵行区七莘路3655号凯德七宝购物广场4楼"},{"poiid":"B2094751D26EA6FB449E","title":"东北人","lon":"121.34333","lat":"31.1643","category":"247","category_name":"餐饮美食","address":"闵行区沪星路289弄28号顺恒国际商业广场1楼C区"},{"poiid":"B2094757D06EAAFA4398","title":"凯德·嘉茂购物广场(七宝)","lon":"121.339686","lat":"31.164475","category":"119","category_name":"商场","address":"上海闵行区七莘路3655号(近沪星路)"},{"poiid":"B2094757D16DA3F5499C","title":"好乐迪KTV","lon":"121.34295776","lat":"31.1626887231","category":"170","category_name":"KTV","address":"上海七宝嘉茂广场三楼"},{"poiid":"B2094655D26BA2FE4592","title":"万科城市花园","lon":"121.34605","lat":"31.15921","category":"38","category_name":"公交车站","address":"上海市闵行区七莘路3333弄"},{"poiid":"B2094757D06FA1F5449D","title":"七宝大光明影城","lon":"121.34048578","lat":"31.165400143","category":"178","category_name":"电影院","address":"上海市闵行区七莘路3655号凯德七宝购物广场3楼(家乐福楼上)"},{"poiid":"B2094757D06FA1F44999","title":"永富茶餐厅","lon":"121.34223","lat":"31.165382","category":"111","category_name":"休闲餐饮场所","address":"闵行区七莘路3655号嘉茂购物广场1楼65室(近沪星路)"},{"poiid":"B2094757D06FA5FC489C","title":"PANKOO釜山料理(七宝店)","lon":"121.33968","lat":"31.16447","category":"96","category_name":"韩国料理","address":"闵行区七莘路3655号嘉茂购物广场4楼(近沪星路)"},{"poiid":"B2094750D165A6FC409D","title":"巴黎春天七宝店","lon":"121.340065","lat":"31.162313","category":"249","category_name":"购物服务","address":"闵行区七莘路3755号巴黎春天内(近沪星路)"},{"poiid":"B2094757D06FA1F8479B","title":"乐购(七宝店)","lon":"121.346509563","lat":"31.1570358462","category":"118","category_name":"超级市场","address":"上海闵行区七宝镇七莘路3155号(近新龙路)"},{"poiid":"B2094757D06FABFC4893","title":"COSTA COFFEE(七宝乐购店)","lon":"121.34655153","lat":"31.158143312","category":"65","category_name":"咖啡厅","address":"闵行区七莘路3155号乐购1楼(近新龙路)"},{"poiid":"B2094757D068A3F5449C","title":"虹桥机场2号航站楼60号登机口","lon":"121.34465856","lat":"31.160800183","category":"21","category_name":"飞机场","address":"上海虹桥机场T2"},{"poiid":"B2094757D06FAAFC4399","title":"阿胖鲁肉饭(吴中路店)","lon":"121.34879","lat":"31.16245","category":"91","category_name":"台湾菜","address":"闵行区吴中路2599号(近航新路)"},{"poiid":"B2094654DB69A4F84398","title":"星巴克 七宝店 Starbucks Cafe","lon":"121.34842061966","lat":"31.155162367368","category":"247","category_name":"餐饮美食","address":"七莘路3155号近新龙路"},{"poiid":"B2094654DA6BABFB4892","title":"必胜客 七宝店 Pizza Hut","lon":"121.34832709738","lat":"31.155256828982","category":"68","category_name":"快餐厅","address":"闵行区七莘路3155号河畔百货1-2楼(近新龙路)"},{"poiid":"B2094757D068A1F8419C","title":"蜀府 七宝嘉茂店","lon":"121.34144067764","lat":"31.165222041858","category":"71","category_name":"四川菜","address":"闵行区七莘路3655号凯德七宝购物广场4楼"},{"poiid":"B2094654DB6BA0F9489F","title":"STARBUCKS COFFEE","lon":"121.3422","lat":"31.16545","category":"65","category_name":"咖啡厅","address":""},{"poiid":"B2094757D068A2F54298","title":"狮子山香港餐厅 七莘路店","lon":"121.341962054","lat":"31.165375793","category":"72","category_name":"广东菜","address":"闵行区七莘路3655号嘉茂购物广场2楼02-13号(近沪星路)"},{"poiid":"B2094757D06AAAFF4898","title":"渔太郎日料(七宝店)","lon":"121.34321196","lat":"31.158011924","category":"95","category_name":"日本料理","address":"闵行区七莘路3333号万科城市花园7区22号(近吴中路)"},{"poiid":"B2094757D068A5FA429D","title":"呷哺呷哺","lon":"121.34187972","lat":"31.1649394805","category":"86","category_name":"火锅店","address":"闵行区七莘路3655号嘉茂购物广场1楼58-59号商铺"},{"poiid":"B2094654DB65A7F54499","title":"巴贝拉 七宝龙城店 Babela's Kitchen","lon":"121.342154054","lat":"31.165384793","category":"247","category_name":"餐饮美食","address":"七莘路3655号嘉茂购物广场(龙城购物中心)48B室近沪星路"},{"poiid":"B2094757D06FA6F9429B","title":"麦当劳(七宝店)","lon":"121.34719085","lat":"31.15681076","category":"68","category_name":"快餐厅","address":"闵行区七莘路3045号(近漕宝路)"},{"poiid":"B2094757D068AAFE479C","title":"味千拉面(嘉茂店)","lon":"121.3419","lat":"31.16462","category":"95","category_name":"日本料理","address":"闵行区七莘路3655号嘉茂购物广场1楼66/67铺位(近沪星路)"},{"poiid":"B2094757D069A3F84199","title":"甜蜜蜜(七宝巴黎春天店)","lon":"121.341062","lat":"31.165562","category":"257","category_name":"中餐厅","address":"闵行区七莘路3755号巴黎春天2楼69-2号(近沪星路)"},{"poiid":"B2094655D26FA2FD409F","title":"嘉茂购物广场","lon":"121.33986","lat":"31.16437","category":"119","category_name":"商场","address":"七莘路3655号(近沪青平公路)"},{"poiid":"B2094757D065A4F94898","title":"秀寿司","lon":"121.34528","lat":"31.16053","category":"95","category_name":"日本料理","address":"闵行区七莘路3333弄万科城市花园9区21号103室"},{"poiid":"B2094654DA6BABF4489E","title":"临江门老火锅","lon":"121.34699","lat":"31.1581","category":"86","category_name":"火锅店","address":"闵行区七莘路3166号七宝乐购对面(近新龙路)"},{"poiid":"B2094757D069A0FE4493","title":"汤姆熊(七宝店)","lon":"121.341889","lat":"31.165002","category":"173","category_name":"游戏厅","address":"上海七宝嘉茂店"},{"poiid":"B2094757D064A3FA419D","title":"万科上海中心","lon":"121.34234142","lat":"31.165143933","category":"500","category_name":"未知分类","address":"上海七莘路3568号"},{"poiid":"B2094757D069A7FF469A","title":"萨莉亚 七宝乐购店","lon":"121.34629","lat":"31.1582","category":"94","category_name":"西餐厅","address":"闵行区七莘路3155号河畔百货4楼(近新龙路)"},{"poiid":"B2094654DB64A6F5469D","title":"家乐福(七宝店)","lon":"121.34049","lat":"31.16482","category":"118","category_name":"超级市场","address":"闵行区七莘路3655号嘉茂购物广场2楼(近沪星路)"},{"poiid":"B2094757D66BA4F5489A","title":"鹅庄 七莘路店","lon":"121.344806","lat":"31.161929","category":"91","category_name":"台湾菜","address":"闵行区七莘路3333号万科城市花园旁"},{"poiid":"B2094751D36AAAFF4692","title":"君日式烧烤","lon":"121.34526","lat":"31.16061","category":"269","category_name":"烧烤","address":"闵行区七莘路3333弄万科城市花园邻里中心210号"},{"poiid":"B209475CDB65ABF44493","title":"上海大华虹桥假日酒店","lon":"121.345046","lat":"31.16155","category":"214","category_name":"四星级宾馆","address":"七莘路3555号"},{"poiid":"B2094654DB64A2FC4498","title":"南国花园","lon":"121.34655","lat":"31.159599","category":"47","category_name":"住宅区","address":"上海市闵行区星站路"},{"poiid":"B2094757DA6EABF4459C","title":"争鲜回转寿司(七宝店)","lon":"121.3461585","lat":"31.1586583","category":"95","category_name":"日本料理","address":"闵行区七莘路3155号七宝乐购"},{"poiid":"B2094757D16CA1F9429D","title":"H3club","lon":"121.34229","lat":"31.16537","category":"148","category_name":"美容美发店","address":"上海闵行区七莘路3655号3楼(近沪星路)  "},{"poiid":"B2094757D064A2F8409C","title":"斗香园(七宝凯德店)","lon":"121.34053286","lat":"31.1630780313","category":"500","category_name":"未知分类","address":"上海闵行区七莘路3655号凯德七宝购物广场1F"},{"poiid":"B2094757D064AAF44793","title":"七宝巴黎春天弘历皇朝","lon":"121.34100856","lat":"31.165599284","category":"500","category_name":"未知分类","address":"上海市闵行区七莘路"},{"poiid":"B2094757D06AABF84192","title":"四海游龙 吴中路店 OVERSEAS DRAGON","lon":"121.34701748506","lat":"31.16254699938","category":"68","category_name":"快餐厅","address":"七莘路3155号河畔百货(乐购七宝店)近吴中路"},{"poiid":"B2094757D66AABFA459E","title":"湘水洞","lon":"121.344960054","lat":"31.160764793","category":"77","category_name":"湖南菜","address":"闵行区七莘路3333弄8区3号101室(近吴中路)"},{"poiid":"B2094750D26DA4FE439E","title":"宝燕壹号 七莘路店","lon":"121.339685","lat":"31.164463","category":"75","category_name":"浙江菜","address":"闵行区七莘路3655号嘉茂购物广场2楼40-42号商铺(近沪星路)"},{"poiid":"B2094757D064A1FF439E","title":"肯德基(龙城店)","lon":"121.34253976","lat":"31.1646734649","category":"68","category_name":"快餐厅","address":"闵行区七莘路3655号嘉茂购物广场内(近沪星路)"},{"poiid":"B2094757D06AA2F94593","title":"肯德基 KFC (乐购店)","lon":"121.346533","lat":"31.158372","category":"68","category_name":"快餐厅","address":"闵行区七莘路3155号七宝乐购1楼"},{"poiid":"B2094655D264A6F4449E","title":"黑三娘七莘路店","lon":"121.34702","lat":"31.15824","category":"247","category_name":"餐饮美食","address":"闵行区七莘路3178号(近吴中路)"},{"poiid":"B2094750D669A5FF449B","title":"呀咪咖喱屋","lon":"121.341232","lat":"31.163555","category":"247","category_name":"餐饮美食","address":"七宝嘉茂广场2楼"},{"poiid":"B2094757D068A5F5439E","title":"华商时代广场","lon":"121.3425772","lat":"31.165198","category":"46","category_name":"楼宇","address":"上海七莘路3599弄"},{"poiid":"B2094654DB64A2FC449C","title":"上岛咖啡七莘路店","lon":"121.34518","lat":"31.16152","category":"260","category_name":"其他","address":"闵行区七莘路3088号鼎味火锅(近漕宝路)"},{"poiid":"B2094655D26BA2F4429A","title":"七莘路吴中路","lon":"121.34505","lat":"31.16116","category":"38","category_name":"公交车站","address":""},{"poiid":"B2094751D368AAF44399","title":"雅科(七宝店)","lon":"121.33968","lat":"31.16446","category":"76","category_name":"上海菜","address":"闵行区七莘路3655号凯德七宝购物广场4楼"},{"poiid":"B2094757D069A3F4409D","title":"789新概念火锅料理(凯德七宝店)","lon":"121.34125441","lat":"31.165677886","category":"86","category_name":"火锅店","address":"闵行区七莘路3655号凯德七宝购物广场4楼"},{"poiid":"B2094751D26EA6FB449E","title":"东北人","lon":"121.34333","lat":"31.1643","category":"247","category_name":"餐饮美食","address":"闵行区沪星路289弄28号顺恒国际商业广场1楼C区"}]