[{"poiid":"B2094757D06FA2FD459D","title":"麦当劳(北蔡店)","lon":"121.5551941","lat":"31.1822095","category":"68","category_name":"快餐厅","address":"浦东新区沪南路999号美食广场1楼(近莲溪车站)"},{"poiid":"B2094757D069A2FC479D","title":"金钵华美达广场酒店","lon":"121.55420901","lat":"31.182115699","category":"213","category_name":"五星级宾馆","address":"上海浦东新区沪南路938号"},{"poiid":"B2094655D36CA7FE479A","title":"沪南路陈春路","lon":"121.55806","lat":"31.17387","category":"38","category_name":"公交车站","address":"上海陈家桥"},{"poiid":"B2094757D068A3F44099","title":"51生活时区","lon":"121.55492","lat":"31.18289","category":"119","category_name":"商场","address":"浦东新区北中路160号(沪南路口)"},{"poiid":"B2094757D168A3FC439A","title":"北蔡休闲广场","lon":"121.5557373537124","lat":"31.183535609031264","category":"116","category_name":"特色商业街","address":"浦东新区北中路183号"},{"poiid":"B2094757D068A4FA459F","title":"龙象海鲜大酒店","lon":"121.56298268","lat":"31.1800419382","category":"260","category_name":"其他","address":"浦东新区莲溪路579号(新陈路口预计9月底营业)"},{"poiid":"B2094655D36CA1FA4698","title":"莲溪路北中路","lon":"121.56153","lat":"31.18184","category":"38","category_name":"公交车站","address":""},{"poiid":"B2094750D26FA2FA4099","title":"迪街量贩KTV","lon":"121.556549","lat":"31.182407","category":"170","category_name":"KTV","address":"浦东新区沪南路967号51生活广场4-5楼(北中路口)"},{"poiid":"B2094757D76EA2FC449D","title":"DQ冰雪皇后 北蔡店 Dairy Queen","lon":"121.55519","lat":"31.1822","category":"113","category_name":"冷饮店","address":"浦东新区沪南路999号美食广场1楼(近国美电器)"},{"poiid":"B2094757D16EA3FF449C","title":"段氏龙虾(莲安东路店)","lon":"121.56079","lat":"31.18057","category":"68","category_name":"快餐厅","address":"浦东新区莲安东路234号(近莲溪路)"},{"poiid":"B2094757D16DA5F84098","title":"清风人家","lon":"121.554768975","lat":"31.182769451","category":"260","category_name":"其他","address":"浦东新区沪南路967号51时尚广场北楼3楼(近北中路)"},{"poiid":"B2094655D268ABFC449E","title":"龙博公寓","lon":"121.55468","lat":"31.178631","category":"47","category_name":"住宅区","address":"上海市浦东新区沪南路1168弄"},{"poiid":"B2094757D064A3FA459E","title":"大胡子老北京热气羊肉","lon":"121.55762","lat":"31.18019","category":"86","category_name":"火锅店","address":"浦东新区莲安东路222号(近莲中路)"},{"poiid":"B2094655D264A7FA419B","title":"和福重庆烧鸡公火锅","lon":"121.561918054","lat":"31.181295793","category":"71","category_name":"四川菜","address":"浦东新区北蔡莲安东路233号(近莲溪路)"},{"poiid":"B2094655D36CA1FB419D","title":"莲安东路莲中路","lon":"121.55914","lat":"31.18089","category":"38","category_name":"公交车站","address":""},{"poiid":"B2094757D168A6FE4799","title":"莲安西路","lon":"121.552100738","lat":"31.1796012219","category":"500","category_name":"未知分类","address":"上海北蔡莲安西路"},{"poiid":"B2094757D06BA6FE4292","title":"客家小厨 莲安东路店","lon":"121.559373","lat":"31.18074","category":"72","category_name":"广东菜","address":"浦东新区莲安东路180号(近沪南路)"},{"poiid":"B2094654DA6AA7FC489C","title":"唐记传菜馆","lon":"121.55902","lat":"31.18093","category":"76","category_name":"上海菜","address":"浦东新区莲安东路157号(近沪南路)"},{"poiid":"B2094654DB6AA3FA449E","title":"阿辉家常菜","lon":"121.55949606849","lat":"31.181506471242","category":"257","category_name":"中餐厅","address":"浦东新区莲安东路209号(近莲中路)"},{"poiid":"B2094655D36CA5F44493","title":"北中路沪南路","lon":"121.55517","lat":"31.18328","category":"38","category_name":"公交车站","address":""},{"poiid":"B2094757D06BABFB439B","title":"东风雪铁龙上海瑞丰","lon":"121.55719","lat":"31.178776","category":"500","category_name":"未知分类","address":"上海浦东新陈路5号"},{"poiid":"B2094654DA6AA0F4489F","title":"莲杨苑","lon":"121.56219","lat":"31.17672","category":"47","category_name":"住宅区","address":"莲溪路780弄1-53号"},{"poiid":"B2094655D36CA1FB4298","title":"莲安东路","lon":"121.5593","lat":"31.1809","category":"38","category_name":"公交车站","address":""},{"poiid":"B2094654DA6AA0F54698","title":"莲琼苑","lon":"121.56017","lat":"31.178997","category":"47","category_name":"住宅区","address":"新陈路150弄1-46号"},{"poiid":"B2094654DA6AA7FD4298","title":"东东骨头王火锅城 莲安东路店","lon":"121.56105283032","lat":"31.181745544619","category":"86","category_name":"火锅店","address":"浦东新区莲安东路279号(莲安东路莲溪路)"},{"poiid":"B2094654DA68A6FB419E","title":"绿苑别墅","lon":"121.55578845909","lat":"31.179559884223","category":"47","category_name":"住宅区","address":"绿苑别墅位于浦东博华路971弄"},{"poiid":"B2094753D265A3FA479C","title":"川流不息（北蔡店）","lon":"121.55513190478518","lat":"31.183310707007436","category":"257","category_name":"中餐厅","address":"浦东新区北中路183弄北蔡休闲广场"},{"poiid":"B2094654DA6AA0F54093","title":"莲溪广场","lon":"121.56124","lat":"31.18358","category":"202","category_name":"公园广场","address":"上海莲溪路北中路"},{"poiid":"B2094654DA68A5FC459C","title":"绿川家园","lon":"121.55921","lat":"31.179408","category":"47","category_name":"住宅区","address":"陈春路221弄1-22号"},{"poiid":"B2094757D069A7F94792","title":"上海看守所","lon":"121.55947113","lat":"31.179353714","category":"500","category_name":"未知分类","address":"上海沪南公路1760号"},{"poiid":"B2094654DA68A5FC4592","title":"绿川公寓","lon":"121.557","lat":"31.1774","category":"47","category_name":"住宅区","address":"博华路980弄"},{"poiid":"B2094757D16BAAF44198","title":"玉兰小区","lon":"121.55908","lat":"31.180014","category":"47","category_name":"住宅区","address":"上海莲中路337弄"},{"poiid":"B2094750D76DA5FB489F","title":"新招鲜本地鸡窝(莲安东路店)","lon":"121.559","lat":"31.1808","category":"86","category_name":"火锅店","address":"浦东新区莲安东路146号(近莲中路)"},{"poiid":"B2094757D16BA1FF449D","title":"如意老鸭粉丝汤","lon":"121.55886","lat":"31.18035","category":"68","category_name":"快餐厅","address":"浦东新区莲安东路(莲中路口)"},{"poiid":"B2094654DA6AA5FE499C","title":"特色小笼馆(开泰火锅城西)","lon":"121.55811","lat":"31.18058","category":"68","category_name":"快餐厅","address":"浦东新区莲安东路108号(莲安东路莲中路)"},{"poiid":"B2094757D464A0FB489A","title":"湘味川土菜馆 莲安东路店","lon":"121.55911261861","lat":"31.181426887356","category":"71","category_name":"四川菜","address":"浦东新区莲安东路162号(近莲溪路)"},{"poiid":"B2094751DB64A4FF4493","title":"阅香名邸中国会所","lon":"121.55391","lat":"31.18231","category":"72","category_name":"广东菜","address":"浦东新区沪南路938号(近北中路)"},{"poiid":"B2094757D16DA2F84993","title":"重庆鸡公煲 北蔡店","lon":"121.561425054","lat":"31.181219793","category":"71","category_name":"四川菜","address":"浦东新区莲安东路190号(近莲溪路)"},{"poiid":"B2094655D268A6F5489E","title":"金桂轩","lon":"121.554421054","lat":"31.183722793","category":"72","category_name":"广东菜","address":"浦东新区沪南路938号金钵华美达广场酒店内(近北中路)"},{"poiid":"B2094757D16CA3FB4798","title":"爱情麻辣烫(莲安东路店)","lon":"121.56158","lat":"31.18069","category":"68","category_name":"快餐厅","address":"浦东新区莲安东路(近莲溪路)"},{"poiid":"B2094654DA6AA7FC4899","title":"莲中二村","lon":"121.5586","lat":"31.180008","category":"47","category_name":"住宅区","address":"莲中路318弄"},{"poiid":"B2094757D065A5FE4792","title":"缥缈峰灵鹫宫","lon":"121.558095075","lat":"31.1779835392","category":"500","category_name":"未知分类","address":"上海"},{"poiid":"B209475CD065A3F4439B","title":"阿明小菜 莲安东路店","lon":"121.55904","lat":"31.1807","category":"76","category_name":"上海菜","address":"莲安东路155号(近沪南路)"},{"poiid":"B2094654DA6AA7FC479D","title":"良友金伴便利连锁NO.236","lon":"121.5578","lat":"31.1808","category":"117","category_name":"便民商店/便利店","address":"莲安东路99"},{"poiid":"B2094654DA6AA7FD4293","title":"克莉丝汀 莲安东路店","lon":"121.561341054","lat":"31.181496793","category":"112","category_name":"糕饼店","address":"浦东新区莲安东路271-273号(近莲溪路)"},{"poiid":"B2094655D265A4F5479E","title":"好德便利(莲东店)","lon":"121.55862","lat":"31.18078","category":"117","category_name":"便民商店/便利店","address":"莲安东路126号"},{"poiid":"B2094654DA68A5F54998","title":"通宇加东花园","lon":"121.55209","lat":"31.178268","category":"47","category_name":"住宅区","address":"莲安西路125弄81-140号"},{"poiid":"B2094757D66CAAFC419F","title":"老八样肚包鸡","lon":"121.554280738","lat":"31.1798752278","category":"76","category_name":"上海菜","address":"浦东新区莲安东路(近莲溪路)"},{"poiid":"B2094654DA6AA7FC479F","title":"光明便利NO.208","lon":"121.55746","lat":"31.18077","category":"117","category_name":"便民商店/便利店","address":"北蔡镇"},{"poiid":"B2094654DA6AA0F54693","title":"清雅网络","lon":"121.55794","lat":"31.17894","category":"176","category_name":"网吧","address":"新陈路25-57号"},{"poiid":"B2094757D06FA2FD459D","title":"麦当劳(北蔡店)","lon":"121.5551941","lat":"31.1822095","category":"68","category_name":"快餐厅","address":"浦东新区沪南路999号美食广场1楼(近莲溪车站)"},{"poiid":"B2094757D069A2FC479D","title":"金钵华美达广场酒店","lon":"121.55420901","lat":"31.182115699","category":"213","category_name":"五星级宾馆","address":"上海浦东新区沪南路938号"},{"poiid":"B2094655D36CA7FE479A","title":"沪南路陈春路","lon":"121.55806","lat":"31.17387","category":"38","category_name":"公交车站","address":"上海陈家桥"},{"poiid":"B2094757D068A3F44099","title":"51生活时区","lon":"121.55492","lat":"31.18289","category":"119","category_name":"商场","address":"浦东新区北中路160号(沪南路口)"},{"poiid":"B2094757D168A3FC439A","title":"北蔡休闲广场","lon":"121.5557373537124","lat":"31.183535609031264","category":"116","category_name":"特色商业街","address":"浦东新区北中路183号"},{"poiid":"B2094757D068A4FA459F","title":"龙象海鲜大酒店","lon":"121.56298268","lat":"31.1800419382","category":"260","category_name":"其他","address":"浦东新区莲溪路579号(新陈路口预计9月底营业)"},{"poiid":"B2094655D36CA1FA4698","title":"莲溪路北中路","lon":"121.56153","lat":"31.18184","category":"38","category_name":"公交车站","address":""},{"poiid":"B2094750D26FA2FA4099","title":"迪街量贩KTV","lon":"121.556549","lat":"31.182407","category":"170","category_name":"KTV","address":"浦东新区沪南路967号51生活广场4-5楼(北中路口)"},{"poiid":"B2094757D76EA2FC449D","title":"DQ冰雪皇后 北蔡店 Dairy Queen","lon":"121.55519","lat":"31.1822","category":"113","category_name":"冷饮店","address":"浦东新区沪南路999号美食广场1楼(近国美电器)"},{"poiid":"B2094757D16EA3FF449C","title":"段氏龙虾(莲安东路店)","lon":"121.56079","lat":"31.18057","category":"68","category_name":"快餐厅","address":"浦东新区莲安东路234号(近莲溪路)"},{"poiid":"B2094757D16DA5F84098","title":"清风人家","lon":"121.554768975","lat":"31.182769451","category":"260","category_name":"其他","address":"浦东新区沪南路967号51时尚广场北楼3楼(近北中路)"},{"poiid":"B2094655D268ABFC449E","title":"龙博公寓","lon":"121.55468","lat":"31.178631","category":"47","category_name":"住宅区","address":"上海市浦东新区沪南路1168弄"},{"poiid":"B2094757D064A3FA459E","title":"大胡子老北京热气羊肉","lon":"121.55762","lat":"31.18019","category":"86","category_name":"火锅店","address":"浦东新区莲安东路222号(近莲中路)"},{"poiid":"B2094655D264A7FA419B","title":"和福重庆烧鸡公火锅","lon":"121.561918054","lat":"31.181295793","category":"71","category_name":"四川菜","address":"浦东新区北蔡莲安东路233号(近莲溪路)"},{"poiid":"B2094655D36CA1FB419D","title":"莲安东路莲中路","lon":"121.55914","lat":"31.18089","category":"38","category_name":"公交车站","address":""},{"poiid":"B2094757D168A6FE4799","title":"莲安西路","lon":"121.552100738","lat":"31.1796012219","category":"500","category_name":"未知分类","address":"上海北蔡莲安西路"},{"poiid":"B2094757D06BA6FE4292","title":"客家小厨 莲安东路店","lon":"121.559373","lat":"31.18074","category":"72","category_name":"广东菜","address":"浦东新区莲安东路180号(近沪南路)"},{"poiid":"B2094654DA6AA7FC489C","title":"唐记传菜馆","lon":"121.55902","lat":"31.18093","category":"76","category_name":"上海菜","address":"浦东新区莲安东路157号(近沪南路)"},{"poiid":"B2094654DB6AA3FA449E","title":"阿辉家常菜","lon":"121.55949606849","lat":"31.181506471242","category":"257","category_name":"中餐厅","address":"浦东新区莲安东路209号(近莲中路)"},{"poiid":"B2094655D36CA5F44493","title":"北中路沪南路","lon":"121.55517","lat":"31.18328","category":"38","category_name":"公交车站","address":""},{"poiid":"B2094757D06BABFB439B","title":"东风雪铁龙上海瑞丰","lon":"121.55719","lat":"31.178776","category":"500","category_name":"未知分类","address":"上海浦东新陈路5号"},{"poiid":"B2094654DA6AA0F4489F","title":"莲杨苑","lon":"121.56219","lat":"31.17672","category":"47","category_name":"住宅区","address":"莲溪路780弄1-53号"},{"poiid":"B2094655D36CA1FB4298","title":"莲安东路","lon":"121.5593","lat":"31.1809","category":"38","category_name":"公交车站","address":""},{"poiid":"B2094654DA6AA0F54698","title":"莲琼苑","lon":"121.56017","lat":"31.178997","category":"47","category_name":"住宅区","address":"新陈路150弄1-46号"},{"poiid":"B2094654DA6AA7FD4298","title":"东东骨头王火锅城 莲安东路店","lon":"121.56105283032","lat":"31.181745544619","category":"86","category_name":"火锅店","address":"浦东新区莲安东路279号(莲安东路莲溪路)"},{"poiid":"B2094654DA68A6FB419E","title":"绿苑别墅","lon":"121.55578845909","lat":"31.179559884223","category":"47","category_name":"住宅区","address":"绿苑别墅位于浦东博华路971弄"},{"poiid":"B2094753D265A3FA479C","title":"川流不息（北蔡店）","lon":"121.55513190478518","lat":"31.183310707007436","category":"257","category_name":"中餐厅","address":"浦东新区北中路183弄北蔡休闲广场"},{"poiid":"B2094654DA6AA0F54093","title":"莲溪广场","lon":"121.56124","lat":"31.18358","category":"202","category_name":"公园广场","address":"上海莲溪路北中路"},{"poiid":"B2094654DA68A5FC459C","title":"绿川家园","lon":"121.55921","lat":"31.179408","category":"47","category_name":"住宅区","address":"陈春路221弄1-22号"},{"poiid":"B2094757D069A7F94792","title":"上海看守所","lon":"121.55947113","lat":"31.179353714","category":"500","category_name":"未知分类","address":"上海沪南公路1760号"},{"poiid":"B2094654DA68A5FC4592","title":"绿川公寓","lon":"121.557","lat":"31.1774","category":"47","category_name":"住宅区","address":"博华路980弄"},{"poiid":"B2094757D16BAAF44198","title":"玉兰小区","lon":"121.55908","lat":"31.180014","category":"47","category_name":"住宅区","address":"上海莲中路337弄"},{"poiid":"B2094750D76DA5FB489F","title":"新招鲜本地鸡窝(莲安东路店)","lon":"121.559","lat":"31.1808","category":"86","category_name":"火锅店","address":"浦东新区莲安东路146号(近莲中路)"},{"poiid":"B2094757D16BA1FF449D","title":"如意老鸭粉丝汤","lon":"121.55886","lat":"31.18035","category":"68","category_name":"快餐厅","address":"浦东新区莲安东路(莲中路口)"},{"poiid":"B2094654DA6AA5FE499C","title":"特色小笼馆(开泰火锅城西)","lon":"121.55811","lat":"31.18058","category":"68","category_name":"快餐厅","address":"浦东新区莲安东路108号(莲安东路莲中路)"},{"poiid":"B2094757D464A0FB489A","title":"湘味川土菜馆 莲安东路店","lon":"121.55911261861","lat":"31.181426887356","category":"71","category_name":"四川菜","address":"浦东新区莲安东路162号(近莲溪路)"},{"poiid":"B2094751DB64A4FF4493","title":"阅香名邸中国会所","lon":"121.55391","lat":"31.18231","category":"72","category_name":"广东菜","address":"浦东新区沪南路938号(近北中路)"},{"poiid":"B2094757D16DA2F84993","title":"重庆鸡公煲 北蔡店","lon":"121.561425054","lat":"31.181219793","category":"71","category_name":"四川菜","address":"浦东新区莲安东路190号(近莲溪路)"},{"poiid":"B2094655D268A6F5489E","title":"金桂轩","lon":"121.554421054","lat":"31.183722793","category":"72","category_name":"广东菜","address":"浦东新区沪南路938号金钵华美达广场酒店内(近北中路)"},{"poiid":"B2094757D16CA3FB4798","title":"爱情麻辣烫(莲安东路店)","lon":"121.56158","lat":"31.18069","category":"68","category_name":"快餐厅","address":"浦东新区莲安东路(近莲溪路)"},{"poiid":"B2094654DA6AA7FC4899","title":"莲中二村","lon":"121.5586","lat":"31.180008","category":"47","category_name":"住宅区","address":"莲中路318弄"},{"poiid":"B2094757D065A5FE4792","title":"缥缈峰灵鹫宫","lon":"121.558095075","lat":"31.1779835392","category":"500","category_name":"未知分类","address":"上海"},{"poiid":"B209475CD065A3F4439B","title":"阿明小菜 莲安东路店","lon":"121.55904","lat":"31.1807","category":"76","category_name":"上海菜","address":"莲安东路155号(近沪南路)"},{"poiid":"B2094654DA6AA7FC479D","title":"良友金伴便利连锁NO.236","lon":"121.5578","lat":"31.1808","category":"117","category_name":"便民商店/便利店","address":"莲安东路99"},{"poiid":"B2094654DA6AA7FD4293","title":"克莉丝汀 莲安东路店","lon":"121.561341054","lat":"31.181496793","category":"112","category_name":"糕饼店","address":"浦东新区莲安东路271-273号(近莲溪路)"},{"poiid":"B2094655D265A4F5479E","title":"好德便利(莲东店)","lon":"121.55862","lat":"31.18078","category":"117","category_name":"便民商店/便利店","address":"莲安东路126号"},{"poiid":"B2094654DA68A5F54998","title":"通宇加东花园","lon":"121.55209","lat":"31.178268","category":"47","category_name":"住宅区","address":"莲安西路125弄81-140号"},{"poiid":"B2094757D66CAAFC419F","title":"老八样肚包鸡","lon":"121.554280738","lat":"31.1798752278","category":"76","category_name":"上海菜","address":"浦东新区莲安东路(近莲溪路)"},{"poiid":"B2094654DA6AA7FC479F","title":"光明便利NO.208","lon":"121.55746","lat":"31.18077","category":"117","category_name":"便民商店/便利店","address":"北蔡镇"},{"poiid":"B2094654DA6AA0F54693","title":"清雅网络","lon":"121.55794","lat":"31.17894","category":"176","category_name":"网吧","address":"新陈路25-57号"},{"poiid":"B2094757D06FA2FD459D","title":"麦当劳(北蔡店)","lon":"121.5551941","lat":"31.1822095","category":"68","category_name":"快餐厅","address":"浦东新区沪南路999号美食广场1楼(近莲溪车站)"},{"poiid":"B2094757D069A2FC479D","title":"金钵华美达广场酒店","lon":"121.55420901","lat":"31.182115699","category":"213","category_name":"五星级宾馆","address":"上海浦东新区沪南路938号"},{"poiid":"B2094655D36CA7FE479A","title":"沪南路陈春路","lon":"121.55806","lat":"31.17387","category":"38","category_name":"公交车站","address":"上海陈家桥"},{"poiid":"B2094757D068A3F44099","title":"51生活时区","lon":"121.55492","lat":"31.18289","category":"119","category_name":"商场","address":"浦东新区北中路160号(沪南路口)"},{"poiid":"B2094757D168A3FC439A","title":"北蔡休闲广场","lon":"121.5557373537124","lat":"31.183535609031264","category":"116","category_name":"特色商业街","address":"浦东新区北中路183号"},{"poiid":"B2094757D068A4FA459F","title":"龙象海鲜大酒店","lon":"121.56298268","lat":"31.1800419382","category":"260","category_name":"其他","address":"浦东新区莲溪路579号(新陈路口预计9月底营业)"},{"poiid":"B2094655D36CA1FA4698","title":"莲溪路北中路","lon":"121.56153","lat":"31.18184","category":"38","category_name":"公交车站","address":""},{"poiid":"B2094750D26FA2FA4099","title":"迪街量贩KTV","lon":"121.556549","lat":"31.182407","category":"170","category_name":"KTV","address":"浦东新区沪南路967号51生活广场4-5楼(北中路口)"},{"poiid":"B2094757D76EA2FC449D","title":"DQ冰雪皇后 北蔡店 Dairy Queen","lon":"121.55519","lat":"31.1822","category":"113","category_name":"冷饮店","address":"浦东新区沪南路999号美食广场1楼(近国美电器)"},{"poiid":"B2094757D16EA3FF449C","title":"段氏龙虾(莲安东路店)","lon":"121.56079","lat":"31.18057","category":"68","category_name":"快餐厅","address":"浦东新区莲安东路234号(近莲溪路)"},{"poiid":"B2094757D16DA5F84098","title":"清风人家","lon":"121.554768975","lat":"31.182769451","category":"260","category_name":"其他","address":"浦东新区沪南路967号51时尚广场北楼3楼(近北中路)"},{"poiid":"B2094655D268ABFC449E","title":"龙博公寓","lon":"121.55468","lat":"31.178631","category":"47","category_name":"住宅区","address":"上海市浦东新区沪南路1168弄"},{"poiid":"B2094757D064A3FA459E","title":"大胡子老北京热气羊肉","lon":"121.55762","lat":"31.18019","category":"86","category_name":"火锅店","address":"浦东新区莲安东路222号(近莲中路)"},{"poiid":"B2094655D264A7FA419B","title":"和福重庆烧鸡公火锅","lon":"121.561918054","lat":"31.181295793","category":"71","category_name":"四川菜","address":"浦东新区北蔡莲安东路233号(近莲溪路)"},{"poiid":"B2094655D36CA1FB419D","title":"莲安东路莲中路","lon":"121.55914","lat":"31.18089","category":"38","category_name":"公交车站","address":""},{"poiid":"B2094757D168A6FE4799","title":"莲安西路","lon":"121.552100738","lat":"31.1796012219","category":"500","category_name":"未知分类","address":"上海北蔡莲安西路"},{"poiid":"B2094757D06BA6FE4292","title":"客家小厨 莲安东路店","lon":"121.559373","lat":"31.18074","category":"72","category_name":"广东菜","address":"浦东新区莲安东路180号(近沪南路)"},{"poiid":"B2094654DA6AA7FC489C","title":"唐记传菜馆","lon":"121.55902","lat":"31.18093","category":"76","category_name":"上海菜","address":"浦东新区莲安东路157号(近沪南路)"},{"poiid":"B2094654DB6AA3FA449E","title":"阿辉家常菜","lon":"121.55949606849","lat":"31.181506471242","category":"257","category_name":"中餐厅","address":"浦东新区莲安东路209号(近莲中路)"},{"poiid":"B2094655D36CA5F44493","title":"北中路沪南路","lon":"121.55517","lat":"31.18328","category":"38","category_name":"公交车站","address":""},{"poiid":"B2094757D06BABFB439B","title":"东风雪铁龙上海瑞丰","lon":"121.55719","lat":"31.178776","category":"500","category_name":"未知分类","address":"上海浦东新陈路5号"},{"poiid":"B2094654DA6AA0F4489F","title":"莲杨苑","lon":"121.56219","lat":"31.17672","category":"47","category_name":"住宅区","address":"莲溪路780弄1-53号"},{"poiid":"B2094655D36CA1FB4298","title":"莲安东路","lon":"121.5593","lat":"31.1809","category":"38","category_name":"公交车站","address":""},{"poiid":"B2094654DA6AA0F54698","title":"莲琼苑","lon":"121.56017","lat":"31.178997","category":"47","category_name":"住宅区","address":"新陈路150弄1-46号"},{"poiid":"B2094654DA6AA7FD4298","title":"东东骨头王火锅城 莲安东路店","lon":"121.56105283032","lat":"31.181745544619","category":"86","category_name":"火锅店","address":"浦东新区莲安东路279号(莲安东路莲溪路)"},{"poiid":"B2094654DA68A6FB419E","title":"绿苑别墅","lon":"121.55578845909","lat":"31.179559884223","category":"47","category_name":"住宅区","address":"绿苑别墅位于浦东博华路971弄"},{"poiid":"B2094753D265A3FA479C","title":"川流不息（北蔡店）","lon":"121.55513190478518","lat":"31.183310707007436","category":"257","category_name":"中餐厅","address":"浦东新区北中路183弄北蔡休闲广场"},{"poiid":"B2094654DA6AA0F54093","title":"莲溪广场","lon":"121.56124","lat":"31.18358","category":"202","category_name":"公园广场","address":"上海莲溪路北中路"},{"poiid":"B2094654DA68A5FC459C","title":"绿川家园","lon":"121.55921","lat":"31.179408","category":"47","category_name":"住宅区","address":"陈春路221弄1-22号"},{"poiid":"B2094757D069A7F94792","title":"上海看守所","lon":"121.55947113","lat":"31.179353714","category":"500","category_name":"未知分类","address":"上海沪南公路1760号"},{"poiid":"B2094654DA68A5FC4592","title":"绿川公寓","lon":"121.557","lat":"31.1774","category":"47","category_name":"住宅区","address":"博华路980弄"},{"poiid":"B2094757D16BAAF44198","title":"玉兰小区","lon":"121.55908","lat":"31.180014","category":"47","category_name":"住宅区","address":"上海莲中路337弄"},{"poiid":"B2094750D76DA5FB489F","title":"新招鲜本地鸡窝(莲安东路店)","lon":"121.559","lat":"31.1808","category":"86","category_name":"火锅店","address":"浦东新区莲安东路146号(近莲中路)"},{"poiid":"B2094757D16BA1FF449D","title":"如意老鸭粉丝汤","lon":"121.55886","lat":"31.18035","category":"68","category_name":"快餐厅","address":"浦东新区莲安东路(莲中路口)"},{"poiid":"B2094654DA6AA5FE499C","title":"特色小笼馆(开泰火锅城西)","lon":"121.55811","lat":"31.18058","category":"68","category_name":"快餐厅","address":"浦东新区莲安东路108号(莲安东路莲中路)"},{"poiid":"B2094757D464A0FB489A","title":"湘味川土菜馆 莲安东路店","lon":"121.55911261861","lat":"31.181426887356","category":"71","category_name":"四川菜","address":"浦东新区莲安东路162号(近莲溪路)"},{"poiid":"B2094751DB64A4FF4493","title":"阅香名邸中国会所","lon":"121.55391","lat":"31.18231","category":"72","category_name":"广东菜","address":"浦东新区沪南路938号(近北中路)"},{"poiid":"B2094757D16DA2F84993","title":"重庆鸡公煲 北蔡店","lon":"121.561425054","lat":"31.181219793","category":"71","category_name":"四川菜","address":"浦东新区莲安东路190号(近莲溪路)"},{"poiid":"B2094655D268A6F5489E","title":"金桂轩","lon":"121.554421054","lat":"31.183722793","category":"72","category_name":"广东菜","address":"浦东新区沪南路938号金钵华美达广场酒店内(近北中路)"},{"poiid":"B2094757D16CA3FB4798","title":"爱情麻辣烫(莲安东路店)","lon":"121.56158","lat":"31.18069","category":"68","category_name":"快餐厅","address":"浦东新区莲安东路(近莲溪路)"},{"poiid":"B2094654DA6AA7FC4899","title":"莲中二村","lon":"121.5586","lat":"31.180008","category":"47","category_name":"住宅区","address":"莲中路318弄"},{"poiid":"B2094757D065A5FE4792","title":"缥缈峰灵鹫宫","lon":"121.558095075","lat":"31.1779835392","category":"500","category_name":"未知分类","address":"上海"},{"poiid":"B209475CD065A3F4439B","title":"阿明小菜 莲安东路店","lon":"121.55904","lat":"31.1807","category":"76","category_name":"上海菜","address":"莲安东路155号(近沪南路)"},{"poiid":"B2094654DA6AA7FC479D","title":"良友金伴便利连锁NO.236","lon":"121.5578","lat":"31.1808","category":"117","category_name":"便民商店/便利店","address":"莲安东路99"},{"poiid":"B2094654DA6AA7FD4293","title":"克莉丝汀 莲安东路店","lon":"121.561341054","lat":"31.181496793","category":"112","category_name":"糕饼店","address":"浦东新区莲安东路271-273号(近莲溪路)"},{"poiid":"B2094655D265A4F5479E","title":"好德便利(莲东店)","lon":"121.55862","lat":"31.18078","category":"117","category_name":"便民商店/便利店","address":"莲安东路126号"},{"poiid":"B2094654DA68A5F54998","title":"通宇加东花园","lon":"121.55209","lat":"31.178268","category":"47","category_name":"住宅区","address":"莲安西路125弄81-140号"},{"poiid":"B2094757D66CAAFC419F","title":"老八样肚包鸡","lon":"121.554280738","lat":"31.1798752278","category":"76","category_name":"上海菜","address":"浦东新区莲安东路(近莲溪路)"},{"poiid":"B2094654DA6AA7FC479F","title":"光明便利NO.208","lon":"121.55746","lat":"31.18077","category":"117","category_name":"便民商店/便利店","address":"北蔡镇"},{"poiid":"B2094654DA6AA0F54693","title":"清雅网络","lon":"121.55794","lat":"31.17894","category":"176","category_name":"网吧","address":"新陈路25-57号"},{"poiid":"B2094757D06FA2FD459D","title":"麦当劳(北蔡店)","lon":"121.5551941","lat":"31.1822095","category":"68","category_name":"快餐厅","address":"浦东新区沪南路999号美食广场1楼(近莲溪车站)"},{"poiid":"B2094757D069A2FC479D","title":"金钵华美达广场酒店","lon":"121.55420901","lat":"31.182115699","category":"213","category_name":"五星级宾馆","address":"上海浦东新区沪南路938号"},{"poiid":"B2094655D36CA7FE479A","title":"沪南路陈春路","lon":"121.55806","lat":"31.17387","category":"38","category_name":"公交车站","address":"上海陈家桥"},{"poiid":"B2094757D068A3F44099","title":"51生活时区","lon":"121.55492","lat":"31.18289","category":"119","category_name":"商场","address":"浦东新区北中路160号(沪南路口)"},{"poiid":"B2094757D168A3FC439A","title":"北蔡休闲广场","lon":"121.5557373537124","lat":"31.183535609031264","category":"116","category_name":"特色商业街","address":"浦东新区北中路183号"},{"poiid":"B2094757D068A4FA459F","title":"龙象海鲜大酒店","lon":"121.56298268","lat":"31.1800419382","category":"260","category_name":"其他","address":"浦东新区莲溪路579号(新陈路口预计9月底营业)"},{"poiid":"B2094655D36CA1FA4698","title":"莲溪路北中路","lon":"121.56153","lat":"31.18184","category":"38","category_name":"公交车站","address":""},{"poiid":"B2094750D26FA2FA4099","title":"迪街量贩KTV","lon":"121.556549","lat":"31.182407","category":"170","category_name":"KTV","address":"浦东新区沪南路967号51生活广场4-5楼(北中路口)"},{"poiid":"B2094757D76EA2FC449D","title":"DQ冰雪皇后 北蔡店 Dairy Queen","lon":"121.55519","lat":"31.1822","category":"113","category_name":"冷饮店","address":"浦东新区沪南路999号美食广场1楼(近国美电器)"},{"poiid":"B2094757D16EA3FF449C","title":"段氏龙虾(莲安东路店)","lon":"121.56079","lat":"31.18057","category":"68","category_name":"快餐厅","address":"浦东新区莲安东路234号(近莲溪路)"},{"poiid":"B2094757D16DA5F84098","title":"清风人家","lon":"121.554768975","lat":"31.182769451","category":"260","category_name":"其他","address":"浦东新区沪南路967号51时尚广场北楼3楼(近北中路)"},{"poiid":"B2094655D268ABFC449E","title":"龙博公寓","lon":"121.55468","lat":"31.178631","category":"47","category_name":"住宅区","address":"上海市浦东新区沪南路1168弄"},{"poiid":"B2094757D064A3FA459E","title":"大胡子老北京热气羊肉","lon":"121.55762","lat":"31.18019","category":"86","category_name":"火锅店","address":"浦东新区莲安东路222号(近莲中路)"},{"poiid":"B2094655D264A7FA419B","title":"和福重庆烧鸡公火锅","lon":"121.561918054","lat":"31.181295793","category":"71","category_name":"四川菜","address":"浦东新区北蔡莲安东路233号(近莲溪路)"},{"poiid":"B2094655D36CA1FB419D","title":"莲安东路莲中路","lon":"121.55914","lat":"31.18089","category":"38","category_name":"公交车站","address":""},{"poiid":"B2094757D168A6FE4799","title":"莲安西路","lon":"121.552100738","lat":"31.1796012219","category":"500","category_name":"未知分类","address":"上海北蔡莲安西路"},{"poiid":"B2094757D06BA6FE4292","title":"客家小厨 莲安东路店","lon":"121.559373","lat":"31.18074","category":"72","category_name":"广东菜","address":"浦东新区莲安东路180号(近沪南路)"},{"poiid":"B2094654DA6AA7FC489C","title":"唐记传菜馆","lon":"121.55902","lat":"31.18093","category":"76","category_name":"上海菜","address":"浦东新区莲安东路157号(近沪南路)"},{"poiid":"B2094654DB6AA3FA449E","title":"阿辉家常菜","lon":"121.55949606849","lat":"31.181506471242","category":"257","category_name":"中餐厅","address":"浦东新区莲安东路209号(近莲中路)"},{"poiid":"B2094655D36CA5F44493","title":"北中路沪南路","lon":"121.55517","lat":"31.18328","category":"38","category_name":"公交车站","address":""},{"poiid":"B2094757D06BABFB439B","title":"东风雪铁龙上海瑞丰","lon":"121.55719","lat":"31.178776","category":"500","category_name":"未知分类","address":"上海浦东新陈路5号"},{"poiid":"B2094654DA6AA0F4489F","title":"莲杨苑","lon":"121.56219","lat":"31.17672","category":"47","category_name":"住宅区","address":"莲溪路780弄1-53号"},{"poiid":"B2094655D36CA1FB4298","title":"莲安东路","lon":"121.5593","lat":"31.1809","category":"38","category_name":"公交车站","address":""},{"poiid":"B2094654DA6AA0F54698","title":"莲琼苑","lon":"121.56017","lat":"31.178997","category":"47","category_name":"住宅区","address":"新陈路150弄1-46号"},{"poiid":"B2094654DA6AA7FD4298","title":"东东骨头王火锅城 莲安东路店","lon":"121.56105283032","lat":"31.181745544619","category":"86","category_name":"火锅店","address":"浦东新区莲安东路279号(莲安东路莲溪路)"},{"poiid":"B2094654DA68A6FB419E","title":"绿苑别墅","lon":"121.55578845909","lat":"31.179559884223","category":"47","category_name":"住宅区","address":"绿苑别墅位于浦东博华路971弄"},{"poiid":"B2094753D265A3FA479C","title":"川流不息（北蔡店）","lon":"121.55513190478518","lat":"31.183310707007436","category":"257","category_name":"中餐厅","address":"浦东新区北中路183弄北蔡休闲广场"},{"poiid":"B2094654DA6AA0F54093","title":"莲溪广场","lon":"121.56124","lat":"31.18358","category":"202","category_name":"公园广场","address":"上海莲溪路北中路"},{"poiid":"B2094654DA68A5FC459C","title":"绿川家园","lon":"121.55921","lat":"31.179408","category":"47","category_name":"住宅区","address":"陈春路221弄1-22号"},{"poiid":"B2094757D069A7F94792","title":"上海看守所","lon":"121.55947113","lat":"31.179353714","category":"500","category_name":"未知分类","address":"上海沪南公路1760号"},{"poiid":"B2094654DA68A5FC4592","title":"绿川公寓","lon":"121.557","lat":"31.1774","category":"47","category_name":"住宅区","address":"博华路980弄"},{"poiid":"B2094757D16BAAF44198","title":"玉兰小区","lon":"121.55908","lat":"31.180014","category":"47","category_name":"住宅区","address":"上海莲中路337弄"},{"poiid":"B2094750D76DA5FB489F","title":"新招鲜本地鸡窝(莲安东路店)","lon":"121.559","lat":"31.1808","category":"86","category_name":"火锅店","address":"浦东新区莲安东路146号(近莲中路)"},{"poiid":"B2094757D16BA1FF449D","title":"如意老鸭粉丝汤","lon":"121.55886","lat":"31.18035","category":"68","category_name":"快餐厅","address":"浦东新区莲安东路(莲中路口)"},{"poiid":"B2094654DA6AA5FE499C","title":"特色小笼馆(开泰火锅城西)","lon":"121.55811","lat":"31.18058","category":"68","category_name":"快餐厅","address":"浦东新区莲安东路108号(莲安东路莲中路)"},{"poiid":"B2094757D464A0FB489A","title":"湘味川土菜馆 莲安东路店","lon":"121.55911261861","lat":"31.181426887356","category":"71","category_name":"四川菜","address":"浦东新区莲安东路162号(近莲溪路)"},{"poiid":"B2094751DB64A4FF4493","title":"阅香名邸中国会所","lon":"121.55391","lat":"31.18231","category":"72","category_name":"广东菜","address":"浦东新区沪南路938号(近北中路)"},{"poiid":"B2094757D16DA2F84993","title":"重庆鸡公煲 北蔡店","lon":"121.561425054","lat":"31.181219793","category":"71","category_name":"四川菜","address":"浦东新区莲安东路190号(近莲溪路)"},{"poiid":"B2094655D268A6F5489E","title":"金桂轩","lon":"121.554421054","lat":"31.183722793","category":"72","category_name":"广东菜","address":"浦东新区沪南路938号金钵华美达广场酒店内(近北中路)"},{"poiid":"B2094757D16CA3FB4798","title":"爱情麻辣烫(莲安东路店)","lon":"121.56158","lat":"31.18069","category":"68","category_name":"快餐厅","address":"浦东新区莲安东路(近莲溪路)"},{"poiid":"B2094654DA6AA7FC4899","title":"莲中二村","lon":"121.5586","lat":"31.180008","category":"47","category_name":"住宅区","address":"莲中路318弄"},{"poiid":"B2094757D065A5FE4792","title":"缥缈峰灵鹫宫","lon":"121.558095075","lat":"31.1779835392","category":"500","category_name":"未知分类","address":"上海"},{"poiid":"B209475CD065A3F4439B","title":"阿明小菜 莲安东路店","lon":"121.55904","lat":"31.1807","category":"76","category_name":"上海菜","address":"莲安东路155号(近沪南路)"},{"poiid":"B2094654DA6AA7FC479D","title":"良友金伴便利连锁NO.236","lon":"121.5578","lat":"31.1808","category":"117","category_name":"便民商店/便利店","address":"莲安东路99"},{"poiid":"B2094654DA6AA7FD4293","title":"克莉丝汀 莲安东路店","lon":"121.561341054","lat":"31.181496793","category":"112","category_name":"糕饼店","address":"浦东新区莲安东路271-273号(近莲溪路)"},{"poiid":"B2094655D265A4F5479E","title":"好德便利(莲东店)","lon":"121.55862","lat":"31.18078","category":"117","category_name":"便民商店/便利店","address":"莲安东路126号"},{"poiid":"B2094654DA68A5F54998","title":"通宇加东花园","lon":"121.55209","lat":"31.178268","category":"47","category_name":"住宅区","address":"莲安西路125弄81-140号"},{"poiid":"B2094757D66CAAFC419F","title":"老八样肚包鸡","lon":"121.554280738","lat":"31.1798752278","category":"76","category_name":"上海菜","address":"浦东新区莲安东路(近莲溪路)"},{"poiid":"B2094654DA6AA7FC479F","title":"光明便利NO.208","lon":"121.55746","lat":"31.18077","category":"117","category_name":"便民商店/便利店","address":"北蔡镇"},{"poiid":"B2094654DA6AA0F54693","title":"清雅网络","lon":"121.55794","lat":"31.17894","category":"176","category_name":"网吧","address":"新陈路25-57号"}]