[{"poiid":"B2094757D064A4F8409B","title":"上海衡山北郊宾馆","lon":"121.38487905","lat":"31.3455428044","category":"76","category_name":"上海菜","address":"宝山区顾村镇沪太路4788号顾村公园内"},{"poiid":"B2094757D06FA6FB409B","title":"顾村公园烧烤区","lon":"121.37870995","lat":"31.342285442","category":"196","category_name":"公园","address":"上海市宝山区陆翔路"},{"poiid":"B2094757D465A3F9469C","title":"顾村公园鹰冠庄园","lon":"121.38529968262","lat":"31.347066879273","category":"247","category_name":"餐饮美食","address":"宝山区沪太路4788号顾村公园英伦风情园悦林大道11号查看地图"},{"poiid":"B2094757D069A7FC459B","title":"东方帕堤欧","lon":"121.38584","lat":"31.351549","category":"47","category_name":"住宅区","address":"宝山区顾北路691号(近沪太路)"},{"poiid":"B2094751D56AA4F54699","title":"复旦大学附属华山医院北院","lon":"121.374451","lat":"31.347397","category":"627","category_name":"一般地点标志","address":"陆翔路108号"},{"poiid":"B2094757D06FA0FD409B","title":"市中心驾校(顾陈路分部)","lon":"121.38841","lat":"31.33587","category":"190","category_name":"培训机构","address":"宝山区顾陈路388号"},{"poiid":"B2094655D26AA4FB4798","title":"顾村驾驶员培训基地","lon":"121.38947","lat":"31.33668","category":"247","category_name":"餐饮美食","address":"宝山区顾陈路388号(近沪太路)"},{"poiid":"B2094757D06AA1FE479F","title":"顾北路电台路","lon":"121.393651","lat":"31.351812","category":"500","category_name":"未知分类","address":"上海宝山区顾北路电台路"},{"poiid":"B2094757D168A0FE4898","title":"顾村公园﹣鹰冠婚礼庄园","lon":"121.39265295","lat":"31.3451464968","category":"196","category_name":"公园","address":"上海市宝山区沪太路"},{"poiid":"B2094757D06AABF44493","title":"宝山国际民间艺术博览馆","lon":"121.3877161","lat":"31.346555898","category":"182","category_name":"博物馆","address":"宝山区沪太路4788号(近顾村公园1号门)"},{"poiid":"B2094757D068A3FC439E","title":"学府涵青家园","lon":"121.397148","lat":"31.332786","category":"500","category_name":"未知分类","address":"上海市宝山区涵青路398弄 经纬城市二期"},{"poiid":"B2094751D569A1FD469C","title":"长宁龙之梦","lon":"121.383063","lat":"31.346911","category":"249","category_name":"购物服务","address":null},{"poiid":"B2094757D16FA3F54192","title":"一唇香迷宗蟹","lon":"121.39015767","lat":"31.350380083","category":"71","category_name":"四川菜","address":"宝山区顾北路680号(近顾荻路)"},{"poiid":"B2094757D069A2F5429F","title":"大唐花园","lon":"121.40004","lat":"31.344345","category":"47","category_name":"住宅区","address":"大唐花园位于宝山上海宝山沪太路3717弄"},{"poiid":"B2094750D365AAFD429C","title":"重庆刘一手火锅((陆翔路店)","lon":"121.373187","lat":"31.344685","category":"86","category_name":"火锅店","address":"宝山区陆翔路26号(近顾村公园2号口)"},{"poiid":"B2094750DA6FA7FA479B","title":"龙之梦万丽酒店","lon":"121.387733","lat":"31.345125","category":"500","category_name":"未知分类","address":null},{"poiid":"B2094757D06BA0FD439B","title":"公交驾驶培训基地","lon":"121.39354295","lat":"31.334172286","category":"253","category_name":"校园生活","address":"上海市宝山区顾陈路"},{"poiid":"B2094757D065A3FD429C","title":"旺鑫閣传菜","lon":"121.38779827","lat":"31.347523942","category":"75","category_name":"浙江菜","address":"宝山区顾北路688号(近东方帕缇欧)"},{"poiid":"B2094757D064AAFD4399","title":"丰水宝坻 西苑","lon":"121.393518","lat":"31.355909","category":"500","category_name":"未知分类","address":"上海电台路教育路"},{"poiid":"B2094757D068ABF9449D","title":"圣卡洛 铂庭","lon":"121.388371","lat":"31.35749","category":"47","category_name":"住宅区","address":"上海沙浦路518弄"},{"poiid":"B2094752D76BA7F84199","title":"中山公园龙之梦","lon":"121.386146","lat":"31.342991","category":"247","category_name":"餐饮美食","address":null},{"poiid":"B2094757D464A0F5439D","title":"美丽川","lon":"121.389576","lat":"31.351517","category":"71","category_name":"四川菜","address":"宝山区顾北路588-598号(近顾荻路)"},{"poiid":"B2094655D264A4FB4093","title":"外环沪太路立交桥","lon":"121.39284","lat":"31.34498","category":"250","category_name":"公园户外","address":""},{"poiid":"B2094654D469ABFB4593","title":"上海市顾村中学","lon":"121.39422","lat":"31.35164","category":"55","category_name":"中学","address":"电台路93"},{"poiid":"B2094655D36CA7FE4393","title":"沪太路陈富路","lon":"121.38771","lat":"31.34693","category":"38","category_name":"公交车站","address":""},{"poiid":"B2094757DB69A2FC449A","title":"苏武牧羊 顾北路店","lon":"121.39244556427","lat":"31.351841147503","category":"86","category_name":"火锅店","address":"宝山区顾北路460号(近电台路)"},{"poiid":"B2094750D768A7FD439B","title":"喜阁亭(顾北路店)","lon":"121.391","lat":"31.3517","category":"76","category_name":"上海菜","address":"宝山区顾北路468号(近沪太路)"},{"poiid":"B2094751D26CA3FF489B","title":"龙之梦","lon":"121.3831","lat":"31.34691","category":"500","category_name":"未知分类","address":null},{"poiid":"B2094757D068A7F94499","title":"东明家具广场(沪太路店)","lon":"121.40212","lat":"31.33917","category":"249","category_name":"购物服务","address":"宝山区沪太路4301号"},{"poiid":"B2094750D564A6F94592","title":"元邑酒家","lon":"121.383926","lat":"31.342247","category":"247","category_name":"餐饮美食","address":"宝山区沪太路4788号顾村公园2号门绿地广场1楼"},{"poiid":"B2094751DA6AA6FC4999","title":"品甬外婆桥","lon":"121.38518","lat":"31.34773","category":"76","category_name":"上海菜","address":"宝山区陆翔路29号顾村公园2号口"},{"poiid":"B2094655D265AAFE499B","title":"泊仕郡","lon":"121.39268","lat":"31.350485","category":"47","category_name":"住宅区","address":"宝山区顾北路468号"},{"poiid":"B2094654D469AAF94299","title":"上海市农业生产资料公司农得利培训中心","lon":"121.39167","lat":"31.34738","category":"190","category_name":"培训机构","address":"顾太路728"},{"poiid":"B2094757D464A0FA449F","title":"百姓美食 顾北路店","lon":"121.388903","lat":"31.351243","category":"76","category_name":"上海菜","address":"宝山区顾北路676-678号(近沪太路)"},{"poiid":"B2094757D66CA0F5459A","title":"宏润韶光花园","lon":"121.39035","lat":"31.352749","category":"47","category_name":"住宅区","address":"上海市宝山区顾北路501号"},{"poiid":"B2094757D464A0F44698","title":"伊诺咖啡 顾北路店","lon":"121.39682","lat":"31.3532","category":"65","category_name":"咖啡厅","address":"宝山区顾北路578号(顾北路教育路)"},{"poiid":"B2094757D06AA0FA4499","title":"丰水宝坻","lon":"121.39216691","lat":"31.357603336","category":"253","category_name":"校园生活","address":"上海电台路教育路"},{"poiid":"B2094757D16FA3FA4498","title":"刘行基地","lon":"121.38842367","lat":"31.349705071","category":"500","category_name":"未知分类","address":"上海刘行"},{"poiid":"B2094655D36CA7F5489F","title":"顾北路顾荻路","lon":"121.39138","lat":"31.3519","category":"38","category_name":"公交车站","address":""},{"poiid":"B2094654D469ABF44793","title":"顾村镇图书馆","lon":"121.39566","lat":"31.3469","category":"181","category_name":"图书馆","address":"顾村镇电台南路7号"},{"poiid":"B2094654D469AAF94293","title":"顾村派出所","lon":"121.39542","lat":"31.34654","category":"609","category_name":"警察局","address":"宝山区顾村电台南路2号"},{"poiid":"B2094654D46AA0FA4398","title":"上海市宝山区顾村镇兽医站","lon":"121.3953","lat":"31.34768","category":"162","category_name":"医院","address":""},{"poiid":"B2094753D76FA3FA459B","title":"纽斯韩式桑拿SPA会所","lon":"121.392395","lat":"31.343345","category":"500","category_name":"未知分类","address":"上海市 天山路1900号"},{"poiid":"B2094654D46AA1FB479D","title":"朱家弄村","lon":"121.38981","lat":"31.34214","category":"47","category_name":"住宅区","address":""},{"poiid":"B2094654D469AAF94398","title":"宝山区顾村广播电视站","lon":"121.39529","lat":"31.34752","category":"59","category_name":"电视台","address":"电台南路11"},{"poiid":"B2094751D565A3FB419A","title":"美蘭湖別墅","lon":"121.3948150944116","lat":"31.34968526929555","category":"47","category_name":"住宅区","address":null},{"poiid":"B2094757D069A7FA4393","title":"丰水宝坻 东苑","lon":"121.39669024","lat":"31.3517751278","category":"47","category_name":"住宅区","address":"上海市宝山区教育路555弄"},{"poiid":"B2094655D36CA6F4499B","title":"电台路沙浦路","lon":"121.39176","lat":"31.35619","category":"38","category_name":"公交车站","address":"电台路沙浦路"},{"poiid":"B209475CD668A1FB459E","title":"顾村公园","lon":"121.386589","lat":"31.344661","category":"196","category_name":"公园","address":"上海市 顾村公园"},{"poiid":"B2094654D46AA0FA439F","title":"宝山区顾村中心幼儿园","lon":"121.39629","lat":"31.34749","category":"57","category_name":"幼儿园","address":"新泰路31"},{"poiid":"B2094757D064A4F8409B","title":"上海衡山北郊宾馆","lon":"121.38487905","lat":"31.3455428044","category":"76","category_name":"上海菜","address":"宝山区顾村镇沪太路4788号顾村公园内"},{"poiid":"B2094757D06FA6FB409B","title":"顾村公园烧烤区","lon":"121.37870995","lat":"31.342285442","category":"196","category_name":"公园","address":"上海市宝山区陆翔路"},{"poiid":"B2094757D465A3F9469C","title":"顾村公园鹰冠庄园","lon":"121.38529968262","lat":"31.347066879273","category":"247","category_name":"餐饮美食","address":"宝山区沪太路4788号顾村公园英伦风情园悦林大道11号查看地图"},{"poiid":"B2094757D069A7FC459B","title":"东方帕堤欧","lon":"121.38584","lat":"31.351549","category":"47","category_name":"住宅区","address":"宝山区顾北路691号(近沪太路)"},{"poiid":"B2094751D56AA4F54699","title":"复旦大学附属华山医院北院","lon":"121.374451","lat":"31.347397","category":"627","category_name":"一般地点标志","address":"陆翔路108号"},{"poiid":"B2094757D06FA0FD409B","title":"市中心驾校(顾陈路分部)","lon":"121.38841","lat":"31.33587","category":"190","category_name":"培训机构","address":"宝山区顾陈路388号"},{"poiid":"B2094655D26AA4FB4798","title":"顾村驾驶员培训基地","lon":"121.38947","lat":"31.33668","category":"247","category_name":"餐饮美食","address":"宝山区顾陈路388号(近沪太路)"},{"poiid":"B2094757D06AA1FE479F","title":"顾北路电台路","lon":"121.393651","lat":"31.351812","category":"500","category_name":"未知分类","address":"上海宝山区顾北路电台路"},{"poiid":"B2094757D168A0FE4898","title":"顾村公园﹣鹰冠婚礼庄园","lon":"121.39265295","lat":"31.3451464968","category":"196","category_name":"公园","address":"上海市宝山区沪太路"},{"poiid":"B2094757D06AABF44493","title":"宝山国际民间艺术博览馆","lon":"121.3877161","lat":"31.346555898","category":"182","category_name":"博物馆","address":"宝山区沪太路4788号(近顾村公园1号门)"},{"poiid":"B2094757D068A3FC439E","title":"学府涵青家园","lon":"121.397148","lat":"31.332786","category":"500","category_name":"未知分类","address":"上海市宝山区涵青路398弄 经纬城市二期"},{"poiid":"B2094751D569A1FD469C","title":"长宁龙之梦","lon":"121.383063","lat":"31.346911","category":"249","category_name":"购物服务","address":null},{"poiid":"B2094757D16FA3F54192","title":"一唇香迷宗蟹","lon":"121.39015767","lat":"31.350380083","category":"71","category_name":"四川菜","address":"宝山区顾北路680号(近顾荻路)"},{"poiid":"B2094757D069A2F5429F","title":"大唐花园","lon":"121.40004","lat":"31.344345","category":"47","category_name":"住宅区","address":"大唐花园位于宝山上海宝山沪太路3717弄"},{"poiid":"B2094750D365AAFD429C","title":"重庆刘一手火锅((陆翔路店)","lon":"121.373187","lat":"31.344685","category":"86","category_name":"火锅店","address":"宝山区陆翔路26号(近顾村公园2号口)"},{"poiid":"B2094750DA6FA7FA479B","title":"龙之梦万丽酒店","lon":"121.387733","lat":"31.345125","category":"500","category_name":"未知分类","address":null},{"poiid":"B2094757D06BA0FD439B","title":"公交驾驶培训基地","lon":"121.39354295","lat":"31.334172286","category":"253","category_name":"校园生活","address":"上海市宝山区顾陈路"},{"poiid":"B2094757D065A3FD429C","title":"旺鑫閣传菜","lon":"121.38779827","lat":"31.347523942","category":"75","category_name":"浙江菜","address":"宝山区顾北路688号(近东方帕缇欧)"},{"poiid":"B2094757D064AAFD4399","title":"丰水宝坻 西苑","lon":"121.393518","lat":"31.355909","category":"500","category_name":"未知分类","address":"上海电台路教育路"},{"poiid":"B2094757D068ABF9449D","title":"圣卡洛 铂庭","lon":"121.388371","lat":"31.35749","category":"47","category_name":"住宅区","address":"上海沙浦路518弄"},{"poiid":"B2094752D76BA7F84199","title":"中山公园龙之梦","lon":"121.386146","lat":"31.342991","category":"247","category_name":"餐饮美食","address":null},{"poiid":"B2094757D464A0F5439D","title":"美丽川","lon":"121.389576","lat":"31.351517","category":"71","category_name":"四川菜","address":"宝山区顾北路588-598号(近顾荻路)"},{"poiid":"B2094655D264A4FB4093","title":"外环沪太路立交桥","lon":"121.39284","lat":"31.34498","category":"250","category_name":"公园户外","address":""},{"poiid":"B2094654D469ABFB4593","title":"上海市顾村中学","lon":"121.39422","lat":"31.35164","category":"55","category_name":"中学","address":"电台路93"},{"poiid":"B2094655D36CA7FE4393","title":"沪太路陈富路","lon":"121.38771","lat":"31.34693","category":"38","category_name":"公交车站","address":""},{"poiid":"B2094757DB69A2FC449A","title":"苏武牧羊 顾北路店","lon":"121.39244556427","lat":"31.351841147503","category":"86","category_name":"火锅店","address":"宝山区顾北路460号(近电台路)"},{"poiid":"B2094750D768A7FD439B","title":"喜阁亭(顾北路店)","lon":"121.391","lat":"31.3517","category":"76","category_name":"上海菜","address":"宝山区顾北路468号(近沪太路)"},{"poiid":"B2094751D26CA3FF489B","title":"龙之梦","lon":"121.3831","lat":"31.34691","category":"500","category_name":"未知分类","address":null},{"poiid":"B2094757D068A7F94499","title":"东明家具广场(沪太路店)","lon":"121.40212","lat":"31.33917","category":"249","category_name":"购物服务","address":"宝山区沪太路4301号"},{"poiid":"B2094750D564A6F94592","title":"元邑酒家","lon":"121.383926","lat":"31.342247","category":"247","category_name":"餐饮美食","address":"宝山区沪太路4788号顾村公园2号门绿地广场1楼"},{"poiid":"B2094751DA6AA6FC4999","title":"品甬外婆桥","lon":"121.38518","lat":"31.34773","category":"76","category_name":"上海菜","address":"宝山区陆翔路29号顾村公园2号口"},{"poiid":"B2094655D265AAFE499B","title":"泊仕郡","lon":"121.39268","lat":"31.350485","category":"47","category_name":"住宅区","address":"宝山区顾北路468号"},{"poiid":"B2094654D469AAF94299","title":"上海市农业生产资料公司农得利培训中心","lon":"121.39167","lat":"31.34738","category":"190","category_name":"培训机构","address":"顾太路728"},{"poiid":"B2094757D464A0FA449F","title":"百姓美食 顾北路店","lon":"121.388903","lat":"31.351243","category":"76","category_name":"上海菜","address":"宝山区顾北路676-678号(近沪太路)"},{"poiid":"B2094757D66CA0F5459A","title":"宏润韶光花园","lon":"121.39035","lat":"31.352749","category":"47","category_name":"住宅区","address":"上海市宝山区顾北路501号"},{"poiid":"B2094757D464A0F44698","title":"伊诺咖啡 顾北路店","lon":"121.39682","lat":"31.3532","category":"65","category_name":"咖啡厅","address":"宝山区顾北路578号(顾北路教育路)"},{"poiid":"B2094757D06AA0FA4499","title":"丰水宝坻","lon":"121.39216691","lat":"31.357603336","category":"253","category_name":"校园生活","address":"上海电台路教育路"},{"poiid":"B2094757D16FA3FA4498","title":"刘行基地","lon":"121.38842367","lat":"31.349705071","category":"500","category_name":"未知分类","address":"上海刘行"},{"poiid":"B2094655D36CA7F5489F","title":"顾北路顾荻路","lon":"121.39138","lat":"31.3519","category":"38","category_name":"公交车站","address":""},{"poiid":"B2094654D469ABF44793","title":"顾村镇图书馆","lon":"121.39566","lat":"31.3469","category":"181","category_name":"图书馆","address":"顾村镇电台南路7号"},{"poiid":"B2094654D469AAF94293","title":"顾村派出所","lon":"121.39542","lat":"31.34654","category":"609","category_name":"警察局","address":"宝山区顾村电台南路2号"},{"poiid":"B2094654D46AA0FA4398","title":"上海市宝山区顾村镇兽医站","lon":"121.3953","lat":"31.34768","category":"162","category_name":"医院","address":""},{"poiid":"B2094753D76FA3FA459B","title":"纽斯韩式桑拿SPA会所","lon":"121.392395","lat":"31.343345","category":"500","category_name":"未知分类","address":"上海市 天山路1900号"},{"poiid":"B2094654D46AA1FB479D","title":"朱家弄村","lon":"121.38981","lat":"31.34214","category":"47","category_name":"住宅区","address":""},{"poiid":"B2094654D469AAF94398","title":"宝山区顾村广播电视站","lon":"121.39529","lat":"31.34752","category":"59","category_name":"电视台","address":"电台南路11"},{"poiid":"B2094751D565A3FB419A","title":"美蘭湖別墅","lon":"121.3948150944116","lat":"31.34968526929555","category":"47","category_name":"住宅区","address":null},{"poiid":"B2094757D069A7FA4393","title":"丰水宝坻 东苑","lon":"121.39669024","lat":"31.3517751278","category":"47","category_name":"住宅区","address":"上海市宝山区教育路555弄"},{"poiid":"B2094655D36CA6F4499B","title":"电台路沙浦路","lon":"121.39176","lat":"31.35619","category":"38","category_name":"公交车站","address":"电台路沙浦路"},{"poiid":"B209475CD668A1FB459E","title":"顾村公园","lon":"121.386589","lat":"31.344661","category":"196","category_name":"公园","address":"上海市 顾村公园"},{"poiid":"B2094654D46AA0FA439F","title":"宝山区顾村中心幼儿园","lon":"121.39629","lat":"31.34749","category":"57","category_name":"幼儿园","address":"新泰路31"},{"poiid":"B2094757D064A4F8409B","title":"上海衡山北郊宾馆","lon":"121.38487905","lat":"31.3455428044","category":"76","category_name":"上海菜","address":"宝山区顾村镇沪太路4788号顾村公园内"},{"poiid":"B2094757D06FA6FB409B","title":"顾村公园烧烤区","lon":"121.37870995","lat":"31.342285442","category":"196","category_name":"公园","address":"上海市宝山区陆翔路"},{"poiid":"B2094757D465A3F9469C","title":"顾村公园鹰冠庄园","lon":"121.38529968262","lat":"31.347066879273","category":"247","category_name":"餐饮美食","address":"宝山区沪太路4788号顾村公园英伦风情园悦林大道11号查看地图"},{"poiid":"B2094757D069A7FC459B","title":"东方帕堤欧","lon":"121.38584","lat":"31.351549","category":"47","category_name":"住宅区","address":"宝山区顾北路691号(近沪太路)"},{"poiid":"B2094751D56AA4F54699","title":"复旦大学附属华山医院北院","lon":"121.374451","lat":"31.347397","category":"627","category_name":"一般地点标志","address":"陆翔路108号"},{"poiid":"B2094757D06FA0FD409B","title":"市中心驾校(顾陈路分部)","lon":"121.38841","lat":"31.33587","category":"190","category_name":"培训机构","address":"宝山区顾陈路388号"},{"poiid":"B2094655D26AA4FB4798","title":"顾村驾驶员培训基地","lon":"121.38947","lat":"31.33668","category":"247","category_name":"餐饮美食","address":"宝山区顾陈路388号(近沪太路)"},{"poiid":"B2094757D06AA1FE479F","title":"顾北路电台路","lon":"121.393651","lat":"31.351812","category":"500","category_name":"未知分类","address":"上海宝山区顾北路电台路"},{"poiid":"B2094757D168A0FE4898","title":"顾村公园﹣鹰冠婚礼庄园","lon":"121.39265295","lat":"31.3451464968","category":"196","category_name":"公园","address":"上海市宝山区沪太路"},{"poiid":"B2094757D06AABF44493","title":"宝山国际民间艺术博览馆","lon":"121.3877161","lat":"31.346555898","category":"182","category_name":"博物馆","address":"宝山区沪太路4788号(近顾村公园1号门)"},{"poiid":"B2094757D068A3FC439E","title":"学府涵青家园","lon":"121.397148","lat":"31.332786","category":"500","category_name":"未知分类","address":"上海市宝山区涵青路398弄 经纬城市二期"},{"poiid":"B2094751D569A1FD469C","title":"长宁龙之梦","lon":"121.383063","lat":"31.346911","category":"249","category_name":"购物服务","address":null},{"poiid":"B2094757D16FA3F54192","title":"一唇香迷宗蟹","lon":"121.39015767","lat":"31.350380083","category":"71","category_name":"四川菜","address":"宝山区顾北路680号(近顾荻路)"},{"poiid":"B2094757D069A2F5429F","title":"大唐花园","lon":"121.40004","lat":"31.344345","category":"47","category_name":"住宅区","address":"大唐花园位于宝山上海宝山沪太路3717弄"},{"poiid":"B2094750D365AAFD429C","title":"重庆刘一手火锅((陆翔路店)","lon":"121.373187","lat":"31.344685","category":"86","category_name":"火锅店","address":"宝山区陆翔路26号(近顾村公园2号口)"},{"poiid":"B2094750DA6FA7FA479B","title":"龙之梦万丽酒店","lon":"121.387733","lat":"31.345125","category":"500","category_name":"未知分类","address":null},{"poiid":"B2094757D06BA0FD439B","title":"公交驾驶培训基地","lon":"121.39354295","lat":"31.334172286","category":"253","category_name":"校园生活","address":"上海市宝山区顾陈路"},{"poiid":"B2094757D065A3FD429C","title":"旺鑫閣传菜","lon":"121.38779827","lat":"31.347523942","category":"75","category_name":"浙江菜","address":"宝山区顾北路688号(近东方帕缇欧)"},{"poiid":"B2094757D064AAFD4399","title":"丰水宝坻 西苑","lon":"121.393518","lat":"31.355909","category":"500","category_name":"未知分类","address":"上海电台路教育路"},{"poiid":"B2094757D068ABF9449D","title":"圣卡洛 铂庭","lon":"121.388371","lat":"31.35749","category":"47","category_name":"住宅区","address":"上海沙浦路518弄"},{"poiid":"B2094752D76BA7F84199","title":"中山公园龙之梦","lon":"121.386146","lat":"31.342991","category":"247","category_name":"餐饮美食","address":null},{"poiid":"B2094757D464A0F5439D","title":"美丽川","lon":"121.389576","lat":"31.351517","category":"71","category_name":"四川菜","address":"宝山区顾北路588-598号(近顾荻路)"},{"poiid":"B2094655D264A4FB4093","title":"外环沪太路立交桥","lon":"121.39284","lat":"31.34498","category":"250","category_name":"公园户外","address":""},{"poiid":"B2094654D469ABFB4593","title":"上海市顾村中学","lon":"121.39422","lat":"31.35164","category":"55","category_name":"中学","address":"电台路93"},{"poiid":"B2094655D36CA7FE4393","title":"沪太路陈富路","lon":"121.38771","lat":"31.34693","category":"38","category_name":"公交车站","address":""},{"poiid":"B2094757DB69A2FC449A","title":"苏武牧羊 顾北路店","lon":"121.39244556427","lat":"31.351841147503","category":"86","category_name":"火锅店","address":"宝山区顾北路460号(近电台路)"},{"poiid":"B2094750D768A7FD439B","title":"喜阁亭(顾北路店)","lon":"121.391","lat":"31.3517","category":"76","category_name":"上海菜","address":"宝山区顾北路468号(近沪太路)"},{"poiid":"B2094751D26CA3FF489B","title":"龙之梦","lon":"121.3831","lat":"31.34691","category":"500","category_name":"未知分类","address":null},{"poiid":"B2094757D068A7F94499","title":"东明家具广场(沪太路店)","lon":"121.40212","lat":"31.33917","category":"249","category_name":"购物服务","address":"宝山区沪太路4301号"},{"poiid":"B2094750D564A6F94592","title":"元邑酒家","lon":"121.383926","lat":"31.342247","category":"247","category_name":"餐饮美食","address":"宝山区沪太路4788号顾村公园2号门绿地广场1楼"},{"poiid":"B2094751DA6AA6FC4999","title":"品甬外婆桥","lon":"121.38518","lat":"31.34773","category":"76","category_name":"上海菜","address":"宝山区陆翔路29号顾村公园2号口"},{"poiid":"B2094655D265AAFE499B","title":"泊仕郡","lon":"121.39268","lat":"31.350485","category":"47","category_name":"住宅区","address":"宝山区顾北路468号"},{"poiid":"B2094654D469AAF94299","title":"上海市农业生产资料公司农得利培训中心","lon":"121.39167","lat":"31.34738","category":"190","category_name":"培训机构","address":"顾太路728"},{"poiid":"B2094757D464A0FA449F","title":"百姓美食 顾北路店","lon":"121.388903","lat":"31.351243","category":"76","category_name":"上海菜","address":"宝山区顾北路676-678号(近沪太路)"},{"poiid":"B2094757D66CA0F5459A","title":"宏润韶光花园","lon":"121.39035","lat":"31.352749","category":"47","category_name":"住宅区","address":"上海市宝山区顾北路501号"},{"poiid":"B2094757D464A0F44698","title":"伊诺咖啡 顾北路店","lon":"121.39682","lat":"31.3532","category":"65","category_name":"咖啡厅","address":"宝山区顾北路578号(顾北路教育路)"},{"poiid":"B2094757D06AA0FA4499","title":"丰水宝坻","lon":"121.39216691","lat":"31.357603336","category":"253","category_name":"校园生活","address":"上海电台路教育路"},{"poiid":"B2094757D16FA3FA4498","title":"刘行基地","lon":"121.38842367","lat":"31.349705071","category":"500","category_name":"未知分类","address":"上海刘行"},{"poiid":"B2094655D36CA7F5489F","title":"顾北路顾荻路","lon":"121.39138","lat":"31.3519","category":"38","category_name":"公交车站","address":""},{"poiid":"B2094654D469ABF44793","title":"顾村镇图书馆","lon":"121.39566","lat":"31.3469","category":"181","category_name":"图书馆","address":"顾村镇电台南路7号"},{"poiid":"B2094654D469AAF94293","title":"顾村派出所","lon":"121.39542","lat":"31.34654","category":"609","category_name":"警察局","address":"宝山区顾村电台南路2号"},{"poiid":"B2094654D46AA0FA4398","title":"上海市宝山区顾村镇兽医站","lon":"121.3953","lat":"31.34768","category":"162","category_name":"医院","address":""},{"poiid":"B2094753D76FA3FA459B","title":"纽斯韩式桑拿SPA会所","lon":"121.392395","lat":"31.343345","category":"500","category_name":"未知分类","address":"上海市 天山路1900号"},{"poiid":"B2094654D46AA1FB479D","title":"朱家弄村","lon":"121.38981","lat":"31.34214","category":"47","category_name":"住宅区","address":""},{"poiid":"B2094654D469AAF94398","title":"宝山区顾村广播电视站","lon":"121.39529","lat":"31.34752","category":"59","category_name":"电视台","address":"电台南路11"},{"poiid":"B2094751D565A3FB419A","title":"美蘭湖別墅","lon":"121.3948150944116","lat":"31.34968526929555","category":"47","category_name":"住宅区","address":null},{"poiid":"B2094757D069A7FA4393","title":"丰水宝坻 东苑","lon":"121.39669024","lat":"31.3517751278","category":"47","category_name":"住宅区","address":"上海市宝山区教育路555弄"},{"poiid":"B2094655D36CA6F4499B","title":"电台路沙浦路","lon":"121.39176","lat":"31.35619","category":"38","category_name":"公交车站","address":"电台路沙浦路"},{"poiid":"B209475CD668A1FB459E","title":"顾村公园","lon":"121.386589","lat":"31.344661","category":"196","category_name":"公园","address":"上海市 顾村公园"},{"poiid":"B2094654D46AA0FA439F","title":"宝山区顾村中心幼儿园","lon":"121.39629","lat":"31.34749","category":"57","category_name":"幼儿园","address":"新泰路31"},{"poiid":"B2094757D064A4F8409B","title":"上海衡山北郊宾馆","lon":"121.38487905","lat":"31.3455428044","category":"76","category_name":"上海菜","address":"宝山区顾村镇沪太路4788号顾村公园内"},{"poiid":"B2094757D06FA6FB409B","title":"顾村公园烧烤区","lon":"121.37870995","lat":"31.342285442","category":"196","category_name":"公园","address":"上海市宝山区陆翔路"},{"poiid":"B2094757D465A3F9469C","title":"顾村公园鹰冠庄园","lon":"121.38529968262","lat":"31.347066879273","category":"247","category_name":"餐饮美食","address":"宝山区沪太路4788号顾村公园英伦风情园悦林大道11号查看地图"},{"poiid":"B2094757D069A7FC459B","title":"东方帕堤欧","lon":"121.38584","lat":"31.351549","category":"47","category_name":"住宅区","address":"宝山区顾北路691号(近沪太路)"},{"poiid":"B2094751D56AA4F54699","title":"复旦大学附属华山医院北院","lon":"121.374451","lat":"31.347397","category":"627","category_name":"一般地点标志","address":"陆翔路108号"},{"poiid":"B2094757D06FA0FD409B","title":"市中心驾校(顾陈路分部)","lon":"121.38841","lat":"31.33587","category":"190","category_name":"培训机构","address":"宝山区顾陈路388号"},{"poiid":"B2094655D26AA4FB4798","title":"顾村驾驶员培训基地","lon":"121.38947","lat":"31.33668","category":"247","category_name":"餐饮美食","address":"宝山区顾陈路388号(近沪太路)"},{"poiid":"B2094757D06AA1FE479F","title":"顾北路电台路","lon":"121.393651","lat":"31.351812","category":"500","category_name":"未知分类","address":"上海宝山区顾北路电台路"},{"poiid":"B2094757D168A0FE4898","title":"顾村公园﹣鹰冠婚礼庄园","lon":"121.39265295","lat":"31.3451464968","category":"196","category_name":"公园","address":"上海市宝山区沪太路"},{"poiid":"B2094757D06AABF44493","title":"宝山国际民间艺术博览馆","lon":"121.3877161","lat":"31.346555898","category":"182","category_name":"博物馆","address":"宝山区沪太路4788号(近顾村公园1号门)"},{"poiid":"B2094757D068A3FC439E","title":"学府涵青家园","lon":"121.397148","lat":"31.332786","category":"500","category_name":"未知分类","address":"上海市宝山区涵青路398弄 经纬城市二期"},{"poiid":"B2094751D569A1FD469C","title":"长宁龙之梦","lon":"121.383063","lat":"31.346911","category":"249","category_name":"购物服务","address":null},{"poiid":"B2094757D16FA3F54192","title":"一唇香迷宗蟹","lon":"121.39015767","lat":"31.350380083","category":"71","category_name":"四川菜","address":"宝山区顾北路680号(近顾荻路)"},{"poiid":"B2094757D069A2F5429F","title":"大唐花园","lon":"121.40004","lat":"31.344345","category":"47","category_name":"住宅区","address":"大唐花园位于宝山上海宝山沪太路3717弄"},{"poiid":"B2094750D365AAFD429C","title":"重庆刘一手火锅((陆翔路店)","lon":"121.373187","lat":"31.344685","category":"86","category_name":"火锅店","address":"宝山区陆翔路26号(近顾村公园2号口)"},{"poiid":"B2094750DA6FA7FA479B","title":"龙之梦万丽酒店","lon":"121.387733","lat":"31.345125","category":"500","category_name":"未知分类","address":null},{"poiid":"B2094757D06BA0FD439B","title":"公交驾驶培训基地","lon":"121.39354295","lat":"31.334172286","category":"253","category_name":"校园生活","address":"上海市宝山区顾陈路"},{"poiid":"B2094757D065A3FD429C","title":"旺鑫閣传菜","lon":"121.38779827","lat":"31.347523942","category":"75","category_name":"浙江菜","address":"宝山区顾北路688号(近东方帕缇欧)"},{"poiid":"B2094757D064AAFD4399","title":"丰水宝坻 西苑","lon":"121.393518","lat":"31.355909","category":"500","category_name":"未知分类","address":"上海电台路教育路"},{"poiid":"B2094757D068ABF9449D","title":"圣卡洛 铂庭","lon":"121.388371","lat":"31.35749","category":"47","category_name":"住宅区","address":"上海沙浦路518弄"},{"poiid":"B2094752D76BA7F84199","title":"中山公园龙之梦","lon":"121.386146","lat":"31.342991","category":"247","category_name":"餐饮美食","address":null},{"poiid":"B2094757D464A0F5439D","title":"美丽川","lon":"121.389576","lat":"31.351517","category":"71","category_name":"四川菜","address":"宝山区顾北路588-598号(近顾荻路)"},{"poiid":"B2094655D264A4FB4093","title":"外环沪太路立交桥","lon":"121.39284","lat":"31.34498","category":"250","category_name":"公园户外","address":""},{"poiid":"B2094654D469ABFB4593","title":"上海市顾村中学","lon":"121.39422","lat":"31.35164","category":"55","category_name":"中学","address":"电台路93"},{"poiid":"B2094655D36CA7FE4393","title":"沪太路陈富路","lon":"121.38771","lat":"31.34693","category":"38","category_name":"公交车站","address":""},{"poiid":"B2094757DB69A2FC449A","title":"苏武牧羊 顾北路店","lon":"121.39244556427","lat":"31.351841147503","category":"86","category_name":"火锅店","address":"宝山区顾北路460号(近电台路)"},{"poiid":"B2094750D768A7FD439B","title":"喜阁亭(顾北路店)","lon":"121.391","lat":"31.3517","category":"76","category_name":"上海菜","address":"宝山区顾北路468号(近沪太路)"},{"poiid":"B2094751D26CA3FF489B","title":"龙之梦","lon":"121.3831","lat":"31.34691","category":"500","category_name":"未知分类","address":null},{"poiid":"B2094757D068A7F94499","title":"东明家具广场(沪太路店)","lon":"121.40212","lat":"31.33917","category":"249","category_name":"购物服务","address":"宝山区沪太路4301号"},{"poiid":"B2094750D564A6F94592","title":"元邑酒家","lon":"121.383926","lat":"31.342247","category":"247","category_name":"餐饮美食","address":"宝山区沪太路4788号顾村公园2号门绿地广场1楼"},{"poiid":"B2094751DA6AA6FC4999","title":"品甬外婆桥","lon":"121.38518","lat":"31.34773","category":"76","category_name":"上海菜","address":"宝山区陆翔路29号顾村公园2号口"},{"poiid":"B2094655D265AAFE499B","title":"泊仕郡","lon":"121.39268","lat":"31.350485","category":"47","category_name":"住宅区","address":"宝山区顾北路468号"},{"poiid":"B2094654D469AAF94299","title":"上海市农业生产资料公司农得利培训中心","lon":"121.39167","lat":"31.34738","category":"190","category_name":"培训机构","address":"顾太路728"},{"poiid":"B2094757D464A0FA449F","title":"百姓美食 顾北路店","lon":"121.388903","lat":"31.351243","category":"76","category_name":"上海菜","address":"宝山区顾北路676-678号(近沪太路)"},{"poiid":"B2094757D66CA0F5459A","title":"宏润韶光花园","lon":"121.39035","lat":"31.352749","category":"47","category_name":"住宅区","address":"上海市宝山区顾北路501号"},{"poiid":"B2094757D464A0F44698","title":"伊诺咖啡 顾北路店","lon":"121.39682","lat":"31.3532","category":"65","category_name":"咖啡厅","address":"宝山区顾北路578号(顾北路教育路)"},{"poiid":"B2094757D06AA0FA4499","title":"丰水宝坻","lon":"121.39216691","lat":"31.357603336","category":"253","category_name":"校园生活","address":"上海电台路教育路"},{"poiid":"B2094757D16FA3FA4498","title":"刘行基地","lon":"121.38842367","lat":"31.349705071","category":"500","category_name":"未知分类","address":"上海刘行"},{"poiid":"B2094655D36CA7F5489F","title":"顾北路顾荻路","lon":"121.39138","lat":"31.3519","category":"38","category_name":"公交车站","address":""},{"poiid":"B2094654D469ABF44793","title":"顾村镇图书馆","lon":"121.39566","lat":"31.3469","category":"181","category_name":"图书馆","address":"顾村镇电台南路7号"},{"poiid":"B2094654D469AAF94293","title":"顾村派出所","lon":"121.39542","lat":"31.34654","category":"609","category_name":"警察局","address":"宝山区顾村电台南路2号"},{"poiid":"B2094654D46AA0FA4398","title":"上海市宝山区顾村镇兽医站","lon":"121.3953","lat":"31.34768","category":"162","category_name":"医院","address":""},{"poiid":"B2094753D76FA3FA459B","title":"纽斯韩式桑拿SPA会所","lon":"121.392395","lat":"31.343345","category":"500","category_name":"未知分类","address":"上海市 天山路1900号"},{"poiid":"B2094654D46AA1FB479D","title":"朱家弄村","lon":"121.38981","lat":"31.34214","category":"47","category_name":"住宅区","address":""},{"poiid":"B2094654D469AAF94398","title":"宝山区顾村广播电视站","lon":"121.39529","lat":"31.34752","category":"59","category_name":"电视台","address":"电台南路11"},{"poiid":"B2094751D565A3FB419A","title":"美蘭湖別墅","lon":"121.3948150944116","lat":"31.34968526929555","category":"47","category_name":"住宅区","address":null},{"poiid":"B2094757D069A7FA4393","title":"丰水宝坻 东苑","lon":"121.39669024","lat":"31.3517751278","category":"47","category_name":"住宅区","address":"上海市宝山区教育路555弄"},{"poiid":"B2094655D36CA6F4499B","title":"电台路沙浦路","lon":"121.39176","lat":"31.35619","category":"38","category_name":"公交车站","address":"电台路沙浦路"},{"poiid":"B209475CD668A1FB459E","title":"顾村公园","lon":"121.386589","lat":"31.344661","category":"196","category_name":"公园","address":"上海市 顾村公园"},{"poiid":"B2094654D46AA0FA439F","title":"宝山区顾村中心幼儿园","lon":"121.39629","lat":"31.34749","category":"57","category_name":"幼儿园","address":"新泰路31"}]