[{"poiid":"B2094655D36DA6FC449D","title":"颛桥地铁站","lon":"121.40139","lat":"31.06703","category":"36","category_name":"地铁站","address":"上海轨道交通 五号线 轨交颛桥站 5"},{"poiid":"B2094757D16AA0FF479E","title":"颛桥","lon":"121.396503557","lat":"31.0684570307","category":"500","category_name":"未知分类","address":"上海我的窝"},{"poiid":"B2094655D264A0F84498","title":"招商雍华府","lon":"121.40441","lat":"31.075537","category":"47","category_name":"住宅区","address":"闵行都市路2988号(靠近贵都路乐购)"},{"poiid":"B2094757D068ABFE4293","title":"自由港量贩式KTV(都市路店)","lon":"121.40448","lat":"31.07799","category":"170","category_name":"KTV","address":"闵行区都市路3366号4楼(近贵都路)"},{"poiid":"B2094655D264A2F84098","title":"S4沪金高速颛桥收费站","lon":"121.41513","lat":"31.06401","category":"267","category_name":"收费站","address":"上海闵行区颛桥镇"},{"poiid":"B2094757D068AAFF4793","title":"锦醇大酒店","lon":"121.39891","lat":"31.06615","category":"76","category_name":"上海菜","address":"闵行区颛卫路197号(颛兴路口)"},{"poiid":"B2094655D26BA7FA4492","title":"肯德基 颛桥店 KFC","lon":"121.39811286184","lat":"31.066859749469","category":"68","category_name":"快餐厅","address":"闵行区颛兴路89-93-113号1-2楼(颛卫路口)"},{"poiid":"B2094757D069A7F4499F","title":"福特4s店九华福特","lon":"121.415335","lat":"31.068825","category":"500","category_name":"未知分类","address":"上海颛兴东路"},{"poiid":"B2094757D06FA5FA4998","title":"乐购(都市店)","lon":"121.403425","lat":"31.080080257","category":"118","category_name":"超级市场","address":"闵行区都市路3366号(近贵都路)"},{"poiid":"B2094654DB6AA1F5489D","title":"剑桥馨苑","lon":"121.40881","lat":"31.072178","category":"47","category_name":"住宅区","address":"上海市闵行区颛兴东路1570号"},{"poiid":"B2094655D36DA6FF449B","title":"颛桥","lon":"121.40193","lat":"31.06675","category":"38","category_name":"公交车站","address":""},{"poiid":"B2094757D16DA5F44592","title":"总部一号企业园","lon":"121.415251543","lat":"31.0730497178","category":"500","category_name":"未知分类","address":"闵行区颛桥镇都会路2338号"},{"poiid":"B2094757D068A5FA4098","title":"德尚世嘉","lon":"121.402925","lat":"31.073551","category":"47","category_name":"住宅区","address":"上海都市路2899弄"},{"poiid":"B2094757D66BABF9459A","title":"品悦酒店 闵行店","lon":"121.40218774005","lat":"31.08005945754","category":"76","category_name":"上海菜","address":"闵行区都市路3377号(近贵都路)"},{"poiid":"B2094655D26AA0F9449B","title":"地铁颛桥站","lon":"121.40193","lat":"31.06675","category":"36","category_name":"地铁站","address":""},{"poiid":"B2094757D069A5FB489D","title":"馨苑宾馆餐厅","lon":"121.40905","lat":"31.07087","category":"217","category_name":"旅馆招待所","address":"上海闵行区颛兴东路1550弄  "},{"poiid":"B2094757D66CA2FD479D","title":"金铭文博水景","lon":"121.413","lat":"31.0729","category":"500","category_name":"未知分类","address":"上海闵行区都市路2501弄"},{"poiid":"B2094757D06BA6FB4292","title":"奥迪4S店","lon":"121.416973857","lat":"31.0747328562","category":"158","category_name":"汽车销售","address":"上海颛兴东路1280弄3号"},{"poiid":"B2094654DB6EABFB4192","title":"迎客饭店","lon":"121.40558","lat":"31.07027","category":"257","category_name":"中餐厅","address":""},{"poiid":"B2094654DB6EABFD469A","title":"颛桥中学","lon":"121.40197","lat":"31.07007","category":"55","category_name":"中学","address":"上海市闵行区颛桥老沪闵路"},{"poiid":"B2094654DB6AA1FB419B","title":"湖山在望","lon":"121.412","lat":"31.0768","category":"47","category_name":"住宅区","address":"上海市浦东新区三林路1608号"},{"poiid":"B2094757D068A3F44192","title":"旗忠森林网球中心中央球场","lon":"121.4072113","lat":"31.064144134","category":"220","category_name":"运动场所","address":"上海闵行区元江路5500号旗忠森林网球中心内(近昆阳北路)"},{"poiid":"B2094757D469A0F54299","title":"肯德基 贵都路店 KFC","lon":"121.402282054","lat":"31.079764793","category":"68","category_name":"快餐厅","address":"闵行区都市路3366号(贵都路)"},{"poiid":"B2094654DB6EABFD469B","title":"东苑米蓝域-琴岛花苑","lon":"121.40156","lat":"31.07075","category":"47","category_name":"住宅区","address":"老沪闵路3105弄"},{"poiid":"B2094655D36CA6FA4193","title":"都会路颛兴东路","lon":"121.41511","lat":"31.07468","category":"38","category_name":"公交车站","address":""},{"poiid":"B2094757D16FA7F8439F","title":"蜀香村川菜 颛桥店","lon":"121.39733532453","lat":"31.073223054479","category":"71","category_name":"四川菜","address":"闵行区沪闵路3708号(近光华路)"},{"poiid":"B2094757D06BA3FD499F","title":"东苑米蓝城","lon":"121.40781817539","lat":"31.076729256437","category":"47","category_name":"住宅区","address":"上海老沪闵路3105弄"},{"poiid":"B2094757D16FA2FD409F","title":"田园外语实验小学","lon":"121.404283857","lat":"31.07792092","category":"253","category_name":"校园生活","address":"上海都市路3000号"},{"poiid":"B2094757D064A6F44493","title":"申良花园","lon":"121.39976","lat":"31.07633","category":"47","category_name":"住宅区","address":"上海市闵行区贵都路345弄"},{"poiid":"B2094654DB6EABFA489B","title":"今天花园","lon":"121.40287","lat":"31.07743","category":"47","category_name":"住宅区","address":"贵都路209弄"},{"poiid":"B2094757D06FA3FE469B","title":"家乐福(南方店)","lon":"121.4004259","lat":"31.0692978","category":"118","category_name":"超级市场","address":"上海闵行区沪闵路7388号百联南方购物中心(近莲花路)  "},{"poiid":"B2094654DB6EABF84193","title":"闵行区国家税务局第十一税务所","lon":"121.39997","lat":"31.06249","category":"250","category_name":"公园户外","address":"上海市闵行区联农路135号"},{"poiid":"B2094654DB69A7F84299","title":"众众德尚世嘉","lon":"121.39908","lat":"31.072865","category":"47","category_name":"住宅区","address":"闵行区都市路2899号"},{"poiid":"B2094654DB6EABFB419E","title":"上海景福宾馆","lon":"121.41471","lat":"31.07377","category":"250","category_name":"公园户外","address":"闵行区颛兴东路1398号(近都会路)"},{"poiid":"B2094757D16CABFC4399","title":"味之都 贵都路店","lon":"121.403660054","lat":"31.078210793","category":"68","category_name":"快餐厅","address":"闵行区都市路3366号(近贵都路)"},{"poiid":"B2094751D468AAFF449F","title":"星巴克","lon":"121.403981","lat":"31.064383","category":"247","category_name":"餐饮美食","address":"徐家汇"},{"poiid":"B2094654DB6EABFE4998","title":"颛桥电影院","lon":"121.398818","lat":"31.069765","category":"178","category_name":"电影院","address":"闵行区颛桥镇颛建路(近沪闵路)"},{"poiid":"B2094757D06AA6FF489E","title":"花语墅","lon":"121.40443185","lat":"31.077159904","category":"500","category_name":"未知分类","address":"上海市宝山区环镇北路152号"},{"poiid":"B2094757D66DA4F4409F","title":"地铁五号线控制中心","lon":"121.402375757","lat":"31.0660073817","category":"46","category_name":"楼宇","address":"上海沪闵路3557号"},{"poiid":"B2094757D06BA4FB4798","title":"703终点站颛桥站","lon":"121.401393","lat":"31.067199","category":"38","category_name":"公交车站","address":"上海颛桥"},{"poiid":"B2094655D26BA2FC4093","title":"五号线颛桥站","lon":"121.40156","lat":"31.06662","category":"38","category_name":"公交车站","address":""},{"poiid":"B2094655D36CA7FD4492","title":"沪闵路颛盛路","lon":"121.40174","lat":"31.06612","category":"38","category_name":"公交车站","address":""},{"poiid":"B2094750D46BA1FB4399","title":"炫音KTV(颛桥店)","lon":"121.398292","lat":"31.072305","category":"170","category_name":"KTV","address":"闵行区光华路1号第14、21幢2楼"},{"poiid":"B2094757D064A2F4499F","title":"仙鹤墓园","lon":"121.409087024","lat":"31.0657747946","category":"500","category_name":"未知分类","address":"上海市闵行区马桥镇"},{"poiid":"B2094757D068A1FB4692","title":"一兆韦德(南方友谊商城店)","lon":"121.40069","lat":"31.06902","category":"148","category_name":"美容美发店","address":"上海闵行区沪闵路7250号友谊商城7楼(近轨交一号线莲花路站)"},{"poiid":"B2094757D065A7F8479C","title":"闵行区颛桥卫生服务中心","lon":"121.397992","lat":"31.067391","category":"500","category_name":"未知分类","address":"闵行区颛桥镇颛兴路122号(近颛卫路)"},{"poiid":"B2094655D264A2F9479E","title":"红叶别墅","lon":"121.39818","lat":"31.071863","category":"47","category_name":"住宅区","address":"上海市闵行区颛兴路388弄43号"},{"poiid":"B2094757D06BA5FD479C","title":"颛兴东路","lon":"121.412401771","lat":"31.0759653166","category":"500","category_name":"未知分类","address":"上海颛兴东路1158号"},{"poiid":"B2094654DB69A5F9429B","title":"文峰美容美发(颛兴路店)","lon":"121.40074","lat":"31.06807","category":"148","category_name":"美容美发店","address":"闵行区颛兴路51号"},{"poiid":"B2094654DB64A0FF4199","title":"天籁园(北门)","lon":"121.41106","lat":"31.06472","category":"47","category_name":"住宅区","address":"向阳路1683"},{"poiid":"B2094655D36DA6FC449D","title":"颛桥地铁站","lon":"121.40139","lat":"31.06703","category":"36","category_name":"地铁站","address":"上海轨道交通 五号线 轨交颛桥站 5"},{"poiid":"B2094757D16AA0FF479E","title":"颛桥","lon":"121.396503557","lat":"31.0684570307","category":"500","category_name":"未知分类","address":"上海我的窝"},{"poiid":"B2094655D264A0F84498","title":"招商雍华府","lon":"121.40441","lat":"31.075537","category":"47","category_name":"住宅区","address":"闵行都市路2988号(靠近贵都路乐购)"},{"poiid":"B2094757D068ABFE4293","title":"自由港量贩式KTV(都市路店)","lon":"121.40448","lat":"31.07799","category":"170","category_name":"KTV","address":"闵行区都市路3366号4楼(近贵都路)"},{"poiid":"B2094655D264A2F84098","title":"S4沪金高速颛桥收费站","lon":"121.41513","lat":"31.06401","category":"267","category_name":"收费站","address":"上海闵行区颛桥镇"},{"poiid":"B2094757D068AAFF4793","title":"锦醇大酒店","lon":"121.39891","lat":"31.06615","category":"76","category_name":"上海菜","address":"闵行区颛卫路197号(颛兴路口)"},{"poiid":"B2094655D26BA7FA4492","title":"肯德基 颛桥店 KFC","lon":"121.39811286184","lat":"31.066859749469","category":"68","category_name":"快餐厅","address":"闵行区颛兴路89-93-113号1-2楼(颛卫路口)"},{"poiid":"B2094757D069A7F4499F","title":"福特4s店九华福特","lon":"121.415335","lat":"31.068825","category":"500","category_name":"未知分类","address":"上海颛兴东路"},{"poiid":"B2094757D06FA5FA4998","title":"乐购(都市店)","lon":"121.403425","lat":"31.080080257","category":"118","category_name":"超级市场","address":"闵行区都市路3366号(近贵都路)"},{"poiid":"B2094654DB6AA1F5489D","title":"剑桥馨苑","lon":"121.40881","lat":"31.072178","category":"47","category_name":"住宅区","address":"上海市闵行区颛兴东路1570号"},{"poiid":"B2094655D36DA6FF449B","title":"颛桥","lon":"121.40193","lat":"31.06675","category":"38","category_name":"公交车站","address":""},{"poiid":"B2094757D16DA5F44592","title":"总部一号企业园","lon":"121.415251543","lat":"31.0730497178","category":"500","category_name":"未知分类","address":"闵行区颛桥镇都会路2338号"},{"poiid":"B2094757D068A5FA4098","title":"德尚世嘉","lon":"121.402925","lat":"31.073551","category":"47","category_name":"住宅区","address":"上海都市路2899弄"},{"poiid":"B2094757D66BABF9459A","title":"品悦酒店 闵行店","lon":"121.40218774005","lat":"31.08005945754","category":"76","category_name":"上海菜","address":"闵行区都市路3377号(近贵都路)"},{"poiid":"B2094655D26AA0F9449B","title":"地铁颛桥站","lon":"121.40193","lat":"31.06675","category":"36","category_name":"地铁站","address":""},{"poiid":"B2094757D069A5FB489D","title":"馨苑宾馆餐厅","lon":"121.40905","lat":"31.07087","category":"217","category_name":"旅馆招待所","address":"上海闵行区颛兴东路1550弄  "},{"poiid":"B2094757D66CA2FD479D","title":"金铭文博水景","lon":"121.413","lat":"31.0729","category":"500","category_name":"未知分类","address":"上海闵行区都市路2501弄"},{"poiid":"B2094757D06BA6FB4292","title":"奥迪4S店","lon":"121.416973857","lat":"31.0747328562","category":"158","category_name":"汽车销售","address":"上海颛兴东路1280弄3号"},{"poiid":"B2094654DB6EABFB4192","title":"迎客饭店","lon":"121.40558","lat":"31.07027","category":"257","category_name":"中餐厅","address":""},{"poiid":"B2094654DB6EABFD469A","title":"颛桥中学","lon":"121.40197","lat":"31.07007","category":"55","category_name":"中学","address":"上海市闵行区颛桥老沪闵路"},{"poiid":"B2094654DB6AA1FB419B","title":"湖山在望","lon":"121.412","lat":"31.0768","category":"47","category_name":"住宅区","address":"上海市浦东新区三林路1608号"},{"poiid":"B2094757D068A3F44192","title":"旗忠森林网球中心中央球场","lon":"121.4072113","lat":"31.064144134","category":"220","category_name":"运动场所","address":"上海闵行区元江路5500号旗忠森林网球中心内(近昆阳北路)"},{"poiid":"B2094757D469A0F54299","title":"肯德基 贵都路店 KFC","lon":"121.402282054","lat":"31.079764793","category":"68","category_name":"快餐厅","address":"闵行区都市路3366号(贵都路)"},{"poiid":"B2094654DB6EABFD469B","title":"东苑米蓝域-琴岛花苑","lon":"121.40156","lat":"31.07075","category":"47","category_name":"住宅区","address":"老沪闵路3105弄"},{"poiid":"B2094655D36CA6FA4193","title":"都会路颛兴东路","lon":"121.41511","lat":"31.07468","category":"38","category_name":"公交车站","address":""},{"poiid":"B2094757D16FA7F8439F","title":"蜀香村川菜 颛桥店","lon":"121.39733532453","lat":"31.073223054479","category":"71","category_name":"四川菜","address":"闵行区沪闵路3708号(近光华路)"},{"poiid":"B2094757D06BA3FD499F","title":"东苑米蓝城","lon":"121.40781817539","lat":"31.076729256437","category":"47","category_name":"住宅区","address":"上海老沪闵路3105弄"},{"poiid":"B2094757D16FA2FD409F","title":"田园外语实验小学","lon":"121.404283857","lat":"31.07792092","category":"253","category_name":"校园生活","address":"上海都市路3000号"},{"poiid":"B2094757D064A6F44493","title":"申良花园","lon":"121.39976","lat":"31.07633","category":"47","category_name":"住宅区","address":"上海市闵行区贵都路345弄"},{"poiid":"B2094654DB6EABFA489B","title":"今天花园","lon":"121.40287","lat":"31.07743","category":"47","category_name":"住宅区","address":"贵都路209弄"},{"poiid":"B2094757D06FA3FE469B","title":"家乐福(南方店)","lon":"121.4004259","lat":"31.0692978","category":"118","category_name":"超级市场","address":"上海闵行区沪闵路7388号百联南方购物中心(近莲花路)  "},{"poiid":"B2094654DB6EABF84193","title":"闵行区国家税务局第十一税务所","lon":"121.39997","lat":"31.06249","category":"250","category_name":"公园户外","address":"上海市闵行区联农路135号"},{"poiid":"B2094654DB69A7F84299","title":"众众德尚世嘉","lon":"121.39908","lat":"31.072865","category":"47","category_name":"住宅区","address":"闵行区都市路2899号"},{"poiid":"B2094654DB6EABFB419E","title":"上海景福宾馆","lon":"121.41471","lat":"31.07377","category":"250","category_name":"公园户外","address":"闵行区颛兴东路1398号(近都会路)"},{"poiid":"B2094757D16CABFC4399","title":"味之都 贵都路店","lon":"121.403660054","lat":"31.078210793","category":"68","category_name":"快餐厅","address":"闵行区都市路3366号(近贵都路)"},{"poiid":"B2094751D468AAFF449F","title":"星巴克","lon":"121.403981","lat":"31.064383","category":"247","category_name":"餐饮美食","address":"徐家汇"},{"poiid":"B2094654DB6EABFE4998","title":"颛桥电影院","lon":"121.398818","lat":"31.069765","category":"178","category_name":"电影院","address":"闵行区颛桥镇颛建路(近沪闵路)"},{"poiid":"B2094757D06AA6FF489E","title":"花语墅","lon":"121.40443185","lat":"31.077159904","category":"500","category_name":"未知分类","address":"上海市宝山区环镇北路152号"},{"poiid":"B2094757D66DA4F4409F","title":"地铁五号线控制中心","lon":"121.402375757","lat":"31.0660073817","category":"46","category_name":"楼宇","address":"上海沪闵路3557号"},{"poiid":"B2094757D06BA4FB4798","title":"703终点站颛桥站","lon":"121.401393","lat":"31.067199","category":"38","category_name":"公交车站","address":"上海颛桥"},{"poiid":"B2094655D26BA2FC4093","title":"五号线颛桥站","lon":"121.40156","lat":"31.06662","category":"38","category_name":"公交车站","address":""},{"poiid":"B2094655D36CA7FD4492","title":"沪闵路颛盛路","lon":"121.40174","lat":"31.06612","category":"38","category_name":"公交车站","address":""},{"poiid":"B2094750D46BA1FB4399","title":"炫音KTV(颛桥店)","lon":"121.398292","lat":"31.072305","category":"170","category_name":"KTV","address":"闵行区光华路1号第14、21幢2楼"},{"poiid":"B2094757D064A2F4499F","title":"仙鹤墓园","lon":"121.409087024","lat":"31.0657747946","category":"500","category_name":"未知分类","address":"上海市闵行区马桥镇"},{"poiid":"B2094757D068A1FB4692","title":"一兆韦德(南方友谊商城店)","lon":"121.40069","lat":"31.06902","category":"148","category_name":"美容美发店","address":"上海闵行区沪闵路7250号友谊商城7楼(近轨交一号线莲花路站)"},{"poiid":"B2094757D065A7F8479C","title":"闵行区颛桥卫生服务中心","lon":"121.397992","lat":"31.067391","category":"500","category_name":"未知分类","address":"闵行区颛桥镇颛兴路122号(近颛卫路)"},{"poiid":"B2094655D264A2F9479E","title":"红叶别墅","lon":"121.39818","lat":"31.071863","category":"47","category_name":"住宅区","address":"上海市闵行区颛兴路388弄43号"},{"poiid":"B2094757D06BA5FD479C","title":"颛兴东路","lon":"121.412401771","lat":"31.0759653166","category":"500","category_name":"未知分类","address":"上海颛兴东路1158号"},{"poiid":"B2094654DB69A5F9429B","title":"文峰美容美发(颛兴路店)","lon":"121.40074","lat":"31.06807","category":"148","category_name":"美容美发店","address":"闵行区颛兴路51号"},{"poiid":"B2094654DB64A0FF4199","title":"天籁园(北门)","lon":"121.41106","lat":"31.06472","category":"47","category_name":"住宅区","address":"向阳路1683"},{"poiid":"B2094655D36DA6FC449D","title":"颛桥地铁站","lon":"121.40139","lat":"31.06703","category":"36","category_name":"地铁站","address":"上海轨道交通 五号线 轨交颛桥站 5"},{"poiid":"B2094757D16AA0FF479E","title":"颛桥","lon":"121.396503557","lat":"31.0684570307","category":"500","category_name":"未知分类","address":"上海我的窝"},{"poiid":"B2094655D264A0F84498","title":"招商雍华府","lon":"121.40441","lat":"31.075537","category":"47","category_name":"住宅区","address":"闵行都市路2988号(靠近贵都路乐购)"},{"poiid":"B2094757D068ABFE4293","title":"自由港量贩式KTV(都市路店)","lon":"121.40448","lat":"31.07799","category":"170","category_name":"KTV","address":"闵行区都市路3366号4楼(近贵都路)"},{"poiid":"B2094655D264A2F84098","title":"S4沪金高速颛桥收费站","lon":"121.41513","lat":"31.06401","category":"267","category_name":"收费站","address":"上海闵行区颛桥镇"},{"poiid":"B2094757D068AAFF4793","title":"锦醇大酒店","lon":"121.39891","lat":"31.06615","category":"76","category_name":"上海菜","address":"闵行区颛卫路197号(颛兴路口)"},{"poiid":"B2094655D26BA7FA4492","title":"肯德基 颛桥店 KFC","lon":"121.39811286184","lat":"31.066859749469","category":"68","category_name":"快餐厅","address":"闵行区颛兴路89-93-113号1-2楼(颛卫路口)"},{"poiid":"B2094757D069A7F4499F","title":"福特4s店九华福特","lon":"121.415335","lat":"31.068825","category":"500","category_name":"未知分类","address":"上海颛兴东路"},{"poiid":"B2094757D06FA5FA4998","title":"乐购(都市店)","lon":"121.403425","lat":"31.080080257","category":"118","category_name":"超级市场","address":"闵行区都市路3366号(近贵都路)"},{"poiid":"B2094654DB6AA1F5489D","title":"剑桥馨苑","lon":"121.40881","lat":"31.072178","category":"47","category_name":"住宅区","address":"上海市闵行区颛兴东路1570号"},{"poiid":"B2094655D36DA6FF449B","title":"颛桥","lon":"121.40193","lat":"31.06675","category":"38","category_name":"公交车站","address":""},{"poiid":"B2094757D16DA5F44592","title":"总部一号企业园","lon":"121.415251543","lat":"31.0730497178","category":"500","category_name":"未知分类","address":"闵行区颛桥镇都会路2338号"},{"poiid":"B2094757D068A5FA4098","title":"德尚世嘉","lon":"121.402925","lat":"31.073551","category":"47","category_name":"住宅区","address":"上海都市路2899弄"},{"poiid":"B2094757D66BABF9459A","title":"品悦酒店 闵行店","lon":"121.40218774005","lat":"31.08005945754","category":"76","category_name":"上海菜","address":"闵行区都市路3377号(近贵都路)"},{"poiid":"B2094655D26AA0F9449B","title":"地铁颛桥站","lon":"121.40193","lat":"31.06675","category":"36","category_name":"地铁站","address":""},{"poiid":"B2094757D069A5FB489D","title":"馨苑宾馆餐厅","lon":"121.40905","lat":"31.07087","category":"217","category_name":"旅馆招待所","address":"上海闵行区颛兴东路1550弄  "},{"poiid":"B2094757D66CA2FD479D","title":"金铭文博水景","lon":"121.413","lat":"31.0729","category":"500","category_name":"未知分类","address":"上海闵行区都市路2501弄"},{"poiid":"B2094757D06BA6FB4292","title":"奥迪4S店","lon":"121.416973857","lat":"31.0747328562","category":"158","category_name":"汽车销售","address":"上海颛兴东路1280弄3号"},{"poiid":"B2094654DB6EABFB4192","title":"迎客饭店","lon":"121.40558","lat":"31.07027","category":"257","category_name":"中餐厅","address":""},{"poiid":"B2094654DB6EABFD469A","title":"颛桥中学","lon":"121.40197","lat":"31.07007","category":"55","category_name":"中学","address":"上海市闵行区颛桥老沪闵路"},{"poiid":"B2094654DB6AA1FB419B","title":"湖山在望","lon":"121.412","lat":"31.0768","category":"47","category_name":"住宅区","address":"上海市浦东新区三林路1608号"},{"poiid":"B2094757D068A3F44192","title":"旗忠森林网球中心中央球场","lon":"121.4072113","lat":"31.064144134","category":"220","category_name":"运动场所","address":"上海闵行区元江路5500号旗忠森林网球中心内(近昆阳北路)"},{"poiid":"B2094757D469A0F54299","title":"肯德基 贵都路店 KFC","lon":"121.402282054","lat":"31.079764793","category":"68","category_name":"快餐厅","address":"闵行区都市路3366号(贵都路)"},{"poiid":"B2094654DB6EABFD469B","title":"东苑米蓝域-琴岛花苑","lon":"121.40156","lat":"31.07075","category":"47","category_name":"住宅区","address":"老沪闵路3105弄"},{"poiid":"B2094655D36CA6FA4193","title":"都会路颛兴东路","lon":"121.41511","lat":"31.07468","category":"38","category_name":"公交车站","address":""},{"poiid":"B2094757D16FA7F8439F","title":"蜀香村川菜 颛桥店","lon":"121.39733532453","lat":"31.073223054479","category":"71","category_name":"四川菜","address":"闵行区沪闵路3708号(近光华路)"},{"poiid":"B2094757D06BA3FD499F","title":"东苑米蓝城","lon":"121.40781817539","lat":"31.076729256437","category":"47","category_name":"住宅区","address":"上海老沪闵路3105弄"},{"poiid":"B2094757D16FA2FD409F","title":"田园外语实验小学","lon":"121.404283857","lat":"31.07792092","category":"253","category_name":"校园生活","address":"上海都市路3000号"},{"poiid":"B2094757D064A6F44493","title":"申良花园","lon":"121.39976","lat":"31.07633","category":"47","category_name":"住宅区","address":"上海市闵行区贵都路345弄"},{"poiid":"B2094654DB6EABFA489B","title":"今天花园","lon":"121.40287","lat":"31.07743","category":"47","category_name":"住宅区","address":"贵都路209弄"},{"poiid":"B2094757D06FA3FE469B","title":"家乐福(南方店)","lon":"121.4004259","lat":"31.0692978","category":"118","category_name":"超级市场","address":"上海闵行区沪闵路7388号百联南方购物中心(近莲花路)  "},{"poiid":"B2094654DB6EABF84193","title":"闵行区国家税务局第十一税务所","lon":"121.39997","lat":"31.06249","category":"250","category_name":"公园户外","address":"上海市闵行区联农路135号"},{"poiid":"B2094654DB69A7F84299","title":"众众德尚世嘉","lon":"121.39908","lat":"31.072865","category":"47","category_name":"住宅区","address":"闵行区都市路2899号"},{"poiid":"B2094654DB6EABFB419E","title":"上海景福宾馆","lon":"121.41471","lat":"31.07377","category":"250","category_name":"公园户外","address":"闵行区颛兴东路1398号(近都会路)"},{"poiid":"B2094757D16CABFC4399","title":"味之都 贵都路店","lon":"121.403660054","lat":"31.078210793","category":"68","category_name":"快餐厅","address":"闵行区都市路3366号(近贵都路)"},{"poiid":"B2094751D468AAFF449F","title":"星巴克","lon":"121.403981","lat":"31.064383","category":"247","category_name":"餐饮美食","address":"徐家汇"},{"poiid":"B2094654DB6EABFE4998","title":"颛桥电影院","lon":"121.398818","lat":"31.069765","category":"178","category_name":"电影院","address":"闵行区颛桥镇颛建路(近沪闵路)"},{"poiid":"B2094757D06AA6FF489E","title":"花语墅","lon":"121.40443185","lat":"31.077159904","category":"500","category_name":"未知分类","address":"上海市宝山区环镇北路152号"},{"poiid":"B2094757D66DA4F4409F","title":"地铁五号线控制中心","lon":"121.402375757","lat":"31.0660073817","category":"46","category_name":"楼宇","address":"上海沪闵路3557号"},{"poiid":"B2094757D06BA4FB4798","title":"703终点站颛桥站","lon":"121.401393","lat":"31.067199","category":"38","category_name":"公交车站","address":"上海颛桥"},{"poiid":"B2094655D26BA2FC4093","title":"五号线颛桥站","lon":"121.40156","lat":"31.06662","category":"38","category_name":"公交车站","address":""},{"poiid":"B2094655D36CA7FD4492","title":"沪闵路颛盛路","lon":"121.40174","lat":"31.06612","category":"38","category_name":"公交车站","address":""},{"poiid":"B2094750D46BA1FB4399","title":"炫音KTV(颛桥店)","lon":"121.398292","lat":"31.072305","category":"170","category_name":"KTV","address":"闵行区光华路1号第14、21幢2楼"},{"poiid":"B2094757D064A2F4499F","title":"仙鹤墓园","lon":"121.409087024","lat":"31.0657747946","category":"500","category_name":"未知分类","address":"上海市闵行区马桥镇"},{"poiid":"B2094757D068A1FB4692","title":"一兆韦德(南方友谊商城店)","lon":"121.40069","lat":"31.06902","category":"148","category_name":"美容美发店","address":"上海闵行区沪闵路7250号友谊商城7楼(近轨交一号线莲花路站)"},{"poiid":"B2094757D065A7F8479C","title":"闵行区颛桥卫生服务中心","lon":"121.397992","lat":"31.067391","category":"500","category_name":"未知分类","address":"闵行区颛桥镇颛兴路122号(近颛卫路)"},{"poiid":"B2094655D264A2F9479E","title":"红叶别墅","lon":"121.39818","lat":"31.071863","category":"47","category_name":"住宅区","address":"上海市闵行区颛兴路388弄43号"},{"poiid":"B2094757D06BA5FD479C","title":"颛兴东路","lon":"121.412401771","lat":"31.0759653166","category":"500","category_name":"未知分类","address":"上海颛兴东路1158号"},{"poiid":"B2094654DB69A5F9429B","title":"文峰美容美发(颛兴路店)","lon":"121.40074","lat":"31.06807","category":"148","category_name":"美容美发店","address":"闵行区颛兴路51号"},{"poiid":"B2094654DB64A0FF4199","title":"天籁园(北门)","lon":"121.41106","lat":"31.06472","category":"47","category_name":"住宅区","address":"向阳路1683"},{"poiid":"B2094655D36DA6FC449D","title":"颛桥地铁站","lon":"121.40139","lat":"31.06703","category":"36","category_name":"地铁站","address":"上海轨道交通 五号线 轨交颛桥站 5"},{"poiid":"B2094757D16AA0FF479E","title":"颛桥","lon":"121.396503557","lat":"31.0684570307","category":"500","category_name":"未知分类","address":"上海我的窝"},{"poiid":"B2094655D264A0F84498","title":"招商雍华府","lon":"121.40441","lat":"31.075537","category":"47","category_name":"住宅区","address":"闵行都市路2988号(靠近贵都路乐购)"},{"poiid":"B2094757D068ABFE4293","title":"自由港量贩式KTV(都市路店)","lon":"121.40448","lat":"31.07799","category":"170","category_name":"KTV","address":"闵行区都市路3366号4楼(近贵都路)"},{"poiid":"B2094655D264A2F84098","title":"S4沪金高速颛桥收费站","lon":"121.41513","lat":"31.06401","category":"267","category_name":"收费站","address":"上海闵行区颛桥镇"},{"poiid":"B2094757D068AAFF4793","title":"锦醇大酒店","lon":"121.39891","lat":"31.06615","category":"76","category_name":"上海菜","address":"闵行区颛卫路197号(颛兴路口)"},{"poiid":"B2094655D26BA7FA4492","title":"肯德基 颛桥店 KFC","lon":"121.39811286184","lat":"31.066859749469","category":"68","category_name":"快餐厅","address":"闵行区颛兴路89-93-113号1-2楼(颛卫路口)"},{"poiid":"B2094757D069A7F4499F","title":"福特4s店九华福特","lon":"121.415335","lat":"31.068825","category":"500","category_name":"未知分类","address":"上海颛兴东路"},{"poiid":"B2094757D06FA5FA4998","title":"乐购(都市店)","lon":"121.403425","lat":"31.080080257","category":"118","category_name":"超级市场","address":"闵行区都市路3366号(近贵都路)"},{"poiid":"B2094654DB6AA1F5489D","title":"剑桥馨苑","lon":"121.40881","lat":"31.072178","category":"47","category_name":"住宅区","address":"上海市闵行区颛兴东路1570号"},{"poiid":"B2094655D36DA6FF449B","title":"颛桥","lon":"121.40193","lat":"31.06675","category":"38","category_name":"公交车站","address":""},{"poiid":"B2094757D16DA5F44592","title":"总部一号企业园","lon":"121.415251543","lat":"31.0730497178","category":"500","category_name":"未知分类","address":"闵行区颛桥镇都会路2338号"},{"poiid":"B2094757D068A5FA4098","title":"德尚世嘉","lon":"121.402925","lat":"31.073551","category":"47","category_name":"住宅区","address":"上海都市路2899弄"},{"poiid":"B2094757D66BABF9459A","title":"品悦酒店 闵行店","lon":"121.40218774005","lat":"31.08005945754","category":"76","category_name":"上海菜","address":"闵行区都市路3377号(近贵都路)"},{"poiid":"B2094655D26AA0F9449B","title":"地铁颛桥站","lon":"121.40193","lat":"31.06675","category":"36","category_name":"地铁站","address":""},{"poiid":"B2094757D069A5FB489D","title":"馨苑宾馆餐厅","lon":"121.40905","lat":"31.07087","category":"217","category_name":"旅馆招待所","address":"上海闵行区颛兴东路1550弄  "},{"poiid":"B2094757D66CA2FD479D","title":"金铭文博水景","lon":"121.413","lat":"31.0729","category":"500","category_name":"未知分类","address":"上海闵行区都市路2501弄"},{"poiid":"B2094757D06BA6FB4292","title":"奥迪4S店","lon":"121.416973857","lat":"31.0747328562","category":"158","category_name":"汽车销售","address":"上海颛兴东路1280弄3号"},{"poiid":"B2094654DB6EABFB4192","title":"迎客饭店","lon":"121.40558","lat":"31.07027","category":"257","category_name":"中餐厅","address":""},{"poiid":"B2094654DB6EABFD469A","title":"颛桥中学","lon":"121.40197","lat":"31.07007","category":"55","category_name":"中学","address":"上海市闵行区颛桥老沪闵路"},{"poiid":"B2094654DB6AA1FB419B","title":"湖山在望","lon":"121.412","lat":"31.0768","category":"47","category_name":"住宅区","address":"上海市浦东新区三林路1608号"},{"poiid":"B2094757D068A3F44192","title":"旗忠森林网球中心中央球场","lon":"121.4072113","lat":"31.064144134","category":"220","category_name":"运动场所","address":"上海闵行区元江路5500号旗忠森林网球中心内(近昆阳北路)"},{"poiid":"B2094757D469A0F54299","title":"肯德基 贵都路店 KFC","lon":"121.402282054","lat":"31.079764793","category":"68","category_name":"快餐厅","address":"闵行区都市路3366号(贵都路)"},{"poiid":"B2094654DB6EABFD469B","title":"东苑米蓝域-琴岛花苑","lon":"121.40156","lat":"31.07075","category":"47","category_name":"住宅区","address":"老沪闵路3105弄"},{"poiid":"B2094655D36CA6FA4193","title":"都会路颛兴东路","lon":"121.41511","lat":"31.07468","category":"38","category_name":"公交车站","address":""},{"poiid":"B2094757D16FA7F8439F","title":"蜀香村川菜 颛桥店","lon":"121.39733532453","lat":"31.073223054479","category":"71","category_name":"四川菜","address":"闵行区沪闵路3708号(近光华路)"},{"poiid":"B2094757D06BA3FD499F","title":"东苑米蓝城","lon":"121.40781817539","lat":"31.076729256437","category":"47","category_name":"住宅区","address":"上海老沪闵路3105弄"},{"poiid":"B2094757D16FA2FD409F","title":"田园外语实验小学","lon":"121.404283857","lat":"31.07792092","category":"253","category_name":"校园生活","address":"上海都市路3000号"},{"poiid":"B2094757D064A6F44493","title":"申良花园","lon":"121.39976","lat":"31.07633","category":"47","category_name":"住宅区","address":"上海市闵行区贵都路345弄"},{"poiid":"B2094654DB6EABFA489B","title":"今天花园","lon":"121.40287","lat":"31.07743","category":"47","category_name":"住宅区","address":"贵都路209弄"},{"poiid":"B2094757D06FA3FE469B","title":"家乐福(南方店)","lon":"121.4004259","lat":"31.0692978","category":"118","category_name":"超级市场","address":"上海闵行区沪闵路7388号百联南方购物中心(近莲花路)  "},{"poiid":"B2094654DB6EABF84193","title":"闵行区国家税务局第十一税务所","lon":"121.39997","lat":"31.06249","category":"250","category_name":"公园户外","address":"上海市闵行区联农路135号"},{"poiid":"B2094654DB69A7F84299","title":"众众德尚世嘉","lon":"121.39908","lat":"31.072865","category":"47","category_name":"住宅区","address":"闵行区都市路2899号"},{"poiid":"B2094654DB6EABFB419E","title":"上海景福宾馆","lon":"121.41471","lat":"31.07377","category":"250","category_name":"公园户外","address":"闵行区颛兴东路1398号(近都会路)"},{"poiid":"B2094757D16CABFC4399","title":"味之都 贵都路店","lon":"121.403660054","lat":"31.078210793","category":"68","category_name":"快餐厅","address":"闵行区都市路3366号(近贵都路)"},{"poiid":"B2094751D468AAFF449F","title":"星巴克","lon":"121.403981","lat":"31.064383","category":"247","category_name":"餐饮美食","address":"徐家汇"},{"poiid":"B2094654DB6EABFE4998","title":"颛桥电影院","lon":"121.398818","lat":"31.069765","category":"178","category_name":"电影院","address":"闵行区颛桥镇颛建路(近沪闵路)"},{"poiid":"B2094757D06AA6FF489E","title":"花语墅","lon":"121.40443185","lat":"31.077159904","category":"500","category_name":"未知分类","address":"上海市宝山区环镇北路152号"},{"poiid":"B2094757D66DA4F4409F","title":"地铁五号线控制中心","lon":"121.402375757","lat":"31.0660073817","category":"46","category_name":"楼宇","address":"上海沪闵路3557号"},{"poiid":"B2094757D06BA4FB4798","title":"703终点站颛桥站","lon":"121.401393","lat":"31.067199","category":"38","category_name":"公交车站","address":"上海颛桥"},{"poiid":"B2094655D26BA2FC4093","title":"五号线颛桥站","lon":"121.40156","lat":"31.06662","category":"38","category_name":"公交车站","address":""},{"poiid":"B2094655D36CA7FD4492","title":"沪闵路颛盛路","lon":"121.40174","lat":"31.06612","category":"38","category_name":"公交车站","address":""},{"poiid":"B2094750D46BA1FB4399","title":"炫音KTV(颛桥店)","lon":"121.398292","lat":"31.072305","category":"170","category_name":"KTV","address":"闵行区光华路1号第14、21幢2楼"},{"poiid":"B2094757D064A2F4499F","title":"仙鹤墓园","lon":"121.409087024","lat":"31.0657747946","category":"500","category_name":"未知分类","address":"上海市闵行区马桥镇"},{"poiid":"B2094757D068A1FB4692","title":"一兆韦德(南方友谊商城店)","lon":"121.40069","lat":"31.06902","category":"148","category_name":"美容美发店","address":"上海闵行区沪闵路7250号友谊商城7楼(近轨交一号线莲花路站)"},{"poiid":"B2094757D065A7F8479C","title":"闵行区颛桥卫生服务中心","lon":"121.397992","lat":"31.067391","category":"500","category_name":"未知分类","address":"闵行区颛桥镇颛兴路122号(近颛卫路)"},{"poiid":"B2094655D264A2F9479E","title":"红叶别墅","lon":"121.39818","lat":"31.071863","category":"47","category_name":"住宅区","address":"上海市闵行区颛兴路388弄43号"},{"poiid":"B2094757D06BA5FD479C","title":"颛兴东路","lon":"121.412401771","lat":"31.0759653166","category":"500","category_name":"未知分类","address":"上海颛兴东路1158号"},{"poiid":"B2094654DB69A5F9429B","title":"文峰美容美发(颛兴路店)","lon":"121.40074","lat":"31.06807","category":"148","category_name":"美容美发店","address":"闵行区颛兴路51号"},{"poiid":"B2094654DB64A0FF4199","title":"天籁园(北门)","lon":"121.41106","lat":"31.06472","category":"47","category_name":"住宅区","address":"向阳路1683"}]