[{"poiid":"B2094655D268A7F5499B","title":"星巴克咖啡美罗店","lon":"121.43962","lat":"31.19356","category":"65","category_name":"咖啡厅","address":"徐汇区肇嘉浜路1111号美罗城2楼219号(近漕溪北路)"},{"poiid":"B2094654DA6DA0FE499E","title":"美罗城","lon":"121.43985","lat":"31.19286","category":"119","category_name":"商场","address":"上海市徐汇区肇嘉浜路1111号"},{"poiid":"B2094757D06EAAFD4193","title":"七叶和茶 nana's green tea","lon":"121.43985","lat":"31.19286","category":"95","category_name":"日本料理","address":"徐汇区肇嘉浜路1111号美罗城B1楼五番街(近漕溪北路)"},{"poiid":"B2094751D565A2F44498","title":"百嘉乐V-Show主题KTV","lon":"121.441818","lat":"31.192683","category":"248","category_name":"生活娱乐","address":"天钥桥路辛耕路"},{"poiid":"B2094757D06FA0F84593","title":"湄公河越南餐厅","lon":"121.43969","lat":"31.19321","category":"99","category_name":"泰国／越南菜品餐厅","address":"徐汇区肇嘉浜路1111号美罗城5楼(近漕溪北路)"},{"poiid":"B2094757D06FA3F5439A","title":"扬歌量贩式KTV(天钥桥路店)","lon":"121.4415","lat":"31.19231","category":"170","category_name":"KTV","address":"徐汇区天钥桥路88号汇联商厦4-5楼(近肇嘉浜路)"},{"poiid":"B2094757D06FA2FE4693","title":"代官山(美罗城店)","lon":"121.439861581","lat":"31.1933496807","category":"260","category_name":"其他","address":"徐汇区肇嘉浜路1111号美罗城4-5楼(近漕溪北路)"},{"poiid":"B2094654DB6BA5F94098","title":"麦当劳(徐家汇1号店)","lon":"121.44114","lat":"31.19391","category":"68","category_name":"快餐厅","address":"上海徐汇区华山路1988号(近广元西路)"},{"poiid":"B2094757D06EAAF8409E","title":"好乐迪量贩式KTV(美罗店)","lon":"121.43981","lat":"31.19326","category":"170","category_name":"KTV","address":"上海徐汇区肇嘉浜路1111号美罗城7F"},{"poiid":"B2094757D06FA3FB409E","title":"大众书局(美罗城店)","lon":"121.44048","lat":"31.19427","category":"125","category_name":"书店","address":"徐汇区肇嘉浜路1111号美罗城4楼(近漕溪北路)"},{"poiid":"B2094757D06FA3F4489B","title":"上海六百","lon":"121.44057","lat":"31.19479","category":"119","category_name":"商场","address":"徐汇区肇嘉浜路1068号(近天平路)"},{"poiid":"B2094757D06FABFC4892","title":"天钥桥路","lon":"121.441136","lat":"31.1939","category":"500","category_name":"未知分类","address":"上海天钥桥路"},{"poiid":"B2094757D06FA1FE469F","title":"芋贵人(永新坊店)","lon":"121.441357186","lat":"31.1920914853","category":"67","category_name":"甜品店","address":"徐汇区天钥桥路133号永新坊1楼08A店铺"},{"poiid":"B2094751D26CA3FE449F","title":"大花猫海鲜自助烤涮","lon":"121.441398","lat":"31.192947","category":"247","category_name":"餐饮美食","address":"徐汇区天钥桥路93号3楼(近肇嘉浜路)"},{"poiid":"B2094757D06FA7F8459E","title":"英国屋","lon":"121.4399958","lat":"31.1925024","category":"95","category_name":"日本料理","address":"徐汇区肇嘉浜路1111号美罗城B1楼41号商铺(近漕溪北路)"},{"poiid":"B2094757D06FA2F8469B","title":"振鼎鸡(天钥桥路店)","lon":"121.442273579","lat":"31.1924886735","category":"68","category_name":"快餐厅","address":"徐汇区天钥桥路123号B1楼(近辛耕路)"},{"poiid":"B2094757D06FA1FF469C","title":"甘味黑","lon":"121.43963979","lat":"31.193128962","category":"95","category_name":"日本料理","address":"徐汇区肇嘉浜路1111号美罗城B1楼五番街39号商铺(近漕溪北路)"},{"poiid":"B2094757D068A1FA459E","title":"蛙蟹外传","lon":"121.44201","lat":"31.19065","category":"71","category_name":"四川菜","address":"徐汇区天钥桥路220号(近南丹东路)"},{"poiid":"B2094757D068A2FB499A","title":"Pizzeria Alla Torre(港汇店)","lon":"121.4374","lat":"31.19448","category":"94","category_name":"西餐厅","address":"徐汇区虹桥路1号港汇恒隆广场内街(华山路口)"},{"poiid":"B2094757D06FA0F5429A","title":"仙踪林(天钥桥路店)","lon":"121.442085539","lat":"31.1924057945","category":"260","category_name":"其他","address":"徐汇区天钥桥路123号(近辛耕路)"},{"poiid":"B2094757D06BA7FA429D","title":"上海纳沙泰尔手表服务中心","lon":"121.439790661","lat":"31.1932851008","category":"46","category_name":"楼宇","address":"徐汇区天钥桥路30号美罗大厦409室(近南丹东路)"},{"poiid":"B2094757D06FA0FC429B","title":"圣摩珂咖啡 美罗城店 ST-MARC Cafe","lon":"121.439514","lat":"31.193385","category":"65","category_name":"咖啡厅","address":"肇嘉浜路1111号美罗城B1楼五番街近漕溪北路"},{"poiid":"B2094757D06FABF9499A","title":"白玉兰餐厅","lon":"121.44171","lat":"31.19233","category":"76","category_name":"上海菜","address":"徐汇区天钥桥路98号白玉兰小吃2楼(天钥桥路辛耕路)"},{"poiid":"B2094757D06FABFC4192","title":"上海市第四中学","lon":"121.4418","lat":"31.19218","category":"55","category_name":"中学","address":"徐汇区天钥桥路100号(近辛耕路)"},{"poiid":"B2094757D068A5FA449A","title":"上海早晨(美罗城店)","lon":"121.43966","lat":"31.19309","category":"76","category_name":"上海菜","address":"徐汇区肇嘉浜路1111号美罗城B1楼(近漕溪北路)"},{"poiid":"B2094757D06FA6FC4792","title":"肯德基 KFC (辛耕店)","lon":"121.442148","lat":"31.192253","category":"68","category_name":"快餐厅","address":"徐汇区天钥桥路214号哈尼美食广场(近辛耕路)"},{"poiid":"B2094757D06FA1F5419D","title":"东方既白(美罗店)","lon":"121.44100189","lat":"31.1935997","category":"68","category_name":"快餐厅","address":"徐汇区肇嘉浜路1111号美罗城1楼(近天钥桥路)"},{"poiid":"B2094757D66FA1FE419E","title":"呷铺呷铺","lon":"121.44111858","lat":"31.191994683","category":"247","category_name":"餐饮美食","address":"上海天钥桥路辛耕路"},{"poiid":"B2094757DA6EABF4489B","title":"芯尚造型(天钥桥路店)","lon":"121.441198000003","lat":"31.1930100000002","category":"248","category_name":"生活娱乐","address":"徐汇区天钥桥路86号(近肇嘉浜路)"},{"poiid":"B2094752DB69AAFB4293","title":"花隐怀石料理","lon":"121.439857","lat":"31.193389","category":"247","category_name":"餐饮美食","address":"上海市 美罗城8楼"},{"poiid":"B2094757D06EAAF94899","title":"无印良品MUJI(美罗城店)","lon":"121.43978099","lat":"31.193281064","category":"123","category_name":"家具建材市场","address":"上海徐汇区肇嘉浜路1111号美罗城商厦B1楼11-14号商铺(近漕溪北路)"},{"poiid":"B2094751DA69A4FA429C","title":"VSHOW","lon":"121.441895","lat":"31.192444","category":"248","category_name":"生活娱乐","address":"天钥桥路辛耕路"},{"poiid":"B2094757D06FA5FA4993","title":"L'Atelier Du Chocolat 巧克力工场","lon":"121.43975658","lat":"31.193450711","category":"67","category_name":"甜品店","address":"徐汇区肇嘉浜路1111号美罗城B1楼五番街23单元(近漕溪北路)"},{"poiid":"B2094654DA6DA0FD4493","title":"今一靓汤 天钥桥店","lon":"121.441376054","lat":"31.193075793","category":"72","category_name":"广东菜","address":"徐汇区天钥桥路123号(近辛耕路)"},{"poiid":"B2094654DA6DA0FE4298","title":"美罗城(东门)","lon":"121.44","lat":"31.19329","category":"48","category_name":"楼宇大门","address":""},{"poiid":"B2094655D26AA0FD4699","title":"女仆咖堤 Cafe La Maid","lon":"121.439177054","lat":"31.193197793","category":"260","category_name":"其他","address":"徐汇区漕溪北路339号百脑汇电子商城二期4楼动漫区(近南丹东路)"},{"poiid":"B2094750D36BA6FF4799","title":"上海超极电影世界","lon":"121.43985","lat":"31.19285","category":"178","category_name":"电影院","address":"徐汇区肇嘉浜路1111号美罗城5楼(近漕溪北路)"},{"poiid":"B2094654DB69A7FD439A","title":"鸭王(徐汇店)","lon":"121.44052","lat":"31.19397","category":"260","category_name":"其他","address":"徐汇区天钥桥路20号西亚宾馆2楼(近肇家浜路)"},{"poiid":"B2094655D26AA0FB499A","title":"华尔街英语徐家汇分校","lon":"121.44121","lat":"31.19395","category":"247","category_name":"餐饮美食","address":"徐汇区天钥桥路1号煤科大厦1-3楼(肇嘉浜路口)"},{"poiid":"B209475DD36CA7F44199","title":"花开藤蔓","lon":"121.439933","lat":"31.193895","category":"500","category_name":"未知分类","address":"上海市 天钥桥路93号3楼(近肇嘉浜路)"},{"poiid":"B2094757D06FA5FA4499","title":"招商银行(天钥桥支行)","lon":"121.441210985","lat":"31.1929673477","category":"150","category_name":"银行","address":"徐汇区天钥桥路86-1号(天钥桥路辛耕路)"},{"poiid":"B2094757D06FAAFC4292","title":"汇联商厦","lon":"121.44106","lat":"31.19328","category":"119","category_name":"商场","address":"徐汇区天钥桥路40-90号汇联商厦内(近肇嘉浜路)"},{"poiid":"B2094753D16EAAFF489A","title":"镰仓PASTA(美罗城店)","lon":"121.44026","lat":"31.1929","category":"94","category_name":"西餐厅","address":"徐汇区肇嘉浜路1111号美罗城B1楼(近漕溪北路)"},{"poiid":"B2094757D06FA3F8469B","title":"大一梦薄皮鲷鱼烧(美罗城店)","lon":"121.439857","lat":"31.192863","category":"68","category_name":"快餐厅","address":"徐汇区肇嘉浜路1111号美罗城B1楼B1-1号(近漕溪北路)"},{"poiid":"B2094757D66CA1F84292","title":"交大","lon":"121.441097586","lat":"31.1939997226","category":"500","category_name":"未知分类","address":"上海广元西路"},{"poiid":"B2094654DA6DA0FD439F","title":"山林熟食 天钥桥路店","lon":"121.440920054","lat":"31.192862793","category":"68","category_name":"快餐厅","address":"徐汇区天钥桥路40-90号汇联商厦1楼(近肇嘉浜路)"},{"poiid":"B2094757D06FA0FD489C","title":"优派Upark KTV","lon":"121.44204234","lat":"31.192305189","category":"170","category_name":"KTV","address":"上海徐家汇辛耕路天钥桥路"},{"poiid":"B2094654DB69A7FD429B","title":"大娘水饺 天钥桥路","lon":"121.44101498766","lat":"31.193759194911","category":"68","category_name":"快餐厅","address":"徐汇区天钥桥路57号(近肇嘉浜路)"},{"poiid":"B2094654DA6DA0FC4399","title":"中国银行上海市天钥桥路支行","lon":"121.4413","lat":"31.19281","category":"150","category_name":"银行","address":"上海市徐汇区天钥桥路90号"},{"poiid":"B2094655D26AA5FA409F","title":"快乐柠檬(天钥桥路店)","lon":"121.44194","lat":"31.19242","category":"113","category_name":"冷饮店","address":"徐汇区天钥桥路123号(近辛耕路)"},{"poiid":"B2094655D268A7F5499B","title":"星巴克咖啡美罗店","lon":"121.43962","lat":"31.19356","category":"65","category_name":"咖啡厅","address":"徐汇区肇嘉浜路1111号美罗城2楼219号(近漕溪北路)"},{"poiid":"B2094654DA6DA0FE499E","title":"美罗城","lon":"121.43985","lat":"31.19286","category":"119","category_name":"商场","address":"上海市徐汇区肇嘉浜路1111号"},{"poiid":"B2094757D06EAAFD4193","title":"七叶和茶 nana's green tea","lon":"121.43985","lat":"31.19286","category":"95","category_name":"日本料理","address":"徐汇区肇嘉浜路1111号美罗城B1楼五番街(近漕溪北路)"},{"poiid":"B2094751D565A2F44498","title":"百嘉乐V-Show主题KTV","lon":"121.441818","lat":"31.192683","category":"248","category_name":"生活娱乐","address":"天钥桥路辛耕路"},{"poiid":"B2094757D06FA0F84593","title":"湄公河越南餐厅","lon":"121.43969","lat":"31.19321","category":"99","category_name":"泰国／越南菜品餐厅","address":"徐汇区肇嘉浜路1111号美罗城5楼(近漕溪北路)"},{"poiid":"B2094757D06FA3F5439A","title":"扬歌量贩式KTV(天钥桥路店)","lon":"121.4415","lat":"31.19231","category":"170","category_name":"KTV","address":"徐汇区天钥桥路88号汇联商厦4-5楼(近肇嘉浜路)"},{"poiid":"B2094757D06FA2FE4693","title":"代官山(美罗城店)","lon":"121.439861581","lat":"31.1933496807","category":"260","category_name":"其他","address":"徐汇区肇嘉浜路1111号美罗城4-5楼(近漕溪北路)"},{"poiid":"B2094654DB6BA5F94098","title":"麦当劳(徐家汇1号店)","lon":"121.44114","lat":"31.19391","category":"68","category_name":"快餐厅","address":"上海徐汇区华山路1988号(近广元西路)"},{"poiid":"B2094757D06EAAF8409E","title":"好乐迪量贩式KTV(美罗店)","lon":"121.43981","lat":"31.19326","category":"170","category_name":"KTV","address":"上海徐汇区肇嘉浜路1111号美罗城7F"},{"poiid":"B2094757D06FA3FB409E","title":"大众书局(美罗城店)","lon":"121.44048","lat":"31.19427","category":"125","category_name":"书店","address":"徐汇区肇嘉浜路1111号美罗城4楼(近漕溪北路)"},{"poiid":"B2094757D06FA3F4489B","title":"上海六百","lon":"121.44057","lat":"31.19479","category":"119","category_name":"商场","address":"徐汇区肇嘉浜路1068号(近天平路)"},{"poiid":"B2094757D06FABFC4892","title":"天钥桥路","lon":"121.441136","lat":"31.1939","category":"500","category_name":"未知分类","address":"上海天钥桥路"},{"poiid":"B2094757D06FA1FE469F","title":"芋贵人(永新坊店)","lon":"121.441357186","lat":"31.1920914853","category":"67","category_name":"甜品店","address":"徐汇区天钥桥路133号永新坊1楼08A店铺"},{"poiid":"B2094751D26CA3FE449F","title":"大花猫海鲜自助烤涮","lon":"121.441398","lat":"31.192947","category":"247","category_name":"餐饮美食","address":"徐汇区天钥桥路93号3楼(近肇嘉浜路)"},{"poiid":"B2094757D06FA7F8459E","title":"英国屋","lon":"121.4399958","lat":"31.1925024","category":"95","category_name":"日本料理","address":"徐汇区肇嘉浜路1111号美罗城B1楼41号商铺(近漕溪北路)"},{"poiid":"B2094757D06FA2F8469B","title":"振鼎鸡(天钥桥路店)","lon":"121.442273579","lat":"31.1924886735","category":"68","category_name":"快餐厅","address":"徐汇区天钥桥路123号B1楼(近辛耕路)"},{"poiid":"B2094757D06FA1FF469C","title":"甘味黑","lon":"121.43963979","lat":"31.193128962","category":"95","category_name":"日本料理","address":"徐汇区肇嘉浜路1111号美罗城B1楼五番街39号商铺(近漕溪北路)"},{"poiid":"B2094757D068A1FA459E","title":"蛙蟹外传","lon":"121.44201","lat":"31.19065","category":"71","category_name":"四川菜","address":"徐汇区天钥桥路220号(近南丹东路)"},{"poiid":"B2094757D068A2FB499A","title":"Pizzeria Alla Torre(港汇店)","lon":"121.4374","lat":"31.19448","category":"94","category_name":"西餐厅","address":"徐汇区虹桥路1号港汇恒隆广场内街(华山路口)"},{"poiid":"B2094757D06FA0F5429A","title":"仙踪林(天钥桥路店)","lon":"121.442085539","lat":"31.1924057945","category":"260","category_name":"其他","address":"徐汇区天钥桥路123号(近辛耕路)"},{"poiid":"B2094757D06BA7FA429D","title":"上海纳沙泰尔手表服务中心","lon":"121.439790661","lat":"31.1932851008","category":"46","category_name":"楼宇","address":"徐汇区天钥桥路30号美罗大厦409室(近南丹东路)"},{"poiid":"B2094757D06FA0FC429B","title":"圣摩珂咖啡 美罗城店 ST-MARC Cafe","lon":"121.439514","lat":"31.193385","category":"65","category_name":"咖啡厅","address":"肇嘉浜路1111号美罗城B1楼五番街近漕溪北路"},{"poiid":"B2094757D06FABF9499A","title":"白玉兰餐厅","lon":"121.44171","lat":"31.19233","category":"76","category_name":"上海菜","address":"徐汇区天钥桥路98号白玉兰小吃2楼(天钥桥路辛耕路)"},{"poiid":"B2094757D06FABFC4192","title":"上海市第四中学","lon":"121.4418","lat":"31.19218","category":"55","category_name":"中学","address":"徐汇区天钥桥路100号(近辛耕路)"},{"poiid":"B2094757D068A5FA449A","title":"上海早晨(美罗城店)","lon":"121.43966","lat":"31.19309","category":"76","category_name":"上海菜","address":"徐汇区肇嘉浜路1111号美罗城B1楼(近漕溪北路)"},{"poiid":"B2094757D06FA6FC4792","title":"肯德基 KFC (辛耕店)","lon":"121.442148","lat":"31.192253","category":"68","category_name":"快餐厅","address":"徐汇区天钥桥路214号哈尼美食广场(近辛耕路)"},{"poiid":"B2094757D06FA1F5419D","title":"东方既白(美罗店)","lon":"121.44100189","lat":"31.1935997","category":"68","category_name":"快餐厅","address":"徐汇区肇嘉浜路1111号美罗城1楼(近天钥桥路)"},{"poiid":"B2094757D66FA1FE419E","title":"呷铺呷铺","lon":"121.44111858","lat":"31.191994683","category":"247","category_name":"餐饮美食","address":"上海天钥桥路辛耕路"},{"poiid":"B2094757DA6EABF4489B","title":"芯尚造型(天钥桥路店)","lon":"121.441198000003","lat":"31.1930100000002","category":"248","category_name":"生活娱乐","address":"徐汇区天钥桥路86号(近肇嘉浜路)"},{"poiid":"B2094752DB69AAFB4293","title":"花隐怀石料理","lon":"121.439857","lat":"31.193389","category":"247","category_name":"餐饮美食","address":"上海市 美罗城8楼"},{"poiid":"B2094757D06EAAF94899","title":"无印良品MUJI(美罗城店)","lon":"121.43978099","lat":"31.193281064","category":"123","category_name":"家具建材市场","address":"上海徐汇区肇嘉浜路1111号美罗城商厦B1楼11-14号商铺(近漕溪北路)"},{"poiid":"B2094751DA69A4FA429C","title":"VSHOW","lon":"121.441895","lat":"31.192444","category":"248","category_name":"生活娱乐","address":"天钥桥路辛耕路"},{"poiid":"B2094757D06FA5FA4993","title":"L'Atelier Du Chocolat 巧克力工场","lon":"121.43975658","lat":"31.193450711","category":"67","category_name":"甜品店","address":"徐汇区肇嘉浜路1111号美罗城B1楼五番街23单元(近漕溪北路)"},{"poiid":"B2094654DA6DA0FD4493","title":"今一靓汤 天钥桥店","lon":"121.441376054","lat":"31.193075793","category":"72","category_name":"广东菜","address":"徐汇区天钥桥路123号(近辛耕路)"},{"poiid":"B2094654DA6DA0FE4298","title":"美罗城(东门)","lon":"121.44","lat":"31.19329","category":"48","category_name":"楼宇大门","address":""},{"poiid":"B2094655D26AA0FD4699","title":"女仆咖堤 Cafe La Maid","lon":"121.439177054","lat":"31.193197793","category":"260","category_name":"其他","address":"徐汇区漕溪北路339号百脑汇电子商城二期4楼动漫区(近南丹东路)"},{"poiid":"B2094750D36BA6FF4799","title":"上海超极电影世界","lon":"121.43985","lat":"31.19285","category":"178","category_name":"电影院","address":"徐汇区肇嘉浜路1111号美罗城5楼(近漕溪北路)"},{"poiid":"B2094654DB69A7FD439A","title":"鸭王(徐汇店)","lon":"121.44052","lat":"31.19397","category":"260","category_name":"其他","address":"徐汇区天钥桥路20号西亚宾馆2楼(近肇家浜路)"},{"poiid":"B2094655D26AA0FB499A","title":"华尔街英语徐家汇分校","lon":"121.44121","lat":"31.19395","category":"247","category_name":"餐饮美食","address":"徐汇区天钥桥路1号煤科大厦1-3楼(肇嘉浜路口)"},{"poiid":"B209475DD36CA7F44199","title":"花开藤蔓","lon":"121.439933","lat":"31.193895","category":"500","category_name":"未知分类","address":"上海市 天钥桥路93号3楼(近肇嘉浜路)"},{"poiid":"B2094757D06FA5FA4499","title":"招商银行(天钥桥支行)","lon":"121.441210985","lat":"31.1929673477","category":"150","category_name":"银行","address":"徐汇区天钥桥路86-1号(天钥桥路辛耕路)"},{"poiid":"B2094757D06FAAFC4292","title":"汇联商厦","lon":"121.44106","lat":"31.19328","category":"119","category_name":"商场","address":"徐汇区天钥桥路40-90号汇联商厦内(近肇嘉浜路)"},{"poiid":"B2094753D16EAAFF489A","title":"镰仓PASTA(美罗城店)","lon":"121.44026","lat":"31.1929","category":"94","category_name":"西餐厅","address":"徐汇区肇嘉浜路1111号美罗城B1楼(近漕溪北路)"},{"poiid":"B2094757D06FA3F8469B","title":"大一梦薄皮鲷鱼烧(美罗城店)","lon":"121.439857","lat":"31.192863","category":"68","category_name":"快餐厅","address":"徐汇区肇嘉浜路1111号美罗城B1楼B1-1号(近漕溪北路)"},{"poiid":"B2094757D66CA1F84292","title":"交大","lon":"121.441097586","lat":"31.1939997226","category":"500","category_name":"未知分类","address":"上海广元西路"},{"poiid":"B2094654DA6DA0FD439F","title":"山林熟食 天钥桥路店","lon":"121.440920054","lat":"31.192862793","category":"68","category_name":"快餐厅","address":"徐汇区天钥桥路40-90号汇联商厦1楼(近肇嘉浜路)"},{"poiid":"B2094757D06FA0FD489C","title":"优派Upark KTV","lon":"121.44204234","lat":"31.192305189","category":"170","category_name":"KTV","address":"上海徐家汇辛耕路天钥桥路"},{"poiid":"B2094654DB69A7FD429B","title":"大娘水饺 天钥桥路","lon":"121.44101498766","lat":"31.193759194911","category":"68","category_name":"快餐厅","address":"徐汇区天钥桥路57号(近肇嘉浜路)"},{"poiid":"B2094654DA6DA0FC4399","title":"中国银行上海市天钥桥路支行","lon":"121.4413","lat":"31.19281","category":"150","category_name":"银行","address":"上海市徐汇区天钥桥路90号"},{"poiid":"B2094655D26AA5FA409F","title":"快乐柠檬(天钥桥路店)","lon":"121.44194","lat":"31.19242","category":"113","category_name":"冷饮店","address":"徐汇区天钥桥路123号(近辛耕路)"},{"poiid":"B2094655D268A7F5499B","title":"星巴克咖啡美罗店","lon":"121.43962","lat":"31.19356","category":"65","category_name":"咖啡厅","address":"徐汇区肇嘉浜路1111号美罗城2楼219号(近漕溪北路)"},{"poiid":"B2094654DA6DA0FE499E","title":"美罗城","lon":"121.43985","lat":"31.19286","category":"119","category_name":"商场","address":"上海市徐汇区肇嘉浜路1111号"},{"poiid":"B2094757D06EAAFD4193","title":"七叶和茶 nana's green tea","lon":"121.43985","lat":"31.19286","category":"95","category_name":"日本料理","address":"徐汇区肇嘉浜路1111号美罗城B1楼五番街(近漕溪北路)"},{"poiid":"B2094751D565A2F44498","title":"百嘉乐V-Show主题KTV","lon":"121.441818","lat":"31.192683","category":"248","category_name":"生活娱乐","address":"天钥桥路辛耕路"},{"poiid":"B2094757D06FA0F84593","title":"湄公河越南餐厅","lon":"121.43969","lat":"31.19321","category":"99","category_name":"泰国／越南菜品餐厅","address":"徐汇区肇嘉浜路1111号美罗城5楼(近漕溪北路)"},{"poiid":"B2094757D06FA3F5439A","title":"扬歌量贩式KTV(天钥桥路店)","lon":"121.4415","lat":"31.19231","category":"170","category_name":"KTV","address":"徐汇区天钥桥路88号汇联商厦4-5楼(近肇嘉浜路)"},{"poiid":"B2094757D06FA2FE4693","title":"代官山(美罗城店)","lon":"121.439861581","lat":"31.1933496807","category":"260","category_name":"其他","address":"徐汇区肇嘉浜路1111号美罗城4-5楼(近漕溪北路)"},{"poiid":"B2094654DB6BA5F94098","title":"麦当劳(徐家汇1号店)","lon":"121.44114","lat":"31.19391","category":"68","category_name":"快餐厅","address":"上海徐汇区华山路1988号(近广元西路)"},{"poiid":"B2094757D06EAAF8409E","title":"好乐迪量贩式KTV(美罗店)","lon":"121.43981","lat":"31.19326","category":"170","category_name":"KTV","address":"上海徐汇区肇嘉浜路1111号美罗城7F"},{"poiid":"B2094757D06FA3FB409E","title":"大众书局(美罗城店)","lon":"121.44048","lat":"31.19427","category":"125","category_name":"书店","address":"徐汇区肇嘉浜路1111号美罗城4楼(近漕溪北路)"},{"poiid":"B2094757D06FA3F4489B","title":"上海六百","lon":"121.44057","lat":"31.19479","category":"119","category_name":"商场","address":"徐汇区肇嘉浜路1068号(近天平路)"},{"poiid":"B2094757D06FABFC4892","title":"天钥桥路","lon":"121.441136","lat":"31.1939","category":"500","category_name":"未知分类","address":"上海天钥桥路"},{"poiid":"B2094757D06FA1FE469F","title":"芋贵人(永新坊店)","lon":"121.441357186","lat":"31.1920914853","category":"67","category_name":"甜品店","address":"徐汇区天钥桥路133号永新坊1楼08A店铺"},{"poiid":"B2094751D26CA3FE449F","title":"大花猫海鲜自助烤涮","lon":"121.441398","lat":"31.192947","category":"247","category_name":"餐饮美食","address":"徐汇区天钥桥路93号3楼(近肇嘉浜路)"},{"poiid":"B2094757D06FA7F8459E","title":"英国屋","lon":"121.4399958","lat":"31.1925024","category":"95","category_name":"日本料理","address":"徐汇区肇嘉浜路1111号美罗城B1楼41号商铺(近漕溪北路)"},{"poiid":"B2094757D06FA2F8469B","title":"振鼎鸡(天钥桥路店)","lon":"121.442273579","lat":"31.1924886735","category":"68","category_name":"快餐厅","address":"徐汇区天钥桥路123号B1楼(近辛耕路)"},{"poiid":"B2094757D06FA1FF469C","title":"甘味黑","lon":"121.43963979","lat":"31.193128962","category":"95","category_name":"日本料理","address":"徐汇区肇嘉浜路1111号美罗城B1楼五番街39号商铺(近漕溪北路)"},{"poiid":"B2094757D068A1FA459E","title":"蛙蟹外传","lon":"121.44201","lat":"31.19065","category":"71","category_name":"四川菜","address":"徐汇区天钥桥路220号(近南丹东路)"},{"poiid":"B2094757D068A2FB499A","title":"Pizzeria Alla Torre(港汇店)","lon":"121.4374","lat":"31.19448","category":"94","category_name":"西餐厅","address":"徐汇区虹桥路1号港汇恒隆广场内街(华山路口)"},{"poiid":"B2094757D06FA0F5429A","title":"仙踪林(天钥桥路店)","lon":"121.442085539","lat":"31.1924057945","category":"260","category_name":"其他","address":"徐汇区天钥桥路123号(近辛耕路)"},{"poiid":"B2094757D06BA7FA429D","title":"上海纳沙泰尔手表服务中心","lon":"121.439790661","lat":"31.1932851008","category":"46","category_name":"楼宇","address":"徐汇区天钥桥路30号美罗大厦409室(近南丹东路)"},{"poiid":"B2094757D06FA0FC429B","title":"圣摩珂咖啡 美罗城店 ST-MARC Cafe","lon":"121.439514","lat":"31.193385","category":"65","category_name":"咖啡厅","address":"肇嘉浜路1111号美罗城B1楼五番街近漕溪北路"},{"poiid":"B2094757D06FABF9499A","title":"白玉兰餐厅","lon":"121.44171","lat":"31.19233","category":"76","category_name":"上海菜","address":"徐汇区天钥桥路98号白玉兰小吃2楼(天钥桥路辛耕路)"},{"poiid":"B2094757D06FABFC4192","title":"上海市第四中学","lon":"121.4418","lat":"31.19218","category":"55","category_name":"中学","address":"徐汇区天钥桥路100号(近辛耕路)"},{"poiid":"B2094757D068A5FA449A","title":"上海早晨(美罗城店)","lon":"121.43966","lat":"31.19309","category":"76","category_name":"上海菜","address":"徐汇区肇嘉浜路1111号美罗城B1楼(近漕溪北路)"},{"poiid":"B2094757D06FA6FC4792","title":"肯德基 KFC (辛耕店)","lon":"121.442148","lat":"31.192253","category":"68","category_name":"快餐厅","address":"徐汇区天钥桥路214号哈尼美食广场(近辛耕路)"},{"poiid":"B2094757D06FA1F5419D","title":"东方既白(美罗店)","lon":"121.44100189","lat":"31.1935997","category":"68","category_name":"快餐厅","address":"徐汇区肇嘉浜路1111号美罗城1楼(近天钥桥路)"},{"poiid":"B2094757D66FA1FE419E","title":"呷铺呷铺","lon":"121.44111858","lat":"31.191994683","category":"247","category_name":"餐饮美食","address":"上海天钥桥路辛耕路"},{"poiid":"B2094757DA6EABF4489B","title":"芯尚造型(天钥桥路店)","lon":"121.441198000003","lat":"31.1930100000002","category":"248","category_name":"生活娱乐","address":"徐汇区天钥桥路86号(近肇嘉浜路)"},{"poiid":"B2094752DB69AAFB4293","title":"花隐怀石料理","lon":"121.439857","lat":"31.193389","category":"247","category_name":"餐饮美食","address":"上海市 美罗城8楼"},{"poiid":"B2094757D06EAAF94899","title":"无印良品MUJI(美罗城店)","lon":"121.43978099","lat":"31.193281064","category":"123","category_name":"家具建材市场","address":"上海徐汇区肇嘉浜路1111号美罗城商厦B1楼11-14号商铺(近漕溪北路)"},{"poiid":"B2094751DA69A4FA429C","title":"VSHOW","lon":"121.441895","lat":"31.192444","category":"248","category_name":"生活娱乐","address":"天钥桥路辛耕路"},{"poiid":"B2094757D06FA5FA4993","title":"L'Atelier Du Chocolat 巧克力工场","lon":"121.43975658","lat":"31.193450711","category":"67","category_name":"甜品店","address":"徐汇区肇嘉浜路1111号美罗城B1楼五番街23单元(近漕溪北路)"},{"poiid":"B2094654DA6DA0FD4493","title":"今一靓汤 天钥桥店","lon":"121.441376054","lat":"31.193075793","category":"72","category_name":"广东菜","address":"徐汇区天钥桥路123号(近辛耕路)"},{"poiid":"B2094654DA6DA0FE4298","title":"美罗城(东门)","lon":"121.44","lat":"31.19329","category":"48","category_name":"楼宇大门","address":""},{"poiid":"B2094655D26AA0FD4699","title":"女仆咖堤 Cafe La Maid","lon":"121.439177054","lat":"31.193197793","category":"260","category_name":"其他","address":"徐汇区漕溪北路339号百脑汇电子商城二期4楼动漫区(近南丹东路)"},{"poiid":"B2094750D36BA6FF4799","title":"上海超极电影世界","lon":"121.43985","lat":"31.19285","category":"178","category_name":"电影院","address":"徐汇区肇嘉浜路1111号美罗城5楼(近漕溪北路)"},{"poiid":"B2094654DB69A7FD439A","title":"鸭王(徐汇店)","lon":"121.44052","lat":"31.19397","category":"260","category_name":"其他","address":"徐汇区天钥桥路20号西亚宾馆2楼(近肇家浜路)"},{"poiid":"B2094655D26AA0FB499A","title":"华尔街英语徐家汇分校","lon":"121.44121","lat":"31.19395","category":"247","category_name":"餐饮美食","address":"徐汇区天钥桥路1号煤科大厦1-3楼(肇嘉浜路口)"},{"poiid":"B209475DD36CA7F44199","title":"花开藤蔓","lon":"121.439933","lat":"31.193895","category":"500","category_name":"未知分类","address":"上海市 天钥桥路93号3楼(近肇嘉浜路)"},{"poiid":"B2094757D06FA5FA4499","title":"招商银行(天钥桥支行)","lon":"121.441210985","lat":"31.1929673477","category":"150","category_name":"银行","address":"徐汇区天钥桥路86-1号(天钥桥路辛耕路)"},{"poiid":"B2094757D06FAAFC4292","title":"汇联商厦","lon":"121.44106","lat":"31.19328","category":"119","category_name":"商场","address":"徐汇区天钥桥路40-90号汇联商厦内(近肇嘉浜路)"},{"poiid":"B2094753D16EAAFF489A","title":"镰仓PASTA(美罗城店)","lon":"121.44026","lat":"31.1929","category":"94","category_name":"西餐厅","address":"徐汇区肇嘉浜路1111号美罗城B1楼(近漕溪北路)"},{"poiid":"B2094757D06FA3F8469B","title":"大一梦薄皮鲷鱼烧(美罗城店)","lon":"121.439857","lat":"31.192863","category":"68","category_name":"快餐厅","address":"徐汇区肇嘉浜路1111号美罗城B1楼B1-1号(近漕溪北路)"},{"poiid":"B2094757D66CA1F84292","title":"交大","lon":"121.441097586","lat":"31.1939997226","category":"500","category_name":"未知分类","address":"上海广元西路"},{"poiid":"B2094654DA6DA0FD439F","title":"山林熟食 天钥桥路店","lon":"121.440920054","lat":"31.192862793","category":"68","category_name":"快餐厅","address":"徐汇区天钥桥路40-90号汇联商厦1楼(近肇嘉浜路)"},{"poiid":"B2094757D06FA0FD489C","title":"优派Upark KTV","lon":"121.44204234","lat":"31.192305189","category":"170","category_name":"KTV","address":"上海徐家汇辛耕路天钥桥路"},{"poiid":"B2094654DB69A7FD429B","title":"大娘水饺 天钥桥路","lon":"121.44101498766","lat":"31.193759194911","category":"68","category_name":"快餐厅","address":"徐汇区天钥桥路57号(近肇嘉浜路)"},{"poiid":"B2094654DA6DA0FC4399","title":"中国银行上海市天钥桥路支行","lon":"121.4413","lat":"31.19281","category":"150","category_name":"银行","address":"上海市徐汇区天钥桥路90号"},{"poiid":"B2094655D26AA5FA409F","title":"快乐柠檬(天钥桥路店)","lon":"121.44194","lat":"31.19242","category":"113","category_name":"冷饮店","address":"徐汇区天钥桥路123号(近辛耕路)"},{"poiid":"B2094655D268A7F5499B","title":"星巴克咖啡美罗店","lon":"121.43962","lat":"31.19356","category":"65","category_name":"咖啡厅","address":"徐汇区肇嘉浜路1111号美罗城2楼219号(近漕溪北路)"},{"poiid":"B2094654DA6DA0FE499E","title":"美罗城","lon":"121.43985","lat":"31.19286","category":"119","category_name":"商场","address":"上海市徐汇区肇嘉浜路1111号"},{"poiid":"B2094757D06EAAFD4193","title":"七叶和茶 nana's green tea","lon":"121.43985","lat":"31.19286","category":"95","category_name":"日本料理","address":"徐汇区肇嘉浜路1111号美罗城B1楼五番街(近漕溪北路)"},{"poiid":"B2094751D565A2F44498","title":"百嘉乐V-Show主题KTV","lon":"121.441818","lat":"31.192683","category":"248","category_name":"生活娱乐","address":"天钥桥路辛耕路"},{"poiid":"B2094757D06FA0F84593","title":"湄公河越南餐厅","lon":"121.43969","lat":"31.19321","category":"99","category_name":"泰国／越南菜品餐厅","address":"徐汇区肇嘉浜路1111号美罗城5楼(近漕溪北路)"},{"poiid":"B2094757D06FA3F5439A","title":"扬歌量贩式KTV(天钥桥路店)","lon":"121.4415","lat":"31.19231","category":"170","category_name":"KTV","address":"徐汇区天钥桥路88号汇联商厦4-5楼(近肇嘉浜路)"},{"poiid":"B2094757D06FA2FE4693","title":"代官山(美罗城店)","lon":"121.439861581","lat":"31.1933496807","category":"260","category_name":"其他","address":"徐汇区肇嘉浜路1111号美罗城4-5楼(近漕溪北路)"},{"poiid":"B2094654DB6BA5F94098","title":"麦当劳(徐家汇1号店)","lon":"121.44114","lat":"31.19391","category":"68","category_name":"快餐厅","address":"上海徐汇区华山路1988号(近广元西路)"},{"poiid":"B2094757D06EAAF8409E","title":"好乐迪量贩式KTV(美罗店)","lon":"121.43981","lat":"31.19326","category":"170","category_name":"KTV","address":"上海徐汇区肇嘉浜路1111号美罗城7F"},{"poiid":"B2094757D06FA3FB409E","title":"大众书局(美罗城店)","lon":"121.44048","lat":"31.19427","category":"125","category_name":"书店","address":"徐汇区肇嘉浜路1111号美罗城4楼(近漕溪北路)"},{"poiid":"B2094757D06FA3F4489B","title":"上海六百","lon":"121.44057","lat":"31.19479","category":"119","category_name":"商场","address":"徐汇区肇嘉浜路1068号(近天平路)"},{"poiid":"B2094757D06FABFC4892","title":"天钥桥路","lon":"121.441136","lat":"31.1939","category":"500","category_name":"未知分类","address":"上海天钥桥路"},{"poiid":"B2094757D06FA1FE469F","title":"芋贵人(永新坊店)","lon":"121.441357186","lat":"31.1920914853","category":"67","category_name":"甜品店","address":"徐汇区天钥桥路133号永新坊1楼08A店铺"},{"poiid":"B2094751D26CA3FE449F","title":"大花猫海鲜自助烤涮","lon":"121.441398","lat":"31.192947","category":"247","category_name":"餐饮美食","address":"徐汇区天钥桥路93号3楼(近肇嘉浜路)"},{"poiid":"B2094757D06FA7F8459E","title":"英国屋","lon":"121.4399958","lat":"31.1925024","category":"95","category_name":"日本料理","address":"徐汇区肇嘉浜路1111号美罗城B1楼41号商铺(近漕溪北路)"},{"poiid":"B2094757D06FA2F8469B","title":"振鼎鸡(天钥桥路店)","lon":"121.442273579","lat":"31.1924886735","category":"68","category_name":"快餐厅","address":"徐汇区天钥桥路123号B1楼(近辛耕路)"},{"poiid":"B2094757D06FA1FF469C","title":"甘味黑","lon":"121.43963979","lat":"31.193128962","category":"95","category_name":"日本料理","address":"徐汇区肇嘉浜路1111号美罗城B1楼五番街39号商铺(近漕溪北路)"},{"poiid":"B2094757D068A1FA459E","title":"蛙蟹外传","lon":"121.44201","lat":"31.19065","category":"71","category_name":"四川菜","address":"徐汇区天钥桥路220号(近南丹东路)"},{"poiid":"B2094757D068A2FB499A","title":"Pizzeria Alla Torre(港汇店)","lon":"121.4374","lat":"31.19448","category":"94","category_name":"西餐厅","address":"徐汇区虹桥路1号港汇恒隆广场内街(华山路口)"},{"poiid":"B2094757D06FA0F5429A","title":"仙踪林(天钥桥路店)","lon":"121.442085539","lat":"31.1924057945","category":"260","category_name":"其他","address":"徐汇区天钥桥路123号(近辛耕路)"},{"poiid":"B2094757D06BA7FA429D","title":"上海纳沙泰尔手表服务中心","lon":"121.439790661","lat":"31.1932851008","category":"46","category_name":"楼宇","address":"徐汇区天钥桥路30号美罗大厦409室(近南丹东路)"},{"poiid":"B2094757D06FA0FC429B","title":"圣摩珂咖啡 美罗城店 ST-MARC Cafe","lon":"121.439514","lat":"31.193385","category":"65","category_name":"咖啡厅","address":"肇嘉浜路1111号美罗城B1楼五番街近漕溪北路"},{"poiid":"B2094757D06FABF9499A","title":"白玉兰餐厅","lon":"121.44171","lat":"31.19233","category":"76","category_name":"上海菜","address":"徐汇区天钥桥路98号白玉兰小吃2楼(天钥桥路辛耕路)"},{"poiid":"B2094757D06FABFC4192","title":"上海市第四中学","lon":"121.4418","lat":"31.19218","category":"55","category_name":"中学","address":"徐汇区天钥桥路100号(近辛耕路)"},{"poiid":"B2094757D068A5FA449A","title":"上海早晨(美罗城店)","lon":"121.43966","lat":"31.19309","category":"76","category_name":"上海菜","address":"徐汇区肇嘉浜路1111号美罗城B1楼(近漕溪北路)"},{"poiid":"B2094757D06FA6FC4792","title":"肯德基 KFC (辛耕店)","lon":"121.442148","lat":"31.192253","category":"68","category_name":"快餐厅","address":"徐汇区天钥桥路214号哈尼美食广场(近辛耕路)"},{"poiid":"B2094757D06FA1F5419D","title":"东方既白(美罗店)","lon":"121.44100189","lat":"31.1935997","category":"68","category_name":"快餐厅","address":"徐汇区肇嘉浜路1111号美罗城1楼(近天钥桥路)"},{"poiid":"B2094757D66FA1FE419E","title":"呷铺呷铺","lon":"121.44111858","lat":"31.191994683","category":"247","category_name":"餐饮美食","address":"上海天钥桥路辛耕路"},{"poiid":"B2094757DA6EABF4489B","title":"芯尚造型(天钥桥路店)","lon":"121.441198000003","lat":"31.1930100000002","category":"248","category_name":"生活娱乐","address":"徐汇区天钥桥路86号(近肇嘉浜路)"},{"poiid":"B2094752DB69AAFB4293","title":"花隐怀石料理","lon":"121.439857","lat":"31.193389","category":"247","category_name":"餐饮美食","address":"上海市 美罗城8楼"},{"poiid":"B2094757D06EAAF94899","title":"无印良品MUJI(美罗城店)","lon":"121.43978099","lat":"31.193281064","category":"123","category_name":"家具建材市场","address":"上海徐汇区肇嘉浜路1111号美罗城商厦B1楼11-14号商铺(近漕溪北路)"},{"poiid":"B2094751DA69A4FA429C","title":"VSHOW","lon":"121.441895","lat":"31.192444","category":"248","category_name":"生活娱乐","address":"天钥桥路辛耕路"},{"poiid":"B2094757D06FA5FA4993","title":"L'Atelier Du Chocolat 巧克力工场","lon":"121.43975658","lat":"31.193450711","category":"67","category_name":"甜品店","address":"徐汇区肇嘉浜路1111号美罗城B1楼五番街23单元(近漕溪北路)"},{"poiid":"B2094654DA6DA0FD4493","title":"今一靓汤 天钥桥店","lon":"121.441376054","lat":"31.193075793","category":"72","category_name":"广东菜","address":"徐汇区天钥桥路123号(近辛耕路)"},{"poiid":"B2094654DA6DA0FE4298","title":"美罗城(东门)","lon":"121.44","lat":"31.19329","category":"48","category_name":"楼宇大门","address":""},{"poiid":"B2094655D26AA0FD4699","title":"女仆咖堤 Cafe La Maid","lon":"121.439177054","lat":"31.193197793","category":"260","category_name":"其他","address":"徐汇区漕溪北路339号百脑汇电子商城二期4楼动漫区(近南丹东路)"},{"poiid":"B2094750D36BA6FF4799","title":"上海超极电影世界","lon":"121.43985","lat":"31.19285","category":"178","category_name":"电影院","address":"徐汇区肇嘉浜路1111号美罗城5楼(近漕溪北路)"},{"poiid":"B2094654DB69A7FD439A","title":"鸭王(徐汇店)","lon":"121.44052","lat":"31.19397","category":"260","category_name":"其他","address":"徐汇区天钥桥路20号西亚宾馆2楼(近肇家浜路)"},{"poiid":"B2094655D26AA0FB499A","title":"华尔街英语徐家汇分校","lon":"121.44121","lat":"31.19395","category":"247","category_name":"餐饮美食","address":"徐汇区天钥桥路1号煤科大厦1-3楼(肇嘉浜路口)"},{"poiid":"B209475DD36CA7F44199","title":"花开藤蔓","lon":"121.439933","lat":"31.193895","category":"500","category_name":"未知分类","address":"上海市 天钥桥路93号3楼(近肇嘉浜路)"},{"poiid":"B2094757D06FA5FA4499","title":"招商银行(天钥桥支行)","lon":"121.441210985","lat":"31.1929673477","category":"150","category_name":"银行","address":"徐汇区天钥桥路86-1号(天钥桥路辛耕路)"},{"poiid":"B2094757D06FAAFC4292","title":"汇联商厦","lon":"121.44106","lat":"31.19328","category":"119","category_name":"商场","address":"徐汇区天钥桥路40-90号汇联商厦内(近肇嘉浜路)"},{"poiid":"B2094753D16EAAFF489A","title":"镰仓PASTA(美罗城店)","lon":"121.44026","lat":"31.1929","category":"94","category_name":"西餐厅","address":"徐汇区肇嘉浜路1111号美罗城B1楼(近漕溪北路)"},{"poiid":"B2094757D06FA3F8469B","title":"大一梦薄皮鲷鱼烧(美罗城店)","lon":"121.439857","lat":"31.192863","category":"68","category_name":"快餐厅","address":"徐汇区肇嘉浜路1111号美罗城B1楼B1-1号(近漕溪北路)"},{"poiid":"B2094757D66CA1F84292","title":"交大","lon":"121.441097586","lat":"31.1939997226","category":"500","category_name":"未知分类","address":"上海广元西路"},{"poiid":"B2094654DA6DA0FD439F","title":"山林熟食 天钥桥路店","lon":"121.440920054","lat":"31.192862793","category":"68","category_name":"快餐厅","address":"徐汇区天钥桥路40-90号汇联商厦1楼(近肇嘉浜路)"},{"poiid":"B2094757D06FA0FD489C","title":"优派Upark KTV","lon":"121.44204234","lat":"31.192305189","category":"170","category_name":"KTV","address":"上海徐家汇辛耕路天钥桥路"},{"poiid":"B2094654DB69A7FD429B","title":"大娘水饺 天钥桥路","lon":"121.44101498766","lat":"31.193759194911","category":"68","category_name":"快餐厅","address":"徐汇区天钥桥路57号(近肇嘉浜路)"},{"poiid":"B2094654DA6DA0FC4399","title":"中国银行上海市天钥桥路支行","lon":"121.4413","lat":"31.19281","category":"150","category_name":"银行","address":"上海市徐汇区天钥桥路90号"},{"poiid":"B2094655D26AA5FA409F","title":"快乐柠檬(天钥桥路店)","lon":"121.44194","lat":"31.19242","category":"113","category_name":"冷饮店","address":"徐汇区天钥桥路123号(近辛耕路)"}]