[{"poiid":"B2094655D26AA0FD489C","title":"威斯汀大饭店","lon":"121.48682","lat":"31.23242","category":"213","category_name":"五星级宾馆","address":"上海市黄浦区河南中路88号(近广东路)"},{"poiid":"B2094757D06EAAFB459E","title":"新旺茶餐厅(汉口路店)","lon":"121.48448","lat":"31.23519","category":"72","category_name":"广东菜","address":"黄浦区汉口路309号(山东中路口)"},{"poiid":"B2094757D06FA2FE449F","title":"名人购物中心","lon":"121.484624738","lat":"31.235713417","category":"119","category_name":"商场","address":"上海黄浦区南京东路300号(近河南中路)"},{"poiid":"B2094753D76FAAFA449C","title":"上海滩国泰旗舰店","lon":"121.466011","lat":"31.216125","category":"249","category_name":"购物服务","address":"淮海中路868号"},{"poiid":"B209475CD564A7F84292","title":"上海滩新天地店","lon":"121.47463","lat":"31.22164","category":"119","category_name":"商场","address":"\"太仓路181弄新天地北里15号\r\n\""},{"poiid":"B209475CD564A7F8439E","title":"上海滩中信泰富店","lon":"121.45602","lat":"31.22851","category":"119","category_name":"商场","address":"\"南京西路1168号中信泰富广场，店铺号221.\r\n\""},{"poiid":"B209475CD564A7F84392","title":"上海滩浦东香格里拉店","lon":"121.50058","lat":"31.23634","category":"119","category_name":"商场","address":"浦东富成路33号香格里拉酒店内大堂层"},{"poiid":"B2094655D26AABFB419E","title":"M1NT","lon":"121.48417","lat":"31.23492","category":"260","category_name":"其他","address":"黄浦区福州路318号高腾大厦24楼(近山东中路)"},{"poiid":"B2094757D06EAAFB419F","title":"仁济医院(西部)","lon":"121.48445382","lat":"31.233387977","category":"162","category_name":"医院","address":"黄浦区山东中路145号(近福州路)"},{"poiid":"B2094654DA6FABF9429D","title":"港陆广场","lon":"121.485","lat":"31.2353","category":"46","category_name":"楼宇","address":"黄浦区西藏中路18号(近延安东路)"},{"poiid":"B2094757DA6FA1FC489E","title":"南京路","lon":"121.48612976074219","lat":"31.23181184772342","category":"248","category_name":"生活娱乐","address":"上海 上海市 上海市南京路"},{"poiid":"B2094654DA6FAAFD499A","title":"港泰广场","lon":"121.486","lat":"31.2358","category":"46","category_name":"楼宇","address":"延安东路700号"},{"poiid":"B2094757D068A1F94693","title":"中福世福汇大酒店","lon":"121.48475","lat":"31.23242","category":"217","category_name":"旅馆招待所","address":"黄浦区广东路339号(山东中路口)"},{"poiid":"B2094757D06EAAFB499F","title":"星巴克(外滩中心店)","lon":"121.486469","lat":"31.231952","category":"260","category_name":"其他","address":"黄浦区延安东路222号1楼(近江西南路)"},{"poiid":"B2094654DB6AA0F5429E","title":"威斯汀舞台餐厅","lon":"121.48682","lat":"31.23242","category":"268","category_name":"自助","address":"黄浦区河南中路88号上海威斯汀大饭店1楼(近广东路)"},{"poiid":"B2094757D06FABFF479B","title":"新城饭店","lon":"121.4878","lat":"31.23495","category":"216","category_name":"经济型连锁酒店","address":"黄浦区江西中路180号(近福州路)"},{"poiid":"B2094655D26DA3FE419B","title":"上海外滩花园酒店(南门)","lon":"121.48571","lat":"31.2361","category":"250","category_name":"公园户外","address":"上海市黄浦区汉口路200号（河南中路路口）"},{"poiid":"B2094654DA6FA5F4489B","title":"高腾大厦","lon":"121.48427","lat":"31.23464","category":"46","category_name":"楼宇","address":"越秀区环市东路362-366号"},{"poiid":"B2094757D069A5F5479A","title":"mint club","lon":"121.48444573","lat":"31.234723395","category":"500","category_name":"未知分类","address":"上海市福州路高腾大厦"},{"poiid":"B2094750DA68A2F5409D","title":"上海外滩中心威斯汀大饭店","lon":"121.484069","lat":"31.234144","category":"251","category_name":"出行住宿","address":null},{"poiid":"B2094757D16BABFD4593","title":"麦当劳","lon":"121.48739973","lat":"31.235250407","category":"500","category_name":"未知分类","address":"上海市黄浦区南京路步行街"},{"poiid":"B2094757D06FA1F8419C","title":"楚楚园馅饼粥(汉口路店)","lon":"121.48438","lat":"31.23524","category":"68","category_name":"快餐厅","address":"黄浦区汉口路309号(近山东中路)"},{"poiid":"B2094655D264A1F54099","title":"汉庭快捷酒店(上海南京东路店)","lon":"121.48452","lat":"31.235","category":"216","category_name":"经济型连锁酒店","address":"上海市黄浦区山东中路230号(近南京东路)"},{"poiid":"B2094757D06FA6F9459A","title":"米氏西餐厅","lon":"121.48839983","lat":"31.235365447","category":"94","category_name":"西餐厅","address":"黄浦区广东路20号外滩5号7楼(近中山东一路)"},{"poiid":"B2094757D06FAAF84399","title":"申鑫大厦","lon":"121.488143","lat":"31.234771","category":"46","category_name":"楼宇","address":"上海市黄浦区宁海东路200号(北依南京路,南临淮海路)"},{"poiid":"B2094757D06FAAFE449F","title":"Citta'享咖(福州路店)","lon":"121.48456","lat":"31.23418","category":"260","category_name":"其他","address":"黄浦区福州路318号102C(近山东中路)"},{"poiid":"B2094655D26EA6FA429E","title":"威斯汀钻石宴会厅","lon":"121.48682","lat":"31.23242","category":"260","category_name":"其他","address":"黄浦区河南中路88号威斯汀大饭店3楼(近广东路)"},{"poiid":"B2094757D065AAFC469E","title":"外滩私房菜","lon":"121.48534973","lat":"31.234815397","category":"76","category_name":"上海菜","address":"黄浦区河南中路256号(近福州路)"},{"poiid":"B2094654DA6FABFA489F","title":"上海第二医科大学附属仁济医院","lon":"121.48449","lat":"31.23353","category":"162","category_name":"医院","address":"山东中路145"},{"poiid":"B2094757D06AA5FA4993","title":"华东建筑设计研究院有限公司","lon":"121.487157492","lat":"31.2361457026","category":"46","category_name":"楼宇","address":"上海市黄浦区汉口路151号"},{"poiid":"B2094757D068A3FB469A","title":"交通银行上海市分行","lon":"121.487329","lat":"31.235579","category":"46","category_name":"楼宇","address":"上海黄浦区江西中路200号"},{"poiid":"B2094655D26CAAFC419A","title":"如家酒店(外滩中心店)","lon":"121.48662","lat":"31.23375","category":"216","category_name":"经济型连锁酒店","address":"上海市黄浦区江西中路135弄11号(泗泾路26弄内)"},{"poiid":"B2094654DA6EA6FA4898","title":"汇通大厦","lon":"121.488","lat":"31.2328","category":"46","category_name":"楼宇","address":"金陵东路369号"},{"poiid":"B2094757D069AAFD449E","title":"九江路外滩","lon":"121.485418907","lat":"31.233909491","category":"500","category_name":"未知分类","address":"上海九江路四川中路"},{"poiid":"B2094757D069A5FA429F","title":"国拍大楼","lon":"121.488578","lat":"31.234969","category":"46","category_name":"楼宇","address":"上海福州路108号"},{"poiid":"B2094654DB6AA7FF469B","title":"帕戈意大利餐厅 Prego","lon":"121.48738275777","lat":"31.231410271031","category":"94","category_name":"西餐厅","address":"黄浦区河南中路88号威斯汀大饭店2楼(近广东路)"},{"poiid":"B209475CD36BA2FC489F","title":"Tock's","lon":"121.4859","lat":"31.2345","category":"94","category_name":"西餐厅","address":"河南中路221号(近福州路)"},{"poiid":"B2094655D26DAAFC4798","title":"宜兰贵斯酒店","lon":"121.48826","lat":"31.23394","category":"250","category_name":"公园户外","address":"黄浦区广东路138号(近河南中路)"},{"poiid":"B2094757D06AA1FD469A","title":"华东医院(市府大厦门诊部)","lon":"121.4873588","lat":"31.235038242","category":"162","category_name":"医院","address":"黄浦区江西中路187号(近新城饭店)"},{"poiid":"B2094655D26BA4F8489F","title":"外滩艺术馆(边门)","lon":"121.4864","lat":"31.23599","category":"183","category_name":"展览馆","address":"汉口路193"},{"poiid":"B2094655D268A6F8439C","title":"宾龙商务酒店","lon":"121.48831","lat":"31.23514","category":"250","category_name":"公园户外","address":"黄浦区福州路105-1号(近四川中路)"},{"poiid":"B2094757DA65A5FB419F","title":"海上小喔（上海外滩店）","lon":"121.4882863","lat":"31.23535294","category":"216","category_name":"经济型连锁酒店","address":"黄浦区福州路120号4-5楼(近江西中路)"},{"poiid":"B2094757D06FABF5479B","title":"福井日本料理(广东路店)","lon":"121.48504","lat":"31.23219","category":"95","category_name":"日本料理","address":"黄浦区广东路339号中福世福汇酒店(山东中路口)"},{"poiid":"B2094752D264A2F5459A","title":"Citta' espresso club(福州路店)","lon":"121.48427907765","lat":"31.234670708624","category":"65","category_name":"咖啡厅","address":"黄浦区福州路318号102C"},{"poiid":"B2094654DA6FA5FA4893","title":"小梁园明档店","lon":"121.48458","lat":"31.23471","category":"257","category_name":"中餐厅","address":"黄浦区山东中路212号(近河南中路)"},{"poiid":"B2094757D068A0F84798","title":"上海市国家安全局","lon":"121.48662337","lat":"31.234723797","category":"252","category_name":"楼宇机构","address":"上海市黄浦区福州路185号"},{"poiid":"B2094757D46EABFC4998","title":"旬鲜","lon":"121.48562","lat":"31.23411","category":"95","category_name":"日本料理","address":"黄浦区昭通路24号(河南中路昭通路)"},{"poiid":"B2094654DB65A5F4499A","title":"上海维拉斯酒店","lon":"121.48582","lat":"31.23286","category":"214","category_name":"四星级宾馆","address":"黄浦区广东路306号(近外滩)"},{"poiid":"B2094757D06AAAFE4699","title":"49路汉口路江西中路终点站","lon":"121.48606126","lat":"31.236072386","category":"38","category_name":"公交车站","address":"上海黄浦区汉口路201号(对面)"},{"poiid":"B2094751D36CA5F84792","title":"南洋茶铺","lon":"121.48591","lat":"31.23287","category":"113","category_name":"冷饮店","address":"黄浦区广东路294号(近河南中路)"},{"poiid":"B2094655D26AA0FD489C","title":"威斯汀大饭店","lon":"121.48682","lat":"31.23242","category":"213","category_name":"五星级宾馆","address":"上海市黄浦区河南中路88号(近广东路)"},{"poiid":"B2094757D06EAAFB459E","title":"新旺茶餐厅(汉口路店)","lon":"121.48448","lat":"31.23519","category":"72","category_name":"广东菜","address":"黄浦区汉口路309号(山东中路口)"},{"poiid":"B2094757D06FA2FE449F","title":"名人购物中心","lon":"121.484624738","lat":"31.235713417","category":"119","category_name":"商场","address":"上海黄浦区南京东路300号(近河南中路)"},{"poiid":"B2094753D76FAAFA449C","title":"上海滩国泰旗舰店","lon":"121.466011","lat":"31.216125","category":"249","category_name":"购物服务","address":"淮海中路868号"},{"poiid":"B209475CD564A7F84292","title":"上海滩新天地店","lon":"121.47463","lat":"31.22164","category":"119","category_name":"商场","address":"\"太仓路181弄新天地北里15号\r\n\""},{"poiid":"B209475CD564A7F8439E","title":"上海滩中信泰富店","lon":"121.45602","lat":"31.22851","category":"119","category_name":"商场","address":"\"南京西路1168号中信泰富广场，店铺号221.\r\n\""},{"poiid":"B209475CD564A7F84392","title":"上海滩浦东香格里拉店","lon":"121.50058","lat":"31.23634","category":"119","category_name":"商场","address":"浦东富成路33号香格里拉酒店内大堂层"},{"poiid":"B2094655D26AABFB419E","title":"M1NT","lon":"121.48417","lat":"31.23492","category":"260","category_name":"其他","address":"黄浦区福州路318号高腾大厦24楼(近山东中路)"},{"poiid":"B2094757D06EAAFB419F","title":"仁济医院(西部)","lon":"121.48445382","lat":"31.233387977","category":"162","category_name":"医院","address":"黄浦区山东中路145号(近福州路)"},{"poiid":"B2094654DA6FABF9429D","title":"港陆广场","lon":"121.485","lat":"31.2353","category":"46","category_name":"楼宇","address":"黄浦区西藏中路18号(近延安东路)"},{"poiid":"B2094757DA6FA1FC489E","title":"南京路","lon":"121.48612976074219","lat":"31.23181184772342","category":"248","category_name":"生活娱乐","address":"上海 上海市 上海市南京路"},{"poiid":"B2094654DA6FAAFD499A","title":"港泰广场","lon":"121.486","lat":"31.2358","category":"46","category_name":"楼宇","address":"延安东路700号"},{"poiid":"B2094757D068A1F94693","title":"中福世福汇大酒店","lon":"121.48475","lat":"31.23242","category":"217","category_name":"旅馆招待所","address":"黄浦区广东路339号(山东中路口)"},{"poiid":"B2094757D06EAAFB499F","title":"星巴克(外滩中心店)","lon":"121.486469","lat":"31.231952","category":"260","category_name":"其他","address":"黄浦区延安东路222号1楼(近江西南路)"},{"poiid":"B2094654DB6AA0F5429E","title":"威斯汀舞台餐厅","lon":"121.48682","lat":"31.23242","category":"268","category_name":"自助","address":"黄浦区河南中路88号上海威斯汀大饭店1楼(近广东路)"},{"poiid":"B2094757D06FABFF479B","title":"新城饭店","lon":"121.4878","lat":"31.23495","category":"216","category_name":"经济型连锁酒店","address":"黄浦区江西中路180号(近福州路)"},{"poiid":"B2094655D26DA3FE419B","title":"上海外滩花园酒店(南门)","lon":"121.48571","lat":"31.2361","category":"250","category_name":"公园户外","address":"上海市黄浦区汉口路200号（河南中路路口）"},{"poiid":"B2094654DA6FA5F4489B","title":"高腾大厦","lon":"121.48427","lat":"31.23464","category":"46","category_name":"楼宇","address":"越秀区环市东路362-366号"},{"poiid":"B2094757D069A5F5479A","title":"mint club","lon":"121.48444573","lat":"31.234723395","category":"500","category_name":"未知分类","address":"上海市福州路高腾大厦"},{"poiid":"B2094750DA68A2F5409D","title":"上海外滩中心威斯汀大饭店","lon":"121.484069","lat":"31.234144","category":"251","category_name":"出行住宿","address":null},{"poiid":"B2094757D16BABFD4593","title":"麦当劳","lon":"121.48739973","lat":"31.235250407","category":"500","category_name":"未知分类","address":"上海市黄浦区南京路步行街"},{"poiid":"B2094757D06FA1F8419C","title":"楚楚园馅饼粥(汉口路店)","lon":"121.48438","lat":"31.23524","category":"68","category_name":"快餐厅","address":"黄浦区汉口路309号(近山东中路)"},{"poiid":"B2094655D264A1F54099","title":"汉庭快捷酒店(上海南京东路店)","lon":"121.48452","lat":"31.235","category":"216","category_name":"经济型连锁酒店","address":"上海市黄浦区山东中路230号(近南京东路)"},{"poiid":"B2094757D06FA6F9459A","title":"米氏西餐厅","lon":"121.48839983","lat":"31.235365447","category":"94","category_name":"西餐厅","address":"黄浦区广东路20号外滩5号7楼(近中山东一路)"},{"poiid":"B2094757D06FAAF84399","title":"申鑫大厦","lon":"121.488143","lat":"31.234771","category":"46","category_name":"楼宇","address":"上海市黄浦区宁海东路200号(北依南京路,南临淮海路)"},{"poiid":"B2094757D06FAAFE449F","title":"Citta'享咖(福州路店)","lon":"121.48456","lat":"31.23418","category":"260","category_name":"其他","address":"黄浦区福州路318号102C(近山东中路)"},{"poiid":"B2094655D26EA6FA429E","title":"威斯汀钻石宴会厅","lon":"121.48682","lat":"31.23242","category":"260","category_name":"其他","address":"黄浦区河南中路88号威斯汀大饭店3楼(近广东路)"},{"poiid":"B2094757D065AAFC469E","title":"外滩私房菜","lon":"121.48534973","lat":"31.234815397","category":"76","category_name":"上海菜","address":"黄浦区河南中路256号(近福州路)"},{"poiid":"B2094654DA6FABFA489F","title":"上海第二医科大学附属仁济医院","lon":"121.48449","lat":"31.23353","category":"162","category_name":"医院","address":"山东中路145"},{"poiid":"B2094757D06AA5FA4993","title":"华东建筑设计研究院有限公司","lon":"121.487157492","lat":"31.2361457026","category":"46","category_name":"楼宇","address":"上海市黄浦区汉口路151号"},{"poiid":"B2094757D068A3FB469A","title":"交通银行上海市分行","lon":"121.487329","lat":"31.235579","category":"46","category_name":"楼宇","address":"上海黄浦区江西中路200号"},{"poiid":"B2094655D26CAAFC419A","title":"如家酒店(外滩中心店)","lon":"121.48662","lat":"31.23375","category":"216","category_name":"经济型连锁酒店","address":"上海市黄浦区江西中路135弄11号(泗泾路26弄内)"},{"poiid":"B2094654DA6EA6FA4898","title":"汇通大厦","lon":"121.488","lat":"31.2328","category":"46","category_name":"楼宇","address":"金陵东路369号"},{"poiid":"B2094757D069AAFD449E","title":"九江路外滩","lon":"121.485418907","lat":"31.233909491","category":"500","category_name":"未知分类","address":"上海九江路四川中路"},{"poiid":"B2094757D069A5FA429F","title":"国拍大楼","lon":"121.488578","lat":"31.234969","category":"46","category_name":"楼宇","address":"上海福州路108号"},{"poiid":"B2094654DB6AA7FF469B","title":"帕戈意大利餐厅 Prego","lon":"121.48738275777","lat":"31.231410271031","category":"94","category_name":"西餐厅","address":"黄浦区河南中路88号威斯汀大饭店2楼(近广东路)"},{"poiid":"B209475CD36BA2FC489F","title":"Tock's","lon":"121.4859","lat":"31.2345","category":"94","category_name":"西餐厅","address":"河南中路221号(近福州路)"},{"poiid":"B2094655D26DAAFC4798","title":"宜兰贵斯酒店","lon":"121.48826","lat":"31.23394","category":"250","category_name":"公园户外","address":"黄浦区广东路138号(近河南中路)"},{"poiid":"B2094757D06AA1FD469A","title":"华东医院(市府大厦门诊部)","lon":"121.4873588","lat":"31.235038242","category":"162","category_name":"医院","address":"黄浦区江西中路187号(近新城饭店)"},{"poiid":"B2094655D26BA4F8489F","title":"外滩艺术馆(边门)","lon":"121.4864","lat":"31.23599","category":"183","category_name":"展览馆","address":"汉口路193"},{"poiid":"B2094655D268A6F8439C","title":"宾龙商务酒店","lon":"121.48831","lat":"31.23514","category":"250","category_name":"公园户外","address":"黄浦区福州路105-1号(近四川中路)"},{"poiid":"B2094757DA65A5FB419F","title":"海上小喔（上海外滩店）","lon":"121.4882863","lat":"31.23535294","category":"216","category_name":"经济型连锁酒店","address":"黄浦区福州路120号4-5楼(近江西中路)"},{"poiid":"B2094757D06FABF5479B","title":"福井日本料理(广东路店)","lon":"121.48504","lat":"31.23219","category":"95","category_name":"日本料理","address":"黄浦区广东路339号中福世福汇酒店(山东中路口)"},{"poiid":"B2094752D264A2F5459A","title":"Citta' espresso club(福州路店)","lon":"121.48427907765","lat":"31.234670708624","category":"65","category_name":"咖啡厅","address":"黄浦区福州路318号102C"},{"poiid":"B2094654DA6FA5FA4893","title":"小梁园明档店","lon":"121.48458","lat":"31.23471","category":"257","category_name":"中餐厅","address":"黄浦区山东中路212号(近河南中路)"},{"poiid":"B2094757D068A0F84798","title":"上海市国家安全局","lon":"121.48662337","lat":"31.234723797","category":"252","category_name":"楼宇机构","address":"上海市黄浦区福州路185号"},{"poiid":"B2094757D46EABFC4998","title":"旬鲜","lon":"121.48562","lat":"31.23411","category":"95","category_name":"日本料理","address":"黄浦区昭通路24号(河南中路昭通路)"},{"poiid":"B2094654DB65A5F4499A","title":"上海维拉斯酒店","lon":"121.48582","lat":"31.23286","category":"214","category_name":"四星级宾馆","address":"黄浦区广东路306号(近外滩)"},{"poiid":"B2094757D06AAAFE4699","title":"49路汉口路江西中路终点站","lon":"121.48606126","lat":"31.236072386","category":"38","category_name":"公交车站","address":"上海黄浦区汉口路201号(对面)"},{"poiid":"B2094751D36CA5F84792","title":"南洋茶铺","lon":"121.48591","lat":"31.23287","category":"113","category_name":"冷饮店","address":"黄浦区广东路294号(近河南中路)"},{"poiid":"B2094655D26AA0FD489C","title":"威斯汀大饭店","lon":"121.48682","lat":"31.23242","category":"213","category_name":"五星级宾馆","address":"上海市黄浦区河南中路88号(近广东路)"},{"poiid":"B2094757D06EAAFB459E","title":"新旺茶餐厅(汉口路店)","lon":"121.48448","lat":"31.23519","category":"72","category_name":"广东菜","address":"黄浦区汉口路309号(山东中路口)"},{"poiid":"B2094757D06FA2FE449F","title":"名人购物中心","lon":"121.484624738","lat":"31.235713417","category":"119","category_name":"商场","address":"上海黄浦区南京东路300号(近河南中路)"},{"poiid":"B2094753D76FAAFA449C","title":"上海滩国泰旗舰店","lon":"121.466011","lat":"31.216125","category":"249","category_name":"购物服务","address":"淮海中路868号"},{"poiid":"B209475CD564A7F84292","title":"上海滩新天地店","lon":"121.47463","lat":"31.22164","category":"119","category_name":"商场","address":"\"太仓路181弄新天地北里15号\r\n\""},{"poiid":"B209475CD564A7F8439E","title":"上海滩中信泰富店","lon":"121.45602","lat":"31.22851","category":"119","category_name":"商场","address":"\"南京西路1168号中信泰富广场，店铺号221.\r\n\""},{"poiid":"B209475CD564A7F84392","title":"上海滩浦东香格里拉店","lon":"121.50058","lat":"31.23634","category":"119","category_name":"商场","address":"浦东富成路33号香格里拉酒店内大堂层"},{"poiid":"B2094655D26AABFB419E","title":"M1NT","lon":"121.48417","lat":"31.23492","category":"260","category_name":"其他","address":"黄浦区福州路318号高腾大厦24楼(近山东中路)"},{"poiid":"B2094757D06EAAFB419F","title":"仁济医院(西部)","lon":"121.48445382","lat":"31.233387977","category":"162","category_name":"医院","address":"黄浦区山东中路145号(近福州路)"},{"poiid":"B2094654DA6FABF9429D","title":"港陆广场","lon":"121.485","lat":"31.2353","category":"46","category_name":"楼宇","address":"黄浦区西藏中路18号(近延安东路)"},{"poiid":"B2094757DA6FA1FC489E","title":"南京路","lon":"121.48612976074219","lat":"31.23181184772342","category":"248","category_name":"生活娱乐","address":"上海 上海市 上海市南京路"},{"poiid":"B2094654DA6FAAFD499A","title":"港泰广场","lon":"121.486","lat":"31.2358","category":"46","category_name":"楼宇","address":"延安东路700号"},{"poiid":"B2094757D068A1F94693","title":"中福世福汇大酒店","lon":"121.48475","lat":"31.23242","category":"217","category_name":"旅馆招待所","address":"黄浦区广东路339号(山东中路口)"},{"poiid":"B2094757D06EAAFB499F","title":"星巴克(外滩中心店)","lon":"121.486469","lat":"31.231952","category":"260","category_name":"其他","address":"黄浦区延安东路222号1楼(近江西南路)"},{"poiid":"B2094654DB6AA0F5429E","title":"威斯汀舞台餐厅","lon":"121.48682","lat":"31.23242","category":"268","category_name":"自助","address":"黄浦区河南中路88号上海威斯汀大饭店1楼(近广东路)"},{"poiid":"B2094757D06FABFF479B","title":"新城饭店","lon":"121.4878","lat":"31.23495","category":"216","category_name":"经济型连锁酒店","address":"黄浦区江西中路180号(近福州路)"},{"poiid":"B2094655D26DA3FE419B","title":"上海外滩花园酒店(南门)","lon":"121.48571","lat":"31.2361","category":"250","category_name":"公园户外","address":"上海市黄浦区汉口路200号（河南中路路口）"},{"poiid":"B2094654DA6FA5F4489B","title":"高腾大厦","lon":"121.48427","lat":"31.23464","category":"46","category_name":"楼宇","address":"越秀区环市东路362-366号"},{"poiid":"B2094757D069A5F5479A","title":"mint club","lon":"121.48444573","lat":"31.234723395","category":"500","category_name":"未知分类","address":"上海市福州路高腾大厦"},{"poiid":"B2094750DA68A2F5409D","title":"上海外滩中心威斯汀大饭店","lon":"121.484069","lat":"31.234144","category":"251","category_name":"出行住宿","address":null},{"poiid":"B2094757D16BABFD4593","title":"麦当劳","lon":"121.48739973","lat":"31.235250407","category":"500","category_name":"未知分类","address":"上海市黄浦区南京路步行街"},{"poiid":"B2094757D06FA1F8419C","title":"楚楚园馅饼粥(汉口路店)","lon":"121.48438","lat":"31.23524","category":"68","category_name":"快餐厅","address":"黄浦区汉口路309号(近山东中路)"},{"poiid":"B2094655D264A1F54099","title":"汉庭快捷酒店(上海南京东路店)","lon":"121.48452","lat":"31.235","category":"216","category_name":"经济型连锁酒店","address":"上海市黄浦区山东中路230号(近南京东路)"},{"poiid":"B2094757D06FA6F9459A","title":"米氏西餐厅","lon":"121.48839983","lat":"31.235365447","category":"94","category_name":"西餐厅","address":"黄浦区广东路20号外滩5号7楼(近中山东一路)"},{"poiid":"B2094757D06FAAF84399","title":"申鑫大厦","lon":"121.488143","lat":"31.234771","category":"46","category_name":"楼宇","address":"上海市黄浦区宁海东路200号(北依南京路,南临淮海路)"},{"poiid":"B2094757D06FAAFE449F","title":"Citta'享咖(福州路店)","lon":"121.48456","lat":"31.23418","category":"260","category_name":"其他","address":"黄浦区福州路318号102C(近山东中路)"},{"poiid":"B2094655D26EA6FA429E","title":"威斯汀钻石宴会厅","lon":"121.48682","lat":"31.23242","category":"260","category_name":"其他","address":"黄浦区河南中路88号威斯汀大饭店3楼(近广东路)"},{"poiid":"B2094757D065AAFC469E","title":"外滩私房菜","lon":"121.48534973","lat":"31.234815397","category":"76","category_name":"上海菜","address":"黄浦区河南中路256号(近福州路)"},{"poiid":"B2094654DA6FABFA489F","title":"上海第二医科大学附属仁济医院","lon":"121.48449","lat":"31.23353","category":"162","category_name":"医院","address":"山东中路145"},{"poiid":"B2094757D06AA5FA4993","title":"华东建筑设计研究院有限公司","lon":"121.487157492","lat":"31.2361457026","category":"46","category_name":"楼宇","address":"上海市黄浦区汉口路151号"},{"poiid":"B2094757D068A3FB469A","title":"交通银行上海市分行","lon":"121.487329","lat":"31.235579","category":"46","category_name":"楼宇","address":"上海黄浦区江西中路200号"},{"poiid":"B2094655D26CAAFC419A","title":"如家酒店(外滩中心店)","lon":"121.48662","lat":"31.23375","category":"216","category_name":"经济型连锁酒店","address":"上海市黄浦区江西中路135弄11号(泗泾路26弄内)"},{"poiid":"B2094654DA6EA6FA4898","title":"汇通大厦","lon":"121.488","lat":"31.2328","category":"46","category_name":"楼宇","address":"金陵东路369号"},{"poiid":"B2094757D069AAFD449E","title":"九江路外滩","lon":"121.485418907","lat":"31.233909491","category":"500","category_name":"未知分类","address":"上海九江路四川中路"},{"poiid":"B2094757D069A5FA429F","title":"国拍大楼","lon":"121.488578","lat":"31.234969","category":"46","category_name":"楼宇","address":"上海福州路108号"},{"poiid":"B2094654DB6AA7FF469B","title":"帕戈意大利餐厅 Prego","lon":"121.48738275777","lat":"31.231410271031","category":"94","category_name":"西餐厅","address":"黄浦区河南中路88号威斯汀大饭店2楼(近广东路)"},{"poiid":"B209475CD36BA2FC489F","title":"Tock's","lon":"121.4859","lat":"31.2345","category":"94","category_name":"西餐厅","address":"河南中路221号(近福州路)"},{"poiid":"B2094655D26DAAFC4798","title":"宜兰贵斯酒店","lon":"121.48826","lat":"31.23394","category":"250","category_name":"公园户外","address":"黄浦区广东路138号(近河南中路)"},{"poiid":"B2094757D06AA1FD469A","title":"华东医院(市府大厦门诊部)","lon":"121.4873588","lat":"31.235038242","category":"162","category_name":"医院","address":"黄浦区江西中路187号(近新城饭店)"},{"poiid":"B2094655D26BA4F8489F","title":"外滩艺术馆(边门)","lon":"121.4864","lat":"31.23599","category":"183","category_name":"展览馆","address":"汉口路193"},{"poiid":"B2094655D268A6F8439C","title":"宾龙商务酒店","lon":"121.48831","lat":"31.23514","category":"250","category_name":"公园户外","address":"黄浦区福州路105-1号(近四川中路)"},{"poiid":"B2094757DA65A5FB419F","title":"海上小喔（上海外滩店）","lon":"121.4882863","lat":"31.23535294","category":"216","category_name":"经济型连锁酒店","address":"黄浦区福州路120号4-5楼(近江西中路)"},{"poiid":"B2094757D06FABF5479B","title":"福井日本料理(广东路店)","lon":"121.48504","lat":"31.23219","category":"95","category_name":"日本料理","address":"黄浦区广东路339号中福世福汇酒店(山东中路口)"},{"poiid":"B2094752D264A2F5459A","title":"Citta' espresso club(福州路店)","lon":"121.48427907765","lat":"31.234670708624","category":"65","category_name":"咖啡厅","address":"黄浦区福州路318号102C"},{"poiid":"B2094654DA6FA5FA4893","title":"小梁园明档店","lon":"121.48458","lat":"31.23471","category":"257","category_name":"中餐厅","address":"黄浦区山东中路212号(近河南中路)"},{"poiid":"B2094757D068A0F84798","title":"上海市国家安全局","lon":"121.48662337","lat":"31.234723797","category":"252","category_name":"楼宇机构","address":"上海市黄浦区福州路185号"},{"poiid":"B2094757D46EABFC4998","title":"旬鲜","lon":"121.48562","lat":"31.23411","category":"95","category_name":"日本料理","address":"黄浦区昭通路24号(河南中路昭通路)"},{"poiid":"B2094654DB65A5F4499A","title":"上海维拉斯酒店","lon":"121.48582","lat":"31.23286","category":"214","category_name":"四星级宾馆","address":"黄浦区广东路306号(近外滩)"},{"poiid":"B2094757D06AAAFE4699","title":"49路汉口路江西中路终点站","lon":"121.48606126","lat":"31.236072386","category":"38","category_name":"公交车站","address":"上海黄浦区汉口路201号(对面)"},{"poiid":"B2094751D36CA5F84792","title":"南洋茶铺","lon":"121.48591","lat":"31.23287","category":"113","category_name":"冷饮店","address":"黄浦区广东路294号(近河南中路)"},{"poiid":"B2094655D26AA0FD489C","title":"威斯汀大饭店","lon":"121.48682","lat":"31.23242","category":"213","category_name":"五星级宾馆","address":"上海市黄浦区河南中路88号(近广东路)"},{"poiid":"B2094757D06EAAFB459E","title":"新旺茶餐厅(汉口路店)","lon":"121.48448","lat":"31.23519","category":"72","category_name":"广东菜","address":"黄浦区汉口路309号(山东中路口)"},{"poiid":"B2094757D06FA2FE449F","title":"名人购物中心","lon":"121.484624738","lat":"31.235713417","category":"119","category_name":"商场","address":"上海黄浦区南京东路300号(近河南中路)"},{"poiid":"B2094753D76FAAFA449C","title":"上海滩国泰旗舰店","lon":"121.466011","lat":"31.216125","category":"249","category_name":"购物服务","address":"淮海中路868号"},{"poiid":"B209475CD564A7F84292","title":"上海滩新天地店","lon":"121.47463","lat":"31.22164","category":"119","category_name":"商场","address":"\"太仓路181弄新天地北里15号\r\n\""},{"poiid":"B209475CD564A7F8439E","title":"上海滩中信泰富店","lon":"121.45602","lat":"31.22851","category":"119","category_name":"商场","address":"\"南京西路1168号中信泰富广场，店铺号221.\r\n\""},{"poiid":"B209475CD564A7F84392","title":"上海滩浦东香格里拉店","lon":"121.50058","lat":"31.23634","category":"119","category_name":"商场","address":"浦东富成路33号香格里拉酒店内大堂层"},{"poiid":"B2094655D26AABFB419E","title":"M1NT","lon":"121.48417","lat":"31.23492","category":"260","category_name":"其他","address":"黄浦区福州路318号高腾大厦24楼(近山东中路)"},{"poiid":"B2094757D06EAAFB419F","title":"仁济医院(西部)","lon":"121.48445382","lat":"31.233387977","category":"162","category_name":"医院","address":"黄浦区山东中路145号(近福州路)"},{"poiid":"B2094654DA6FABF9429D","title":"港陆广场","lon":"121.485","lat":"31.2353","category":"46","category_name":"楼宇","address":"黄浦区西藏中路18号(近延安东路)"},{"poiid":"B2094757DA6FA1FC489E","title":"南京路","lon":"121.48612976074219","lat":"31.23181184772342","category":"248","category_name":"生活娱乐","address":"上海 上海市 上海市南京路"},{"poiid":"B2094654DA6FAAFD499A","title":"港泰广场","lon":"121.486","lat":"31.2358","category":"46","category_name":"楼宇","address":"延安东路700号"},{"poiid":"B2094757D068A1F94693","title":"中福世福汇大酒店","lon":"121.48475","lat":"31.23242","category":"217","category_name":"旅馆招待所","address":"黄浦区广东路339号(山东中路口)"},{"poiid":"B2094757D06EAAFB499F","title":"星巴克(外滩中心店)","lon":"121.486469","lat":"31.231952","category":"260","category_name":"其他","address":"黄浦区延安东路222号1楼(近江西南路)"},{"poiid":"B2094654DB6AA0F5429E","title":"威斯汀舞台餐厅","lon":"121.48682","lat":"31.23242","category":"268","category_name":"自助","address":"黄浦区河南中路88号上海威斯汀大饭店1楼(近广东路)"},{"poiid":"B2094757D06FABFF479B","title":"新城饭店","lon":"121.4878","lat":"31.23495","category":"216","category_name":"经济型连锁酒店","address":"黄浦区江西中路180号(近福州路)"},{"poiid":"B2094655D26DA3FE419B","title":"上海外滩花园酒店(南门)","lon":"121.48571","lat":"31.2361","category":"250","category_name":"公园户外","address":"上海市黄浦区汉口路200号（河南中路路口）"},{"poiid":"B2094654DA6FA5F4489B","title":"高腾大厦","lon":"121.48427","lat":"31.23464","category":"46","category_name":"楼宇","address":"越秀区环市东路362-366号"},{"poiid":"B2094757D069A5F5479A","title":"mint club","lon":"121.48444573","lat":"31.234723395","category":"500","category_name":"未知分类","address":"上海市福州路高腾大厦"},{"poiid":"B2094750DA68A2F5409D","title":"上海外滩中心威斯汀大饭店","lon":"121.484069","lat":"31.234144","category":"251","category_name":"出行住宿","address":null},{"poiid":"B2094757D16BABFD4593","title":"麦当劳","lon":"121.48739973","lat":"31.235250407","category":"500","category_name":"未知分类","address":"上海市黄浦区南京路步行街"},{"poiid":"B2094757D06FA1F8419C","title":"楚楚园馅饼粥(汉口路店)","lon":"121.48438","lat":"31.23524","category":"68","category_name":"快餐厅","address":"黄浦区汉口路309号(近山东中路)"},{"poiid":"B2094655D264A1F54099","title":"汉庭快捷酒店(上海南京东路店)","lon":"121.48452","lat":"31.235","category":"216","category_name":"经济型连锁酒店","address":"上海市黄浦区山东中路230号(近南京东路)"},{"poiid":"B2094757D06FA6F9459A","title":"米氏西餐厅","lon":"121.48839983","lat":"31.235365447","category":"94","category_name":"西餐厅","address":"黄浦区广东路20号外滩5号7楼(近中山东一路)"},{"poiid":"B2094757D06FAAF84399","title":"申鑫大厦","lon":"121.488143","lat":"31.234771","category":"46","category_name":"楼宇","address":"上海市黄浦区宁海东路200号(北依南京路,南临淮海路)"},{"poiid":"B2094757D06FAAFE449F","title":"Citta'享咖(福州路店)","lon":"121.48456","lat":"31.23418","category":"260","category_name":"其他","address":"黄浦区福州路318号102C(近山东中路)"},{"poiid":"B2094655D26EA6FA429E","title":"威斯汀钻石宴会厅","lon":"121.48682","lat":"31.23242","category":"260","category_name":"其他","address":"黄浦区河南中路88号威斯汀大饭店3楼(近广东路)"},{"poiid":"B2094757D065AAFC469E","title":"外滩私房菜","lon":"121.48534973","lat":"31.234815397","category":"76","category_name":"上海菜","address":"黄浦区河南中路256号(近福州路)"},{"poiid":"B2094654DA6FABFA489F","title":"上海第二医科大学附属仁济医院","lon":"121.48449","lat":"31.23353","category":"162","category_name":"医院","address":"山东中路145"},{"poiid":"B2094757D06AA5FA4993","title":"华东建筑设计研究院有限公司","lon":"121.487157492","lat":"31.2361457026","category":"46","category_name":"楼宇","address":"上海市黄浦区汉口路151号"},{"poiid":"B2094757D068A3FB469A","title":"交通银行上海市分行","lon":"121.487329","lat":"31.235579","category":"46","category_name":"楼宇","address":"上海黄浦区江西中路200号"},{"poiid":"B2094655D26CAAFC419A","title":"如家酒店(外滩中心店)","lon":"121.48662","lat":"31.23375","category":"216","category_name":"经济型连锁酒店","address":"上海市黄浦区江西中路135弄11号(泗泾路26弄内)"},{"poiid":"B2094654DA6EA6FA4898","title":"汇通大厦","lon":"121.488","lat":"31.2328","category":"46","category_name":"楼宇","address":"金陵东路369号"},{"poiid":"B2094757D069AAFD449E","title":"九江路外滩","lon":"121.485418907","lat":"31.233909491","category":"500","category_name":"未知分类","address":"上海九江路四川中路"},{"poiid":"B2094757D069A5FA429F","title":"国拍大楼","lon":"121.488578","lat":"31.234969","category":"46","category_name":"楼宇","address":"上海福州路108号"},{"poiid":"B2094654DB6AA7FF469B","title":"帕戈意大利餐厅 Prego","lon":"121.48738275777","lat":"31.231410271031","category":"94","category_name":"西餐厅","address":"黄浦区河南中路88号威斯汀大饭店2楼(近广东路)"},{"poiid":"B209475CD36BA2FC489F","title":"Tock's","lon":"121.4859","lat":"31.2345","category":"94","category_name":"西餐厅","address":"河南中路221号(近福州路)"},{"poiid":"B2094655D26DAAFC4798","title":"宜兰贵斯酒店","lon":"121.48826","lat":"31.23394","category":"250","category_name":"公园户外","address":"黄浦区广东路138号(近河南中路)"},{"poiid":"B2094757D06AA1FD469A","title":"华东医院(市府大厦门诊部)","lon":"121.4873588","lat":"31.235038242","category":"162","category_name":"医院","address":"黄浦区江西中路187号(近新城饭店)"},{"poiid":"B2094655D26BA4F8489F","title":"外滩艺术馆(边门)","lon":"121.4864","lat":"31.23599","category":"183","category_name":"展览馆","address":"汉口路193"},{"poiid":"B2094655D268A6F8439C","title":"宾龙商务酒店","lon":"121.48831","lat":"31.23514","category":"250","category_name":"公园户外","address":"黄浦区福州路105-1号(近四川中路)"},{"poiid":"B2094757DA65A5FB419F","title":"海上小喔（上海外滩店）","lon":"121.4882863","lat":"31.23535294","category":"216","category_name":"经济型连锁酒店","address":"黄浦区福州路120号4-5楼(近江西中路)"},{"poiid":"B2094757D06FABF5479B","title":"福井日本料理(广东路店)","lon":"121.48504","lat":"31.23219","category":"95","category_name":"日本料理","address":"黄浦区广东路339号中福世福汇酒店(山东中路口)"},{"poiid":"B2094752D264A2F5459A","title":"Citta' espresso club(福州路店)","lon":"121.48427907765","lat":"31.234670708624","category":"65","category_name":"咖啡厅","address":"黄浦区福州路318号102C"},{"poiid":"B2094654DA6FA5FA4893","title":"小梁园明档店","lon":"121.48458","lat":"31.23471","category":"257","category_name":"中餐厅","address":"黄浦区山东中路212号(近河南中路)"},{"poiid":"B2094757D068A0F84798","title":"上海市国家安全局","lon":"121.48662337","lat":"31.234723797","category":"252","category_name":"楼宇机构","address":"上海市黄浦区福州路185号"},{"poiid":"B2094757D46EABFC4998","title":"旬鲜","lon":"121.48562","lat":"31.23411","category":"95","category_name":"日本料理","address":"黄浦区昭通路24号(河南中路昭通路)"},{"poiid":"B2094654DB65A5F4499A","title":"上海维拉斯酒店","lon":"121.48582","lat":"31.23286","category":"214","category_name":"四星级宾馆","address":"黄浦区广东路306号(近外滩)"},{"poiid":"B2094757D06AAAFE4699","title":"49路汉口路江西中路终点站","lon":"121.48606126","lat":"31.236072386","category":"38","category_name":"公交车站","address":"上海黄浦区汉口路201号(对面)"},{"poiid":"B2094751D36CA5F84792","title":"南洋茶铺","lon":"121.48591","lat":"31.23287","category":"113","category_name":"冷饮店","address":"黄浦区广东路294号(近河南中路)"},{"poiid":"B2094655D26AA0FD489C","title":"威斯汀大饭店","lon":"121.48682","lat":"31.23242","category":"213","category_name":"五星级宾馆","address":"上海市黄浦区河南中路88号(近广东路)"},{"poiid":"B2094757D06EAAFB459E","title":"新旺茶餐厅(汉口路店)","lon":"121.48448","lat":"31.23519","category":"72","category_name":"广东菜","address":"黄浦区汉口路309号(山东中路口)"},{"poiid":"B2094757D06FA2FE449F","title":"名人购物中心","lon":"121.484624738","lat":"31.235713417","category":"119","category_name":"商场","address":"上海黄浦区南京东路300号(近河南中路)"},{"poiid":"B2094753D76FAAFA449C","title":"上海滩国泰旗舰店","lon":"121.466011","lat":"31.216125","category":"249","category_name":"购物服务","address":"淮海中路868号"},{"poiid":"B209475CD564A7F84292","title":"上海滩新天地店","lon":"121.47463","lat":"31.22164","category":"119","category_name":"商场","address":"\"太仓路181弄新天地北里15号\r\n\""},{"poiid":"B209475CD564A7F8439E","title":"上海滩中信泰富店","lon":"121.45602","lat":"31.22851","category":"119","category_name":"商场","address":"\"南京西路1168号中信泰富广场，店铺号221.\r\n\""},{"poiid":"B209475CD564A7F84392","title":"上海滩浦东香格里拉店","lon":"121.50058","lat":"31.23634","category":"119","category_name":"商场","address":"浦东富成路33号香格里拉酒店内大堂层"},{"poiid":"B2094655D26AABFB419E","title":"M1NT","lon":"121.48417","lat":"31.23492","category":"260","category_name":"其他","address":"黄浦区福州路318号高腾大厦24楼(近山东中路)"},{"poiid":"B2094757D06EAAFB419F","title":"仁济医院(西部)","lon":"121.48445382","lat":"31.233387977","category":"162","category_name":"医院","address":"黄浦区山东中路145号(近福州路)"},{"poiid":"B2094654DA6FABF9429D","title":"港陆广场","lon":"121.485","lat":"31.2353","category":"46","category_name":"楼宇","address":"黄浦区西藏中路18号(近延安东路)"},{"poiid":"B2094757DA6FA1FC489E","title":"南京路","lon":"121.48612976074219","lat":"31.23181184772342","category":"248","category_name":"生活娱乐","address":"上海 上海市 上海市南京路"},{"poiid":"B2094654DA6FAAFD499A","title":"港泰广场","lon":"121.486","lat":"31.2358","category":"46","category_name":"楼宇","address":"延安东路700号"},{"poiid":"B2094757D068A1F94693","title":"中福世福汇大酒店","lon":"121.48475","lat":"31.23242","category":"217","category_name":"旅馆招待所","address":"黄浦区广东路339号(山东中路口)"},{"poiid":"B2094757D06EAAFB499F","title":"星巴克(外滩中心店)","lon":"121.486469","lat":"31.231952","category":"260","category_name":"其他","address":"黄浦区延安东路222号1楼(近江西南路)"},{"poiid":"B2094654DB6AA0F5429E","title":"威斯汀舞台餐厅","lon":"121.48682","lat":"31.23242","category":"268","category_name":"自助","address":"黄浦区河南中路88号上海威斯汀大饭店1楼(近广东路)"},{"poiid":"B2094757D06FABFF479B","title":"新城饭店","lon":"121.4878","lat":"31.23495","category":"216","category_name":"经济型连锁酒店","address":"黄浦区江西中路180号(近福州路)"},{"poiid":"B2094655D26DA3FE419B","title":"上海外滩花园酒店(南门)","lon":"121.48571","lat":"31.2361","category":"250","category_name":"公园户外","address":"上海市黄浦区汉口路200号（河南中路路口）"},{"poiid":"B2094654DA6FA5F4489B","title":"高腾大厦","lon":"121.48427","lat":"31.23464","category":"46","category_name":"楼宇","address":"越秀区环市东路362-366号"},{"poiid":"B2094757D069A5F5479A","title":"mint club","lon":"121.48444573","lat":"31.234723395","category":"500","category_name":"未知分类","address":"上海市福州路高腾大厦"},{"poiid":"B2094750DA68A2F5409D","title":"上海外滩中心威斯汀大饭店","lon":"121.484069","lat":"31.234144","category":"251","category_name":"出行住宿","address":null},{"poiid":"B2094757D16BABFD4593","title":"麦当劳","lon":"121.48739973","lat":"31.235250407","category":"500","category_name":"未知分类","address":"上海市黄浦区南京路步行街"},{"poiid":"B2094757D06FA1F8419C","title":"楚楚园馅饼粥(汉口路店)","lon":"121.48438","lat":"31.23524","category":"68","category_name":"快餐厅","address":"黄浦区汉口路309号(近山东中路)"},{"poiid":"B2094655D264A1F54099","title":"汉庭快捷酒店(上海南京东路店)","lon":"121.48452","lat":"31.235","category":"216","category_name":"经济型连锁酒店","address":"上海市黄浦区山东中路230号(近南京东路)"},{"poiid":"B2094757D06FA6F9459A","title":"米氏西餐厅","lon":"121.48839983","lat":"31.235365447","category":"94","category_name":"西餐厅","address":"黄浦区广东路20号外滩5号7楼(近中山东一路)"},{"poiid":"B2094757D06FAAF84399","title":"申鑫大厦","lon":"121.488143","lat":"31.234771","category":"46","category_name":"楼宇","address":"上海市黄浦区宁海东路200号(北依南京路,南临淮海路)"},{"poiid":"B2094757D06FAAFE449F","title":"Citta'享咖(福州路店)","lon":"121.48456","lat":"31.23418","category":"260","category_name":"其他","address":"黄浦区福州路318号102C(近山东中路)"},{"poiid":"B2094655D26EA6FA429E","title":"威斯汀钻石宴会厅","lon":"121.48682","lat":"31.23242","category":"260","category_name":"其他","address":"黄浦区河南中路88号威斯汀大饭店3楼(近广东路)"},{"poiid":"B2094757D065AAFC469E","title":"外滩私房菜","lon":"121.48534973","lat":"31.234815397","category":"76","category_name":"上海菜","address":"黄浦区河南中路256号(近福州路)"},{"poiid":"B2094654DA6FABFA489F","title":"上海第二医科大学附属仁济医院","lon":"121.48449","lat":"31.23353","category":"162","category_name":"医院","address":"山东中路145"},{"poiid":"B2094757D06AA5FA4993","title":"华东建筑设计研究院有限公司","lon":"121.487157492","lat":"31.2361457026","category":"46","category_name":"楼宇","address":"上海市黄浦区汉口路151号"},{"poiid":"B2094757D068A3FB469A","title":"交通银行上海市分行","lon":"121.487329","lat":"31.235579","category":"46","category_name":"楼宇","address":"上海黄浦区江西中路200号"},{"poiid":"B2094655D26CAAFC419A","title":"如家酒店(外滩中心店)","lon":"121.48662","lat":"31.23375","category":"216","category_name":"经济型连锁酒店","address":"上海市黄浦区江西中路135弄11号(泗泾路26弄内)"},{"poiid":"B2094654DA6EA6FA4898","title":"汇通大厦","lon":"121.488","lat":"31.2328","category":"46","category_name":"楼宇","address":"金陵东路369号"},{"poiid":"B2094757D069AAFD449E","title":"九江路外滩","lon":"121.485418907","lat":"31.233909491","category":"500","category_name":"未知分类","address":"上海九江路四川中路"},{"poiid":"B2094757D069A5FA429F","title":"国拍大楼","lon":"121.488578","lat":"31.234969","category":"46","category_name":"楼宇","address":"上海福州路108号"},{"poiid":"B2094654DB6AA7FF469B","title":"帕戈意大利餐厅 Prego","lon":"121.48738275777","lat":"31.231410271031","category":"94","category_name":"西餐厅","address":"黄浦区河南中路88号威斯汀大饭店2楼(近广东路)"},{"poiid":"B209475CD36BA2FC489F","title":"Tock's","lon":"121.4859","lat":"31.2345","category":"94","category_name":"西餐厅","address":"河南中路221号(近福州路)"},{"poiid":"B2094655D26DAAFC4798","title":"宜兰贵斯酒店","lon":"121.48826","lat":"31.23394","category":"250","category_name":"公园户外","address":"黄浦区广东路138号(近河南中路)"},{"poiid":"B2094757D06AA1FD469A","title":"华东医院(市府大厦门诊部)","lon":"121.4873588","lat":"31.235038242","category":"162","category_name":"医院","address":"黄浦区江西中路187号(近新城饭店)"},{"poiid":"B2094655D26BA4F8489F","title":"外滩艺术馆(边门)","lon":"121.4864","lat":"31.23599","category":"183","category_name":"展览馆","address":"汉口路193"},{"poiid":"B2094655D268A6F8439C","title":"宾龙商务酒店","lon":"121.48831","lat":"31.23514","category":"250","category_name":"公园户外","address":"黄浦区福州路105-1号(近四川中路)"},{"poiid":"B2094757DA65A5FB419F","title":"海上小喔（上海外滩店）","lon":"121.4882863","lat":"31.23535294","category":"216","category_name":"经济型连锁酒店","address":"黄浦区福州路120号4-5楼(近江西中路)"},{"poiid":"B2094757D06FABF5479B","title":"福井日本料理(广东路店)","lon":"121.48504","lat":"31.23219","category":"95","category_name":"日本料理","address":"黄浦区广东路339号中福世福汇酒店(山东中路口)"},{"poiid":"B2094752D264A2F5459A","title":"Citta' espresso club(福州路店)","lon":"121.48427907765","lat":"31.234670708624","category":"65","category_name":"咖啡厅","address":"黄浦区福州路318号102C"},{"poiid":"B2094654DA6FA5FA4893","title":"小梁园明档店","lon":"121.48458","lat":"31.23471","category":"257","category_name":"中餐厅","address":"黄浦区山东中路212号(近河南中路)"},{"poiid":"B2094757D068A0F84798","title":"上海市国家安全局","lon":"121.48662337","lat":"31.234723797","category":"252","category_name":"楼宇机构","address":"上海市黄浦区福州路185号"},{"poiid":"B2094757D46EABFC4998","title":"旬鲜","lon":"121.48562","lat":"31.23411","category":"95","category_name":"日本料理","address":"黄浦区昭通路24号(河南中路昭通路)"},{"poiid":"B2094654DB65A5F4499A","title":"上海维拉斯酒店","lon":"121.48582","lat":"31.23286","category":"214","category_name":"四星级宾馆","address":"黄浦区广东路306号(近外滩)"},{"poiid":"B2094757D06AAAFE4699","title":"49路汉口路江西中路终点站","lon":"121.48606126","lat":"31.236072386","category":"38","category_name":"公交车站","address":"上海黄浦区汉口路201号(对面)"},{"poiid":"B2094751D36CA5F84792","title":"南洋茶铺","lon":"121.48591","lat":"31.23287","category":"113","category_name":"冷饮店","address":"黄浦区广东路294号(近河南中路)"}]