[{"poiid":"B2094757D06AA3FB439D","title":"青浦区白鹤镇","lon":"121.141111","lat":"31.2591598505","category":"500","category_name":"未知分类","address":"上海青浦区白鹤镇白石公路"},{"poiid":"B2094757D06EAAFE449B","title":"G2京沪G42沪蓉高速花桥收费站","lon":"121.1454005","lat":"31.286958648","category":"267","category_name":"收费站","address":"苏州G2京沪G42沪蓉高速花桥收费站"},{"poiid":"B2094757D068A7FA4393","title":"启航社","lon":"121.133878764","lat":"31.2841667462","category":"500","category_name":"未知分类","address":"苏州昆山花桥绿地大道199弄"},{"poiid":"B2094757D06FA3F94498","title":"G2京沪G42沪蓉高速安亭收费站","lon":"121.14831185","lat":"31.283603555","category":"267","category_name":"收费站","address":"上海G2京沪G42沪蓉高速安亭收费站"},{"poiid":"B2094757D064A6F94398","title":"东南东创意园区","lon":"121.13246676","lat":"31.282924722","category":"500","category_name":"未知分类","address":"江苏省苏州市昆山市８１４乡道"},{"poiid":"B2094650D16AA6F4499E","title":"硅湖大学","lon":"121.14173","lat":"31.28257","category":"671","category_name":"高校中心点","address":""},{"poiid":"B2094757D064A0FF4098","title":"鑫苑国际城市花园","lon":"121.14067411","lat":"31.281735582","category":"252","category_name":"楼宇机构","address":"太仓市滨河路1号"},{"poiid":"B2094757D16AA5FD419C","title":"花桥国际商务城","lon":"121.15170476","lat":"31.280376673","category":"500","category_name":"未知分类","address":"上海江苏省苏州市昆山市Ｇ２京沪高速入口"},{"poiid":"B2094655D268ABFF489A","title":"上海白鹤通行费征收稽查站","lon":"121.14597","lat":"31.27133","category":"250","category_name":"公园户外","address":""},{"poiid":"B2094750D16EA4FB429B","title":"兆丰路地铁站","lon":"121.143524","lat":"31.2859","category":"36","category_name":"地铁站","address":"花桥国际商务城"},{"poiid":"B2094757D764A5F8419B","title":"相聚草莓园","lon":"121.144205","lat":"31.260908","category":"111","category_name":"休闲餐饮场所","address":"白鹤赵屯五里乌咀5号近启圣公路"},{"poiid":"B2094757DA6BA7F4439A","title":"启航城","lon":"121.14287983347","lat":"31.261837437623","category":"252","category_name":"楼宇机构","address":"上海市长宁区延安西路2077号"},{"poiid":"B2094757DA6FA3FC419D","title":"青浦白鹤","lon":"121.144205000001","lat":"31.2609080000003","category":"250","category_name":"公园户外","address":"青浦区白鹤镇"},{"poiid":"B2094654D46BA2F94192","title":"白鹤中学","lon":"121.14385","lat":"31.26057","category":"55","category_name":"中学","address":"青浦区老白石路160号"},{"poiid":"B2094654D46BA2F8489A","title":"中国农业银行青浦区白鹤支行","lon":"121.14162","lat":"31.26218","category":"150","category_name":"银行","address":"白鹤镇"},{"poiid":"B2094654D46BA2F8449C","title":"华东台商子女学校","lon":"121.1431","lat":"31.27818","category":"55","category_name":"中学","address":""},{"poiid":"B2094655D36CA7F9439D","title":"鹤祥路外青松路","lon":"121.13998","lat":"31.25977","category":"38","category_name":"公交车站","address":""},{"poiid":"B2094654D46BA2F9419D","title":"白鹤影剧院","lon":"121.141398","lat":"31.258823","category":"178","category_name":"电影院","address":"鹤翔路315号"},{"poiid":"B2094757D568A0FA499C","title":"西晶明园","lon":"121.1359","lat":"31.257763","category":"47","category_name":"住宅区","address":"青浦区白鹤镇鹤如路86弄"},{"poiid":"B2094650D164A1FC419F","title":"吴淞港桥","lon":"121.14622","lat":"31.27536","category":"250","category_name":"公园户外","address":""},{"poiid":"B2094654D46BA2FA4799","title":"镇中小区(鹤如路)","lon":"121.13946","lat":"31.2578","category":"47","category_name":"住宅区","address":""},{"poiid":"B2094655D36CA4FD4398","title":"白鹤枢纽站","lon":"121.14232","lat":"31.25854","category":"38","category_name":"公交车站","address":""},{"poiid":"B2094654DB69A7FA469B","title":"白鹤中心小学","lon":"121.13609","lat":"31.25896","category":"56","category_name":"小学","address":"青浦区白鹤镇外青松公路2951号"},{"poiid":"B2094654D46BA2F9419F","title":"白鹤派出所","lon":"121.14176","lat":"31.25944","category":"609","category_name":"警察局","address":"外青松公路2723弄6号"},{"poiid":"B2094654D46BA2FA469D","title":"金叶超市白鹤店","lon":"121.14008","lat":"31.2576","category":"118","category_name":"超级市场","address":"白鹤镇"},{"poiid":"B2094750D365A3F54893","title":"东南东","lon":"121.138389","lat":"31.284021","category":"247","category_name":"餐饮美食","address":"嘉定区绿地大道168号(近沪宁高速花桥出口)"},{"poiid":"B2094655D36CA7F9439C","title":"鹤祥路胜联路","lon":"121.14626","lat":"31.25679","category":"38","category_name":"公交车站","address":""},{"poiid":"B2094654DB6AA5F54599","title":"中国建设银行","lon":"121.14081","lat":"31.25734","category":"150","category_name":"银行","address":"白鹤镇"},{"poiid":"B2094655D265A5F4489D","title":"上海香樟园度假村","lon":"121.12763","lat":"31.26596","category":"207","category_name":"度假疗养场所","address":"白鹤镇"},{"poiid":"B2094757DA69A1F8469D","title":"宝优妮官方微博","lon":"121.14313","lat":"31.25922","category":"642","category_name":"家居装饰类公司","address":"青浦区白鹤镇启圣路39号"},{"poiid":"B2094757D66CA1FD439B","title":"G2京沪高速","lon":"121.151285764","lat":"31.2799046646","category":"500","category_name":"未知分类","address":"上海安亭收费站"},{"poiid":"B2094757D768A7F8469B","title":"怪味合","lon":"121.14053","lat":"31.28152","category":"86","category_name":"火锅店","address":"昆山花桥绿地大道259弄(近易买得)"},{"poiid":"B2094655D26FA4FF4999","title":"青浦区白鹤镇社区卫生服务中心白鹤镇卫生院","lon":"121.13975","lat":"31.25496","category":"162","category_name":"医院","address":"外青松公路2961号"},{"poiid":"B2094757D569A1FB479D","title":"G2京沪高速安亭收费站","lon":"121.146366","lat":"31.286363","category":"267","category_name":"收费站","address":"中国江苏省昆山市沪宁高速公路"},{"poiid":"B2094757D165A7F5419D","title":"白鶴金勺飯點","lon":"121.13820276","lat":"31.253114151","category":"500","category_name":"未知分类","address":"上海市青浦区程鹤路"},{"poiid":"B2094757D16DA1F44792","title":"麦当劳(虹桥火车站店)","lon":"121.154521041","lat":"31.2829189683","category":"68","category_name":"快餐厅","address":"上海虹桥火车站3F"},{"poiid":"B2094757D16EA5F44693","title":"G2京沪G42沪蓉高速花桥绿地大道收费站","lon":"121.145821853","lat":"31.2839305628","category":"267","category_name":"收费站","address":"上海绿地大道"},{"poiid":"B2094757D569A1FB479B","title":"G2花桥绿地大道收费站","lon":"121.145486","lat":"31.284571","category":"267","category_name":"收费站","address":"中国江苏省昆山市沪宁高速公路"},{"poiid":"B2094757D769A0FF4893","title":"吉祥馄饨 绿地大道店","lon":"121.13007","lat":"31.28502","category":"68","category_name":"快餐厅","address":"昆山市花桥绿地大道261弄乐和城2号14室(近花桥易买得)"},{"poiid":"B2094654D46BA2FA4599","title":"白鹤镇众舟社区","lon":"121.13987","lat":"31.2498","category":"47","category_name":"住宅区","address":""},{"poiid":"B2094757D66FA2FD459E","title":"欧贝尼护肤美发中心","lon":"121.132385254","lat":"31.2832641602","category":"500","category_name":"未知分类","address":"上海易买得附近"},{"poiid":"B2094757D66DAAFD429D","title":"同程网上海分公司","lon":"121.13091276","lat":"31.282610716","category":"500","category_name":"未知分类","address":"零陵路899号飞洲国际大厦602(漕溪北路口，地铁一号线四号线上海体育馆站一号出口)"},{"poiid":"B2094750D268A1F54392","title":"东南东创意海洋台湾食街","lon":"121.13783","lat":"31.28361","category":"260","category_name":"其他","address":"昆山花桥镇绿地大道168号东南东创意海洋1楼(近上海绕城高速)"},{"poiid":"B2094650D16AA1FE469B","title":"收费站","lon":"121.14636","lat":"31.28635","category":"267","category_name":"收费站","address":""},{"poiid":"B2094650D16AA6FE4293","title":"晨风集团晨风(江苏)服饰有限公司","lon":"121.14968","lat":"31.2845","category":"263","category_name":"公司","address":""}]