[{"poiid":"B2094757D06FA7F54192","title":"北桥地铁站","lon":"121.410067407","lat":"31.0447301287","category":"36","category_name":"地铁站","address":"上海轨道交通 五号线 轨交北桥站 5"},{"poiid":"B2094757D06AA0F8449F","title":"上海航天技術研究院","lon":"121.39187495","lat":"31.045737801","category":"500","category_name":"未知分类","address":"上海閔行區元江路3888號"},{"poiid":"B2094655D26BAAFD4899","title":"夏朵小城二期(夏朵园)","lon":"121.39538","lat":"31.02771","category":"47","category_name":"住宅区","address":"银春路1799弄"},{"poiid":"B2094757D06BA4F5439A","title":"闵行北桥","lon":"121.409212","lat":"31.04328","category":"500","category_name":"未知分类","address":"上海闵行北桥"},{"poiid":"B2094655D26FA3F4429E","title":"天恒名城","lon":"121.39346","lat":"31.056587","category":"47","category_name":"住宅区","address":"上海市闵行区鑫都路2688号"},{"poiid":"B2094757D168A5F5439B","title":"世纪联华(鑫都广场店)","lon":"121.396540857","lat":"31.0563764891","category":"249","category_name":"购物服务","address":"闵行区鑫都路2532号(近中春路)"},{"poiid":"B2094757D06FAAF44892","title":"上海航天技术研究所","lon":"121.390169","lat":"31.056014","category":"500","category_name":"未知分类","address":"上海中春路联农路"},{"poiid":"B2094757DA6EAAFE419F","title":"麦当劳(鑫都路店)","lon":"121.396104599998","lat":"31.0516572999998","category":"68","category_name":"快餐厅","address":"闵行区新源路3038号(近鑫都路)"},{"poiid":"B2094757D069ABFC409D","title":"MESE","lon":"121.39949112","lat":"31.042384056","category":"46","category_name":"楼宇","address":"上海闵行区中春路1211号"},{"poiid":"B2094655D36DA0F54793","title":"元江路花王路","lon":"121.38527","lat":"31.04439","category":"38","category_name":"公交车站","address":""},{"poiid":"B2094757D069A4FF4293","title":"北桥花博园","lon":"121.408743","lat":"31.049165","category":"249","category_name":"购物服务","address":"上海沪闵路2759号"},{"poiid":"B2094655D26EA0F8499F","title":"同仁别墅","lon":"121.39296","lat":"31.03617","category":"47","category_name":"住宅区","address":"北松公路818号乙(1-15幢)"},{"poiid":"B2094654DB6EABFF499F","title":"鑫泽阳光公寓","lon":"121.39734","lat":"31.05147","category":"47","category_name":"住宅区","address":"瓶北路479弄"},{"poiid":"B2094655D26EA5F9419A","title":"翔泰苑","lon":"121.40572","lat":"31.046673","category":"47","category_name":"住宅区","address":"闵行区鹤翔路180弄"},{"poiid":"B2094655D36CA7FD439C","title":"花王路联青路","lon":"121.38991","lat":"31.04089","category":"38","category_name":"公交车站","address":""},{"poiid":"B2094655D36CA7FD439F","title":"花王路北松公路","lon":"121.39271","lat":"31.03557","category":"38","category_name":"公交车站","address":""},{"poiid":"B2094655D26FA3FC449B","title":"同仁别墅(西门)","lon":"121.39266","lat":"31.03606","category":"47","category_name":"住宅区","address":"北松公路818号乙(1-15幢)"},{"poiid":"B2094757D069AAF9409C","title":"飞碟苑","lon":"121.39519780241744","lat":"31.02768568599815","category":"47","category_name":"住宅区","address":"上海市闵行区银春路1800弄"},{"poiid":"B2094654DB65A6FA4792","title":"维纳阳光","lon":"121.3913","lat":"31.03521","category":"263","category_name":"公司","address":"闵行区北松公路838弄"},{"poiid":"B2094655D36CA5F44792","title":"北松公路中春路","lon":"121.401","lat":"31.03999","category":"38","category_name":"公交车站","address":""},{"poiid":"B2094655D26FA3F54299","title":"鑫峰苑","lon":"121.39767","lat":"31.054302","category":"47","category_name":"住宅区","address":"鑫都路2535弄"},{"poiid":"B2094751D465ABFD459D","title":"和记小菜(航天城店)","lon":"121.39454","lat":"31.05558","category":"76","category_name":"上海菜","address":"闵行区新源路3088号(近航天城)"},{"poiid":"B2094757D169A7F54198","title":"松江美术馆","lon":"121.38799812","lat":"31.038431875","category":"179","category_name":"音乐厅","address":"上海近郊松江区三新北路900弄601号"},{"poiid":"B2094750D665A0FF469C","title":"舒友海鲜大酒楼(鑫都店)","lon":"121.395","lat":"31.0554","category":"260","category_name":"其他","address":"闵行区颛桥鑫都路2558号"},{"poiid":"B2094655D36CA5F4479C","title":"北松路中春路","lon":"121.39957","lat":"31.03889","category":"38","category_name":"公交车站","address":""},{"poiid":"B2094654DB6FA1F9469E","title":"上海花王化学有限公司工厂","lon":"121.39019","lat":"31.0393","category":"263","category_name":"公司","address":"花王路333"},{"poiid":"B2094655D36DA0F54899","title":"元江路中春路","lon":"121.39101","lat":"31.04572","category":"38","category_name":"公交车站","address":""},{"poiid":"B2094655D36DA0F5489A","title":"元江路华宁路","lon":"121.37719","lat":"31.04255","category":"38","category_name":"公交车站","address":""},{"poiid":"B2094751D565AAF8499E","title":"17.5北桥影院","lon":"121.407532","lat":"31.047287","category":"248","category_name":"生活娱乐","address":"上海市闵行区鹤翔路28弄9,10号一楼"},{"poiid":"B2094757D66DABFF419F","title":"申嘉湖高速","lon":"121.391450128","lat":"31.0328108597","category":"500","category_name":"未知分类","address":"上海市闵行区北松公路"},{"poiid":"B2094654DB6FA2FD429A","title":"上海常茂胶合板有限公司(中春路)","lon":"121.39742","lat":"31.0407","category":"263","category_name":"公司","address":"中春路1088"},{"poiid":"B2094757D064A6F4429D","title":"合生城邦 四街坊","lon":"121.40320077","lat":"31.036318744","category":"252","category_name":"楼宇机构","address":"上海金平路788弄"},{"poiid":"B2094655D26FA1FD409B","title":"旭丽花园","lon":"121.39589977144","lat":"31.045031259612","category":"47","category_name":"住宅区","address":"北松公路838弄"},{"poiid":"B2094757D168A4FE499C","title":"雪佛兰文洋4s店","lon":"121.404198857","lat":"31.0502997009","category":"500","category_name":"未知分类","address":"上海元江路"},{"poiid":"B2094655D26EA5F94798","title":"吴中精神病康复医院","lon":"121.40441","lat":"31.04085","category":"162","category_name":"医院","address":"闵行区北桥镇北中路500号"},{"poiid":"B2094757D16EA5FF4992","title":"柳岸人家","lon":"121.394017857","lat":"31.0528394184","category":"247","category_name":"餐饮美食","address":"上海市闵行区鑫都路2699弄"},{"poiid":"B2094654DB6EAAFD4898","title":"上海顺鼎科技有限公司","lon":"121.39601","lat":"31.04381","category":"263","category_name":"公司","address":"中春路1288"},{"poiid":"B2094654DB6EAAFD4899","title":"上海奂亿科技有限公司","lon":"121.39601","lat":"31.04381","category":"263","category_name":"公司","address":"中春路1288"},{"poiid":"B2094757D069ABFC489D","title":"夏朵小城(三期)","lon":"121.397407128","lat":"31.0257307141","category":"252","category_name":"楼宇机构","address":"上海银春路1799弄"},{"poiid":"B2094655D36CA5F4479F","title":"北松路华宁路(招呼站)","lon":"121.38523","lat":"31.03278","category":"38","category_name":"公交车站","address":""},{"poiid":"B2094757D069A5F9429F","title":"文洋别克4S","lon":"121.40726315","lat":"31.050309907","category":"500","category_name":"未知分类","address":"上海元江路"},{"poiid":"B2094751DA6AA0FD4093","title":"复旦大学附属上海儿科医院","lon":"121.407953","lat":"31.039398","category":"162","category_name":"医院","address":"上海市闵行区万源路399号"},{"poiid":"B2094757D16DA7F9449A","title":"莫泰168 闵行北桥店","lon":"121.40883113","lat":"31.045863773","category":"500","category_name":"未知分类","address":"上海市闵行区沪闵路2660号(近北松公路)"},{"poiid":"B2094757D66CA5FC449F","title":"回力 飞跃专卖店","lon":"121.39138112","lat":"31.031677836","category":"500","category_name":"未知分类","address":"上海上海市閔行区银春路1800弄90号"},{"poiid":"B2094655D36CA7FC4693","title":"华宁路北松公路","lon":"121.38761","lat":"31.02944","category":"38","category_name":"公交车站","address":""},{"poiid":"B2094655D36CA7FC4699","title":"华宁路银春路","lon":"121.38961","lat":"31.02439","category":"38","category_name":"公交车站","address":""},{"poiid":"B2094654DB6FA1F9469C","title":"上海沪豪汽车零部件有限公司","lon":"121.39144","lat":"31.04551","category":"263","category_name":"公司","address":"元江路3883"},{"poiid":"B2094757D16EAAFE499A","title":"上海市群益职业技术学校","lon":"121.39890185","lat":"31.050624374","category":"500","category_name":"未知分类","address":"上海元江路4080号(靠近花王路)"},{"poiid":"B2094655D26EABFD499D","title":"新苗花苑","lon":"121.40509","lat":"31.039776","category":"47","category_name":"住宅区","address":"瓶安路505弄"},{"poiid":"B2094655D36CA7FC469A","title":"华宁路元江路","lon":"121.38134","lat":"31.04221","category":"38","category_name":"公交车站","address":""},{"poiid":"B2094757D06FA7F54192","title":"北桥地铁站","lon":"121.410067407","lat":"31.0447301287","category":"36","category_name":"地铁站","address":"上海轨道交通 五号线 轨交北桥站 5"},{"poiid":"B2094757D06AA0F8449F","title":"上海航天技術研究院","lon":"121.39187495","lat":"31.045737801","category":"500","category_name":"未知分类","address":"上海閔行區元江路3888號"},{"poiid":"B2094655D26BAAFD4899","title":"夏朵小城二期(夏朵园)","lon":"121.39538","lat":"31.02771","category":"47","category_name":"住宅区","address":"银春路1799弄"},{"poiid":"B2094757D06BA4F5439A","title":"闵行北桥","lon":"121.409212","lat":"31.04328","category":"500","category_name":"未知分类","address":"上海闵行北桥"},{"poiid":"B2094655D26FA3F4429E","title":"天恒名城","lon":"121.39346","lat":"31.056587","category":"47","category_name":"住宅区","address":"上海市闵行区鑫都路2688号"},{"poiid":"B2094757D168A5F5439B","title":"世纪联华(鑫都广场店)","lon":"121.396540857","lat":"31.0563764891","category":"249","category_name":"购物服务","address":"闵行区鑫都路2532号(近中春路)"},{"poiid":"B2094757D06FAAF44892","title":"上海航天技术研究所","lon":"121.390169","lat":"31.056014","category":"500","category_name":"未知分类","address":"上海中春路联农路"},{"poiid":"B2094757DA6EAAFE419F","title":"麦当劳(鑫都路店)","lon":"121.396104599998","lat":"31.0516572999998","category":"68","category_name":"快餐厅","address":"闵行区新源路3038号(近鑫都路)"},{"poiid":"B2094757D069ABFC409D","title":"MESE","lon":"121.39949112","lat":"31.042384056","category":"46","category_name":"楼宇","address":"上海闵行区中春路1211号"},{"poiid":"B2094655D36DA0F54793","title":"元江路花王路","lon":"121.38527","lat":"31.04439","category":"38","category_name":"公交车站","address":""},{"poiid":"B2094757D069A4FF4293","title":"北桥花博园","lon":"121.408743","lat":"31.049165","category":"249","category_name":"购物服务","address":"上海沪闵路2759号"},{"poiid":"B2094655D26EA0F8499F","title":"同仁别墅","lon":"121.39296","lat":"31.03617","category":"47","category_name":"住宅区","address":"北松公路818号乙(1-15幢)"},{"poiid":"B2094654DB6EABFF499F","title":"鑫泽阳光公寓","lon":"121.39734","lat":"31.05147","category":"47","category_name":"住宅区","address":"瓶北路479弄"},{"poiid":"B2094655D26EA5F9419A","title":"翔泰苑","lon":"121.40572","lat":"31.046673","category":"47","category_name":"住宅区","address":"闵行区鹤翔路180弄"},{"poiid":"B2094655D36CA7FD439C","title":"花王路联青路","lon":"121.38991","lat":"31.04089","category":"38","category_name":"公交车站","address":""},{"poiid":"B2094655D36CA7FD439F","title":"花王路北松公路","lon":"121.39271","lat":"31.03557","category":"38","category_name":"公交车站","address":""},{"poiid":"B2094655D26FA3FC449B","title":"同仁别墅(西门)","lon":"121.39266","lat":"31.03606","category":"47","category_name":"住宅区","address":"北松公路818号乙(1-15幢)"},{"poiid":"B2094757D069AAF9409C","title":"飞碟苑","lon":"121.39519780241744","lat":"31.02768568599815","category":"47","category_name":"住宅区","address":"上海市闵行区银春路1800弄"},{"poiid":"B2094654DB65A6FA4792","title":"维纳阳光","lon":"121.3913","lat":"31.03521","category":"263","category_name":"公司","address":"闵行区北松公路838弄"},{"poiid":"B2094655D36CA5F44792","title":"北松公路中春路","lon":"121.401","lat":"31.03999","category":"38","category_name":"公交车站","address":""},{"poiid":"B2094655D26FA3F54299","title":"鑫峰苑","lon":"121.39767","lat":"31.054302","category":"47","category_name":"住宅区","address":"鑫都路2535弄"},{"poiid":"B2094751D465ABFD459D","title":"和记小菜(航天城店)","lon":"121.39454","lat":"31.05558","category":"76","category_name":"上海菜","address":"闵行区新源路3088号(近航天城)"},{"poiid":"B2094757D169A7F54198","title":"松江美术馆","lon":"121.38799812","lat":"31.038431875","category":"179","category_name":"音乐厅","address":"上海近郊松江区三新北路900弄601号"},{"poiid":"B2094750D665A0FF469C","title":"舒友海鲜大酒楼(鑫都店)","lon":"121.395","lat":"31.0554","category":"260","category_name":"其他","address":"闵行区颛桥鑫都路2558号"},{"poiid":"B2094655D36CA5F4479C","title":"北松路中春路","lon":"121.39957","lat":"31.03889","category":"38","category_name":"公交车站","address":""},{"poiid":"B2094654DB6FA1F9469E","title":"上海花王化学有限公司工厂","lon":"121.39019","lat":"31.0393","category":"263","category_name":"公司","address":"花王路333"},{"poiid":"B2094655D36DA0F54899","title":"元江路中春路","lon":"121.39101","lat":"31.04572","category":"38","category_name":"公交车站","address":""},{"poiid":"B2094655D36DA0F5489A","title":"元江路华宁路","lon":"121.37719","lat":"31.04255","category":"38","category_name":"公交车站","address":""},{"poiid":"B2094751D565AAF8499E","title":"17.5北桥影院","lon":"121.407532","lat":"31.047287","category":"248","category_name":"生活娱乐","address":"上海市闵行区鹤翔路28弄9,10号一楼"},{"poiid":"B2094757D66DABFF419F","title":"申嘉湖高速","lon":"121.391450128","lat":"31.0328108597","category":"500","category_name":"未知分类","address":"上海市闵行区北松公路"},{"poiid":"B2094654DB6FA2FD429A","title":"上海常茂胶合板有限公司(中春路)","lon":"121.39742","lat":"31.0407","category":"263","category_name":"公司","address":"中春路1088"},{"poiid":"B2094757D064A6F4429D","title":"合生城邦 四街坊","lon":"121.40320077","lat":"31.036318744","category":"252","category_name":"楼宇机构","address":"上海金平路788弄"},{"poiid":"B2094655D26FA1FD409B","title":"旭丽花园","lon":"121.39589977144","lat":"31.045031259612","category":"47","category_name":"住宅区","address":"北松公路838弄"},{"poiid":"B2094757D168A4FE499C","title":"雪佛兰文洋4s店","lon":"121.404198857","lat":"31.0502997009","category":"500","category_name":"未知分类","address":"上海元江路"},{"poiid":"B2094655D26EA5F94798","title":"吴中精神病康复医院","lon":"121.40441","lat":"31.04085","category":"162","category_name":"医院","address":"闵行区北桥镇北中路500号"},{"poiid":"B2094757D16EA5FF4992","title":"柳岸人家","lon":"121.394017857","lat":"31.0528394184","category":"247","category_name":"餐饮美食","address":"上海市闵行区鑫都路2699弄"},{"poiid":"B2094654DB6EAAFD4898","title":"上海顺鼎科技有限公司","lon":"121.39601","lat":"31.04381","category":"263","category_name":"公司","address":"中春路1288"},{"poiid":"B2094654DB6EAAFD4899","title":"上海奂亿科技有限公司","lon":"121.39601","lat":"31.04381","category":"263","category_name":"公司","address":"中春路1288"},{"poiid":"B2094757D069ABFC489D","title":"夏朵小城(三期)","lon":"121.397407128","lat":"31.0257307141","category":"252","category_name":"楼宇机构","address":"上海银春路1799弄"},{"poiid":"B2094655D36CA5F4479F","title":"北松路华宁路(招呼站)","lon":"121.38523","lat":"31.03278","category":"38","category_name":"公交车站","address":""},{"poiid":"B2094757D069A5F9429F","title":"文洋别克4S","lon":"121.40726315","lat":"31.050309907","category":"500","category_name":"未知分类","address":"上海元江路"},{"poiid":"B2094751DA6AA0FD4093","title":"复旦大学附属上海儿科医院","lon":"121.407953","lat":"31.039398","category":"162","category_name":"医院","address":"上海市闵行区万源路399号"},{"poiid":"B2094757D16DA7F9449A","title":"莫泰168 闵行北桥店","lon":"121.40883113","lat":"31.045863773","category":"500","category_name":"未知分类","address":"上海市闵行区沪闵路2660号(近北松公路)"},{"poiid":"B2094757D66CA5FC449F","title":"回力 飞跃专卖店","lon":"121.39138112","lat":"31.031677836","category":"500","category_name":"未知分类","address":"上海上海市閔行区银春路1800弄90号"},{"poiid":"B2094655D36CA7FC4693","title":"华宁路北松公路","lon":"121.38761","lat":"31.02944","category":"38","category_name":"公交车站","address":""},{"poiid":"B2094655D36CA7FC4699","title":"华宁路银春路","lon":"121.38961","lat":"31.02439","category":"38","category_name":"公交车站","address":""},{"poiid":"B2094654DB6FA1F9469C","title":"上海沪豪汽车零部件有限公司","lon":"121.39144","lat":"31.04551","category":"263","category_name":"公司","address":"元江路3883"},{"poiid":"B2094757D16EAAFE499A","title":"上海市群益职业技术学校","lon":"121.39890185","lat":"31.050624374","category":"500","category_name":"未知分类","address":"上海元江路4080号(靠近花王路)"},{"poiid":"B2094655D26EABFD499D","title":"新苗花苑","lon":"121.40509","lat":"31.039776","category":"47","category_name":"住宅区","address":"瓶安路505弄"},{"poiid":"B2094655D36CA7FC469A","title":"华宁路元江路","lon":"121.38134","lat":"31.04221","category":"38","category_name":"公交车站","address":""},{"poiid":"B2094757D06FA7F54192","title":"北桥地铁站","lon":"121.410067407","lat":"31.0447301287","category":"36","category_name":"地铁站","address":"上海轨道交通 五号线 轨交北桥站 5"},{"poiid":"B2094757D06AA0F8449F","title":"上海航天技術研究院","lon":"121.39187495","lat":"31.045737801","category":"500","category_name":"未知分类","address":"上海閔行區元江路3888號"},{"poiid":"B2094655D26BAAFD4899","title":"夏朵小城二期(夏朵园)","lon":"121.39538","lat":"31.02771","category":"47","category_name":"住宅区","address":"银春路1799弄"},{"poiid":"B2094757D06BA4F5439A","title":"闵行北桥","lon":"121.409212","lat":"31.04328","category":"500","category_name":"未知分类","address":"上海闵行北桥"},{"poiid":"B2094655D26FA3F4429E","title":"天恒名城","lon":"121.39346","lat":"31.056587","category":"47","category_name":"住宅区","address":"上海市闵行区鑫都路2688号"},{"poiid":"B2094757D168A5F5439B","title":"世纪联华(鑫都广场店)","lon":"121.396540857","lat":"31.0563764891","category":"249","category_name":"购物服务","address":"闵行区鑫都路2532号(近中春路)"},{"poiid":"B2094757D06FAAF44892","title":"上海航天技术研究所","lon":"121.390169","lat":"31.056014","category":"500","category_name":"未知分类","address":"上海中春路联农路"},{"poiid":"B2094757DA6EAAFE419F","title":"麦当劳(鑫都路店)","lon":"121.396104599998","lat":"31.0516572999998","category":"68","category_name":"快餐厅","address":"闵行区新源路3038号(近鑫都路)"},{"poiid":"B2094757D069ABFC409D","title":"MESE","lon":"121.39949112","lat":"31.042384056","category":"46","category_name":"楼宇","address":"上海闵行区中春路1211号"},{"poiid":"B2094655D36DA0F54793","title":"元江路花王路","lon":"121.38527","lat":"31.04439","category":"38","category_name":"公交车站","address":""},{"poiid":"B2094757D069A4FF4293","title":"北桥花博园","lon":"121.408743","lat":"31.049165","category":"249","category_name":"购物服务","address":"上海沪闵路2759号"},{"poiid":"B2094655D26EA0F8499F","title":"同仁别墅","lon":"121.39296","lat":"31.03617","category":"47","category_name":"住宅区","address":"北松公路818号乙(1-15幢)"},{"poiid":"B2094654DB6EABFF499F","title":"鑫泽阳光公寓","lon":"121.39734","lat":"31.05147","category":"47","category_name":"住宅区","address":"瓶北路479弄"},{"poiid":"B2094655D26EA5F9419A","title":"翔泰苑","lon":"121.40572","lat":"31.046673","category":"47","category_name":"住宅区","address":"闵行区鹤翔路180弄"},{"poiid":"B2094655D36CA7FD439C","title":"花王路联青路","lon":"121.38991","lat":"31.04089","category":"38","category_name":"公交车站","address":""},{"poiid":"B2094655D36CA7FD439F","title":"花王路北松公路","lon":"121.39271","lat":"31.03557","category":"38","category_name":"公交车站","address":""},{"poiid":"B2094655D26FA3FC449B","title":"同仁别墅(西门)","lon":"121.39266","lat":"31.03606","category":"47","category_name":"住宅区","address":"北松公路818号乙(1-15幢)"},{"poiid":"B2094757D069AAF9409C","title":"飞碟苑","lon":"121.39519780241744","lat":"31.02768568599815","category":"47","category_name":"住宅区","address":"上海市闵行区银春路1800弄"},{"poiid":"B2094654DB65A6FA4792","title":"维纳阳光","lon":"121.3913","lat":"31.03521","category":"263","category_name":"公司","address":"闵行区北松公路838弄"},{"poiid":"B2094655D36CA5F44792","title":"北松公路中春路","lon":"121.401","lat":"31.03999","category":"38","category_name":"公交车站","address":""},{"poiid":"B2094655D26FA3F54299","title":"鑫峰苑","lon":"121.39767","lat":"31.054302","category":"47","category_name":"住宅区","address":"鑫都路2535弄"},{"poiid":"B2094751D465ABFD459D","title":"和记小菜(航天城店)","lon":"121.39454","lat":"31.05558","category":"76","category_name":"上海菜","address":"闵行区新源路3088号(近航天城)"},{"poiid":"B2094757D169A7F54198","title":"松江美术馆","lon":"121.38799812","lat":"31.038431875","category":"179","category_name":"音乐厅","address":"上海近郊松江区三新北路900弄601号"},{"poiid":"B2094750D665A0FF469C","title":"舒友海鲜大酒楼(鑫都店)","lon":"121.395","lat":"31.0554","category":"260","category_name":"其他","address":"闵行区颛桥鑫都路2558号"},{"poiid":"B2094655D36CA5F4479C","title":"北松路中春路","lon":"121.39957","lat":"31.03889","category":"38","category_name":"公交车站","address":""},{"poiid":"B2094654DB6FA1F9469E","title":"上海花王化学有限公司工厂","lon":"121.39019","lat":"31.0393","category":"263","category_name":"公司","address":"花王路333"},{"poiid":"B2094655D36DA0F54899","title":"元江路中春路","lon":"121.39101","lat":"31.04572","category":"38","category_name":"公交车站","address":""},{"poiid":"B2094655D36DA0F5489A","title":"元江路华宁路","lon":"121.37719","lat":"31.04255","category":"38","category_name":"公交车站","address":""},{"poiid":"B2094751D565AAF8499E","title":"17.5北桥影院","lon":"121.407532","lat":"31.047287","category":"248","category_name":"生活娱乐","address":"上海市闵行区鹤翔路28弄9,10号一楼"},{"poiid":"B2094757D66DABFF419F","title":"申嘉湖高速","lon":"121.391450128","lat":"31.0328108597","category":"500","category_name":"未知分类","address":"上海市闵行区北松公路"},{"poiid":"B2094654DB6FA2FD429A","title":"上海常茂胶合板有限公司(中春路)","lon":"121.39742","lat":"31.0407","category":"263","category_name":"公司","address":"中春路1088"},{"poiid":"B2094757D064A6F4429D","title":"合生城邦 四街坊","lon":"121.40320077","lat":"31.036318744","category":"252","category_name":"楼宇机构","address":"上海金平路788弄"},{"poiid":"B2094655D26FA1FD409B","title":"旭丽花园","lon":"121.39589977144","lat":"31.045031259612","category":"47","category_name":"住宅区","address":"北松公路838弄"},{"poiid":"B2094757D168A4FE499C","title":"雪佛兰文洋4s店","lon":"121.404198857","lat":"31.0502997009","category":"500","category_name":"未知分类","address":"上海元江路"},{"poiid":"B2094655D26EA5F94798","title":"吴中精神病康复医院","lon":"121.40441","lat":"31.04085","category":"162","category_name":"医院","address":"闵行区北桥镇北中路500号"},{"poiid":"B2094757D16EA5FF4992","title":"柳岸人家","lon":"121.394017857","lat":"31.0528394184","category":"247","category_name":"餐饮美食","address":"上海市闵行区鑫都路2699弄"},{"poiid":"B2094654DB6EAAFD4898","title":"上海顺鼎科技有限公司","lon":"121.39601","lat":"31.04381","category":"263","category_name":"公司","address":"中春路1288"},{"poiid":"B2094654DB6EAAFD4899","title":"上海奂亿科技有限公司","lon":"121.39601","lat":"31.04381","category":"263","category_name":"公司","address":"中春路1288"},{"poiid":"B2094757D069ABFC489D","title":"夏朵小城(三期)","lon":"121.397407128","lat":"31.0257307141","category":"252","category_name":"楼宇机构","address":"上海银春路1799弄"},{"poiid":"B2094655D36CA5F4479F","title":"北松路华宁路(招呼站)","lon":"121.38523","lat":"31.03278","category":"38","category_name":"公交车站","address":""},{"poiid":"B2094757D069A5F9429F","title":"文洋别克4S","lon":"121.40726315","lat":"31.050309907","category":"500","category_name":"未知分类","address":"上海元江路"},{"poiid":"B2094751DA6AA0FD4093","title":"复旦大学附属上海儿科医院","lon":"121.407953","lat":"31.039398","category":"162","category_name":"医院","address":"上海市闵行区万源路399号"},{"poiid":"B2094757D16DA7F9449A","title":"莫泰168 闵行北桥店","lon":"121.40883113","lat":"31.045863773","category":"500","category_name":"未知分类","address":"上海市闵行区沪闵路2660号(近北松公路)"},{"poiid":"B2094757D66CA5FC449F","title":"回力 飞跃专卖店","lon":"121.39138112","lat":"31.031677836","category":"500","category_name":"未知分类","address":"上海上海市閔行区银春路1800弄90号"},{"poiid":"B2094655D36CA7FC4693","title":"华宁路北松公路","lon":"121.38761","lat":"31.02944","category":"38","category_name":"公交车站","address":""},{"poiid":"B2094655D36CA7FC4699","title":"华宁路银春路","lon":"121.38961","lat":"31.02439","category":"38","category_name":"公交车站","address":""},{"poiid":"B2094654DB6FA1F9469C","title":"上海沪豪汽车零部件有限公司","lon":"121.39144","lat":"31.04551","category":"263","category_name":"公司","address":"元江路3883"},{"poiid":"B2094757D16EAAFE499A","title":"上海市群益职业技术学校","lon":"121.39890185","lat":"31.050624374","category":"500","category_name":"未知分类","address":"上海元江路4080号(靠近花王路)"},{"poiid":"B2094655D26EABFD499D","title":"新苗花苑","lon":"121.40509","lat":"31.039776","category":"47","category_name":"住宅区","address":"瓶安路505弄"},{"poiid":"B2094655D36CA7FC469A","title":"华宁路元江路","lon":"121.38134","lat":"31.04221","category":"38","category_name":"公交车站","address":""},{"poiid":"B2094757D06FA7F54192","title":"北桥地铁站","lon":"121.410067407","lat":"31.0447301287","category":"36","category_name":"地铁站","address":"上海轨道交通 五号线 轨交北桥站 5"},{"poiid":"B2094757D06AA0F8449F","title":"上海航天技術研究院","lon":"121.39187495","lat":"31.045737801","category":"500","category_name":"未知分类","address":"上海閔行區元江路3888號"},{"poiid":"B2094655D26BAAFD4899","title":"夏朵小城二期(夏朵园)","lon":"121.39538","lat":"31.02771","category":"47","category_name":"住宅区","address":"银春路1799弄"},{"poiid":"B2094757D06BA4F5439A","title":"闵行北桥","lon":"121.409212","lat":"31.04328","category":"500","category_name":"未知分类","address":"上海闵行北桥"},{"poiid":"B2094655D26FA3F4429E","title":"天恒名城","lon":"121.39346","lat":"31.056587","category":"47","category_name":"住宅区","address":"上海市闵行区鑫都路2688号"},{"poiid":"B2094757D168A5F5439B","title":"世纪联华(鑫都广场店)","lon":"121.396540857","lat":"31.0563764891","category":"249","category_name":"购物服务","address":"闵行区鑫都路2532号(近中春路)"},{"poiid":"B2094757D06FAAF44892","title":"上海航天技术研究所","lon":"121.390169","lat":"31.056014","category":"500","category_name":"未知分类","address":"上海中春路联农路"},{"poiid":"B2094757DA6EAAFE419F","title":"麦当劳(鑫都路店)","lon":"121.396104599998","lat":"31.0516572999998","category":"68","category_name":"快餐厅","address":"闵行区新源路3038号(近鑫都路)"},{"poiid":"B2094757D069ABFC409D","title":"MESE","lon":"121.39949112","lat":"31.042384056","category":"46","category_name":"楼宇","address":"上海闵行区中春路1211号"},{"poiid":"B2094655D36DA0F54793","title":"元江路花王路","lon":"121.38527","lat":"31.04439","category":"38","category_name":"公交车站","address":""},{"poiid":"B2094757D069A4FF4293","title":"北桥花博园","lon":"121.408743","lat":"31.049165","category":"249","category_name":"购物服务","address":"上海沪闵路2759号"},{"poiid":"B2094655D26EA0F8499F","title":"同仁别墅","lon":"121.39296","lat":"31.03617","category":"47","category_name":"住宅区","address":"北松公路818号乙(1-15幢)"},{"poiid":"B2094654DB6EABFF499F","title":"鑫泽阳光公寓","lon":"121.39734","lat":"31.05147","category":"47","category_name":"住宅区","address":"瓶北路479弄"},{"poiid":"B2094655D26EA5F9419A","title":"翔泰苑","lon":"121.40572","lat":"31.046673","category":"47","category_name":"住宅区","address":"闵行区鹤翔路180弄"},{"poiid":"B2094655D36CA7FD439C","title":"花王路联青路","lon":"121.38991","lat":"31.04089","category":"38","category_name":"公交车站","address":""},{"poiid":"B2094655D36CA7FD439F","title":"花王路北松公路","lon":"121.39271","lat":"31.03557","category":"38","category_name":"公交车站","address":""},{"poiid":"B2094655D26FA3FC449B","title":"同仁别墅(西门)","lon":"121.39266","lat":"31.03606","category":"47","category_name":"住宅区","address":"北松公路818号乙(1-15幢)"},{"poiid":"B2094757D069AAF9409C","title":"飞碟苑","lon":"121.39519780241744","lat":"31.02768568599815","category":"47","category_name":"住宅区","address":"上海市闵行区银春路1800弄"},{"poiid":"B2094654DB65A6FA4792","title":"维纳阳光","lon":"121.3913","lat":"31.03521","category":"263","category_name":"公司","address":"闵行区北松公路838弄"},{"poiid":"B2094655D36CA5F44792","title":"北松公路中春路","lon":"121.401","lat":"31.03999","category":"38","category_name":"公交车站","address":""},{"poiid":"B2094655D26FA3F54299","title":"鑫峰苑","lon":"121.39767","lat":"31.054302","category":"47","category_name":"住宅区","address":"鑫都路2535弄"},{"poiid":"B2094751D465ABFD459D","title":"和记小菜(航天城店)","lon":"121.39454","lat":"31.05558","category":"76","category_name":"上海菜","address":"闵行区新源路3088号(近航天城)"},{"poiid":"B2094757D169A7F54198","title":"松江美术馆","lon":"121.38799812","lat":"31.038431875","category":"179","category_name":"音乐厅","address":"上海近郊松江区三新北路900弄601号"},{"poiid":"B2094750D665A0FF469C","title":"舒友海鲜大酒楼(鑫都店)","lon":"121.395","lat":"31.0554","category":"260","category_name":"其他","address":"闵行区颛桥鑫都路2558号"},{"poiid":"B2094655D36CA5F4479C","title":"北松路中春路","lon":"121.39957","lat":"31.03889","category":"38","category_name":"公交车站","address":""},{"poiid":"B2094654DB6FA1F9469E","title":"上海花王化学有限公司工厂","lon":"121.39019","lat":"31.0393","category":"263","category_name":"公司","address":"花王路333"},{"poiid":"B2094655D36DA0F54899","title":"元江路中春路","lon":"121.39101","lat":"31.04572","category":"38","category_name":"公交车站","address":""},{"poiid":"B2094655D36DA0F5489A","title":"元江路华宁路","lon":"121.37719","lat":"31.04255","category":"38","category_name":"公交车站","address":""},{"poiid":"B2094751D565AAF8499E","title":"17.5北桥影院","lon":"121.407532","lat":"31.047287","category":"248","category_name":"生活娱乐","address":"上海市闵行区鹤翔路28弄9,10号一楼"},{"poiid":"B2094757D66DABFF419F","title":"申嘉湖高速","lon":"121.391450128","lat":"31.0328108597","category":"500","category_name":"未知分类","address":"上海市闵行区北松公路"},{"poiid":"B2094654DB6FA2FD429A","title":"上海常茂胶合板有限公司(中春路)","lon":"121.39742","lat":"31.0407","category":"263","category_name":"公司","address":"中春路1088"},{"poiid":"B2094757D064A6F4429D","title":"合生城邦 四街坊","lon":"121.40320077","lat":"31.036318744","category":"252","category_name":"楼宇机构","address":"上海金平路788弄"},{"poiid":"B2094655D26FA1FD409B","title":"旭丽花园","lon":"121.39589977144","lat":"31.045031259612","category":"47","category_name":"住宅区","address":"北松公路838弄"},{"poiid":"B2094757D168A4FE499C","title":"雪佛兰文洋4s店","lon":"121.404198857","lat":"31.0502997009","category":"500","category_name":"未知分类","address":"上海元江路"},{"poiid":"B2094655D26EA5F94798","title":"吴中精神病康复医院","lon":"121.40441","lat":"31.04085","category":"162","category_name":"医院","address":"闵行区北桥镇北中路500号"},{"poiid":"B2094757D16EA5FF4992","title":"柳岸人家","lon":"121.394017857","lat":"31.0528394184","category":"247","category_name":"餐饮美食","address":"上海市闵行区鑫都路2699弄"},{"poiid":"B2094654DB6EAAFD4898","title":"上海顺鼎科技有限公司","lon":"121.39601","lat":"31.04381","category":"263","category_name":"公司","address":"中春路1288"},{"poiid":"B2094654DB6EAAFD4899","title":"上海奂亿科技有限公司","lon":"121.39601","lat":"31.04381","category":"263","category_name":"公司","address":"中春路1288"},{"poiid":"B2094757D069ABFC489D","title":"夏朵小城(三期)","lon":"121.397407128","lat":"31.0257307141","category":"252","category_name":"楼宇机构","address":"上海银春路1799弄"},{"poiid":"B2094655D36CA5F4479F","title":"北松路华宁路(招呼站)","lon":"121.38523","lat":"31.03278","category":"38","category_name":"公交车站","address":""},{"poiid":"B2094757D069A5F9429F","title":"文洋别克4S","lon":"121.40726315","lat":"31.050309907","category":"500","category_name":"未知分类","address":"上海元江路"},{"poiid":"B2094751DA6AA0FD4093","title":"复旦大学附属上海儿科医院","lon":"121.407953","lat":"31.039398","category":"162","category_name":"医院","address":"上海市闵行区万源路399号"},{"poiid":"B2094757D16DA7F9449A","title":"莫泰168 闵行北桥店","lon":"121.40883113","lat":"31.045863773","category":"500","category_name":"未知分类","address":"上海市闵行区沪闵路2660号(近北松公路)"},{"poiid":"B2094757D66CA5FC449F","title":"回力 飞跃专卖店","lon":"121.39138112","lat":"31.031677836","category":"500","category_name":"未知分类","address":"上海上海市閔行区银春路1800弄90号"},{"poiid":"B2094655D36CA7FC4693","title":"华宁路北松公路","lon":"121.38761","lat":"31.02944","category":"38","category_name":"公交车站","address":""},{"poiid":"B2094655D36CA7FC4699","title":"华宁路银春路","lon":"121.38961","lat":"31.02439","category":"38","category_name":"公交车站","address":""},{"poiid":"B2094654DB6FA1F9469C","title":"上海沪豪汽车零部件有限公司","lon":"121.39144","lat":"31.04551","category":"263","category_name":"公司","address":"元江路3883"},{"poiid":"B2094757D16EAAFE499A","title":"上海市群益职业技术学校","lon":"121.39890185","lat":"31.050624374","category":"500","category_name":"未知分类","address":"上海元江路4080号(靠近花王路)"},{"poiid":"B2094655D26EABFD499D","title":"新苗花苑","lon":"121.40509","lat":"31.039776","category":"47","category_name":"住宅区","address":"瓶安路505弄"},{"poiid":"B2094655D36CA7FC469A","title":"华宁路元江路","lon":"121.38134","lat":"31.04221","category":"38","category_name":"公交车站","address":""}]