[{"poiid":"B2094757D568AAF5429F","title":"清水","lon":"121.40934543","lat":"31.19722304","category":"95","category_name":"日本料理","address":"长宁区虹桥路1153号1楼(近姚虹路)"},{"poiid":"B2094757D66FA6FA469D","title":"宋园路地铁站","lon":"121.41167972","lat":"31.196567583","category":"36","category_name":"地铁站","address":"上海轨道交通 十号线 轨交宋园路站 10"},{"poiid":"B2094655D36CA4FD4793","title":"安顺路","lon":"121.413","lat":"31.20141","category":"38","category_name":"公交车站","address":""},{"poiid":"B2094757D068A0FE449B","title":"番茄主义餐厅","lon":"121.41300602","lat":"31.196586013","category":"94","category_name":"西餐厅","address":"长宁区虹桥路1286号(近宋园路)"},{"poiid":"B2094757D06FABFC439B","title":"华闻国际","lon":"121.41436904","lat":"31.199374998","category":"46","category_name":"楼宇","address":"长宁区中山西路999号安顺路口"},{"poiid":"B2094757D56DA5FB4799","title":"SOHO中山广场","lon":"121.41521215438843","lat":"31.198715524323195","category":"251","category_name":"出行住宿","address":"上海,上海市,中山西路1065号"},{"poiid":"B2094757D065AAF44698","title":"中山廣場","lon":"121.413092586","lat":"31.1982898065","category":"500","category_name":"未知分类","address":"上海中山西路1065號"},{"poiid":"B2094752D26DA0FD479E","title":"天辣绿色时尚餐厅(高岛屋店)","lon":"121.40826","lat":"31.19804","category":"71","category_name":"四川菜","address":"长宁区虹桥路1438号古北国际财富中心2期裙房高岛屋7楼707室"},{"poiid":"B2094757D168A3FB4399","title":"虹桥路宋园路","lon":"121.412981586","lat":"31.1980308014","category":"500","category_name":"未知分类","address":"上海市长宁区虹桥路"},{"poiid":"B2094757D068A5FD489D","title":"上海市长宁区人民法院","lon":"121.40994993","lat":"31.197566526","category":"608","category_name":"法院","address":"上海长宁区虹桥路1133号"},{"poiid":"B2094757D465A7FB489E","title":"味千拉面 华闻国际店","lon":"121.413961054","lat":"31.199308793","category":"95","category_name":"日本料理","address":"长宁区中山西路999号华闻国际1-2楼(近东华大学)"},{"poiid":"B2094757D06AABFE499C","title":"三泰养生铁板烧","lon":"121.40899658","lat":"31.20170021","category":"94","category_name":"西餐厅","address":"长宁区伊犁路135号(近安顺路)"},{"poiid":"B2094654D56BABFF499F","title":"上海爱尔眼科医院","lon":"121.41295","lat":"31.1962","category":"162","category_name":"医院","address":"长宁区虹桥路1286号(近宋园路)"},{"poiid":"B2094757D069A7F94493","title":"东华大学 旭日楼","lon":"121.412886526","lat":"31.2028334153","category":"253","category_name":"校园生活","address":"上海长宁区延安西路1882号东华大学延安路校区"},{"poiid":"B2094757D068ABFC4092","title":"虹储小区","lon":"121.41197","lat":"31.199516","category":"47","category_name":"住宅区","address":"上海长宁区虹桥路1041弄(安顺路283弄后门)"},{"poiid":"B2094654D564A1FA4792","title":"钱江商务广场","lon":"121.41","lat":"31.1969","category":"46","category_name":"楼宇","address":"上海市闵行区莲花南路1500弄"},{"poiid":"B2094655D26AABF8499C","title":"上海福泰国际商务酒店","lon":"121.41205","lat":"31.19874","category":"94","category_name":"西餐厅","address":"长宁区伊犁路88号(靠近虹桥路)地铁10号线伊犁路站下"},{"poiid":"B2094757D068AAFB4499","title":"地顺铁板烧(虹桥路店)","lon":"121.4125","lat":"31.19595","category":"95","category_name":"日本料理","address":"长宁区虹桥路1288号(近宋园路)"},{"poiid":"B2094757D06FAAF9419D","title":"虹桥小区","lon":"121.41066","lat":"31.197884","category":"47","category_name":"住宅区","address":"上海虹桥路1115弄"},{"poiid":"B2094655D268A5FC439B","title":"旺食汇","lon":"121.41436","lat":"31.19983","category":"68","category_name":"快餐厅","address":"长宁区中山西路999号华闻国际1楼(近东华大学)"},{"poiid":"B2094757D568A0F4499D","title":"中山广场三期办公楼","lon":"121.41523899","lat":"31.19848307","category":"46","category_name":"楼宇","address":"中山西路1055-1065号"},{"poiid":"B2094757D164A0FD469D","title":"肯德基(宋园路店)","lon":"121.41376458","lat":"31.19642477","category":"68","category_name":"快餐厅","address":"徐汇区虹桥路1号港汇恒隆广场1楼B108号商铺(华山路口)"},{"poiid":"B2094655D26FA6FB409A","title":"汉庭快捷(伊犁路店)","lon":"121.40904","lat":"31.20235","category":"216","category_name":"经济型连锁酒店","address":"上海市长宁区伊犁路158号(近安顺路)"},{"poiid":"B2094751D565A5F54298","title":"罗曼园高级婚礼会所","lon":"121.412182","lat":"31.199832","category":"500","category_name":"未知分类","address":null},{"poiid":"B2094655D269A4FA429C","title":"前川","lon":"121.409420054","lat":"31.196986793","category":"95","category_name":"日本料理","address":"长宁区虹桥路1157号4楼(近广播大厦)"},{"poiid":"B2094757D06AA7F94098","title":"申汇轩(伊犁路店)","lon":"121.40793","lat":"31.20067","category":"76","category_name":"上海菜","address":"长宁区伊犁路111号(安顺路口)"},{"poiid":"B2094654DB64A7FA4893","title":"炼瓦家","lon":"121.4097","lat":"31.19725","category":"269","category_name":"烧烤","address":"长宁区虹桥路1157号(近伊犁南路)"},{"poiid":"B2094757D068A5F9489D","title":"莱佛士国际设计学院","lon":"121.41444","lat":"31.202","category":"52","category_name":"高等院校","address":"长宁区延安西路1882号东华大学内"},{"poiid":"B2094757D16AA1F5449D","title":"筷辣煮艺","lon":"121.413300586","lat":"31.2004048478","category":"68","category_name":"快餐厅","address":"长宁区中山西路947号(近安顺路)"},{"poiid":"B2094655D26EA7FC4292","title":"莫泰268(上海虹桥开发区店)","lon":"121.41212","lat":"31.20283","category":"250","category_name":"公园户外","address":"上海市长宁区中山西路906号(近新华路)"},{"poiid":"B2094654D564A5FD489B","title":"吉祥馄饨安顺店","lon":"121.41361","lat":"31.2002","category":"68","category_name":"快餐厅","address":"长宁区安顺路888号(近中山西路)"},{"poiid":"B2094655D265A7FF449A","title":"虹桥市民演艺厅","lon":"121.41067","lat":"31.19812","category":"180","category_name":"剧场","address":"虹桥路1115弄2-89号"},{"poiid":"B2094750DB64AAF84498","title":"国药大厦","lon":"121.410736","lat":"31.201501","category":"252","category_name":"楼宇机构","address":"中山西路1001号"},{"poiid":"B2094751D36AA4F8429C","title":"Mario Deli(恒隆港汇店)","lon":"121.41069","lat":"31.19775","category":"94","category_name":"西餐厅","address":"徐汇区虹桥路1号恒隆港汇广场B1楼Ole超市内"},{"poiid":"B2094752D66AA7FF4693","title":"虹桥机场2号航站楼","lon":"121.410995","lat":"31.198844","category":"500","category_name":"未知分类","address":null},{"poiid":"B2094655D26FA7F44498","title":"安顺小区(南门)","lon":"121.41216","lat":"31.20006","category":"47","category_name":"住宅区","address":"安顺路300弄1-9号"},{"poiid":"B2094757D66BA0FA459B","title":"酷味乐餐厅 安顺路店 COOL","lon":"121.413749054","lat":"31.199567793","category":"68","category_name":"快餐厅","address":"长宁区安顺路245号(近中山西路)"},{"poiid":"B2094654D564A3FE459E","title":"光明便利No.180","lon":"121.41094","lat":"31.20016","category":"117","category_name":"便民商店/便利店","address":"安顺路326-328"},{"poiid":"B2094752DB69A3F94893","title":"清水日本料理","lon":"121.413836","lat":"31.197812","category":"500","category_name":"未知分类","address":"上海市 虹桥路1153号1楼(近姚虹路)"},{"poiid":"B2094654D564A3FE469F","title":"零点造型工作室","lon":"121.4117","lat":"31.20008","category":"148","category_name":"美容美发店","address":"安顺路304-3临"},{"poiid":"B2094654D564A3FD479D","title":"邮航小区","lon":"121.41167","lat":"31.19771","category":"47","category_name":"住宅区","address":"虹桥路1041弄2-76号"},{"poiid":"B2094654D564A3FE419C","title":"爱建小区","lon":"121.41031","lat":"31.199436","category":"47","category_name":"住宅区","address":"安顺路351弄2-40号"},{"poiid":"B2094655D264A7F8479F","title":"虹一生活广场","lon":"121.41308","lat":"31.19899","category":"119","category_name":"商场","address":"中山西路1030弄8号102室"},{"poiid":"B2094757D169A4FC4492","title":"魔型社","lon":"121.413764186","lat":"31.2001713432","category":"500","category_name":"未知分类","address":"长宁区安顺路242号(近东华大学后门)"},{"poiid":"B2094751DA68AAFF4098","title":"萬藏","lon":"121.4091147827538","lat":"31.19893288851361","category":"247","category_name":"餐饮美食","address":"古羊路541号"},{"poiid":"B2094757D064A2F84192","title":"京世造型","lon":"121.41376558","lat":"31.199956839","category":"148","category_name":"美容美发店","address":"上海市长宁区安顺路268号"},{"poiid":"B2094654D564A3FD4693","title":"上海艺星门诊部","lon":"121.40803","lat":"31.19779","category":"162","category_name":"医院","address":"虹桥路1165"},{"poiid":"B2094654D564A3FE4199","title":"克丽缇娜No.18672","lon":"121.41061","lat":"31.20027","category":"148","category_name":"美容美发店","address":"安顺路332"},{"poiid":"B2094655D265A4FC499A","title":"古北星期八","lon":"121.41163172887","lat":"31.197838832353","category":"47","category_name":"住宅区","address":"古北星期八位于长宁古羊路329号近古北路"},{"poiid":"B2094752D16BA5FB4792","title":"土耳其上海总领事馆","lon":"121.410865","lat":"31.200203","category":"500","category_name":"未知分类","address":null},{"poiid":"B2094757D568AAF5429F","title":"清水","lon":"121.40934543","lat":"31.19722304","category":"95","category_name":"日本料理","address":"长宁区虹桥路1153号1楼(近姚虹路)"},{"poiid":"B2094757D66FA6FA469D","title":"宋园路地铁站","lon":"121.41167972","lat":"31.196567583","category":"36","category_name":"地铁站","address":"上海轨道交通 十号线 轨交宋园路站 10"},{"poiid":"B2094655D36CA4FD4793","title":"安顺路","lon":"121.413","lat":"31.20141","category":"38","category_name":"公交车站","address":""},{"poiid":"B2094757D068A0FE449B","title":"番茄主义餐厅","lon":"121.41300602","lat":"31.196586013","category":"94","category_name":"西餐厅","address":"长宁区虹桥路1286号(近宋园路)"},{"poiid":"B2094757D06FABFC439B","title":"华闻国际","lon":"121.41436904","lat":"31.199374998","category":"46","category_name":"楼宇","address":"长宁区中山西路999号安顺路口"},{"poiid":"B2094757D56DA5FB4799","title":"SOHO中山广场","lon":"121.41521215438843","lat":"31.198715524323195","category":"251","category_name":"出行住宿","address":"上海,上海市,中山西路1065号"},{"poiid":"B2094757D065AAF44698","title":"中山廣場","lon":"121.413092586","lat":"31.1982898065","category":"500","category_name":"未知分类","address":"上海中山西路1065號"},{"poiid":"B2094752D26DA0FD479E","title":"天辣绿色时尚餐厅(高岛屋店)","lon":"121.40826","lat":"31.19804","category":"71","category_name":"四川菜","address":"长宁区虹桥路1438号古北国际财富中心2期裙房高岛屋7楼707室"},{"poiid":"B2094757D168A3FB4399","title":"虹桥路宋园路","lon":"121.412981586","lat":"31.1980308014","category":"500","category_name":"未知分类","address":"上海市长宁区虹桥路"},{"poiid":"B2094757D068A5FD489D","title":"上海市长宁区人民法院","lon":"121.40994993","lat":"31.197566526","category":"608","category_name":"法院","address":"上海长宁区虹桥路1133号"},{"poiid":"B2094757D465A7FB489E","title":"味千拉面 华闻国际店","lon":"121.413961054","lat":"31.199308793","category":"95","category_name":"日本料理","address":"长宁区中山西路999号华闻国际1-2楼(近东华大学)"},{"poiid":"B2094757D06AABFE499C","title":"三泰养生铁板烧","lon":"121.40899658","lat":"31.20170021","category":"94","category_name":"西餐厅","address":"长宁区伊犁路135号(近安顺路)"},{"poiid":"B2094654D56BABFF499F","title":"上海爱尔眼科医院","lon":"121.41295","lat":"31.1962","category":"162","category_name":"医院","address":"长宁区虹桥路1286号(近宋园路)"},{"poiid":"B2094757D069A7F94493","title":"东华大学 旭日楼","lon":"121.412886526","lat":"31.2028334153","category":"253","category_name":"校园生活","address":"上海长宁区延安西路1882号东华大学延安路校区"},{"poiid":"B2094757D068ABFC4092","title":"虹储小区","lon":"121.41197","lat":"31.199516","category":"47","category_name":"住宅区","address":"上海长宁区虹桥路1041弄(安顺路283弄后门)"},{"poiid":"B2094654D564A1FA4792","title":"钱江商务广场","lon":"121.41","lat":"31.1969","category":"46","category_name":"楼宇","address":"上海市闵行区莲花南路1500弄"},{"poiid":"B2094655D26AABF8499C","title":"上海福泰国际商务酒店","lon":"121.41205","lat":"31.19874","category":"94","category_name":"西餐厅","address":"长宁区伊犁路88号(靠近虹桥路)地铁10号线伊犁路站下"},{"poiid":"B2094757D068AAFB4499","title":"地顺铁板烧(虹桥路店)","lon":"121.4125","lat":"31.19595","category":"95","category_name":"日本料理","address":"长宁区虹桥路1288号(近宋园路)"},{"poiid":"B2094757D06FAAF9419D","title":"虹桥小区","lon":"121.41066","lat":"31.197884","category":"47","category_name":"住宅区","address":"上海虹桥路1115弄"},{"poiid":"B2094655D268A5FC439B","title":"旺食汇","lon":"121.41436","lat":"31.19983","category":"68","category_name":"快餐厅","address":"长宁区中山西路999号华闻国际1楼(近东华大学)"},{"poiid":"B2094757D568A0F4499D","title":"中山广场三期办公楼","lon":"121.41523899","lat":"31.19848307","category":"46","category_name":"楼宇","address":"中山西路1055-1065号"},{"poiid":"B2094757D164A0FD469D","title":"肯德基(宋园路店)","lon":"121.41376458","lat":"31.19642477","category":"68","category_name":"快餐厅","address":"徐汇区虹桥路1号港汇恒隆广场1楼B108号商铺(华山路口)"},{"poiid":"B2094655D26FA6FB409A","title":"汉庭快捷(伊犁路店)","lon":"121.40904","lat":"31.20235","category":"216","category_name":"经济型连锁酒店","address":"上海市长宁区伊犁路158号(近安顺路)"},{"poiid":"B2094751D565A5F54298","title":"罗曼园高级婚礼会所","lon":"121.412182","lat":"31.199832","category":"500","category_name":"未知分类","address":null},{"poiid":"B2094655D269A4FA429C","title":"前川","lon":"121.409420054","lat":"31.196986793","category":"95","category_name":"日本料理","address":"长宁区虹桥路1157号4楼(近广播大厦)"},{"poiid":"B2094757D06AA7F94098","title":"申汇轩(伊犁路店)","lon":"121.40793","lat":"31.20067","category":"76","category_name":"上海菜","address":"长宁区伊犁路111号(安顺路口)"},{"poiid":"B2094654DB64A7FA4893","title":"炼瓦家","lon":"121.4097","lat":"31.19725","category":"269","category_name":"烧烤","address":"长宁区虹桥路1157号(近伊犁南路)"},{"poiid":"B2094757D068A5F9489D","title":"莱佛士国际设计学院","lon":"121.41444","lat":"31.202","category":"52","category_name":"高等院校","address":"长宁区延安西路1882号东华大学内"},{"poiid":"B2094757D16AA1F5449D","title":"筷辣煮艺","lon":"121.413300586","lat":"31.2004048478","category":"68","category_name":"快餐厅","address":"长宁区中山西路947号(近安顺路)"},{"poiid":"B2094655D26EA7FC4292","title":"莫泰268(上海虹桥开发区店)","lon":"121.41212","lat":"31.20283","category":"250","category_name":"公园户外","address":"上海市长宁区中山西路906号(近新华路)"},{"poiid":"B2094654D564A5FD489B","title":"吉祥馄饨安顺店","lon":"121.41361","lat":"31.2002","category":"68","category_name":"快餐厅","address":"长宁区安顺路888号(近中山西路)"},{"poiid":"B2094655D265A7FF449A","title":"虹桥市民演艺厅","lon":"121.41067","lat":"31.19812","category":"180","category_name":"剧场","address":"虹桥路1115弄2-89号"},{"poiid":"B2094750DB64AAF84498","title":"国药大厦","lon":"121.410736","lat":"31.201501","category":"252","category_name":"楼宇机构","address":"中山西路1001号"},{"poiid":"B2094751D36AA4F8429C","title":"Mario Deli(恒隆港汇店)","lon":"121.41069","lat":"31.19775","category":"94","category_name":"西餐厅","address":"徐汇区虹桥路1号恒隆港汇广场B1楼Ole超市内"},{"poiid":"B2094752D66AA7FF4693","title":"虹桥机场2号航站楼","lon":"121.410995","lat":"31.198844","category":"500","category_name":"未知分类","address":null},{"poiid":"B2094655D26FA7F44498","title":"安顺小区(南门)","lon":"121.41216","lat":"31.20006","category":"47","category_name":"住宅区","address":"安顺路300弄1-9号"},{"poiid":"B2094757D66BA0FA459B","title":"酷味乐餐厅 安顺路店 COOL","lon":"121.413749054","lat":"31.199567793","category":"68","category_name":"快餐厅","address":"长宁区安顺路245号(近中山西路)"},{"poiid":"B2094654D564A3FE459E","title":"光明便利No.180","lon":"121.41094","lat":"31.20016","category":"117","category_name":"便民商店/便利店","address":"安顺路326-328"},{"poiid":"B2094752DB69A3F94893","title":"清水日本料理","lon":"121.413836","lat":"31.197812","category":"500","category_name":"未知分类","address":"上海市 虹桥路1153号1楼(近姚虹路)"},{"poiid":"B2094654D564A3FE469F","title":"零点造型工作室","lon":"121.4117","lat":"31.20008","category":"148","category_name":"美容美发店","address":"安顺路304-3临"},{"poiid":"B2094654D564A3FD479D","title":"邮航小区","lon":"121.41167","lat":"31.19771","category":"47","category_name":"住宅区","address":"虹桥路1041弄2-76号"},{"poiid":"B2094654D564A3FE419C","title":"爱建小区","lon":"121.41031","lat":"31.199436","category":"47","category_name":"住宅区","address":"安顺路351弄2-40号"},{"poiid":"B2094655D264A7F8479F","title":"虹一生活广场","lon":"121.41308","lat":"31.19899","category":"119","category_name":"商场","address":"中山西路1030弄8号102室"},{"poiid":"B2094757D169A4FC4492","title":"魔型社","lon":"121.413764186","lat":"31.2001713432","category":"500","category_name":"未知分类","address":"长宁区安顺路242号(近东华大学后门)"},{"poiid":"B2094751DA68AAFF4098","title":"萬藏","lon":"121.4091147827538","lat":"31.19893288851361","category":"247","category_name":"餐饮美食","address":"古羊路541号"},{"poiid":"B2094757D064A2F84192","title":"京世造型","lon":"121.41376558","lat":"31.199956839","category":"148","category_name":"美容美发店","address":"上海市长宁区安顺路268号"},{"poiid":"B2094654D564A3FD4693","title":"上海艺星门诊部","lon":"121.40803","lat":"31.19779","category":"162","category_name":"医院","address":"虹桥路1165"},{"poiid":"B2094654D564A3FE4199","title":"克丽缇娜No.18672","lon":"121.41061","lat":"31.20027","category":"148","category_name":"美容美发店","address":"安顺路332"},{"poiid":"B2094655D265A4FC499A","title":"古北星期八","lon":"121.41163172887","lat":"31.197838832353","category":"47","category_name":"住宅区","address":"古北星期八位于长宁古羊路329号近古北路"},{"poiid":"B2094752D16BA5FB4792","title":"土耳其上海总领事馆","lon":"121.410865","lat":"31.200203","category":"500","category_name":"未知分类","address":null},{"poiid":"B2094757D568AAF5429F","title":"清水","lon":"121.40934543","lat":"31.19722304","category":"95","category_name":"日本料理","address":"长宁区虹桥路1153号1楼(近姚虹路)"},{"poiid":"B2094757D66FA6FA469D","title":"宋园路地铁站","lon":"121.41167972","lat":"31.196567583","category":"36","category_name":"地铁站","address":"上海轨道交通 十号线 轨交宋园路站 10"},{"poiid":"B2094655D36CA4FD4793","title":"安顺路","lon":"121.413","lat":"31.20141","category":"38","category_name":"公交车站","address":""},{"poiid":"B2094757D068A0FE449B","title":"番茄主义餐厅","lon":"121.41300602","lat":"31.196586013","category":"94","category_name":"西餐厅","address":"长宁区虹桥路1286号(近宋园路)"},{"poiid":"B2094757D06FABFC439B","title":"华闻国际","lon":"121.41436904","lat":"31.199374998","category":"46","category_name":"楼宇","address":"长宁区中山西路999号安顺路口"},{"poiid":"B2094757D56DA5FB4799","title":"SOHO中山广场","lon":"121.41521215438843","lat":"31.198715524323195","category":"251","category_name":"出行住宿","address":"上海,上海市,中山西路1065号"},{"poiid":"B2094757D065AAF44698","title":"中山廣場","lon":"121.413092586","lat":"31.1982898065","category":"500","category_name":"未知分类","address":"上海中山西路1065號"},{"poiid":"B2094752D26DA0FD479E","title":"天辣绿色时尚餐厅(高岛屋店)","lon":"121.40826","lat":"31.19804","category":"71","category_name":"四川菜","address":"长宁区虹桥路1438号古北国际财富中心2期裙房高岛屋7楼707室"},{"poiid":"B2094757D168A3FB4399","title":"虹桥路宋园路","lon":"121.412981586","lat":"31.1980308014","category":"500","category_name":"未知分类","address":"上海市长宁区虹桥路"},{"poiid":"B2094757D068A5FD489D","title":"上海市长宁区人民法院","lon":"121.40994993","lat":"31.197566526","category":"608","category_name":"法院","address":"上海长宁区虹桥路1133号"},{"poiid":"B2094757D465A7FB489E","title":"味千拉面 华闻国际店","lon":"121.413961054","lat":"31.199308793","category":"95","category_name":"日本料理","address":"长宁区中山西路999号华闻国际1-2楼(近东华大学)"},{"poiid":"B2094757D06AABFE499C","title":"三泰养生铁板烧","lon":"121.40899658","lat":"31.20170021","category":"94","category_name":"西餐厅","address":"长宁区伊犁路135号(近安顺路)"},{"poiid":"B2094654D56BABFF499F","title":"上海爱尔眼科医院","lon":"121.41295","lat":"31.1962","category":"162","category_name":"医院","address":"长宁区虹桥路1286号(近宋园路)"},{"poiid":"B2094757D069A7F94493","title":"东华大学 旭日楼","lon":"121.412886526","lat":"31.2028334153","category":"253","category_name":"校园生活","address":"上海长宁区延安西路1882号东华大学延安路校区"},{"poiid":"B2094757D068ABFC4092","title":"虹储小区","lon":"121.41197","lat":"31.199516","category":"47","category_name":"住宅区","address":"上海长宁区虹桥路1041弄(安顺路283弄后门)"},{"poiid":"B2094654D564A1FA4792","title":"钱江商务广场","lon":"121.41","lat":"31.1969","category":"46","category_name":"楼宇","address":"上海市闵行区莲花南路1500弄"},{"poiid":"B2094655D26AABF8499C","title":"上海福泰国际商务酒店","lon":"121.41205","lat":"31.19874","category":"94","category_name":"西餐厅","address":"长宁区伊犁路88号(靠近虹桥路)地铁10号线伊犁路站下"},{"poiid":"B2094757D068AAFB4499","title":"地顺铁板烧(虹桥路店)","lon":"121.4125","lat":"31.19595","category":"95","category_name":"日本料理","address":"长宁区虹桥路1288号(近宋园路)"},{"poiid":"B2094757D06FAAF9419D","title":"虹桥小区","lon":"121.41066","lat":"31.197884","category":"47","category_name":"住宅区","address":"上海虹桥路1115弄"},{"poiid":"B2094655D268A5FC439B","title":"旺食汇","lon":"121.41436","lat":"31.19983","category":"68","category_name":"快餐厅","address":"长宁区中山西路999号华闻国际1楼(近东华大学)"},{"poiid":"B2094757D568A0F4499D","title":"中山广场三期办公楼","lon":"121.41523899","lat":"31.19848307","category":"46","category_name":"楼宇","address":"中山西路1055-1065号"},{"poiid":"B2094757D164A0FD469D","title":"肯德基(宋园路店)","lon":"121.41376458","lat":"31.19642477","category":"68","category_name":"快餐厅","address":"徐汇区虹桥路1号港汇恒隆广场1楼B108号商铺(华山路口)"},{"poiid":"B2094655D26FA6FB409A","title":"汉庭快捷(伊犁路店)","lon":"121.40904","lat":"31.20235","category":"216","category_name":"经济型连锁酒店","address":"上海市长宁区伊犁路158号(近安顺路)"},{"poiid":"B2094751D565A5F54298","title":"罗曼园高级婚礼会所","lon":"121.412182","lat":"31.199832","category":"500","category_name":"未知分类","address":null},{"poiid":"B2094655D269A4FA429C","title":"前川","lon":"121.409420054","lat":"31.196986793","category":"95","category_name":"日本料理","address":"长宁区虹桥路1157号4楼(近广播大厦)"},{"poiid":"B2094757D06AA7F94098","title":"申汇轩(伊犁路店)","lon":"121.40793","lat":"31.20067","category":"76","category_name":"上海菜","address":"长宁区伊犁路111号(安顺路口)"},{"poiid":"B2094654DB64A7FA4893","title":"炼瓦家","lon":"121.4097","lat":"31.19725","category":"269","category_name":"烧烤","address":"长宁区虹桥路1157号(近伊犁南路)"},{"poiid":"B2094757D068A5F9489D","title":"莱佛士国际设计学院","lon":"121.41444","lat":"31.202","category":"52","category_name":"高等院校","address":"长宁区延安西路1882号东华大学内"},{"poiid":"B2094757D16AA1F5449D","title":"筷辣煮艺","lon":"121.413300586","lat":"31.2004048478","category":"68","category_name":"快餐厅","address":"长宁区中山西路947号(近安顺路)"},{"poiid":"B2094655D26EA7FC4292","title":"莫泰268(上海虹桥开发区店)","lon":"121.41212","lat":"31.20283","category":"250","category_name":"公园户外","address":"上海市长宁区中山西路906号(近新华路)"},{"poiid":"B2094654D564A5FD489B","title":"吉祥馄饨安顺店","lon":"121.41361","lat":"31.2002","category":"68","category_name":"快餐厅","address":"长宁区安顺路888号(近中山西路)"},{"poiid":"B2094655D265A7FF449A","title":"虹桥市民演艺厅","lon":"121.41067","lat":"31.19812","category":"180","category_name":"剧场","address":"虹桥路1115弄2-89号"},{"poiid":"B2094750DB64AAF84498","title":"国药大厦","lon":"121.410736","lat":"31.201501","category":"252","category_name":"楼宇机构","address":"中山西路1001号"},{"poiid":"B2094751D36AA4F8429C","title":"Mario Deli(恒隆港汇店)","lon":"121.41069","lat":"31.19775","category":"94","category_name":"西餐厅","address":"徐汇区虹桥路1号恒隆港汇广场B1楼Ole超市内"},{"poiid":"B2094752D66AA7FF4693","title":"虹桥机场2号航站楼","lon":"121.410995","lat":"31.198844","category":"500","category_name":"未知分类","address":null},{"poiid":"B2094655D26FA7F44498","title":"安顺小区(南门)","lon":"121.41216","lat":"31.20006","category":"47","category_name":"住宅区","address":"安顺路300弄1-9号"},{"poiid":"B2094757D66BA0FA459B","title":"酷味乐餐厅 安顺路店 COOL","lon":"121.413749054","lat":"31.199567793","category":"68","category_name":"快餐厅","address":"长宁区安顺路245号(近中山西路)"},{"poiid":"B2094654D564A3FE459E","title":"光明便利No.180","lon":"121.41094","lat":"31.20016","category":"117","category_name":"便民商店/便利店","address":"安顺路326-328"},{"poiid":"B2094752DB69A3F94893","title":"清水日本料理","lon":"121.413836","lat":"31.197812","category":"500","category_name":"未知分类","address":"上海市 虹桥路1153号1楼(近姚虹路)"},{"poiid":"B2094654D564A3FE469F","title":"零点造型工作室","lon":"121.4117","lat":"31.20008","category":"148","category_name":"美容美发店","address":"安顺路304-3临"},{"poiid":"B2094654D564A3FD479D","title":"邮航小区","lon":"121.41167","lat":"31.19771","category":"47","category_name":"住宅区","address":"虹桥路1041弄2-76号"},{"poiid":"B2094654D564A3FE419C","title":"爱建小区","lon":"121.41031","lat":"31.199436","category":"47","category_name":"住宅区","address":"安顺路351弄2-40号"},{"poiid":"B2094655D264A7F8479F","title":"虹一生活广场","lon":"121.41308","lat":"31.19899","category":"119","category_name":"商场","address":"中山西路1030弄8号102室"},{"poiid":"B2094757D169A4FC4492","title":"魔型社","lon":"121.413764186","lat":"31.2001713432","category":"500","category_name":"未知分类","address":"长宁区安顺路242号(近东华大学后门)"},{"poiid":"B2094751DA68AAFF4098","title":"萬藏","lon":"121.4091147827538","lat":"31.19893288851361","category":"247","category_name":"餐饮美食","address":"古羊路541号"},{"poiid":"B2094757D064A2F84192","title":"京世造型","lon":"121.41376558","lat":"31.199956839","category":"148","category_name":"美容美发店","address":"上海市长宁区安顺路268号"},{"poiid":"B2094654D564A3FD4693","title":"上海艺星门诊部","lon":"121.40803","lat":"31.19779","category":"162","category_name":"医院","address":"虹桥路1165"},{"poiid":"B2094654D564A3FE4199","title":"克丽缇娜No.18672","lon":"121.41061","lat":"31.20027","category":"148","category_name":"美容美发店","address":"安顺路332"},{"poiid":"B2094655D265A4FC499A","title":"古北星期八","lon":"121.41163172887","lat":"31.197838832353","category":"47","category_name":"住宅区","address":"古北星期八位于长宁古羊路329号近古北路"},{"poiid":"B2094752D16BA5FB4792","title":"土耳其上海总领事馆","lon":"121.410865","lat":"31.200203","category":"500","category_name":"未知分类","address":null},{"poiid":"B2094757D568AAF5429F","title":"清水","lon":"121.40934543","lat":"31.19722304","category":"95","category_name":"日本料理","address":"长宁区虹桥路1153号1楼(近姚虹路)"},{"poiid":"B2094757D66FA6FA469D","title":"宋园路地铁站","lon":"121.41167972","lat":"31.196567583","category":"36","category_name":"地铁站","address":"上海轨道交通 十号线 轨交宋园路站 10"},{"poiid":"B2094655D36CA4FD4793","title":"安顺路","lon":"121.413","lat":"31.20141","category":"38","category_name":"公交车站","address":""},{"poiid":"B2094757D068A0FE449B","title":"番茄主义餐厅","lon":"121.41300602","lat":"31.196586013","category":"94","category_name":"西餐厅","address":"长宁区虹桥路1286号(近宋园路)"},{"poiid":"B2094757D06FABFC439B","title":"华闻国际","lon":"121.41436904","lat":"31.199374998","category":"46","category_name":"楼宇","address":"长宁区中山西路999号安顺路口"},{"poiid":"B2094757D56DA5FB4799","title":"SOHO中山广场","lon":"121.41521215438843","lat":"31.198715524323195","category":"251","category_name":"出行住宿","address":"上海,上海市,中山西路1065号"},{"poiid":"B2094757D065AAF44698","title":"中山廣場","lon":"121.413092586","lat":"31.1982898065","category":"500","category_name":"未知分类","address":"上海中山西路1065號"},{"poiid":"B2094752D26DA0FD479E","title":"天辣绿色时尚餐厅(高岛屋店)","lon":"121.40826","lat":"31.19804","category":"71","category_name":"四川菜","address":"长宁区虹桥路1438号古北国际财富中心2期裙房高岛屋7楼707室"},{"poiid":"B2094757D168A3FB4399","title":"虹桥路宋园路","lon":"121.412981586","lat":"31.1980308014","category":"500","category_name":"未知分类","address":"上海市长宁区虹桥路"},{"poiid":"B2094757D068A5FD489D","title":"上海市长宁区人民法院","lon":"121.40994993","lat":"31.197566526","category":"608","category_name":"法院","address":"上海长宁区虹桥路1133号"},{"poiid":"B2094757D465A7FB489E","title":"味千拉面 华闻国际店","lon":"121.413961054","lat":"31.199308793","category":"95","category_name":"日本料理","address":"长宁区中山西路999号华闻国际1-2楼(近东华大学)"},{"poiid":"B2094757D06AABFE499C","title":"三泰养生铁板烧","lon":"121.40899658","lat":"31.20170021","category":"94","category_name":"西餐厅","address":"长宁区伊犁路135号(近安顺路)"},{"poiid":"B2094654D56BABFF499F","title":"上海爱尔眼科医院","lon":"121.41295","lat":"31.1962","category":"162","category_name":"医院","address":"长宁区虹桥路1286号(近宋园路)"},{"poiid":"B2094757D069A7F94493","title":"东华大学 旭日楼","lon":"121.412886526","lat":"31.2028334153","category":"253","category_name":"校园生活","address":"上海长宁区延安西路1882号东华大学延安路校区"},{"poiid":"B2094757D068ABFC4092","title":"虹储小区","lon":"121.41197","lat":"31.199516","category":"47","category_name":"住宅区","address":"上海长宁区虹桥路1041弄(安顺路283弄后门)"},{"poiid":"B2094654D564A1FA4792","title":"钱江商务广场","lon":"121.41","lat":"31.1969","category":"46","category_name":"楼宇","address":"上海市闵行区莲花南路1500弄"},{"poiid":"B2094655D26AABF8499C","title":"上海福泰国际商务酒店","lon":"121.41205","lat":"31.19874","category":"94","category_name":"西餐厅","address":"长宁区伊犁路88号(靠近虹桥路)地铁10号线伊犁路站下"},{"poiid":"B2094757D068AAFB4499","title":"地顺铁板烧(虹桥路店)","lon":"121.4125","lat":"31.19595","category":"95","category_name":"日本料理","address":"长宁区虹桥路1288号(近宋园路)"},{"poiid":"B2094757D06FAAF9419D","title":"虹桥小区","lon":"121.41066","lat":"31.197884","category":"47","category_name":"住宅区","address":"上海虹桥路1115弄"},{"poiid":"B2094655D268A5FC439B","title":"旺食汇","lon":"121.41436","lat":"31.19983","category":"68","category_name":"快餐厅","address":"长宁区中山西路999号华闻国际1楼(近东华大学)"},{"poiid":"B2094757D568A0F4499D","title":"中山广场三期办公楼","lon":"121.41523899","lat":"31.19848307","category":"46","category_name":"楼宇","address":"中山西路1055-1065号"},{"poiid":"B2094757D164A0FD469D","title":"肯德基(宋园路店)","lon":"121.41376458","lat":"31.19642477","category":"68","category_name":"快餐厅","address":"徐汇区虹桥路1号港汇恒隆广场1楼B108号商铺(华山路口)"},{"poiid":"B2094655D26FA6FB409A","title":"汉庭快捷(伊犁路店)","lon":"121.40904","lat":"31.20235","category":"216","category_name":"经济型连锁酒店","address":"上海市长宁区伊犁路158号(近安顺路)"},{"poiid":"B2094751D565A5F54298","title":"罗曼园高级婚礼会所","lon":"121.412182","lat":"31.199832","category":"500","category_name":"未知分类","address":null},{"poiid":"B2094655D269A4FA429C","title":"前川","lon":"121.409420054","lat":"31.196986793","category":"95","category_name":"日本料理","address":"长宁区虹桥路1157号4楼(近广播大厦)"},{"poiid":"B2094757D06AA7F94098","title":"申汇轩(伊犁路店)","lon":"121.40793","lat":"31.20067","category":"76","category_name":"上海菜","address":"长宁区伊犁路111号(安顺路口)"},{"poiid":"B2094654DB64A7FA4893","title":"炼瓦家","lon":"121.4097","lat":"31.19725","category":"269","category_name":"烧烤","address":"长宁区虹桥路1157号(近伊犁南路)"},{"poiid":"B2094757D068A5F9489D","title":"莱佛士国际设计学院","lon":"121.41444","lat":"31.202","category":"52","category_name":"高等院校","address":"长宁区延安西路1882号东华大学内"},{"poiid":"B2094757D16AA1F5449D","title":"筷辣煮艺","lon":"121.413300586","lat":"31.2004048478","category":"68","category_name":"快餐厅","address":"长宁区中山西路947号(近安顺路)"},{"poiid":"B2094655D26EA7FC4292","title":"莫泰268(上海虹桥开发区店)","lon":"121.41212","lat":"31.20283","category":"250","category_name":"公园户外","address":"上海市长宁区中山西路906号(近新华路)"},{"poiid":"B2094654D564A5FD489B","title":"吉祥馄饨安顺店","lon":"121.41361","lat":"31.2002","category":"68","category_name":"快餐厅","address":"长宁区安顺路888号(近中山西路)"},{"poiid":"B2094655D265A7FF449A","title":"虹桥市民演艺厅","lon":"121.41067","lat":"31.19812","category":"180","category_name":"剧场","address":"虹桥路1115弄2-89号"},{"poiid":"B2094750DB64AAF84498","title":"国药大厦","lon":"121.410736","lat":"31.201501","category":"252","category_name":"楼宇机构","address":"中山西路1001号"},{"poiid":"B2094751D36AA4F8429C","title":"Mario Deli(恒隆港汇店)","lon":"121.41069","lat":"31.19775","category":"94","category_name":"西餐厅","address":"徐汇区虹桥路1号恒隆港汇广场B1楼Ole超市内"},{"poiid":"B2094752D66AA7FF4693","title":"虹桥机场2号航站楼","lon":"121.410995","lat":"31.198844","category":"500","category_name":"未知分类","address":null},{"poiid":"B2094655D26FA7F44498","title":"安顺小区(南门)","lon":"121.41216","lat":"31.20006","category":"47","category_name":"住宅区","address":"安顺路300弄1-9号"},{"poiid":"B2094757D66BA0FA459B","title":"酷味乐餐厅 安顺路店 COOL","lon":"121.413749054","lat":"31.199567793","category":"68","category_name":"快餐厅","address":"长宁区安顺路245号(近中山西路)"},{"poiid":"B2094654D564A3FE459E","title":"光明便利No.180","lon":"121.41094","lat":"31.20016","category":"117","category_name":"便民商店/便利店","address":"安顺路326-328"},{"poiid":"B2094752DB69A3F94893","title":"清水日本料理","lon":"121.413836","lat":"31.197812","category":"500","category_name":"未知分类","address":"上海市 虹桥路1153号1楼(近姚虹路)"},{"poiid":"B2094654D564A3FE469F","title":"零点造型工作室","lon":"121.4117","lat":"31.20008","category":"148","category_name":"美容美发店","address":"安顺路304-3临"},{"poiid":"B2094654D564A3FD479D","title":"邮航小区","lon":"121.41167","lat":"31.19771","category":"47","category_name":"住宅区","address":"虹桥路1041弄2-76号"},{"poiid":"B2094654D564A3FE419C","title":"爱建小区","lon":"121.41031","lat":"31.199436","category":"47","category_name":"住宅区","address":"安顺路351弄2-40号"},{"poiid":"B2094655D264A7F8479F","title":"虹一生活广场","lon":"121.41308","lat":"31.19899","category":"119","category_name":"商场","address":"中山西路1030弄8号102室"},{"poiid":"B2094757D169A4FC4492","title":"魔型社","lon":"121.413764186","lat":"31.2001713432","category":"500","category_name":"未知分类","address":"长宁区安顺路242号(近东华大学后门)"},{"poiid":"B2094751DA68AAFF4098","title":"萬藏","lon":"121.4091147827538","lat":"31.19893288851361","category":"247","category_name":"餐饮美食","address":"古羊路541号"},{"poiid":"B2094757D064A2F84192","title":"京世造型","lon":"121.41376558","lat":"31.199956839","category":"148","category_name":"美容美发店","address":"上海市长宁区安顺路268号"},{"poiid":"B2094654D564A3FD4693","title":"上海艺星门诊部","lon":"121.40803","lat":"31.19779","category":"162","category_name":"医院","address":"虹桥路1165"},{"poiid":"B2094654D564A3FE4199","title":"克丽缇娜No.18672","lon":"121.41061","lat":"31.20027","category":"148","category_name":"美容美发店","address":"安顺路332"},{"poiid":"B2094655D265A4FC499A","title":"古北星期八","lon":"121.41163172887","lat":"31.197838832353","category":"47","category_name":"住宅区","address":"古北星期八位于长宁古羊路329号近古北路"},{"poiid":"B2094752D16BA5FB4792","title":"土耳其上海总领事馆","lon":"121.410865","lat":"31.200203","category":"500","category_name":"未知分类","address":null}]