[{"poiid":"B2094757DA68A1F9429C","title":"蜀地香天下火锅","lon":"121.446033","lat":"31.188724","category":"86","category_name":"火锅店","address":"徐汇区双峰北路1号2楼(近斜土路)"},{"poiid":"B2094654DA6DA0F84598","title":"飞洲国际广场","lon":"121.444","lat":"31.1895","category":"249","category_name":"购物服务","address":"长宁路1158号贝多芬广场618室"},{"poiid":"B2094757D06FA3FD4593","title":"三人行骨头王火锅(南丹东路店)","lon":"121.44566357","lat":"31.190540663","category":"86","category_name":"火锅店","address":"徐汇区南丹东路8号(斜土路口)"},{"poiid":"B2094757D06FA2F8449E","title":"许留山(美罗店)","lon":"121.43964","lat":"31.19392","category":"67","category_name":"甜品店","address":"徐汇区肇嘉浜路1111号美罗城B1楼(近漕溪北路)"},{"poiid":"B2094757D06FA4F4429E","title":"海上阿叔(徐汇店)","lon":"121.44292","lat":"31.1905","category":"76","category_name":"上海菜","address":"徐汇区天钥桥路211号2楼(近南丹东路)"},{"poiid":"B2094757D06EABF5469A","title":"卡乐星 美罗城店","lon":"121.439313","lat":"31.193569","category":"94","category_name":"西餐厅","address":"徐汇区肇嘉浜路1111号美罗城B1-33号(近漕溪北路)"},{"poiid":"B2094757D06FA2F5439B","title":"徐汇区图书馆","lon":"121.444171458","lat":"31.1899963694","category":"181","category_name":"图书馆","address":"徐汇区南丹东路80号(近宛平南路/天钥桥路)"},{"poiid":"B2094655D26EA5F44498","title":"老上海弄堂菜馆(永新店)","lon":"121.44371","lat":"31.19263","category":"76","category_name":"上海菜","address":"徐汇区辛耕路109号永新坊3-4楼"},{"poiid":"B2094757D06FABFE419A","title":"红宝石(南丹东路店)","lon":"121.44537","lat":"31.19082","category":"67","category_name":"甜品店","address":"徐汇区南丹东路55号(近宛平南路)"},{"poiid":"B2094757D06FA3FA459D","title":"呷哺呷哺(永新坊店)","lon":"121.44362058","lat":"31.192620695","category":"86","category_name":"火锅店","address":"徐汇区天钥桥路131号永新坊B1楼15室(近辛耕路)"},{"poiid":"B2094757D06BA2FB409E","title":"西提牛排","lon":"121.44414658","lat":"31.191991683","category":"247","category_name":"餐饮美食","address":"上海市徐汇区肇嘉浜路"},{"poiid":"B2094757D06FA6F84693","title":"艺林盲人按摩院(徐汇店)","lon":"121.44342","lat":"31.18949","category":"149","category_name":"洗浴推拿场所","address":"徐汇区南丹东路100弄1号(近天钥桥路)"},{"poiid":"B2094757D068ABF94398","title":"Blue Frog","lon":"121.44707489","lat":"31.1903934479","category":"500","category_name":"未知分类","address":"上海致真汇  徐汇区辛耕路109号永新坊1-2楼(近天钥桥路)  "},{"poiid":"B2094655D26EA2F4449B","title":"衡山小馆斜土路店","lon":"121.44648","lat":"31.1911","category":"72","category_name":"广东菜","address":"徐汇区斜土路2428号海螺花园(近宛平南路)"},{"poiid":"B2094655D36DA1FA4799","title":"致真汇","lon":"121.4438","lat":"31.19245","category":"76","category_name":"上海菜","address":"徐汇区辛耕路109号永新坊1-2楼(近天钥桥路)"},{"poiid":"B2094751D568A4F84992","title":"沁泰（永新坊店）","lon":"121.444131","lat":"31.19286","category":"247","category_name":"餐饮美食","address":"徐汇区辛耕路109号永新坊1楼(近天钥桥路)"},{"poiid":"B2094750D268A3F44993","title":"塔顶泰国菜","lon":"121.443313","lat":"31.192365","category":"247","category_name":"餐饮美食","address":null},{"poiid":"B2094757D068A1F4449D","title":"花乐·神田川","lon":"121.446604928","lat":"31.1918430256","category":"95","category_name":"日本料理","address":"徐汇区斜土路2421号4号楼(近宛平南路)"},{"poiid":"B2094654DB69A5FD4299","title":"锦江之星(宛平南路店)","lon":"121.44693","lat":"31.19016","category":"216","category_name":"经济型连锁酒店","address":"徐汇区宛平南路404号(近零陵路)"},{"poiid":"B2094757D068AAF8419C","title":"徐家汇社区文化中心","lon":"121.44399","lat":"31.19025","category":"179","category_name":"音乐厅","address":"上海徐汇区南丹东路109号(近天钥桥路)"},{"poiid":"B2094655D268A7F8459E","title":"电影华苑","lon":"121.446","lat":"31.1901","category":"47","category_name":"住宅区","address":"上海市徐汇区零陵路751号"},{"poiid":"B2094752D565A2F4499B","title":"塔顶泰国时尚餐厅","lon":"121.443398","lat":"31.192559","category":"247","category_name":"餐饮美食","address":"徐家汇永新坊"},{"poiid":"B2094654DB6BA5F8429E","title":"莫泰168连锁旅店(宛平南路店)","lon":"121.44722","lat":"31.19062","category":"216","category_name":"经济型连锁酒店","address":"上海市宛平南路400号（近斜土路）"},{"poiid":"B2094750DA6AA2FB469B","title":"麝香貓永新訪店","lon":"121.443374","lat":"31.192564","category":"247","category_name":"餐饮美食","address":"徐汇区辛耕路113号"},{"poiid":"B2094757D068A2FD489A","title":"京世造型(宛平店)","lon":"121.446784","lat":"31.192901","category":"148","category_name":"美容美发店","address":"上海徐汇区宛平南路271号"},{"poiid":"B2094757D06FA6F4439B","title":"85度C(南丹店)","lon":"121.445687517","lat":"31.1907925339","category":"112","category_name":"糕饼店","address":"徐汇区南丹东路8号(近斜土路)"},{"poiid":"B2094757D06FA6F4439D","title":"徐汇区科技馆","lon":"121.44429","lat":"31.19017","category":"179","category_name":"音乐厅","address":"徐汇区南丹东路60号(近宛平南路)"},{"poiid":"B2094655D265A2FE4592","title":"东方网","lon":"121.44479","lat":"31.18876","category":"263","category_name":"公司","address":"上海斜土路2567号"},{"poiid":"B2094655D26FA5FF469D","title":"天际花园","lon":"121.44474","lat":"31.19184","category":"47","category_name":"住宅区","address":"南丹东路99弄1-22号"},{"poiid":"B2094752D36CA6FD449C","title":"牛New寿喜锅","lon":"121.443196","lat":"31.192287","category":"247","category_name":"餐饮美食","address":"上海徐汇区天钥桥路13-1层13室"},{"poiid":"B2094757D068A2F44498","title":"珞迦瑜伽(辛耕路店)","lon":"121.44414","lat":"31.19241","category":"148","category_name":"美容美发店","address":"徐汇区辛耕路88号(近天钥桥路)"},{"poiid":"B2094757D469A6FE439B","title":"凯司令西点房 南丹东路店","lon":"121.44516","lat":"31.19114","category":"67","category_name":"甜品店","address":"徐汇区南丹东路65号(近天钥桥路)"},{"poiid":"B2094752D76AA5FF4793","title":"丸龟制面（永新坊）","lon":"121.443207","lat":"31.192383","category":"247","category_name":"餐饮美食","address":null},{"poiid":"B2094757D068A0FD489E","title":"老娘舅 天钥桥路店","lon":"121.441437","lat":"31.192859","category":"68","category_name":"快餐厅","address":"徐汇区天钥桥路123号2楼(近辛耕路)"},{"poiid":"B2094654DA6DA1FC469F","title":"海螺花园(宛平南路)","lon":"121.44661","lat":"31.19069","category":"47","category_name":"住宅区","address":"宛平南路388弄1-6号"},{"poiid":"B2094757D065A3FA429D","title":"Any Hair 安奈造型","lon":"121.444054659","lat":"31.1906590091","category":"148","category_name":"美容美发店","address":"上海徐汇区南丹东路107号(近天钥桥路)"},{"poiid":"B2094654DB69AAF9419F","title":"湘轩土菜馆(徐家汇店)","lon":"121.44734","lat":"31.19093","category":"247","category_name":"餐饮美食","address":"徐汇区宛平南路368号(近斜土路)"},{"poiid":"B2094757D66DA4F9499E","title":"釜山料理","lon":"121.44442258","lat":"31.192564694","category":"247","category_name":"餐饮美食","address":"上海市徐汇区肇嘉浜路"},{"poiid":"B2094752D164A7F4469E","title":"上海市永新坊糖品","lon":"121.443954","lat":"31.189346","category":"500","category_name":"未知分类","address":null},{"poiid":"B2094655D26FA3FF439F","title":"汉庭快捷","lon":"121.44358","lat":"31.19053","category":"216","category_name":"经济型连锁酒店","address":"南丹东路111号(近天钥桥路)"},{"poiid":"B2094655D26AA0F4429B","title":"心一代 南丹店","lon":"121.442943054","lat":"31.189597793","category":"68","category_name":"快餐厅","address":"徐汇区南丹东路106号(近天钥桥路)"},{"poiid":"B2094757D06FA6FB4693","title":"优衣库(永新坊店)","lon":"121.44304812","lat":"31.191608517","category":"141","category_name":"服装鞋帽皮具店","address":"上海徐汇区天钥桥路131号永新坊1楼(近辛耕路)  "},{"poiid":"B2094757D068A4F84293","title":"招商银行 徐家汇支行","lon":"121.44308043","lat":"31.190656973","category":"150","category_name":"银行","address":"徐汇区漕溪北路18号上实大厦1楼(近虹桥路)"},{"poiid":"B2094654DA6DA2F4459C","title":"上海广电影视制作有限公司","lon":"121.44518","lat":"31.18856","category":"252","category_name":"楼宇机构","address":"斜土路2570"},{"poiid":"B2094752D569A0F8459F","title":"王品牛排","lon":"121.446143","lat":"31.188735","category":"247","category_name":"餐饮美食","address":"漕溪北路"},{"poiid":"B2094655D26FA5FC479C","title":"永新世纪","lon":"121.44489","lat":"31.19298","category":"47","category_name":"住宅区","address":"辛耕路81弄"},{"poiid":"B2094750D56FA5FC459A","title":"国泰电影院","lon":"121.445716","lat":"31.192508","category":"178","category_name":"电影院","address":null},{"poiid":"B2094753D765A7F54899","title":"K11艺术购物中心","lon":"121.443344","lat":"31.191282","category":"500","category_name":"未知分类","address":"上海市 上海市黄浦区淮海中路300号（近黄陂南路）"},{"poiid":"B2094654DA6DA1FC469A","title":"佳安公寓","lon":"121.44669","lat":"31.189707","category":"47","category_name":"住宅区","address":"宛平南路420弄1-14号"},{"poiid":"B2094757DA6EA4FD409C","title":"韩元庄","lon":"121.447621","lat":"31.190539","category":"247","category_name":"餐饮美食","address":"徐汇区宛平南路404号(近零陵路)"},{"poiid":"B2094757DA68A1F9429C","title":"蜀地香天下火锅","lon":"121.446033","lat":"31.188724","category":"86","category_name":"火锅店","address":"徐汇区双峰北路1号2楼(近斜土路)"},{"poiid":"B2094654DA6DA0F84598","title":"飞洲国际广场","lon":"121.444","lat":"31.1895","category":"249","category_name":"购物服务","address":"长宁路1158号贝多芬广场618室"},{"poiid":"B2094757D06FA3FD4593","title":"三人行骨头王火锅(南丹东路店)","lon":"121.44566357","lat":"31.190540663","category":"86","category_name":"火锅店","address":"徐汇区南丹东路8号(斜土路口)"},{"poiid":"B2094757D06FA2F8449E","title":"许留山(美罗店)","lon":"121.43964","lat":"31.19392","category":"67","category_name":"甜品店","address":"徐汇区肇嘉浜路1111号美罗城B1楼(近漕溪北路)"},{"poiid":"B2094757D06FA4F4429E","title":"海上阿叔(徐汇店)","lon":"121.44292","lat":"31.1905","category":"76","category_name":"上海菜","address":"徐汇区天钥桥路211号2楼(近南丹东路)"},{"poiid":"B2094757D06EABF5469A","title":"卡乐星 美罗城店","lon":"121.439313","lat":"31.193569","category":"94","category_name":"西餐厅","address":"徐汇区肇嘉浜路1111号美罗城B1-33号(近漕溪北路)"},{"poiid":"B2094757D06FA2F5439B","title":"徐汇区图书馆","lon":"121.444171458","lat":"31.1899963694","category":"181","category_name":"图书馆","address":"徐汇区南丹东路80号(近宛平南路/天钥桥路)"},{"poiid":"B2094655D26EA5F44498","title":"老上海弄堂菜馆(永新店)","lon":"121.44371","lat":"31.19263","category":"76","category_name":"上海菜","address":"徐汇区辛耕路109号永新坊3-4楼"},{"poiid":"B2094757D06FABFE419A","title":"红宝石(南丹东路店)","lon":"121.44537","lat":"31.19082","category":"67","category_name":"甜品店","address":"徐汇区南丹东路55号(近宛平南路)"},{"poiid":"B2094757D06FA3FA459D","title":"呷哺呷哺(永新坊店)","lon":"121.44362058","lat":"31.192620695","category":"86","category_name":"火锅店","address":"徐汇区天钥桥路131号永新坊B1楼15室(近辛耕路)"},{"poiid":"B2094757D06BA2FB409E","title":"西提牛排","lon":"121.44414658","lat":"31.191991683","category":"247","category_name":"餐饮美食","address":"上海市徐汇区肇嘉浜路"},{"poiid":"B2094757D06FA6F84693","title":"艺林盲人按摩院(徐汇店)","lon":"121.44342","lat":"31.18949","category":"149","category_name":"洗浴推拿场所","address":"徐汇区南丹东路100弄1号(近天钥桥路)"},{"poiid":"B2094757D068ABF94398","title":"Blue Frog","lon":"121.44707489","lat":"31.1903934479","category":"500","category_name":"未知分类","address":"上海致真汇  徐汇区辛耕路109号永新坊1-2楼(近天钥桥路)  "},{"poiid":"B2094655D26EA2F4449B","title":"衡山小馆斜土路店","lon":"121.44648","lat":"31.1911","category":"72","category_name":"广东菜","address":"徐汇区斜土路2428号海螺花园(近宛平南路)"},{"poiid":"B2094655D36DA1FA4799","title":"致真汇","lon":"121.4438","lat":"31.19245","category":"76","category_name":"上海菜","address":"徐汇区辛耕路109号永新坊1-2楼(近天钥桥路)"},{"poiid":"B2094751D568A4F84992","title":"沁泰（永新坊店）","lon":"121.444131","lat":"31.19286","category":"247","category_name":"餐饮美食","address":"徐汇区辛耕路109号永新坊1楼(近天钥桥路)"},{"poiid":"B2094750D268A3F44993","title":"塔顶泰国菜","lon":"121.443313","lat":"31.192365","category":"247","category_name":"餐饮美食","address":null},{"poiid":"B2094757D068A1F4449D","title":"花乐·神田川","lon":"121.446604928","lat":"31.1918430256","category":"95","category_name":"日本料理","address":"徐汇区斜土路2421号4号楼(近宛平南路)"},{"poiid":"B2094654DB69A5FD4299","title":"锦江之星(宛平南路店)","lon":"121.44693","lat":"31.19016","category":"216","category_name":"经济型连锁酒店","address":"徐汇区宛平南路404号(近零陵路)"},{"poiid":"B2094757D068AAF8419C","title":"徐家汇社区文化中心","lon":"121.44399","lat":"31.19025","category":"179","category_name":"音乐厅","address":"上海徐汇区南丹东路109号(近天钥桥路)"},{"poiid":"B2094655D268A7F8459E","title":"电影华苑","lon":"121.446","lat":"31.1901","category":"47","category_name":"住宅区","address":"上海市徐汇区零陵路751号"},{"poiid":"B2094752D565A2F4499B","title":"塔顶泰国时尚餐厅","lon":"121.443398","lat":"31.192559","category":"247","category_name":"餐饮美食","address":"徐家汇永新坊"},{"poiid":"B2094654DB6BA5F8429E","title":"莫泰168连锁旅店(宛平南路店)","lon":"121.44722","lat":"31.19062","category":"216","category_name":"经济型连锁酒店","address":"上海市宛平南路400号（近斜土路）"},{"poiid":"B2094750DA6AA2FB469B","title":"麝香貓永新訪店","lon":"121.443374","lat":"31.192564","category":"247","category_name":"餐饮美食","address":"徐汇区辛耕路113号"},{"poiid":"B2094757D068A2FD489A","title":"京世造型(宛平店)","lon":"121.446784","lat":"31.192901","category":"148","category_name":"美容美发店","address":"上海徐汇区宛平南路271号"},{"poiid":"B2094757D06FA6F4439B","title":"85度C(南丹店)","lon":"121.445687517","lat":"31.1907925339","category":"112","category_name":"糕饼店","address":"徐汇区南丹东路8号(近斜土路)"},{"poiid":"B2094757D06FA6F4439D","title":"徐汇区科技馆","lon":"121.44429","lat":"31.19017","category":"179","category_name":"音乐厅","address":"徐汇区南丹东路60号(近宛平南路)"},{"poiid":"B2094655D265A2FE4592","title":"东方网","lon":"121.44479","lat":"31.18876","category":"263","category_name":"公司","address":"上海斜土路2567号"},{"poiid":"B2094655D26FA5FF469D","title":"天际花园","lon":"121.44474","lat":"31.19184","category":"47","category_name":"住宅区","address":"南丹东路99弄1-22号"},{"poiid":"B2094752D36CA6FD449C","title":"牛New寿喜锅","lon":"121.443196","lat":"31.192287","category":"247","category_name":"餐饮美食","address":"上海徐汇区天钥桥路13-1层13室"},{"poiid":"B2094757D068A2F44498","title":"珞迦瑜伽(辛耕路店)","lon":"121.44414","lat":"31.19241","category":"148","category_name":"美容美发店","address":"徐汇区辛耕路88号(近天钥桥路)"},{"poiid":"B2094757D469A6FE439B","title":"凯司令西点房 南丹东路店","lon":"121.44516","lat":"31.19114","category":"67","category_name":"甜品店","address":"徐汇区南丹东路65号(近天钥桥路)"},{"poiid":"B2094752D76AA5FF4793","title":"丸龟制面（永新坊）","lon":"121.443207","lat":"31.192383","category":"247","category_name":"餐饮美食","address":null},{"poiid":"B2094757D068A0FD489E","title":"老娘舅 天钥桥路店","lon":"121.441437","lat":"31.192859","category":"68","category_name":"快餐厅","address":"徐汇区天钥桥路123号2楼(近辛耕路)"},{"poiid":"B2094654DA6DA1FC469F","title":"海螺花园(宛平南路)","lon":"121.44661","lat":"31.19069","category":"47","category_name":"住宅区","address":"宛平南路388弄1-6号"},{"poiid":"B2094757D065A3FA429D","title":"Any Hair 安奈造型","lon":"121.444054659","lat":"31.1906590091","category":"148","category_name":"美容美发店","address":"上海徐汇区南丹东路107号(近天钥桥路)"},{"poiid":"B2094654DB69AAF9419F","title":"湘轩土菜馆(徐家汇店)","lon":"121.44734","lat":"31.19093","category":"247","category_name":"餐饮美食","address":"徐汇区宛平南路368号(近斜土路)"},{"poiid":"B2094757D66DA4F9499E","title":"釜山料理","lon":"121.44442258","lat":"31.192564694","category":"247","category_name":"餐饮美食","address":"上海市徐汇区肇嘉浜路"},{"poiid":"B2094752D164A7F4469E","title":"上海市永新坊糖品","lon":"121.443954","lat":"31.189346","category":"500","category_name":"未知分类","address":null},{"poiid":"B2094655D26FA3FF439F","title":"汉庭快捷","lon":"121.44358","lat":"31.19053","category":"216","category_name":"经济型连锁酒店","address":"南丹东路111号(近天钥桥路)"},{"poiid":"B2094655D26AA0F4429B","title":"心一代 南丹店","lon":"121.442943054","lat":"31.189597793","category":"68","category_name":"快餐厅","address":"徐汇区南丹东路106号(近天钥桥路)"},{"poiid":"B2094757D06FA6FB4693","title":"优衣库(永新坊店)","lon":"121.44304812","lat":"31.191608517","category":"141","category_name":"服装鞋帽皮具店","address":"上海徐汇区天钥桥路131号永新坊1楼(近辛耕路)  "},{"poiid":"B2094757D068A4F84293","title":"招商银行 徐家汇支行","lon":"121.44308043","lat":"31.190656973","category":"150","category_name":"银行","address":"徐汇区漕溪北路18号上实大厦1楼(近虹桥路)"},{"poiid":"B2094654DA6DA2F4459C","title":"上海广电影视制作有限公司","lon":"121.44518","lat":"31.18856","category":"252","category_name":"楼宇机构","address":"斜土路2570"},{"poiid":"B2094752D569A0F8459F","title":"王品牛排","lon":"121.446143","lat":"31.188735","category":"247","category_name":"餐饮美食","address":"漕溪北路"},{"poiid":"B2094655D26FA5FC479C","title":"永新世纪","lon":"121.44489","lat":"31.19298","category":"47","category_name":"住宅区","address":"辛耕路81弄"},{"poiid":"B2094750D56FA5FC459A","title":"国泰电影院","lon":"121.445716","lat":"31.192508","category":"178","category_name":"电影院","address":null},{"poiid":"B2094753D765A7F54899","title":"K11艺术购物中心","lon":"121.443344","lat":"31.191282","category":"500","category_name":"未知分类","address":"上海市 上海市黄浦区淮海中路300号（近黄陂南路）"},{"poiid":"B2094654DA6DA1FC469A","title":"佳安公寓","lon":"121.44669","lat":"31.189707","category":"47","category_name":"住宅区","address":"宛平南路420弄1-14号"},{"poiid":"B2094757DA6EA4FD409C","title":"韩元庄","lon":"121.447621","lat":"31.190539","category":"247","category_name":"餐饮美食","address":"徐汇区宛平南路404号(近零陵路)"},{"poiid":"B2094757DA68A1F9429C","title":"蜀地香天下火锅","lon":"121.446033","lat":"31.188724","category":"86","category_name":"火锅店","address":"徐汇区双峰北路1号2楼(近斜土路)"},{"poiid":"B2094654DA6DA0F84598","title":"飞洲国际广场","lon":"121.444","lat":"31.1895","category":"249","category_name":"购物服务","address":"长宁路1158号贝多芬广场618室"},{"poiid":"B2094757D06FA3FD4593","title":"三人行骨头王火锅(南丹东路店)","lon":"121.44566357","lat":"31.190540663","category":"86","category_name":"火锅店","address":"徐汇区南丹东路8号(斜土路口)"},{"poiid":"B2094757D06FA2F8449E","title":"许留山(美罗店)","lon":"121.43964","lat":"31.19392","category":"67","category_name":"甜品店","address":"徐汇区肇嘉浜路1111号美罗城B1楼(近漕溪北路)"},{"poiid":"B2094757D06FA4F4429E","title":"海上阿叔(徐汇店)","lon":"121.44292","lat":"31.1905","category":"76","category_name":"上海菜","address":"徐汇区天钥桥路211号2楼(近南丹东路)"},{"poiid":"B2094757D06EABF5469A","title":"卡乐星 美罗城店","lon":"121.439313","lat":"31.193569","category":"94","category_name":"西餐厅","address":"徐汇区肇嘉浜路1111号美罗城B1-33号(近漕溪北路)"},{"poiid":"B2094757D06FA2F5439B","title":"徐汇区图书馆","lon":"121.444171458","lat":"31.1899963694","category":"181","category_name":"图书馆","address":"徐汇区南丹东路80号(近宛平南路/天钥桥路)"},{"poiid":"B2094655D26EA5F44498","title":"老上海弄堂菜馆(永新店)","lon":"121.44371","lat":"31.19263","category":"76","category_name":"上海菜","address":"徐汇区辛耕路109号永新坊3-4楼"},{"poiid":"B2094757D06FABFE419A","title":"红宝石(南丹东路店)","lon":"121.44537","lat":"31.19082","category":"67","category_name":"甜品店","address":"徐汇区南丹东路55号(近宛平南路)"},{"poiid":"B2094757D06FA3FA459D","title":"呷哺呷哺(永新坊店)","lon":"121.44362058","lat":"31.192620695","category":"86","category_name":"火锅店","address":"徐汇区天钥桥路131号永新坊B1楼15室(近辛耕路)"},{"poiid":"B2094757D06BA2FB409E","title":"西提牛排","lon":"121.44414658","lat":"31.191991683","category":"247","category_name":"餐饮美食","address":"上海市徐汇区肇嘉浜路"},{"poiid":"B2094757D06FA6F84693","title":"艺林盲人按摩院(徐汇店)","lon":"121.44342","lat":"31.18949","category":"149","category_name":"洗浴推拿场所","address":"徐汇区南丹东路100弄1号(近天钥桥路)"},{"poiid":"B2094757D068ABF94398","title":"Blue Frog","lon":"121.44707489","lat":"31.1903934479","category":"500","category_name":"未知分类","address":"上海致真汇  徐汇区辛耕路109号永新坊1-2楼(近天钥桥路)  "},{"poiid":"B2094655D26EA2F4449B","title":"衡山小馆斜土路店","lon":"121.44648","lat":"31.1911","category":"72","category_name":"广东菜","address":"徐汇区斜土路2428号海螺花园(近宛平南路)"},{"poiid":"B2094655D36DA1FA4799","title":"致真汇","lon":"121.4438","lat":"31.19245","category":"76","category_name":"上海菜","address":"徐汇区辛耕路109号永新坊1-2楼(近天钥桥路)"},{"poiid":"B2094751D568A4F84992","title":"沁泰（永新坊店）","lon":"121.444131","lat":"31.19286","category":"247","category_name":"餐饮美食","address":"徐汇区辛耕路109号永新坊1楼(近天钥桥路)"},{"poiid":"B2094750D268A3F44993","title":"塔顶泰国菜","lon":"121.443313","lat":"31.192365","category":"247","category_name":"餐饮美食","address":null},{"poiid":"B2094757D068A1F4449D","title":"花乐·神田川","lon":"121.446604928","lat":"31.1918430256","category":"95","category_name":"日本料理","address":"徐汇区斜土路2421号4号楼(近宛平南路)"},{"poiid":"B2094654DB69A5FD4299","title":"锦江之星(宛平南路店)","lon":"121.44693","lat":"31.19016","category":"216","category_name":"经济型连锁酒店","address":"徐汇区宛平南路404号(近零陵路)"},{"poiid":"B2094757D068AAF8419C","title":"徐家汇社区文化中心","lon":"121.44399","lat":"31.19025","category":"179","category_name":"音乐厅","address":"上海徐汇区南丹东路109号(近天钥桥路)"},{"poiid":"B2094655D268A7F8459E","title":"电影华苑","lon":"121.446","lat":"31.1901","category":"47","category_name":"住宅区","address":"上海市徐汇区零陵路751号"},{"poiid":"B2094752D565A2F4499B","title":"塔顶泰国时尚餐厅","lon":"121.443398","lat":"31.192559","category":"247","category_name":"餐饮美食","address":"徐家汇永新坊"},{"poiid":"B2094654DB6BA5F8429E","title":"莫泰168连锁旅店(宛平南路店)","lon":"121.44722","lat":"31.19062","category":"216","category_name":"经济型连锁酒店","address":"上海市宛平南路400号（近斜土路）"},{"poiid":"B2094750DA6AA2FB469B","title":"麝香貓永新訪店","lon":"121.443374","lat":"31.192564","category":"247","category_name":"餐饮美食","address":"徐汇区辛耕路113号"},{"poiid":"B2094757D068A2FD489A","title":"京世造型(宛平店)","lon":"121.446784","lat":"31.192901","category":"148","category_name":"美容美发店","address":"上海徐汇区宛平南路271号"},{"poiid":"B2094757D06FA6F4439B","title":"85度C(南丹店)","lon":"121.445687517","lat":"31.1907925339","category":"112","category_name":"糕饼店","address":"徐汇区南丹东路8号(近斜土路)"},{"poiid":"B2094757D06FA6F4439D","title":"徐汇区科技馆","lon":"121.44429","lat":"31.19017","category":"179","category_name":"音乐厅","address":"徐汇区南丹东路60号(近宛平南路)"},{"poiid":"B2094655D265A2FE4592","title":"东方网","lon":"121.44479","lat":"31.18876","category":"263","category_name":"公司","address":"上海斜土路2567号"},{"poiid":"B2094655D26FA5FF469D","title":"天际花园","lon":"121.44474","lat":"31.19184","category":"47","category_name":"住宅区","address":"南丹东路99弄1-22号"},{"poiid":"B2094752D36CA6FD449C","title":"牛New寿喜锅","lon":"121.443196","lat":"31.192287","category":"247","category_name":"餐饮美食","address":"上海徐汇区天钥桥路13-1层13室"},{"poiid":"B2094757D068A2F44498","title":"珞迦瑜伽(辛耕路店)","lon":"121.44414","lat":"31.19241","category":"148","category_name":"美容美发店","address":"徐汇区辛耕路88号(近天钥桥路)"},{"poiid":"B2094757D469A6FE439B","title":"凯司令西点房 南丹东路店","lon":"121.44516","lat":"31.19114","category":"67","category_name":"甜品店","address":"徐汇区南丹东路65号(近天钥桥路)"},{"poiid":"B2094752D76AA5FF4793","title":"丸龟制面（永新坊）","lon":"121.443207","lat":"31.192383","category":"247","category_name":"餐饮美食","address":null},{"poiid":"B2094757D068A0FD489E","title":"老娘舅 天钥桥路店","lon":"121.441437","lat":"31.192859","category":"68","category_name":"快餐厅","address":"徐汇区天钥桥路123号2楼(近辛耕路)"},{"poiid":"B2094654DA6DA1FC469F","title":"海螺花园(宛平南路)","lon":"121.44661","lat":"31.19069","category":"47","category_name":"住宅区","address":"宛平南路388弄1-6号"},{"poiid":"B2094757D065A3FA429D","title":"Any Hair 安奈造型","lon":"121.444054659","lat":"31.1906590091","category":"148","category_name":"美容美发店","address":"上海徐汇区南丹东路107号(近天钥桥路)"},{"poiid":"B2094654DB69AAF9419F","title":"湘轩土菜馆(徐家汇店)","lon":"121.44734","lat":"31.19093","category":"247","category_name":"餐饮美食","address":"徐汇区宛平南路368号(近斜土路)"},{"poiid":"B2094757D66DA4F9499E","title":"釜山料理","lon":"121.44442258","lat":"31.192564694","category":"247","category_name":"餐饮美食","address":"上海市徐汇区肇嘉浜路"},{"poiid":"B2094752D164A7F4469E","title":"上海市永新坊糖品","lon":"121.443954","lat":"31.189346","category":"500","category_name":"未知分类","address":null},{"poiid":"B2094655D26FA3FF439F","title":"汉庭快捷","lon":"121.44358","lat":"31.19053","category":"216","category_name":"经济型连锁酒店","address":"南丹东路111号(近天钥桥路)"},{"poiid":"B2094655D26AA0F4429B","title":"心一代 南丹店","lon":"121.442943054","lat":"31.189597793","category":"68","category_name":"快餐厅","address":"徐汇区南丹东路106号(近天钥桥路)"},{"poiid":"B2094757D06FA6FB4693","title":"优衣库(永新坊店)","lon":"121.44304812","lat":"31.191608517","category":"141","category_name":"服装鞋帽皮具店","address":"上海徐汇区天钥桥路131号永新坊1楼(近辛耕路)  "},{"poiid":"B2094757D068A4F84293","title":"招商银行 徐家汇支行","lon":"121.44308043","lat":"31.190656973","category":"150","category_name":"银行","address":"徐汇区漕溪北路18号上实大厦1楼(近虹桥路)"},{"poiid":"B2094654DA6DA2F4459C","title":"上海广电影视制作有限公司","lon":"121.44518","lat":"31.18856","category":"252","category_name":"楼宇机构","address":"斜土路2570"},{"poiid":"B2094752D569A0F8459F","title":"王品牛排","lon":"121.446143","lat":"31.188735","category":"247","category_name":"餐饮美食","address":"漕溪北路"},{"poiid":"B2094655D26FA5FC479C","title":"永新世纪","lon":"121.44489","lat":"31.19298","category":"47","category_name":"住宅区","address":"辛耕路81弄"},{"poiid":"B2094750D56FA5FC459A","title":"国泰电影院","lon":"121.445716","lat":"31.192508","category":"178","category_name":"电影院","address":null},{"poiid":"B2094753D765A7F54899","title":"K11艺术购物中心","lon":"121.443344","lat":"31.191282","category":"500","category_name":"未知分类","address":"上海市 上海市黄浦区淮海中路300号（近黄陂南路）"},{"poiid":"B2094654DA6DA1FC469A","title":"佳安公寓","lon":"121.44669","lat":"31.189707","category":"47","category_name":"住宅区","address":"宛平南路420弄1-14号"},{"poiid":"B2094757DA6EA4FD409C","title":"韩元庄","lon":"121.447621","lat":"31.190539","category":"247","category_name":"餐饮美食","address":"徐汇区宛平南路404号(近零陵路)"},{"poiid":"B2094757DA68A1F9429C","title":"蜀地香天下火锅","lon":"121.446033","lat":"31.188724","category":"86","category_name":"火锅店","address":"徐汇区双峰北路1号2楼(近斜土路)"},{"poiid":"B2094654DA6DA0F84598","title":"飞洲国际广场","lon":"121.444","lat":"31.1895","category":"249","category_name":"购物服务","address":"长宁路1158号贝多芬广场618室"},{"poiid":"B2094757D06FA3FD4593","title":"三人行骨头王火锅(南丹东路店)","lon":"121.44566357","lat":"31.190540663","category":"86","category_name":"火锅店","address":"徐汇区南丹东路8号(斜土路口)"},{"poiid":"B2094757D06FA2F8449E","title":"许留山(美罗店)","lon":"121.43964","lat":"31.19392","category":"67","category_name":"甜品店","address":"徐汇区肇嘉浜路1111号美罗城B1楼(近漕溪北路)"},{"poiid":"B2094757D06FA4F4429E","title":"海上阿叔(徐汇店)","lon":"121.44292","lat":"31.1905","category":"76","category_name":"上海菜","address":"徐汇区天钥桥路211号2楼(近南丹东路)"},{"poiid":"B2094757D06EABF5469A","title":"卡乐星 美罗城店","lon":"121.439313","lat":"31.193569","category":"94","category_name":"西餐厅","address":"徐汇区肇嘉浜路1111号美罗城B1-33号(近漕溪北路)"},{"poiid":"B2094757D06FA2F5439B","title":"徐汇区图书馆","lon":"121.444171458","lat":"31.1899963694","category":"181","category_name":"图书馆","address":"徐汇区南丹东路80号(近宛平南路/天钥桥路)"},{"poiid":"B2094655D26EA5F44498","title":"老上海弄堂菜馆(永新店)","lon":"121.44371","lat":"31.19263","category":"76","category_name":"上海菜","address":"徐汇区辛耕路109号永新坊3-4楼"},{"poiid":"B2094757D06FABFE419A","title":"红宝石(南丹东路店)","lon":"121.44537","lat":"31.19082","category":"67","category_name":"甜品店","address":"徐汇区南丹东路55号(近宛平南路)"},{"poiid":"B2094757D06FA3FA459D","title":"呷哺呷哺(永新坊店)","lon":"121.44362058","lat":"31.192620695","category":"86","category_name":"火锅店","address":"徐汇区天钥桥路131号永新坊B1楼15室(近辛耕路)"},{"poiid":"B2094757D06BA2FB409E","title":"西提牛排","lon":"121.44414658","lat":"31.191991683","category":"247","category_name":"餐饮美食","address":"上海市徐汇区肇嘉浜路"},{"poiid":"B2094757D06FA6F84693","title":"艺林盲人按摩院(徐汇店)","lon":"121.44342","lat":"31.18949","category":"149","category_name":"洗浴推拿场所","address":"徐汇区南丹东路100弄1号(近天钥桥路)"},{"poiid":"B2094757D068ABF94398","title":"Blue Frog","lon":"121.44707489","lat":"31.1903934479","category":"500","category_name":"未知分类","address":"上海致真汇  徐汇区辛耕路109号永新坊1-2楼(近天钥桥路)  "},{"poiid":"B2094655D26EA2F4449B","title":"衡山小馆斜土路店","lon":"121.44648","lat":"31.1911","category":"72","category_name":"广东菜","address":"徐汇区斜土路2428号海螺花园(近宛平南路)"},{"poiid":"B2094655D36DA1FA4799","title":"致真汇","lon":"121.4438","lat":"31.19245","category":"76","category_name":"上海菜","address":"徐汇区辛耕路109号永新坊1-2楼(近天钥桥路)"},{"poiid":"B2094751D568A4F84992","title":"沁泰（永新坊店）","lon":"121.444131","lat":"31.19286","category":"247","category_name":"餐饮美食","address":"徐汇区辛耕路109号永新坊1楼(近天钥桥路)"},{"poiid":"B2094750D268A3F44993","title":"塔顶泰国菜","lon":"121.443313","lat":"31.192365","category":"247","category_name":"餐饮美食","address":null},{"poiid":"B2094757D068A1F4449D","title":"花乐·神田川","lon":"121.446604928","lat":"31.1918430256","category":"95","category_name":"日本料理","address":"徐汇区斜土路2421号4号楼(近宛平南路)"},{"poiid":"B2094654DB69A5FD4299","title":"锦江之星(宛平南路店)","lon":"121.44693","lat":"31.19016","category":"216","category_name":"经济型连锁酒店","address":"徐汇区宛平南路404号(近零陵路)"},{"poiid":"B2094757D068AAF8419C","title":"徐家汇社区文化中心","lon":"121.44399","lat":"31.19025","category":"179","category_name":"音乐厅","address":"上海徐汇区南丹东路109号(近天钥桥路)"},{"poiid":"B2094655D268A7F8459E","title":"电影华苑","lon":"121.446","lat":"31.1901","category":"47","category_name":"住宅区","address":"上海市徐汇区零陵路751号"},{"poiid":"B2094752D565A2F4499B","title":"塔顶泰国时尚餐厅","lon":"121.443398","lat":"31.192559","category":"247","category_name":"餐饮美食","address":"徐家汇永新坊"},{"poiid":"B2094654DB6BA5F8429E","title":"莫泰168连锁旅店(宛平南路店)","lon":"121.44722","lat":"31.19062","category":"216","category_name":"经济型连锁酒店","address":"上海市宛平南路400号（近斜土路）"},{"poiid":"B2094750DA6AA2FB469B","title":"麝香貓永新訪店","lon":"121.443374","lat":"31.192564","category":"247","category_name":"餐饮美食","address":"徐汇区辛耕路113号"},{"poiid":"B2094757D068A2FD489A","title":"京世造型(宛平店)","lon":"121.446784","lat":"31.192901","category":"148","category_name":"美容美发店","address":"上海徐汇区宛平南路271号"},{"poiid":"B2094757D06FA6F4439B","title":"85度C(南丹店)","lon":"121.445687517","lat":"31.1907925339","category":"112","category_name":"糕饼店","address":"徐汇区南丹东路8号(近斜土路)"},{"poiid":"B2094757D06FA6F4439D","title":"徐汇区科技馆","lon":"121.44429","lat":"31.19017","category":"179","category_name":"音乐厅","address":"徐汇区南丹东路60号(近宛平南路)"},{"poiid":"B2094655D265A2FE4592","title":"东方网","lon":"121.44479","lat":"31.18876","category":"263","category_name":"公司","address":"上海斜土路2567号"},{"poiid":"B2094655D26FA5FF469D","title":"天际花园","lon":"121.44474","lat":"31.19184","category":"47","category_name":"住宅区","address":"南丹东路99弄1-22号"},{"poiid":"B2094752D36CA6FD449C","title":"牛New寿喜锅","lon":"121.443196","lat":"31.192287","category":"247","category_name":"餐饮美食","address":"上海徐汇区天钥桥路13-1层13室"},{"poiid":"B2094757D068A2F44498","title":"珞迦瑜伽(辛耕路店)","lon":"121.44414","lat":"31.19241","category":"148","category_name":"美容美发店","address":"徐汇区辛耕路88号(近天钥桥路)"},{"poiid":"B2094757D469A6FE439B","title":"凯司令西点房 南丹东路店","lon":"121.44516","lat":"31.19114","category":"67","category_name":"甜品店","address":"徐汇区南丹东路65号(近天钥桥路)"},{"poiid":"B2094752D76AA5FF4793","title":"丸龟制面（永新坊）","lon":"121.443207","lat":"31.192383","category":"247","category_name":"餐饮美食","address":null},{"poiid":"B2094757D068A0FD489E","title":"老娘舅 天钥桥路店","lon":"121.441437","lat":"31.192859","category":"68","category_name":"快餐厅","address":"徐汇区天钥桥路123号2楼(近辛耕路)"},{"poiid":"B2094654DA6DA1FC469F","title":"海螺花园(宛平南路)","lon":"121.44661","lat":"31.19069","category":"47","category_name":"住宅区","address":"宛平南路388弄1-6号"},{"poiid":"B2094757D065A3FA429D","title":"Any Hair 安奈造型","lon":"121.444054659","lat":"31.1906590091","category":"148","category_name":"美容美发店","address":"上海徐汇区南丹东路107号(近天钥桥路)"},{"poiid":"B2094654DB69AAF9419F","title":"湘轩土菜馆(徐家汇店)","lon":"121.44734","lat":"31.19093","category":"247","category_name":"餐饮美食","address":"徐汇区宛平南路368号(近斜土路)"},{"poiid":"B2094757D66DA4F9499E","title":"釜山料理","lon":"121.44442258","lat":"31.192564694","category":"247","category_name":"餐饮美食","address":"上海市徐汇区肇嘉浜路"},{"poiid":"B2094752D164A7F4469E","title":"上海市永新坊糖品","lon":"121.443954","lat":"31.189346","category":"500","category_name":"未知分类","address":null},{"poiid":"B2094655D26FA3FF439F","title":"汉庭快捷","lon":"121.44358","lat":"31.19053","category":"216","category_name":"经济型连锁酒店","address":"南丹东路111号(近天钥桥路)"},{"poiid":"B2094655D26AA0F4429B","title":"心一代 南丹店","lon":"121.442943054","lat":"31.189597793","category":"68","category_name":"快餐厅","address":"徐汇区南丹东路106号(近天钥桥路)"},{"poiid":"B2094757D06FA6FB4693","title":"优衣库(永新坊店)","lon":"121.44304812","lat":"31.191608517","category":"141","category_name":"服装鞋帽皮具店","address":"上海徐汇区天钥桥路131号永新坊1楼(近辛耕路)  "},{"poiid":"B2094757D068A4F84293","title":"招商银行 徐家汇支行","lon":"121.44308043","lat":"31.190656973","category":"150","category_name":"银行","address":"徐汇区漕溪北路18号上实大厦1楼(近虹桥路)"},{"poiid":"B2094654DA6DA2F4459C","title":"上海广电影视制作有限公司","lon":"121.44518","lat":"31.18856","category":"252","category_name":"楼宇机构","address":"斜土路2570"},{"poiid":"B2094752D569A0F8459F","title":"王品牛排","lon":"121.446143","lat":"31.188735","category":"247","category_name":"餐饮美食","address":"漕溪北路"},{"poiid":"B2094655D26FA5FC479C","title":"永新世纪","lon":"121.44489","lat":"31.19298","category":"47","category_name":"住宅区","address":"辛耕路81弄"},{"poiid":"B2094750D56FA5FC459A","title":"国泰电影院","lon":"121.445716","lat":"31.192508","category":"178","category_name":"电影院","address":null},{"poiid":"B2094753D765A7F54899","title":"K11艺术购物中心","lon":"121.443344","lat":"31.191282","category":"500","category_name":"未知分类","address":"上海市 上海市黄浦区淮海中路300号（近黄陂南路）"},{"poiid":"B2094654DA6DA1FC469A","title":"佳安公寓","lon":"121.44669","lat":"31.189707","category":"47","category_name":"住宅区","address":"宛平南路420弄1-14号"},{"poiid":"B2094757DA6EA4FD409C","title":"韩元庄","lon":"121.447621","lat":"31.190539","category":"247","category_name":"餐饮美食","address":"徐汇区宛平南路404号(近零陵路)"}]