[{"poiid":"B2094655D26BA1FA4898","title":"马陆镇","lon":"121.28238","lat":"31.33073","category":"38","category_name":"公交车站","address":""},{"poiid":"B2094654DB6AA6FF4793","title":"上海寰鑫富贵天地大酒店","lon":"121.2871","lat":"31.33158","category":"76","category_name":"上海菜","address":"嘉定区宝安公路3189号寰鑫富贵天地大酒店内"},{"poiid":"B2094757D069A4FD4499","title":"S5沪嘉高速马陆收费站","lon":"121.289653999","lat":"31.3326191313","category":"267","category_name":"收费站","address":"上海嘉定区S5沪嘉高速马陆收费站"},{"poiid":"B2094757D06AA3F5449B","title":"兰轩","lon":"121.28476","lat":"31.331053","category":"76","category_name":"上海菜","address":"嘉定区宝安公路3140-3142号马陆清水湾内"},{"poiid":"B2094757D16EAAFB4192","title":"轨道交通11号线南翔站","lon":"121.293473925","lat":"31.3196477822","category":"36","category_name":"地铁站","address":"上海南翔"},{"poiid":"B2094757D06AA0FA429F","title":"育苑小区","lon":"121.28892","lat":"31.329689","category":"47","category_name":"住宅区","address":"上海沪宜公路1866弄"},{"poiid":"B2094655D265A5FF449D","title":"马陆清水湾","lon":"121.29378543801","lat":"31.338714076667","category":"47","category_name":"住宅区","address":"上海市长宁区威宁路507弄"},{"poiid":"B2094655D36DA0F5469A","title":"育英街","lon":"121.27755","lat":"31.32914","category":"38","category_name":"公交车站","address":""},{"poiid":"B2094654D46BA5FC4399","title":"育才高级中学","lon":"121.28723","lat":"31.32581","category":"55","category_name":"中学","address":"上海嘉定区马陆镇沪宜公路2001号"},{"poiid":"B2094757D064A7FF4698","title":"肯德基 KFC (马陆弘基店)","lon":"121.28358992","lat":"31.337003142","category":"500","category_name":"未知分类","address":"嘉定区沪宜公路2400号(封周路沪宜公路)"},{"poiid":"B2094757D168A2FD4598","title":"嘉宝紫提湾","lon":"121.284141955","lat":"31.3350993726","category":"500","category_name":"未知分类","address":"上海沪宜公路"},{"poiid":"B2094655D26BA1FA4892","title":"马陆","lon":"121.28317","lat":"31.33275","category":"38","category_name":"公交车站","address":""},{"poiid":"B2094757D069A0FD4298","title":"古猗园南翔小笼","lon":"121.29264792","lat":"31.316753722","category":"247","category_name":"餐饮美食","address":"上海市嘉定区亚钢路"},{"poiid":"B2094757D66DA7FA429E","title":"东方慧谷","lon":"121.291843","lat":"31.333605","category":"252","category_name":"楼宇机构","address":"嘉定区宝安公路2999号"},{"poiid":"B2094654D469A0FF4592","title":"上海大众汽车马陆销售服务有限公司","lon":"121.28818","lat":"31.33219","category":"158","category_name":"汽车销售","address":"嘉定区嘉定区马陆镇宝安公路3131号"},{"poiid":"B2094757DA6EABFD409B","title":"远香舫","lon":"121.281","lat":"31.3395","category":"252","category_name":"楼宇机构","address":"嘉定区裕民南路裕民南路1777弄(近洪德路)"},{"poiid":"B2094757D16DABFB4092","title":"世纪广场","lon":"121.284538","lat":"31.330667","category":"500","category_name":"未知分类","address":"上海沪宜公路、宝安公路"},{"poiid":"B2094655D268ABF9449F","title":"马陆收费站","lon":"121.29002","lat":"31.33157","category":"267","category_name":"收费站","address":""},{"poiid":"B2094654D46BA5FE439A","title":"樊家住宅二区","lon":"121.29307","lat":"31.330496","category":"47","category_name":"住宅区","address":"嘉新公路1775弄"},{"poiid":"B2094757D165A3F54693","title":"沥苑小区","lon":"121.285250625","lat":"31.3398354009","category":"47","category_name":"住宅区","address":"上海马陆"},{"poiid":"B2094757D16EA5F9459C","title":"马陆大众汽车","lon":"121.28959333","lat":"31.332532089","category":"163","category_name":"4S店","address":"上海宝安公路3131号"},{"poiid":"B2094757D064A7F44998","title":"沃尔玛超市(马陆店)","lon":"121.27826936301312","lat":"31.34308659784451","category":"118","category_name":"超级市场","address":"嘉定区沪宜公路2618号天林商业广场2-3楼"},{"poiid":"B2094654D469A6F5449A","title":"天马新村","lon":"121.28356","lat":"31.33403","category":"47","category_name":"住宅区","address":"嘉定区马陆镇镇政府边上"},{"poiid":"B2094757D06FA0F84499","title":"马陆希望商务大厦","lon":"121.29081284","lat":"31.33016919","category":"260","category_name":"其他","address":"上海马陆"},{"poiid":"B2094655D36CA4FC419B","title":"宝安公路沪宜公路","lon":"121.28453","lat":"31.33066","category":"38","category_name":"公交车站","address":""},{"poiid":"B2094655D264A7FD459A","title":"东方豪园","lon":"121.28194","lat":"31.333931","category":"47","category_name":"住宅区","address":"嘉定区封周路255弄"},{"poiid":"B2094654DB6AA1FE499E","title":"马陆医院","lon":"121.28463","lat":"31.33003","category":"162","category_name":"医院","address":""},{"poiid":"B2094654D469A7FC4598","title":"樊家花苑","lon":"121.2953","lat":"31.333717","category":"47","category_name":"住宅区","address":"樊宝路35弄"},{"poiid":"B2094655D26BA1FA489C","title":"马陆卫生院","lon":"121.2874","lat":"31.32607","category":"162","category_name":"医院","address":"嘉定区沪宜公路2091号"},{"poiid":"B2094757D16EA5F5419D","title":"马陆镇社区中心","lon":"121.283545","lat":"31.332662","category":"500","category_name":"未知分类","address":"上海沪宜公路2228号"},{"poiid":"B2094654D469A5FC409A","title":"中国移动通信马陆营业厅","lon":"121.28466","lat":"31.33167","category":"151","category_name":"电讯营业厅","address":"马陆镇"},{"poiid":"B2094654D469A6F5439B","title":"碧海新村","lon":"121.28608","lat":"31.335424","category":"47","category_name":"住宅区","address":"马陆塘街80弄"},{"poiid":"B2094757D66EABFE4893","title":"育兰二村","lon":"121.287","lat":"31.3347","category":"252","category_name":"楼宇机构","address":"上海宝安公路3412号"},{"poiid":"B2094654D469A0F84093","title":"上海银行马陆支行","lon":"121.28742","lat":"31.33168","category":"150","category_name":"银行","address":"嘉定区马陆镇宝安公路3338号"},{"poiid":"B2094654D46BA5FE429F","title":"育苑菜场","lon":"121.29174","lat":"31.32533","category":"117","category_name":"便民商店/便利店","address":""},{"poiid":"B2094757D464A0FA4398","title":"宝乐大酒店","lon":"121.282058054","lat":"31.327222793","category":"76","category_name":"上海菜","address":"嘉定区马陆育英街500号(樱花街口)"},{"poiid":"B2094654D46BA5FE439B","title":"上海和兑汽车配件有限公司","lon":"121.29329","lat":"31.33002","category":"263","category_name":"公司","address":""},{"poiid":"B2094654D469A6F5449D","title":"居乐小区","lon":"121.28442","lat":"31.33239","category":"47","category_name":"住宅区","address":""},{"poiid":"B2094757D568A4F84593","title":"S5马陆收费站","lon":"121.289225","lat":"31.3344","category":"267","category_name":"收费站","address":"中国上海市嘉定区A12"},{"poiid":"B2094654DB65A6F84799","title":"中国电信营业厅","lon":"121.28337","lat":"31.33068","category":"151","category_name":"电讯营业厅","address":""},{"poiid":"B2094654D46BA5FE4299","title":"华联超市(上海医药高等专科学校嘉定校区东北)","lon":"121.29174","lat":"31.32534","category":"118","category_name":"超级市场","address":""},{"poiid":"B2094654D46BA5FE419E","title":"上海马陆以仁幼儿园","lon":"121.2828","lat":"31.32806","category":"57","category_name":"幼儿园","address":"嘉定区马陆镇育兰路11号"},{"poiid":"B2094654D469A5FC409B","title":"华联超市NO.373","lon":"121.28383","lat":"31.33208","category":"118","category_name":"超级市场","address":""},{"poiid":"B2094654D469A5F4429F","title":"樊家村","lon":"121.29476","lat":"31.33478","category":"47","category_name":"住宅区","address":"马陆镇樊家村"},{"poiid":"B2094750D364A6FC4293","title":"东方慧谷上海文化信息产业园","lon":"121.2910050702","lat":"31.333090030523","category":"637","category_name":"房地产类公司","address":"嘉定新城(马陆)宝安公路2999弄"},{"poiid":"B2094654D46BA5FE419B","title":"育兰社区","lon":"121.28147","lat":"31.327398","category":"47","category_name":"住宅区","address":"樱花路110弄"},{"poiid":"B2094757D165A6F44793","title":"樊家餐厅","lon":"121.297149925","lat":"31.3330490601","category":"500","category_name":"未知分类","address":"上海市嘉定区宝育路"},{"poiid":"B2094757D165A0FD409F","title":"育才中学第一食堂","lon":"121.28723","lat":"31.3258","category":"68","category_name":"快餐厅","address":"嘉定区马陆镇沪宜公路2001号"},{"poiid":"B2094654D469A6F5439F","title":"上海中亚医院","lon":"121.284","lat":"31.33427","category":"162","category_name":"医院","address":"嘉定区沪宜公路3388号"},{"poiid":"B2094654D46BA6F5459E","title":"马陆派出所","lon":"121.28807","lat":"31.32538","category":"609","category_name":"警察局","address":"沪宜路2228号"},{"poiid":"B2094655D26BA1FA4898","title":"马陆镇","lon":"121.28238","lat":"31.33073","category":"38","category_name":"公交车站","address":""},{"poiid":"B2094654DB6AA6FF4793","title":"上海寰鑫富贵天地大酒店","lon":"121.2871","lat":"31.33158","category":"76","category_name":"上海菜","address":"嘉定区宝安公路3189号寰鑫富贵天地大酒店内"},{"poiid":"B2094757D069A4FD4499","title":"S5沪嘉高速马陆收费站","lon":"121.289653999","lat":"31.3326191313","category":"267","category_name":"收费站","address":"上海嘉定区S5沪嘉高速马陆收费站"},{"poiid":"B2094757D06AA3F5449B","title":"兰轩","lon":"121.28476","lat":"31.331053","category":"76","category_name":"上海菜","address":"嘉定区宝安公路3140-3142号马陆清水湾内"},{"poiid":"B2094757D16EAAFB4192","title":"轨道交通11号线南翔站","lon":"121.293473925","lat":"31.3196477822","category":"36","category_name":"地铁站","address":"上海南翔"},{"poiid":"B2094757D06AA0FA429F","title":"育苑小区","lon":"121.28892","lat":"31.329689","category":"47","category_name":"住宅区","address":"上海沪宜公路1866弄"},{"poiid":"B2094655D265A5FF449D","title":"马陆清水湾","lon":"121.29378543801","lat":"31.338714076667","category":"47","category_name":"住宅区","address":"上海市长宁区威宁路507弄"},{"poiid":"B2094655D36DA0F5469A","title":"育英街","lon":"121.27755","lat":"31.32914","category":"38","category_name":"公交车站","address":""},{"poiid":"B2094654D46BA5FC4399","title":"育才高级中学","lon":"121.28723","lat":"31.32581","category":"55","category_name":"中学","address":"上海嘉定区马陆镇沪宜公路2001号"},{"poiid":"B2094757D064A7FF4698","title":"肯德基 KFC (马陆弘基店)","lon":"121.28358992","lat":"31.337003142","category":"500","category_name":"未知分类","address":"嘉定区沪宜公路2400号(封周路沪宜公路)"},{"poiid":"B2094757D168A2FD4598","title":"嘉宝紫提湾","lon":"121.284141955","lat":"31.3350993726","category":"500","category_name":"未知分类","address":"上海沪宜公路"},{"poiid":"B2094655D26BA1FA4892","title":"马陆","lon":"121.28317","lat":"31.33275","category":"38","category_name":"公交车站","address":""},{"poiid":"B2094757D069A0FD4298","title":"古猗园南翔小笼","lon":"121.29264792","lat":"31.316753722","category":"247","category_name":"餐饮美食","address":"上海市嘉定区亚钢路"},{"poiid":"B2094757D66DA7FA429E","title":"东方慧谷","lon":"121.291843","lat":"31.333605","category":"252","category_name":"楼宇机构","address":"嘉定区宝安公路2999号"},{"poiid":"B2094654D469A0FF4592","title":"上海大众汽车马陆销售服务有限公司","lon":"121.28818","lat":"31.33219","category":"158","category_name":"汽车销售","address":"嘉定区嘉定区马陆镇宝安公路3131号"},{"poiid":"B2094757DA6EABFD409B","title":"远香舫","lon":"121.281","lat":"31.3395","category":"252","category_name":"楼宇机构","address":"嘉定区裕民南路裕民南路1777弄(近洪德路)"},{"poiid":"B2094757D16DABFB4092","title":"世纪广场","lon":"121.284538","lat":"31.330667","category":"500","category_name":"未知分类","address":"上海沪宜公路、宝安公路"},{"poiid":"B2094655D268ABF9449F","title":"马陆收费站","lon":"121.29002","lat":"31.33157","category":"267","category_name":"收费站","address":""},{"poiid":"B2094654D46BA5FE439A","title":"樊家住宅二区","lon":"121.29307","lat":"31.330496","category":"47","category_name":"住宅区","address":"嘉新公路1775弄"},{"poiid":"B2094757D165A3F54693","title":"沥苑小区","lon":"121.285250625","lat":"31.3398354009","category":"47","category_name":"住宅区","address":"上海马陆"},{"poiid":"B2094757D16EA5F9459C","title":"马陆大众汽车","lon":"121.28959333","lat":"31.332532089","category":"163","category_name":"4S店","address":"上海宝安公路3131号"},{"poiid":"B2094757D064A7F44998","title":"沃尔玛超市(马陆店)","lon":"121.27826936301312","lat":"31.34308659784451","category":"118","category_name":"超级市场","address":"嘉定区沪宜公路2618号天林商业广场2-3楼"},{"poiid":"B2094654D469A6F5449A","title":"天马新村","lon":"121.28356","lat":"31.33403","category":"47","category_name":"住宅区","address":"嘉定区马陆镇镇政府边上"},{"poiid":"B2094757D06FA0F84499","title":"马陆希望商务大厦","lon":"121.29081284","lat":"31.33016919","category":"260","category_name":"其他","address":"上海马陆"},{"poiid":"B2094655D36CA4FC419B","title":"宝安公路沪宜公路","lon":"121.28453","lat":"31.33066","category":"38","category_name":"公交车站","address":""},{"poiid":"B2094655D264A7FD459A","title":"东方豪园","lon":"121.28194","lat":"31.333931","category":"47","category_name":"住宅区","address":"嘉定区封周路255弄"},{"poiid":"B2094654DB6AA1FE499E","title":"马陆医院","lon":"121.28463","lat":"31.33003","category":"162","category_name":"医院","address":""},{"poiid":"B2094654D469A7FC4598","title":"樊家花苑","lon":"121.2953","lat":"31.333717","category":"47","category_name":"住宅区","address":"樊宝路35弄"},{"poiid":"B2094655D26BA1FA489C","title":"马陆卫生院","lon":"121.2874","lat":"31.32607","category":"162","category_name":"医院","address":"嘉定区沪宜公路2091号"},{"poiid":"B2094757D16EA5F5419D","title":"马陆镇社区中心","lon":"121.283545","lat":"31.332662","category":"500","category_name":"未知分类","address":"上海沪宜公路2228号"},{"poiid":"B2094654D469A5FC409A","title":"中国移动通信马陆营业厅","lon":"121.28466","lat":"31.33167","category":"151","category_name":"电讯营业厅","address":"马陆镇"},{"poiid":"B2094654D469A6F5439B","title":"碧海新村","lon":"121.28608","lat":"31.335424","category":"47","category_name":"住宅区","address":"马陆塘街80弄"},{"poiid":"B2094757D66EABFE4893","title":"育兰二村","lon":"121.287","lat":"31.3347","category":"252","category_name":"楼宇机构","address":"上海宝安公路3412号"},{"poiid":"B2094654D469A0F84093","title":"上海银行马陆支行","lon":"121.28742","lat":"31.33168","category":"150","category_name":"银行","address":"嘉定区马陆镇宝安公路3338号"},{"poiid":"B2094654D46BA5FE429F","title":"育苑菜场","lon":"121.29174","lat":"31.32533","category":"117","category_name":"便民商店/便利店","address":""},{"poiid":"B2094757D464A0FA4398","title":"宝乐大酒店","lon":"121.282058054","lat":"31.327222793","category":"76","category_name":"上海菜","address":"嘉定区马陆育英街500号(樱花街口)"},{"poiid":"B2094654D46BA5FE439B","title":"上海和兑汽车配件有限公司","lon":"121.29329","lat":"31.33002","category":"263","category_name":"公司","address":""},{"poiid":"B2094654D469A6F5449D","title":"居乐小区","lon":"121.28442","lat":"31.33239","category":"47","category_name":"住宅区","address":""},{"poiid":"B2094757D568A4F84593","title":"S5马陆收费站","lon":"121.289225","lat":"31.3344","category":"267","category_name":"收费站","address":"中国上海市嘉定区A12"},{"poiid":"B2094654DB65A6F84799","title":"中国电信营业厅","lon":"121.28337","lat":"31.33068","category":"151","category_name":"电讯营业厅","address":""},{"poiid":"B2094654D46BA5FE4299","title":"华联超市(上海医药高等专科学校嘉定校区东北)","lon":"121.29174","lat":"31.32534","category":"118","category_name":"超级市场","address":""},{"poiid":"B2094654D46BA5FE419E","title":"上海马陆以仁幼儿园","lon":"121.2828","lat":"31.32806","category":"57","category_name":"幼儿园","address":"嘉定区马陆镇育兰路11号"},{"poiid":"B2094654D469A5FC409B","title":"华联超市NO.373","lon":"121.28383","lat":"31.33208","category":"118","category_name":"超级市场","address":""},{"poiid":"B2094654D469A5F4429F","title":"樊家村","lon":"121.29476","lat":"31.33478","category":"47","category_name":"住宅区","address":"马陆镇樊家村"},{"poiid":"B2094750D364A6FC4293","title":"东方慧谷上海文化信息产业园","lon":"121.2910050702","lat":"31.333090030523","category":"637","category_name":"房地产类公司","address":"嘉定新城(马陆)宝安公路2999弄"},{"poiid":"B2094654D46BA5FE419B","title":"育兰社区","lon":"121.28147","lat":"31.327398","category":"47","category_name":"住宅区","address":"樱花路110弄"},{"poiid":"B2094757D165A6F44793","title":"樊家餐厅","lon":"121.297149925","lat":"31.3330490601","category":"500","category_name":"未知分类","address":"上海市嘉定区宝育路"},{"poiid":"B2094757D165A0FD409F","title":"育才中学第一食堂","lon":"121.28723","lat":"31.3258","category":"68","category_name":"快餐厅","address":"嘉定区马陆镇沪宜公路2001号"},{"poiid":"B2094654D469A6F5439F","title":"上海中亚医院","lon":"121.284","lat":"31.33427","category":"162","category_name":"医院","address":"嘉定区沪宜公路3388号"},{"poiid":"B2094654D46BA6F5459E","title":"马陆派出所","lon":"121.28807","lat":"31.32538","category":"609","category_name":"警察局","address":"沪宜路2228号"},{"poiid":"B2094655D26BA1FA4898","title":"马陆镇","lon":"121.28238","lat":"31.33073","category":"38","category_name":"公交车站","address":""},{"poiid":"B2094654DB6AA6FF4793","title":"上海寰鑫富贵天地大酒店","lon":"121.2871","lat":"31.33158","category":"76","category_name":"上海菜","address":"嘉定区宝安公路3189号寰鑫富贵天地大酒店内"},{"poiid":"B2094757D069A4FD4499","title":"S5沪嘉高速马陆收费站","lon":"121.289653999","lat":"31.3326191313","category":"267","category_name":"收费站","address":"上海嘉定区S5沪嘉高速马陆收费站"},{"poiid":"B2094757D06AA3F5449B","title":"兰轩","lon":"121.28476","lat":"31.331053","category":"76","category_name":"上海菜","address":"嘉定区宝安公路3140-3142号马陆清水湾内"},{"poiid":"B2094757D16EAAFB4192","title":"轨道交通11号线南翔站","lon":"121.293473925","lat":"31.3196477822","category":"36","category_name":"地铁站","address":"上海南翔"},{"poiid":"B2094757D06AA0FA429F","title":"育苑小区","lon":"121.28892","lat":"31.329689","category":"47","category_name":"住宅区","address":"上海沪宜公路1866弄"},{"poiid":"B2094655D265A5FF449D","title":"马陆清水湾","lon":"121.29378543801","lat":"31.338714076667","category":"47","category_name":"住宅区","address":"上海市长宁区威宁路507弄"},{"poiid":"B2094655D36DA0F5469A","title":"育英街","lon":"121.27755","lat":"31.32914","category":"38","category_name":"公交车站","address":""},{"poiid":"B2094654D46BA5FC4399","title":"育才高级中学","lon":"121.28723","lat":"31.32581","category":"55","category_name":"中学","address":"上海嘉定区马陆镇沪宜公路2001号"},{"poiid":"B2094757D064A7FF4698","title":"肯德基 KFC (马陆弘基店)","lon":"121.28358992","lat":"31.337003142","category":"500","category_name":"未知分类","address":"嘉定区沪宜公路2400号(封周路沪宜公路)"},{"poiid":"B2094757D168A2FD4598","title":"嘉宝紫提湾","lon":"121.284141955","lat":"31.3350993726","category":"500","category_name":"未知分类","address":"上海沪宜公路"},{"poiid":"B2094655D26BA1FA4892","title":"马陆","lon":"121.28317","lat":"31.33275","category":"38","category_name":"公交车站","address":""},{"poiid":"B2094757D069A0FD4298","title":"古猗园南翔小笼","lon":"121.29264792","lat":"31.316753722","category":"247","category_name":"餐饮美食","address":"上海市嘉定区亚钢路"},{"poiid":"B2094757D66DA7FA429E","title":"东方慧谷","lon":"121.291843","lat":"31.333605","category":"252","category_name":"楼宇机构","address":"嘉定区宝安公路2999号"},{"poiid":"B2094654D469A0FF4592","title":"上海大众汽车马陆销售服务有限公司","lon":"121.28818","lat":"31.33219","category":"158","category_name":"汽车销售","address":"嘉定区嘉定区马陆镇宝安公路3131号"},{"poiid":"B2094757DA6EABFD409B","title":"远香舫","lon":"121.281","lat":"31.3395","category":"252","category_name":"楼宇机构","address":"嘉定区裕民南路裕民南路1777弄(近洪德路)"},{"poiid":"B2094757D16DABFB4092","title":"世纪广场","lon":"121.284538","lat":"31.330667","category":"500","category_name":"未知分类","address":"上海沪宜公路、宝安公路"},{"poiid":"B2094655D268ABF9449F","title":"马陆收费站","lon":"121.29002","lat":"31.33157","category":"267","category_name":"收费站","address":""},{"poiid":"B2094654D46BA5FE439A","title":"樊家住宅二区","lon":"121.29307","lat":"31.330496","category":"47","category_name":"住宅区","address":"嘉新公路1775弄"},{"poiid":"B2094757D165A3F54693","title":"沥苑小区","lon":"121.285250625","lat":"31.3398354009","category":"47","category_name":"住宅区","address":"上海马陆"},{"poiid":"B2094757D16EA5F9459C","title":"马陆大众汽车","lon":"121.28959333","lat":"31.332532089","category":"163","category_name":"4S店","address":"上海宝安公路3131号"},{"poiid":"B2094757D064A7F44998","title":"沃尔玛超市(马陆店)","lon":"121.27826936301312","lat":"31.34308659784451","category":"118","category_name":"超级市场","address":"嘉定区沪宜公路2618号天林商业广场2-3楼"},{"poiid":"B2094654D469A6F5449A","title":"天马新村","lon":"121.28356","lat":"31.33403","category":"47","category_name":"住宅区","address":"嘉定区马陆镇镇政府边上"},{"poiid":"B2094757D06FA0F84499","title":"马陆希望商务大厦","lon":"121.29081284","lat":"31.33016919","category":"260","category_name":"其他","address":"上海马陆"},{"poiid":"B2094655D36CA4FC419B","title":"宝安公路沪宜公路","lon":"121.28453","lat":"31.33066","category":"38","category_name":"公交车站","address":""},{"poiid":"B2094655D264A7FD459A","title":"东方豪园","lon":"121.28194","lat":"31.333931","category":"47","category_name":"住宅区","address":"嘉定区封周路255弄"},{"poiid":"B2094654DB6AA1FE499E","title":"马陆医院","lon":"121.28463","lat":"31.33003","category":"162","category_name":"医院","address":""},{"poiid":"B2094654D469A7FC4598","title":"樊家花苑","lon":"121.2953","lat":"31.333717","category":"47","category_name":"住宅区","address":"樊宝路35弄"},{"poiid":"B2094655D26BA1FA489C","title":"马陆卫生院","lon":"121.2874","lat":"31.32607","category":"162","category_name":"医院","address":"嘉定区沪宜公路2091号"},{"poiid":"B2094757D16EA5F5419D","title":"马陆镇社区中心","lon":"121.283545","lat":"31.332662","category":"500","category_name":"未知分类","address":"上海沪宜公路2228号"},{"poiid":"B2094654D469A5FC409A","title":"中国移动通信马陆营业厅","lon":"121.28466","lat":"31.33167","category":"151","category_name":"电讯营业厅","address":"马陆镇"},{"poiid":"B2094654D469A6F5439B","title":"碧海新村","lon":"121.28608","lat":"31.335424","category":"47","category_name":"住宅区","address":"马陆塘街80弄"},{"poiid":"B2094757D66EABFE4893","title":"育兰二村","lon":"121.287","lat":"31.3347","category":"252","category_name":"楼宇机构","address":"上海宝安公路3412号"},{"poiid":"B2094654D469A0F84093","title":"上海银行马陆支行","lon":"121.28742","lat":"31.33168","category":"150","category_name":"银行","address":"嘉定区马陆镇宝安公路3338号"},{"poiid":"B2094654D46BA5FE429F","title":"育苑菜场","lon":"121.29174","lat":"31.32533","category":"117","category_name":"便民商店/便利店","address":""},{"poiid":"B2094757D464A0FA4398","title":"宝乐大酒店","lon":"121.282058054","lat":"31.327222793","category":"76","category_name":"上海菜","address":"嘉定区马陆育英街500号(樱花街口)"},{"poiid":"B2094654D46BA5FE439B","title":"上海和兑汽车配件有限公司","lon":"121.29329","lat":"31.33002","category":"263","category_name":"公司","address":""},{"poiid":"B2094654D469A6F5449D","title":"居乐小区","lon":"121.28442","lat":"31.33239","category":"47","category_name":"住宅区","address":""},{"poiid":"B2094757D568A4F84593","title":"S5马陆收费站","lon":"121.289225","lat":"31.3344","category":"267","category_name":"收费站","address":"中国上海市嘉定区A12"},{"poiid":"B2094654DB65A6F84799","title":"中国电信营业厅","lon":"121.28337","lat":"31.33068","category":"151","category_name":"电讯营业厅","address":""},{"poiid":"B2094654D46BA5FE4299","title":"华联超市(上海医药高等专科学校嘉定校区东北)","lon":"121.29174","lat":"31.32534","category":"118","category_name":"超级市场","address":""},{"poiid":"B2094654D46BA5FE419E","title":"上海马陆以仁幼儿园","lon":"121.2828","lat":"31.32806","category":"57","category_name":"幼儿园","address":"嘉定区马陆镇育兰路11号"},{"poiid":"B2094654D469A5FC409B","title":"华联超市NO.373","lon":"121.28383","lat":"31.33208","category":"118","category_name":"超级市场","address":""},{"poiid":"B2094654D469A5F4429F","title":"樊家村","lon":"121.29476","lat":"31.33478","category":"47","category_name":"住宅区","address":"马陆镇樊家村"},{"poiid":"B2094750D364A6FC4293","title":"东方慧谷上海文化信息产业园","lon":"121.2910050702","lat":"31.333090030523","category":"637","category_name":"房地产类公司","address":"嘉定新城(马陆)宝安公路2999弄"},{"poiid":"B2094654D46BA5FE419B","title":"育兰社区","lon":"121.28147","lat":"31.327398","category":"47","category_name":"住宅区","address":"樱花路110弄"},{"poiid":"B2094757D165A6F44793","title":"樊家餐厅","lon":"121.297149925","lat":"31.3330490601","category":"500","category_name":"未知分类","address":"上海市嘉定区宝育路"},{"poiid":"B2094757D165A0FD409F","title":"育才中学第一食堂","lon":"121.28723","lat":"31.3258","category":"68","category_name":"快餐厅","address":"嘉定区马陆镇沪宜公路2001号"},{"poiid":"B2094654D469A6F5439F","title":"上海中亚医院","lon":"121.284","lat":"31.33427","category":"162","category_name":"医院","address":"嘉定区沪宜公路3388号"},{"poiid":"B2094654D46BA6F5459E","title":"马陆派出所","lon":"121.28807","lat":"31.32538","category":"609","category_name":"警察局","address":"沪宜路2228号"}]