[{"poiid":"B2094757D06FA2FA4592","title":"上海市第七人民医院","lon":"121.578728289","lat":"31.3428979087","category":"162","category_name":"医院","address":"浦东新区大同路358号(近轨道6号线外高桥保税区北站)"},{"poiid":"B2094654D46AABFB429B","title":"上海外高桥保税区(二号门)","lon":"121.58669","lat":"31.35007","category":"45","category_name":"产业园区","address":"上海市浦东新区"},{"poiid":"B2094751D26BA3FE429B","title":"上海外高桥喜来登酒店","lon":"121.587144","lat":"31.350886","category":"251","category_name":"出行住宿","address":"上海市外高桥保税区基隆路28号"},{"poiid":"B2094757D06FA4F54492","title":"小四川水煮鱼(高桥店)","lon":"121.57752","lat":"31.35074","category":"71","category_name":"四川菜","address":"浦东新区高桥镇同港路110号(近地铁六号线港城路站)"},{"poiid":"B2094757D06FABF9419C","title":"外高桥税务局","lon":"121.588544","lat":"31.349773","category":"252","category_name":"楼宇机构","address":"上海浦东新区基隆路9号"},{"poiid":"B2094757D068A6FC479E","title":"富豪会展公寓酒店","lon":"121.58600306","lat":"31.348556133","category":"268","category_name":"自助","address":"浦东新区富特西一路77号(近外高桥保税区北站)"},{"poiid":"B2094757D064ABF4439A","title":"maxyou歌城(高桥店)","lon":"121.585417068","lat":"31.350833185","category":"170","category_name":"KTV","address":"上海杨高北路花山路路口"},{"poiid":"B2094757D16FABF44298","title":"高桥老街","lon":"121.581389039","lat":"31.3443676684","category":"500","category_name":"未知分类","address":"上海高桥镇东街西街"},{"poiid":"B2094757D068A5F4489A","title":"荷兰风情小镇","lon":"121.57858","lat":"31.337483","category":"260","category_name":"其他","address":"上海外高桥高荷路"},{"poiid":"B2094757D468A4FF489B","title":"肯德基 高桥镇店 KFC","lon":"121.580319054","lat":"31.343535793","category":"68","category_name":"快餐厅","address":"浦东新区高桥镇大同路409号"},{"poiid":"B2094654D46AABFD409C","title":"上海市高桥中学","lon":"121.58134","lat":"31.34812","category":"55","category_name":"中学","address":"浦东新区高桥镇季景北路859号"},{"poiid":"B2094757D168A4FD419D","title":"家弘海鲜渔庄","lon":"121.584862968","lat":"31.3507511832","category":"247","category_name":"餐饮美食","address":"上海浦东高桥镇花山路1199号"},{"poiid":"B2094750DA69A5F4429A","title":"星巴克","lon":"121.58704","lat":"31.3495","category":"260","category_name":"其他","address":"浦东新区基隆路1号汤臣国际贸易大厦"},{"poiid":"B2094757D16DA6F94092","title":"高桥镇小学","lon":"121.578666","lat":"31.34961","category":"56","category_name":"小学","address":"上海市花山路789号"},{"poiid":"B2094654D46AAAFC4198","title":"春晖苑","lon":"121.58803","lat":"31.343513","category":"47","category_name":"住宅区","address":"春晖路368弄1-59号"},{"poiid":"B2094654D46AABFC479C","title":"苗记饺子馆","lon":"121.577278054","lat":"31.348542793","category":"68","category_name":"快餐厅","address":"浦东新区花山路(近大同路)"},{"poiid":"B2094655D26AA0FA449F","title":"地铁外高桥保税区北站","lon":"121.58661","lat":"31.34884","category":"36","category_name":"地铁站","address":""},{"poiid":"B2094757D66CA7FC4192","title":"怡心苑","lon":"121.58149289088","lat":"31.354172322681","category":"500","category_name":"未知分类","address":"上海市浦东新区花山路609弄"},{"poiid":"B209475CD66BA4FC459B","title":"中国（上海）自由贸易试验区","lon":"121.586691","lat":"31.350137","category":"500","category_name":"未知分类","address":"上海市 外高桥保税区基隆路"},{"poiid":"B2094757D164A0FB429E","title":"旺客轩海鲜酒楼","lon":"121.58572700214","lat":"31.352249731719","category":"88","category_name":"海鲜酒楼","address":"浦东新区花山路1199号(杨高北路口)"},{"poiid":"B2094655D36CA7FD439D","title":"花山路海高路","lon":"121.58338","lat":"31.3503","category":"38","category_name":"公交车站","address":""},{"poiid":"B2094757D06BA0FA4292","title":"梓亭","lon":"121.588751054","lat":"31.350598793","category":"95","category_name":"日本料理","address":"浦东新区外高桥保税区基隆路6号(富特西一路基隆路)"},{"poiid":"B2094654DB65A4F8439E","title":"莫泰168连锁旅店(外高桥店)","lon":"121.58562","lat":"31.35116","category":"216","category_name":"经济型连锁酒店","address":"上海市浦东新区花山路1209号（杨高北路与花山路的交汇口）"},{"poiid":"B2094654D46AA4F5469C","title":"海高二村","lon":"121.58173","lat":"31.350508","category":"47","category_name":"住宅区","address":"花山路1001弄1-48号"},{"poiid":"B2094654D46AABF44798","title":"国际信贸大厦","lon":"121.58975","lat":"31.34986","category":"46","category_name":"楼宇","address":"浦东区浦东外高桥保税区基隆路555号"},{"poiid":"B2094654D46AA4F5489F","title":"外高桥商务大厦","lon":"121.58518","lat":"31.35103","category":"46","category_name":"楼宇","address":"花山路1199"},{"poiid":"B2094757D06AA2F94798","title":"豪鸡汇(高桥店)","lon":"121.57717","lat":"31.34456","category":"68","category_name":"快餐厅","address":"浦东新区清溪路96号(近张杨北路)"},{"poiid":"B2094654D46AABFF459A","title":"台台缘火锅酒店","lon":"121.57841","lat":"31.3458","category":"86","category_name":"火锅店","address":"浦东新区大同路211号1楼(近清溪路)"},{"poiid":"B2094655D26BA3FA429A","title":"济州岛韩国小菜","lon":"121.57867","lat":"31.3496","category":"96","category_name":"韩国料理","address":"浦东新区花山路79号高桥镇小学对面(大同路口)"},{"poiid":"B2094757D16CA2F9429B","title":"东方汇文国际文化贸易中心","lon":"121.587861","lat":"31.348151","category":"500","category_name":"未知分类","address":"上海外高桥保税区马吉路2号"},{"poiid":"B2094654D46AABFC4399","title":"上海市浦东新区学前小学","lon":"121.58417","lat":"31.34926","category":"56","category_name":"小学","address":"浦东新区海春路86号(海春路花山路)"},{"poiid":"B2094655D26FA7F8479E","title":"海高一村(西门)","lon":"121.58221","lat":"31.34955","category":"47","category_name":"住宅区","address":"海春路65弄"},{"poiid":"B2094654DB6AA5FA479D","title":"锦悦苑(西门)","lon":"121.58428","lat":"31.35019","category":"47","category_name":"住宅区","address":"海春路35弄"},{"poiid":"B2094654DB6AA5FA4693","title":"海高二村(南门)","lon":"121.58193","lat":"31.34998","category":"47","category_name":"住宅区","address":"花山路1001弄1-48号"},{"poiid":"B2094757D165A3F44299","title":"高挢卫生院","lon":"121.58133006","lat":"31.348568133","category":"162","category_name":"医院","address":"上海高桥卫生院"},{"poiid":"B2094654D46AABFC429A","title":"锦悦苑","lon":"121.58472","lat":"31.350269","category":"47","category_name":"住宅区","address":"海春路35弄"},{"poiid":"B2094654DB6AA5FA489E","title":"学前一村(西门)","lon":"121.58364","lat":"31.34807","category":"47","category_name":"住宅区","address":""},{"poiid":"B2094757D06BABFF4092","title":"中国工商银行上海市分行外高桥保税区支行","lon":"121.586916435","lat":"31.3484183636","category":"500","category_name":"未知分类","address":"上海市外高桥保税区马吉路28号"},{"poiid":"B2094750D26AA7FC449D","title":"港城新苑","lon":"121.583282","lat":"31.352983","category":"47","category_name":"住宅区","address":"草高支路168弄"},{"poiid":"B2094654D46AABFC4593","title":"上海牧泽机电有限公司","lon":"121.58275","lat":"31.34992","category":"123","category_name":"家具建材市场","address":"花山路1058"},{"poiid":"B2094751D465ABF8409E","title":"苏州老庆太羊肉馆","lon":"121.5793","lat":"31.34883","category":"75","category_name":"浙江菜","address":"浦东新区花山路800号"},{"poiid":"B2094655D36CA0FB449E","title":"季景北路王家街","lon":"121.58095","lat":"31.34792","category":"38","category_name":"公交车站","address":""},{"poiid":"B2094654DB6AA5FA4793","title":"学前公寓(西门)","lon":"121.58527","lat":"31.34938","category":"47","category_name":"住宅区","address":"海春路121弄1-8号"},{"poiid":"B2094757D16AA3FA4698","title":"学前一村","lon":"121.58483106","lat":"31.348367129","category":"500","category_name":"未知分类","address":"上海市浦东新区海春路150弄"},{"poiid":"B2094654DB6AA5FA4999","title":"如意饭店","lon":"121.58189","lat":"31.34581","category":"76","category_name":"上海菜","address":"浦东新区高桥镇季景北路662号(近石家街)"},{"poiid":"B2094655D36CA1FE409A","title":"市七医院","lon":"121.57951","lat":"31.3427","category":"162","category_name":"医院","address":""},{"poiid":"B2094654DB64A5FB499F","title":"高桥集贸市场","lon":"121.58083","lat":"31.34826","category":"120","category_name":"小商品市场","address":""},{"poiid":"B2094655D26FA1F44799","title":"上海市高桥中学(西门)","lon":"121.581","lat":"31.34823","category":"678","category_name":"学校大门","address":"季景北路859"},{"poiid":"B2094654D46AABFD439D","title":"学前二村","lon":"121.58398","lat":"31.346434","category":"47","category_name":"住宅区","address":"学前路1弄"},{"poiid":"B2094654D46AABFD4892","title":"根弟饭店","lon":"121.57775","lat":"31.34736","category":"68","category_name":"快餐厅","address":"浦东新区季景北路"},{"poiid":"B2094757D06FA2FA4592","title":"上海市第七人民医院","lon":"121.578728289","lat":"31.3428979087","category":"162","category_name":"医院","address":"浦东新区大同路358号(近轨道6号线外高桥保税区北站)"},{"poiid":"B2094654D46AABFB429B","title":"上海外高桥保税区(二号门)","lon":"121.58669","lat":"31.35007","category":"45","category_name":"产业园区","address":"上海市浦东新区"},{"poiid":"B2094751D26BA3FE429B","title":"上海外高桥喜来登酒店","lon":"121.587144","lat":"31.350886","category":"251","category_name":"出行住宿","address":"上海市外高桥保税区基隆路28号"},{"poiid":"B2094757D06FA4F54492","title":"小四川水煮鱼(高桥店)","lon":"121.57752","lat":"31.35074","category":"71","category_name":"四川菜","address":"浦东新区高桥镇同港路110号(近地铁六号线港城路站)"},{"poiid":"B2094757D06FABF9419C","title":"外高桥税务局","lon":"121.588544","lat":"31.349773","category":"252","category_name":"楼宇机构","address":"上海浦东新区基隆路9号"},{"poiid":"B2094757D068A6FC479E","title":"富豪会展公寓酒店","lon":"121.58600306","lat":"31.348556133","category":"268","category_name":"自助","address":"浦东新区富特西一路77号(近外高桥保税区北站)"},{"poiid":"B2094757D064ABF4439A","title":"maxyou歌城(高桥店)","lon":"121.585417068","lat":"31.350833185","category":"170","category_name":"KTV","address":"上海杨高北路花山路路口"},{"poiid":"B2094757D16FABF44298","title":"高桥老街","lon":"121.581389039","lat":"31.3443676684","category":"500","category_name":"未知分类","address":"上海高桥镇东街西街"},{"poiid":"B2094757D068A5F4489A","title":"荷兰风情小镇","lon":"121.57858","lat":"31.337483","category":"260","category_name":"其他","address":"上海外高桥高荷路"},{"poiid":"B2094757D468A4FF489B","title":"肯德基 高桥镇店 KFC","lon":"121.580319054","lat":"31.343535793","category":"68","category_name":"快餐厅","address":"浦东新区高桥镇大同路409号"},{"poiid":"B2094654D46AABFD409C","title":"上海市高桥中学","lon":"121.58134","lat":"31.34812","category":"55","category_name":"中学","address":"浦东新区高桥镇季景北路859号"},{"poiid":"B2094757D168A4FD419D","title":"家弘海鲜渔庄","lon":"121.584862968","lat":"31.3507511832","category":"247","category_name":"餐饮美食","address":"上海浦东高桥镇花山路1199号"},{"poiid":"B2094750DA69A5F4429A","title":"星巴克","lon":"121.58704","lat":"31.3495","category":"260","category_name":"其他","address":"浦东新区基隆路1号汤臣国际贸易大厦"},{"poiid":"B2094757D16DA6F94092","title":"高桥镇小学","lon":"121.578666","lat":"31.34961","category":"56","category_name":"小学","address":"上海市花山路789号"},{"poiid":"B2094654D46AAAFC4198","title":"春晖苑","lon":"121.58803","lat":"31.343513","category":"47","category_name":"住宅区","address":"春晖路368弄1-59号"},{"poiid":"B2094654D46AABFC479C","title":"苗记饺子馆","lon":"121.577278054","lat":"31.348542793","category":"68","category_name":"快餐厅","address":"浦东新区花山路(近大同路)"},{"poiid":"B2094655D26AA0FA449F","title":"地铁外高桥保税区北站","lon":"121.58661","lat":"31.34884","category":"36","category_name":"地铁站","address":""},{"poiid":"B2094757D66CA7FC4192","title":"怡心苑","lon":"121.58149289088","lat":"31.354172322681","category":"500","category_name":"未知分类","address":"上海市浦东新区花山路609弄"},{"poiid":"B209475CD66BA4FC459B","title":"中国（上海）自由贸易试验区","lon":"121.586691","lat":"31.350137","category":"500","category_name":"未知分类","address":"上海市 外高桥保税区基隆路"},{"poiid":"B2094757D164A0FB429E","title":"旺客轩海鲜酒楼","lon":"121.58572700214","lat":"31.352249731719","category":"88","category_name":"海鲜酒楼","address":"浦东新区花山路1199号(杨高北路口)"},{"poiid":"B2094655D36CA7FD439D","title":"花山路海高路","lon":"121.58338","lat":"31.3503","category":"38","category_name":"公交车站","address":""},{"poiid":"B2094757D06BA0FA4292","title":"梓亭","lon":"121.588751054","lat":"31.350598793","category":"95","category_name":"日本料理","address":"浦东新区外高桥保税区基隆路6号(富特西一路基隆路)"},{"poiid":"B2094654DB65A4F8439E","title":"莫泰168连锁旅店(外高桥店)","lon":"121.58562","lat":"31.35116","category":"216","category_name":"经济型连锁酒店","address":"上海市浦东新区花山路1209号（杨高北路与花山路的交汇口）"},{"poiid":"B2094654D46AA4F5469C","title":"海高二村","lon":"121.58173","lat":"31.350508","category":"47","category_name":"住宅区","address":"花山路1001弄1-48号"},{"poiid":"B2094654D46AABF44798","title":"国际信贸大厦","lon":"121.58975","lat":"31.34986","category":"46","category_name":"楼宇","address":"浦东区浦东外高桥保税区基隆路555号"},{"poiid":"B2094654D46AA4F5489F","title":"外高桥商务大厦","lon":"121.58518","lat":"31.35103","category":"46","category_name":"楼宇","address":"花山路1199"},{"poiid":"B2094757D06AA2F94798","title":"豪鸡汇(高桥店)","lon":"121.57717","lat":"31.34456","category":"68","category_name":"快餐厅","address":"浦东新区清溪路96号(近张杨北路)"},{"poiid":"B2094654D46AABFF459A","title":"台台缘火锅酒店","lon":"121.57841","lat":"31.3458","category":"86","category_name":"火锅店","address":"浦东新区大同路211号1楼(近清溪路)"},{"poiid":"B2094655D26BA3FA429A","title":"济州岛韩国小菜","lon":"121.57867","lat":"31.3496","category":"96","category_name":"韩国料理","address":"浦东新区花山路79号高桥镇小学对面(大同路口)"},{"poiid":"B2094757D16CA2F9429B","title":"东方汇文国际文化贸易中心","lon":"121.587861","lat":"31.348151","category":"500","category_name":"未知分类","address":"上海外高桥保税区马吉路2号"},{"poiid":"B2094654D46AABFC4399","title":"上海市浦东新区学前小学","lon":"121.58417","lat":"31.34926","category":"56","category_name":"小学","address":"浦东新区海春路86号(海春路花山路)"},{"poiid":"B2094655D26FA7F8479E","title":"海高一村(西门)","lon":"121.58221","lat":"31.34955","category":"47","category_name":"住宅区","address":"海春路65弄"},{"poiid":"B2094654DB6AA5FA479D","title":"锦悦苑(西门)","lon":"121.58428","lat":"31.35019","category":"47","category_name":"住宅区","address":"海春路35弄"},{"poiid":"B2094654DB6AA5FA4693","title":"海高二村(南门)","lon":"121.58193","lat":"31.34998","category":"47","category_name":"住宅区","address":"花山路1001弄1-48号"},{"poiid":"B2094757D165A3F44299","title":"高挢卫生院","lon":"121.58133006","lat":"31.348568133","category":"162","category_name":"医院","address":"上海高桥卫生院"},{"poiid":"B2094654D46AABFC429A","title":"锦悦苑","lon":"121.58472","lat":"31.350269","category":"47","category_name":"住宅区","address":"海春路35弄"},{"poiid":"B2094654DB6AA5FA489E","title":"学前一村(西门)","lon":"121.58364","lat":"31.34807","category":"47","category_name":"住宅区","address":""},{"poiid":"B2094757D06BABFF4092","title":"中国工商银行上海市分行外高桥保税区支行","lon":"121.586916435","lat":"31.3484183636","category":"500","category_name":"未知分类","address":"上海市外高桥保税区马吉路28号"},{"poiid":"B2094750D26AA7FC449D","title":"港城新苑","lon":"121.583282","lat":"31.352983","category":"47","category_name":"住宅区","address":"草高支路168弄"},{"poiid":"B2094654D46AABFC4593","title":"上海牧泽机电有限公司","lon":"121.58275","lat":"31.34992","category":"123","category_name":"家具建材市场","address":"花山路1058"},{"poiid":"B2094751D465ABF8409E","title":"苏州老庆太羊肉馆","lon":"121.5793","lat":"31.34883","category":"75","category_name":"浙江菜","address":"浦东新区花山路800号"},{"poiid":"B2094655D36CA0FB449E","title":"季景北路王家街","lon":"121.58095","lat":"31.34792","category":"38","category_name":"公交车站","address":""},{"poiid":"B2094654DB6AA5FA4793","title":"学前公寓(西门)","lon":"121.58527","lat":"31.34938","category":"47","category_name":"住宅区","address":"海春路121弄1-8号"},{"poiid":"B2094757D16AA3FA4698","title":"学前一村","lon":"121.58483106","lat":"31.348367129","category":"500","category_name":"未知分类","address":"上海市浦东新区海春路150弄"},{"poiid":"B2094654DB6AA5FA4999","title":"如意饭店","lon":"121.58189","lat":"31.34581","category":"76","category_name":"上海菜","address":"浦东新区高桥镇季景北路662号(近石家街)"},{"poiid":"B2094655D36CA1FE409A","title":"市七医院","lon":"121.57951","lat":"31.3427","category":"162","category_name":"医院","address":""},{"poiid":"B2094654DB64A5FB499F","title":"高桥集贸市场","lon":"121.58083","lat":"31.34826","category":"120","category_name":"小商品市场","address":""},{"poiid":"B2094655D26FA1F44799","title":"上海市高桥中学(西门)","lon":"121.581","lat":"31.34823","category":"678","category_name":"学校大门","address":"季景北路859"},{"poiid":"B2094654D46AABFD439D","title":"学前二村","lon":"121.58398","lat":"31.346434","category":"47","category_name":"住宅区","address":"学前路1弄"},{"poiid":"B2094654D46AABFD4892","title":"根弟饭店","lon":"121.57775","lat":"31.34736","category":"68","category_name":"快餐厅","address":"浦东新区季景北路"},{"poiid":"B2094757D06FA2FA4592","title":"上海市第七人民医院","lon":"121.578728289","lat":"31.3428979087","category":"162","category_name":"医院","address":"浦东新区大同路358号(近轨道6号线外高桥保税区北站)"},{"poiid":"B2094654D46AABFB429B","title":"上海外高桥保税区(二号门)","lon":"121.58669","lat":"31.35007","category":"45","category_name":"产业园区","address":"上海市浦东新区"},{"poiid":"B2094751D26BA3FE429B","title":"上海外高桥喜来登酒店","lon":"121.587144","lat":"31.350886","category":"251","category_name":"出行住宿","address":"上海市外高桥保税区基隆路28号"},{"poiid":"B2094757D06FA4F54492","title":"小四川水煮鱼(高桥店)","lon":"121.57752","lat":"31.35074","category":"71","category_name":"四川菜","address":"浦东新区高桥镇同港路110号(近地铁六号线港城路站)"},{"poiid":"B2094757D06FABF9419C","title":"外高桥税务局","lon":"121.588544","lat":"31.349773","category":"252","category_name":"楼宇机构","address":"上海浦东新区基隆路9号"},{"poiid":"B2094757D068A6FC479E","title":"富豪会展公寓酒店","lon":"121.58600306","lat":"31.348556133","category":"268","category_name":"自助","address":"浦东新区富特西一路77号(近外高桥保税区北站)"},{"poiid":"B2094757D064ABF4439A","title":"maxyou歌城(高桥店)","lon":"121.585417068","lat":"31.350833185","category":"170","category_name":"KTV","address":"上海杨高北路花山路路口"},{"poiid":"B2094757D16FABF44298","title":"高桥老街","lon":"121.581389039","lat":"31.3443676684","category":"500","category_name":"未知分类","address":"上海高桥镇东街西街"},{"poiid":"B2094757D068A5F4489A","title":"荷兰风情小镇","lon":"121.57858","lat":"31.337483","category":"260","category_name":"其他","address":"上海外高桥高荷路"},{"poiid":"B2094757D468A4FF489B","title":"肯德基 高桥镇店 KFC","lon":"121.580319054","lat":"31.343535793","category":"68","category_name":"快餐厅","address":"浦东新区高桥镇大同路409号"},{"poiid":"B2094654D46AABFD409C","title":"上海市高桥中学","lon":"121.58134","lat":"31.34812","category":"55","category_name":"中学","address":"浦东新区高桥镇季景北路859号"},{"poiid":"B2094757D168A4FD419D","title":"家弘海鲜渔庄","lon":"121.584862968","lat":"31.3507511832","category":"247","category_name":"餐饮美食","address":"上海浦东高桥镇花山路1199号"},{"poiid":"B2094750DA69A5F4429A","title":"星巴克","lon":"121.58704","lat":"31.3495","category":"260","category_name":"其他","address":"浦东新区基隆路1号汤臣国际贸易大厦"},{"poiid":"B2094757D16DA6F94092","title":"高桥镇小学","lon":"121.578666","lat":"31.34961","category":"56","category_name":"小学","address":"上海市花山路789号"},{"poiid":"B2094654D46AAAFC4198","title":"春晖苑","lon":"121.58803","lat":"31.343513","category":"47","category_name":"住宅区","address":"春晖路368弄1-59号"},{"poiid":"B2094654D46AABFC479C","title":"苗记饺子馆","lon":"121.577278054","lat":"31.348542793","category":"68","category_name":"快餐厅","address":"浦东新区花山路(近大同路)"},{"poiid":"B2094655D26AA0FA449F","title":"地铁外高桥保税区北站","lon":"121.58661","lat":"31.34884","category":"36","category_name":"地铁站","address":""},{"poiid":"B2094757D66CA7FC4192","title":"怡心苑","lon":"121.58149289088","lat":"31.354172322681","category":"500","category_name":"未知分类","address":"上海市浦东新区花山路609弄"},{"poiid":"B209475CD66BA4FC459B","title":"中国（上海）自由贸易试验区","lon":"121.586691","lat":"31.350137","category":"500","category_name":"未知分类","address":"上海市 外高桥保税区基隆路"},{"poiid":"B2094757D164A0FB429E","title":"旺客轩海鲜酒楼","lon":"121.58572700214","lat":"31.352249731719","category":"88","category_name":"海鲜酒楼","address":"浦东新区花山路1199号(杨高北路口)"},{"poiid":"B2094655D36CA7FD439D","title":"花山路海高路","lon":"121.58338","lat":"31.3503","category":"38","category_name":"公交车站","address":""},{"poiid":"B2094757D06BA0FA4292","title":"梓亭","lon":"121.588751054","lat":"31.350598793","category":"95","category_name":"日本料理","address":"浦东新区外高桥保税区基隆路6号(富特西一路基隆路)"},{"poiid":"B2094654DB65A4F8439E","title":"莫泰168连锁旅店(外高桥店)","lon":"121.58562","lat":"31.35116","category":"216","category_name":"经济型连锁酒店","address":"上海市浦东新区花山路1209号（杨高北路与花山路的交汇口）"},{"poiid":"B2094654D46AA4F5469C","title":"海高二村","lon":"121.58173","lat":"31.350508","category":"47","category_name":"住宅区","address":"花山路1001弄1-48号"},{"poiid":"B2094654D46AABF44798","title":"国际信贸大厦","lon":"121.58975","lat":"31.34986","category":"46","category_name":"楼宇","address":"浦东区浦东外高桥保税区基隆路555号"},{"poiid":"B2094654D46AA4F5489F","title":"外高桥商务大厦","lon":"121.58518","lat":"31.35103","category":"46","category_name":"楼宇","address":"花山路1199"},{"poiid":"B2094757D06AA2F94798","title":"豪鸡汇(高桥店)","lon":"121.57717","lat":"31.34456","category":"68","category_name":"快餐厅","address":"浦东新区清溪路96号(近张杨北路)"},{"poiid":"B2094654D46AABFF459A","title":"台台缘火锅酒店","lon":"121.57841","lat":"31.3458","category":"86","category_name":"火锅店","address":"浦东新区大同路211号1楼(近清溪路)"},{"poiid":"B2094655D26BA3FA429A","title":"济州岛韩国小菜","lon":"121.57867","lat":"31.3496","category":"96","category_name":"韩国料理","address":"浦东新区花山路79号高桥镇小学对面(大同路口)"},{"poiid":"B2094757D16CA2F9429B","title":"东方汇文国际文化贸易中心","lon":"121.587861","lat":"31.348151","category":"500","category_name":"未知分类","address":"上海外高桥保税区马吉路2号"},{"poiid":"B2094654D46AABFC4399","title":"上海市浦东新区学前小学","lon":"121.58417","lat":"31.34926","category":"56","category_name":"小学","address":"浦东新区海春路86号(海春路花山路)"},{"poiid":"B2094655D26FA7F8479E","title":"海高一村(西门)","lon":"121.58221","lat":"31.34955","category":"47","category_name":"住宅区","address":"海春路65弄"},{"poiid":"B2094654DB6AA5FA479D","title":"锦悦苑(西门)","lon":"121.58428","lat":"31.35019","category":"47","category_name":"住宅区","address":"海春路35弄"},{"poiid":"B2094654DB6AA5FA4693","title":"海高二村(南门)","lon":"121.58193","lat":"31.34998","category":"47","category_name":"住宅区","address":"花山路1001弄1-48号"},{"poiid":"B2094757D165A3F44299","title":"高挢卫生院","lon":"121.58133006","lat":"31.348568133","category":"162","category_name":"医院","address":"上海高桥卫生院"},{"poiid":"B2094654D46AABFC429A","title":"锦悦苑","lon":"121.58472","lat":"31.350269","category":"47","category_name":"住宅区","address":"海春路35弄"},{"poiid":"B2094654DB6AA5FA489E","title":"学前一村(西门)","lon":"121.58364","lat":"31.34807","category":"47","category_name":"住宅区","address":""},{"poiid":"B2094757D06BABFF4092","title":"中国工商银行上海市分行外高桥保税区支行","lon":"121.586916435","lat":"31.3484183636","category":"500","category_name":"未知分类","address":"上海市外高桥保税区马吉路28号"},{"poiid":"B2094750D26AA7FC449D","title":"港城新苑","lon":"121.583282","lat":"31.352983","category":"47","category_name":"住宅区","address":"草高支路168弄"},{"poiid":"B2094654D46AABFC4593","title":"上海牧泽机电有限公司","lon":"121.58275","lat":"31.34992","category":"123","category_name":"家具建材市场","address":"花山路1058"},{"poiid":"B2094751D465ABF8409E","title":"苏州老庆太羊肉馆","lon":"121.5793","lat":"31.34883","category":"75","category_name":"浙江菜","address":"浦东新区花山路800号"},{"poiid":"B2094655D36CA0FB449E","title":"季景北路王家街","lon":"121.58095","lat":"31.34792","category":"38","category_name":"公交车站","address":""},{"poiid":"B2094654DB6AA5FA4793","title":"学前公寓(西门)","lon":"121.58527","lat":"31.34938","category":"47","category_name":"住宅区","address":"海春路121弄1-8号"},{"poiid":"B2094757D16AA3FA4698","title":"学前一村","lon":"121.58483106","lat":"31.348367129","category":"500","category_name":"未知分类","address":"上海市浦东新区海春路150弄"},{"poiid":"B2094654DB6AA5FA4999","title":"如意饭店","lon":"121.58189","lat":"31.34581","category":"76","category_name":"上海菜","address":"浦东新区高桥镇季景北路662号(近石家街)"},{"poiid":"B2094655D36CA1FE409A","title":"市七医院","lon":"121.57951","lat":"31.3427","category":"162","category_name":"医院","address":""},{"poiid":"B2094654DB64A5FB499F","title":"高桥集贸市场","lon":"121.58083","lat":"31.34826","category":"120","category_name":"小商品市场","address":""},{"poiid":"B2094655D26FA1F44799","title":"上海市高桥中学(西门)","lon":"121.581","lat":"31.34823","category":"678","category_name":"学校大门","address":"季景北路859"},{"poiid":"B2094654D46AABFD439D","title":"学前二村","lon":"121.58398","lat":"31.346434","category":"47","category_name":"住宅区","address":"学前路1弄"},{"poiid":"B2094654D46AABFD4892","title":"根弟饭店","lon":"121.57775","lat":"31.34736","category":"68","category_name":"快餐厅","address":"浦东新区季景北路"},{"poiid":"B2094757D06FA2FA4592","title":"上海市第七人民医院","lon":"121.578728289","lat":"31.3428979087","category":"162","category_name":"医院","address":"浦东新区大同路358号(近轨道6号线外高桥保税区北站)"},{"poiid":"B2094654D46AABFB429B","title":"上海外高桥保税区(二号门)","lon":"121.58669","lat":"31.35007","category":"45","category_name":"产业园区","address":"上海市浦东新区"},{"poiid":"B2094751D26BA3FE429B","title":"上海外高桥喜来登酒店","lon":"121.587144","lat":"31.350886","category":"251","category_name":"出行住宿","address":"上海市外高桥保税区基隆路28号"},{"poiid":"B2094757D06FA4F54492","title":"小四川水煮鱼(高桥店)","lon":"121.57752","lat":"31.35074","category":"71","category_name":"四川菜","address":"浦东新区高桥镇同港路110号(近地铁六号线港城路站)"},{"poiid":"B2094757D06FABF9419C","title":"外高桥税务局","lon":"121.588544","lat":"31.349773","category":"252","category_name":"楼宇机构","address":"上海浦东新区基隆路9号"},{"poiid":"B2094757D068A6FC479E","title":"富豪会展公寓酒店","lon":"121.58600306","lat":"31.348556133","category":"268","category_name":"自助","address":"浦东新区富特西一路77号(近外高桥保税区北站)"},{"poiid":"B2094757D064ABF4439A","title":"maxyou歌城(高桥店)","lon":"121.585417068","lat":"31.350833185","category":"170","category_name":"KTV","address":"上海杨高北路花山路路口"},{"poiid":"B2094757D16FABF44298","title":"高桥老街","lon":"121.581389039","lat":"31.3443676684","category":"500","category_name":"未知分类","address":"上海高桥镇东街西街"},{"poiid":"B2094757D068A5F4489A","title":"荷兰风情小镇","lon":"121.57858","lat":"31.337483","category":"260","category_name":"其他","address":"上海外高桥高荷路"},{"poiid":"B2094757D468A4FF489B","title":"肯德基 高桥镇店 KFC","lon":"121.580319054","lat":"31.343535793","category":"68","category_name":"快餐厅","address":"浦东新区高桥镇大同路409号"},{"poiid":"B2094654D46AABFD409C","title":"上海市高桥中学","lon":"121.58134","lat":"31.34812","category":"55","category_name":"中学","address":"浦东新区高桥镇季景北路859号"},{"poiid":"B2094757D168A4FD419D","title":"家弘海鲜渔庄","lon":"121.584862968","lat":"31.3507511832","category":"247","category_name":"餐饮美食","address":"上海浦东高桥镇花山路1199号"},{"poiid":"B2094750DA69A5F4429A","title":"星巴克","lon":"121.58704","lat":"31.3495","category":"260","category_name":"其他","address":"浦东新区基隆路1号汤臣国际贸易大厦"},{"poiid":"B2094757D16DA6F94092","title":"高桥镇小学","lon":"121.578666","lat":"31.34961","category":"56","category_name":"小学","address":"上海市花山路789号"},{"poiid":"B2094654D46AAAFC4198","title":"春晖苑","lon":"121.58803","lat":"31.343513","category":"47","category_name":"住宅区","address":"春晖路368弄1-59号"},{"poiid":"B2094654D46AABFC479C","title":"苗记饺子馆","lon":"121.577278054","lat":"31.348542793","category":"68","category_name":"快餐厅","address":"浦东新区花山路(近大同路)"},{"poiid":"B2094655D26AA0FA449F","title":"地铁外高桥保税区北站","lon":"121.58661","lat":"31.34884","category":"36","category_name":"地铁站","address":""},{"poiid":"B2094757D66CA7FC4192","title":"怡心苑","lon":"121.58149289088","lat":"31.354172322681","category":"500","category_name":"未知分类","address":"上海市浦东新区花山路609弄"},{"poiid":"B209475CD66BA4FC459B","title":"中国（上海）自由贸易试验区","lon":"121.586691","lat":"31.350137","category":"500","category_name":"未知分类","address":"上海市 外高桥保税区基隆路"},{"poiid":"B2094757D164A0FB429E","title":"旺客轩海鲜酒楼","lon":"121.58572700214","lat":"31.352249731719","category":"88","category_name":"海鲜酒楼","address":"浦东新区花山路1199号(杨高北路口)"},{"poiid":"B2094655D36CA7FD439D","title":"花山路海高路","lon":"121.58338","lat":"31.3503","category":"38","category_name":"公交车站","address":""},{"poiid":"B2094757D06BA0FA4292","title":"梓亭","lon":"121.588751054","lat":"31.350598793","category":"95","category_name":"日本料理","address":"浦东新区外高桥保税区基隆路6号(富特西一路基隆路)"},{"poiid":"B2094654DB65A4F8439E","title":"莫泰168连锁旅店(外高桥店)","lon":"121.58562","lat":"31.35116","category":"216","category_name":"经济型连锁酒店","address":"上海市浦东新区花山路1209号（杨高北路与花山路的交汇口）"},{"poiid":"B2094654D46AA4F5469C","title":"海高二村","lon":"121.58173","lat":"31.350508","category":"47","category_name":"住宅区","address":"花山路1001弄1-48号"},{"poiid":"B2094654D46AABF44798","title":"国际信贸大厦","lon":"121.58975","lat":"31.34986","category":"46","category_name":"楼宇","address":"浦东区浦东外高桥保税区基隆路555号"},{"poiid":"B2094654D46AA4F5489F","title":"外高桥商务大厦","lon":"121.58518","lat":"31.35103","category":"46","category_name":"楼宇","address":"花山路1199"},{"poiid":"B2094757D06AA2F94798","title":"豪鸡汇(高桥店)","lon":"121.57717","lat":"31.34456","category":"68","category_name":"快餐厅","address":"浦东新区清溪路96号(近张杨北路)"},{"poiid":"B2094654D46AABFF459A","title":"台台缘火锅酒店","lon":"121.57841","lat":"31.3458","category":"86","category_name":"火锅店","address":"浦东新区大同路211号1楼(近清溪路)"},{"poiid":"B2094655D26BA3FA429A","title":"济州岛韩国小菜","lon":"121.57867","lat":"31.3496","category":"96","category_name":"韩国料理","address":"浦东新区花山路79号高桥镇小学对面(大同路口)"},{"poiid":"B2094757D16CA2F9429B","title":"东方汇文国际文化贸易中心","lon":"121.587861","lat":"31.348151","category":"500","category_name":"未知分类","address":"上海外高桥保税区马吉路2号"},{"poiid":"B2094654D46AABFC4399","title":"上海市浦东新区学前小学","lon":"121.58417","lat":"31.34926","category":"56","category_name":"小学","address":"浦东新区海春路86号(海春路花山路)"},{"poiid":"B2094655D26FA7F8479E","title":"海高一村(西门)","lon":"121.58221","lat":"31.34955","category":"47","category_name":"住宅区","address":"海春路65弄"},{"poiid":"B2094654DB6AA5FA479D","title":"锦悦苑(西门)","lon":"121.58428","lat":"31.35019","category":"47","category_name":"住宅区","address":"海春路35弄"},{"poiid":"B2094654DB6AA5FA4693","title":"海高二村(南门)","lon":"121.58193","lat":"31.34998","category":"47","category_name":"住宅区","address":"花山路1001弄1-48号"},{"poiid":"B2094757D165A3F44299","title":"高挢卫生院","lon":"121.58133006","lat":"31.348568133","category":"162","category_name":"医院","address":"上海高桥卫生院"},{"poiid":"B2094654D46AABFC429A","title":"锦悦苑","lon":"121.58472","lat":"31.350269","category":"47","category_name":"住宅区","address":"海春路35弄"},{"poiid":"B2094654DB6AA5FA489E","title":"学前一村(西门)","lon":"121.58364","lat":"31.34807","category":"47","category_name":"住宅区","address":""},{"poiid":"B2094757D06BABFF4092","title":"中国工商银行上海市分行外高桥保税区支行","lon":"121.586916435","lat":"31.3484183636","category":"500","category_name":"未知分类","address":"上海市外高桥保税区马吉路28号"},{"poiid":"B2094750D26AA7FC449D","title":"港城新苑","lon":"121.583282","lat":"31.352983","category":"47","category_name":"住宅区","address":"草高支路168弄"},{"poiid":"B2094654D46AABFC4593","title":"上海牧泽机电有限公司","lon":"121.58275","lat":"31.34992","category":"123","category_name":"家具建材市场","address":"花山路1058"},{"poiid":"B2094751D465ABF8409E","title":"苏州老庆太羊肉馆","lon":"121.5793","lat":"31.34883","category":"75","category_name":"浙江菜","address":"浦东新区花山路800号"},{"poiid":"B2094655D36CA0FB449E","title":"季景北路王家街","lon":"121.58095","lat":"31.34792","category":"38","category_name":"公交车站","address":""},{"poiid":"B2094654DB6AA5FA4793","title":"学前公寓(西门)","lon":"121.58527","lat":"31.34938","category":"47","category_name":"住宅区","address":"海春路121弄1-8号"},{"poiid":"B2094757D16AA3FA4698","title":"学前一村","lon":"121.58483106","lat":"31.348367129","category":"500","category_name":"未知分类","address":"上海市浦东新区海春路150弄"},{"poiid":"B2094654DB6AA5FA4999","title":"如意饭店","lon":"121.58189","lat":"31.34581","category":"76","category_name":"上海菜","address":"浦东新区高桥镇季景北路662号(近石家街)"},{"poiid":"B2094655D36CA1FE409A","title":"市七医院","lon":"121.57951","lat":"31.3427","category":"162","category_name":"医院","address":""},{"poiid":"B2094654DB64A5FB499F","title":"高桥集贸市场","lon":"121.58083","lat":"31.34826","category":"120","category_name":"小商品市场","address":""},{"poiid":"B2094655D26FA1F44799","title":"上海市高桥中学(西门)","lon":"121.581","lat":"31.34823","category":"678","category_name":"学校大门","address":"季景北路859"},{"poiid":"B2094654D46AABFD439D","title":"学前二村","lon":"121.58398","lat":"31.346434","category":"47","category_name":"住宅区","address":"学前路1弄"},{"poiid":"B2094654D46AABFD4892","title":"根弟饭店","lon":"121.57775","lat":"31.34736","category":"68","category_name":"快餐厅","address":"浦东新区季景北路"}]