[{"poiid":"B2094655D36CA1F9449D","title":"凌桥","lon":"121.54346","lat":"31.36538","category":"38","category_name":"公交车站","address":""},{"poiid":"B2094757D16DA0FC449C","title":"巴斯夫(中国)有限公司","lon":"121.538418023","lat":"31.3452782416","category":"263","category_name":"公司","address":"上海浦东江心沙路300号"},{"poiid":"B2094654D46BA3FF4093","title":"东港丽景苑","lon":"121.54063","lat":"31.368195","category":"47","category_name":"住宅区","address":"浦东凌环路51弄外高桥"},{"poiid":"B2094757D065A1FB4792","title":"中凌东港苑","lon":"121.54386","lat":"31.367647","category":"47","category_name":"住宅区","address":"上海市浦东新区凌环路179弄"},{"poiid":"B2094654DB6AA5F54199","title":"巴斯夫(中国)有限公司","lon":"121.54081","lat":"31.35","category":"263","category_name":"公司","address":"港城路2333"},{"poiid":"B2094757D06AA3FB4392","title":"东森国际","lon":"121.54688683","lat":"31.352747211","category":"47","category_name":"住宅区","address":"上海港城路2222号"},{"poiid":"B2094757D16BA5FF4498","title":"东森企业发展","lon":"121.543935","lat":"31.356568","category":"263","category_name":"公司","address":"上海浦东新区江泉路1111号"},{"poiid":"B2094654D46BA3F9489B","title":"上海市凌桥中学","lon":"121.54367","lat":"31.36546","category":"55","category_name":"中学","address":"浦东新区高桥镇江东路1375号"},{"poiid":"B2094757D064A5F84492","title":"上港集团浦东海关查验处","lon":"121.54700249","lat":"31.361249997","category":"500","category_name":"未知分类","address":"上海浦东北路港城路"},{"poiid":"B2094757D065A6FB439F","title":"巴斯夫特种聚氨酯有限公司3号门","lon":"121.542142709","lat":"31.3513495511","category":"500","category_name":"未知分类","address":"上海浦东港城路2333号"},{"poiid":"B2094654D46BA3F8429D","title":"凌桥新村","lon":"121.54406","lat":"31.36364","category":"47","category_name":"住宅区","address":"江东路1380弄"},{"poiid":"B2094654D46BA3F5479C","title":"凌桥二村","lon":"121.54149","lat":"31.363422","category":"47","category_name":"住宅区","address":"凌海路80号"},{"poiid":"B2094654D46BA3FB469D","title":"上海中波国际物流有限公司","lon":"121.54167","lat":"31.35263","category":"248","category_name":"生活娱乐","address":"港城路北新1号"},{"poiid":"B2094654D46BA3F44699","title":"浦东高桥工业小区","lon":"121.54205","lat":"31.362417","category":"47","category_name":"住宅区","address":"陵桥镇西45号"},{"poiid":"B2094654D46BA3F8429B","title":"凯旋楼","lon":"121.54297","lat":"31.3642","category":"46","category_name":"楼宇","address":"影前路32弄49、55、61、65号"},{"poiid":"B2094655D26EAAFD489F","title":"凌翼酒楼","lon":"121.54321","lat":"31.36523","category":"70","category_name":"综合酒楼","address":"浦东新区江东路1380弄2号近浦东北路"},{"poiid":"B2094654D46BA3F9499D","title":"全福酒家","lon":"121.54208","lat":"31.36585","category":"76","category_name":"上海菜","address":"浦东新区江东路1257号(近西凌江路)"},{"poiid":"B2094654D46BA3F8429A","title":"上海市浦东新区凌桥中心小学","lon":"121.54237","lat":"31.3645","category":"56","category_name":"小学","address":"浦东新区江东路1380弄78号"},{"poiid":"B2094654D46BA3F54799","title":"凌翼大楼","lon":"121.54348","lat":"31.36493","category":"46","category_name":"楼宇","address":"高桥镇"},{"poiid":"B2094757D064A7FE4699","title":"凌桥幼儿园","lon":"121.544335","lat":"31.3663743","category":"57","category_name":"幼儿园","address":"浦东新区凌桥镇凌高路128号"},{"poiid":"B2094654D46BA3FF4198","title":"凌桥影剧院","lon":"121.543481","lat":"31.364498","category":"178","category_name":"电影院","address":"江东路1380弄195"},{"poiid":"B2094654D46BA3FA4093","title":"锦福苑","lon":"121.54026","lat":"31.365746","category":"47","category_name":"住宅区","address":"江东路1217弄"},{"poiid":"B2094654D46BA3FF419D","title":"东新村","lon":"121.54908","lat":"31.35051","category":"47","category_name":"住宅区","address":"中高路398"},{"poiid":"B2094654DB6AA5F54198","title":"巴斯夫应用化工有限公司","lon":"121.54082","lat":"31.34999","category":"263","category_name":"公司","address":"港城路2333"},{"poiid":"B2094757D66DA5FA489D","title":"浦东高桥草镇西新村","lon":"121.53748283","lat":"31.348598126","category":"500","category_name":"未知分类","address":"上海市浦东新区２５８村道"},{"poiid":"B2094757D66DABFD4092","title":"江东路","lon":"121.548781831","lat":"31.3631514262","category":"500","category_name":"未知分类","address":"上海江东路1685"},{"poiid":"B2094654D46BA3F94999","title":"金翼小区","lon":"121.54451","lat":"31.364471","category":"47","category_name":"住宅区","address":"江东路1400弄18号"},{"poiid":"B2094654D46BA3F4459F","title":"草镇轮渡站","lon":"121.53814","lat":"31.34492","category":"34","category_name":"港口码头","address":"江心沙路2号"},{"poiid":"B2094654D46BA3FA4198","title":"怡静园","lon":"121.53798","lat":"31.36677","category":"47","category_name":"住宅区","address":"江东路1075弄1-30号"},{"poiid":"B2094654D46BA3F5479D","title":"华发港城仓库","lon":"121.54682","lat":"31.35109","category":"263","category_name":"公司","address":"港城路288号"},{"poiid":"B2094654D46BA3FE489D","title":"凌桥派出所","lon":"121.54305","lat":"31.36454","category":"609","category_name":"警察局","address":"浦东新区江东路1380弄50号"},{"poiid":"B2094654D46BA3FF4199","title":"上海农村商业银行凌桥支行","lon":"121.5439","lat":"31.36392","category":"150","category_name":"银行","address":"江东路1380弄255"},{"poiid":"B2094757D16EA0FD4493","title":"上港物流仓库","lon":"121.553264831","lat":"31.3567672947","category":"263","category_name":"公司","address":"上海市浦东新区港城路1728号"},{"poiid":"B2094654D46BA3FE499D","title":"中国农业银行外高桥凌桥支行","lon":"121.54319","lat":"31.36468","category":"150","category_name":"银行","address":"江东路1380弄20号"},{"poiid":"B2094655D26BA2FC479A","title":"吴淞船厂","lon":"121.52995","lat":"31.3489","category":"38","category_name":"公交车站","address":""},{"poiid":"B2094757D16DA6F9489D","title":"草镇码头","lon":"121.538143","lat":"31.344923","category":"500","category_name":"未知分类","address":"上海草镇"},{"poiid":"B2094654D46BA3FB4393","title":"上海浦东新区凌桥市政工程公司","lon":"121.54526","lat":"31.3646","category":"263","category_name":"公司","address":"江东路1476"},{"poiid":"B2094654D46BA3F5459A","title":"中国海警","lon":"121.54149","lat":"31.36626","category":"248","category_name":"生活娱乐","address":""},{"poiid":"B2094654D46BA3FA4898","title":"上海浦东竹林学校","lon":"121.52667","lat":"31.35785","category":"55","category_name":"中学","address":""},{"poiid":"B2094655D36CA7FF4093","title":"护塘桥","lon":"121.5555","lat":"31.35651","category":"38","category_name":"公交车站","address":""},{"poiid":"B2094654D46BA3FB4692","title":"中国石化设备腐蚀与防护研究分中心","lon":"121.55067","lat":"31.3532","category":"191","category_name":"科研机构","address":""},{"poiid":"B2094757D16BA0FA469B","title":"BACC","lon":"121.5353494","lat":"31.3461395","category":"500","category_name":"未知分类","address":"上海浦东江心沙路300号"},{"poiid":"B2094654D46BA3F54292","title":"临江路轮渡站","lon":"121.5326","lat":"31.3405","category":"34","category_name":"港口码头","address":"军工路"},{"poiid":"B2094655D36CA7FB4292","title":"海军门诊部","lon":"121.54435","lat":"31.34292","category":"162","category_name":"医院","address":""},{"poiid":"B2094757D16EA0FD479F","title":"迪亚天天N.5955","lon":"121.53723144","lat":"31.367059707","category":"249","category_name":"购物服务","address":"上海浦东凌桥店"},{"poiid":"B2094757D16EA6FA429A","title":"漠河路篮球场","lon":"121.53073783","lat":"31.36482546","category":"220","category_name":"运动场所","address":"上海漠河路"},{"poiid":"B2094654D46BA3FB479D","title":"浦东集箱物流中心","lon":"121.55467","lat":"31.35748","category":"248","category_name":"生活娱乐","address":""},{"poiid":"B2094654DB6AA5F5439A","title":"安信堆场","lon":"121.55384","lat":"31.35849","category":"248","category_name":"生活娱乐","address":""},{"poiid":"B2094655D36CA5FB4399","title":"仓房浜","lon":"121.53263","lat":"31.37054","category":"38","category_name":"公交车站","address":""},{"poiid":"B2094655D36CA6FE469E","title":"港城路江东路","lon":"121.55943","lat":"31.35231","category":"38","category_name":"公交车站","address":""},{"poiid":"B2094655D36CA1F9449D","title":"凌桥","lon":"121.54346","lat":"31.36538","category":"38","category_name":"公交车站","address":""},{"poiid":"B2094757D16DA0FC449C","title":"巴斯夫(中国)有限公司","lon":"121.538418023","lat":"31.3452782416","category":"263","category_name":"公司","address":"上海浦东江心沙路300号"},{"poiid":"B2094654D46BA3FF4093","title":"东港丽景苑","lon":"121.54063","lat":"31.368195","category":"47","category_name":"住宅区","address":"浦东凌环路51弄外高桥"},{"poiid":"B2094757D065A1FB4792","title":"中凌东港苑","lon":"121.54386","lat":"31.367647","category":"47","category_name":"住宅区","address":"上海市浦东新区凌环路179弄"},{"poiid":"B2094654DB6AA5F54199","title":"巴斯夫(中国)有限公司","lon":"121.54081","lat":"31.35","category":"263","category_name":"公司","address":"港城路2333"},{"poiid":"B2094757D06AA3FB4392","title":"东森国际","lon":"121.54688683","lat":"31.352747211","category":"47","category_name":"住宅区","address":"上海港城路2222号"},{"poiid":"B2094757D16BA5FF4498","title":"东森企业发展","lon":"121.543935","lat":"31.356568","category":"263","category_name":"公司","address":"上海浦东新区江泉路1111号"},{"poiid":"B2094654D46BA3F9489B","title":"上海市凌桥中学","lon":"121.54367","lat":"31.36546","category":"55","category_name":"中学","address":"浦东新区高桥镇江东路1375号"},{"poiid":"B2094757D064A5F84492","title":"上港集团浦东海关查验处","lon":"121.54700249","lat":"31.361249997","category":"500","category_name":"未知分类","address":"上海浦东北路港城路"},{"poiid":"B2094757D065A6FB439F","title":"巴斯夫特种聚氨酯有限公司3号门","lon":"121.542142709","lat":"31.3513495511","category":"500","category_name":"未知分类","address":"上海浦东港城路2333号"},{"poiid":"B2094654D46BA3F8429D","title":"凌桥新村","lon":"121.54406","lat":"31.36364","category":"47","category_name":"住宅区","address":"江东路1380弄"},{"poiid":"B2094654D46BA3F5479C","title":"凌桥二村","lon":"121.54149","lat":"31.363422","category":"47","category_name":"住宅区","address":"凌海路80号"},{"poiid":"B2094654D46BA3FB469D","title":"上海中波国际物流有限公司","lon":"121.54167","lat":"31.35263","category":"248","category_name":"生活娱乐","address":"港城路北新1号"},{"poiid":"B2094654D46BA3F44699","title":"浦东高桥工业小区","lon":"121.54205","lat":"31.362417","category":"47","category_name":"住宅区","address":"陵桥镇西45号"},{"poiid":"B2094654D46BA3F8429B","title":"凯旋楼","lon":"121.54297","lat":"31.3642","category":"46","category_name":"楼宇","address":"影前路32弄49、55、61、65号"},{"poiid":"B2094655D26EAAFD489F","title":"凌翼酒楼","lon":"121.54321","lat":"31.36523","category":"70","category_name":"综合酒楼","address":"浦东新区江东路1380弄2号近浦东北路"},{"poiid":"B2094654D46BA3F9499D","title":"全福酒家","lon":"121.54208","lat":"31.36585","category":"76","category_name":"上海菜","address":"浦东新区江东路1257号(近西凌江路)"},{"poiid":"B2094654D46BA3F8429A","title":"上海市浦东新区凌桥中心小学","lon":"121.54237","lat":"31.3645","category":"56","category_name":"小学","address":"浦东新区江东路1380弄78号"},{"poiid":"B2094654D46BA3F54799","title":"凌翼大楼","lon":"121.54348","lat":"31.36493","category":"46","category_name":"楼宇","address":"高桥镇"},{"poiid":"B2094757D064A7FE4699","title":"凌桥幼儿园","lon":"121.544335","lat":"31.3663743","category":"57","category_name":"幼儿园","address":"浦东新区凌桥镇凌高路128号"},{"poiid":"B2094654D46BA3FF4198","title":"凌桥影剧院","lon":"121.543481","lat":"31.364498","category":"178","category_name":"电影院","address":"江东路1380弄195"},{"poiid":"B2094654D46BA3FA4093","title":"锦福苑","lon":"121.54026","lat":"31.365746","category":"47","category_name":"住宅区","address":"江东路1217弄"},{"poiid":"B2094654D46BA3FF419D","title":"东新村","lon":"121.54908","lat":"31.35051","category":"47","category_name":"住宅区","address":"中高路398"},{"poiid":"B2094654DB6AA5F54198","title":"巴斯夫应用化工有限公司","lon":"121.54082","lat":"31.34999","category":"263","category_name":"公司","address":"港城路2333"},{"poiid":"B2094757D66DA5FA489D","title":"浦东高桥草镇西新村","lon":"121.53748283","lat":"31.348598126","category":"500","category_name":"未知分类","address":"上海市浦东新区２５８村道"},{"poiid":"B2094757D66DABFD4092","title":"江东路","lon":"121.548781831","lat":"31.3631514262","category":"500","category_name":"未知分类","address":"上海江东路1685"},{"poiid":"B2094654D46BA3F94999","title":"金翼小区","lon":"121.54451","lat":"31.364471","category":"47","category_name":"住宅区","address":"江东路1400弄18号"},{"poiid":"B2094654D46BA3F4459F","title":"草镇轮渡站","lon":"121.53814","lat":"31.34492","category":"34","category_name":"港口码头","address":"江心沙路2号"},{"poiid":"B2094654D46BA3FA4198","title":"怡静园","lon":"121.53798","lat":"31.36677","category":"47","category_name":"住宅区","address":"江东路1075弄1-30号"},{"poiid":"B2094654D46BA3F5479D","title":"华发港城仓库","lon":"121.54682","lat":"31.35109","category":"263","category_name":"公司","address":"港城路288号"},{"poiid":"B2094654D46BA3FE489D","title":"凌桥派出所","lon":"121.54305","lat":"31.36454","category":"609","category_name":"警察局","address":"浦东新区江东路1380弄50号"},{"poiid":"B2094654D46BA3FF4199","title":"上海农村商业银行凌桥支行","lon":"121.5439","lat":"31.36392","category":"150","category_name":"银行","address":"江东路1380弄255"},{"poiid":"B2094757D16EA0FD4493","title":"上港物流仓库","lon":"121.553264831","lat":"31.3567672947","category":"263","category_name":"公司","address":"上海市浦东新区港城路1728号"},{"poiid":"B2094654D46BA3FE499D","title":"中国农业银行外高桥凌桥支行","lon":"121.54319","lat":"31.36468","category":"150","category_name":"银行","address":"江东路1380弄20号"},{"poiid":"B2094655D26BA2FC479A","title":"吴淞船厂","lon":"121.52995","lat":"31.3489","category":"38","category_name":"公交车站","address":""},{"poiid":"B2094757D16DA6F9489D","title":"草镇码头","lon":"121.538143","lat":"31.344923","category":"500","category_name":"未知分类","address":"上海草镇"},{"poiid":"B2094654D46BA3FB4393","title":"上海浦东新区凌桥市政工程公司","lon":"121.54526","lat":"31.3646","category":"263","category_name":"公司","address":"江东路1476"},{"poiid":"B2094654D46BA3F5459A","title":"中国海警","lon":"121.54149","lat":"31.36626","category":"248","category_name":"生活娱乐","address":""},{"poiid":"B2094654D46BA3FA4898","title":"上海浦东竹林学校","lon":"121.52667","lat":"31.35785","category":"55","category_name":"中学","address":""},{"poiid":"B2094655D36CA7FF4093","title":"护塘桥","lon":"121.5555","lat":"31.35651","category":"38","category_name":"公交车站","address":""},{"poiid":"B2094654D46BA3FB4692","title":"中国石化设备腐蚀与防护研究分中心","lon":"121.55067","lat":"31.3532","category":"191","category_name":"科研机构","address":""},{"poiid":"B2094757D16BA0FA469B","title":"BACC","lon":"121.5353494","lat":"31.3461395","category":"500","category_name":"未知分类","address":"上海浦东江心沙路300号"},{"poiid":"B2094654D46BA3F54292","title":"临江路轮渡站","lon":"121.5326","lat":"31.3405","category":"34","category_name":"港口码头","address":"军工路"},{"poiid":"B2094655D36CA7FB4292","title":"海军门诊部","lon":"121.54435","lat":"31.34292","category":"162","category_name":"医院","address":""},{"poiid":"B2094757D16EA0FD479F","title":"迪亚天天N.5955","lon":"121.53723144","lat":"31.367059707","category":"249","category_name":"购物服务","address":"上海浦东凌桥店"},{"poiid":"B2094757D16EA6FA429A","title":"漠河路篮球场","lon":"121.53073783","lat":"31.36482546","category":"220","category_name":"运动场所","address":"上海漠河路"},{"poiid":"B2094654D46BA3FB479D","title":"浦东集箱物流中心","lon":"121.55467","lat":"31.35748","category":"248","category_name":"生活娱乐","address":""},{"poiid":"B2094654DB6AA5F5439A","title":"安信堆场","lon":"121.55384","lat":"31.35849","category":"248","category_name":"生活娱乐","address":""},{"poiid":"B2094655D36CA5FB4399","title":"仓房浜","lon":"121.53263","lat":"31.37054","category":"38","category_name":"公交车站","address":""},{"poiid":"B2094655D36CA6FE469E","title":"港城路江东路","lon":"121.55943","lat":"31.35231","category":"38","category_name":"公交车站","address":""}]