[{"poiid":"B2094757D06FA1FE449C","title":"外高桥皇冠假日酒店","lon":"121.59126","lat":"31.33923","category":"213","category_name":"五星级宾馆","address":"浦东新区杨高北路1000号(近夏碧路)"},{"poiid":"B2094654D46AABFB429B","title":"上海外高桥保税区(二号门)","lon":"121.58669","lat":"31.35007","category":"45","category_name":"产业园区","address":"上海市浦东新区"},{"poiid":"B2094751D26BA3FE429B","title":"上海外高桥喜来登酒店","lon":"121.587144","lat":"31.350886","category":"251","category_name":"出行住宿","address":"上海市外高桥保税区基隆路28号"},{"poiid":"B2094757D06FABF9419C","title":"外高桥税务局","lon":"121.588544","lat":"31.349773","category":"252","category_name":"楼宇机构","address":"上海浦东新区基隆路9号"},{"poiid":"B2094757D068A0FD4198","title":"一品全大酒店(外高桥店)","lon":"121.59096","lat":"31.33935","category":"76","category_name":"上海菜","address":"杨高北路960号(夏碧路12号)近春晖路"},{"poiid":"B2094757D068A6FC479E","title":"富豪会展公寓酒店","lon":"121.58600306","lat":"31.348556133","category":"268","category_name":"自助","address":"浦东新区富特西一路77号(近外高桥保税区北站)"},{"poiid":"B2094757D064ABF4439A","title":"maxyou歌城(高桥店)","lon":"121.585417068","lat":"31.350833185","category":"170","category_name":"KTV","address":"上海杨高北路花山路路口"},{"poiid":"B2094654DB6AA5FB4898","title":"豪享来上海夏碧店","lon":"121.588","lat":"31.341","category":"247","category_name":"餐饮美食","address":"上海市浦东新区夏碧路118号一层"},{"poiid":"B2094655D36CA0FB4393","title":"季景路春晖路","lon":"121.58628","lat":"31.34056","category":"38","category_name":"公交车站","address":""},{"poiid":"B2094757D069A2F44892","title":"茶思饭想港式茶餐厅","lon":"121.59012174","lat":"31.339589207","category":"72","category_name":"广东菜","address":"浦东新区夏碧路42号(近杨高北路)"},{"poiid":"B2094654D46AAAFC4198","title":"春晖苑","lon":"121.58803","lat":"31.343513","category":"47","category_name":"住宅区","address":"春晖路368弄1-59号"},{"poiid":"B2094750DB6AABFA439C","title":"巴国布衣","lon":"121.591506","lat":"31.338499","category":"71","category_name":"四川菜","address":"浦东新区夏碧路18号(近杨高北路)"},{"poiid":"B2094757D168A4FD419D","title":"家弘海鲜渔庄","lon":"121.584862968","lat":"31.3507511832","category":"247","category_name":"餐饮美食","address":"上海浦东高桥镇花山路1199号"},{"poiid":"B2094757D06BA2FB409F","title":"蜀膳传火锅传奇 季景路店","lon":"121.58653","lat":"31.340267","category":"86","category_name":"火锅店","address":"浦东新区季景路22号(近春晖路)"},{"poiid":"B2094757D06AA1FF439E","title":"品尚豆捞(夏碧路店)","lon":"121.59056","lat":"31.33918","category":"86","category_name":"火锅店","address":"浦东新区夏碧路56号(皇冠假日酒店对面)"},{"poiid":"B2094757D068A0F9439F","title":"上海高扬国际烟草有限公司","lon":"121.593077302","lat":"31.3464960566","category":"46","category_name":"楼宇","address":"上海外高桥保税区富特北路88号(近奥纳路)"},{"poiid":"B2094654D46AABF44798","title":"国际信贸大厦","lon":"121.58975","lat":"31.34986","category":"46","category_name":"楼宇","address":"浦东区浦东外高桥保税区基隆路555号"},{"poiid":"B2094750DA69A5F4429A","title":"星巴克","lon":"121.58704","lat":"31.3495","category":"260","category_name":"其他","address":"浦东新区基隆路1号汤臣国际贸易大厦"},{"poiid":"B2094757D16CA2F9429B","title":"东方汇文国际文化贸易中心","lon":"121.587861","lat":"31.348151","category":"500","category_name":"未知分类","address":"上海外高桥保税区马吉路2号"},{"poiid":"B2094757D16FA5F94698","title":"味千拉面(外高桥店)","lon":"121.58939953","lat":"31.344658108","category":"247","category_name":"餐饮美食","address":"上海夏碧路季景路"},{"poiid":"B2094655D26AA0FA449F","title":"地铁外高桥保税区北站","lon":"121.58661","lat":"31.34884","category":"36","category_name":"地铁站","address":""},{"poiid":"B2094654D46AABF4499C","title":"联安大厦","lon":"121.59214","lat":"31.34772","category":"46","category_name":"楼宇","address":"富特北路"},{"poiid":"B2094757D06BA0FA4292","title":"梓亭","lon":"121.588751054","lat":"31.350598793","category":"95","category_name":"日本料理","address":"浦东新区外高桥保税区基隆路6号(富特西一路基隆路)"},{"poiid":"B2094654D46AABF5419C","title":"奥吉大厦","lon":"121.59004","lat":"31.34426","category":"46","category_name":"楼宇","address":"奥纳路18号"},{"poiid":"B2094757D66DA0F9489E","title":"MEGACOM","lon":"121.591376868","lat":"31.3494063527","category":"46","category_name":"楼宇","address":"上海市浦东新区外高桥保税区二号门马吉路88号10号楼"},{"poiid":"B2094757D169AAFC479A","title":"百艺海鲜大酒店","lon":"121.59440433","lat":"31.342852333","category":"88","category_name":"海鲜酒楼","address":"浦东新区保税区3号门富特北路111号百艺人才公寓酒店内(近地铁6号线航津路站)"},{"poiid":"B209475CD66BA4FC459B","title":"中国（上海）自由贸易试验区","lon":"121.586691","lat":"31.350137","category":"500","category_name":"未知分类","address":"上海市 外高桥保税区基隆路"},{"poiid":"B209475CD76CA3FC499B","title":"中国（上海）自由贸易试验区","lon":"121.592414","lat":"31.348007","category":"500","category_name":"未知分类","address":"上海市 上海市 外高桥保税区 基隆路"},{"poiid":"B2094757D464AAF9439F","title":"四海游龙 夏碧路店 OVERSEAS DRAGON","lon":"121.588658054","lat":"31.338423793","category":"68","category_name":"快餐厅","address":"浦东新区夏碧路108号(季景路口)"},{"poiid":"B2094655D264A5FA4092","title":"洲际大厦","lon":"121.58855","lat":"31.34977","category":"46","category_name":"楼宇","address":"基隆路9号"},{"poiid":"B2094757D06BABFF4092","title":"中国工商银行上海市分行外高桥保税区支行","lon":"121.586916435","lat":"31.3484183636","category":"500","category_name":"未知分类","address":"上海市外高桥保税区马吉路28号"},{"poiid":"B2094757D06BA4FE479B","title":"Jepson Bread(季景路店)","lon":"121.58673","lat":"31.34","category":"67","category_name":"甜品店","address":"浦东新区季景路15号(近春晖路)"},{"poiid":"B2094654DB6AA5FB489B","title":"汉庭快捷(外高桥店)","lon":"121.5881","lat":"31.33865","category":"216","category_name":"经济型连锁酒店","address":"浦东新区外高桥保税区夏碧路118号(季景路夏碧路)"},{"poiid":"B2094654D46AAAFB499E","title":"金港大厦","lon":"121.59136","lat":"31.34388","category":"46","category_name":"楼宇","address":"奥纳路55"},{"poiid":"B209475CD76DA1FE479D","title":"中國（上海）自由貿易区","lon":"121.591156","lat":"31.348287","category":"500","category_name":"未知分类","address":"上海市 中國（上海）自由貿易区"},{"poiid":"B2094654DB69A4F8449B","title":"星巴克咖啡(外高桥店)","lon":"121.59409","lat":"31.34077","category":"65","category_name":"咖啡厅","address":"浦东新区外高桥保税区加枫路24号"},{"poiid":"B2094654D46AABF5429E","title":"外高桥招商中心高桥分中心","lon":"121.58739","lat":"31.34574","category":"46","category_name":"楼宇","address":"杨高北路528号外高桥招商中心高桥分中心"},{"poiid":"B2094654D46AABF4479F","title":"东华金融大厦","lon":"121.595","lat":"31.3543","category":"46","category_name":"楼宇","address":"马吉路28号"},{"poiid":"B2094654D46AABF54192","title":"奥吉查验点","lon":"121.59004","lat":"31.34425","category":"250","category_name":"公园户外","address":"奥纳路18号奥吉大厦"},{"poiid":"B2094757D168A3FF4998","title":"上海畅联国际物流有限公司","lon":"121.593800339","lat":"31.341354899","category":"263","category_name":"公司","address":"上海市外高桥保税区日京路68号"},{"poiid":"B2094654D46AAAFC4592","title":"富特四村","lon":"121.58759","lat":"31.339588","category":"47","category_name":"住宅区","address":"季景路19弄3-78号"},{"poiid":"B2094654DB6AA5F4469E","title":"上海外联发D2工业园区","lon":"121.59429","lat":"31.34407","category":"45","category_name":"产业园区","address":"外高桥保税区富特北路200"},{"poiid":"B2094654DB6AA5F44699","title":"中国石化物资大厦(富特西一路)","lon":"121.59107","lat":"31.34209","category":"46","category_name":"楼宇","address":"富特西一路139"},{"poiid":"B2094757D065A0FF4898","title":"中国建设银行外高桥保税区支行","lon":"121.595938","lat":"31.341652","category":"500","category_name":"未知分类","address":"上海外高桥保税区富特北路258号日京路口"},{"poiid":"B2094750D76CA2F94393","title":"85度C(季景路店)","lon":"121.587","lat":"31.3397","category":"112","category_name":"糕饼店","address":"浦东新区季景路26-2号(近春晖路)"},{"poiid":"B2094757D16DAAFA4699","title":"马吉路28号","lon":"121.588798","lat":"31.34832","category":"500","category_name":"未知分类","address":"上海东华金融大厦"},{"poiid":"B2094757D06AA7FF4192","title":"多利川菜馆 夏碧路店","lon":"121.591094054","lat":"31.340224793","category":"71","category_name":"四川菜","address":"浦东新区夏碧路22号(近杨高北路)"},{"poiid":"B2094654D46AAAFB489C","title":"国际商品广场","lon":"121.59171","lat":"31.34084","category":"119","category_name":"商场","address":"上海浦东新区外高桥保税区4号门内(近杨高北路)  "},{"poiid":"B2094757D469A4FD4993","title":"泰奇 夏碧路店 touch bread","lon":"121.591166054","lat":"31.339706793","category":"112","category_name":"糕饼店","address":"浦东新区夏碧路83号(皇冠假日酒店)"},{"poiid":"B2094655D36DA0F84692","title":"杨高北路花山路","lon":"121.58676","lat":"31.34806","category":"38","category_name":"公交车站","address":""},{"poiid":"B2094757D06FA1FE449C","title":"外高桥皇冠假日酒店","lon":"121.59126","lat":"31.33923","category":"213","category_name":"五星级宾馆","address":"浦东新区杨高北路1000号(近夏碧路)"},{"poiid":"B2094654D46AABFB429B","title":"上海外高桥保税区(二号门)","lon":"121.58669","lat":"31.35007","category":"45","category_name":"产业园区","address":"上海市浦东新区"},{"poiid":"B2094751D26BA3FE429B","title":"上海外高桥喜来登酒店","lon":"121.587144","lat":"31.350886","category":"251","category_name":"出行住宿","address":"上海市外高桥保税区基隆路28号"},{"poiid":"B2094757D06FABF9419C","title":"外高桥税务局","lon":"121.588544","lat":"31.349773","category":"252","category_name":"楼宇机构","address":"上海浦东新区基隆路9号"},{"poiid":"B2094757D068A0FD4198","title":"一品全大酒店(外高桥店)","lon":"121.59096","lat":"31.33935","category":"76","category_name":"上海菜","address":"杨高北路960号(夏碧路12号)近春晖路"},{"poiid":"B2094757D068A6FC479E","title":"富豪会展公寓酒店","lon":"121.58600306","lat":"31.348556133","category":"268","category_name":"自助","address":"浦东新区富特西一路77号(近外高桥保税区北站)"},{"poiid":"B2094757D064ABF4439A","title":"maxyou歌城(高桥店)","lon":"121.585417068","lat":"31.350833185","category":"170","category_name":"KTV","address":"上海杨高北路花山路路口"},{"poiid":"B2094654DB6AA5FB4898","title":"豪享来上海夏碧店","lon":"121.588","lat":"31.341","category":"247","category_name":"餐饮美食","address":"上海市浦东新区夏碧路118号一层"},{"poiid":"B2094655D36CA0FB4393","title":"季景路春晖路","lon":"121.58628","lat":"31.34056","category":"38","category_name":"公交车站","address":""},{"poiid":"B2094757D069A2F44892","title":"茶思饭想港式茶餐厅","lon":"121.59012174","lat":"31.339589207","category":"72","category_name":"广东菜","address":"浦东新区夏碧路42号(近杨高北路)"},{"poiid":"B2094654D46AAAFC4198","title":"春晖苑","lon":"121.58803","lat":"31.343513","category":"47","category_name":"住宅区","address":"春晖路368弄1-59号"},{"poiid":"B2094750DB6AABFA439C","title":"巴国布衣","lon":"121.591506","lat":"31.338499","category":"71","category_name":"四川菜","address":"浦东新区夏碧路18号(近杨高北路)"},{"poiid":"B2094757D168A4FD419D","title":"家弘海鲜渔庄","lon":"121.584862968","lat":"31.3507511832","category":"247","category_name":"餐饮美食","address":"上海浦东高桥镇花山路1199号"},{"poiid":"B2094757D06BA2FB409F","title":"蜀膳传火锅传奇 季景路店","lon":"121.58653","lat":"31.340267","category":"86","category_name":"火锅店","address":"浦东新区季景路22号(近春晖路)"},{"poiid":"B2094757D06AA1FF439E","title":"品尚豆捞(夏碧路店)","lon":"121.59056","lat":"31.33918","category":"86","category_name":"火锅店","address":"浦东新区夏碧路56号(皇冠假日酒店对面)"},{"poiid":"B2094757D068A0F9439F","title":"上海高扬国际烟草有限公司","lon":"121.593077302","lat":"31.3464960566","category":"46","category_name":"楼宇","address":"上海外高桥保税区富特北路88号(近奥纳路)"},{"poiid":"B2094654D46AABF44798","title":"国际信贸大厦","lon":"121.58975","lat":"31.34986","category":"46","category_name":"楼宇","address":"浦东区浦东外高桥保税区基隆路555号"},{"poiid":"B2094750DA69A5F4429A","title":"星巴克","lon":"121.58704","lat":"31.3495","category":"260","category_name":"其他","address":"浦东新区基隆路1号汤臣国际贸易大厦"},{"poiid":"B2094757D16CA2F9429B","title":"东方汇文国际文化贸易中心","lon":"121.587861","lat":"31.348151","category":"500","category_name":"未知分类","address":"上海外高桥保税区马吉路2号"},{"poiid":"B2094757D16FA5F94698","title":"味千拉面(外高桥店)","lon":"121.58939953","lat":"31.344658108","category":"247","category_name":"餐饮美食","address":"上海夏碧路季景路"},{"poiid":"B2094655D26AA0FA449F","title":"地铁外高桥保税区北站","lon":"121.58661","lat":"31.34884","category":"36","category_name":"地铁站","address":""},{"poiid":"B2094654D46AABF4499C","title":"联安大厦","lon":"121.59214","lat":"31.34772","category":"46","category_name":"楼宇","address":"富特北路"},{"poiid":"B2094757D06BA0FA4292","title":"梓亭","lon":"121.588751054","lat":"31.350598793","category":"95","category_name":"日本料理","address":"浦东新区外高桥保税区基隆路6号(富特西一路基隆路)"},{"poiid":"B2094654D46AABF5419C","title":"奥吉大厦","lon":"121.59004","lat":"31.34426","category":"46","category_name":"楼宇","address":"奥纳路18号"},{"poiid":"B2094757D66DA0F9489E","title":"MEGACOM","lon":"121.591376868","lat":"31.3494063527","category":"46","category_name":"楼宇","address":"上海市浦东新区外高桥保税区二号门马吉路88号10号楼"},{"poiid":"B2094757D169AAFC479A","title":"百艺海鲜大酒店","lon":"121.59440433","lat":"31.342852333","category":"88","category_name":"海鲜酒楼","address":"浦东新区保税区3号门富特北路111号百艺人才公寓酒店内(近地铁6号线航津路站)"},{"poiid":"B209475CD66BA4FC459B","title":"中国（上海）自由贸易试验区","lon":"121.586691","lat":"31.350137","category":"500","category_name":"未知分类","address":"上海市 外高桥保税区基隆路"},{"poiid":"B209475CD76CA3FC499B","title":"中国（上海）自由贸易试验区","lon":"121.592414","lat":"31.348007","category":"500","category_name":"未知分类","address":"上海市 上海市 外高桥保税区 基隆路"},{"poiid":"B2094757D464AAF9439F","title":"四海游龙 夏碧路店 OVERSEAS DRAGON","lon":"121.588658054","lat":"31.338423793","category":"68","category_name":"快餐厅","address":"浦东新区夏碧路108号(季景路口)"},{"poiid":"B2094655D264A5FA4092","title":"洲际大厦","lon":"121.58855","lat":"31.34977","category":"46","category_name":"楼宇","address":"基隆路9号"},{"poiid":"B2094757D06BABFF4092","title":"中国工商银行上海市分行外高桥保税区支行","lon":"121.586916435","lat":"31.3484183636","category":"500","category_name":"未知分类","address":"上海市外高桥保税区马吉路28号"},{"poiid":"B2094757D06BA4FE479B","title":"Jepson Bread(季景路店)","lon":"121.58673","lat":"31.34","category":"67","category_name":"甜品店","address":"浦东新区季景路15号(近春晖路)"},{"poiid":"B2094654DB6AA5FB489B","title":"汉庭快捷(外高桥店)","lon":"121.5881","lat":"31.33865","category":"216","category_name":"经济型连锁酒店","address":"浦东新区外高桥保税区夏碧路118号(季景路夏碧路)"},{"poiid":"B2094654D46AAAFB499E","title":"金港大厦","lon":"121.59136","lat":"31.34388","category":"46","category_name":"楼宇","address":"奥纳路55"},{"poiid":"B209475CD76DA1FE479D","title":"中國（上海）自由貿易区","lon":"121.591156","lat":"31.348287","category":"500","category_name":"未知分类","address":"上海市 中國（上海）自由貿易区"},{"poiid":"B2094654DB69A4F8449B","title":"星巴克咖啡(外高桥店)","lon":"121.59409","lat":"31.34077","category":"65","category_name":"咖啡厅","address":"浦东新区外高桥保税区加枫路24号"},{"poiid":"B2094654D46AABF5429E","title":"外高桥招商中心高桥分中心","lon":"121.58739","lat":"31.34574","category":"46","category_name":"楼宇","address":"杨高北路528号外高桥招商中心高桥分中心"},{"poiid":"B2094654D46AABF4479F","title":"东华金融大厦","lon":"121.595","lat":"31.3543","category":"46","category_name":"楼宇","address":"马吉路28号"},{"poiid":"B2094654D46AABF54192","title":"奥吉查验点","lon":"121.59004","lat":"31.34425","category":"250","category_name":"公园户外","address":"奥纳路18号奥吉大厦"},{"poiid":"B2094757D168A3FF4998","title":"上海畅联国际物流有限公司","lon":"121.593800339","lat":"31.341354899","category":"263","category_name":"公司","address":"上海市外高桥保税区日京路68号"},{"poiid":"B2094654D46AAAFC4592","title":"富特四村","lon":"121.58759","lat":"31.339588","category":"47","category_name":"住宅区","address":"季景路19弄3-78号"},{"poiid":"B2094654DB6AA5F4469E","title":"上海外联发D2工业园区","lon":"121.59429","lat":"31.34407","category":"45","category_name":"产业园区","address":"外高桥保税区富特北路200"},{"poiid":"B2094654DB6AA5F44699","title":"中国石化物资大厦(富特西一路)","lon":"121.59107","lat":"31.34209","category":"46","category_name":"楼宇","address":"富特西一路139"},{"poiid":"B2094757D065A0FF4898","title":"中国建设银行外高桥保税区支行","lon":"121.595938","lat":"31.341652","category":"500","category_name":"未知分类","address":"上海外高桥保税区富特北路258号日京路口"},{"poiid":"B2094750D76CA2F94393","title":"85度C(季景路店)","lon":"121.587","lat":"31.3397","category":"112","category_name":"糕饼店","address":"浦东新区季景路26-2号(近春晖路)"},{"poiid":"B2094757D16DAAFA4699","title":"马吉路28号","lon":"121.588798","lat":"31.34832","category":"500","category_name":"未知分类","address":"上海东华金融大厦"},{"poiid":"B2094757D06AA7FF4192","title":"多利川菜馆 夏碧路店","lon":"121.591094054","lat":"31.340224793","category":"71","category_name":"四川菜","address":"浦东新区夏碧路22号(近杨高北路)"},{"poiid":"B2094654D46AAAFB489C","title":"国际商品广场","lon":"121.59171","lat":"31.34084","category":"119","category_name":"商场","address":"上海浦东新区外高桥保税区4号门内(近杨高北路)  "},{"poiid":"B2094757D469A4FD4993","title":"泰奇 夏碧路店 touch bread","lon":"121.591166054","lat":"31.339706793","category":"112","category_name":"糕饼店","address":"浦东新区夏碧路83号(皇冠假日酒店)"},{"poiid":"B2094655D36DA0F84692","title":"杨高北路花山路","lon":"121.58676","lat":"31.34806","category":"38","category_name":"公交车站","address":""},{"poiid":"B2094757D06FA1FE449C","title":"外高桥皇冠假日酒店","lon":"121.59126","lat":"31.33923","category":"213","category_name":"五星级宾馆","address":"浦东新区杨高北路1000号(近夏碧路)"},{"poiid":"B2094654D46AABFB429B","title":"上海外高桥保税区(二号门)","lon":"121.58669","lat":"31.35007","category":"45","category_name":"产业园区","address":"上海市浦东新区"},{"poiid":"B2094751D26BA3FE429B","title":"上海外高桥喜来登酒店","lon":"121.587144","lat":"31.350886","category":"251","category_name":"出行住宿","address":"上海市外高桥保税区基隆路28号"},{"poiid":"B2094757D06FABF9419C","title":"外高桥税务局","lon":"121.588544","lat":"31.349773","category":"252","category_name":"楼宇机构","address":"上海浦东新区基隆路9号"},{"poiid":"B2094757D068A0FD4198","title":"一品全大酒店(外高桥店)","lon":"121.59096","lat":"31.33935","category":"76","category_name":"上海菜","address":"杨高北路960号(夏碧路12号)近春晖路"},{"poiid":"B2094757D068A6FC479E","title":"富豪会展公寓酒店","lon":"121.58600306","lat":"31.348556133","category":"268","category_name":"自助","address":"浦东新区富特西一路77号(近外高桥保税区北站)"},{"poiid":"B2094757D064ABF4439A","title":"maxyou歌城(高桥店)","lon":"121.585417068","lat":"31.350833185","category":"170","category_name":"KTV","address":"上海杨高北路花山路路口"},{"poiid":"B2094654DB6AA5FB4898","title":"豪享来上海夏碧店","lon":"121.588","lat":"31.341","category":"247","category_name":"餐饮美食","address":"上海市浦东新区夏碧路118号一层"},{"poiid":"B2094655D36CA0FB4393","title":"季景路春晖路","lon":"121.58628","lat":"31.34056","category":"38","category_name":"公交车站","address":""},{"poiid":"B2094757D069A2F44892","title":"茶思饭想港式茶餐厅","lon":"121.59012174","lat":"31.339589207","category":"72","category_name":"广东菜","address":"浦东新区夏碧路42号(近杨高北路)"},{"poiid":"B2094654D46AAAFC4198","title":"春晖苑","lon":"121.58803","lat":"31.343513","category":"47","category_name":"住宅区","address":"春晖路368弄1-59号"},{"poiid":"B2094750DB6AABFA439C","title":"巴国布衣","lon":"121.591506","lat":"31.338499","category":"71","category_name":"四川菜","address":"浦东新区夏碧路18号(近杨高北路)"},{"poiid":"B2094757D168A4FD419D","title":"家弘海鲜渔庄","lon":"121.584862968","lat":"31.3507511832","category":"247","category_name":"餐饮美食","address":"上海浦东高桥镇花山路1199号"},{"poiid":"B2094757D06BA2FB409F","title":"蜀膳传火锅传奇 季景路店","lon":"121.58653","lat":"31.340267","category":"86","category_name":"火锅店","address":"浦东新区季景路22号(近春晖路)"},{"poiid":"B2094757D06AA1FF439E","title":"品尚豆捞(夏碧路店)","lon":"121.59056","lat":"31.33918","category":"86","category_name":"火锅店","address":"浦东新区夏碧路56号(皇冠假日酒店对面)"},{"poiid":"B2094757D068A0F9439F","title":"上海高扬国际烟草有限公司","lon":"121.593077302","lat":"31.3464960566","category":"46","category_name":"楼宇","address":"上海外高桥保税区富特北路88号(近奥纳路)"},{"poiid":"B2094654D46AABF44798","title":"国际信贸大厦","lon":"121.58975","lat":"31.34986","category":"46","category_name":"楼宇","address":"浦东区浦东外高桥保税区基隆路555号"},{"poiid":"B2094750DA69A5F4429A","title":"星巴克","lon":"121.58704","lat":"31.3495","category":"260","category_name":"其他","address":"浦东新区基隆路1号汤臣国际贸易大厦"},{"poiid":"B2094757D16CA2F9429B","title":"东方汇文国际文化贸易中心","lon":"121.587861","lat":"31.348151","category":"500","category_name":"未知分类","address":"上海外高桥保税区马吉路2号"},{"poiid":"B2094757D16FA5F94698","title":"味千拉面(外高桥店)","lon":"121.58939953","lat":"31.344658108","category":"247","category_name":"餐饮美食","address":"上海夏碧路季景路"},{"poiid":"B2094655D26AA0FA449F","title":"地铁外高桥保税区北站","lon":"121.58661","lat":"31.34884","category":"36","category_name":"地铁站","address":""},{"poiid":"B2094654D46AABF4499C","title":"联安大厦","lon":"121.59214","lat":"31.34772","category":"46","category_name":"楼宇","address":"富特北路"},{"poiid":"B2094757D06BA0FA4292","title":"梓亭","lon":"121.588751054","lat":"31.350598793","category":"95","category_name":"日本料理","address":"浦东新区外高桥保税区基隆路6号(富特西一路基隆路)"},{"poiid":"B2094654D46AABF5419C","title":"奥吉大厦","lon":"121.59004","lat":"31.34426","category":"46","category_name":"楼宇","address":"奥纳路18号"},{"poiid":"B2094757D66DA0F9489E","title":"MEGACOM","lon":"121.591376868","lat":"31.3494063527","category":"46","category_name":"楼宇","address":"上海市浦东新区外高桥保税区二号门马吉路88号10号楼"},{"poiid":"B2094757D169AAFC479A","title":"百艺海鲜大酒店","lon":"121.59440433","lat":"31.342852333","category":"88","category_name":"海鲜酒楼","address":"浦东新区保税区3号门富特北路111号百艺人才公寓酒店内(近地铁6号线航津路站)"},{"poiid":"B209475CD66BA4FC459B","title":"中国（上海）自由贸易试验区","lon":"121.586691","lat":"31.350137","category":"500","category_name":"未知分类","address":"上海市 外高桥保税区基隆路"},{"poiid":"B209475CD76CA3FC499B","title":"中国（上海）自由贸易试验区","lon":"121.592414","lat":"31.348007","category":"500","category_name":"未知分类","address":"上海市 上海市 外高桥保税区 基隆路"},{"poiid":"B2094757D464AAF9439F","title":"四海游龙 夏碧路店 OVERSEAS DRAGON","lon":"121.588658054","lat":"31.338423793","category":"68","category_name":"快餐厅","address":"浦东新区夏碧路108号(季景路口)"},{"poiid":"B2094655D264A5FA4092","title":"洲际大厦","lon":"121.58855","lat":"31.34977","category":"46","category_name":"楼宇","address":"基隆路9号"},{"poiid":"B2094757D06BABFF4092","title":"中国工商银行上海市分行外高桥保税区支行","lon":"121.586916435","lat":"31.3484183636","category":"500","category_name":"未知分类","address":"上海市外高桥保税区马吉路28号"},{"poiid":"B2094757D06BA4FE479B","title":"Jepson Bread(季景路店)","lon":"121.58673","lat":"31.34","category":"67","category_name":"甜品店","address":"浦东新区季景路15号(近春晖路)"},{"poiid":"B2094654DB6AA5FB489B","title":"汉庭快捷(外高桥店)","lon":"121.5881","lat":"31.33865","category":"216","category_name":"经济型连锁酒店","address":"浦东新区外高桥保税区夏碧路118号(季景路夏碧路)"},{"poiid":"B2094654D46AAAFB499E","title":"金港大厦","lon":"121.59136","lat":"31.34388","category":"46","category_name":"楼宇","address":"奥纳路55"},{"poiid":"B209475CD76DA1FE479D","title":"中國（上海）自由貿易区","lon":"121.591156","lat":"31.348287","category":"500","category_name":"未知分类","address":"上海市 中國（上海）自由貿易区"},{"poiid":"B2094654DB69A4F8449B","title":"星巴克咖啡(外高桥店)","lon":"121.59409","lat":"31.34077","category":"65","category_name":"咖啡厅","address":"浦东新区外高桥保税区加枫路24号"},{"poiid":"B2094654D46AABF5429E","title":"外高桥招商中心高桥分中心","lon":"121.58739","lat":"31.34574","category":"46","category_name":"楼宇","address":"杨高北路528号外高桥招商中心高桥分中心"},{"poiid":"B2094654D46AABF4479F","title":"东华金融大厦","lon":"121.595","lat":"31.3543","category":"46","category_name":"楼宇","address":"马吉路28号"},{"poiid":"B2094654D46AABF54192","title":"奥吉查验点","lon":"121.59004","lat":"31.34425","category":"250","category_name":"公园户外","address":"奥纳路18号奥吉大厦"},{"poiid":"B2094757D168A3FF4998","title":"上海畅联国际物流有限公司","lon":"121.593800339","lat":"31.341354899","category":"263","category_name":"公司","address":"上海市外高桥保税区日京路68号"},{"poiid":"B2094654D46AAAFC4592","title":"富特四村","lon":"121.58759","lat":"31.339588","category":"47","category_name":"住宅区","address":"季景路19弄3-78号"},{"poiid":"B2094654DB6AA5F4469E","title":"上海外联发D2工业园区","lon":"121.59429","lat":"31.34407","category":"45","category_name":"产业园区","address":"外高桥保税区富特北路200"},{"poiid":"B2094654DB6AA5F44699","title":"中国石化物资大厦(富特西一路)","lon":"121.59107","lat":"31.34209","category":"46","category_name":"楼宇","address":"富特西一路139"},{"poiid":"B2094757D065A0FF4898","title":"中国建设银行外高桥保税区支行","lon":"121.595938","lat":"31.341652","category":"500","category_name":"未知分类","address":"上海外高桥保税区富特北路258号日京路口"},{"poiid":"B2094750D76CA2F94393","title":"85度C(季景路店)","lon":"121.587","lat":"31.3397","category":"112","category_name":"糕饼店","address":"浦东新区季景路26-2号(近春晖路)"},{"poiid":"B2094757D16DAAFA4699","title":"马吉路28号","lon":"121.588798","lat":"31.34832","category":"500","category_name":"未知分类","address":"上海东华金融大厦"},{"poiid":"B2094757D06AA7FF4192","title":"多利川菜馆 夏碧路店","lon":"121.591094054","lat":"31.340224793","category":"71","category_name":"四川菜","address":"浦东新区夏碧路22号(近杨高北路)"},{"poiid":"B2094654D46AAAFB489C","title":"国际商品广场","lon":"121.59171","lat":"31.34084","category":"119","category_name":"商场","address":"上海浦东新区外高桥保税区4号门内(近杨高北路)  "},{"poiid":"B2094757D469A4FD4993","title":"泰奇 夏碧路店 touch bread","lon":"121.591166054","lat":"31.339706793","category":"112","category_name":"糕饼店","address":"浦东新区夏碧路83号(皇冠假日酒店)"},{"poiid":"B2094655D36DA0F84692","title":"杨高北路花山路","lon":"121.58676","lat":"31.34806","category":"38","category_name":"公交车站","address":""},{"poiid":"B2094757D06FA1FE449C","title":"外高桥皇冠假日酒店","lon":"121.59126","lat":"31.33923","category":"213","category_name":"五星级宾馆","address":"浦东新区杨高北路1000号(近夏碧路)"},{"poiid":"B2094654D46AABFB429B","title":"上海外高桥保税区(二号门)","lon":"121.58669","lat":"31.35007","category":"45","category_name":"产业园区","address":"上海市浦东新区"},{"poiid":"B2094751D26BA3FE429B","title":"上海外高桥喜来登酒店","lon":"121.587144","lat":"31.350886","category":"251","category_name":"出行住宿","address":"上海市外高桥保税区基隆路28号"},{"poiid":"B2094757D06FABF9419C","title":"外高桥税务局","lon":"121.588544","lat":"31.349773","category":"252","category_name":"楼宇机构","address":"上海浦东新区基隆路9号"},{"poiid":"B2094757D068A0FD4198","title":"一品全大酒店(外高桥店)","lon":"121.59096","lat":"31.33935","category":"76","category_name":"上海菜","address":"杨高北路960号(夏碧路12号)近春晖路"},{"poiid":"B2094757D068A6FC479E","title":"富豪会展公寓酒店","lon":"121.58600306","lat":"31.348556133","category":"268","category_name":"自助","address":"浦东新区富特西一路77号(近外高桥保税区北站)"},{"poiid":"B2094757D064ABF4439A","title":"maxyou歌城(高桥店)","lon":"121.585417068","lat":"31.350833185","category":"170","category_name":"KTV","address":"上海杨高北路花山路路口"},{"poiid":"B2094654DB6AA5FB4898","title":"豪享来上海夏碧店","lon":"121.588","lat":"31.341","category":"247","category_name":"餐饮美食","address":"上海市浦东新区夏碧路118号一层"},{"poiid":"B2094655D36CA0FB4393","title":"季景路春晖路","lon":"121.58628","lat":"31.34056","category":"38","category_name":"公交车站","address":""},{"poiid":"B2094757D069A2F44892","title":"茶思饭想港式茶餐厅","lon":"121.59012174","lat":"31.339589207","category":"72","category_name":"广东菜","address":"浦东新区夏碧路42号(近杨高北路)"},{"poiid":"B2094654D46AAAFC4198","title":"春晖苑","lon":"121.58803","lat":"31.343513","category":"47","category_name":"住宅区","address":"春晖路368弄1-59号"},{"poiid":"B2094750DB6AABFA439C","title":"巴国布衣","lon":"121.591506","lat":"31.338499","category":"71","category_name":"四川菜","address":"浦东新区夏碧路18号(近杨高北路)"},{"poiid":"B2094757D168A4FD419D","title":"家弘海鲜渔庄","lon":"121.584862968","lat":"31.3507511832","category":"247","category_name":"餐饮美食","address":"上海浦东高桥镇花山路1199号"},{"poiid":"B2094757D06BA2FB409F","title":"蜀膳传火锅传奇 季景路店","lon":"121.58653","lat":"31.340267","category":"86","category_name":"火锅店","address":"浦东新区季景路22号(近春晖路)"},{"poiid":"B2094757D06AA1FF439E","title":"品尚豆捞(夏碧路店)","lon":"121.59056","lat":"31.33918","category":"86","category_name":"火锅店","address":"浦东新区夏碧路56号(皇冠假日酒店对面)"},{"poiid":"B2094757D068A0F9439F","title":"上海高扬国际烟草有限公司","lon":"121.593077302","lat":"31.3464960566","category":"46","category_name":"楼宇","address":"上海外高桥保税区富特北路88号(近奥纳路)"},{"poiid":"B2094654D46AABF44798","title":"国际信贸大厦","lon":"121.58975","lat":"31.34986","category":"46","category_name":"楼宇","address":"浦东区浦东外高桥保税区基隆路555号"},{"poiid":"B2094750DA69A5F4429A","title":"星巴克","lon":"121.58704","lat":"31.3495","category":"260","category_name":"其他","address":"浦东新区基隆路1号汤臣国际贸易大厦"},{"poiid":"B2094757D16CA2F9429B","title":"东方汇文国际文化贸易中心","lon":"121.587861","lat":"31.348151","category":"500","category_name":"未知分类","address":"上海外高桥保税区马吉路2号"},{"poiid":"B2094757D16FA5F94698","title":"味千拉面(外高桥店)","lon":"121.58939953","lat":"31.344658108","category":"247","category_name":"餐饮美食","address":"上海夏碧路季景路"},{"poiid":"B2094655D26AA0FA449F","title":"地铁外高桥保税区北站","lon":"121.58661","lat":"31.34884","category":"36","category_name":"地铁站","address":""},{"poiid":"B2094654D46AABF4499C","title":"联安大厦","lon":"121.59214","lat":"31.34772","category":"46","category_name":"楼宇","address":"富特北路"},{"poiid":"B2094757D06BA0FA4292","title":"梓亭","lon":"121.588751054","lat":"31.350598793","category":"95","category_name":"日本料理","address":"浦东新区外高桥保税区基隆路6号(富特西一路基隆路)"},{"poiid":"B2094654D46AABF5419C","title":"奥吉大厦","lon":"121.59004","lat":"31.34426","category":"46","category_name":"楼宇","address":"奥纳路18号"},{"poiid":"B2094757D66DA0F9489E","title":"MEGACOM","lon":"121.591376868","lat":"31.3494063527","category":"46","category_name":"楼宇","address":"上海市浦东新区外高桥保税区二号门马吉路88号10号楼"},{"poiid":"B2094757D169AAFC479A","title":"百艺海鲜大酒店","lon":"121.59440433","lat":"31.342852333","category":"88","category_name":"海鲜酒楼","address":"浦东新区保税区3号门富特北路111号百艺人才公寓酒店内(近地铁6号线航津路站)"},{"poiid":"B209475CD66BA4FC459B","title":"中国（上海）自由贸易试验区","lon":"121.586691","lat":"31.350137","category":"500","category_name":"未知分类","address":"上海市 外高桥保税区基隆路"},{"poiid":"B209475CD76CA3FC499B","title":"中国（上海）自由贸易试验区","lon":"121.592414","lat":"31.348007","category":"500","category_name":"未知分类","address":"上海市 上海市 外高桥保税区 基隆路"},{"poiid":"B2094757D464AAF9439F","title":"四海游龙 夏碧路店 OVERSEAS DRAGON","lon":"121.588658054","lat":"31.338423793","category":"68","category_name":"快餐厅","address":"浦东新区夏碧路108号(季景路口)"},{"poiid":"B2094655D264A5FA4092","title":"洲际大厦","lon":"121.58855","lat":"31.34977","category":"46","category_name":"楼宇","address":"基隆路9号"},{"poiid":"B2094757D06BABFF4092","title":"中国工商银行上海市分行外高桥保税区支行","lon":"121.586916435","lat":"31.3484183636","category":"500","category_name":"未知分类","address":"上海市外高桥保税区马吉路28号"},{"poiid":"B2094757D06BA4FE479B","title":"Jepson Bread(季景路店)","lon":"121.58673","lat":"31.34","category":"67","category_name":"甜品店","address":"浦东新区季景路15号(近春晖路)"},{"poiid":"B2094654DB6AA5FB489B","title":"汉庭快捷(外高桥店)","lon":"121.5881","lat":"31.33865","category":"216","category_name":"经济型连锁酒店","address":"浦东新区外高桥保税区夏碧路118号(季景路夏碧路)"},{"poiid":"B2094654D46AAAFB499E","title":"金港大厦","lon":"121.59136","lat":"31.34388","category":"46","category_name":"楼宇","address":"奥纳路55"},{"poiid":"B209475CD76DA1FE479D","title":"中國（上海）自由貿易区","lon":"121.591156","lat":"31.348287","category":"500","category_name":"未知分类","address":"上海市 中國（上海）自由貿易区"},{"poiid":"B2094654DB69A4F8449B","title":"星巴克咖啡(外高桥店)","lon":"121.59409","lat":"31.34077","category":"65","category_name":"咖啡厅","address":"浦东新区外高桥保税区加枫路24号"},{"poiid":"B2094654D46AABF5429E","title":"外高桥招商中心高桥分中心","lon":"121.58739","lat":"31.34574","category":"46","category_name":"楼宇","address":"杨高北路528号外高桥招商中心高桥分中心"},{"poiid":"B2094654D46AABF4479F","title":"东华金融大厦","lon":"121.595","lat":"31.3543","category":"46","category_name":"楼宇","address":"马吉路28号"},{"poiid":"B2094654D46AABF54192","title":"奥吉查验点","lon":"121.59004","lat":"31.34425","category":"250","category_name":"公园户外","address":"奥纳路18号奥吉大厦"},{"poiid":"B2094757D168A3FF4998","title":"上海畅联国际物流有限公司","lon":"121.593800339","lat":"31.341354899","category":"263","category_name":"公司","address":"上海市外高桥保税区日京路68号"},{"poiid":"B2094654D46AAAFC4592","title":"富特四村","lon":"121.58759","lat":"31.339588","category":"47","category_name":"住宅区","address":"季景路19弄3-78号"},{"poiid":"B2094654DB6AA5F4469E","title":"上海外联发D2工业园区","lon":"121.59429","lat":"31.34407","category":"45","category_name":"产业园区","address":"外高桥保税区富特北路200"},{"poiid":"B2094654DB6AA5F44699","title":"中国石化物资大厦(富特西一路)","lon":"121.59107","lat":"31.34209","category":"46","category_name":"楼宇","address":"富特西一路139"},{"poiid":"B2094757D065A0FF4898","title":"中国建设银行外高桥保税区支行","lon":"121.595938","lat":"31.341652","category":"500","category_name":"未知分类","address":"上海外高桥保税区富特北路258号日京路口"},{"poiid":"B2094750D76CA2F94393","title":"85度C(季景路店)","lon":"121.587","lat":"31.3397","category":"112","category_name":"糕饼店","address":"浦东新区季景路26-2号(近春晖路)"},{"poiid":"B2094757D16DAAFA4699","title":"马吉路28号","lon":"121.588798","lat":"31.34832","category":"500","category_name":"未知分类","address":"上海东华金融大厦"},{"poiid":"B2094757D06AA7FF4192","title":"多利川菜馆 夏碧路店","lon":"121.591094054","lat":"31.340224793","category":"71","category_name":"四川菜","address":"浦东新区夏碧路22号(近杨高北路)"},{"poiid":"B2094654D46AAAFB489C","title":"国际商品广场","lon":"121.59171","lat":"31.34084","category":"119","category_name":"商场","address":"上海浦东新区外高桥保税区4号门内(近杨高北路)  "},{"poiid":"B2094757D469A4FD4993","title":"泰奇 夏碧路店 touch bread","lon":"121.591166054","lat":"31.339706793","category":"112","category_name":"糕饼店","address":"浦东新区夏碧路83号(皇冠假日酒店)"},{"poiid":"B2094655D36DA0F84692","title":"杨高北路花山路","lon":"121.58676","lat":"31.34806","category":"38","category_name":"公交车站","address":""}]