[{"poiid":"B2094757D06EAAFB4398","title":"邮电新村地铁站","lon":"121.49450107","lat":"31.268612797","category":"36","category_name":"地铁站","address":"上海轨道交通 十号线 轨交邮电新村站 10"},{"poiid":"B2094757D06FA1F54993","title":"又一村","lon":"121.49597072163","lat":"31.270121884137","category":"68","category_name":"快餐厅","address":"虹口区四平路591号(近新港路)"},{"poiid":"B2094757D06FA1FC4092","title":"卜蜂莲花(新港路店)","lon":"121.4988","lat":"31.26934","category":"118","category_name":"超级市场","address":"虹口区新港路245号飘鹰大厦内(近四平路)"},{"poiid":"B2094757D06FA5FE449E","title":"四平路曲阳路口","lon":"121.495693","lat":"31.269823","category":"500","category_name":"未知分类","address":"上海四平路曲阳路"},{"poiid":"B2094757D06FA0FE469E","title":"邮电新村","lon":"121.49442895","lat":"31.270637995","category":"47","category_name":"住宅区","address":"上海四平路621弄〔近密云路〕"},{"poiid":"B2094654D56CA0FB499A","title":"金陵国际大厦","lon":"121.496","lat":"31.2713","category":"46","category_name":"楼宇","address":"海淀区城府路,中关村东路交叉处西北方向"},{"poiid":"B2094654D56DABFA469D","title":"爱家国际大厦","lon":"121.498","lat":"31.2673","category":"46","category_name":"楼宇","address":"上海市虹口区物华路288号"},{"poiid":"B2094654D56DAAF4409E","title":"飘鹰世纪大厦","lon":"121.498608","lat":"31.269361","category":"46","category_name":"楼宇","address":"天宝路578号"},{"poiid":"B2094654D56CA7FF499C","title":"红城阁","lon":"121.49215","lat":"31.27108","category":"76","category_name":"上海菜","address":"虹口区曲阳路239号(近四平路)"},{"poiid":"B2094654D56DABF54398","title":"上海商贸大厦","lon":"121.497","lat":"31.2681","category":"46","category_name":"楼宇","address":"人民路885号-889号"},{"poiid":"B2094757D068A7FD4193","title":"上海市社会保险基金管理中心","lon":"121.492274","lat":"31.270805","category":"500","category_name":"未知分类","address":"上海曲阳路179号"},{"poiid":"B2094757D065A0FF439D","title":"四平路密云路","lon":"121.4962091","lat":"31.271177438","category":"500","category_name":"未知分类","address":"上海市虹口区曲阳路"},{"poiid":"B2094654D56DAAFC419A","title":"海事大厦","lon":"121.4972158025","lat":"31.268584709787","category":"46","category_name":"楼宇","address":"昌平区回龙观镇国际信息产业基地高新二街"},{"poiid":"B2094757D069A0F8489E","title":"萨莉亚（新港路店）","lon":"121.4985635","lat":"31.270082015","category":"94","category_name":"西餐厅","address":"虹口区新港路245号飘鹰大厦1楼(近四平路)"},{"poiid":"B2094757D665A2FB4993","title":"潮汕砂锅粥","lon":"121.497189","lat":"31.270722","category":"72","category_name":"广东菜","address":"虹口区四平路712号湘满园楼上"},{"poiid":"B2094757D06FA5F4409E","title":"JEANS108SALON(京世曲阳店)","lon":"121.49333","lat":"31.27012","category":"148","category_name":"美容美发店","address":"上海虹口区曲阳路108号(近四平路)"},{"poiid":"B2094655D26BA5FA449E","title":"中信和平家园","lon":"121.49881","lat":"31.26959","category":"47","category_name":"住宅区","address":"虹口区新港路227号"},{"poiid":"B2094655D26BA2FB489F","title":"四平路新港路","lon":"121.49595","lat":"31.26991","category":"38","category_name":"公交车站","address":""},{"poiid":"B2094655D26FA0F84799","title":"飘鹰东方花园","lon":"121.49414","lat":"31.271051","category":"47","category_name":"住宅区","address":"上海曲阳路118弄"},{"poiid":"B2094757D068A1FC489D","title":"老四烧烤(新港路店)","lon":"121.49694","lat":"31.27003","category":"257","category_name":"中餐厅","address":"虹口区新港路(四平路口)"},{"poiid":"B2094757D16CA2FB4699","title":"福龙大厦","lon":"121.496","lat":"31.2681","category":"46","category_name":"楼宇","address":"上海市虹口区四平路277号"},{"poiid":"B2094757D76CA3F84298","title":"卧云茶敘","lon":"121.493871","lat":"31.268995","category":"66","category_name":"茶艺馆","address":"虹口区曲阳路26号(近四平路)"},{"poiid":"B2094757D168A5F8419B","title":"卧雲茶叙","lon":"121.494169103","lat":"31.2695124032","category":"247","category_name":"餐饮美食","address":"上海市虹口区曲阳路"},{"poiid":"B2094655D26BA2FB489E","title":"四平路曲阳路","lon":"121.49477","lat":"31.26899","category":"38","category_name":"公交车站","address":""},{"poiid":"B2094757D06FA4FF429E","title":"肯德基 KFC (天宝店)","lon":"121.49895817","lat":"31.269665163","category":"68","category_name":"快餐厅","address":"虹口区新港路245号卜蜂莲花内(近四平路)"},{"poiid":"B2094654DB6AAAF8459C","title":"上岛咖啡(曲阳店)","lon":"121.49298","lat":"31.27155","category":"260","category_name":"其他","address":"虹口区曲阳路118弄28号3楼(近祥德路)"},{"poiid":"B2094655D26CA1FC4898","title":"恒城花苑","lon":"121.497","lat":"31.2702","category":"47","category_name":"住宅区","address":"恒城花苑位于虹口四平路311号"},{"poiid":"B2094655D26EA3FD489B","title":"华虹公寓","lon":"121.49435","lat":"31.26919","category":"47","category_name":"住宅区","address":"上海市虹口区曲阳路58弄"},{"poiid":"B2094757D06BA2FE459F","title":"民生银行（市东支行）","lon":"121.494724","lat":"31.269289","category":"150","category_name":"银行","address":"上海四平路529号"},{"poiid":"B2094654D56CA7FE4392","title":"龙邸大厦","lon":"121.495557","lat":"31.266546","category":"46","category_name":"楼宇","address":"徐汇区田林路388号"},{"poiid":"B2094655D26CA1FF479F","title":"四平路580弄小区(北门)","lon":"121.49597","lat":"31.26968","category":"47","category_name":"住宅区","address":"四平路580弄1-27号"},{"poiid":"B2094654D56DABFA479A","title":"麒麟大厦","lon":"121.498","lat":"31.2677","category":"46","category_name":"楼宇","address":"崇文区夕照寺大街"},{"poiid":"B2094654D56CA7FE409C","title":"喜临门大厦","lon":"121.496","lat":"31.2675","category":"46","category_name":"楼宇","address":"长宁路1158号贝多芬广场618室"},{"poiid":"B2094655D26CA0FF479B","title":"四平路580弄区","lon":"121.4961","lat":"31.26942","category":"47","category_name":"住宅区","address":"四平路580弄1-27号"},{"poiid":"B2094654D56CA0FF499F","title":"新宏大楼","lon":"121.49623","lat":"31.27058","category":"46","category_name":"楼宇","address":"四平路623"},{"poiid":"B2094757D465A0F44793","title":"湘满园酒楼","lon":"121.49711","lat":"31.27088","category":"77","category_name":"湖南菜","address":"虹口区四平路712号(近新港路)"},{"poiid":"B2094655D264ABFC429D","title":"富杰大厦","lon":"121.49649310271","lat":"31.270589888456","category":"46","category_name":"楼宇","address":"欧阳路57号"},{"poiid":"B2094751D364A5F84899","title":"彭浦夜市","lon":"121.493859","lat":"31.270961","category":"247","category_name":"餐饮美食","address":"闻喜路"},{"poiid":"B2094655D26AA4F5429B","title":"玛萨SPA专业美容香熏生活馆曲阳店","lon":"121.49359","lat":"31.26848","category":"247","category_name":"餐饮美食","address":"虹口区曲阳路1号(近四平路)"},{"poiid":"B2094757D06AA2F5419F","title":"中国农业银行(曲阳支行)","lon":"121.49462","lat":"31.26863","category":"150","category_name":"银行","address":"虹口区曲阳路2号(曲阳路四平路)"},{"poiid":"B2094757D16CA3FA4992","title":"同济大学雅憩","lon":"121.49458812","lat":"31.266952489","category":"253","category_name":"校园生活","address":"上海同济大学四平路建筑与城规学苑"},{"poiid":"B2094757D16BA7F4449D","title":"洋山岛民随写","lon":"121.495832103","lat":"31.2692203971","category":"500","category_name":"未知分类","address":null},{"poiid":"B2094655D265A1F4449B","title":"京世造型·美容","lon":"121.49326","lat":"31.27054","category":"148","category_name":"美容美发店","address":""},{"poiid":"B2094751DB64A0FD4398","title":"东吴一品大酒楼","lon":"121.49286","lat":"31.27156","category":"72","category_name":"广东菜","address":"虹口区曲阳路158号(近祥德路)"},{"poiid":"B2094757D16FA2FC419E","title":"洋山深水港洋山岛民","lon":"121.4948941","lat":"31.269038393","category":"500","category_name":"未知分类","address":"上海盛东"},{"poiid":"B2094757D06BA6FA409B","title":"洋山岛民美食推荐","lon":"121.494894103","lat":"31.2690383933","category":"500","category_name":"未知分类","address":"上海洋山"},{"poiid":"B2094654DB6BA3F9479B","title":"新港路街道图书馆","lon":"121.49692","lat":"31.27012","category":"181","category_name":"图书馆","address":"新港路317"},{"poiid":"B2094750D768A2FC489A","title":"群龙无首小菜","lon":"121.493","lat":"31.2719","category":"76","category_name":"上海菜","address":"虹口区曲阳路158号瑞峰商务楼105-106室(近祥德路)"},{"poiid":"B2094655D26FA0FA4898","title":"宏祥花苑","lon":"121.49262","lat":"31.26956","category":"47","category_name":"住宅区","address":"宏祥花苑位于虹口曲阳路69弄"},{"poiid":"B2094654DB6AAAF8459E","title":"德恩士齿科连锁机构(上海02)","lon":"121.49362","lat":"31.27029","category":"162","category_name":"医院","address":"曲阳路104号甲"},{"poiid":"B2094757D06EAAFB4398","title":"邮电新村地铁站","lon":"121.49450107","lat":"31.268612797","category":"36","category_name":"地铁站","address":"上海轨道交通 十号线 轨交邮电新村站 10"},{"poiid":"B2094757D06FA1F54993","title":"又一村","lon":"121.49597072163","lat":"31.270121884137","category":"68","category_name":"快餐厅","address":"虹口区四平路591号(近新港路)"},{"poiid":"B2094757D06FA1FC4092","title":"卜蜂莲花(新港路店)","lon":"121.4988","lat":"31.26934","category":"118","category_name":"超级市场","address":"虹口区新港路245号飘鹰大厦内(近四平路)"},{"poiid":"B2094757D06FA5FE449E","title":"四平路曲阳路口","lon":"121.495693","lat":"31.269823","category":"500","category_name":"未知分类","address":"上海四平路曲阳路"},{"poiid":"B2094757D06FA0FE469E","title":"邮电新村","lon":"121.49442895","lat":"31.270637995","category":"47","category_name":"住宅区","address":"上海四平路621弄〔近密云路〕"},{"poiid":"B2094654D56CA0FB499A","title":"金陵国际大厦","lon":"121.496","lat":"31.2713","category":"46","category_name":"楼宇","address":"海淀区城府路,中关村东路交叉处西北方向"},{"poiid":"B2094654D56DABFA469D","title":"爱家国际大厦","lon":"121.498","lat":"31.2673","category":"46","category_name":"楼宇","address":"上海市虹口区物华路288号"},{"poiid":"B2094654D56DAAF4409E","title":"飘鹰世纪大厦","lon":"121.498608","lat":"31.269361","category":"46","category_name":"楼宇","address":"天宝路578号"},{"poiid":"B2094654D56CA7FF499C","title":"红城阁","lon":"121.49215","lat":"31.27108","category":"76","category_name":"上海菜","address":"虹口区曲阳路239号(近四平路)"},{"poiid":"B2094654D56DABF54398","title":"上海商贸大厦","lon":"121.497","lat":"31.2681","category":"46","category_name":"楼宇","address":"人民路885号-889号"},{"poiid":"B2094757D068A7FD4193","title":"上海市社会保险基金管理中心","lon":"121.492274","lat":"31.270805","category":"500","category_name":"未知分类","address":"上海曲阳路179号"},{"poiid":"B2094757D065A0FF439D","title":"四平路密云路","lon":"121.4962091","lat":"31.271177438","category":"500","category_name":"未知分类","address":"上海市虹口区曲阳路"},{"poiid":"B2094654D56DAAFC419A","title":"海事大厦","lon":"121.4972158025","lat":"31.268584709787","category":"46","category_name":"楼宇","address":"昌平区回龙观镇国际信息产业基地高新二街"},{"poiid":"B2094757D069A0F8489E","title":"萨莉亚（新港路店）","lon":"121.4985635","lat":"31.270082015","category":"94","category_name":"西餐厅","address":"虹口区新港路245号飘鹰大厦1楼(近四平路)"},{"poiid":"B2094757D665A2FB4993","title":"潮汕砂锅粥","lon":"121.497189","lat":"31.270722","category":"72","category_name":"广东菜","address":"虹口区四平路712号湘满园楼上"},{"poiid":"B2094757D06FA5F4409E","title":"JEANS108SALON(京世曲阳店)","lon":"121.49333","lat":"31.27012","category":"148","category_name":"美容美发店","address":"上海虹口区曲阳路108号(近四平路)"},{"poiid":"B2094655D26BA5FA449E","title":"中信和平家园","lon":"121.49881","lat":"31.26959","category":"47","category_name":"住宅区","address":"虹口区新港路227号"},{"poiid":"B2094655D26BA2FB489F","title":"四平路新港路","lon":"121.49595","lat":"31.26991","category":"38","category_name":"公交车站","address":""},{"poiid":"B2094655D26FA0F84799","title":"飘鹰东方花园","lon":"121.49414","lat":"31.271051","category":"47","category_name":"住宅区","address":"上海曲阳路118弄"},{"poiid":"B2094757D068A1FC489D","title":"老四烧烤(新港路店)","lon":"121.49694","lat":"31.27003","category":"257","category_name":"中餐厅","address":"虹口区新港路(四平路口)"},{"poiid":"B2094757D16CA2FB4699","title":"福龙大厦","lon":"121.496","lat":"31.2681","category":"46","category_name":"楼宇","address":"上海市虹口区四平路277号"},{"poiid":"B2094757D76CA3F84298","title":"卧云茶敘","lon":"121.493871","lat":"31.268995","category":"66","category_name":"茶艺馆","address":"虹口区曲阳路26号(近四平路)"},{"poiid":"B2094757D168A5F8419B","title":"卧雲茶叙","lon":"121.494169103","lat":"31.2695124032","category":"247","category_name":"餐饮美食","address":"上海市虹口区曲阳路"},{"poiid":"B2094655D26BA2FB489E","title":"四平路曲阳路","lon":"121.49477","lat":"31.26899","category":"38","category_name":"公交车站","address":""},{"poiid":"B2094757D06FA4FF429E","title":"肯德基 KFC (天宝店)","lon":"121.49895817","lat":"31.269665163","category":"68","category_name":"快餐厅","address":"虹口区新港路245号卜蜂莲花内(近四平路)"},{"poiid":"B2094654DB6AAAF8459C","title":"上岛咖啡(曲阳店)","lon":"121.49298","lat":"31.27155","category":"260","category_name":"其他","address":"虹口区曲阳路118弄28号3楼(近祥德路)"},{"poiid":"B2094655D26CA1FC4898","title":"恒城花苑","lon":"121.497","lat":"31.2702","category":"47","category_name":"住宅区","address":"恒城花苑位于虹口四平路311号"},{"poiid":"B2094655D26EA3FD489B","title":"华虹公寓","lon":"121.49435","lat":"31.26919","category":"47","category_name":"住宅区","address":"上海市虹口区曲阳路58弄"},{"poiid":"B2094757D06BA2FE459F","title":"民生银行（市东支行）","lon":"121.494724","lat":"31.269289","category":"150","category_name":"银行","address":"上海四平路529号"},{"poiid":"B2094654D56CA7FE4392","title":"龙邸大厦","lon":"121.495557","lat":"31.266546","category":"46","category_name":"楼宇","address":"徐汇区田林路388号"},{"poiid":"B2094655D26CA1FF479F","title":"四平路580弄小区(北门)","lon":"121.49597","lat":"31.26968","category":"47","category_name":"住宅区","address":"四平路580弄1-27号"},{"poiid":"B2094654D56DABFA479A","title":"麒麟大厦","lon":"121.498","lat":"31.2677","category":"46","category_name":"楼宇","address":"崇文区夕照寺大街"},{"poiid":"B2094654D56CA7FE409C","title":"喜临门大厦","lon":"121.496","lat":"31.2675","category":"46","category_name":"楼宇","address":"长宁路1158号贝多芬广场618室"},{"poiid":"B2094655D26CA0FF479B","title":"四平路580弄区","lon":"121.4961","lat":"31.26942","category":"47","category_name":"住宅区","address":"四平路580弄1-27号"},{"poiid":"B2094654D56CA0FF499F","title":"新宏大楼","lon":"121.49623","lat":"31.27058","category":"46","category_name":"楼宇","address":"四平路623"},{"poiid":"B2094757D465A0F44793","title":"湘满园酒楼","lon":"121.49711","lat":"31.27088","category":"77","category_name":"湖南菜","address":"虹口区四平路712号(近新港路)"},{"poiid":"B2094655D264ABFC429D","title":"富杰大厦","lon":"121.49649310271","lat":"31.270589888456","category":"46","category_name":"楼宇","address":"欧阳路57号"},{"poiid":"B2094751D364A5F84899","title":"彭浦夜市","lon":"121.493859","lat":"31.270961","category":"247","category_name":"餐饮美食","address":"闻喜路"},{"poiid":"B2094655D26AA4F5429B","title":"玛萨SPA专业美容香熏生活馆曲阳店","lon":"121.49359","lat":"31.26848","category":"247","category_name":"餐饮美食","address":"虹口区曲阳路1号(近四平路)"},{"poiid":"B2094757D06AA2F5419F","title":"中国农业银行(曲阳支行)","lon":"121.49462","lat":"31.26863","category":"150","category_name":"银行","address":"虹口区曲阳路2号(曲阳路四平路)"},{"poiid":"B2094757D16CA3FA4992","title":"同济大学雅憩","lon":"121.49458812","lat":"31.266952489","category":"253","category_name":"校园生活","address":"上海同济大学四平路建筑与城规学苑"},{"poiid":"B2094757D16BA7F4449D","title":"洋山岛民随写","lon":"121.495832103","lat":"31.2692203971","category":"500","category_name":"未知分类","address":null},{"poiid":"B2094655D265A1F4449B","title":"京世造型·美容","lon":"121.49326","lat":"31.27054","category":"148","category_name":"美容美发店","address":""},{"poiid":"B2094751DB64A0FD4398","title":"东吴一品大酒楼","lon":"121.49286","lat":"31.27156","category":"72","category_name":"广东菜","address":"虹口区曲阳路158号(近祥德路)"},{"poiid":"B2094757D16FA2FC419E","title":"洋山深水港洋山岛民","lon":"121.4948941","lat":"31.269038393","category":"500","category_name":"未知分类","address":"上海盛东"},{"poiid":"B2094757D06BA6FA409B","title":"洋山岛民美食推荐","lon":"121.494894103","lat":"31.2690383933","category":"500","category_name":"未知分类","address":"上海洋山"},{"poiid":"B2094654DB6BA3F9479B","title":"新港路街道图书馆","lon":"121.49692","lat":"31.27012","category":"181","category_name":"图书馆","address":"新港路317"},{"poiid":"B2094750D768A2FC489A","title":"群龙无首小菜","lon":"121.493","lat":"31.2719","category":"76","category_name":"上海菜","address":"虹口区曲阳路158号瑞峰商务楼105-106室(近祥德路)"},{"poiid":"B2094655D26FA0FA4898","title":"宏祥花苑","lon":"121.49262","lat":"31.26956","category":"47","category_name":"住宅区","address":"宏祥花苑位于虹口曲阳路69弄"},{"poiid":"B2094654DB6AAAF8459E","title":"德恩士齿科连锁机构(上海02)","lon":"121.49362","lat":"31.27029","category":"162","category_name":"医院","address":"曲阳路104号甲"},{"poiid":"B2094757D06EAAFB4398","title":"邮电新村地铁站","lon":"121.49450107","lat":"31.268612797","category":"36","category_name":"地铁站","address":"上海轨道交通 十号线 轨交邮电新村站 10"},{"poiid":"B2094757D06FA1F54993","title":"又一村","lon":"121.49597072163","lat":"31.270121884137","category":"68","category_name":"快餐厅","address":"虹口区四平路591号(近新港路)"},{"poiid":"B2094757D06FA1FC4092","title":"卜蜂莲花(新港路店)","lon":"121.4988","lat":"31.26934","category":"118","category_name":"超级市场","address":"虹口区新港路245号飘鹰大厦内(近四平路)"},{"poiid":"B2094757D06FA5FE449E","title":"四平路曲阳路口","lon":"121.495693","lat":"31.269823","category":"500","category_name":"未知分类","address":"上海四平路曲阳路"},{"poiid":"B2094757D06FA0FE469E","title":"邮电新村","lon":"121.49442895","lat":"31.270637995","category":"47","category_name":"住宅区","address":"上海四平路621弄〔近密云路〕"},{"poiid":"B2094654D56CA0FB499A","title":"金陵国际大厦","lon":"121.496","lat":"31.2713","category":"46","category_name":"楼宇","address":"海淀区城府路,中关村东路交叉处西北方向"},{"poiid":"B2094654D56DABFA469D","title":"爱家国际大厦","lon":"121.498","lat":"31.2673","category":"46","category_name":"楼宇","address":"上海市虹口区物华路288号"},{"poiid":"B2094654D56DAAF4409E","title":"飘鹰世纪大厦","lon":"121.498608","lat":"31.269361","category":"46","category_name":"楼宇","address":"天宝路578号"},{"poiid":"B2094654D56CA7FF499C","title":"红城阁","lon":"121.49215","lat":"31.27108","category":"76","category_name":"上海菜","address":"虹口区曲阳路239号(近四平路)"},{"poiid":"B2094654D56DABF54398","title":"上海商贸大厦","lon":"121.497","lat":"31.2681","category":"46","category_name":"楼宇","address":"人民路885号-889号"},{"poiid":"B2094757D068A7FD4193","title":"上海市社会保险基金管理中心","lon":"121.492274","lat":"31.270805","category":"500","category_name":"未知分类","address":"上海曲阳路179号"},{"poiid":"B2094757D065A0FF439D","title":"四平路密云路","lon":"121.4962091","lat":"31.271177438","category":"500","category_name":"未知分类","address":"上海市虹口区曲阳路"},{"poiid":"B2094654D56DAAFC419A","title":"海事大厦","lon":"121.4972158025","lat":"31.268584709787","category":"46","category_name":"楼宇","address":"昌平区回龙观镇国际信息产业基地高新二街"},{"poiid":"B2094757D069A0F8489E","title":"萨莉亚（新港路店）","lon":"121.4985635","lat":"31.270082015","category":"94","category_name":"西餐厅","address":"虹口区新港路245号飘鹰大厦1楼(近四平路)"},{"poiid":"B2094757D665A2FB4993","title":"潮汕砂锅粥","lon":"121.497189","lat":"31.270722","category":"72","category_name":"广东菜","address":"虹口区四平路712号湘满园楼上"},{"poiid":"B2094757D06FA5F4409E","title":"JEANS108SALON(京世曲阳店)","lon":"121.49333","lat":"31.27012","category":"148","category_name":"美容美发店","address":"上海虹口区曲阳路108号(近四平路)"},{"poiid":"B2094655D26BA5FA449E","title":"中信和平家园","lon":"121.49881","lat":"31.26959","category":"47","category_name":"住宅区","address":"虹口区新港路227号"},{"poiid":"B2094655D26BA2FB489F","title":"四平路新港路","lon":"121.49595","lat":"31.26991","category":"38","category_name":"公交车站","address":""},{"poiid":"B2094655D26FA0F84799","title":"飘鹰东方花园","lon":"121.49414","lat":"31.271051","category":"47","category_name":"住宅区","address":"上海曲阳路118弄"},{"poiid":"B2094757D068A1FC489D","title":"老四烧烤(新港路店)","lon":"121.49694","lat":"31.27003","category":"257","category_name":"中餐厅","address":"虹口区新港路(四平路口)"},{"poiid":"B2094757D16CA2FB4699","title":"福龙大厦","lon":"121.496","lat":"31.2681","category":"46","category_name":"楼宇","address":"上海市虹口区四平路277号"},{"poiid":"B2094757D76CA3F84298","title":"卧云茶敘","lon":"121.493871","lat":"31.268995","category":"66","category_name":"茶艺馆","address":"虹口区曲阳路26号(近四平路)"},{"poiid":"B2094757D168A5F8419B","title":"卧雲茶叙","lon":"121.494169103","lat":"31.2695124032","category":"247","category_name":"餐饮美食","address":"上海市虹口区曲阳路"},{"poiid":"B2094655D26BA2FB489E","title":"四平路曲阳路","lon":"121.49477","lat":"31.26899","category":"38","category_name":"公交车站","address":""},{"poiid":"B2094757D06FA4FF429E","title":"肯德基 KFC (天宝店)","lon":"121.49895817","lat":"31.269665163","category":"68","category_name":"快餐厅","address":"虹口区新港路245号卜蜂莲花内(近四平路)"},{"poiid":"B2094654DB6AAAF8459C","title":"上岛咖啡(曲阳店)","lon":"121.49298","lat":"31.27155","category":"260","category_name":"其他","address":"虹口区曲阳路118弄28号3楼(近祥德路)"},{"poiid":"B2094655D26CA1FC4898","title":"恒城花苑","lon":"121.497","lat":"31.2702","category":"47","category_name":"住宅区","address":"恒城花苑位于虹口四平路311号"},{"poiid":"B2094655D26EA3FD489B","title":"华虹公寓","lon":"121.49435","lat":"31.26919","category":"47","category_name":"住宅区","address":"上海市虹口区曲阳路58弄"},{"poiid":"B2094757D06BA2FE459F","title":"民生银行（市东支行）","lon":"121.494724","lat":"31.269289","category":"150","category_name":"银行","address":"上海四平路529号"},{"poiid":"B2094654D56CA7FE4392","title":"龙邸大厦","lon":"121.495557","lat":"31.266546","category":"46","category_name":"楼宇","address":"徐汇区田林路388号"},{"poiid":"B2094655D26CA1FF479F","title":"四平路580弄小区(北门)","lon":"121.49597","lat":"31.26968","category":"47","category_name":"住宅区","address":"四平路580弄1-27号"},{"poiid":"B2094654D56DABFA479A","title":"麒麟大厦","lon":"121.498","lat":"31.2677","category":"46","category_name":"楼宇","address":"崇文区夕照寺大街"},{"poiid":"B2094654D56CA7FE409C","title":"喜临门大厦","lon":"121.496","lat":"31.2675","category":"46","category_name":"楼宇","address":"长宁路1158号贝多芬广场618室"},{"poiid":"B2094655D26CA0FF479B","title":"四平路580弄区","lon":"121.4961","lat":"31.26942","category":"47","category_name":"住宅区","address":"四平路580弄1-27号"},{"poiid":"B2094654D56CA0FF499F","title":"新宏大楼","lon":"121.49623","lat":"31.27058","category":"46","category_name":"楼宇","address":"四平路623"},{"poiid":"B2094757D465A0F44793","title":"湘满园酒楼","lon":"121.49711","lat":"31.27088","category":"77","category_name":"湖南菜","address":"虹口区四平路712号(近新港路)"},{"poiid":"B2094655D264ABFC429D","title":"富杰大厦","lon":"121.49649310271","lat":"31.270589888456","category":"46","category_name":"楼宇","address":"欧阳路57号"},{"poiid":"B2094751D364A5F84899","title":"彭浦夜市","lon":"121.493859","lat":"31.270961","category":"247","category_name":"餐饮美食","address":"闻喜路"},{"poiid":"B2094655D26AA4F5429B","title":"玛萨SPA专业美容香熏生活馆曲阳店","lon":"121.49359","lat":"31.26848","category":"247","category_name":"餐饮美食","address":"虹口区曲阳路1号(近四平路)"},{"poiid":"B2094757D06AA2F5419F","title":"中国农业银行(曲阳支行)","lon":"121.49462","lat":"31.26863","category":"150","category_name":"银行","address":"虹口区曲阳路2号(曲阳路四平路)"},{"poiid":"B2094757D16CA3FA4992","title":"同济大学雅憩","lon":"121.49458812","lat":"31.266952489","category":"253","category_name":"校园生活","address":"上海同济大学四平路建筑与城规学苑"},{"poiid":"B2094757D16BA7F4449D","title":"洋山岛民随写","lon":"121.495832103","lat":"31.2692203971","category":"500","category_name":"未知分类","address":null},{"poiid":"B2094655D265A1F4449B","title":"京世造型·美容","lon":"121.49326","lat":"31.27054","category":"148","category_name":"美容美发店","address":""},{"poiid":"B2094751DB64A0FD4398","title":"东吴一品大酒楼","lon":"121.49286","lat":"31.27156","category":"72","category_name":"广东菜","address":"虹口区曲阳路158号(近祥德路)"},{"poiid":"B2094757D16FA2FC419E","title":"洋山深水港洋山岛民","lon":"121.4948941","lat":"31.269038393","category":"500","category_name":"未知分类","address":"上海盛东"},{"poiid":"B2094757D06BA6FA409B","title":"洋山岛民美食推荐","lon":"121.494894103","lat":"31.2690383933","category":"500","category_name":"未知分类","address":"上海洋山"},{"poiid":"B2094654DB6BA3F9479B","title":"新港路街道图书馆","lon":"121.49692","lat":"31.27012","category":"181","category_name":"图书馆","address":"新港路317"},{"poiid":"B2094750D768A2FC489A","title":"群龙无首小菜","lon":"121.493","lat":"31.2719","category":"76","category_name":"上海菜","address":"虹口区曲阳路158号瑞峰商务楼105-106室(近祥德路)"},{"poiid":"B2094655D26FA0FA4898","title":"宏祥花苑","lon":"121.49262","lat":"31.26956","category":"47","category_name":"住宅区","address":"宏祥花苑位于虹口曲阳路69弄"},{"poiid":"B2094654DB6AAAF8459E","title":"德恩士齿科连锁机构(上海02)","lon":"121.49362","lat":"31.27029","category":"162","category_name":"医院","address":"曲阳路104号甲"},{"poiid":"B2094757D06EAAFB4398","title":"邮电新村地铁站","lon":"121.49450107","lat":"31.268612797","category":"36","category_name":"地铁站","address":"上海轨道交通 十号线 轨交邮电新村站 10"},{"poiid":"B2094757D06FA1F54993","title":"又一村","lon":"121.49597072163","lat":"31.270121884137","category":"68","category_name":"快餐厅","address":"虹口区四平路591号(近新港路)"},{"poiid":"B2094757D06FA1FC4092","title":"卜蜂莲花(新港路店)","lon":"121.4988","lat":"31.26934","category":"118","category_name":"超级市场","address":"虹口区新港路245号飘鹰大厦内(近四平路)"},{"poiid":"B2094757D06FA5FE449E","title":"四平路曲阳路口","lon":"121.495693","lat":"31.269823","category":"500","category_name":"未知分类","address":"上海四平路曲阳路"},{"poiid":"B2094757D06FA0FE469E","title":"邮电新村","lon":"121.49442895","lat":"31.270637995","category":"47","category_name":"住宅区","address":"上海四平路621弄〔近密云路〕"},{"poiid":"B2094654D56CA0FB499A","title":"金陵国际大厦","lon":"121.496","lat":"31.2713","category":"46","category_name":"楼宇","address":"海淀区城府路,中关村东路交叉处西北方向"},{"poiid":"B2094654D56DABFA469D","title":"爱家国际大厦","lon":"121.498","lat":"31.2673","category":"46","category_name":"楼宇","address":"上海市虹口区物华路288号"},{"poiid":"B2094654D56DAAF4409E","title":"飘鹰世纪大厦","lon":"121.498608","lat":"31.269361","category":"46","category_name":"楼宇","address":"天宝路578号"},{"poiid":"B2094654D56CA7FF499C","title":"红城阁","lon":"121.49215","lat":"31.27108","category":"76","category_name":"上海菜","address":"虹口区曲阳路239号(近四平路)"},{"poiid":"B2094654D56DABF54398","title":"上海商贸大厦","lon":"121.497","lat":"31.2681","category":"46","category_name":"楼宇","address":"人民路885号-889号"},{"poiid":"B2094757D068A7FD4193","title":"上海市社会保险基金管理中心","lon":"121.492274","lat":"31.270805","category":"500","category_name":"未知分类","address":"上海曲阳路179号"},{"poiid":"B2094757D065A0FF439D","title":"四平路密云路","lon":"121.4962091","lat":"31.271177438","category":"500","category_name":"未知分类","address":"上海市虹口区曲阳路"},{"poiid":"B2094654D56DAAFC419A","title":"海事大厦","lon":"121.4972158025","lat":"31.268584709787","category":"46","category_name":"楼宇","address":"昌平区回龙观镇国际信息产业基地高新二街"},{"poiid":"B2094757D069A0F8489E","title":"萨莉亚（新港路店）","lon":"121.4985635","lat":"31.270082015","category":"94","category_name":"西餐厅","address":"虹口区新港路245号飘鹰大厦1楼(近四平路)"},{"poiid":"B2094757D665A2FB4993","title":"潮汕砂锅粥","lon":"121.497189","lat":"31.270722","category":"72","category_name":"广东菜","address":"虹口区四平路712号湘满园楼上"},{"poiid":"B2094757D06FA5F4409E","title":"JEANS108SALON(京世曲阳店)","lon":"121.49333","lat":"31.27012","category":"148","category_name":"美容美发店","address":"上海虹口区曲阳路108号(近四平路)"},{"poiid":"B2094655D26BA5FA449E","title":"中信和平家园","lon":"121.49881","lat":"31.26959","category":"47","category_name":"住宅区","address":"虹口区新港路227号"},{"poiid":"B2094655D26BA2FB489F","title":"四平路新港路","lon":"121.49595","lat":"31.26991","category":"38","category_name":"公交车站","address":""},{"poiid":"B2094655D26FA0F84799","title":"飘鹰东方花园","lon":"121.49414","lat":"31.271051","category":"47","category_name":"住宅区","address":"上海曲阳路118弄"},{"poiid":"B2094757D068A1FC489D","title":"老四烧烤(新港路店)","lon":"121.49694","lat":"31.27003","category":"257","category_name":"中餐厅","address":"虹口区新港路(四平路口)"},{"poiid":"B2094757D16CA2FB4699","title":"福龙大厦","lon":"121.496","lat":"31.2681","category":"46","category_name":"楼宇","address":"上海市虹口区四平路277号"},{"poiid":"B2094757D76CA3F84298","title":"卧云茶敘","lon":"121.493871","lat":"31.268995","category":"66","category_name":"茶艺馆","address":"虹口区曲阳路26号(近四平路)"},{"poiid":"B2094757D168A5F8419B","title":"卧雲茶叙","lon":"121.494169103","lat":"31.2695124032","category":"247","category_name":"餐饮美食","address":"上海市虹口区曲阳路"},{"poiid":"B2094655D26BA2FB489E","title":"四平路曲阳路","lon":"121.49477","lat":"31.26899","category":"38","category_name":"公交车站","address":""},{"poiid":"B2094757D06FA4FF429E","title":"肯德基 KFC (天宝店)","lon":"121.49895817","lat":"31.269665163","category":"68","category_name":"快餐厅","address":"虹口区新港路245号卜蜂莲花内(近四平路)"},{"poiid":"B2094654DB6AAAF8459C","title":"上岛咖啡(曲阳店)","lon":"121.49298","lat":"31.27155","category":"260","category_name":"其他","address":"虹口区曲阳路118弄28号3楼(近祥德路)"},{"poiid":"B2094655D26CA1FC4898","title":"恒城花苑","lon":"121.497","lat":"31.2702","category":"47","category_name":"住宅区","address":"恒城花苑位于虹口四平路311号"},{"poiid":"B2094655D26EA3FD489B","title":"华虹公寓","lon":"121.49435","lat":"31.26919","category":"47","category_name":"住宅区","address":"上海市虹口区曲阳路58弄"},{"poiid":"B2094757D06BA2FE459F","title":"民生银行（市东支行）","lon":"121.494724","lat":"31.269289","category":"150","category_name":"银行","address":"上海四平路529号"},{"poiid":"B2094654D56CA7FE4392","title":"龙邸大厦","lon":"121.495557","lat":"31.266546","category":"46","category_name":"楼宇","address":"徐汇区田林路388号"},{"poiid":"B2094655D26CA1FF479F","title":"四平路580弄小区(北门)","lon":"121.49597","lat":"31.26968","category":"47","category_name":"住宅区","address":"四平路580弄1-27号"},{"poiid":"B2094654D56DABFA479A","title":"麒麟大厦","lon":"121.498","lat":"31.2677","category":"46","category_name":"楼宇","address":"崇文区夕照寺大街"},{"poiid":"B2094654D56CA7FE409C","title":"喜临门大厦","lon":"121.496","lat":"31.2675","category":"46","category_name":"楼宇","address":"长宁路1158号贝多芬广场618室"},{"poiid":"B2094655D26CA0FF479B","title":"四平路580弄区","lon":"121.4961","lat":"31.26942","category":"47","category_name":"住宅区","address":"四平路580弄1-27号"},{"poiid":"B2094654D56CA0FF499F","title":"新宏大楼","lon":"121.49623","lat":"31.27058","category":"46","category_name":"楼宇","address":"四平路623"},{"poiid":"B2094757D465A0F44793","title":"湘满园酒楼","lon":"121.49711","lat":"31.27088","category":"77","category_name":"湖南菜","address":"虹口区四平路712号(近新港路)"},{"poiid":"B2094655D264ABFC429D","title":"富杰大厦","lon":"121.49649310271","lat":"31.270589888456","category":"46","category_name":"楼宇","address":"欧阳路57号"},{"poiid":"B2094751D364A5F84899","title":"彭浦夜市","lon":"121.493859","lat":"31.270961","category":"247","category_name":"餐饮美食","address":"闻喜路"},{"poiid":"B2094655D26AA4F5429B","title":"玛萨SPA专业美容香熏生活馆曲阳店","lon":"121.49359","lat":"31.26848","category":"247","category_name":"餐饮美食","address":"虹口区曲阳路1号(近四平路)"},{"poiid":"B2094757D06AA2F5419F","title":"中国农业银行(曲阳支行)","lon":"121.49462","lat":"31.26863","category":"150","category_name":"银行","address":"虹口区曲阳路2号(曲阳路四平路)"},{"poiid":"B2094757D16CA3FA4992","title":"同济大学雅憩","lon":"121.49458812","lat":"31.266952489","category":"253","category_name":"校园生活","address":"上海同济大学四平路建筑与城规学苑"},{"poiid":"B2094757D16BA7F4449D","title":"洋山岛民随写","lon":"121.495832103","lat":"31.2692203971","category":"500","category_name":"未知分类","address":null},{"poiid":"B2094655D265A1F4449B","title":"京世造型·美容","lon":"121.49326","lat":"31.27054","category":"148","category_name":"美容美发店","address":""},{"poiid":"B2094751DB64A0FD4398","title":"东吴一品大酒楼","lon":"121.49286","lat":"31.27156","category":"72","category_name":"广东菜","address":"虹口区曲阳路158号(近祥德路)"},{"poiid":"B2094757D16FA2FC419E","title":"洋山深水港洋山岛民","lon":"121.4948941","lat":"31.269038393","category":"500","category_name":"未知分类","address":"上海盛东"},{"poiid":"B2094757D06BA6FA409B","title":"洋山岛民美食推荐","lon":"121.494894103","lat":"31.2690383933","category":"500","category_name":"未知分类","address":"上海洋山"},{"poiid":"B2094654DB6BA3F9479B","title":"新港路街道图书馆","lon":"121.49692","lat":"31.27012","category":"181","category_name":"图书馆","address":"新港路317"},{"poiid":"B2094750D768A2FC489A","title":"群龙无首小菜","lon":"121.493","lat":"31.2719","category":"76","category_name":"上海菜","address":"虹口区曲阳路158号瑞峰商务楼105-106室(近祥德路)"},{"poiid":"B2094655D26FA0FA4898","title":"宏祥花苑","lon":"121.49262","lat":"31.26956","category":"47","category_name":"住宅区","address":"宏祥花苑位于虹口曲阳路69弄"},{"poiid":"B2094654DB6AAAF8459E","title":"德恩士齿科连锁机构(上海02)","lon":"121.49362","lat":"31.27029","category":"162","category_name":"医院","address":"曲阳路104号甲"}]