[{"poiid":"B2094757D16CA3FB4692","title":"930私房菜(欧阳路店)","lon":"121.489328103","lat":"31.2680273722","category":"76","category_name":"上海菜","address":"虹口区欧阳路196号1号楼3楼(近四达路)"},{"poiid":"B2094655D26BA1FD489E","title":"欧阳路祥德路","lon":"121.48724","lat":"31.27109","category":"38","category_name":"公交车站","address":""},{"poiid":"B2094757D06FABFD459D","title":"荣欣大厦","lon":"121.490138","lat":"31.26684","category":"252","category_name":"楼宇机构","address":"上海市四川北路1851号"},{"poiid":"B2094757D16EA1F4449B","title":"法兰桥创意园区","lon":"121.488876103","lat":"31.2667803462","category":"119","category_name":"商场","address":"上海虹口区欧阳路196号"},{"poiid":"B2094757D06FABF5499E","title":"祥德路烤肉摊","lon":"121.48773","lat":"31.27113","category":"68","category_name":"快餐厅","address":"虹口区祥德路黑马雕塑下(欧阳路口)"},{"poiid":"B2094654D56CA0FB419C","title":"绿洲紫荆花园","lon":"121.48959","lat":"31.268484","category":"47","category_name":"住宅区","address":"上海市虹口区欧阳路289号"},{"poiid":"B2094757D069A2F84693","title":"巴黎贝甜(欧阳店)","lon":"121.48845857","lat":"31.266445989","category":"67","category_name":"甜品店","address":"虹口区欧阳路198号(近吉祥路)"},{"poiid":"B2094655D26AAAFD4492","title":"上海莫泰168连锁酒店四平路店","lon":"121.49122","lat":"31.26606","category":"250","category_name":"公园户外","address":"上海市虹口区四平路333号（近四达路）"},{"poiid":"B2094757D169A5FF439E","title":"知茵坊","lon":"121.4891937","lat":"31.266933649","category":"76","category_name":"上海菜","address":"虹口区欧阳路196弄22-23号"},{"poiid":"B2094757D468A4F8449A","title":"海尚香","lon":"121.488248","lat":"31.267171","category":"76","category_name":"上海菜","address":"虹口区欧阳路196号法兰桥创意园(近四平路)"},{"poiid":"B2094757D068A2F5479C","title":"南馨园酒店","lon":"121.48543489","lat":"31.268350135","category":"72","category_name":"广东菜","address":"虹口区山阴路277号(近鲁迅公园)"},{"poiid":"B2094757D06FABF9409F","title":"虹口区青少年活动中心","lon":"121.48973131","lat":"31.265364815","category":"260","category_name":"其他","address":"虹口区欧阳路67号(近四平路)"},{"poiid":"B2094757D06FA1FB459D","title":"四达路","lon":"121.48822784","lat":"31.267992019","category":"500","category_name":"未知分类","address":"上海四达路欧阳路"},{"poiid":"B2094654D56CA0FB4292","title":"虹口区第三中心幼儿园","lon":"121.4884","lat":"31.2677","category":"57","category_name":"幼儿园","address":"欧阳路273"},{"poiid":"B2094655D26AA3FF4992","title":"紫荆健身馆游泳池","lon":"121.48841","lat":"31.26834","category":"247","category_name":"餐饮美食","address":"虹口区欧阳路299号2楼(近四达路)"},{"poiid":"B2094655D26BA1FD489C","title":"欧阳路四达路","lon":"121.48802","lat":"31.26852","category":"38","category_name":"公交车站","address":""},{"poiid":"B2094757D06AA0FF479C","title":"85度C(欧阳店)","lon":"121.489107","lat":"31.2660613","category":"112","category_name":"糕饼店","address":"虹口区欧阳路196号1号楼1楼4-20室(近吉祥路)"},{"poiid":"B2094655D26EA5FA409A","title":"金美美容美发(虹口)","lon":"121.48833","lat":"31.2678","category":"148","category_name":"美容美发店","address":"虹口区欧阳路283号紫荆花园门口(近四达路)"},{"poiid":"B2094751D164AAFF479A","title":"虹桥机场2号","lon":"121.4883","lat":"31.26739","category":"500","category_name":"未知分类","address":null},{"poiid":"B2094654D56CA7F5459D","title":"方舟大厦","lon":"121.488","lat":"31.2708","category":"46","category_name":"楼宇","address":"上海市闵行区莲花南路1500弄"},{"poiid":"B2094655D269AAF4429D","title":"如家快捷酒店欧阳路店","lon":"121.48817","lat":"31.26579","category":"247","category_name":"餐饮美食","address":"上海市虹口区吉祥路69号(近欧阳路)"},{"poiid":"B2094757D064A0FD489A","title":"明杨豪苑","lon":"121.48762","lat":"31.267271","category":"47","category_name":"住宅区","address":"上海市虹口区欧阳路218号"},{"poiid":"B2094655D26FA6F5459E","title":"上海市虹口区欧阳地段医院","lon":"121.48887","lat":"31.26667","category":"162","category_name":"医院","address":"虹口区欧阳路149号(吉祥路四达路)"},{"poiid":"B2094654D56CA0FB499B","title":"欧阳路街道社区卫生服务中心","lon":"121.48888","lat":"31.26667","category":"162","category_name":"医院","address":"欧阳路149"},{"poiid":"B2094654D56CA0FB429D","title":"新东方泡泡少儿英语","lon":"121.48833","lat":"31.2678","category":"190","category_name":"培训机构","address":"虹口区欧阳路283号2楼(近鲁迅公园)"},{"poiid":"B2094654D56CA0F44299","title":"美玫美发","lon":"121.48892","lat":"31.26576","category":"148","category_name":"美容美发店","address":"欧阳路88"},{"poiid":"B2094757D66AA5FD4793","title":"次郎日式快餐 四平店","lon":"121.49134445846","lat":"31.265653123995","category":"68","category_name":"快餐厅","address":"虹口区四平路170号(近溧阳路)"},{"poiid":"B2094757D664AAFB4093","title":"西安美食餐馆","lon":"121.486905054","lat":"31.267279793","category":"68","category_name":"快餐厅","address":"虹口区宝安路296号(宝安路四达路)"},{"poiid":"B2094757D16CA0FE439C","title":"世博花园二期 馥敦坊","lon":"121.490123743","lat":"31.2679906114","category":"47","category_name":"住宅区","address":"上海市虹口区四达路58弄"},{"poiid":"B2094757D16AA4FF4893","title":"宠爱有家","lon":"121.48883819","lat":"31.266691207","category":"247","category_name":"餐饮美食","address":"上海虹口区欧阳路"},{"poiid":"B2094753D16CA5FC499E","title":"攀宇健身中心(欧阳路店)","lon":"121.4881","lat":"31.26819","category":"221","category_name":"健身中心","address":"虹口区欧阳路299弄(近祥德路)"},{"poiid":"B2094757D168A0FE4099","title":"100路欧阳路四达路站","lon":"121.488228","lat":"31.267992","category":"500","category_name":"未知分类","address":"上海虹口区欧阳路(近四达路)"},{"poiid":"B209475DD76AA3FB449B","title":"猫山王","lon":"121.487907","lat":"31.266302","category":"247","category_name":"餐饮美食","address":"上海市 甜爱路"},{"poiid":"B2094655D265A0FD429B","title":"郎克网吧","lon":"121.48841","lat":"31.26771","category":"248","category_name":"生活娱乐","address":"虹口区欧阳路273号2楼(近鲁迅公园)"},{"poiid":"B2094654D56CA0FB449C","title":"虹口区第三中心小学分部","lon":"121.49035","lat":"31.26765","category":"56","category_name":"小学","address":"四达路96"},{"poiid":"B2094757D66EA1F4479D","title":"江湾路幼儿园","lon":"121.488269103","lat":"31.2689943924","category":"57","category_name":"幼儿园","address":"虹口区山阴路303弄15号"},{"poiid":"B2094654D56CA0F4489F","title":"吉祥苑","lon":"121.48873","lat":"31.265705","category":"47","category_name":"住宅区","address":"上海市虹口区欧阳路90号(吉祥路口"},{"poiid":"B2094654D56CA0FB4692","title":"欧祥养老院","lon":"121.48868","lat":"31.26704","category":"207","category_name":"度假疗养场所","address":"欧阳路175号2层"},{"poiid":"B2094654D56CA0F44698","title":"金叶商楼","lon":"121.48673","lat":"31.267","category":"46","category_name":"楼宇","address":"宝安路272"},{"poiid":"B2094753D564A0FB469A","title":"鲁迅公园","lon":"121.488998","lat":"31.266696","category":"500","category_name":"未知分类","address":"上海市 上海虹口区甜爱路"},{"poiid":"B2094654D56CA0F44999","title":"明杨豪苑(东门)","lon":"121.48805","lat":"31.26754","category":"48","category_name":"楼宇大门","address":"欧阳路218弄1-3号"},{"poiid":"B2094757D16EA2FF469B","title":"8号线曲阳路站","lon":"121.489662103","lat":"31.264428297","category":"500","category_name":"未知分类","address":"上海曲阳路大连路"},{"poiid":"B2094655D26CA0F9429F","title":"四达路99弄小区(西门)","lon":"121.48992","lat":"31.26693","category":"47","category_name":"住宅区","address":"四达路99弄1-10号"},{"poiid":"B2094655D26CA0F84499","title":"四达路234弄小区(南门)","lon":"121.48675","lat":"31.26803","category":"47","category_name":"住宅区","address":"四达路234弄1-6号"},{"poiid":"B2094757D069A2F54398","title":"ART OF MEDITERRANEAN","lon":"121.4866609","lat":"31.266087731","category":"184","category_name":"美术馆","address":"上海虹口区欧阳路196号法兰桥创意园4号楼B座区底座"},{"poiid":"B2094655D26CA1FA4098","title":"四达路99弄小区","lon":"121.49016","lat":"31.26697","category":"47","category_name":"住宅区","address":"四达路99弄1-10号"},{"poiid":"B2094654D56CA0F44993","title":"上海宏阳物业有限公司","lon":"121.48754","lat":"31.26814","category":"263","category_name":"公司","address":"四达路200"},{"poiid":"B2094654D56CA0F4429E","title":"华氏大药房欧阳路药房","lon":"121.48889","lat":"31.26581","category":"162","category_name":"医院","address":"欧阳路90"},{"poiid":"B2094654D56CA5FD449A","title":"鑫成大楼","lon":"121.486","lat":"31.267","category":"46","category_name":"楼宇","address":"宝山路746号"},{"poiid":"B2094750D564A3F4429F","title":"中梁海伦国际","lon":"121.485882","lat":"31.267202","category":"47","category_name":"住宅区","address":"宝山路748号"},{"poiid":"B2094757D16CA3FB4692","title":"930私房菜(欧阳路店)","lon":"121.489328103","lat":"31.2680273722","category":"76","category_name":"上海菜","address":"虹口区欧阳路196号1号楼3楼(近四达路)"},{"poiid":"B2094655D26BA1FD489E","title":"欧阳路祥德路","lon":"121.48724","lat":"31.27109","category":"38","category_name":"公交车站","address":""},{"poiid":"B2094757D06FABFD459D","title":"荣欣大厦","lon":"121.490138","lat":"31.26684","category":"252","category_name":"楼宇机构","address":"上海市四川北路1851号"},{"poiid":"B2094757D16EA1F4449B","title":"法兰桥创意园区","lon":"121.488876103","lat":"31.2667803462","category":"119","category_name":"商场","address":"上海虹口区欧阳路196号"},{"poiid":"B2094757D06FABF5499E","title":"祥德路烤肉摊","lon":"121.48773","lat":"31.27113","category":"68","category_name":"快餐厅","address":"虹口区祥德路黑马雕塑下(欧阳路口)"},{"poiid":"B2094654D56CA0FB419C","title":"绿洲紫荆花园","lon":"121.48959","lat":"31.268484","category":"47","category_name":"住宅区","address":"上海市虹口区欧阳路289号"},{"poiid":"B2094757D069A2F84693","title":"巴黎贝甜(欧阳店)","lon":"121.48845857","lat":"31.266445989","category":"67","category_name":"甜品店","address":"虹口区欧阳路198号(近吉祥路)"},{"poiid":"B2094655D26AAAFD4492","title":"上海莫泰168连锁酒店四平路店","lon":"121.49122","lat":"31.26606","category":"250","category_name":"公园户外","address":"上海市虹口区四平路333号（近四达路）"},{"poiid":"B2094757D169A5FF439E","title":"知茵坊","lon":"121.4891937","lat":"31.266933649","category":"76","category_name":"上海菜","address":"虹口区欧阳路196弄22-23号"},{"poiid":"B2094757D468A4F8449A","title":"海尚香","lon":"121.488248","lat":"31.267171","category":"76","category_name":"上海菜","address":"虹口区欧阳路196号法兰桥创意园(近四平路)"},{"poiid":"B2094757D068A2F5479C","title":"南馨园酒店","lon":"121.48543489","lat":"31.268350135","category":"72","category_name":"广东菜","address":"虹口区山阴路277号(近鲁迅公园)"},{"poiid":"B2094757D06FABF9409F","title":"虹口区青少年活动中心","lon":"121.48973131","lat":"31.265364815","category":"260","category_name":"其他","address":"虹口区欧阳路67号(近四平路)"},{"poiid":"B2094757D06FA1FB459D","title":"四达路","lon":"121.48822784","lat":"31.267992019","category":"500","category_name":"未知分类","address":"上海四达路欧阳路"},{"poiid":"B2094654D56CA0FB4292","title":"虹口区第三中心幼儿园","lon":"121.4884","lat":"31.2677","category":"57","category_name":"幼儿园","address":"欧阳路273"},{"poiid":"B2094655D26AA3FF4992","title":"紫荆健身馆游泳池","lon":"121.48841","lat":"31.26834","category":"247","category_name":"餐饮美食","address":"虹口区欧阳路299号2楼(近四达路)"},{"poiid":"B2094655D26BA1FD489C","title":"欧阳路四达路","lon":"121.48802","lat":"31.26852","category":"38","category_name":"公交车站","address":""},{"poiid":"B2094757D06AA0FF479C","title":"85度C(欧阳店)","lon":"121.489107","lat":"31.2660613","category":"112","category_name":"糕饼店","address":"虹口区欧阳路196号1号楼1楼4-20室(近吉祥路)"},{"poiid":"B2094655D26EA5FA409A","title":"金美美容美发(虹口)","lon":"121.48833","lat":"31.2678","category":"148","category_name":"美容美发店","address":"虹口区欧阳路283号紫荆花园门口(近四达路)"},{"poiid":"B2094751D164AAFF479A","title":"虹桥机场2号","lon":"121.4883","lat":"31.26739","category":"500","category_name":"未知分类","address":null},{"poiid":"B2094654D56CA7F5459D","title":"方舟大厦","lon":"121.488","lat":"31.2708","category":"46","category_name":"楼宇","address":"上海市闵行区莲花南路1500弄"},{"poiid":"B2094655D269AAF4429D","title":"如家快捷酒店欧阳路店","lon":"121.48817","lat":"31.26579","category":"247","category_name":"餐饮美食","address":"上海市虹口区吉祥路69号(近欧阳路)"},{"poiid":"B2094757D064A0FD489A","title":"明杨豪苑","lon":"121.48762","lat":"31.267271","category":"47","category_name":"住宅区","address":"上海市虹口区欧阳路218号"},{"poiid":"B2094655D26FA6F5459E","title":"上海市虹口区欧阳地段医院","lon":"121.48887","lat":"31.26667","category":"162","category_name":"医院","address":"虹口区欧阳路149号(吉祥路四达路)"},{"poiid":"B2094654D56CA0FB499B","title":"欧阳路街道社区卫生服务中心","lon":"121.48888","lat":"31.26667","category":"162","category_name":"医院","address":"欧阳路149"},{"poiid":"B2094654D56CA0FB429D","title":"新东方泡泡少儿英语","lon":"121.48833","lat":"31.2678","category":"190","category_name":"培训机构","address":"虹口区欧阳路283号2楼(近鲁迅公园)"},{"poiid":"B2094654D56CA0F44299","title":"美玫美发","lon":"121.48892","lat":"31.26576","category":"148","category_name":"美容美发店","address":"欧阳路88"},{"poiid":"B2094757D66AA5FD4793","title":"次郎日式快餐 四平店","lon":"121.49134445846","lat":"31.265653123995","category":"68","category_name":"快餐厅","address":"虹口区四平路170号(近溧阳路)"},{"poiid":"B2094757D664AAFB4093","title":"西安美食餐馆","lon":"121.486905054","lat":"31.267279793","category":"68","category_name":"快餐厅","address":"虹口区宝安路296号(宝安路四达路)"},{"poiid":"B2094757D16CA0FE439C","title":"世博花园二期 馥敦坊","lon":"121.490123743","lat":"31.2679906114","category":"47","category_name":"住宅区","address":"上海市虹口区四达路58弄"},{"poiid":"B2094757D16AA4FF4893","title":"宠爱有家","lon":"121.48883819","lat":"31.266691207","category":"247","category_name":"餐饮美食","address":"上海虹口区欧阳路"},{"poiid":"B2094753D16CA5FC499E","title":"攀宇健身中心(欧阳路店)","lon":"121.4881","lat":"31.26819","category":"221","category_name":"健身中心","address":"虹口区欧阳路299弄(近祥德路)"},{"poiid":"B2094757D168A0FE4099","title":"100路欧阳路四达路站","lon":"121.488228","lat":"31.267992","category":"500","category_name":"未知分类","address":"上海虹口区欧阳路(近四达路)"},{"poiid":"B209475DD76AA3FB449B","title":"猫山王","lon":"121.487907","lat":"31.266302","category":"247","category_name":"餐饮美食","address":"上海市 甜爱路"},{"poiid":"B2094655D265A0FD429B","title":"郎克网吧","lon":"121.48841","lat":"31.26771","category":"248","category_name":"生活娱乐","address":"虹口区欧阳路273号2楼(近鲁迅公园)"},{"poiid":"B2094654D56CA0FB449C","title":"虹口区第三中心小学分部","lon":"121.49035","lat":"31.26765","category":"56","category_name":"小学","address":"四达路96"},{"poiid":"B2094757D66EA1F4479D","title":"江湾路幼儿园","lon":"121.488269103","lat":"31.2689943924","category":"57","category_name":"幼儿园","address":"虹口区山阴路303弄15号"},{"poiid":"B2094654D56CA0F4489F","title":"吉祥苑","lon":"121.48873","lat":"31.265705","category":"47","category_name":"住宅区","address":"上海市虹口区欧阳路90号(吉祥路口"},{"poiid":"B2094654D56CA0FB4692","title":"欧祥养老院","lon":"121.48868","lat":"31.26704","category":"207","category_name":"度假疗养场所","address":"欧阳路175号2层"},{"poiid":"B2094654D56CA0F44698","title":"金叶商楼","lon":"121.48673","lat":"31.267","category":"46","category_name":"楼宇","address":"宝安路272"},{"poiid":"B2094753D564A0FB469A","title":"鲁迅公园","lon":"121.488998","lat":"31.266696","category":"500","category_name":"未知分类","address":"上海市 上海虹口区甜爱路"},{"poiid":"B2094654D56CA0F44999","title":"明杨豪苑(东门)","lon":"121.48805","lat":"31.26754","category":"48","category_name":"楼宇大门","address":"欧阳路218弄1-3号"},{"poiid":"B2094757D16EA2FF469B","title":"8号线曲阳路站","lon":"121.489662103","lat":"31.264428297","category":"500","category_name":"未知分类","address":"上海曲阳路大连路"},{"poiid":"B2094655D26CA0F9429F","title":"四达路99弄小区(西门)","lon":"121.48992","lat":"31.26693","category":"47","category_name":"住宅区","address":"四达路99弄1-10号"},{"poiid":"B2094655D26CA0F84499","title":"四达路234弄小区(南门)","lon":"121.48675","lat":"31.26803","category":"47","category_name":"住宅区","address":"四达路234弄1-6号"},{"poiid":"B2094757D069A2F54398","title":"ART OF MEDITERRANEAN","lon":"121.4866609","lat":"31.266087731","category":"184","category_name":"美术馆","address":"上海虹口区欧阳路196号法兰桥创意园4号楼B座区底座"},{"poiid":"B2094655D26CA1FA4098","title":"四达路99弄小区","lon":"121.49016","lat":"31.26697","category":"47","category_name":"住宅区","address":"四达路99弄1-10号"},{"poiid":"B2094654D56CA0F44993","title":"上海宏阳物业有限公司","lon":"121.48754","lat":"31.26814","category":"263","category_name":"公司","address":"四达路200"},{"poiid":"B2094654D56CA0F4429E","title":"华氏大药房欧阳路药房","lon":"121.48889","lat":"31.26581","category":"162","category_name":"医院","address":"欧阳路90"},{"poiid":"B2094654D56CA5FD449A","title":"鑫成大楼","lon":"121.486","lat":"31.267","category":"46","category_name":"楼宇","address":"宝山路746号"},{"poiid":"B2094750D564A3F4429F","title":"中梁海伦国际","lon":"121.485882","lat":"31.267202","category":"47","category_name":"住宅区","address":"宝山路748号"},{"poiid":"B2094757D16CA3FB4692","title":"930私房菜(欧阳路店)","lon":"121.489328103","lat":"31.2680273722","category":"76","category_name":"上海菜","address":"虹口区欧阳路196号1号楼3楼(近四达路)"},{"poiid":"B2094655D26BA1FD489E","title":"欧阳路祥德路","lon":"121.48724","lat":"31.27109","category":"38","category_name":"公交车站","address":""},{"poiid":"B2094757D06FABFD459D","title":"荣欣大厦","lon":"121.490138","lat":"31.26684","category":"252","category_name":"楼宇机构","address":"上海市四川北路1851号"},{"poiid":"B2094757D16EA1F4449B","title":"法兰桥创意园区","lon":"121.488876103","lat":"31.2667803462","category":"119","category_name":"商场","address":"上海虹口区欧阳路196号"},{"poiid":"B2094757D06FABF5499E","title":"祥德路烤肉摊","lon":"121.48773","lat":"31.27113","category":"68","category_name":"快餐厅","address":"虹口区祥德路黑马雕塑下(欧阳路口)"},{"poiid":"B2094654D56CA0FB419C","title":"绿洲紫荆花园","lon":"121.48959","lat":"31.268484","category":"47","category_name":"住宅区","address":"上海市虹口区欧阳路289号"},{"poiid":"B2094757D069A2F84693","title":"巴黎贝甜(欧阳店)","lon":"121.48845857","lat":"31.266445989","category":"67","category_name":"甜品店","address":"虹口区欧阳路198号(近吉祥路)"},{"poiid":"B2094655D26AAAFD4492","title":"上海莫泰168连锁酒店四平路店","lon":"121.49122","lat":"31.26606","category":"250","category_name":"公园户外","address":"上海市虹口区四平路333号（近四达路）"},{"poiid":"B2094757D169A5FF439E","title":"知茵坊","lon":"121.4891937","lat":"31.266933649","category":"76","category_name":"上海菜","address":"虹口区欧阳路196弄22-23号"},{"poiid":"B2094757D468A4F8449A","title":"海尚香","lon":"121.488248","lat":"31.267171","category":"76","category_name":"上海菜","address":"虹口区欧阳路196号法兰桥创意园(近四平路)"},{"poiid":"B2094757D068A2F5479C","title":"南馨园酒店","lon":"121.48543489","lat":"31.268350135","category":"72","category_name":"广东菜","address":"虹口区山阴路277号(近鲁迅公园)"},{"poiid":"B2094757D06FABF9409F","title":"虹口区青少年活动中心","lon":"121.48973131","lat":"31.265364815","category":"260","category_name":"其他","address":"虹口区欧阳路67号(近四平路)"},{"poiid":"B2094757D06FA1FB459D","title":"四达路","lon":"121.48822784","lat":"31.267992019","category":"500","category_name":"未知分类","address":"上海四达路欧阳路"},{"poiid":"B2094654D56CA0FB4292","title":"虹口区第三中心幼儿园","lon":"121.4884","lat":"31.2677","category":"57","category_name":"幼儿园","address":"欧阳路273"},{"poiid":"B2094655D26AA3FF4992","title":"紫荆健身馆游泳池","lon":"121.48841","lat":"31.26834","category":"247","category_name":"餐饮美食","address":"虹口区欧阳路299号2楼(近四达路)"},{"poiid":"B2094655D26BA1FD489C","title":"欧阳路四达路","lon":"121.48802","lat":"31.26852","category":"38","category_name":"公交车站","address":""},{"poiid":"B2094757D06AA0FF479C","title":"85度C(欧阳店)","lon":"121.489107","lat":"31.2660613","category":"112","category_name":"糕饼店","address":"虹口区欧阳路196号1号楼1楼4-20室(近吉祥路)"},{"poiid":"B2094655D26EA5FA409A","title":"金美美容美发(虹口)","lon":"121.48833","lat":"31.2678","category":"148","category_name":"美容美发店","address":"虹口区欧阳路283号紫荆花园门口(近四达路)"},{"poiid":"B2094751D164AAFF479A","title":"虹桥机场2号","lon":"121.4883","lat":"31.26739","category":"500","category_name":"未知分类","address":null},{"poiid":"B2094654D56CA7F5459D","title":"方舟大厦","lon":"121.488","lat":"31.2708","category":"46","category_name":"楼宇","address":"上海市闵行区莲花南路1500弄"},{"poiid":"B2094655D269AAF4429D","title":"如家快捷酒店欧阳路店","lon":"121.48817","lat":"31.26579","category":"247","category_name":"餐饮美食","address":"上海市虹口区吉祥路69号(近欧阳路)"},{"poiid":"B2094757D064A0FD489A","title":"明杨豪苑","lon":"121.48762","lat":"31.267271","category":"47","category_name":"住宅区","address":"上海市虹口区欧阳路218号"},{"poiid":"B2094655D26FA6F5459E","title":"上海市虹口区欧阳地段医院","lon":"121.48887","lat":"31.26667","category":"162","category_name":"医院","address":"虹口区欧阳路149号(吉祥路四达路)"},{"poiid":"B2094654D56CA0FB499B","title":"欧阳路街道社区卫生服务中心","lon":"121.48888","lat":"31.26667","category":"162","category_name":"医院","address":"欧阳路149"},{"poiid":"B2094654D56CA0FB429D","title":"新东方泡泡少儿英语","lon":"121.48833","lat":"31.2678","category":"190","category_name":"培训机构","address":"虹口区欧阳路283号2楼(近鲁迅公园)"},{"poiid":"B2094654D56CA0F44299","title":"美玫美发","lon":"121.48892","lat":"31.26576","category":"148","category_name":"美容美发店","address":"欧阳路88"},{"poiid":"B2094757D66AA5FD4793","title":"次郎日式快餐 四平店","lon":"121.49134445846","lat":"31.265653123995","category":"68","category_name":"快餐厅","address":"虹口区四平路170号(近溧阳路)"},{"poiid":"B2094757D664AAFB4093","title":"西安美食餐馆","lon":"121.486905054","lat":"31.267279793","category":"68","category_name":"快餐厅","address":"虹口区宝安路296号(宝安路四达路)"},{"poiid":"B2094757D16CA0FE439C","title":"世博花园二期 馥敦坊","lon":"121.490123743","lat":"31.2679906114","category":"47","category_name":"住宅区","address":"上海市虹口区四达路58弄"},{"poiid":"B2094757D16AA4FF4893","title":"宠爱有家","lon":"121.48883819","lat":"31.266691207","category":"247","category_name":"餐饮美食","address":"上海虹口区欧阳路"},{"poiid":"B2094753D16CA5FC499E","title":"攀宇健身中心(欧阳路店)","lon":"121.4881","lat":"31.26819","category":"221","category_name":"健身中心","address":"虹口区欧阳路299弄(近祥德路)"},{"poiid":"B2094757D168A0FE4099","title":"100路欧阳路四达路站","lon":"121.488228","lat":"31.267992","category":"500","category_name":"未知分类","address":"上海虹口区欧阳路(近四达路)"},{"poiid":"B209475DD76AA3FB449B","title":"猫山王","lon":"121.487907","lat":"31.266302","category":"247","category_name":"餐饮美食","address":"上海市 甜爱路"},{"poiid":"B2094655D265A0FD429B","title":"郎克网吧","lon":"121.48841","lat":"31.26771","category":"248","category_name":"生活娱乐","address":"虹口区欧阳路273号2楼(近鲁迅公园)"},{"poiid":"B2094654D56CA0FB449C","title":"虹口区第三中心小学分部","lon":"121.49035","lat":"31.26765","category":"56","category_name":"小学","address":"四达路96"},{"poiid":"B2094757D66EA1F4479D","title":"江湾路幼儿园","lon":"121.488269103","lat":"31.2689943924","category":"57","category_name":"幼儿园","address":"虹口区山阴路303弄15号"},{"poiid":"B2094654D56CA0F4489F","title":"吉祥苑","lon":"121.48873","lat":"31.265705","category":"47","category_name":"住宅区","address":"上海市虹口区欧阳路90号(吉祥路口"},{"poiid":"B2094654D56CA0FB4692","title":"欧祥养老院","lon":"121.48868","lat":"31.26704","category":"207","category_name":"度假疗养场所","address":"欧阳路175号2层"},{"poiid":"B2094654D56CA0F44698","title":"金叶商楼","lon":"121.48673","lat":"31.267","category":"46","category_name":"楼宇","address":"宝安路272"},{"poiid":"B2094753D564A0FB469A","title":"鲁迅公园","lon":"121.488998","lat":"31.266696","category":"500","category_name":"未知分类","address":"上海市 上海虹口区甜爱路"},{"poiid":"B2094654D56CA0F44999","title":"明杨豪苑(东门)","lon":"121.48805","lat":"31.26754","category":"48","category_name":"楼宇大门","address":"欧阳路218弄1-3号"},{"poiid":"B2094757D16EA2FF469B","title":"8号线曲阳路站","lon":"121.489662103","lat":"31.264428297","category":"500","category_name":"未知分类","address":"上海曲阳路大连路"},{"poiid":"B2094655D26CA0F9429F","title":"四达路99弄小区(西门)","lon":"121.48992","lat":"31.26693","category":"47","category_name":"住宅区","address":"四达路99弄1-10号"},{"poiid":"B2094655D26CA0F84499","title":"四达路234弄小区(南门)","lon":"121.48675","lat":"31.26803","category":"47","category_name":"住宅区","address":"四达路234弄1-6号"},{"poiid":"B2094757D069A2F54398","title":"ART OF MEDITERRANEAN","lon":"121.4866609","lat":"31.266087731","category":"184","category_name":"美术馆","address":"上海虹口区欧阳路196号法兰桥创意园4号楼B座区底座"},{"poiid":"B2094655D26CA1FA4098","title":"四达路99弄小区","lon":"121.49016","lat":"31.26697","category":"47","category_name":"住宅区","address":"四达路99弄1-10号"},{"poiid":"B2094654D56CA0F44993","title":"上海宏阳物业有限公司","lon":"121.48754","lat":"31.26814","category":"263","category_name":"公司","address":"四达路200"},{"poiid":"B2094654D56CA0F4429E","title":"华氏大药房欧阳路药房","lon":"121.48889","lat":"31.26581","category":"162","category_name":"医院","address":"欧阳路90"},{"poiid":"B2094654D56CA5FD449A","title":"鑫成大楼","lon":"121.486","lat":"31.267","category":"46","category_name":"楼宇","address":"宝山路746号"},{"poiid":"B2094750D564A3F4429F","title":"中梁海伦国际","lon":"121.485882","lat":"31.267202","category":"47","category_name":"住宅区","address":"宝山路748号"},{"poiid":"B2094757D16CA3FB4692","title":"930私房菜(欧阳路店)","lon":"121.489328103","lat":"31.2680273722","category":"76","category_name":"上海菜","address":"虹口区欧阳路196号1号楼3楼(近四达路)"},{"poiid":"B2094655D26BA1FD489E","title":"欧阳路祥德路","lon":"121.48724","lat":"31.27109","category":"38","category_name":"公交车站","address":""},{"poiid":"B2094757D06FABFD459D","title":"荣欣大厦","lon":"121.490138","lat":"31.26684","category":"252","category_name":"楼宇机构","address":"上海市四川北路1851号"},{"poiid":"B2094757D16EA1F4449B","title":"法兰桥创意园区","lon":"121.488876103","lat":"31.2667803462","category":"119","category_name":"商场","address":"上海虹口区欧阳路196号"},{"poiid":"B2094757D06FABF5499E","title":"祥德路烤肉摊","lon":"121.48773","lat":"31.27113","category":"68","category_name":"快餐厅","address":"虹口区祥德路黑马雕塑下(欧阳路口)"},{"poiid":"B2094654D56CA0FB419C","title":"绿洲紫荆花园","lon":"121.48959","lat":"31.268484","category":"47","category_name":"住宅区","address":"上海市虹口区欧阳路289号"},{"poiid":"B2094757D069A2F84693","title":"巴黎贝甜(欧阳店)","lon":"121.48845857","lat":"31.266445989","category":"67","category_name":"甜品店","address":"虹口区欧阳路198号(近吉祥路)"},{"poiid":"B2094655D26AAAFD4492","title":"上海莫泰168连锁酒店四平路店","lon":"121.49122","lat":"31.26606","category":"250","category_name":"公园户外","address":"上海市虹口区四平路333号（近四达路）"},{"poiid":"B2094757D169A5FF439E","title":"知茵坊","lon":"121.4891937","lat":"31.266933649","category":"76","category_name":"上海菜","address":"虹口区欧阳路196弄22-23号"},{"poiid":"B2094757D468A4F8449A","title":"海尚香","lon":"121.488248","lat":"31.267171","category":"76","category_name":"上海菜","address":"虹口区欧阳路196号法兰桥创意园(近四平路)"},{"poiid":"B2094757D068A2F5479C","title":"南馨园酒店","lon":"121.48543489","lat":"31.268350135","category":"72","category_name":"广东菜","address":"虹口区山阴路277号(近鲁迅公园)"},{"poiid":"B2094757D06FABF9409F","title":"虹口区青少年活动中心","lon":"121.48973131","lat":"31.265364815","category":"260","category_name":"其他","address":"虹口区欧阳路67号(近四平路)"},{"poiid":"B2094757D06FA1FB459D","title":"四达路","lon":"121.48822784","lat":"31.267992019","category":"500","category_name":"未知分类","address":"上海四达路欧阳路"},{"poiid":"B2094654D56CA0FB4292","title":"虹口区第三中心幼儿园","lon":"121.4884","lat":"31.2677","category":"57","category_name":"幼儿园","address":"欧阳路273"},{"poiid":"B2094655D26AA3FF4992","title":"紫荆健身馆游泳池","lon":"121.48841","lat":"31.26834","category":"247","category_name":"餐饮美食","address":"虹口区欧阳路299号2楼(近四达路)"},{"poiid":"B2094655D26BA1FD489C","title":"欧阳路四达路","lon":"121.48802","lat":"31.26852","category":"38","category_name":"公交车站","address":""},{"poiid":"B2094757D06AA0FF479C","title":"85度C(欧阳店)","lon":"121.489107","lat":"31.2660613","category":"112","category_name":"糕饼店","address":"虹口区欧阳路196号1号楼1楼4-20室(近吉祥路)"},{"poiid":"B2094655D26EA5FA409A","title":"金美美容美发(虹口)","lon":"121.48833","lat":"31.2678","category":"148","category_name":"美容美发店","address":"虹口区欧阳路283号紫荆花园门口(近四达路)"},{"poiid":"B2094751D164AAFF479A","title":"虹桥机场2号","lon":"121.4883","lat":"31.26739","category":"500","category_name":"未知分类","address":null},{"poiid":"B2094654D56CA7F5459D","title":"方舟大厦","lon":"121.488","lat":"31.2708","category":"46","category_name":"楼宇","address":"上海市闵行区莲花南路1500弄"},{"poiid":"B2094655D269AAF4429D","title":"如家快捷酒店欧阳路店","lon":"121.48817","lat":"31.26579","category":"247","category_name":"餐饮美食","address":"上海市虹口区吉祥路69号(近欧阳路)"},{"poiid":"B2094757D064A0FD489A","title":"明杨豪苑","lon":"121.48762","lat":"31.267271","category":"47","category_name":"住宅区","address":"上海市虹口区欧阳路218号"},{"poiid":"B2094655D26FA6F5459E","title":"上海市虹口区欧阳地段医院","lon":"121.48887","lat":"31.26667","category":"162","category_name":"医院","address":"虹口区欧阳路149号(吉祥路四达路)"},{"poiid":"B2094654D56CA0FB499B","title":"欧阳路街道社区卫生服务中心","lon":"121.48888","lat":"31.26667","category":"162","category_name":"医院","address":"欧阳路149"},{"poiid":"B2094654D56CA0FB429D","title":"新东方泡泡少儿英语","lon":"121.48833","lat":"31.2678","category":"190","category_name":"培训机构","address":"虹口区欧阳路283号2楼(近鲁迅公园)"},{"poiid":"B2094654D56CA0F44299","title":"美玫美发","lon":"121.48892","lat":"31.26576","category":"148","category_name":"美容美发店","address":"欧阳路88"},{"poiid":"B2094757D66AA5FD4793","title":"次郎日式快餐 四平店","lon":"121.49134445846","lat":"31.265653123995","category":"68","category_name":"快餐厅","address":"虹口区四平路170号(近溧阳路)"},{"poiid":"B2094757D664AAFB4093","title":"西安美食餐馆","lon":"121.486905054","lat":"31.267279793","category":"68","category_name":"快餐厅","address":"虹口区宝安路296号(宝安路四达路)"},{"poiid":"B2094757D16CA0FE439C","title":"世博花园二期 馥敦坊","lon":"121.490123743","lat":"31.2679906114","category":"47","category_name":"住宅区","address":"上海市虹口区四达路58弄"},{"poiid":"B2094757D16AA4FF4893","title":"宠爱有家","lon":"121.48883819","lat":"31.266691207","category":"247","category_name":"餐饮美食","address":"上海虹口区欧阳路"},{"poiid":"B2094753D16CA5FC499E","title":"攀宇健身中心(欧阳路店)","lon":"121.4881","lat":"31.26819","category":"221","category_name":"健身中心","address":"虹口区欧阳路299弄(近祥德路)"},{"poiid":"B2094757D168A0FE4099","title":"100路欧阳路四达路站","lon":"121.488228","lat":"31.267992","category":"500","category_name":"未知分类","address":"上海虹口区欧阳路(近四达路)"},{"poiid":"B209475DD76AA3FB449B","title":"猫山王","lon":"121.487907","lat":"31.266302","category":"247","category_name":"餐饮美食","address":"上海市 甜爱路"},{"poiid":"B2094655D265A0FD429B","title":"郎克网吧","lon":"121.48841","lat":"31.26771","category":"248","category_name":"生活娱乐","address":"虹口区欧阳路273号2楼(近鲁迅公园)"},{"poiid":"B2094654D56CA0FB449C","title":"虹口区第三中心小学分部","lon":"121.49035","lat":"31.26765","category":"56","category_name":"小学","address":"四达路96"},{"poiid":"B2094757D66EA1F4479D","title":"江湾路幼儿园","lon":"121.488269103","lat":"31.2689943924","category":"57","category_name":"幼儿园","address":"虹口区山阴路303弄15号"},{"poiid":"B2094654D56CA0F4489F","title":"吉祥苑","lon":"121.48873","lat":"31.265705","category":"47","category_name":"住宅区","address":"上海市虹口区欧阳路90号(吉祥路口"},{"poiid":"B2094654D56CA0FB4692","title":"欧祥养老院","lon":"121.48868","lat":"31.26704","category":"207","category_name":"度假疗养场所","address":"欧阳路175号2层"},{"poiid":"B2094654D56CA0F44698","title":"金叶商楼","lon":"121.48673","lat":"31.267","category":"46","category_name":"楼宇","address":"宝安路272"},{"poiid":"B2094753D564A0FB469A","title":"鲁迅公园","lon":"121.488998","lat":"31.266696","category":"500","category_name":"未知分类","address":"上海市 上海虹口区甜爱路"},{"poiid":"B2094654D56CA0F44999","title":"明杨豪苑(东门)","lon":"121.48805","lat":"31.26754","category":"48","category_name":"楼宇大门","address":"欧阳路218弄1-3号"},{"poiid":"B2094757D16EA2FF469B","title":"8号线曲阳路站","lon":"121.489662103","lat":"31.264428297","category":"500","category_name":"未知分类","address":"上海曲阳路大连路"},{"poiid":"B2094655D26CA0F9429F","title":"四达路99弄小区(西门)","lon":"121.48992","lat":"31.26693","category":"47","category_name":"住宅区","address":"四达路99弄1-10号"},{"poiid":"B2094655D26CA0F84499","title":"四达路234弄小区(南门)","lon":"121.48675","lat":"31.26803","category":"47","category_name":"住宅区","address":"四达路234弄1-6号"},{"poiid":"B2094757D069A2F54398","title":"ART OF MEDITERRANEAN","lon":"121.4866609","lat":"31.266087731","category":"184","category_name":"美术馆","address":"上海虹口区欧阳路196号法兰桥创意园4号楼B座区底座"},{"poiid":"B2094655D26CA1FA4098","title":"四达路99弄小区","lon":"121.49016","lat":"31.26697","category":"47","category_name":"住宅区","address":"四达路99弄1-10号"},{"poiid":"B2094654D56CA0F44993","title":"上海宏阳物业有限公司","lon":"121.48754","lat":"31.26814","category":"263","category_name":"公司","address":"四达路200"},{"poiid":"B2094654D56CA0F4429E","title":"华氏大药房欧阳路药房","lon":"121.48889","lat":"31.26581","category":"162","category_name":"医院","address":"欧阳路90"},{"poiid":"B2094654D56CA5FD449A","title":"鑫成大楼","lon":"121.486","lat":"31.267","category":"46","category_name":"楼宇","address":"宝山路746号"},{"poiid":"B2094750D564A3F4429F","title":"中梁海伦国际","lon":"121.485882","lat":"31.267202","category":"47","category_name":"住宅区","address":"宝山路748号"}]