[{"poiid":"B2094757D06FABFB479E","title":"上海鲜花港","lon":"121.90154981","lat":"30.946320273","category":"198","category_name":"植物园","address":"浦东新区东海农场振东路2号(近两港大道)"},{"poiid":"B2094757D06FA0FA469D","title":"滨海森林公园","lon":"121.911233048","lat":"30.9699341393","category":"196","category_name":"公园","address":"浦东新区滨海镇滨海旅游度假区东大公路5366号(滨海高尔夫球场对面)"},{"poiid":"B2094654DB68A1FD4793","title":"上海市东海老年护理医院","lon":"121.906485","lat":"30.95237","category":"162","category_name":"医院","address":"浦东新区三三公路5020弄8号(近鲜花港)"},{"poiid":"B2094654DB68A1FD4792","title":"东海影视乐园","lon":"121.90741","lat":"30.95148","category":"250","category_name":"公园户外","address":"东海农场"},{"poiid":"B2094757D66DA7F8439B","title":"海燕农家乐","lon":"121.90835568","lat":"30.955884462","category":"247","category_name":"餐饮美食","address":"上海东海农场三三公路5888号"},{"poiid":"B2094654DB68A1FE4092","title":"上海市东海老年护理医院生活服务中心","lon":"121.90604","lat":"30.95434","category":"162","category_name":"医院","address":"三三公路5053号"},{"poiid":"B2094654DB68A1FD4892","title":"东海影剧院","lon":"121.90578","lat":"30.953899","category":"178","category_name":"电影院","address":"三三公路"},{"poiid":"B2094654DB64ABFA4098","title":"徐淮人家","lon":"121.90585","lat":"30.9539","category":"257","category_name":"中餐厅","address":"浦东新区三三公路(近振东路)"},{"poiid":"B2094750DB6AA0FB439B","title":"东海农场","lon":"121.91205408566","lat":"30.961151647316","category":"500","category_name":"未知分类","address":"三三公路振东路"},{"poiid":"B2094654DB64A0F5449E","title":"今日学校","lon":"121.90317","lat":"30.95372","category":"55","category_name":"中学","address":"浦东新区南汇东海农场三三公路4958号"},{"poiid":"B2094655D36CA6FB459C","title":"东海农场鲜花港","lon":"121.90159","lat":"30.94822","category":"38","category_name":"公交车站","address":""},{"poiid":"B2094655D36CA2FB4198","title":"三三公路振东路","lon":"121.90097","lat":"30.95385","category":"38","category_name":"公交车站","address":""},{"poiid":"B2094654DB68A1FE409C","title":"中国农业银行南汇区东场支行","lon":"121.9056","lat":"30.95429","category":"150","category_name":"银行","address":"浦东新区东海农场三三公路5051号"},{"poiid":"B2094757D569A1FC429F","title":"东海园艺","lon":"121.901351","lat":"30.94823","category":"260","category_name":"其他","address":"中国上海市浦东新区振东路"},{"poiid":"B2094757D169A7F44693","title":"龙东线","lon":"121.926463087","lat":"30.9505317321","category":"500","category_name":"未知分类","address":"上海龙阳路地铁站——东海农场"},{"poiid":"B2094757D168A5FE499A","title":"普露湾休闲园","lon":"121.89982225","lat":"30.938067683","category":"500","category_name":"未知分类","address":"上海临港新城杞青路"},{"poiid":"B2094655D36CA2FB4199","title":"三三公路职工医院","lon":"121.89345","lat":"30.95425","category":"162","category_name":"医院","address":""}]