[{"poiid":"B2094757D06FA2F9469B","title":"阿木龙虾(包头南路店)","lon":"121.54139","lat":"31.29733","category":"68","category_name":"快餐厅","address":"杨浦区包头南路79号(近佳木斯路)"},{"poiid":"B2094757D16CAAF54892","title":"220辣肉面","lon":"121.539733103","lat":"31.2998050366","category":"500","category_name":"未知分类","address":"上海市杨浦区松花江路2号"},{"poiid":"B2094757D06FA3FC4398","title":"汤豪仕汤馆 国顺店","lon":"121.535952054","lat":"31.300504793","category":"76","category_name":"上海菜","address":"杨浦区国顺东路180号(近沙岗路)"},{"poiid":"B2094757D06FA7F84293","title":"肯德基 KFC (国顺店)","lon":"121.536208","lat":"31.300525","category":"68","category_name":"快餐厅","address":"杨浦区国顺东路180号(近沙岗路)"},{"poiid":"B2094757D06FA1FF4198","title":"深山老屋(国顺店)","lon":"121.53643","lat":"31.30035","category":"260","category_name":"其他","address":"杨浦区沙岗路632号(国顺东路口)"},{"poiid":"B2094757D06FA7FB409F","title":"佳龙花园","lon":"121.53535","lat":"31.296806","category":"47","category_name":"住宅区","address":"上海市营口路600弄"},{"poiid":"B2094757D06FA0FD4798","title":"佳木斯路","lon":"121.540633895","lat":"31.2981333784","category":"627","category_name":"一般地点标志","address":"上海佳木斯路"},{"poiid":"B2094757D06FA4FE469D","title":"海尚杰座","lon":"121.541221","lat":"31.300634","category":"47","category_name":"住宅区","address":"越秀区环市东路362-366号"},{"poiid":"B2094655D26DABFB419C","title":"黄兴绿园(国顺东路)","lon":"121.53826","lat":"31.30028","category":"47","category_name":"住宅区","address":"国顺东路179弄"},{"poiid":"B2094757D068A4FB4592","title":"颐风茶道","lon":"121.53686","lat":"31.29993","category":"260","category_name":"其他","address":"杨浦区沙岗路588号(国顺东路沙岗路)"},{"poiid":"B2094654D56FA6FA429A","title":"杨浦欣园","lon":"121.5403","lat":"31.300959","category":"47","category_name":"住宅区","address":"上海市杨浦区包头南路629弄"},{"poiid":"B2094757D069ABFF469B","title":"复旦实验中学","lon":"121.53719","lat":"31.30388","category":"55","category_name":"中学","address":"杨浦区安波路151号"},{"poiid":"B2094654D56FA6FB4898","title":"白玉兰环保广场","lon":"121.54223583627","lat":"31.298838786782","category":"46","category_name":"楼宇","address":"上海杨浦区松花江路251弄"},{"poiid":"B2094757D069A6FD409E","title":"豪享来上海国顺店","lon":"121.5358","lat":"31.3013","category":"247","category_name":"餐饮美食","address":"上海市杨浦区沙岗路620号国顺东路店"},{"poiid":"B2094757D069A5F9499E","title":"国顺东路沙岗路","lon":"121.537473","lat":"31.301165","category":"500","category_name":"未知分类","address":"上海国顺东路沙岗路"},{"poiid":"B2094757D069AAFE429F","title":"哈达瑜伽会所(佳木斯路店)","lon":"121.537234491","lat":"31.2958221136","category":"148","category_name":"美容美发店","address":"杨浦区佳木斯路358号2楼(近营口路)"},{"poiid":"B2094757D06FAAFA449A","title":"浣沙三村","lon":"121.53683","lat":"31.302334","category":"252","category_name":"楼宇机构","address":"上海杨浦区沙岗路国顺东路"},{"poiid":"B2094750D664A7FB439D","title":"都可茶饮(靖宇东路店)","lon":"121.53603","lat":"31.30038","category":"113","category_name":"冷饮店","address":"杨浦区国顺东路200-3号(近沙岗路)"},{"poiid":"B2094757D468A3FD439C","title":"凡仔汉堡 国顺东路店","lon":"121.538255","lat":"31.301569","category":"68","category_name":"快餐厅","address":"杨浦区国顺东路153号(近复旦实验中学)"},{"poiid":"B2094757D068A7FB4598","title":"上海800号美术馆","lon":"121.53504","lat":"31.29969","category":"179","category_name":"音乐厅","address":"杨浦区国顺东路800号黄兴公园东楼1楼(近双阳北路)"},{"poiid":"B2094655D26DA6FA489E","title":"东北福农家菜","lon":"121.537024054","lat":"31.301260793","category":"82","category_name":"东北菜","address":"杨浦区国顺东路102号(近包头南路)"},{"poiid":"B2094757D06BA4FB499F","title":"133路终点站","lon":"121.53663756","lat":"31.300757225","category":"38","category_name":"公交车站","address":"上海国顺东路沙岗路"},{"poiid":"B2094757D06AABF5419E","title":"重庆鸡公煲 国顺东路店","lon":"121.53605708498","lat":"31.300342585043","category":"71","category_name":"四川菜","address":"杨浦区国顺东路221号(近沙岗路)"},{"poiid":"B2094654D56FA6FA409B","title":"申之春(国顺东路)","lon":"121.53786","lat":"31.30124","category":"148","category_name":"美容美发店","address":"国顺东路173"},{"poiid":"B2094655D26FA1F4489F","title":"好德No.3038","lon":"121.53746","lat":"31.30096","category":"117","category_name":"便民商店/便利店","address":"国顺东路183-2识别"},{"poiid":"B2094654D56FA6F9499C","title":"名角女士生活馆NO.4568","lon":"121.53749","lat":"31.30099","category":"148","category_name":"美容美发店","address":""},{"poiid":"B2094757D069ABFF429A","title":"法国UWANTART当代画廊","lon":"121.5354","lat":"31.29991","category":"179","category_name":"音乐厅","address":"杨浦区国顺东路800号艺术园区三楼303-305室(近双阳北路)"},{"poiid":"B2094654D56FA6F4469F","title":"营口大厦","lon":"121.54","lat":"31.299","category":"46","category_name":"楼宇","address":"上海营口路625弄"},{"poiid":"B2094757D06FA4FB469D","title":"浣沙五村","lon":"121.54","lat":"31.3047","category":"47","category_name":"住宅区","address":"上海杨浦区沙岗路689号(近国顺东路)"},{"poiid":"B2094654D56FAAF8499E","title":"罗森(国顺东路)","lon":"121.5374","lat":"31.30148","category":"117","category_name":"便民商店/便利店","address":"国顺东路106"},{"poiid":"B2094757D16AA3FF4699","title":"营口路","lon":"121.5367481","lat":"31.298007999","category":"500","category_name":"未知分类","address":"上海市杨浦区营口路"},{"poiid":"B2094655D26BA0F84993","title":"速8酒店","lon":"121.53987","lat":"31.30129","category":"216","category_name":"经济型连锁酒店","address":""},{"poiid":"B2094757DA6EAAF44299","title":"老北京刷锅","lon":"121.537725100003","lat":"31.3014710999999","category":"247","category_name":"餐饮美食","address":"杨浦区国顺东路96号(近包头路)"},{"poiid":"B2094655D26AA2F9489D","title":"来伊份 国顺东路店","lon":"121.535631","lat":"31.300643","category":"68","category_name":"快餐厅","address":"杨浦区国顺东路225号(近沙岗路)"},{"poiid":"B2094752D369A3F4449C","title":"万达广场","lon":"121.538368","lat":"31.29781","category":"247","category_name":"餐饮美食","address":"五角场万达广场第一食品商店二楼"},{"poiid":"B2094654D56FA6FA4793","title":"好福楼 佳木斯路店","lon":"121.53954371687","lat":"31.297246446067","category":"76","category_name":"上海菜","address":"杨浦区佳木斯路265号(近包头南路)"},{"poiid":"B2094654DB6BA2FB4499","title":"光明便利(国顺东路)","lon":"121.53718","lat":"31.30134","category":"117","category_name":"便民商店/便利店","address":"国顺东路126"},{"poiid":"B2094655D26CA5FA469F","title":"快客No.5181","lon":"121.53957","lat":"31.30074","category":"117","category_name":"便民商店/便利店","address":"包头南路631-633"},{"poiid":"B2094757D169A3F4419B","title":"yoka发型工作室","lon":"121.537456","lat":"31.300964","category":"148","category_name":"美容美发店","address":"上海国顺东路183号"},{"poiid":"B2094655D26FA0FA489E","title":"黄兴绿园西门(包头南路)","lon":"121.53973","lat":"31.30161","category":"47","category_name":"住宅区","address":"包头南路688弄1-5号"},{"poiid":"B2094654D56FA6FA409C","title":"雅卓女子SPA芳香美疗苑","lon":"121.5382","lat":"31.30154","category":"148","category_name":"美容美发店","address":"杨浦区国顺东路157号(近包头路)"},{"poiid":"B2094757DA6FA3F44298","title":"鸡排超人(黄兴公园店)","lon":"121.534342999999","lat":"31.2990749999998","category":"68","category_name":"快餐厅","address":"杨浦区国顺东路237号(近营口路)"},{"poiid":"B2094654D56FAAF8419A","title":"兰馨雅苑","lon":"121.53355","lat":"31.301998","category":"47","category_name":"住宅区","address":"上海市杨浦区安波路297号(营口路)"},{"poiid":"B2094757D16EA6F4459F","title":"胖阿姨正宗朝鲜冷面 包头南路店","lon":"121.53872","lat":"31.30631","category":"96","category_name":"韩国料理","address":"杨浦区包头南路988号(近翔殷路)"},{"poiid":"B2094654D56FAAF84992","title":"杨浦区笑迎百货店","lon":"121.53768","lat":"31.30174","category":"117","category_name":"便民商店/便利店","address":"国顺东路98-6"},{"poiid":"B2094757D064ABF9429F","title":"七年八班烧烤店","lon":"121.5360067","lat":"31.300672354","category":"247","category_name":"餐饮美食","address":"上海长清路77号"},{"poiid":"B2094655D36CA4FC459C","title":"包头南路国顺东路","lon":"121.53886","lat":"31.30317","category":"38","category_name":"公交车站","address":""},{"poiid":"B209475CD36AA0FA4192","title":"小南国花园酒店ADD西餐厅","lon":"121.539173","lat":"31.298171","category":"268","category_name":"自助","address":"佳木斯路777号小南国花园酒店3楼(近营口路)"},{"poiid":"B2094757D16DA0FA4793","title":"罗森 国顺路店","lon":"121.535568237","lat":"31.2999038696","category":"117","category_name":"便民商店/便利店","address":"上海国顺路209号"},{"poiid":"B2094654D56FAAF84999","title":"羽弦琴行","lon":"121.53734","lat":"31.30145","category":"255","category_name":"专卖店","address":"国顺东路108号"},{"poiid":"B2094757D06FA2F9469B","title":"阿木龙虾(包头南路店)","lon":"121.54139","lat":"31.29733","category":"68","category_name":"快餐厅","address":"杨浦区包头南路79号(近佳木斯路)"},{"poiid":"B2094757D16CAAF54892","title":"220辣肉面","lon":"121.539733103","lat":"31.2998050366","category":"500","category_name":"未知分类","address":"上海市杨浦区松花江路2号"},{"poiid":"B2094757D06FA3FC4398","title":"汤豪仕汤馆 国顺店","lon":"121.535952054","lat":"31.300504793","category":"76","category_name":"上海菜","address":"杨浦区国顺东路180号(近沙岗路)"},{"poiid":"B2094757D06FA7F84293","title":"肯德基 KFC (国顺店)","lon":"121.536208","lat":"31.300525","category":"68","category_name":"快餐厅","address":"杨浦区国顺东路180号(近沙岗路)"},{"poiid":"B2094757D06FA1FF4198","title":"深山老屋(国顺店)","lon":"121.53643","lat":"31.30035","category":"260","category_name":"其他","address":"杨浦区沙岗路632号(国顺东路口)"},{"poiid":"B2094757D06FA7FB409F","title":"佳龙花园","lon":"121.53535","lat":"31.296806","category":"47","category_name":"住宅区","address":"上海市营口路600弄"},{"poiid":"B2094757D06FA0FD4798","title":"佳木斯路","lon":"121.540633895","lat":"31.2981333784","category":"627","category_name":"一般地点标志","address":"上海佳木斯路"},{"poiid":"B2094757D06FA4FE469D","title":"海尚杰座","lon":"121.541221","lat":"31.300634","category":"47","category_name":"住宅区","address":"越秀区环市东路362-366号"},{"poiid":"B2094655D26DABFB419C","title":"黄兴绿园(国顺东路)","lon":"121.53826","lat":"31.30028","category":"47","category_name":"住宅区","address":"国顺东路179弄"},{"poiid":"B2094757D068A4FB4592","title":"颐风茶道","lon":"121.53686","lat":"31.29993","category":"260","category_name":"其他","address":"杨浦区沙岗路588号(国顺东路沙岗路)"},{"poiid":"B2094654D56FA6FA429A","title":"杨浦欣园","lon":"121.5403","lat":"31.300959","category":"47","category_name":"住宅区","address":"上海市杨浦区包头南路629弄"},{"poiid":"B2094757D069ABFF469B","title":"复旦实验中学","lon":"121.53719","lat":"31.30388","category":"55","category_name":"中学","address":"杨浦区安波路151号"},{"poiid":"B2094654D56FA6FB4898","title":"白玉兰环保广场","lon":"121.54223583627","lat":"31.298838786782","category":"46","category_name":"楼宇","address":"上海杨浦区松花江路251弄"},{"poiid":"B2094757D069A6FD409E","title":"豪享来上海国顺店","lon":"121.5358","lat":"31.3013","category":"247","category_name":"餐饮美食","address":"上海市杨浦区沙岗路620号国顺东路店"},{"poiid":"B2094757D069A5F9499E","title":"国顺东路沙岗路","lon":"121.537473","lat":"31.301165","category":"500","category_name":"未知分类","address":"上海国顺东路沙岗路"},{"poiid":"B2094757D069AAFE429F","title":"哈达瑜伽会所(佳木斯路店)","lon":"121.537234491","lat":"31.2958221136","category":"148","category_name":"美容美发店","address":"杨浦区佳木斯路358号2楼(近营口路)"},{"poiid":"B2094757D06FAAFA449A","title":"浣沙三村","lon":"121.53683","lat":"31.302334","category":"252","category_name":"楼宇机构","address":"上海杨浦区沙岗路国顺东路"},{"poiid":"B2094750D664A7FB439D","title":"都可茶饮(靖宇东路店)","lon":"121.53603","lat":"31.30038","category":"113","category_name":"冷饮店","address":"杨浦区国顺东路200-3号(近沙岗路)"},{"poiid":"B2094757D468A3FD439C","title":"凡仔汉堡 国顺东路店","lon":"121.538255","lat":"31.301569","category":"68","category_name":"快餐厅","address":"杨浦区国顺东路153号(近复旦实验中学)"},{"poiid":"B2094757D068A7FB4598","title":"上海800号美术馆","lon":"121.53504","lat":"31.29969","category":"179","category_name":"音乐厅","address":"杨浦区国顺东路800号黄兴公园东楼1楼(近双阳北路)"},{"poiid":"B2094655D26DA6FA489E","title":"东北福农家菜","lon":"121.537024054","lat":"31.301260793","category":"82","category_name":"东北菜","address":"杨浦区国顺东路102号(近包头南路)"},{"poiid":"B2094757D06BA4FB499F","title":"133路终点站","lon":"121.53663756","lat":"31.300757225","category":"38","category_name":"公交车站","address":"上海国顺东路沙岗路"},{"poiid":"B2094757D06AABF5419E","title":"重庆鸡公煲 国顺东路店","lon":"121.53605708498","lat":"31.300342585043","category":"71","category_name":"四川菜","address":"杨浦区国顺东路221号(近沙岗路)"},{"poiid":"B2094654D56FA6FA409B","title":"申之春(国顺东路)","lon":"121.53786","lat":"31.30124","category":"148","category_name":"美容美发店","address":"国顺东路173"},{"poiid":"B2094655D26FA1F4489F","title":"好德No.3038","lon":"121.53746","lat":"31.30096","category":"117","category_name":"便民商店/便利店","address":"国顺东路183-2识别"},{"poiid":"B2094654D56FA6F9499C","title":"名角女士生活馆NO.4568","lon":"121.53749","lat":"31.30099","category":"148","category_name":"美容美发店","address":""},{"poiid":"B2094757D069ABFF429A","title":"法国UWANTART当代画廊","lon":"121.5354","lat":"31.29991","category":"179","category_name":"音乐厅","address":"杨浦区国顺东路800号艺术园区三楼303-305室(近双阳北路)"},{"poiid":"B2094654D56FA6F4469F","title":"营口大厦","lon":"121.54","lat":"31.299","category":"46","category_name":"楼宇","address":"上海营口路625弄"},{"poiid":"B2094757D06FA4FB469D","title":"浣沙五村","lon":"121.54","lat":"31.3047","category":"47","category_name":"住宅区","address":"上海杨浦区沙岗路689号(近国顺东路)"},{"poiid":"B2094654D56FAAF8499E","title":"罗森(国顺东路)","lon":"121.5374","lat":"31.30148","category":"117","category_name":"便民商店/便利店","address":"国顺东路106"},{"poiid":"B2094757D16AA3FF4699","title":"营口路","lon":"121.5367481","lat":"31.298007999","category":"500","category_name":"未知分类","address":"上海市杨浦区营口路"},{"poiid":"B2094655D26BA0F84993","title":"速8酒店","lon":"121.53987","lat":"31.30129","category":"216","category_name":"经济型连锁酒店","address":""},{"poiid":"B2094757DA6EAAF44299","title":"老北京刷锅","lon":"121.537725100003","lat":"31.3014710999999","category":"247","category_name":"餐饮美食","address":"杨浦区国顺东路96号(近包头路)"},{"poiid":"B2094655D26AA2F9489D","title":"来伊份 国顺东路店","lon":"121.535631","lat":"31.300643","category":"68","category_name":"快餐厅","address":"杨浦区国顺东路225号(近沙岗路)"},{"poiid":"B2094752D369A3F4449C","title":"万达广场","lon":"121.538368","lat":"31.29781","category":"247","category_name":"餐饮美食","address":"五角场万达广场第一食品商店二楼"},{"poiid":"B2094654D56FA6FA4793","title":"好福楼 佳木斯路店","lon":"121.53954371687","lat":"31.297246446067","category":"76","category_name":"上海菜","address":"杨浦区佳木斯路265号(近包头南路)"},{"poiid":"B2094654DB6BA2FB4499","title":"光明便利(国顺东路)","lon":"121.53718","lat":"31.30134","category":"117","category_name":"便民商店/便利店","address":"国顺东路126"},{"poiid":"B2094655D26CA5FA469F","title":"快客No.5181","lon":"121.53957","lat":"31.30074","category":"117","category_name":"便民商店/便利店","address":"包头南路631-633"},{"poiid":"B2094757D169A3F4419B","title":"yoka发型工作室","lon":"121.537456","lat":"31.300964","category":"148","category_name":"美容美发店","address":"上海国顺东路183号"},{"poiid":"B2094655D26FA0FA489E","title":"黄兴绿园西门(包头南路)","lon":"121.53973","lat":"31.30161","category":"47","category_name":"住宅区","address":"包头南路688弄1-5号"},{"poiid":"B2094654D56FA6FA409C","title":"雅卓女子SPA芳香美疗苑","lon":"121.5382","lat":"31.30154","category":"148","category_name":"美容美发店","address":"杨浦区国顺东路157号(近包头路)"},{"poiid":"B2094757DA6FA3F44298","title":"鸡排超人(黄兴公园店)","lon":"121.534342999999","lat":"31.2990749999998","category":"68","category_name":"快餐厅","address":"杨浦区国顺东路237号(近营口路)"},{"poiid":"B2094654D56FAAF8419A","title":"兰馨雅苑","lon":"121.53355","lat":"31.301998","category":"47","category_name":"住宅区","address":"上海市杨浦区安波路297号(营口路)"},{"poiid":"B2094757D16EA6F4459F","title":"胖阿姨正宗朝鲜冷面 包头南路店","lon":"121.53872","lat":"31.30631","category":"96","category_name":"韩国料理","address":"杨浦区包头南路988号(近翔殷路)"},{"poiid":"B2094654D56FAAF84992","title":"杨浦区笑迎百货店","lon":"121.53768","lat":"31.30174","category":"117","category_name":"便民商店/便利店","address":"国顺东路98-6"},{"poiid":"B2094757D064ABF9429F","title":"七年八班烧烤店","lon":"121.5360067","lat":"31.300672354","category":"247","category_name":"餐饮美食","address":"上海长清路77号"},{"poiid":"B2094655D36CA4FC459C","title":"包头南路国顺东路","lon":"121.53886","lat":"31.30317","category":"38","category_name":"公交车站","address":""},{"poiid":"B209475CD36AA0FA4192","title":"小南国花园酒店ADD西餐厅","lon":"121.539173","lat":"31.298171","category":"268","category_name":"自助","address":"佳木斯路777号小南国花园酒店3楼(近营口路)"},{"poiid":"B2094757D16DA0FA4793","title":"罗森 国顺路店","lon":"121.535568237","lat":"31.2999038696","category":"117","category_name":"便民商店/便利店","address":"上海国顺路209号"},{"poiid":"B2094654D56FAAF84999","title":"羽弦琴行","lon":"121.53734","lat":"31.30145","category":"255","category_name":"专卖店","address":"国顺东路108号"},{"poiid":"B2094757D06FA2F9469B","title":"阿木龙虾(包头南路店)","lon":"121.54139","lat":"31.29733","category":"68","category_name":"快餐厅","address":"杨浦区包头南路79号(近佳木斯路)"},{"poiid":"B2094757D16CAAF54892","title":"220辣肉面","lon":"121.539733103","lat":"31.2998050366","category":"500","category_name":"未知分类","address":"上海市杨浦区松花江路2号"},{"poiid":"B2094757D06FA3FC4398","title":"汤豪仕汤馆 国顺店","lon":"121.535952054","lat":"31.300504793","category":"76","category_name":"上海菜","address":"杨浦区国顺东路180号(近沙岗路)"},{"poiid":"B2094757D06FA7F84293","title":"肯德基 KFC (国顺店)","lon":"121.536208","lat":"31.300525","category":"68","category_name":"快餐厅","address":"杨浦区国顺东路180号(近沙岗路)"},{"poiid":"B2094757D06FA1FF4198","title":"深山老屋(国顺店)","lon":"121.53643","lat":"31.30035","category":"260","category_name":"其他","address":"杨浦区沙岗路632号(国顺东路口)"},{"poiid":"B2094757D06FA7FB409F","title":"佳龙花园","lon":"121.53535","lat":"31.296806","category":"47","category_name":"住宅区","address":"上海市营口路600弄"},{"poiid":"B2094757D06FA0FD4798","title":"佳木斯路","lon":"121.540633895","lat":"31.2981333784","category":"627","category_name":"一般地点标志","address":"上海佳木斯路"},{"poiid":"B2094757D06FA4FE469D","title":"海尚杰座","lon":"121.541221","lat":"31.300634","category":"47","category_name":"住宅区","address":"越秀区环市东路362-366号"},{"poiid":"B2094655D26DABFB419C","title":"黄兴绿园(国顺东路)","lon":"121.53826","lat":"31.30028","category":"47","category_name":"住宅区","address":"国顺东路179弄"},{"poiid":"B2094757D068A4FB4592","title":"颐风茶道","lon":"121.53686","lat":"31.29993","category":"260","category_name":"其他","address":"杨浦区沙岗路588号(国顺东路沙岗路)"},{"poiid":"B2094654D56FA6FA429A","title":"杨浦欣园","lon":"121.5403","lat":"31.300959","category":"47","category_name":"住宅区","address":"上海市杨浦区包头南路629弄"},{"poiid":"B2094757D069ABFF469B","title":"复旦实验中学","lon":"121.53719","lat":"31.30388","category":"55","category_name":"中学","address":"杨浦区安波路151号"},{"poiid":"B2094654D56FA6FB4898","title":"白玉兰环保广场","lon":"121.54223583627","lat":"31.298838786782","category":"46","category_name":"楼宇","address":"上海杨浦区松花江路251弄"},{"poiid":"B2094757D069A6FD409E","title":"豪享来上海国顺店","lon":"121.5358","lat":"31.3013","category":"247","category_name":"餐饮美食","address":"上海市杨浦区沙岗路620号国顺东路店"},{"poiid":"B2094757D069A5F9499E","title":"国顺东路沙岗路","lon":"121.537473","lat":"31.301165","category":"500","category_name":"未知分类","address":"上海国顺东路沙岗路"},{"poiid":"B2094757D069AAFE429F","title":"哈达瑜伽会所(佳木斯路店)","lon":"121.537234491","lat":"31.2958221136","category":"148","category_name":"美容美发店","address":"杨浦区佳木斯路358号2楼(近营口路)"},{"poiid":"B2094757D06FAAFA449A","title":"浣沙三村","lon":"121.53683","lat":"31.302334","category":"252","category_name":"楼宇机构","address":"上海杨浦区沙岗路国顺东路"},{"poiid":"B2094750D664A7FB439D","title":"都可茶饮(靖宇东路店)","lon":"121.53603","lat":"31.30038","category":"113","category_name":"冷饮店","address":"杨浦区国顺东路200-3号(近沙岗路)"},{"poiid":"B2094757D468A3FD439C","title":"凡仔汉堡 国顺东路店","lon":"121.538255","lat":"31.301569","category":"68","category_name":"快餐厅","address":"杨浦区国顺东路153号(近复旦实验中学)"},{"poiid":"B2094757D068A7FB4598","title":"上海800号美术馆","lon":"121.53504","lat":"31.29969","category":"179","category_name":"音乐厅","address":"杨浦区国顺东路800号黄兴公园东楼1楼(近双阳北路)"},{"poiid":"B2094655D26DA6FA489E","title":"东北福农家菜","lon":"121.537024054","lat":"31.301260793","category":"82","category_name":"东北菜","address":"杨浦区国顺东路102号(近包头南路)"},{"poiid":"B2094757D06BA4FB499F","title":"133路终点站","lon":"121.53663756","lat":"31.300757225","category":"38","category_name":"公交车站","address":"上海国顺东路沙岗路"},{"poiid":"B2094757D06AABF5419E","title":"重庆鸡公煲 国顺东路店","lon":"121.53605708498","lat":"31.300342585043","category":"71","category_name":"四川菜","address":"杨浦区国顺东路221号(近沙岗路)"},{"poiid":"B2094654D56FA6FA409B","title":"申之春(国顺东路)","lon":"121.53786","lat":"31.30124","category":"148","category_name":"美容美发店","address":"国顺东路173"},{"poiid":"B2094655D26FA1F4489F","title":"好德No.3038","lon":"121.53746","lat":"31.30096","category":"117","category_name":"便民商店/便利店","address":"国顺东路183-2识别"},{"poiid":"B2094654D56FA6F9499C","title":"名角女士生活馆NO.4568","lon":"121.53749","lat":"31.30099","category":"148","category_name":"美容美发店","address":""},{"poiid":"B2094757D069ABFF429A","title":"法国UWANTART当代画廊","lon":"121.5354","lat":"31.29991","category":"179","category_name":"音乐厅","address":"杨浦区国顺东路800号艺术园区三楼303-305室(近双阳北路)"},{"poiid":"B2094654D56FA6F4469F","title":"营口大厦","lon":"121.54","lat":"31.299","category":"46","category_name":"楼宇","address":"上海营口路625弄"},{"poiid":"B2094757D06FA4FB469D","title":"浣沙五村","lon":"121.54","lat":"31.3047","category":"47","category_name":"住宅区","address":"上海杨浦区沙岗路689号(近国顺东路)"},{"poiid":"B2094654D56FAAF8499E","title":"罗森(国顺东路)","lon":"121.5374","lat":"31.30148","category":"117","category_name":"便民商店/便利店","address":"国顺东路106"},{"poiid":"B2094757D16AA3FF4699","title":"营口路","lon":"121.5367481","lat":"31.298007999","category":"500","category_name":"未知分类","address":"上海市杨浦区营口路"},{"poiid":"B2094655D26BA0F84993","title":"速8酒店","lon":"121.53987","lat":"31.30129","category":"216","category_name":"经济型连锁酒店","address":""},{"poiid":"B2094757DA6EAAF44299","title":"老北京刷锅","lon":"121.537725100003","lat":"31.3014710999999","category":"247","category_name":"餐饮美食","address":"杨浦区国顺东路96号(近包头路)"},{"poiid":"B2094655D26AA2F9489D","title":"来伊份 国顺东路店","lon":"121.535631","lat":"31.300643","category":"68","category_name":"快餐厅","address":"杨浦区国顺东路225号(近沙岗路)"},{"poiid":"B2094752D369A3F4449C","title":"万达广场","lon":"121.538368","lat":"31.29781","category":"247","category_name":"餐饮美食","address":"五角场万达广场第一食品商店二楼"},{"poiid":"B2094654D56FA6FA4793","title":"好福楼 佳木斯路店","lon":"121.53954371687","lat":"31.297246446067","category":"76","category_name":"上海菜","address":"杨浦区佳木斯路265号(近包头南路)"},{"poiid":"B2094654DB6BA2FB4499","title":"光明便利(国顺东路)","lon":"121.53718","lat":"31.30134","category":"117","category_name":"便民商店/便利店","address":"国顺东路126"},{"poiid":"B2094655D26CA5FA469F","title":"快客No.5181","lon":"121.53957","lat":"31.30074","category":"117","category_name":"便民商店/便利店","address":"包头南路631-633"},{"poiid":"B2094757D169A3F4419B","title":"yoka发型工作室","lon":"121.537456","lat":"31.300964","category":"148","category_name":"美容美发店","address":"上海国顺东路183号"},{"poiid":"B2094655D26FA0FA489E","title":"黄兴绿园西门(包头南路)","lon":"121.53973","lat":"31.30161","category":"47","category_name":"住宅区","address":"包头南路688弄1-5号"},{"poiid":"B2094654D56FA6FA409C","title":"雅卓女子SPA芳香美疗苑","lon":"121.5382","lat":"31.30154","category":"148","category_name":"美容美发店","address":"杨浦区国顺东路157号(近包头路)"},{"poiid":"B2094757DA6FA3F44298","title":"鸡排超人(黄兴公园店)","lon":"121.534342999999","lat":"31.2990749999998","category":"68","category_name":"快餐厅","address":"杨浦区国顺东路237号(近营口路)"},{"poiid":"B2094654D56FAAF8419A","title":"兰馨雅苑","lon":"121.53355","lat":"31.301998","category":"47","category_name":"住宅区","address":"上海市杨浦区安波路297号(营口路)"},{"poiid":"B2094757D16EA6F4459F","title":"胖阿姨正宗朝鲜冷面 包头南路店","lon":"121.53872","lat":"31.30631","category":"96","category_name":"韩国料理","address":"杨浦区包头南路988号(近翔殷路)"},{"poiid":"B2094654D56FAAF84992","title":"杨浦区笑迎百货店","lon":"121.53768","lat":"31.30174","category":"117","category_name":"便民商店/便利店","address":"国顺东路98-6"},{"poiid":"B2094757D064ABF9429F","title":"七年八班烧烤店","lon":"121.5360067","lat":"31.300672354","category":"247","category_name":"餐饮美食","address":"上海长清路77号"},{"poiid":"B2094655D36CA4FC459C","title":"包头南路国顺东路","lon":"121.53886","lat":"31.30317","category":"38","category_name":"公交车站","address":""},{"poiid":"B209475CD36AA0FA4192","title":"小南国花园酒店ADD西餐厅","lon":"121.539173","lat":"31.298171","category":"268","category_name":"自助","address":"佳木斯路777号小南国花园酒店3楼(近营口路)"},{"poiid":"B2094757D16DA0FA4793","title":"罗森 国顺路店","lon":"121.535568237","lat":"31.2999038696","category":"117","category_name":"便民商店/便利店","address":"上海国顺路209号"},{"poiid":"B2094654D56FAAF84999","title":"羽弦琴行","lon":"121.53734","lat":"31.30145","category":"255","category_name":"专卖店","address":"国顺东路108号"},{"poiid":"B2094757D06FA2F9469B","title":"阿木龙虾(包头南路店)","lon":"121.54139","lat":"31.29733","category":"68","category_name":"快餐厅","address":"杨浦区包头南路79号(近佳木斯路)"},{"poiid":"B2094757D16CAAF54892","title":"220辣肉面","lon":"121.539733103","lat":"31.2998050366","category":"500","category_name":"未知分类","address":"上海市杨浦区松花江路2号"},{"poiid":"B2094757D06FA3FC4398","title":"汤豪仕汤馆 国顺店","lon":"121.535952054","lat":"31.300504793","category":"76","category_name":"上海菜","address":"杨浦区国顺东路180号(近沙岗路)"},{"poiid":"B2094757D06FA7F84293","title":"肯德基 KFC (国顺店)","lon":"121.536208","lat":"31.300525","category":"68","category_name":"快餐厅","address":"杨浦区国顺东路180号(近沙岗路)"},{"poiid":"B2094757D06FA1FF4198","title":"深山老屋(国顺店)","lon":"121.53643","lat":"31.30035","category":"260","category_name":"其他","address":"杨浦区沙岗路632号(国顺东路口)"},{"poiid":"B2094757D06FA7FB409F","title":"佳龙花园","lon":"121.53535","lat":"31.296806","category":"47","category_name":"住宅区","address":"上海市营口路600弄"},{"poiid":"B2094757D06FA0FD4798","title":"佳木斯路","lon":"121.540633895","lat":"31.2981333784","category":"627","category_name":"一般地点标志","address":"上海佳木斯路"},{"poiid":"B2094757D06FA4FE469D","title":"海尚杰座","lon":"121.541221","lat":"31.300634","category":"47","category_name":"住宅区","address":"越秀区环市东路362-366号"},{"poiid":"B2094655D26DABFB419C","title":"黄兴绿园(国顺东路)","lon":"121.53826","lat":"31.30028","category":"47","category_name":"住宅区","address":"国顺东路179弄"},{"poiid":"B2094757D068A4FB4592","title":"颐风茶道","lon":"121.53686","lat":"31.29993","category":"260","category_name":"其他","address":"杨浦区沙岗路588号(国顺东路沙岗路)"},{"poiid":"B2094654D56FA6FA429A","title":"杨浦欣园","lon":"121.5403","lat":"31.300959","category":"47","category_name":"住宅区","address":"上海市杨浦区包头南路629弄"},{"poiid":"B2094757D069ABFF469B","title":"复旦实验中学","lon":"121.53719","lat":"31.30388","category":"55","category_name":"中学","address":"杨浦区安波路151号"},{"poiid":"B2094654D56FA6FB4898","title":"白玉兰环保广场","lon":"121.54223583627","lat":"31.298838786782","category":"46","category_name":"楼宇","address":"上海杨浦区松花江路251弄"},{"poiid":"B2094757D069A6FD409E","title":"豪享来上海国顺店","lon":"121.5358","lat":"31.3013","category":"247","category_name":"餐饮美食","address":"上海市杨浦区沙岗路620号国顺东路店"},{"poiid":"B2094757D069A5F9499E","title":"国顺东路沙岗路","lon":"121.537473","lat":"31.301165","category":"500","category_name":"未知分类","address":"上海国顺东路沙岗路"},{"poiid":"B2094757D069AAFE429F","title":"哈达瑜伽会所(佳木斯路店)","lon":"121.537234491","lat":"31.2958221136","category":"148","category_name":"美容美发店","address":"杨浦区佳木斯路358号2楼(近营口路)"},{"poiid":"B2094757D06FAAFA449A","title":"浣沙三村","lon":"121.53683","lat":"31.302334","category":"252","category_name":"楼宇机构","address":"上海杨浦区沙岗路国顺东路"},{"poiid":"B2094750D664A7FB439D","title":"都可茶饮(靖宇东路店)","lon":"121.53603","lat":"31.30038","category":"113","category_name":"冷饮店","address":"杨浦区国顺东路200-3号(近沙岗路)"},{"poiid":"B2094757D468A3FD439C","title":"凡仔汉堡 国顺东路店","lon":"121.538255","lat":"31.301569","category":"68","category_name":"快餐厅","address":"杨浦区国顺东路153号(近复旦实验中学)"},{"poiid":"B2094757D068A7FB4598","title":"上海800号美术馆","lon":"121.53504","lat":"31.29969","category":"179","category_name":"音乐厅","address":"杨浦区国顺东路800号黄兴公园东楼1楼(近双阳北路)"},{"poiid":"B2094655D26DA6FA489E","title":"东北福农家菜","lon":"121.537024054","lat":"31.301260793","category":"82","category_name":"东北菜","address":"杨浦区国顺东路102号(近包头南路)"},{"poiid":"B2094757D06BA4FB499F","title":"133路终点站","lon":"121.53663756","lat":"31.300757225","category":"38","category_name":"公交车站","address":"上海国顺东路沙岗路"},{"poiid":"B2094757D06AABF5419E","title":"重庆鸡公煲 国顺东路店","lon":"121.53605708498","lat":"31.300342585043","category":"71","category_name":"四川菜","address":"杨浦区国顺东路221号(近沙岗路)"},{"poiid":"B2094654D56FA6FA409B","title":"申之春(国顺东路)","lon":"121.53786","lat":"31.30124","category":"148","category_name":"美容美发店","address":"国顺东路173"},{"poiid":"B2094655D26FA1F4489F","title":"好德No.3038","lon":"121.53746","lat":"31.30096","category":"117","category_name":"便民商店/便利店","address":"国顺东路183-2识别"},{"poiid":"B2094654D56FA6F9499C","title":"名角女士生活馆NO.4568","lon":"121.53749","lat":"31.30099","category":"148","category_name":"美容美发店","address":""},{"poiid":"B2094757D069ABFF429A","title":"法国UWANTART当代画廊","lon":"121.5354","lat":"31.29991","category":"179","category_name":"音乐厅","address":"杨浦区国顺东路800号艺术园区三楼303-305室(近双阳北路)"},{"poiid":"B2094654D56FA6F4469F","title":"营口大厦","lon":"121.54","lat":"31.299","category":"46","category_name":"楼宇","address":"上海营口路625弄"},{"poiid":"B2094757D06FA4FB469D","title":"浣沙五村","lon":"121.54","lat":"31.3047","category":"47","category_name":"住宅区","address":"上海杨浦区沙岗路689号(近国顺东路)"},{"poiid":"B2094654D56FAAF8499E","title":"罗森(国顺东路)","lon":"121.5374","lat":"31.30148","category":"117","category_name":"便民商店/便利店","address":"国顺东路106"},{"poiid":"B2094757D16AA3FF4699","title":"营口路","lon":"121.5367481","lat":"31.298007999","category":"500","category_name":"未知分类","address":"上海市杨浦区营口路"},{"poiid":"B2094655D26BA0F84993","title":"速8酒店","lon":"121.53987","lat":"31.30129","category":"216","category_name":"经济型连锁酒店","address":""},{"poiid":"B2094757DA6EAAF44299","title":"老北京刷锅","lon":"121.537725100003","lat":"31.3014710999999","category":"247","category_name":"餐饮美食","address":"杨浦区国顺东路96号(近包头路)"},{"poiid":"B2094655D26AA2F9489D","title":"来伊份 国顺东路店","lon":"121.535631","lat":"31.300643","category":"68","category_name":"快餐厅","address":"杨浦区国顺东路225号(近沙岗路)"},{"poiid":"B2094752D369A3F4449C","title":"万达广场","lon":"121.538368","lat":"31.29781","category":"247","category_name":"餐饮美食","address":"五角场万达广场第一食品商店二楼"},{"poiid":"B2094654D56FA6FA4793","title":"好福楼 佳木斯路店","lon":"121.53954371687","lat":"31.297246446067","category":"76","category_name":"上海菜","address":"杨浦区佳木斯路265号(近包头南路)"},{"poiid":"B2094654DB6BA2FB4499","title":"光明便利(国顺东路)","lon":"121.53718","lat":"31.30134","category":"117","category_name":"便民商店/便利店","address":"国顺东路126"},{"poiid":"B2094655D26CA5FA469F","title":"快客No.5181","lon":"121.53957","lat":"31.30074","category":"117","category_name":"便民商店/便利店","address":"包头南路631-633"},{"poiid":"B2094757D169A3F4419B","title":"yoka发型工作室","lon":"121.537456","lat":"31.300964","category":"148","category_name":"美容美发店","address":"上海国顺东路183号"},{"poiid":"B2094655D26FA0FA489E","title":"黄兴绿园西门(包头南路)","lon":"121.53973","lat":"31.30161","category":"47","category_name":"住宅区","address":"包头南路688弄1-5号"},{"poiid":"B2094654D56FA6FA409C","title":"雅卓女子SPA芳香美疗苑","lon":"121.5382","lat":"31.30154","category":"148","category_name":"美容美发店","address":"杨浦区国顺东路157号(近包头路)"},{"poiid":"B2094757DA6FA3F44298","title":"鸡排超人(黄兴公园店)","lon":"121.534342999999","lat":"31.2990749999998","category":"68","category_name":"快餐厅","address":"杨浦区国顺东路237号(近营口路)"},{"poiid":"B2094654D56FAAF8419A","title":"兰馨雅苑","lon":"121.53355","lat":"31.301998","category":"47","category_name":"住宅区","address":"上海市杨浦区安波路297号(营口路)"},{"poiid":"B2094757D16EA6F4459F","title":"胖阿姨正宗朝鲜冷面 包头南路店","lon":"121.53872","lat":"31.30631","category":"96","category_name":"韩国料理","address":"杨浦区包头南路988号(近翔殷路)"},{"poiid":"B2094654D56FAAF84992","title":"杨浦区笑迎百货店","lon":"121.53768","lat":"31.30174","category":"117","category_name":"便民商店/便利店","address":"国顺东路98-6"},{"poiid":"B2094757D064ABF9429F","title":"七年八班烧烤店","lon":"121.5360067","lat":"31.300672354","category":"247","category_name":"餐饮美食","address":"上海长清路77号"},{"poiid":"B2094655D36CA4FC459C","title":"包头南路国顺东路","lon":"121.53886","lat":"31.30317","category":"38","category_name":"公交车站","address":""},{"poiid":"B209475CD36AA0FA4192","title":"小南国花园酒店ADD西餐厅","lon":"121.539173","lat":"31.298171","category":"268","category_name":"自助","address":"佳木斯路777号小南国花园酒店3楼(近营口路)"},{"poiid":"B2094757D16DA0FA4793","title":"罗森 国顺路店","lon":"121.535568237","lat":"31.2999038696","category":"117","category_name":"便民商店/便利店","address":"上海国顺路209号"},{"poiid":"B2094654D56FAAF84999","title":"羽弦琴行","lon":"121.53734","lat":"31.30145","category":"255","category_name":"专卖店","address":"国顺东路108号"}]