[{"poiid":"B2094757D06FA2F9469B","title":"阿木龙虾(包头南路店)","lon":"121.54139","lat":"31.29733","category":"68","category_name":"快餐厅","address":"杨浦区包头南路79号(近佳木斯路)"},{"poiid":"B2094757D16CAAF54892","title":"220辣肉面","lon":"121.539733103","lat":"31.2998050366","category":"500","category_name":"未知分类","address":"上海市杨浦区松花江路2号"},{"poiid":"B2094757D06FA0FD4798","title":"佳木斯路","lon":"121.540633895","lat":"31.2981333784","category":"627","category_name":"一般地点标志","address":"上海佳木斯路"},{"poiid":"B2094757D06FA2FF459A","title":"松花江路延吉东路站(公交220终,868,135,863,874,103)","lon":"121.543189","lat":"31.296834","category":"38","category_name":"公交车站","address":"上海市杨浦区松花江路延吉东路"},{"poiid":"B2094757D06FA4FE469D","title":"海尚杰座","lon":"121.541221","lat":"31.300634","category":"47","category_name":"住宅区","address":"越秀区环市东路362-366号"},{"poiid":"B2094654D56FA6FB4898","title":"白玉兰环保广场","lon":"121.54223583627","lat":"31.298838786782","category":"46","category_name":"楼宇","address":"上海杨浦区松花江路251弄"},{"poiid":"B2094757D068A0FB4399","title":"延吉七村","lon":"121.54116771808","lat":"31.295803022138","category":"252","category_name":"楼宇机构","address":"上海延吉七村"},{"poiid":"B2094750D76CA3FC489E","title":"220辣肉面馆","lon":"121.545","lat":"31.2973","category":"68","category_name":"快餐厅","address":"杨浦区松花江路2号(近军工路)"},{"poiid":"B2094655D26DABFB419C","title":"黄兴绿园(国顺东路)","lon":"121.53826","lat":"31.30028","category":"47","category_name":"住宅区","address":"国顺东路179弄"},{"poiid":"B2094654DB6BA2FB469D","title":"松花小区","lon":"121.5422","lat":"31.29531","category":"47","category_name":"住宅区","address":"延吉东路82弄"},{"poiid":"B2094757D164A5F5439C","title":"延吉东路131弄","lon":"121.543818803","lat":"31.2951247387","category":"47","category_name":"住宅区","address":"上海延吉东路图门路"},{"poiid":"B2094654D56FA6FA429A","title":"杨浦欣园","lon":"121.5403","lat":"31.300959","category":"47","category_name":"住宅区","address":"上海市杨浦区包头南路629弄"},{"poiid":"B2094654D568A3FC4998","title":"松花一村","lon":"121.54093","lat":"31.294388","category":"47","category_name":"住宅区","address":"延吉东路82弄"},{"poiid":"B2094757D069AAFE429F","title":"哈达瑜伽会所(佳木斯路店)","lon":"121.537234491","lat":"31.2958221136","category":"148","category_name":"美容美发店","address":"杨浦区佳木斯路358号2楼(近营口路)"},{"poiid":"B2094654D56FA6FA4793","title":"好福楼 佳木斯路店","lon":"121.53954371687","lat":"31.297246446067","category":"76","category_name":"上海菜","address":"杨浦区佳木斯路265号(近包头南路)"},{"poiid":"B2094757D069A4FE409F","title":"辣肉面","lon":"121.545109585","lat":"31.2977345776","category":"247","category_name":"餐饮美食","address":"上海松花江路2号"},{"poiid":"B2094757D06BA5F9459E","title":"通略驾校(佳木斯路店)","lon":"121.54311","lat":"31.30001","category":"253","category_name":"校园生活","address":"杨浦区佳木斯路51号(近军工路)"},{"poiid":"B2094757D068A4FB4592","title":"颐风茶道","lon":"121.53686","lat":"31.29993","category":"260","category_name":"其他","address":"杨浦区沙岗路588号(国顺东路沙岗路)"},{"poiid":"B2094757D568A5FB4692","title":"黄毛菜饭","lon":"121.5410911","lat":"31.29761806","category":"68","category_name":"快餐厅","address":"杨浦区包头南路85号(佳木斯路包头南路)"},{"poiid":"B2094757DA69A2F5429E","title":"上海华图","lon":"121.54034","lat":"31.29771","category":"54","category_name":"职业技术学校","address":"杨浦区翔殷路1088号凯迪金融大厦7楼"},{"poiid":"B2094757D06FAAFE459A","title":"延吉四村","lon":"121.53846","lat":"31.293301","category":"252","category_name":"楼宇机构","address":"上海敦化路松花江路"},{"poiid":"B2094654D56FA6FA469A","title":"毛胡子拉面店","lon":"121.54102","lat":"31.2984","category":"68","category_name":"快餐厅","address":"杨浦区佳木斯路231号(佳木斯路包头南路)"},{"poiid":"B2094655D26BA0F5409A","title":"天天唱吧茶苑","lon":"121.54072","lat":"31.29799","category":"170","category_name":"KTV","address":"包头南路111临"},{"poiid":"B2094654D56FA6F4469F","title":"营口大厦","lon":"121.54","lat":"31.299","category":"46","category_name":"楼宇","address":"上海营口路625弄"},{"poiid":"B2094757D169A5FB409B","title":"德丰阁老杨饭店","lon":"121.54104","lat":"31.29788","category":"247","category_name":"餐饮美食","address":"杨浦区包头南路109号(近佳木斯路)"},{"poiid":"B2094655D36CA0FA459A","title":"佳木斯路延吉东路","lon":"121.54005","lat":"31.29791","category":"38","category_name":"公交车站","address":""},{"poiid":"B2094752D369A3F4449C","title":"万达广场","lon":"121.538368","lat":"31.29781","category":"247","category_name":"餐饮美食","address":"五角场万达广场第一食品商店二楼"},{"poiid":"B2094757D068A4F84998","title":"延吉六村","lon":"121.54345296856","lat":"31.296559786505","category":"47","category_name":"住宅区","address":"松花江路营口路"},{"poiid":"B2094655D26FA3FC409D","title":"沈永和","lon":"121.53687562132","lat":"31.30108559595","category":"257","category_name":"中餐厅","address":"佳木斯路228号"},{"poiid":"B2094757D165A1F5449A","title":"8号线黄兴公园站","lon":"121.543653103","lat":"31.2963129635","category":"500","category_name":"未知分类","address":"上海佳木斯路国顺东路"},{"poiid":"B2094757D068ABFD4393","title":"东光明中学","lon":"121.544884","lat":"31.29557","category":"55","category_name":"中学","address":"杨浦区延吉东路99号(近靖宇东路)"},{"poiid":"B2094654D56FA6FA499F","title":"上海市杨浦区民办新光医院","lon":"121.53936","lat":"31.29772","category":"162","category_name":"医院","address":"杨浦区佳木斯路258临"},{"poiid":"B2094654D56FA6F4429A","title":"美美公寓","lon":"121.54141","lat":"31.296135","category":"47","category_name":"住宅区","address":"松花江路123弄"},{"poiid":"B2094757D16CA2FA4792","title":"延吉东路鸡蛋饼摊","lon":"121.54295","lat":"31.2961","category":"68","category_name":"快餐厅","address":"杨浦区延吉东路(松花江路口)"},{"poiid":"B2094757D068A3FC429C","title":"怡佳苑","lon":"121.53907","lat":"31.296066","category":"500","category_name":"未知分类","address":"上海佳木斯路315弄沙岗路口"},{"poiid":"B2094757D16FA0F8489E","title":"佳木斯路炒面摊头","lon":"121.540714103","lat":"31.29853701","category":"247","category_name":"餐饮美食","address":"上海市杨浦区佳木斯路包头南路"},{"poiid":"B209475CD36AA0FA4192","title":"小南国花园酒店ADD西餐厅","lon":"121.539173","lat":"31.298171","category":"268","category_name":"自助","address":"佳木斯路777号小南国花园酒店3楼(近营口路)"},{"poiid":"B2094757D16CA7FD409D","title":"天恩重庆麻辣烫（第九店）","lon":"121.543032","lat":"31.295916","category":"68","category_name":"快餐厅","address":"杨浦区延吉东路45号(松花江路口)"},{"poiid":"B2094655D36DA0F8449D","title":"延吉东路松花江路","lon":"121.54315","lat":"31.29551","category":"38","category_name":"公交车站","address":""},{"poiid":"B2094655D36CA0FA4492","title":"佳木斯路包头南路","lon":"121.54121","lat":"31.29888","category":"38","category_name":"公交车站","address":""},{"poiid":"B2094655D26CA5F9499A","title":"远东一村南门(佳木斯路)","lon":"121.53924","lat":"31.29756","category":"47","category_name":"住宅区","address":"佳木斯路266-270"},{"poiid":"B2094654D56FA6F44193","title":"美美公寓(南门)","lon":"121.54173","lat":"31.29623","category":"47","category_name":"住宅区","address":"松花江路123弄"},{"poiid":"B2094655D264A2FB439E","title":"扬声歌城KTV","lon":"121.54066","lat":"31.29558","category":"170","category_name":"KTV","address":"杨浦区松花江路127号1幢2楼"},{"poiid":"B2094655D26DA5FE479C","title":"远东一村(杨浦欣园东南)","lon":"121.53987","lat":"31.29829","category":"47","category_name":"住宅区","address":"佳木斯路220-270"},{"poiid":"B2094757D168AAF4429B","title":"旺鼎鸡","lon":"121.54264","lat":"31.29596","category":"68","category_name":"快餐厅","address":"杨浦区延吉东路557号(近水丰路)"},{"poiid":"B2094655D265AAF5419E","title":"松花江路105号公寓","lon":"121.5426","lat":"31.29686","category":"47","category_name":"住宅区","address":"松花江路105"},{"poiid":"B2094654D56FA6FA4999","title":"上海市水产研究所","lon":"121.54057","lat":"31.2975","category":"191","category_name":"科研机构","address":"佳木斯路265"},{"poiid":"B2094757D165A7FE419B","title":"Just","lon":"121.539553103","lat":"31.2968759753","category":"500","category_name":"未知分类","address":"it's the only thing to do"},{"poiid":"B2094654D56FA6F4459F","title":"上海长白经济园区晟华工业园","lon":"121.54299","lat":"31.29709","category":"45","category_name":"产业园区","address":"松花江路99号"},{"poiid":"B2094655D264AAFB4592","title":"福缘酒店式公寓","lon":"121.54096","lat":"31.29576","category":"250","category_name":"公园户外","address":"虹口区松花江路127号"},{"poiid":"B2094757D06FA2F9469B","title":"阿木龙虾(包头南路店)","lon":"121.54139","lat":"31.29733","category":"68","category_name":"快餐厅","address":"杨浦区包头南路79号(近佳木斯路)"},{"poiid":"B2094757D16CAAF54892","title":"220辣肉面","lon":"121.539733103","lat":"31.2998050366","category":"500","category_name":"未知分类","address":"上海市杨浦区松花江路2号"},{"poiid":"B2094757D06FA0FD4798","title":"佳木斯路","lon":"121.540633895","lat":"31.2981333784","category":"627","category_name":"一般地点标志","address":"上海佳木斯路"},{"poiid":"B2094757D06FA2FF459A","title":"松花江路延吉东路站(公交220终,868,135,863,874,103)","lon":"121.543189","lat":"31.296834","category":"38","category_name":"公交车站","address":"上海市杨浦区松花江路延吉东路"},{"poiid":"B2094757D06FA4FE469D","title":"海尚杰座","lon":"121.541221","lat":"31.300634","category":"47","category_name":"住宅区","address":"越秀区环市东路362-366号"},{"poiid":"B2094654D56FA6FB4898","title":"白玉兰环保广场","lon":"121.54223583627","lat":"31.298838786782","category":"46","category_name":"楼宇","address":"上海杨浦区松花江路251弄"},{"poiid":"B2094757D068A0FB4399","title":"延吉七村","lon":"121.54116771808","lat":"31.295803022138","category":"252","category_name":"楼宇机构","address":"上海延吉七村"},{"poiid":"B2094750D76CA3FC489E","title":"220辣肉面馆","lon":"121.545","lat":"31.2973","category":"68","category_name":"快餐厅","address":"杨浦区松花江路2号(近军工路)"},{"poiid":"B2094655D26DABFB419C","title":"黄兴绿园(国顺东路)","lon":"121.53826","lat":"31.30028","category":"47","category_name":"住宅区","address":"国顺东路179弄"},{"poiid":"B2094654DB6BA2FB469D","title":"松花小区","lon":"121.5422","lat":"31.29531","category":"47","category_name":"住宅区","address":"延吉东路82弄"},{"poiid":"B2094757D164A5F5439C","title":"延吉东路131弄","lon":"121.543818803","lat":"31.2951247387","category":"47","category_name":"住宅区","address":"上海延吉东路图门路"},{"poiid":"B2094654D56FA6FA429A","title":"杨浦欣园","lon":"121.5403","lat":"31.300959","category":"47","category_name":"住宅区","address":"上海市杨浦区包头南路629弄"},{"poiid":"B2094654D568A3FC4998","title":"松花一村","lon":"121.54093","lat":"31.294388","category":"47","category_name":"住宅区","address":"延吉东路82弄"},{"poiid":"B2094757D069AAFE429F","title":"哈达瑜伽会所(佳木斯路店)","lon":"121.537234491","lat":"31.2958221136","category":"148","category_name":"美容美发店","address":"杨浦区佳木斯路358号2楼(近营口路)"},{"poiid":"B2094654D56FA6FA4793","title":"好福楼 佳木斯路店","lon":"121.53954371687","lat":"31.297246446067","category":"76","category_name":"上海菜","address":"杨浦区佳木斯路265号(近包头南路)"},{"poiid":"B2094757D069A4FE409F","title":"辣肉面","lon":"121.545109585","lat":"31.2977345776","category":"247","category_name":"餐饮美食","address":"上海松花江路2号"},{"poiid":"B2094757D06BA5F9459E","title":"通略驾校(佳木斯路店)","lon":"121.54311","lat":"31.30001","category":"253","category_name":"校园生活","address":"杨浦区佳木斯路51号(近军工路)"},{"poiid":"B2094757D068A4FB4592","title":"颐风茶道","lon":"121.53686","lat":"31.29993","category":"260","category_name":"其他","address":"杨浦区沙岗路588号(国顺东路沙岗路)"},{"poiid":"B2094757D568A5FB4692","title":"黄毛菜饭","lon":"121.5410911","lat":"31.29761806","category":"68","category_name":"快餐厅","address":"杨浦区包头南路85号(佳木斯路包头南路)"},{"poiid":"B2094757DA69A2F5429E","title":"上海华图","lon":"121.54034","lat":"31.29771","category":"54","category_name":"职业技术学校","address":"杨浦区翔殷路1088号凯迪金融大厦7楼"},{"poiid":"B2094757D06FAAFE459A","title":"延吉四村","lon":"121.53846","lat":"31.293301","category":"252","category_name":"楼宇机构","address":"上海敦化路松花江路"},{"poiid":"B2094654D56FA6FA469A","title":"毛胡子拉面店","lon":"121.54102","lat":"31.2984","category":"68","category_name":"快餐厅","address":"杨浦区佳木斯路231号(佳木斯路包头南路)"},{"poiid":"B2094655D26BA0F5409A","title":"天天唱吧茶苑","lon":"121.54072","lat":"31.29799","category":"170","category_name":"KTV","address":"包头南路111临"},{"poiid":"B2094654D56FA6F4469F","title":"营口大厦","lon":"121.54","lat":"31.299","category":"46","category_name":"楼宇","address":"上海营口路625弄"},{"poiid":"B2094757D169A5FB409B","title":"德丰阁老杨饭店","lon":"121.54104","lat":"31.29788","category":"247","category_name":"餐饮美食","address":"杨浦区包头南路109号(近佳木斯路)"},{"poiid":"B2094655D36CA0FA459A","title":"佳木斯路延吉东路","lon":"121.54005","lat":"31.29791","category":"38","category_name":"公交车站","address":""},{"poiid":"B2094752D369A3F4449C","title":"万达广场","lon":"121.538368","lat":"31.29781","category":"247","category_name":"餐饮美食","address":"五角场万达广场第一食品商店二楼"},{"poiid":"B2094757D068A4F84998","title":"延吉六村","lon":"121.54345296856","lat":"31.296559786505","category":"47","category_name":"住宅区","address":"松花江路营口路"},{"poiid":"B2094655D26FA3FC409D","title":"沈永和","lon":"121.53687562132","lat":"31.30108559595","category":"257","category_name":"中餐厅","address":"佳木斯路228号"},{"poiid":"B2094757D165A1F5449A","title":"8号线黄兴公园站","lon":"121.543653103","lat":"31.2963129635","category":"500","category_name":"未知分类","address":"上海佳木斯路国顺东路"},{"poiid":"B2094757D068ABFD4393","title":"东光明中学","lon":"121.544884","lat":"31.29557","category":"55","category_name":"中学","address":"杨浦区延吉东路99号(近靖宇东路)"},{"poiid":"B2094654D56FA6FA499F","title":"上海市杨浦区民办新光医院","lon":"121.53936","lat":"31.29772","category":"162","category_name":"医院","address":"杨浦区佳木斯路258临"},{"poiid":"B2094654D56FA6F4429A","title":"美美公寓","lon":"121.54141","lat":"31.296135","category":"47","category_name":"住宅区","address":"松花江路123弄"},{"poiid":"B2094757D16CA2FA4792","title":"延吉东路鸡蛋饼摊","lon":"121.54295","lat":"31.2961","category":"68","category_name":"快餐厅","address":"杨浦区延吉东路(松花江路口)"},{"poiid":"B2094757D068A3FC429C","title":"怡佳苑","lon":"121.53907","lat":"31.296066","category":"500","category_name":"未知分类","address":"上海佳木斯路315弄沙岗路口"},{"poiid":"B2094757D16FA0F8489E","title":"佳木斯路炒面摊头","lon":"121.540714103","lat":"31.29853701","category":"247","category_name":"餐饮美食","address":"上海市杨浦区佳木斯路包头南路"},{"poiid":"B209475CD36AA0FA4192","title":"小南国花园酒店ADD西餐厅","lon":"121.539173","lat":"31.298171","category":"268","category_name":"自助","address":"佳木斯路777号小南国花园酒店3楼(近营口路)"},{"poiid":"B2094757D16CA7FD409D","title":"天恩重庆麻辣烫（第九店）","lon":"121.543032","lat":"31.295916","category":"68","category_name":"快餐厅","address":"杨浦区延吉东路45号(松花江路口)"},{"poiid":"B2094655D36DA0F8449D","title":"延吉东路松花江路","lon":"121.54315","lat":"31.29551","category":"38","category_name":"公交车站","address":""},{"poiid":"B2094655D36CA0FA4492","title":"佳木斯路包头南路","lon":"121.54121","lat":"31.29888","category":"38","category_name":"公交车站","address":""},{"poiid":"B2094655D26CA5F9499A","title":"远东一村南门(佳木斯路)","lon":"121.53924","lat":"31.29756","category":"47","category_name":"住宅区","address":"佳木斯路266-270"},{"poiid":"B2094654D56FA6F44193","title":"美美公寓(南门)","lon":"121.54173","lat":"31.29623","category":"47","category_name":"住宅区","address":"松花江路123弄"},{"poiid":"B2094655D264A2FB439E","title":"扬声歌城KTV","lon":"121.54066","lat":"31.29558","category":"170","category_name":"KTV","address":"杨浦区松花江路127号1幢2楼"},{"poiid":"B2094655D26DA5FE479C","title":"远东一村(杨浦欣园东南)","lon":"121.53987","lat":"31.29829","category":"47","category_name":"住宅区","address":"佳木斯路220-270"},{"poiid":"B2094757D168AAF4429B","title":"旺鼎鸡","lon":"121.54264","lat":"31.29596","category":"68","category_name":"快餐厅","address":"杨浦区延吉东路557号(近水丰路)"},{"poiid":"B2094655D265AAF5419E","title":"松花江路105号公寓","lon":"121.5426","lat":"31.29686","category":"47","category_name":"住宅区","address":"松花江路105"},{"poiid":"B2094654D56FA6FA4999","title":"上海市水产研究所","lon":"121.54057","lat":"31.2975","category":"191","category_name":"科研机构","address":"佳木斯路265"},{"poiid":"B2094757D165A7FE419B","title":"Just","lon":"121.539553103","lat":"31.2968759753","category":"500","category_name":"未知分类","address":"it's the only thing to do"},{"poiid":"B2094654D56FA6F4459F","title":"上海长白经济园区晟华工业园","lon":"121.54299","lat":"31.29709","category":"45","category_name":"产业园区","address":"松花江路99号"},{"poiid":"B2094655D264AAFB4592","title":"福缘酒店式公寓","lon":"121.54096","lat":"31.29576","category":"250","category_name":"公园户外","address":"虹口区松花江路127号"},{"poiid":"B2094757D06FA2F9469B","title":"阿木龙虾(包头南路店)","lon":"121.54139","lat":"31.29733","category":"68","category_name":"快餐厅","address":"杨浦区包头南路79号(近佳木斯路)"},{"poiid":"B2094757D16CAAF54892","title":"220辣肉面","lon":"121.539733103","lat":"31.2998050366","category":"500","category_name":"未知分类","address":"上海市杨浦区松花江路2号"},{"poiid":"B2094757D06FA0FD4798","title":"佳木斯路","lon":"121.540633895","lat":"31.2981333784","category":"627","category_name":"一般地点标志","address":"上海佳木斯路"},{"poiid":"B2094757D06FA2FF459A","title":"松花江路延吉东路站(公交220终,868,135,863,874,103)","lon":"121.543189","lat":"31.296834","category":"38","category_name":"公交车站","address":"上海市杨浦区松花江路延吉东路"},{"poiid":"B2094757D06FA4FE469D","title":"海尚杰座","lon":"121.541221","lat":"31.300634","category":"47","category_name":"住宅区","address":"越秀区环市东路362-366号"},{"poiid":"B2094654D56FA6FB4898","title":"白玉兰环保广场","lon":"121.54223583627","lat":"31.298838786782","category":"46","category_name":"楼宇","address":"上海杨浦区松花江路251弄"},{"poiid":"B2094757D068A0FB4399","title":"延吉七村","lon":"121.54116771808","lat":"31.295803022138","category":"252","category_name":"楼宇机构","address":"上海延吉七村"},{"poiid":"B2094750D76CA3FC489E","title":"220辣肉面馆","lon":"121.545","lat":"31.2973","category":"68","category_name":"快餐厅","address":"杨浦区松花江路2号(近军工路)"},{"poiid":"B2094655D26DABFB419C","title":"黄兴绿园(国顺东路)","lon":"121.53826","lat":"31.30028","category":"47","category_name":"住宅区","address":"国顺东路179弄"},{"poiid":"B2094654DB6BA2FB469D","title":"松花小区","lon":"121.5422","lat":"31.29531","category":"47","category_name":"住宅区","address":"延吉东路82弄"},{"poiid":"B2094757D164A5F5439C","title":"延吉东路131弄","lon":"121.543818803","lat":"31.2951247387","category":"47","category_name":"住宅区","address":"上海延吉东路图门路"},{"poiid":"B2094654D56FA6FA429A","title":"杨浦欣园","lon":"121.5403","lat":"31.300959","category":"47","category_name":"住宅区","address":"上海市杨浦区包头南路629弄"},{"poiid":"B2094654D568A3FC4998","title":"松花一村","lon":"121.54093","lat":"31.294388","category":"47","category_name":"住宅区","address":"延吉东路82弄"},{"poiid":"B2094757D069AAFE429F","title":"哈达瑜伽会所(佳木斯路店)","lon":"121.537234491","lat":"31.2958221136","category":"148","category_name":"美容美发店","address":"杨浦区佳木斯路358号2楼(近营口路)"},{"poiid":"B2094654D56FA6FA4793","title":"好福楼 佳木斯路店","lon":"121.53954371687","lat":"31.297246446067","category":"76","category_name":"上海菜","address":"杨浦区佳木斯路265号(近包头南路)"},{"poiid":"B2094757D069A4FE409F","title":"辣肉面","lon":"121.545109585","lat":"31.2977345776","category":"247","category_name":"餐饮美食","address":"上海松花江路2号"},{"poiid":"B2094757D06BA5F9459E","title":"通略驾校(佳木斯路店)","lon":"121.54311","lat":"31.30001","category":"253","category_name":"校园生活","address":"杨浦区佳木斯路51号(近军工路)"},{"poiid":"B2094757D068A4FB4592","title":"颐风茶道","lon":"121.53686","lat":"31.29993","category":"260","category_name":"其他","address":"杨浦区沙岗路588号(国顺东路沙岗路)"},{"poiid":"B2094757D568A5FB4692","title":"黄毛菜饭","lon":"121.5410911","lat":"31.29761806","category":"68","category_name":"快餐厅","address":"杨浦区包头南路85号(佳木斯路包头南路)"},{"poiid":"B2094757DA69A2F5429E","title":"上海华图","lon":"121.54034","lat":"31.29771","category":"54","category_name":"职业技术学校","address":"杨浦区翔殷路1088号凯迪金融大厦7楼"},{"poiid":"B2094757D06FAAFE459A","title":"延吉四村","lon":"121.53846","lat":"31.293301","category":"252","category_name":"楼宇机构","address":"上海敦化路松花江路"},{"poiid":"B2094654D56FA6FA469A","title":"毛胡子拉面店","lon":"121.54102","lat":"31.2984","category":"68","category_name":"快餐厅","address":"杨浦区佳木斯路231号(佳木斯路包头南路)"},{"poiid":"B2094655D26BA0F5409A","title":"天天唱吧茶苑","lon":"121.54072","lat":"31.29799","category":"170","category_name":"KTV","address":"包头南路111临"},{"poiid":"B2094654D56FA6F4469F","title":"营口大厦","lon":"121.54","lat":"31.299","category":"46","category_name":"楼宇","address":"上海营口路625弄"},{"poiid":"B2094757D169A5FB409B","title":"德丰阁老杨饭店","lon":"121.54104","lat":"31.29788","category":"247","category_name":"餐饮美食","address":"杨浦区包头南路109号(近佳木斯路)"},{"poiid":"B2094655D36CA0FA459A","title":"佳木斯路延吉东路","lon":"121.54005","lat":"31.29791","category":"38","category_name":"公交车站","address":""},{"poiid":"B2094752D369A3F4449C","title":"万达广场","lon":"121.538368","lat":"31.29781","category":"247","category_name":"餐饮美食","address":"五角场万达广场第一食品商店二楼"},{"poiid":"B2094757D068A4F84998","title":"延吉六村","lon":"121.54345296856","lat":"31.296559786505","category":"47","category_name":"住宅区","address":"松花江路营口路"},{"poiid":"B2094655D26FA3FC409D","title":"沈永和","lon":"121.53687562132","lat":"31.30108559595","category":"257","category_name":"中餐厅","address":"佳木斯路228号"},{"poiid":"B2094757D165A1F5449A","title":"8号线黄兴公园站","lon":"121.543653103","lat":"31.2963129635","category":"500","category_name":"未知分类","address":"上海佳木斯路国顺东路"},{"poiid":"B2094757D068ABFD4393","title":"东光明中学","lon":"121.544884","lat":"31.29557","category":"55","category_name":"中学","address":"杨浦区延吉东路99号(近靖宇东路)"},{"poiid":"B2094654D56FA6FA499F","title":"上海市杨浦区民办新光医院","lon":"121.53936","lat":"31.29772","category":"162","category_name":"医院","address":"杨浦区佳木斯路258临"},{"poiid":"B2094654D56FA6F4429A","title":"美美公寓","lon":"121.54141","lat":"31.296135","category":"47","category_name":"住宅区","address":"松花江路123弄"},{"poiid":"B2094757D16CA2FA4792","title":"延吉东路鸡蛋饼摊","lon":"121.54295","lat":"31.2961","category":"68","category_name":"快餐厅","address":"杨浦区延吉东路(松花江路口)"},{"poiid":"B2094757D068A3FC429C","title":"怡佳苑","lon":"121.53907","lat":"31.296066","category":"500","category_name":"未知分类","address":"上海佳木斯路315弄沙岗路口"},{"poiid":"B2094757D16FA0F8489E","title":"佳木斯路炒面摊头","lon":"121.540714103","lat":"31.29853701","category":"247","category_name":"餐饮美食","address":"上海市杨浦区佳木斯路包头南路"},{"poiid":"B209475CD36AA0FA4192","title":"小南国花园酒店ADD西餐厅","lon":"121.539173","lat":"31.298171","category":"268","category_name":"自助","address":"佳木斯路777号小南国花园酒店3楼(近营口路)"},{"poiid":"B2094757D16CA7FD409D","title":"天恩重庆麻辣烫（第九店）","lon":"121.543032","lat":"31.295916","category":"68","category_name":"快餐厅","address":"杨浦区延吉东路45号(松花江路口)"},{"poiid":"B2094655D36DA0F8449D","title":"延吉东路松花江路","lon":"121.54315","lat":"31.29551","category":"38","category_name":"公交车站","address":""},{"poiid":"B2094655D36CA0FA4492","title":"佳木斯路包头南路","lon":"121.54121","lat":"31.29888","category":"38","category_name":"公交车站","address":""},{"poiid":"B2094655D26CA5F9499A","title":"远东一村南门(佳木斯路)","lon":"121.53924","lat":"31.29756","category":"47","category_name":"住宅区","address":"佳木斯路266-270"},{"poiid":"B2094654D56FA6F44193","title":"美美公寓(南门)","lon":"121.54173","lat":"31.29623","category":"47","category_name":"住宅区","address":"松花江路123弄"},{"poiid":"B2094655D264A2FB439E","title":"扬声歌城KTV","lon":"121.54066","lat":"31.29558","category":"170","category_name":"KTV","address":"杨浦区松花江路127号1幢2楼"},{"poiid":"B2094655D26DA5FE479C","title":"远东一村(杨浦欣园东南)","lon":"121.53987","lat":"31.29829","category":"47","category_name":"住宅区","address":"佳木斯路220-270"},{"poiid":"B2094757D168AAF4429B","title":"旺鼎鸡","lon":"121.54264","lat":"31.29596","category":"68","category_name":"快餐厅","address":"杨浦区延吉东路557号(近水丰路)"},{"poiid":"B2094655D265AAF5419E","title":"松花江路105号公寓","lon":"121.5426","lat":"31.29686","category":"47","category_name":"住宅区","address":"松花江路105"},{"poiid":"B2094654D56FA6FA4999","title":"上海市水产研究所","lon":"121.54057","lat":"31.2975","category":"191","category_name":"科研机构","address":"佳木斯路265"},{"poiid":"B2094757D165A7FE419B","title":"Just","lon":"121.539553103","lat":"31.2968759753","category":"500","category_name":"未知分类","address":"it's the only thing to do"},{"poiid":"B2094654D56FA6F4459F","title":"上海长白经济园区晟华工业园","lon":"121.54299","lat":"31.29709","category":"45","category_name":"产业园区","address":"松花江路99号"},{"poiid":"B2094655D264AAFB4592","title":"福缘酒店式公寓","lon":"121.54096","lat":"31.29576","category":"250","category_name":"公园户外","address":"虹口区松花江路127号"},{"poiid":"B2094757D06FA2F9469B","title":"阿木龙虾(包头南路店)","lon":"121.54139","lat":"31.29733","category":"68","category_name":"快餐厅","address":"杨浦区包头南路79号(近佳木斯路)"},{"poiid":"B2094757D16CAAF54892","title":"220辣肉面","lon":"121.539733103","lat":"31.2998050366","category":"500","category_name":"未知分类","address":"上海市杨浦区松花江路2号"},{"poiid":"B2094757D06FA0FD4798","title":"佳木斯路","lon":"121.540633895","lat":"31.2981333784","category":"627","category_name":"一般地点标志","address":"上海佳木斯路"},{"poiid":"B2094757D06FA2FF459A","title":"松花江路延吉东路站(公交220终,868,135,863,874,103)","lon":"121.543189","lat":"31.296834","category":"38","category_name":"公交车站","address":"上海市杨浦区松花江路延吉东路"},{"poiid":"B2094757D06FA4FE469D","title":"海尚杰座","lon":"121.541221","lat":"31.300634","category":"47","category_name":"住宅区","address":"越秀区环市东路362-366号"},{"poiid":"B2094654D56FA6FB4898","title":"白玉兰环保广场","lon":"121.54223583627","lat":"31.298838786782","category":"46","category_name":"楼宇","address":"上海杨浦区松花江路251弄"},{"poiid":"B2094757D068A0FB4399","title":"延吉七村","lon":"121.54116771808","lat":"31.295803022138","category":"252","category_name":"楼宇机构","address":"上海延吉七村"},{"poiid":"B2094750D76CA3FC489E","title":"220辣肉面馆","lon":"121.545","lat":"31.2973","category":"68","category_name":"快餐厅","address":"杨浦区松花江路2号(近军工路)"},{"poiid":"B2094655D26DABFB419C","title":"黄兴绿园(国顺东路)","lon":"121.53826","lat":"31.30028","category":"47","category_name":"住宅区","address":"国顺东路179弄"},{"poiid":"B2094654DB6BA2FB469D","title":"松花小区","lon":"121.5422","lat":"31.29531","category":"47","category_name":"住宅区","address":"延吉东路82弄"},{"poiid":"B2094757D164A5F5439C","title":"延吉东路131弄","lon":"121.543818803","lat":"31.2951247387","category":"47","category_name":"住宅区","address":"上海延吉东路图门路"},{"poiid":"B2094654D56FA6FA429A","title":"杨浦欣园","lon":"121.5403","lat":"31.300959","category":"47","category_name":"住宅区","address":"上海市杨浦区包头南路629弄"},{"poiid":"B2094654D568A3FC4998","title":"松花一村","lon":"121.54093","lat":"31.294388","category":"47","category_name":"住宅区","address":"延吉东路82弄"},{"poiid":"B2094757D069AAFE429F","title":"哈达瑜伽会所(佳木斯路店)","lon":"121.537234491","lat":"31.2958221136","category":"148","category_name":"美容美发店","address":"杨浦区佳木斯路358号2楼(近营口路)"},{"poiid":"B2094654D56FA6FA4793","title":"好福楼 佳木斯路店","lon":"121.53954371687","lat":"31.297246446067","category":"76","category_name":"上海菜","address":"杨浦区佳木斯路265号(近包头南路)"},{"poiid":"B2094757D069A4FE409F","title":"辣肉面","lon":"121.545109585","lat":"31.2977345776","category":"247","category_name":"餐饮美食","address":"上海松花江路2号"},{"poiid":"B2094757D06BA5F9459E","title":"通略驾校(佳木斯路店)","lon":"121.54311","lat":"31.30001","category":"253","category_name":"校园生活","address":"杨浦区佳木斯路51号(近军工路)"},{"poiid":"B2094757D068A4FB4592","title":"颐风茶道","lon":"121.53686","lat":"31.29993","category":"260","category_name":"其他","address":"杨浦区沙岗路588号(国顺东路沙岗路)"},{"poiid":"B2094757D568A5FB4692","title":"黄毛菜饭","lon":"121.5410911","lat":"31.29761806","category":"68","category_name":"快餐厅","address":"杨浦区包头南路85号(佳木斯路包头南路)"},{"poiid":"B2094757DA69A2F5429E","title":"上海华图","lon":"121.54034","lat":"31.29771","category":"54","category_name":"职业技术学校","address":"杨浦区翔殷路1088号凯迪金融大厦7楼"},{"poiid":"B2094757D06FAAFE459A","title":"延吉四村","lon":"121.53846","lat":"31.293301","category":"252","category_name":"楼宇机构","address":"上海敦化路松花江路"},{"poiid":"B2094654D56FA6FA469A","title":"毛胡子拉面店","lon":"121.54102","lat":"31.2984","category":"68","category_name":"快餐厅","address":"杨浦区佳木斯路231号(佳木斯路包头南路)"},{"poiid":"B2094655D26BA0F5409A","title":"天天唱吧茶苑","lon":"121.54072","lat":"31.29799","category":"170","category_name":"KTV","address":"包头南路111临"},{"poiid":"B2094654D56FA6F4469F","title":"营口大厦","lon":"121.54","lat":"31.299","category":"46","category_name":"楼宇","address":"上海营口路625弄"},{"poiid":"B2094757D169A5FB409B","title":"德丰阁老杨饭店","lon":"121.54104","lat":"31.29788","category":"247","category_name":"餐饮美食","address":"杨浦区包头南路109号(近佳木斯路)"},{"poiid":"B2094655D36CA0FA459A","title":"佳木斯路延吉东路","lon":"121.54005","lat":"31.29791","category":"38","category_name":"公交车站","address":""},{"poiid":"B2094752D369A3F4449C","title":"万达广场","lon":"121.538368","lat":"31.29781","category":"247","category_name":"餐饮美食","address":"五角场万达广场第一食品商店二楼"},{"poiid":"B2094757D068A4F84998","title":"延吉六村","lon":"121.54345296856","lat":"31.296559786505","category":"47","category_name":"住宅区","address":"松花江路营口路"},{"poiid":"B2094655D26FA3FC409D","title":"沈永和","lon":"121.53687562132","lat":"31.30108559595","category":"257","category_name":"中餐厅","address":"佳木斯路228号"},{"poiid":"B2094757D165A1F5449A","title":"8号线黄兴公园站","lon":"121.543653103","lat":"31.2963129635","category":"500","category_name":"未知分类","address":"上海佳木斯路国顺东路"},{"poiid":"B2094757D068ABFD4393","title":"东光明中学","lon":"121.544884","lat":"31.29557","category":"55","category_name":"中学","address":"杨浦区延吉东路99号(近靖宇东路)"},{"poiid":"B2094654D56FA6FA499F","title":"上海市杨浦区民办新光医院","lon":"121.53936","lat":"31.29772","category":"162","category_name":"医院","address":"杨浦区佳木斯路258临"},{"poiid":"B2094654D56FA6F4429A","title":"美美公寓","lon":"121.54141","lat":"31.296135","category":"47","category_name":"住宅区","address":"松花江路123弄"},{"poiid":"B2094757D16CA2FA4792","title":"延吉东路鸡蛋饼摊","lon":"121.54295","lat":"31.2961","category":"68","category_name":"快餐厅","address":"杨浦区延吉东路(松花江路口)"},{"poiid":"B2094757D068A3FC429C","title":"怡佳苑","lon":"121.53907","lat":"31.296066","category":"500","category_name":"未知分类","address":"上海佳木斯路315弄沙岗路口"},{"poiid":"B2094757D16FA0F8489E","title":"佳木斯路炒面摊头","lon":"121.540714103","lat":"31.29853701","category":"247","category_name":"餐饮美食","address":"上海市杨浦区佳木斯路包头南路"},{"poiid":"B209475CD36AA0FA4192","title":"小南国花园酒店ADD西餐厅","lon":"121.539173","lat":"31.298171","category":"268","category_name":"自助","address":"佳木斯路777号小南国花园酒店3楼(近营口路)"},{"poiid":"B2094757D16CA7FD409D","title":"天恩重庆麻辣烫（第九店）","lon":"121.543032","lat":"31.295916","category":"68","category_name":"快餐厅","address":"杨浦区延吉东路45号(松花江路口)"},{"poiid":"B2094655D36DA0F8449D","title":"延吉东路松花江路","lon":"121.54315","lat":"31.29551","category":"38","category_name":"公交车站","address":""},{"poiid":"B2094655D36CA0FA4492","title":"佳木斯路包头南路","lon":"121.54121","lat":"31.29888","category":"38","category_name":"公交车站","address":""},{"poiid":"B2094655D26CA5F9499A","title":"远东一村南门(佳木斯路)","lon":"121.53924","lat":"31.29756","category":"47","category_name":"住宅区","address":"佳木斯路266-270"},{"poiid":"B2094654D56FA6F44193","title":"美美公寓(南门)","lon":"121.54173","lat":"31.29623","category":"47","category_name":"住宅区","address":"松花江路123弄"},{"poiid":"B2094655D264A2FB439E","title":"扬声歌城KTV","lon":"121.54066","lat":"31.29558","category":"170","category_name":"KTV","address":"杨浦区松花江路127号1幢2楼"},{"poiid":"B2094655D26DA5FE479C","title":"远东一村(杨浦欣园东南)","lon":"121.53987","lat":"31.29829","category":"47","category_name":"住宅区","address":"佳木斯路220-270"},{"poiid":"B2094757D168AAF4429B","title":"旺鼎鸡","lon":"121.54264","lat":"31.29596","category":"68","category_name":"快餐厅","address":"杨浦区延吉东路557号(近水丰路)"},{"poiid":"B2094655D265AAF5419E","title":"松花江路105号公寓","lon":"121.5426","lat":"31.29686","category":"47","category_name":"住宅区","address":"松花江路105"},{"poiid":"B2094654D56FA6FA4999","title":"上海市水产研究所","lon":"121.54057","lat":"31.2975","category":"191","category_name":"科研机构","address":"佳木斯路265"},{"poiid":"B2094757D165A7FE419B","title":"Just","lon":"121.539553103","lat":"31.2968759753","category":"500","category_name":"未知分类","address":"it's the only thing to do"},{"poiid":"B2094654D56FA6F4459F","title":"上海长白经济园区晟华工业园","lon":"121.54299","lat":"31.29709","category":"45","category_name":"产业园区","address":"松花江路99号"},{"poiid":"B2094655D264AAFB4592","title":"福缘酒店式公寓","lon":"121.54096","lat":"31.29576","category":"250","category_name":"公园户外","address":"虹口区松花江路127号"}]