[{"poiid":"B2094757D06FAAFE4893","title":"园林格兰云天大酒店","lon":"121.4535392463","lat":"31.150066281662","category":"217","category_name":"旅馆招待所","address":"徐汇区百色路100号(近上海植物园)"},{"poiid":"B2094757D069A4F44293","title":"上海植物园第一会所","lon":"121.44505","lat":"31.14673","category":"72","category_name":"广东菜","address":"徐汇区龙吴路1111号上海植物园内(近百色路)"},{"poiid":"B2094757D06FA1FE439D","title":"滨江小区","lon":"121.45765","lat":"31.152988","category":"47","category_name":"住宅区","address":"上海天钥桥南路1199弄"},{"poiid":"B2094654DA65A6FB419A","title":"上海植物园(2号门)","lon":"121.44988","lat":"31.15001","category":"680","category_name":"楼宇机构","address":"龙吴路997"},{"poiid":"B2094757D06FABFE4492","title":"中海瀛台","lon":"121.45292","lat":"31.140421","category":"500","category_name":"未知分类","address":"徐汇区龙瑞路77弄"},{"poiid":"B2094757D06FA1FA4592","title":"上中路隧道","lon":"121.45757293","lat":"31.143583297","category":"38","category_name":"公交车站","address":"上海上中路隧道"},{"poiid":"B2094655D264AAF44198","title":"上海市工业技术学校","lon":"121.45312","lat":"31.14674","category":"54","category_name":"职业技术学校","address":"喜泰支路8"},{"poiid":"B2094654DA65ABFF469E","title":"龙南三、四村","lon":"121.45609","lat":"31.15479","category":"47","category_name":"住宅区","address":"天钥桥南路4号-98号"},{"poiid":"B2094654DA65ABFA4092","title":"龙华滨江休闲广场","lon":"121.4573","lat":"31.15029","category":"201","category_name":"城市广场","address":"上海滨江路"},{"poiid":"B2094655D36CA5F44298","title":"滨江路临江路","lon":"121.45888","lat":"31.15329","category":"38","category_name":"公交车站","address":""},{"poiid":"B2094654DA65ABFA479F","title":"上海市第42机动车安全检测站(徐汇)","lon":"121.46109","lat":"31.15756","category":"250","category_name":"公园户外","address":"龙水南路95号"},{"poiid":"B2094757D06FAAF4499B","title":"龙南五村","lon":"121.454401146","lat":"31.1534590508","category":"252","category_name":"楼宇机构","address":"上海龙水南路350号"},{"poiid":"B2094757D16BA3FF429F","title":"上海宝狮东风标致4S店","lon":"121.45920733","lat":"31.155595811","category":"500","category_name":"未知分类","address":"上海市龙水南路201号一幢"},{"poiid":"B2094654DA65ABF84192","title":"绿邑新苑","lon":"121.452817","lat":"31.153755","category":"47","category_name":"住宅区","address":"徐汇龙水南路391-399号"},{"poiid":"B2094654DA65ABFA469F","title":"上海市徐汇区汽车驾驶员培训部","lon":"121.46115","lat":"31.15591","category":"192","category_name":"驾校","address":"龙水南路60-2临"},{"poiid":"B2094751DA6EA4FA499A","title":"上海虹桥机场","lon":"121.464111","lat":"31.144684","category":"500","category_name":"未知分类","address":null},{"poiid":"B2094757D16CA7F9489F","title":"上海森那美汽车(经营捷豹路虎劳斯莱斯等车型)","lon":"121.459034","lat":"31.15685","category":"500","category_name":"未知分类","address":"上海龙水南路201号2幢"},{"poiid":"B2094757D068A5F9479B","title":"公交(932路)","lon":"121.45888261","lat":"31.15325001","category":"38","category_name":"公交车站","address":"上海滨江路临江路-城隍庙"},{"poiid":"B2094654DB6CA1FB409F","title":"华馨公寓","lon":"121.459","lat":"31.1407","category":"47","category_name":"住宅区","address":"上海市徐汇区罗秀路55弄"},{"poiid":"B2094654DA65ABFA449A","title":"光明乳业龙南配送站","lon":"121.45899","lat":"31.15331","category":"117","category_name":"便民商店/便利店","address":"临江路93识别"},{"poiid":"B2094750D56AA3FA439A","title":"中海瀛台一期","lon":"121.459521","lat":"31.147362","category":"47","category_name":"住宅区","address":"上海市徐汇区龙吴路1270号"},{"poiid":"B2094654DB6CA1F8489E","title":"上海植物园(1号门)","lon":"121.45018","lat":"31.14629","category":"680","category_name":"楼宇机构","address":"上海市龙吴路1111号"},{"poiid":"B209475CD264A3F5469F","title":"上海地铁11号线龙耀路站","lon":"121.462966","lat":"31.153446","category":"500","category_name":"未知分类","address":"上海市 上海市徐汇区龙耀路"},{"poiid":"B2094654DA65ABF84798","title":"樟树苑","lon":"121.457","lat":"31.1549","category":"47","category_name":"住宅区","address":"樟树苑位于徐汇龙吴路988号"},{"poiid":"B2094654DA65ABFA4093","title":"滨江小区(西南门)","lon":"121.45603","lat":"31.15156","category":"47","category_name":"住宅区","address":"天钥桥南路1249弄1-58号"},{"poiid":"B2094757D06AA7F9439C","title":"扬州饭店(徐汇店)","lon":"121.45213","lat":"31.15415","category":"74","category_name":"江苏菜","address":"徐汇区喜泰北路10号(黄石路龙水南路间)"},{"poiid":"B2094654DB65A3F9449C","title":"克莉丝汀 龙水南路店","lon":"121.451310054","lat":"31.150953793","category":"112","category_name":"糕饼店","address":"徐汇区龙水南路318号乙(近龙吴路)"},{"poiid":"B2094757D06FABFF4793","title":"天钥桥南路","lon":"121.457557","lat":"31.153915","category":"260","category_name":"其他","address":"上海徐汇区天钥桥南路"},{"poiid":"B2094757D064A1FA469A","title":"932路滨江路临江路终点站","lon":"121.45909881","lat":"31.152360916","category":"500","category_name":"未知分类","address":"上海市徐汇区滨江路28号(对面)"},{"poiid":"B2094757D16DA7F8409A","title":"黄石路","lon":"121.451271","lat":"31.156926","category":"500","category_name":"未知分类","address":"上海黄石路169弄"},{"poiid":"B2094757D169A2FF419F","title":"长峰新村","lon":"121.46319498301","lat":"31.156955126594","category":"47","category_name":"住宅区","address":"长峰新村位于徐汇上海徐汇天钥桥南路1249弄"},{"poiid":"B2094655D26BA3FF409B","title":"龙华汽配城","lon":"121.45909","lat":"31.15531","category":"116","category_name":"特色商业街","address":"徐汇区龙水南路201号;;"},{"poiid":"B2094655D26BABF44093","title":"家得利早餐摊天钥桥南路店","lon":"121.45565","lat":"31.15317","category":"68","category_name":"快餐厅","address":"徐汇区天钥桥南路1191号家得利(近龙水南路)"},{"poiid":"B2094654DA65ABF9499B","title":"长峰小区","lon":"121.4549","lat":"31.152561","category":"47","category_name":"住宅区","address":"天钥桥南路1188弄1-28号"},{"poiid":"B2094757D16AA4F5449F","title":"华氏大药房(龙水南路店)","lon":"121.45688","lat":"31.15365","category":"162","category_name":"医院","address":"徐汇区龙水南路304号(临江路龙水南路)"},{"poiid":"B2094757D66CABFC459A","title":"Mickey hous","lon":"121.45723473","lat":"31.152702649","category":"500","category_name":"未知分类","address":"上海徐汇滨江"},{"poiid":"B2094757D16AA1FB459E","title":"龙南幼儿园","lon":"121.45705173","lat":"31.153591668","category":"57","category_name":"幼儿园","address":"上海徐汇区龙水三村"},{"poiid":"B2094757D16FA7FD4892","title":"百色路","lon":"121.45755373","lat":"31.154711692","category":"500","category_name":"未知分类","address":"上海市徐汇区百色路"},{"poiid":"B2094654DB64A2FB459B","title":"良友(龙水南路)","lon":"121.45594","lat":"31.15365","category":"117","category_name":"便民商店/便利店","address":"龙水南路310-5"},{"poiid":"B2094655D264A2FE409B","title":"龙南平价房","lon":"121.45573","lat":"31.15271","category":"47","category_name":"住宅区","address":"龙南平价房位于徐汇天钥桥南路1199弄"},{"poiid":"B2094654DA65ABFA449D","title":"龙南公寓","lon":"121.45676","lat":"31.154684","category":"47","category_name":"住宅区","address":"龙水南路269弄2-6号"},{"poiid":"B2094757D069A5FA419C","title":"龙苑中学","lon":"121.454249","lat":"31.157455","category":"55","category_name":"中学","address":"上海黄石路85号"},{"poiid":"B2094654DA65ABF8489B","title":"汇丰创意园","lon":"121.45278","lat":"31.14834","category":"45","category_name":"产业园区","address":"徐汇区喜泰路239号(近植物园)"},{"poiid":"B2094750DA65A1F84398","title":"中山医院","lon":"121.457046","lat":"31.155887","category":"162","category_name":"医院","address":null},{"poiid":"B2094654DA65ABF9499A","title":"龙华街道社区卫生服务中心新长峰服务站","lon":"121.4553","lat":"31.15299","category":"162","category_name":"医院","address":"天钥桥南路1180识别"},{"poiid":"B2094757D06AA4FE4999","title":"大众徐汇4S","lon":"121.450896","lat":"31.153296","category":"47","category_name":"住宅区","address":"上海龙水南路386号"},{"poiid":"B2094757D06BA0F94998","title":"标致4S店","lon":"121.460362","lat":"31.155678","category":"500","category_name":"未知分类","address":"上海龙水南路201号"},{"poiid":"B2094654DA65ABFA469E","title":"上海市交通安全教育学校徐汇分部","lon":"121.46116","lat":"31.15591","category":"253","category_name":"校园生活","address":"徐汇区龙水南路60号"},{"poiid":"B2094654DA65ABF9449C","title":"叠加苑","lon":"121.45294","lat":"31.152843","category":"47","category_name":"住宅区","address":"上海市徐汇区龙水南路358弄"},{"poiid":"B2094655D268A3F4469E","title":"百色路500弄","lon":"121.455","lat":"31.1502","category":"47","category_name":"住宅区","address":"百色路500弄"},{"poiid":"B2094757D06FAAFE4893","title":"园林格兰云天大酒店","lon":"121.4535392463","lat":"31.150066281662","category":"217","category_name":"旅馆招待所","address":"徐汇区百色路100号(近上海植物园)"},{"poiid":"B2094757D069A4F44293","title":"上海植物园第一会所","lon":"121.44505","lat":"31.14673","category":"72","category_name":"广东菜","address":"徐汇区龙吴路1111号上海植物园内(近百色路)"},{"poiid":"B2094757D06FA1FE439D","title":"滨江小区","lon":"121.45765","lat":"31.152988","category":"47","category_name":"住宅区","address":"上海天钥桥南路1199弄"},{"poiid":"B2094654DA65A6FB419A","title":"上海植物园(2号门)","lon":"121.44988","lat":"31.15001","category":"680","category_name":"楼宇机构","address":"龙吴路997"},{"poiid":"B2094757D06FABFE4492","title":"中海瀛台","lon":"121.45292","lat":"31.140421","category":"500","category_name":"未知分类","address":"徐汇区龙瑞路77弄"},{"poiid":"B2094757D06FA1FA4592","title":"上中路隧道","lon":"121.45757293","lat":"31.143583297","category":"38","category_name":"公交车站","address":"上海上中路隧道"},{"poiid":"B2094655D264AAF44198","title":"上海市工业技术学校","lon":"121.45312","lat":"31.14674","category":"54","category_name":"职业技术学校","address":"喜泰支路8"},{"poiid":"B2094654DA65ABFF469E","title":"龙南三、四村","lon":"121.45609","lat":"31.15479","category":"47","category_name":"住宅区","address":"天钥桥南路4号-98号"},{"poiid":"B2094654DA65ABFA4092","title":"龙华滨江休闲广场","lon":"121.4573","lat":"31.15029","category":"201","category_name":"城市广场","address":"上海滨江路"},{"poiid":"B2094655D36CA5F44298","title":"滨江路临江路","lon":"121.45888","lat":"31.15329","category":"38","category_name":"公交车站","address":""},{"poiid":"B2094654DA65ABFA479F","title":"上海市第42机动车安全检测站(徐汇)","lon":"121.46109","lat":"31.15756","category":"250","category_name":"公园户外","address":"龙水南路95号"},{"poiid":"B2094757D06FAAF4499B","title":"龙南五村","lon":"121.454401146","lat":"31.1534590508","category":"252","category_name":"楼宇机构","address":"上海龙水南路350号"},{"poiid":"B2094757D16BA3FF429F","title":"上海宝狮东风标致4S店","lon":"121.45920733","lat":"31.155595811","category":"500","category_name":"未知分类","address":"上海市龙水南路201号一幢"},{"poiid":"B2094654DA65ABF84192","title":"绿邑新苑","lon":"121.452817","lat":"31.153755","category":"47","category_name":"住宅区","address":"徐汇龙水南路391-399号"},{"poiid":"B2094654DA65ABFA469F","title":"上海市徐汇区汽车驾驶员培训部","lon":"121.46115","lat":"31.15591","category":"192","category_name":"驾校","address":"龙水南路60-2临"},{"poiid":"B2094751DA6EA4FA499A","title":"上海虹桥机场","lon":"121.464111","lat":"31.144684","category":"500","category_name":"未知分类","address":null},{"poiid":"B2094757D16CA7F9489F","title":"上海森那美汽车(经营捷豹路虎劳斯莱斯等车型)","lon":"121.459034","lat":"31.15685","category":"500","category_name":"未知分类","address":"上海龙水南路201号2幢"},{"poiid":"B2094757D068A5F9479B","title":"公交(932路)","lon":"121.45888261","lat":"31.15325001","category":"38","category_name":"公交车站","address":"上海滨江路临江路-城隍庙"},{"poiid":"B2094654DB6CA1FB409F","title":"华馨公寓","lon":"121.459","lat":"31.1407","category":"47","category_name":"住宅区","address":"上海市徐汇区罗秀路55弄"},{"poiid":"B2094654DA65ABFA449A","title":"光明乳业龙南配送站","lon":"121.45899","lat":"31.15331","category":"117","category_name":"便民商店/便利店","address":"临江路93识别"},{"poiid":"B2094750D56AA3FA439A","title":"中海瀛台一期","lon":"121.459521","lat":"31.147362","category":"47","category_name":"住宅区","address":"上海市徐汇区龙吴路1270号"},{"poiid":"B2094654DB6CA1F8489E","title":"上海植物园(1号门)","lon":"121.45018","lat":"31.14629","category":"680","category_name":"楼宇机构","address":"上海市龙吴路1111号"},{"poiid":"B209475CD264A3F5469F","title":"上海地铁11号线龙耀路站","lon":"121.462966","lat":"31.153446","category":"500","category_name":"未知分类","address":"上海市 上海市徐汇区龙耀路"},{"poiid":"B2094654DA65ABF84798","title":"樟树苑","lon":"121.457","lat":"31.1549","category":"47","category_name":"住宅区","address":"樟树苑位于徐汇龙吴路988号"},{"poiid":"B2094654DA65ABFA4093","title":"滨江小区(西南门)","lon":"121.45603","lat":"31.15156","category":"47","category_name":"住宅区","address":"天钥桥南路1249弄1-58号"},{"poiid":"B2094757D06AA7F9439C","title":"扬州饭店(徐汇店)","lon":"121.45213","lat":"31.15415","category":"74","category_name":"江苏菜","address":"徐汇区喜泰北路10号(黄石路龙水南路间)"},{"poiid":"B2094654DB65A3F9449C","title":"克莉丝汀 龙水南路店","lon":"121.451310054","lat":"31.150953793","category":"112","category_name":"糕饼店","address":"徐汇区龙水南路318号乙(近龙吴路)"},{"poiid":"B2094757D06FABFF4793","title":"天钥桥南路","lon":"121.457557","lat":"31.153915","category":"260","category_name":"其他","address":"上海徐汇区天钥桥南路"},{"poiid":"B2094757D064A1FA469A","title":"932路滨江路临江路终点站","lon":"121.45909881","lat":"31.152360916","category":"500","category_name":"未知分类","address":"上海市徐汇区滨江路28号(对面)"},{"poiid":"B2094757D16DA7F8409A","title":"黄石路","lon":"121.451271","lat":"31.156926","category":"500","category_name":"未知分类","address":"上海黄石路169弄"},{"poiid":"B2094757D169A2FF419F","title":"长峰新村","lon":"121.46319498301","lat":"31.156955126594","category":"47","category_name":"住宅区","address":"长峰新村位于徐汇上海徐汇天钥桥南路1249弄"},{"poiid":"B2094655D26BA3FF409B","title":"龙华汽配城","lon":"121.45909","lat":"31.15531","category":"116","category_name":"特色商业街","address":"徐汇区龙水南路201号;;"},{"poiid":"B2094655D26BABF44093","title":"家得利早餐摊天钥桥南路店","lon":"121.45565","lat":"31.15317","category":"68","category_name":"快餐厅","address":"徐汇区天钥桥南路1191号家得利(近龙水南路)"},{"poiid":"B2094654DA65ABF9499B","title":"长峰小区","lon":"121.4549","lat":"31.152561","category":"47","category_name":"住宅区","address":"天钥桥南路1188弄1-28号"},{"poiid":"B2094757D16AA4F5449F","title":"华氏大药房(龙水南路店)","lon":"121.45688","lat":"31.15365","category":"162","category_name":"医院","address":"徐汇区龙水南路304号(临江路龙水南路)"},{"poiid":"B2094757D66CABFC459A","title":"Mickey hous","lon":"121.45723473","lat":"31.152702649","category":"500","category_name":"未知分类","address":"上海徐汇滨江"},{"poiid":"B2094757D16AA1FB459E","title":"龙南幼儿园","lon":"121.45705173","lat":"31.153591668","category":"57","category_name":"幼儿园","address":"上海徐汇区龙水三村"},{"poiid":"B2094757D16FA7FD4892","title":"百色路","lon":"121.45755373","lat":"31.154711692","category":"500","category_name":"未知分类","address":"上海市徐汇区百色路"},{"poiid":"B2094654DB64A2FB459B","title":"良友(龙水南路)","lon":"121.45594","lat":"31.15365","category":"117","category_name":"便民商店/便利店","address":"龙水南路310-5"},{"poiid":"B2094655D264A2FE409B","title":"龙南平价房","lon":"121.45573","lat":"31.15271","category":"47","category_name":"住宅区","address":"龙南平价房位于徐汇天钥桥南路1199弄"},{"poiid":"B2094654DA65ABFA449D","title":"龙南公寓","lon":"121.45676","lat":"31.154684","category":"47","category_name":"住宅区","address":"龙水南路269弄2-6号"},{"poiid":"B2094757D069A5FA419C","title":"龙苑中学","lon":"121.454249","lat":"31.157455","category":"55","category_name":"中学","address":"上海黄石路85号"},{"poiid":"B2094654DA65ABF8489B","title":"汇丰创意园","lon":"121.45278","lat":"31.14834","category":"45","category_name":"产业园区","address":"徐汇区喜泰路239号(近植物园)"},{"poiid":"B2094750DA65A1F84398","title":"中山医院","lon":"121.457046","lat":"31.155887","category":"162","category_name":"医院","address":null},{"poiid":"B2094654DA65ABF9499A","title":"龙华街道社区卫生服务中心新长峰服务站","lon":"121.4553","lat":"31.15299","category":"162","category_name":"医院","address":"天钥桥南路1180识别"},{"poiid":"B2094757D06AA4FE4999","title":"大众徐汇4S","lon":"121.450896","lat":"31.153296","category":"47","category_name":"住宅区","address":"上海龙水南路386号"},{"poiid":"B2094757D06BA0F94998","title":"标致4S店","lon":"121.460362","lat":"31.155678","category":"500","category_name":"未知分类","address":"上海龙水南路201号"},{"poiid":"B2094654DA65ABFA469E","title":"上海市交通安全教育学校徐汇分部","lon":"121.46116","lat":"31.15591","category":"253","category_name":"校园生活","address":"徐汇区龙水南路60号"},{"poiid":"B2094654DA65ABF9449C","title":"叠加苑","lon":"121.45294","lat":"31.152843","category":"47","category_name":"住宅区","address":"上海市徐汇区龙水南路358弄"},{"poiid":"B2094655D268A3F4469E","title":"百色路500弄","lon":"121.455","lat":"31.1502","category":"47","category_name":"住宅区","address":"百色路500弄"},{"poiid":"B2094757D06FAAFE4893","title":"园林格兰云天大酒店","lon":"121.4535392463","lat":"31.150066281662","category":"217","category_name":"旅馆招待所","address":"徐汇区百色路100号(近上海植物园)"},{"poiid":"B2094757D069A4F44293","title":"上海植物园第一会所","lon":"121.44505","lat":"31.14673","category":"72","category_name":"广东菜","address":"徐汇区龙吴路1111号上海植物园内(近百色路)"},{"poiid":"B2094757D06FA1FE439D","title":"滨江小区","lon":"121.45765","lat":"31.152988","category":"47","category_name":"住宅区","address":"上海天钥桥南路1199弄"},{"poiid":"B2094654DA65A6FB419A","title":"上海植物园(2号门)","lon":"121.44988","lat":"31.15001","category":"680","category_name":"楼宇机构","address":"龙吴路997"},{"poiid":"B2094757D06FABFE4492","title":"中海瀛台","lon":"121.45292","lat":"31.140421","category":"500","category_name":"未知分类","address":"徐汇区龙瑞路77弄"},{"poiid":"B2094757D06FA1FA4592","title":"上中路隧道","lon":"121.45757293","lat":"31.143583297","category":"38","category_name":"公交车站","address":"上海上中路隧道"},{"poiid":"B2094655D264AAF44198","title":"上海市工业技术学校","lon":"121.45312","lat":"31.14674","category":"54","category_name":"职业技术学校","address":"喜泰支路8"},{"poiid":"B2094654DA65ABFF469E","title":"龙南三、四村","lon":"121.45609","lat":"31.15479","category":"47","category_name":"住宅区","address":"天钥桥南路4号-98号"},{"poiid":"B2094654DA65ABFA4092","title":"龙华滨江休闲广场","lon":"121.4573","lat":"31.15029","category":"201","category_name":"城市广场","address":"上海滨江路"},{"poiid":"B2094655D36CA5F44298","title":"滨江路临江路","lon":"121.45888","lat":"31.15329","category":"38","category_name":"公交车站","address":""},{"poiid":"B2094654DA65ABFA479F","title":"上海市第42机动车安全检测站(徐汇)","lon":"121.46109","lat":"31.15756","category":"250","category_name":"公园户外","address":"龙水南路95号"},{"poiid":"B2094757D06FAAF4499B","title":"龙南五村","lon":"121.454401146","lat":"31.1534590508","category":"252","category_name":"楼宇机构","address":"上海龙水南路350号"},{"poiid":"B2094757D16BA3FF429F","title":"上海宝狮东风标致4S店","lon":"121.45920733","lat":"31.155595811","category":"500","category_name":"未知分类","address":"上海市龙水南路201号一幢"},{"poiid":"B2094654DA65ABF84192","title":"绿邑新苑","lon":"121.452817","lat":"31.153755","category":"47","category_name":"住宅区","address":"徐汇龙水南路391-399号"},{"poiid":"B2094654DA65ABFA469F","title":"上海市徐汇区汽车驾驶员培训部","lon":"121.46115","lat":"31.15591","category":"192","category_name":"驾校","address":"龙水南路60-2临"},{"poiid":"B2094751DA6EA4FA499A","title":"上海虹桥机场","lon":"121.464111","lat":"31.144684","category":"500","category_name":"未知分类","address":null},{"poiid":"B2094757D16CA7F9489F","title":"上海森那美汽车(经营捷豹路虎劳斯莱斯等车型)","lon":"121.459034","lat":"31.15685","category":"500","category_name":"未知分类","address":"上海龙水南路201号2幢"},{"poiid":"B2094757D068A5F9479B","title":"公交(932路)","lon":"121.45888261","lat":"31.15325001","category":"38","category_name":"公交车站","address":"上海滨江路临江路-城隍庙"},{"poiid":"B2094654DB6CA1FB409F","title":"华馨公寓","lon":"121.459","lat":"31.1407","category":"47","category_name":"住宅区","address":"上海市徐汇区罗秀路55弄"},{"poiid":"B2094654DA65ABFA449A","title":"光明乳业龙南配送站","lon":"121.45899","lat":"31.15331","category":"117","category_name":"便民商店/便利店","address":"临江路93识别"},{"poiid":"B2094750D56AA3FA439A","title":"中海瀛台一期","lon":"121.459521","lat":"31.147362","category":"47","category_name":"住宅区","address":"上海市徐汇区龙吴路1270号"},{"poiid":"B2094654DB6CA1F8489E","title":"上海植物园(1号门)","lon":"121.45018","lat":"31.14629","category":"680","category_name":"楼宇机构","address":"上海市龙吴路1111号"},{"poiid":"B209475CD264A3F5469F","title":"上海地铁11号线龙耀路站","lon":"121.462966","lat":"31.153446","category":"500","category_name":"未知分类","address":"上海市 上海市徐汇区龙耀路"},{"poiid":"B2094654DA65ABF84798","title":"樟树苑","lon":"121.457","lat":"31.1549","category":"47","category_name":"住宅区","address":"樟树苑位于徐汇龙吴路988号"},{"poiid":"B2094654DA65ABFA4093","title":"滨江小区(西南门)","lon":"121.45603","lat":"31.15156","category":"47","category_name":"住宅区","address":"天钥桥南路1249弄1-58号"},{"poiid":"B2094757D06AA7F9439C","title":"扬州饭店(徐汇店)","lon":"121.45213","lat":"31.15415","category":"74","category_name":"江苏菜","address":"徐汇区喜泰北路10号(黄石路龙水南路间)"},{"poiid":"B2094654DB65A3F9449C","title":"克莉丝汀 龙水南路店","lon":"121.451310054","lat":"31.150953793","category":"112","category_name":"糕饼店","address":"徐汇区龙水南路318号乙(近龙吴路)"},{"poiid":"B2094757D06FABFF4793","title":"天钥桥南路","lon":"121.457557","lat":"31.153915","category":"260","category_name":"其他","address":"上海徐汇区天钥桥南路"},{"poiid":"B2094757D064A1FA469A","title":"932路滨江路临江路终点站","lon":"121.45909881","lat":"31.152360916","category":"500","category_name":"未知分类","address":"上海市徐汇区滨江路28号(对面)"},{"poiid":"B2094757D16DA7F8409A","title":"黄石路","lon":"121.451271","lat":"31.156926","category":"500","category_name":"未知分类","address":"上海黄石路169弄"},{"poiid":"B2094757D169A2FF419F","title":"长峰新村","lon":"121.46319498301","lat":"31.156955126594","category":"47","category_name":"住宅区","address":"长峰新村位于徐汇上海徐汇天钥桥南路1249弄"},{"poiid":"B2094655D26BA3FF409B","title":"龙华汽配城","lon":"121.45909","lat":"31.15531","category":"116","category_name":"特色商业街","address":"徐汇区龙水南路201号;;"},{"poiid":"B2094655D26BABF44093","title":"家得利早餐摊天钥桥南路店","lon":"121.45565","lat":"31.15317","category":"68","category_name":"快餐厅","address":"徐汇区天钥桥南路1191号家得利(近龙水南路)"},{"poiid":"B2094654DA65ABF9499B","title":"长峰小区","lon":"121.4549","lat":"31.152561","category":"47","category_name":"住宅区","address":"天钥桥南路1188弄1-28号"},{"poiid":"B2094757D16AA4F5449F","title":"华氏大药房(龙水南路店)","lon":"121.45688","lat":"31.15365","category":"162","category_name":"医院","address":"徐汇区龙水南路304号(临江路龙水南路)"},{"poiid":"B2094757D66CABFC459A","title":"Mickey hous","lon":"121.45723473","lat":"31.152702649","category":"500","category_name":"未知分类","address":"上海徐汇滨江"},{"poiid":"B2094757D16AA1FB459E","title":"龙南幼儿园","lon":"121.45705173","lat":"31.153591668","category":"57","category_name":"幼儿园","address":"上海徐汇区龙水三村"},{"poiid":"B2094757D16FA7FD4892","title":"百色路","lon":"121.45755373","lat":"31.154711692","category":"500","category_name":"未知分类","address":"上海市徐汇区百色路"},{"poiid":"B2094654DB64A2FB459B","title":"良友(龙水南路)","lon":"121.45594","lat":"31.15365","category":"117","category_name":"便民商店/便利店","address":"龙水南路310-5"},{"poiid":"B2094655D264A2FE409B","title":"龙南平价房","lon":"121.45573","lat":"31.15271","category":"47","category_name":"住宅区","address":"龙南平价房位于徐汇天钥桥南路1199弄"},{"poiid":"B2094654DA65ABFA449D","title":"龙南公寓","lon":"121.45676","lat":"31.154684","category":"47","category_name":"住宅区","address":"龙水南路269弄2-6号"},{"poiid":"B2094757D069A5FA419C","title":"龙苑中学","lon":"121.454249","lat":"31.157455","category":"55","category_name":"中学","address":"上海黄石路85号"},{"poiid":"B2094654DA65ABF8489B","title":"汇丰创意园","lon":"121.45278","lat":"31.14834","category":"45","category_name":"产业园区","address":"徐汇区喜泰路239号(近植物园)"},{"poiid":"B2094750DA65A1F84398","title":"中山医院","lon":"121.457046","lat":"31.155887","category":"162","category_name":"医院","address":null},{"poiid":"B2094654DA65ABF9499A","title":"龙华街道社区卫生服务中心新长峰服务站","lon":"121.4553","lat":"31.15299","category":"162","category_name":"医院","address":"天钥桥南路1180识别"},{"poiid":"B2094757D06AA4FE4999","title":"大众徐汇4S","lon":"121.450896","lat":"31.153296","category":"47","category_name":"住宅区","address":"上海龙水南路386号"},{"poiid":"B2094757D06BA0F94998","title":"标致4S店","lon":"121.460362","lat":"31.155678","category":"500","category_name":"未知分类","address":"上海龙水南路201号"},{"poiid":"B2094654DA65ABFA469E","title":"上海市交通安全教育学校徐汇分部","lon":"121.46116","lat":"31.15591","category":"253","category_name":"校园生活","address":"徐汇区龙水南路60号"},{"poiid":"B2094654DA65ABF9449C","title":"叠加苑","lon":"121.45294","lat":"31.152843","category":"47","category_name":"住宅区","address":"上海市徐汇区龙水南路358弄"},{"poiid":"B2094655D268A3F4469E","title":"百色路500弄","lon":"121.455","lat":"31.1502","category":"47","category_name":"住宅区","address":"百色路500弄"},{"poiid":"B2094757D06FAAFE4893","title":"园林格兰云天大酒店","lon":"121.4535392463","lat":"31.150066281662","category":"217","category_name":"旅馆招待所","address":"徐汇区百色路100号(近上海植物园)"},{"poiid":"B2094757D069A4F44293","title":"上海植物园第一会所","lon":"121.44505","lat":"31.14673","category":"72","category_name":"广东菜","address":"徐汇区龙吴路1111号上海植物园内(近百色路)"},{"poiid":"B2094757D06FA1FE439D","title":"滨江小区","lon":"121.45765","lat":"31.152988","category":"47","category_name":"住宅区","address":"上海天钥桥南路1199弄"},{"poiid":"B2094654DA65A6FB419A","title":"上海植物园(2号门)","lon":"121.44988","lat":"31.15001","category":"680","category_name":"楼宇机构","address":"龙吴路997"},{"poiid":"B2094757D06FABFE4492","title":"中海瀛台","lon":"121.45292","lat":"31.140421","category":"500","category_name":"未知分类","address":"徐汇区龙瑞路77弄"},{"poiid":"B2094757D06FA1FA4592","title":"上中路隧道","lon":"121.45757293","lat":"31.143583297","category":"38","category_name":"公交车站","address":"上海上中路隧道"},{"poiid":"B2094655D264AAF44198","title":"上海市工业技术学校","lon":"121.45312","lat":"31.14674","category":"54","category_name":"职业技术学校","address":"喜泰支路8"},{"poiid":"B2094654DA65ABFF469E","title":"龙南三、四村","lon":"121.45609","lat":"31.15479","category":"47","category_name":"住宅区","address":"天钥桥南路4号-98号"},{"poiid":"B2094654DA65ABFA4092","title":"龙华滨江休闲广场","lon":"121.4573","lat":"31.15029","category":"201","category_name":"城市广场","address":"上海滨江路"},{"poiid":"B2094655D36CA5F44298","title":"滨江路临江路","lon":"121.45888","lat":"31.15329","category":"38","category_name":"公交车站","address":""},{"poiid":"B2094654DA65ABFA479F","title":"上海市第42机动车安全检测站(徐汇)","lon":"121.46109","lat":"31.15756","category":"250","category_name":"公园户外","address":"龙水南路95号"},{"poiid":"B2094757D06FAAF4499B","title":"龙南五村","lon":"121.454401146","lat":"31.1534590508","category":"252","category_name":"楼宇机构","address":"上海龙水南路350号"},{"poiid":"B2094757D16BA3FF429F","title":"上海宝狮东风标致4S店","lon":"121.45920733","lat":"31.155595811","category":"500","category_name":"未知分类","address":"上海市龙水南路201号一幢"},{"poiid":"B2094654DA65ABF84192","title":"绿邑新苑","lon":"121.452817","lat":"31.153755","category":"47","category_name":"住宅区","address":"徐汇龙水南路391-399号"},{"poiid":"B2094654DA65ABFA469F","title":"上海市徐汇区汽车驾驶员培训部","lon":"121.46115","lat":"31.15591","category":"192","category_name":"驾校","address":"龙水南路60-2临"},{"poiid":"B2094751DA6EA4FA499A","title":"上海虹桥机场","lon":"121.464111","lat":"31.144684","category":"500","category_name":"未知分类","address":null},{"poiid":"B2094757D16CA7F9489F","title":"上海森那美汽车(经营捷豹路虎劳斯莱斯等车型)","lon":"121.459034","lat":"31.15685","category":"500","category_name":"未知分类","address":"上海龙水南路201号2幢"},{"poiid":"B2094757D068A5F9479B","title":"公交(932路)","lon":"121.45888261","lat":"31.15325001","category":"38","category_name":"公交车站","address":"上海滨江路临江路-城隍庙"},{"poiid":"B2094654DB6CA1FB409F","title":"华馨公寓","lon":"121.459","lat":"31.1407","category":"47","category_name":"住宅区","address":"上海市徐汇区罗秀路55弄"},{"poiid":"B2094654DA65ABFA449A","title":"光明乳业龙南配送站","lon":"121.45899","lat":"31.15331","category":"117","category_name":"便民商店/便利店","address":"临江路93识别"},{"poiid":"B2094750D56AA3FA439A","title":"中海瀛台一期","lon":"121.459521","lat":"31.147362","category":"47","category_name":"住宅区","address":"上海市徐汇区龙吴路1270号"},{"poiid":"B2094654DB6CA1F8489E","title":"上海植物园(1号门)","lon":"121.45018","lat":"31.14629","category":"680","category_name":"楼宇机构","address":"上海市龙吴路1111号"},{"poiid":"B209475CD264A3F5469F","title":"上海地铁11号线龙耀路站","lon":"121.462966","lat":"31.153446","category":"500","category_name":"未知分类","address":"上海市 上海市徐汇区龙耀路"},{"poiid":"B2094654DA65ABF84798","title":"樟树苑","lon":"121.457","lat":"31.1549","category":"47","category_name":"住宅区","address":"樟树苑位于徐汇龙吴路988号"},{"poiid":"B2094654DA65ABFA4093","title":"滨江小区(西南门)","lon":"121.45603","lat":"31.15156","category":"47","category_name":"住宅区","address":"天钥桥南路1249弄1-58号"},{"poiid":"B2094757D06AA7F9439C","title":"扬州饭店(徐汇店)","lon":"121.45213","lat":"31.15415","category":"74","category_name":"江苏菜","address":"徐汇区喜泰北路10号(黄石路龙水南路间)"},{"poiid":"B2094654DB65A3F9449C","title":"克莉丝汀 龙水南路店","lon":"121.451310054","lat":"31.150953793","category":"112","category_name":"糕饼店","address":"徐汇区龙水南路318号乙(近龙吴路)"},{"poiid":"B2094757D06FABFF4793","title":"天钥桥南路","lon":"121.457557","lat":"31.153915","category":"260","category_name":"其他","address":"上海徐汇区天钥桥南路"},{"poiid":"B2094757D064A1FA469A","title":"932路滨江路临江路终点站","lon":"121.45909881","lat":"31.152360916","category":"500","category_name":"未知分类","address":"上海市徐汇区滨江路28号(对面)"},{"poiid":"B2094757D16DA7F8409A","title":"黄石路","lon":"121.451271","lat":"31.156926","category":"500","category_name":"未知分类","address":"上海黄石路169弄"},{"poiid":"B2094757D169A2FF419F","title":"长峰新村","lon":"121.46319498301","lat":"31.156955126594","category":"47","category_name":"住宅区","address":"长峰新村位于徐汇上海徐汇天钥桥南路1249弄"},{"poiid":"B2094655D26BA3FF409B","title":"龙华汽配城","lon":"121.45909","lat":"31.15531","category":"116","category_name":"特色商业街","address":"徐汇区龙水南路201号;;"},{"poiid":"B2094655D26BABF44093","title":"家得利早餐摊天钥桥南路店","lon":"121.45565","lat":"31.15317","category":"68","category_name":"快餐厅","address":"徐汇区天钥桥南路1191号家得利(近龙水南路)"},{"poiid":"B2094654DA65ABF9499B","title":"长峰小区","lon":"121.4549","lat":"31.152561","category":"47","category_name":"住宅区","address":"天钥桥南路1188弄1-28号"},{"poiid":"B2094757D16AA4F5449F","title":"华氏大药房(龙水南路店)","lon":"121.45688","lat":"31.15365","category":"162","category_name":"医院","address":"徐汇区龙水南路304号(临江路龙水南路)"},{"poiid":"B2094757D66CABFC459A","title":"Mickey hous","lon":"121.45723473","lat":"31.152702649","category":"500","category_name":"未知分类","address":"上海徐汇滨江"},{"poiid":"B2094757D16AA1FB459E","title":"龙南幼儿园","lon":"121.45705173","lat":"31.153591668","category":"57","category_name":"幼儿园","address":"上海徐汇区龙水三村"},{"poiid":"B2094757D16FA7FD4892","title":"百色路","lon":"121.45755373","lat":"31.154711692","category":"500","category_name":"未知分类","address":"上海市徐汇区百色路"},{"poiid":"B2094654DB64A2FB459B","title":"良友(龙水南路)","lon":"121.45594","lat":"31.15365","category":"117","category_name":"便民商店/便利店","address":"龙水南路310-5"},{"poiid":"B2094655D264A2FE409B","title":"龙南平价房","lon":"121.45573","lat":"31.15271","category":"47","category_name":"住宅区","address":"龙南平价房位于徐汇天钥桥南路1199弄"},{"poiid":"B2094654DA65ABFA449D","title":"龙南公寓","lon":"121.45676","lat":"31.154684","category":"47","category_name":"住宅区","address":"龙水南路269弄2-6号"},{"poiid":"B2094757D069A5FA419C","title":"龙苑中学","lon":"121.454249","lat":"31.157455","category":"55","category_name":"中学","address":"上海黄石路85号"},{"poiid":"B2094654DA65ABF8489B","title":"汇丰创意园","lon":"121.45278","lat":"31.14834","category":"45","category_name":"产业园区","address":"徐汇区喜泰路239号(近植物园)"},{"poiid":"B2094750DA65A1F84398","title":"中山医院","lon":"121.457046","lat":"31.155887","category":"162","category_name":"医院","address":null},{"poiid":"B2094654DA65ABF9499A","title":"龙华街道社区卫生服务中心新长峰服务站","lon":"121.4553","lat":"31.15299","category":"162","category_name":"医院","address":"天钥桥南路1180识别"},{"poiid":"B2094757D06AA4FE4999","title":"大众徐汇4S","lon":"121.450896","lat":"31.153296","category":"47","category_name":"住宅区","address":"上海龙水南路386号"},{"poiid":"B2094757D06BA0F94998","title":"标致4S店","lon":"121.460362","lat":"31.155678","category":"500","category_name":"未知分类","address":"上海龙水南路201号"},{"poiid":"B2094654DA65ABFA469E","title":"上海市交通安全教育学校徐汇分部","lon":"121.46116","lat":"31.15591","category":"253","category_name":"校园生活","address":"徐汇区龙水南路60号"},{"poiid":"B2094654DA65ABF9449C","title":"叠加苑","lon":"121.45294","lat":"31.152843","category":"47","category_name":"住宅区","address":"上海市徐汇区龙水南路358弄"},{"poiid":"B2094655D268A3F4469E","title":"百色路500弄","lon":"121.455","lat":"31.1502","category":"47","category_name":"住宅区","address":"百色路500弄"}]