[{"poiid":"B2094654DB6AA6F84799","title":"上海柏悦酒店","lon":"121.50772","lat":"31.23458","category":"213","category_name":"五星级宾馆","address":"浦东新区世纪大道100号环球金融中心79-93楼(近东泰路)"},{"poiid":"B2094757D068AAFF439C","title":"上海環球金融中心100F","lon":"121.50764573","lat":"31.234257385","category":"172","category_name":"酒吧","address":"上海浦东新区银城中路"},{"poiid":"B2094757D06FA3FA449C","title":"蓝蛙(金融中心店)","lon":"121.507612712","lat":"31.2345660379","category":"260","category_name":"其他","address":"浦东新区世纪大道100号环球金融中心B1楼(近东泰路)"},{"poiid":"B209475CD564A7F84392","title":"上海滩浦东香格里拉店","lon":"121.50058","lat":"31.23634","category":"119","category_name":"商场","address":"浦东富成路33号香格里拉酒店内大堂层"},{"poiid":"B2094750D66FA4F44999","title":"上海浦东四季酒店","lon":"121.509437","lat":"31.233774","category":"252","category_name":"楼宇机构","address":"世纪大道210号"},{"poiid":"B2094757D06FA7F84593","title":"黔香阁(浦东店)","lon":"121.51129","lat":"31.22987","category":"83","category_name":"云贵菜","address":"浦东新区浦城路171号(近商城路)"},{"poiid":"B2094654DA6EABFF439B","title":"久事大厦","lon":"121.507","lat":"31.2307","category":"46","category_name":"楼宇","address":"上海市黄浦区中山南路28号"},{"poiid":"B2094655D264A0F9429B","title":"俏江南(环球金融中心店)","lon":"121.50773","lat":"31.23458","category":"71","category_name":"四川菜","address":"浦东新区世纪大道100号环球金融中心3楼307室(近东泰路)"},{"poiid":"B2094757D66FA6FA449C","title":"星巴克(环球金融店)","lon":"121.507684","lat":"31.234951","category":"260","category_name":"其他","address":"浦东新区世纪大道100号环球金融中心1楼101室(近东泰路)"},{"poiid":"B2094757D06FABFE4793","title":"鼎泰丰(环球金融中心店)","lon":"121.507521517","lat":"31.2345763583","category":"68","category_name":"快餐厅","address":"浦东新区世纪大道100号环球金融中心3楼(近东泰路)"},{"poiid":"B2094757D16FA0FC4699","title":"环球金融中心 DADA Hair SaIon","lon":"121.50961873","lat":"31.234726395","category":"500","category_name":"未知分类","address":"上海市浦东新区陆家嘴东路"},{"poiid":"B2094757D068A2FB4693","title":"世纪100餐厅 100Century Avenue","lon":"121.507588054","lat":"31.235582793","category":"76","category_name":"上海菜","address":"浦东新区世纪大道100号环球金融中心上海柏悦酒店91-93楼(近东泰路)"},{"poiid":"B2094655D26BA3FE419E","title":"新元素 环球中心店 Element Fresh","lon":"121.507588054","lat":"31.235582793","category":"94","category_name":"西餐厅","address":"浦东新区世纪大道100号环球金融中心2楼(近东泰路)"},{"poiid":"B2094757D06FA2FF4198","title":"檬舒舒 MonChouChou(环球金融店)","lon":"121.50742334526058","lat":"31.234131052731218","category":"67","category_name":"甜品店","address":"浦东新区世纪大道100号环球金融中心B1楼B104号商铺(近东泰路)"},{"poiid":"B2094757D569A2FC4193","title":"赤坂亭(环球店)","lon":"121.50769775","lat":"31.23458686","category":"269","category_name":"烧烤","address":"浦东新区世纪大道100号环球金融中心3楼303号(近东泰路)"},{"poiid":"B2094757D465A0F44699","title":"尼藏花园餐厅酒吧 Nizang Himalaya","lon":"121.51071683753","lat":"31.232122106704","category":"110","category_name":"其他亚洲菜","address":"浦东新区东昌路498号东园一村内(近浦东南路)"},{"poiid":"B2094757D068A7F8459A","title":"仁恒滨江园(Yanlord Garden)","lon":"121.50641632","lat":"31.228860855","category":"47","category_name":"住宅区","address":"上海浦东新区浦明路99弄(近商城路)"},{"poiid":"B2094655D26DA7F44998","title":"上海环球金融中心观光厅","lon":"121.50773","lat":"31.23458","category":"183","category_name":"展览馆","address":"浦东新区世纪大道100号环球金融中心94-100楼(近东泰路)"},{"poiid":"B2094750DB6BAAFD4799","title":"一风堂","lon":"121.509391","lat":"31.233442","category":"247","category_name":"餐饮美食","address":"浦东新区世纪大道8号国金中心LG1-79-80号(近正大广场)"},{"poiid":"B2094757D068A6FE429C","title":"金外滩花园","lon":"121.507","lat":"31.228","category":"47","category_name":"住宅区","address":"上海市黄浦区中山南路222号"},{"poiid":"B2094750D56DA2FB4098","title":"浦东四季酒店Camelia餐厅","lon":"121.5101528358764","lat":"31.234307759796852","category":"94","category_name":"西餐厅","address":"浦东新区世纪大道210号上海浦东四季酒店1楼(近浦成路)"},{"poiid":"B2094655D26BA4F44398","title":"COSTA咖啡(上海环球金融中心店)","lon":"121.50773","lat":"31.23458","category":"65","category_name":"咖啡厅","address":"浦东新区世纪大道100号环球金融中心2楼220单元(近东泰路)"},{"poiid":"B2094757D068AAFD449B","title":"ABC cooking studio(环球金融中心)","lon":"121.50756773","lat":"31.234875399","category":"67","category_name":"甜品店","address":"上海世纪大道100号"},{"poiid":"B2094655D26FA6F54399","title":"仁恒滨江园","lon":"121.50861","lat":"31.23017","category":"47","category_name":"住宅区","address":"浦城路99弄"},{"poiid":"B2094757D06FA0FF4192","title":"洋面屋五右卫门 世纪大道店","lon":"121.507687","lat":"31.234577","category":"94","category_name":"西餐厅","address":"浦东新区世纪大道100号环球金融中心B1楼106-2号(近东泰路)"},{"poiid":"B2094752D16CAAFD489B","title":"Brotzeit 博璨摩登德国啤酒餐厅","lon":"121.509171","lat":"31.234161","category":"247","category_name":"餐饮美食","address":"世纪大道100号环球金融中心2楼"},{"poiid":"B2094757D068A0FA409A","title":"Living Room","lon":"121.51033273","lat":"31.233739374","category":"260","category_name":"其他","address":"浦东新区世纪大道100号环球金融中心上海柏悦酒店87楼(近东泰路)"},{"poiid":"B2094655D36CA1FD429C","title":"十六铺","lon":"121.507","lat":"31.2305","category":"38","category_name":"公交车站","address":"中山东二路88弄"},{"poiid":"B2094750D76CABF9459C","title":"Bros会津まる家(陆家嘴店)","lon":"121.508","lat":"31.2349","category":"95","category_name":"日本料理","address":"世纪大道100号环球金融中心B1楼"},{"poiid":"B2094757D068A4F4489F","title":"4号线世纪大道站","lon":"121.51115343","lat":"31.233440868","category":"36","category_name":"地铁站","address":"上海世纪大道站"},{"poiid":"B2094757D065A7F54592","title":"Park Hyatt 92F Bar","lon":"121.50675873","lat":"31.234378388","category":"260","category_name":"其他","address":"上海市浦东新区世纪大道"},{"poiid":"B209475CDA64A2F9459A","title":"翠華餐廳","lon":"121.509361","lat":"31.233362","category":"500","category_name":"未知分类","address":"上海市 浦東世紀大道8号國金中心"},{"poiid":"B2094757D06BA1FA459D","title":"上海中心","lon":"121.506470701","lat":"31.2333594809","category":"500","category_name":"未知分类","address":"上海银城中路501号"},{"poiid":"B2094757D06FA0FF489D","title":"人民路隧道","lon":"121.50976562","lat":"31.232780456","category":"47","category_name":"住宅区","address":"上海黄浦区人民路-浦东新区东昌路"},{"poiid":"B2094757D66FA6FE4999","title":"星巴克 STARBUCKS (浦发大厦店)","lon":"121.510271838","lat":"31.2337665755","category":"260","category_name":"其他","address":"浦东新区浦东南路588号浦发大厦1楼(近世纪大道)"},{"poiid":"B2094757D06BA1F8439C","title":"一宝日本料理（环球金融店）","lon":"121.50744628","lat":"31.234582901","category":"95","category_name":"日本料理","address":"浦东新区世纪大道100号环球金融中心3楼(近东泰路)"},{"poiid":"B2094757D16CABFA409E","title":"轨道交通2号线(陆家嘴)","lon":"121.512001738","lat":"31.2323463452","category":"500","category_name":"未知分类","address":"上海陆家嘴"},{"poiid":"B2094757D068A2FD449A","title":"卡玛生活瑜伽会馆","lon":"121.51181","lat":"31.22961","category":"148","category_name":"美容美发店","address":"浦东新区浦城路172号3-4楼(近商城路)"},{"poiid":"B2094757D06BAAFE4893","title":"21世纪大厦","lon":"121.50967136","lat":"31.234596161","category":"252","category_name":"楼宇机构","address":"上海世纪大道210号"},{"poiid":"B2094752D768A4FC489E","title":"cafe lugo八佰伴店","lon":"121.50869","lat":"31.230443","category":"247","category_name":"餐饮美食","address":"上海市浦东新区张杨路1333号八佰伴三楼"},{"poiid":"B2094757D66EA1FC4398","title":"东昌路地铁站","lon":"121.506740438","lat":"31.2342075849","category":"36","category_name":"地铁站","address":"上海东昌路"},{"poiid":"B2094757D069A5F84392","title":"安永华明会计师事务所上海分所","lon":"121.50769602","lat":"31.232077909","category":"46","category_name":"楼宇","address":"上海世纪大道100号环球金融中心50楼"},{"poiid":"B2094757D069A3F4419C","title":"港泰风茶餐厅","lon":"121.50589822","lat":"31.230998536","category":"72","category_name":"广东菜","address":"浦东新区东昌路540号(近浦东南路)"},{"poiid":"B2094750D669A2FC439F","title":"世纪100酒吧","lon":"121.508346","lat":"31.234354","category":"260","category_name":"其他","address":"浦东新区世纪大道100号环球金融中心上海柏悦酒店92楼(近东泰路)"},{"poiid":"B2094757D064A6FD4893","title":"法拉利玛莎拉蒂上海","lon":"121.51089973","lat":"31.233486369","category":"500","category_name":"未知分类","address":"上海世纪大道210号"},{"poiid":"B2094654DB6BAAF5429E","title":"陆家嘴图书馆","lon":"121.5111","lat":"31.23073","category":"181","category_name":"图书馆","address":"浦东新区浦城路150号(浦城路商城路)"},{"poiid":"B2094757D169A7FD4393","title":"橙祥烧腊餐厅","lon":"121.507852738","lat":"31.2324276469","category":"72","category_name":"广东菜","address":"浦东新区东昌路453号(近浦东南路)"},{"poiid":"B2094757D469A3F44699","title":"和兴湘菜 东昌路店","lon":"121.5094898","lat":"31.2317688","category":"77","category_name":"湖南菜","address":"浦东新区东昌路435号(近浦东南路)"},{"poiid":"B2094757D465A3F9449D","title":"金茂海悦号","lon":"121.5083021","lat":"31.2314315","category":"72","category_name":"广东菜","address":"东昌路1号东昌路渡口近富城路"},{"poiid":"B2094757D068A7FB439D","title":"盛大金磐","lon":"121.50597524","lat":"31.231531638","category":"500","category_name":"未知分类","address":"上海浦东新区东泰路200弄"},{"poiid":"B2094654DB6AA6F84799","title":"上海柏悦酒店","lon":"121.50772","lat":"31.23458","category":"213","category_name":"五星级宾馆","address":"浦东新区世纪大道100号环球金融中心79-93楼(近东泰路)"},{"poiid":"B2094757D068AAFF439C","title":"上海環球金融中心100F","lon":"121.50764573","lat":"31.234257385","category":"172","category_name":"酒吧","address":"上海浦东新区银城中路"},{"poiid":"B2094757D06FA3FA449C","title":"蓝蛙(金融中心店)","lon":"121.507612712","lat":"31.2345660379","category":"260","category_name":"其他","address":"浦东新区世纪大道100号环球金融中心B1楼(近东泰路)"},{"poiid":"B209475CD564A7F84392","title":"上海滩浦东香格里拉店","lon":"121.50058","lat":"31.23634","category":"119","category_name":"商场","address":"浦东富成路33号香格里拉酒店内大堂层"},{"poiid":"B2094750D66FA4F44999","title":"上海浦东四季酒店","lon":"121.509437","lat":"31.233774","category":"252","category_name":"楼宇机构","address":"世纪大道210号"},{"poiid":"B2094757D06FA7F84593","title":"黔香阁(浦东店)","lon":"121.51129","lat":"31.22987","category":"83","category_name":"云贵菜","address":"浦东新区浦城路171号(近商城路)"},{"poiid":"B2094654DA6EABFF439B","title":"久事大厦","lon":"121.507","lat":"31.2307","category":"46","category_name":"楼宇","address":"上海市黄浦区中山南路28号"},{"poiid":"B2094655D264A0F9429B","title":"俏江南(环球金融中心店)","lon":"121.50773","lat":"31.23458","category":"71","category_name":"四川菜","address":"浦东新区世纪大道100号环球金融中心3楼307室(近东泰路)"},{"poiid":"B2094757D66FA6FA449C","title":"星巴克(环球金融店)","lon":"121.507684","lat":"31.234951","category":"260","category_name":"其他","address":"浦东新区世纪大道100号环球金融中心1楼101室(近东泰路)"},{"poiid":"B2094757D06FABFE4793","title":"鼎泰丰(环球金融中心店)","lon":"121.507521517","lat":"31.2345763583","category":"68","category_name":"快餐厅","address":"浦东新区世纪大道100号环球金融中心3楼(近东泰路)"},{"poiid":"B2094757D16FA0FC4699","title":"环球金融中心 DADA Hair SaIon","lon":"121.50961873","lat":"31.234726395","category":"500","category_name":"未知分类","address":"上海市浦东新区陆家嘴东路"},{"poiid":"B2094757D068A2FB4693","title":"世纪100餐厅 100Century Avenue","lon":"121.507588054","lat":"31.235582793","category":"76","category_name":"上海菜","address":"浦东新区世纪大道100号环球金融中心上海柏悦酒店91-93楼(近东泰路)"},{"poiid":"B2094655D26BA3FE419E","title":"新元素 环球中心店 Element Fresh","lon":"121.507588054","lat":"31.235582793","category":"94","category_name":"西餐厅","address":"浦东新区世纪大道100号环球金融中心2楼(近东泰路)"},{"poiid":"B2094757D06FA2FF4198","title":"檬舒舒 MonChouChou(环球金融店)","lon":"121.50742334526058","lat":"31.234131052731218","category":"67","category_name":"甜品店","address":"浦东新区世纪大道100号环球金融中心B1楼B104号商铺(近东泰路)"},{"poiid":"B2094757D569A2FC4193","title":"赤坂亭(环球店)","lon":"121.50769775","lat":"31.23458686","category":"269","category_name":"烧烤","address":"浦东新区世纪大道100号环球金融中心3楼303号(近东泰路)"},{"poiid":"B2094757D465A0F44699","title":"尼藏花园餐厅酒吧 Nizang Himalaya","lon":"121.51071683753","lat":"31.232122106704","category":"110","category_name":"其他亚洲菜","address":"浦东新区东昌路498号东园一村内(近浦东南路)"},{"poiid":"B2094757D068A7F8459A","title":"仁恒滨江园(Yanlord Garden)","lon":"121.50641632","lat":"31.228860855","category":"47","category_name":"住宅区","address":"上海浦东新区浦明路99弄(近商城路)"},{"poiid":"B2094655D26DA7F44998","title":"上海环球金融中心观光厅","lon":"121.50773","lat":"31.23458","category":"183","category_name":"展览馆","address":"浦东新区世纪大道100号环球金融中心94-100楼(近东泰路)"},{"poiid":"B2094750DB6BAAFD4799","title":"一风堂","lon":"121.509391","lat":"31.233442","category":"247","category_name":"餐饮美食","address":"浦东新区世纪大道8号国金中心LG1-79-80号(近正大广场)"},{"poiid":"B2094757D068A6FE429C","title":"金外滩花园","lon":"121.507","lat":"31.228","category":"47","category_name":"住宅区","address":"上海市黄浦区中山南路222号"},{"poiid":"B2094750D56DA2FB4098","title":"浦东四季酒店Camelia餐厅","lon":"121.5101528358764","lat":"31.234307759796852","category":"94","category_name":"西餐厅","address":"浦东新区世纪大道210号上海浦东四季酒店1楼(近浦成路)"},{"poiid":"B2094655D26BA4F44398","title":"COSTA咖啡(上海环球金融中心店)","lon":"121.50773","lat":"31.23458","category":"65","category_name":"咖啡厅","address":"浦东新区世纪大道100号环球金融中心2楼220单元(近东泰路)"},{"poiid":"B2094757D068AAFD449B","title":"ABC cooking studio(环球金融中心)","lon":"121.50756773","lat":"31.234875399","category":"67","category_name":"甜品店","address":"上海世纪大道100号"},{"poiid":"B2094655D26FA6F54399","title":"仁恒滨江园","lon":"121.50861","lat":"31.23017","category":"47","category_name":"住宅区","address":"浦城路99弄"},{"poiid":"B2094757D06FA0FF4192","title":"洋面屋五右卫门 世纪大道店","lon":"121.507687","lat":"31.234577","category":"94","category_name":"西餐厅","address":"浦东新区世纪大道100号环球金融中心B1楼106-2号(近东泰路)"},{"poiid":"B2094752D16CAAFD489B","title":"Brotzeit 博璨摩登德国啤酒餐厅","lon":"121.509171","lat":"31.234161","category":"247","category_name":"餐饮美食","address":"世纪大道100号环球金融中心2楼"},{"poiid":"B2094757D068A0FA409A","title":"Living Room","lon":"121.51033273","lat":"31.233739374","category":"260","category_name":"其他","address":"浦东新区世纪大道100号环球金融中心上海柏悦酒店87楼(近东泰路)"},{"poiid":"B2094655D36CA1FD429C","title":"十六铺","lon":"121.507","lat":"31.2305","category":"38","category_name":"公交车站","address":"中山东二路88弄"},{"poiid":"B2094750D76CABF9459C","title":"Bros会津まる家(陆家嘴店)","lon":"121.508","lat":"31.2349","category":"95","category_name":"日本料理","address":"世纪大道100号环球金融中心B1楼"},{"poiid":"B2094757D068A4F4489F","title":"4号线世纪大道站","lon":"121.51115343","lat":"31.233440868","category":"36","category_name":"地铁站","address":"上海世纪大道站"},{"poiid":"B2094757D065A7F54592","title":"Park Hyatt 92F Bar","lon":"121.50675873","lat":"31.234378388","category":"260","category_name":"其他","address":"上海市浦东新区世纪大道"},{"poiid":"B209475CDA64A2F9459A","title":"翠華餐廳","lon":"121.509361","lat":"31.233362","category":"500","category_name":"未知分类","address":"上海市 浦東世紀大道8号國金中心"},{"poiid":"B2094757D06BA1FA459D","title":"上海中心","lon":"121.506470701","lat":"31.2333594809","category":"500","category_name":"未知分类","address":"上海银城中路501号"},{"poiid":"B2094757D06FA0FF489D","title":"人民路隧道","lon":"121.50976562","lat":"31.232780456","category":"47","category_name":"住宅区","address":"上海黄浦区人民路-浦东新区东昌路"},{"poiid":"B2094757D66FA6FE4999","title":"星巴克 STARBUCKS (浦发大厦店)","lon":"121.510271838","lat":"31.2337665755","category":"260","category_name":"其他","address":"浦东新区浦东南路588号浦发大厦1楼(近世纪大道)"},{"poiid":"B2094757D06BA1F8439C","title":"一宝日本料理（环球金融店）","lon":"121.50744628","lat":"31.234582901","category":"95","category_name":"日本料理","address":"浦东新区世纪大道100号环球金融中心3楼(近东泰路)"},{"poiid":"B2094757D16CABFA409E","title":"轨道交通2号线(陆家嘴)","lon":"121.512001738","lat":"31.2323463452","category":"500","category_name":"未知分类","address":"上海陆家嘴"},{"poiid":"B2094757D068A2FD449A","title":"卡玛生活瑜伽会馆","lon":"121.51181","lat":"31.22961","category":"148","category_name":"美容美发店","address":"浦东新区浦城路172号3-4楼(近商城路)"},{"poiid":"B2094757D06BAAFE4893","title":"21世纪大厦","lon":"121.50967136","lat":"31.234596161","category":"252","category_name":"楼宇机构","address":"上海世纪大道210号"},{"poiid":"B2094752D768A4FC489E","title":"cafe lugo八佰伴店","lon":"121.50869","lat":"31.230443","category":"247","category_name":"餐饮美食","address":"上海市浦东新区张杨路1333号八佰伴三楼"},{"poiid":"B2094757D66EA1FC4398","title":"东昌路地铁站","lon":"121.506740438","lat":"31.2342075849","category":"36","category_name":"地铁站","address":"上海东昌路"},{"poiid":"B2094757D069A5F84392","title":"安永华明会计师事务所上海分所","lon":"121.50769602","lat":"31.232077909","category":"46","category_name":"楼宇","address":"上海世纪大道100号环球金融中心50楼"},{"poiid":"B2094757D069A3F4419C","title":"港泰风茶餐厅","lon":"121.50589822","lat":"31.230998536","category":"72","category_name":"广东菜","address":"浦东新区东昌路540号(近浦东南路)"},{"poiid":"B2094750D669A2FC439F","title":"世纪100酒吧","lon":"121.508346","lat":"31.234354","category":"260","category_name":"其他","address":"浦东新区世纪大道100号环球金融中心上海柏悦酒店92楼(近东泰路)"},{"poiid":"B2094757D064A6FD4893","title":"法拉利玛莎拉蒂上海","lon":"121.51089973","lat":"31.233486369","category":"500","category_name":"未知分类","address":"上海世纪大道210号"},{"poiid":"B2094654DB6BAAF5429E","title":"陆家嘴图书馆","lon":"121.5111","lat":"31.23073","category":"181","category_name":"图书馆","address":"浦东新区浦城路150号(浦城路商城路)"},{"poiid":"B2094757D169A7FD4393","title":"橙祥烧腊餐厅","lon":"121.507852738","lat":"31.2324276469","category":"72","category_name":"广东菜","address":"浦东新区东昌路453号(近浦东南路)"},{"poiid":"B2094757D469A3F44699","title":"和兴湘菜 东昌路店","lon":"121.5094898","lat":"31.2317688","category":"77","category_name":"湖南菜","address":"浦东新区东昌路435号(近浦东南路)"},{"poiid":"B2094757D465A3F9449D","title":"金茂海悦号","lon":"121.5083021","lat":"31.2314315","category":"72","category_name":"广东菜","address":"东昌路1号东昌路渡口近富城路"},{"poiid":"B2094757D068A7FB439D","title":"盛大金磐","lon":"121.50597524","lat":"31.231531638","category":"500","category_name":"未知分类","address":"上海浦东新区东泰路200弄"},{"poiid":"B2094654DB6AA6F84799","title":"上海柏悦酒店","lon":"121.50772","lat":"31.23458","category":"213","category_name":"五星级宾馆","address":"浦东新区世纪大道100号环球金融中心79-93楼(近东泰路)"},{"poiid":"B2094757D068AAFF439C","title":"上海環球金融中心100F","lon":"121.50764573","lat":"31.234257385","category":"172","category_name":"酒吧","address":"上海浦东新区银城中路"},{"poiid":"B2094757D06FA3FA449C","title":"蓝蛙(金融中心店)","lon":"121.507612712","lat":"31.2345660379","category":"260","category_name":"其他","address":"浦东新区世纪大道100号环球金融中心B1楼(近东泰路)"},{"poiid":"B209475CD564A7F84392","title":"上海滩浦东香格里拉店","lon":"121.50058","lat":"31.23634","category":"119","category_name":"商场","address":"浦东富成路33号香格里拉酒店内大堂层"},{"poiid":"B2094750D66FA4F44999","title":"上海浦东四季酒店","lon":"121.509437","lat":"31.233774","category":"252","category_name":"楼宇机构","address":"世纪大道210号"},{"poiid":"B2094757D06FA7F84593","title":"黔香阁(浦东店)","lon":"121.51129","lat":"31.22987","category":"83","category_name":"云贵菜","address":"浦东新区浦城路171号(近商城路)"},{"poiid":"B2094654DA6EABFF439B","title":"久事大厦","lon":"121.507","lat":"31.2307","category":"46","category_name":"楼宇","address":"上海市黄浦区中山南路28号"},{"poiid":"B2094655D264A0F9429B","title":"俏江南(环球金融中心店)","lon":"121.50773","lat":"31.23458","category":"71","category_name":"四川菜","address":"浦东新区世纪大道100号环球金融中心3楼307室(近东泰路)"},{"poiid":"B2094757D66FA6FA449C","title":"星巴克(环球金融店)","lon":"121.507684","lat":"31.234951","category":"260","category_name":"其他","address":"浦东新区世纪大道100号环球金融中心1楼101室(近东泰路)"},{"poiid":"B2094757D06FABFE4793","title":"鼎泰丰(环球金融中心店)","lon":"121.507521517","lat":"31.2345763583","category":"68","category_name":"快餐厅","address":"浦东新区世纪大道100号环球金融中心3楼(近东泰路)"},{"poiid":"B2094757D16FA0FC4699","title":"环球金融中心 DADA Hair SaIon","lon":"121.50961873","lat":"31.234726395","category":"500","category_name":"未知分类","address":"上海市浦东新区陆家嘴东路"},{"poiid":"B2094757D068A2FB4693","title":"世纪100餐厅 100Century Avenue","lon":"121.507588054","lat":"31.235582793","category":"76","category_name":"上海菜","address":"浦东新区世纪大道100号环球金融中心上海柏悦酒店91-93楼(近东泰路)"},{"poiid":"B2094655D26BA3FE419E","title":"新元素 环球中心店 Element Fresh","lon":"121.507588054","lat":"31.235582793","category":"94","category_name":"西餐厅","address":"浦东新区世纪大道100号环球金融中心2楼(近东泰路)"},{"poiid":"B2094757D06FA2FF4198","title":"檬舒舒 MonChouChou(环球金融店)","lon":"121.50742334526058","lat":"31.234131052731218","category":"67","category_name":"甜品店","address":"浦东新区世纪大道100号环球金融中心B1楼B104号商铺(近东泰路)"},{"poiid":"B2094757D569A2FC4193","title":"赤坂亭(环球店)","lon":"121.50769775","lat":"31.23458686","category":"269","category_name":"烧烤","address":"浦东新区世纪大道100号环球金融中心3楼303号(近东泰路)"},{"poiid":"B2094757D465A0F44699","title":"尼藏花园餐厅酒吧 Nizang Himalaya","lon":"121.51071683753","lat":"31.232122106704","category":"110","category_name":"其他亚洲菜","address":"浦东新区东昌路498号东园一村内(近浦东南路)"},{"poiid":"B2094757D068A7F8459A","title":"仁恒滨江园(Yanlord Garden)","lon":"121.50641632","lat":"31.228860855","category":"47","category_name":"住宅区","address":"上海浦东新区浦明路99弄(近商城路)"},{"poiid":"B2094655D26DA7F44998","title":"上海环球金融中心观光厅","lon":"121.50773","lat":"31.23458","category":"183","category_name":"展览馆","address":"浦东新区世纪大道100号环球金融中心94-100楼(近东泰路)"},{"poiid":"B2094750DB6BAAFD4799","title":"一风堂","lon":"121.509391","lat":"31.233442","category":"247","category_name":"餐饮美食","address":"浦东新区世纪大道8号国金中心LG1-79-80号(近正大广场)"},{"poiid":"B2094757D068A6FE429C","title":"金外滩花园","lon":"121.507","lat":"31.228","category":"47","category_name":"住宅区","address":"上海市黄浦区中山南路222号"},{"poiid":"B2094750D56DA2FB4098","title":"浦东四季酒店Camelia餐厅","lon":"121.5101528358764","lat":"31.234307759796852","category":"94","category_name":"西餐厅","address":"浦东新区世纪大道210号上海浦东四季酒店1楼(近浦成路)"},{"poiid":"B2094655D26BA4F44398","title":"COSTA咖啡(上海环球金融中心店)","lon":"121.50773","lat":"31.23458","category":"65","category_name":"咖啡厅","address":"浦东新区世纪大道100号环球金融中心2楼220单元(近东泰路)"},{"poiid":"B2094757D068AAFD449B","title":"ABC cooking studio(环球金融中心)","lon":"121.50756773","lat":"31.234875399","category":"67","category_name":"甜品店","address":"上海世纪大道100号"},{"poiid":"B2094655D26FA6F54399","title":"仁恒滨江园","lon":"121.50861","lat":"31.23017","category":"47","category_name":"住宅区","address":"浦城路99弄"},{"poiid":"B2094757D06FA0FF4192","title":"洋面屋五右卫门 世纪大道店","lon":"121.507687","lat":"31.234577","category":"94","category_name":"西餐厅","address":"浦东新区世纪大道100号环球金融中心B1楼106-2号(近东泰路)"},{"poiid":"B2094752D16CAAFD489B","title":"Brotzeit 博璨摩登德国啤酒餐厅","lon":"121.509171","lat":"31.234161","category":"247","category_name":"餐饮美食","address":"世纪大道100号环球金融中心2楼"},{"poiid":"B2094757D068A0FA409A","title":"Living Room","lon":"121.51033273","lat":"31.233739374","category":"260","category_name":"其他","address":"浦东新区世纪大道100号环球金融中心上海柏悦酒店87楼(近东泰路)"},{"poiid":"B2094655D36CA1FD429C","title":"十六铺","lon":"121.507","lat":"31.2305","category":"38","category_name":"公交车站","address":"中山东二路88弄"},{"poiid":"B2094750D76CABF9459C","title":"Bros会津まる家(陆家嘴店)","lon":"121.508","lat":"31.2349","category":"95","category_name":"日本料理","address":"世纪大道100号环球金融中心B1楼"},{"poiid":"B2094757D068A4F4489F","title":"4号线世纪大道站","lon":"121.51115343","lat":"31.233440868","category":"36","category_name":"地铁站","address":"上海世纪大道站"},{"poiid":"B2094757D065A7F54592","title":"Park Hyatt 92F Bar","lon":"121.50675873","lat":"31.234378388","category":"260","category_name":"其他","address":"上海市浦东新区世纪大道"},{"poiid":"B209475CDA64A2F9459A","title":"翠華餐廳","lon":"121.509361","lat":"31.233362","category":"500","category_name":"未知分类","address":"上海市 浦東世紀大道8号國金中心"},{"poiid":"B2094757D06BA1FA459D","title":"上海中心","lon":"121.506470701","lat":"31.2333594809","category":"500","category_name":"未知分类","address":"上海银城中路501号"},{"poiid":"B2094757D06FA0FF489D","title":"人民路隧道","lon":"121.50976562","lat":"31.232780456","category":"47","category_name":"住宅区","address":"上海黄浦区人民路-浦东新区东昌路"},{"poiid":"B2094757D66FA6FE4999","title":"星巴克 STARBUCKS (浦发大厦店)","lon":"121.510271838","lat":"31.2337665755","category":"260","category_name":"其他","address":"浦东新区浦东南路588号浦发大厦1楼(近世纪大道)"},{"poiid":"B2094757D06BA1F8439C","title":"一宝日本料理（环球金融店）","lon":"121.50744628","lat":"31.234582901","category":"95","category_name":"日本料理","address":"浦东新区世纪大道100号环球金融中心3楼(近东泰路)"},{"poiid":"B2094757D16CABFA409E","title":"轨道交通2号线(陆家嘴)","lon":"121.512001738","lat":"31.2323463452","category":"500","category_name":"未知分类","address":"上海陆家嘴"},{"poiid":"B2094757D068A2FD449A","title":"卡玛生活瑜伽会馆","lon":"121.51181","lat":"31.22961","category":"148","category_name":"美容美发店","address":"浦东新区浦城路172号3-4楼(近商城路)"},{"poiid":"B2094757D06BAAFE4893","title":"21世纪大厦","lon":"121.50967136","lat":"31.234596161","category":"252","category_name":"楼宇机构","address":"上海世纪大道210号"},{"poiid":"B2094752D768A4FC489E","title":"cafe lugo八佰伴店","lon":"121.50869","lat":"31.230443","category":"247","category_name":"餐饮美食","address":"上海市浦东新区张杨路1333号八佰伴三楼"},{"poiid":"B2094757D66EA1FC4398","title":"东昌路地铁站","lon":"121.506740438","lat":"31.2342075849","category":"36","category_name":"地铁站","address":"上海东昌路"},{"poiid":"B2094757D069A5F84392","title":"安永华明会计师事务所上海分所","lon":"121.50769602","lat":"31.232077909","category":"46","category_name":"楼宇","address":"上海世纪大道100号环球金融中心50楼"},{"poiid":"B2094757D069A3F4419C","title":"港泰风茶餐厅","lon":"121.50589822","lat":"31.230998536","category":"72","category_name":"广东菜","address":"浦东新区东昌路540号(近浦东南路)"},{"poiid":"B2094750D669A2FC439F","title":"世纪100酒吧","lon":"121.508346","lat":"31.234354","category":"260","category_name":"其他","address":"浦东新区世纪大道100号环球金融中心上海柏悦酒店92楼(近东泰路)"},{"poiid":"B2094757D064A6FD4893","title":"法拉利玛莎拉蒂上海","lon":"121.51089973","lat":"31.233486369","category":"500","category_name":"未知分类","address":"上海世纪大道210号"},{"poiid":"B2094654DB6BAAF5429E","title":"陆家嘴图书馆","lon":"121.5111","lat":"31.23073","category":"181","category_name":"图书馆","address":"浦东新区浦城路150号(浦城路商城路)"},{"poiid":"B2094757D169A7FD4393","title":"橙祥烧腊餐厅","lon":"121.507852738","lat":"31.2324276469","category":"72","category_name":"广东菜","address":"浦东新区东昌路453号(近浦东南路)"},{"poiid":"B2094757D469A3F44699","title":"和兴湘菜 东昌路店","lon":"121.5094898","lat":"31.2317688","category":"77","category_name":"湖南菜","address":"浦东新区东昌路435号(近浦东南路)"},{"poiid":"B2094757D465A3F9449D","title":"金茂海悦号","lon":"121.5083021","lat":"31.2314315","category":"72","category_name":"广东菜","address":"东昌路1号东昌路渡口近富城路"},{"poiid":"B2094757D068A7FB439D","title":"盛大金磐","lon":"121.50597524","lat":"31.231531638","category":"500","category_name":"未知分类","address":"上海浦东新区东泰路200弄"},{"poiid":"B2094654DB6AA6F84799","title":"上海柏悦酒店","lon":"121.50772","lat":"31.23458","category":"213","category_name":"五星级宾馆","address":"浦东新区世纪大道100号环球金融中心79-93楼(近东泰路)"},{"poiid":"B2094757D068AAFF439C","title":"上海環球金融中心100F","lon":"121.50764573","lat":"31.234257385","category":"172","category_name":"酒吧","address":"上海浦东新区银城中路"},{"poiid":"B2094757D06FA3FA449C","title":"蓝蛙(金融中心店)","lon":"121.507612712","lat":"31.2345660379","category":"260","category_name":"其他","address":"浦东新区世纪大道100号环球金融中心B1楼(近东泰路)"},{"poiid":"B209475CD564A7F84392","title":"上海滩浦东香格里拉店","lon":"121.50058","lat":"31.23634","category":"119","category_name":"商场","address":"浦东富成路33号香格里拉酒店内大堂层"},{"poiid":"B2094750D66FA4F44999","title":"上海浦东四季酒店","lon":"121.509437","lat":"31.233774","category":"252","category_name":"楼宇机构","address":"世纪大道210号"},{"poiid":"B2094757D06FA7F84593","title":"黔香阁(浦东店)","lon":"121.51129","lat":"31.22987","category":"83","category_name":"云贵菜","address":"浦东新区浦城路171号(近商城路)"},{"poiid":"B2094654DA6EABFF439B","title":"久事大厦","lon":"121.507","lat":"31.2307","category":"46","category_name":"楼宇","address":"上海市黄浦区中山南路28号"},{"poiid":"B2094655D264A0F9429B","title":"俏江南(环球金融中心店)","lon":"121.50773","lat":"31.23458","category":"71","category_name":"四川菜","address":"浦东新区世纪大道100号环球金融中心3楼307室(近东泰路)"},{"poiid":"B2094757D66FA6FA449C","title":"星巴克(环球金融店)","lon":"121.507684","lat":"31.234951","category":"260","category_name":"其他","address":"浦东新区世纪大道100号环球金融中心1楼101室(近东泰路)"},{"poiid":"B2094757D06FABFE4793","title":"鼎泰丰(环球金融中心店)","lon":"121.507521517","lat":"31.2345763583","category":"68","category_name":"快餐厅","address":"浦东新区世纪大道100号环球金融中心3楼(近东泰路)"},{"poiid":"B2094757D16FA0FC4699","title":"环球金融中心 DADA Hair SaIon","lon":"121.50961873","lat":"31.234726395","category":"500","category_name":"未知分类","address":"上海市浦东新区陆家嘴东路"},{"poiid":"B2094757D068A2FB4693","title":"世纪100餐厅 100Century Avenue","lon":"121.507588054","lat":"31.235582793","category":"76","category_name":"上海菜","address":"浦东新区世纪大道100号环球金融中心上海柏悦酒店91-93楼(近东泰路)"},{"poiid":"B2094655D26BA3FE419E","title":"新元素 环球中心店 Element Fresh","lon":"121.507588054","lat":"31.235582793","category":"94","category_name":"西餐厅","address":"浦东新区世纪大道100号环球金融中心2楼(近东泰路)"},{"poiid":"B2094757D06FA2FF4198","title":"檬舒舒 MonChouChou(环球金融店)","lon":"121.50742334526058","lat":"31.234131052731218","category":"67","category_name":"甜品店","address":"浦东新区世纪大道100号环球金融中心B1楼B104号商铺(近东泰路)"},{"poiid":"B2094757D569A2FC4193","title":"赤坂亭(环球店)","lon":"121.50769775","lat":"31.23458686","category":"269","category_name":"烧烤","address":"浦东新区世纪大道100号环球金融中心3楼303号(近东泰路)"},{"poiid":"B2094757D465A0F44699","title":"尼藏花园餐厅酒吧 Nizang Himalaya","lon":"121.51071683753","lat":"31.232122106704","category":"110","category_name":"其他亚洲菜","address":"浦东新区东昌路498号东园一村内(近浦东南路)"},{"poiid":"B2094757D068A7F8459A","title":"仁恒滨江园(Yanlord Garden)","lon":"121.50641632","lat":"31.228860855","category":"47","category_name":"住宅区","address":"上海浦东新区浦明路99弄(近商城路)"},{"poiid":"B2094655D26DA7F44998","title":"上海环球金融中心观光厅","lon":"121.50773","lat":"31.23458","category":"183","category_name":"展览馆","address":"浦东新区世纪大道100号环球金融中心94-100楼(近东泰路)"},{"poiid":"B2094750DB6BAAFD4799","title":"一风堂","lon":"121.509391","lat":"31.233442","category":"247","category_name":"餐饮美食","address":"浦东新区世纪大道8号国金中心LG1-79-80号(近正大广场)"},{"poiid":"B2094757D068A6FE429C","title":"金外滩花园","lon":"121.507","lat":"31.228","category":"47","category_name":"住宅区","address":"上海市黄浦区中山南路222号"},{"poiid":"B2094750D56DA2FB4098","title":"浦东四季酒店Camelia餐厅","lon":"121.5101528358764","lat":"31.234307759796852","category":"94","category_name":"西餐厅","address":"浦东新区世纪大道210号上海浦东四季酒店1楼(近浦成路)"},{"poiid":"B2094655D26BA4F44398","title":"COSTA咖啡(上海环球金融中心店)","lon":"121.50773","lat":"31.23458","category":"65","category_name":"咖啡厅","address":"浦东新区世纪大道100号环球金融中心2楼220单元(近东泰路)"},{"poiid":"B2094757D068AAFD449B","title":"ABC cooking studio(环球金融中心)","lon":"121.50756773","lat":"31.234875399","category":"67","category_name":"甜品店","address":"上海世纪大道100号"},{"poiid":"B2094655D26FA6F54399","title":"仁恒滨江园","lon":"121.50861","lat":"31.23017","category":"47","category_name":"住宅区","address":"浦城路99弄"},{"poiid":"B2094757D06FA0FF4192","title":"洋面屋五右卫门 世纪大道店","lon":"121.507687","lat":"31.234577","category":"94","category_name":"西餐厅","address":"浦东新区世纪大道100号环球金融中心B1楼106-2号(近东泰路)"},{"poiid":"B2094752D16CAAFD489B","title":"Brotzeit 博璨摩登德国啤酒餐厅","lon":"121.509171","lat":"31.234161","category":"247","category_name":"餐饮美食","address":"世纪大道100号环球金融中心2楼"},{"poiid":"B2094757D068A0FA409A","title":"Living Room","lon":"121.51033273","lat":"31.233739374","category":"260","category_name":"其他","address":"浦东新区世纪大道100号环球金融中心上海柏悦酒店87楼(近东泰路)"},{"poiid":"B2094655D36CA1FD429C","title":"十六铺","lon":"121.507","lat":"31.2305","category":"38","category_name":"公交车站","address":"中山东二路88弄"},{"poiid":"B2094750D76CABF9459C","title":"Bros会津まる家(陆家嘴店)","lon":"121.508","lat":"31.2349","category":"95","category_name":"日本料理","address":"世纪大道100号环球金融中心B1楼"},{"poiid":"B2094757D068A4F4489F","title":"4号线世纪大道站","lon":"121.51115343","lat":"31.233440868","category":"36","category_name":"地铁站","address":"上海世纪大道站"},{"poiid":"B2094757D065A7F54592","title":"Park Hyatt 92F Bar","lon":"121.50675873","lat":"31.234378388","category":"260","category_name":"其他","address":"上海市浦东新区世纪大道"},{"poiid":"B209475CDA64A2F9459A","title":"翠華餐廳","lon":"121.509361","lat":"31.233362","category":"500","category_name":"未知分类","address":"上海市 浦東世紀大道8号國金中心"},{"poiid":"B2094757D06BA1FA459D","title":"上海中心","lon":"121.506470701","lat":"31.2333594809","category":"500","category_name":"未知分类","address":"上海银城中路501号"},{"poiid":"B2094757D06FA0FF489D","title":"人民路隧道","lon":"121.50976562","lat":"31.232780456","category":"47","category_name":"住宅区","address":"上海黄浦区人民路-浦东新区东昌路"},{"poiid":"B2094757D66FA6FE4999","title":"星巴克 STARBUCKS (浦发大厦店)","lon":"121.510271838","lat":"31.2337665755","category":"260","category_name":"其他","address":"浦东新区浦东南路588号浦发大厦1楼(近世纪大道)"},{"poiid":"B2094757D06BA1F8439C","title":"一宝日本料理（环球金融店）","lon":"121.50744628","lat":"31.234582901","category":"95","category_name":"日本料理","address":"浦东新区世纪大道100号环球金融中心3楼(近东泰路)"},{"poiid":"B2094757D16CABFA409E","title":"轨道交通2号线(陆家嘴)","lon":"121.512001738","lat":"31.2323463452","category":"500","category_name":"未知分类","address":"上海陆家嘴"},{"poiid":"B2094757D068A2FD449A","title":"卡玛生活瑜伽会馆","lon":"121.51181","lat":"31.22961","category":"148","category_name":"美容美发店","address":"浦东新区浦城路172号3-4楼(近商城路)"},{"poiid":"B2094757D06BAAFE4893","title":"21世纪大厦","lon":"121.50967136","lat":"31.234596161","category":"252","category_name":"楼宇机构","address":"上海世纪大道210号"},{"poiid":"B2094752D768A4FC489E","title":"cafe lugo八佰伴店","lon":"121.50869","lat":"31.230443","category":"247","category_name":"餐饮美食","address":"上海市浦东新区张杨路1333号八佰伴三楼"},{"poiid":"B2094757D66EA1FC4398","title":"东昌路地铁站","lon":"121.506740438","lat":"31.2342075849","category":"36","category_name":"地铁站","address":"上海东昌路"},{"poiid":"B2094757D069A5F84392","title":"安永华明会计师事务所上海分所","lon":"121.50769602","lat":"31.232077909","category":"46","category_name":"楼宇","address":"上海世纪大道100号环球金融中心50楼"},{"poiid":"B2094757D069A3F4419C","title":"港泰风茶餐厅","lon":"121.50589822","lat":"31.230998536","category":"72","category_name":"广东菜","address":"浦东新区东昌路540号(近浦东南路)"},{"poiid":"B2094750D669A2FC439F","title":"世纪100酒吧","lon":"121.508346","lat":"31.234354","category":"260","category_name":"其他","address":"浦东新区世纪大道100号环球金融中心上海柏悦酒店92楼(近东泰路)"},{"poiid":"B2094757D064A6FD4893","title":"法拉利玛莎拉蒂上海","lon":"121.51089973","lat":"31.233486369","category":"500","category_name":"未知分类","address":"上海世纪大道210号"},{"poiid":"B2094654DB6BAAF5429E","title":"陆家嘴图书馆","lon":"121.5111","lat":"31.23073","category":"181","category_name":"图书馆","address":"浦东新区浦城路150号(浦城路商城路)"},{"poiid":"B2094757D169A7FD4393","title":"橙祥烧腊餐厅","lon":"121.507852738","lat":"31.2324276469","category":"72","category_name":"广东菜","address":"浦东新区东昌路453号(近浦东南路)"},{"poiid":"B2094757D469A3F44699","title":"和兴湘菜 东昌路店","lon":"121.5094898","lat":"31.2317688","category":"77","category_name":"湖南菜","address":"浦东新区东昌路435号(近浦东南路)"},{"poiid":"B2094757D465A3F9449D","title":"金茂海悦号","lon":"121.5083021","lat":"31.2314315","category":"72","category_name":"广东菜","address":"东昌路1号东昌路渡口近富城路"},{"poiid":"B2094757D068A7FB439D","title":"盛大金磐","lon":"121.50597524","lat":"31.231531638","category":"500","category_name":"未知分类","address":"上海浦东新区东泰路200弄"},{"poiid":"B2094654DB6AA6F84799","title":"上海柏悦酒店","lon":"121.50772","lat":"31.23458","category":"213","category_name":"五星级宾馆","address":"浦东新区世纪大道100号环球金融中心79-93楼(近东泰路)"},{"poiid":"B2094757D068AAFF439C","title":"上海環球金融中心100F","lon":"121.50764573","lat":"31.234257385","category":"172","category_name":"酒吧","address":"上海浦东新区银城中路"},{"poiid":"B2094757D06FA3FA449C","title":"蓝蛙(金融中心店)","lon":"121.507612712","lat":"31.2345660379","category":"260","category_name":"其他","address":"浦东新区世纪大道100号环球金融中心B1楼(近东泰路)"},{"poiid":"B209475CD564A7F84392","title":"上海滩浦东香格里拉店","lon":"121.50058","lat":"31.23634","category":"119","category_name":"商场","address":"浦东富成路33号香格里拉酒店内大堂层"},{"poiid":"B2094750D66FA4F44999","title":"上海浦东四季酒店","lon":"121.509437","lat":"31.233774","category":"252","category_name":"楼宇机构","address":"世纪大道210号"},{"poiid":"B2094757D06FA7F84593","title":"黔香阁(浦东店)","lon":"121.51129","lat":"31.22987","category":"83","category_name":"云贵菜","address":"浦东新区浦城路171号(近商城路)"},{"poiid":"B2094654DA6EABFF439B","title":"久事大厦","lon":"121.507","lat":"31.2307","category":"46","category_name":"楼宇","address":"上海市黄浦区中山南路28号"},{"poiid":"B2094655D264A0F9429B","title":"俏江南(环球金融中心店)","lon":"121.50773","lat":"31.23458","category":"71","category_name":"四川菜","address":"浦东新区世纪大道100号环球金融中心3楼307室(近东泰路)"},{"poiid":"B2094757D66FA6FA449C","title":"星巴克(环球金融店)","lon":"121.507684","lat":"31.234951","category":"260","category_name":"其他","address":"浦东新区世纪大道100号环球金融中心1楼101室(近东泰路)"},{"poiid":"B2094757D06FABFE4793","title":"鼎泰丰(环球金融中心店)","lon":"121.507521517","lat":"31.2345763583","category":"68","category_name":"快餐厅","address":"浦东新区世纪大道100号环球金融中心3楼(近东泰路)"},{"poiid":"B2094757D16FA0FC4699","title":"环球金融中心 DADA Hair SaIon","lon":"121.50961873","lat":"31.234726395","category":"500","category_name":"未知分类","address":"上海市浦东新区陆家嘴东路"},{"poiid":"B2094757D068A2FB4693","title":"世纪100餐厅 100Century Avenue","lon":"121.507588054","lat":"31.235582793","category":"76","category_name":"上海菜","address":"浦东新区世纪大道100号环球金融中心上海柏悦酒店91-93楼(近东泰路)"},{"poiid":"B2094655D26BA3FE419E","title":"新元素 环球中心店 Element Fresh","lon":"121.507588054","lat":"31.235582793","category":"94","category_name":"西餐厅","address":"浦东新区世纪大道100号环球金融中心2楼(近东泰路)"},{"poiid":"B2094757D06FA2FF4198","title":"檬舒舒 MonChouChou(环球金融店)","lon":"121.50742334526058","lat":"31.234131052731218","category":"67","category_name":"甜品店","address":"浦东新区世纪大道100号环球金融中心B1楼B104号商铺(近东泰路)"},{"poiid":"B2094757D569A2FC4193","title":"赤坂亭(环球店)","lon":"121.50769775","lat":"31.23458686","category":"269","category_name":"烧烤","address":"浦东新区世纪大道100号环球金融中心3楼303号(近东泰路)"},{"poiid":"B2094757D465A0F44699","title":"尼藏花园餐厅酒吧 Nizang Himalaya","lon":"121.51071683753","lat":"31.232122106704","category":"110","category_name":"其他亚洲菜","address":"浦东新区东昌路498号东园一村内(近浦东南路)"},{"poiid":"B2094757D068A7F8459A","title":"仁恒滨江园(Yanlord Garden)","lon":"121.50641632","lat":"31.228860855","category":"47","category_name":"住宅区","address":"上海浦东新区浦明路99弄(近商城路)"},{"poiid":"B2094655D26DA7F44998","title":"上海环球金融中心观光厅","lon":"121.50773","lat":"31.23458","category":"183","category_name":"展览馆","address":"浦东新区世纪大道100号环球金融中心94-100楼(近东泰路)"},{"poiid":"B2094750DB6BAAFD4799","title":"一风堂","lon":"121.509391","lat":"31.233442","category":"247","category_name":"餐饮美食","address":"浦东新区世纪大道8号国金中心LG1-79-80号(近正大广场)"},{"poiid":"B2094757D068A6FE429C","title":"金外滩花园","lon":"121.507","lat":"31.228","category":"47","category_name":"住宅区","address":"上海市黄浦区中山南路222号"},{"poiid":"B2094750D56DA2FB4098","title":"浦东四季酒店Camelia餐厅","lon":"121.5101528358764","lat":"31.234307759796852","category":"94","category_name":"西餐厅","address":"浦东新区世纪大道210号上海浦东四季酒店1楼(近浦成路)"},{"poiid":"B2094655D26BA4F44398","title":"COSTA咖啡(上海环球金融中心店)","lon":"121.50773","lat":"31.23458","category":"65","category_name":"咖啡厅","address":"浦东新区世纪大道100号环球金融中心2楼220单元(近东泰路)"},{"poiid":"B2094757D068AAFD449B","title":"ABC cooking studio(环球金融中心)","lon":"121.50756773","lat":"31.234875399","category":"67","category_name":"甜品店","address":"上海世纪大道100号"},{"poiid":"B2094655D26FA6F54399","title":"仁恒滨江园","lon":"121.50861","lat":"31.23017","category":"47","category_name":"住宅区","address":"浦城路99弄"},{"poiid":"B2094757D06FA0FF4192","title":"洋面屋五右卫门 世纪大道店","lon":"121.507687","lat":"31.234577","category":"94","category_name":"西餐厅","address":"浦东新区世纪大道100号环球金融中心B1楼106-2号(近东泰路)"},{"poiid":"B2094752D16CAAFD489B","title":"Brotzeit 博璨摩登德国啤酒餐厅","lon":"121.509171","lat":"31.234161","category":"247","category_name":"餐饮美食","address":"世纪大道100号环球金融中心2楼"},{"poiid":"B2094757D068A0FA409A","title":"Living Room","lon":"121.51033273","lat":"31.233739374","category":"260","category_name":"其他","address":"浦东新区世纪大道100号环球金融中心上海柏悦酒店87楼(近东泰路)"},{"poiid":"B2094655D36CA1FD429C","title":"十六铺","lon":"121.507","lat":"31.2305","category":"38","category_name":"公交车站","address":"中山东二路88弄"},{"poiid":"B2094750D76CABF9459C","title":"Bros会津まる家(陆家嘴店)","lon":"121.508","lat":"31.2349","category":"95","category_name":"日本料理","address":"世纪大道100号环球金融中心B1楼"},{"poiid":"B2094757D068A4F4489F","title":"4号线世纪大道站","lon":"121.51115343","lat":"31.233440868","category":"36","category_name":"地铁站","address":"上海世纪大道站"},{"poiid":"B2094757D065A7F54592","title":"Park Hyatt 92F Bar","lon":"121.50675873","lat":"31.234378388","category":"260","category_name":"其他","address":"上海市浦东新区世纪大道"},{"poiid":"B209475CDA64A2F9459A","title":"翠華餐廳","lon":"121.509361","lat":"31.233362","category":"500","category_name":"未知分类","address":"上海市 浦東世紀大道8号國金中心"},{"poiid":"B2094757D06BA1FA459D","title":"上海中心","lon":"121.506470701","lat":"31.2333594809","category":"500","category_name":"未知分类","address":"上海银城中路501号"},{"poiid":"B2094757D06FA0FF489D","title":"人民路隧道","lon":"121.50976562","lat":"31.232780456","category":"47","category_name":"住宅区","address":"上海黄浦区人民路-浦东新区东昌路"},{"poiid":"B2094757D66FA6FE4999","title":"星巴克 STARBUCKS (浦发大厦店)","lon":"121.510271838","lat":"31.2337665755","category":"260","category_name":"其他","address":"浦东新区浦东南路588号浦发大厦1楼(近世纪大道)"},{"poiid":"B2094757D06BA1F8439C","title":"一宝日本料理（环球金融店）","lon":"121.50744628","lat":"31.234582901","category":"95","category_name":"日本料理","address":"浦东新区世纪大道100号环球金融中心3楼(近东泰路)"},{"poiid":"B2094757D16CABFA409E","title":"轨道交通2号线(陆家嘴)","lon":"121.512001738","lat":"31.2323463452","category":"500","category_name":"未知分类","address":"上海陆家嘴"},{"poiid":"B2094757D068A2FD449A","title":"卡玛生活瑜伽会馆","lon":"121.51181","lat":"31.22961","category":"148","category_name":"美容美发店","address":"浦东新区浦城路172号3-4楼(近商城路)"},{"poiid":"B2094757D06BAAFE4893","title":"21世纪大厦","lon":"121.50967136","lat":"31.234596161","category":"252","category_name":"楼宇机构","address":"上海世纪大道210号"},{"poiid":"B2094752D768A4FC489E","title":"cafe lugo八佰伴店","lon":"121.50869","lat":"31.230443","category":"247","category_name":"餐饮美食","address":"上海市浦东新区张杨路1333号八佰伴三楼"},{"poiid":"B2094757D66EA1FC4398","title":"东昌路地铁站","lon":"121.506740438","lat":"31.2342075849","category":"36","category_name":"地铁站","address":"上海东昌路"},{"poiid":"B2094757D069A5F84392","title":"安永华明会计师事务所上海分所","lon":"121.50769602","lat":"31.232077909","category":"46","category_name":"楼宇","address":"上海世纪大道100号环球金融中心50楼"},{"poiid":"B2094757D069A3F4419C","title":"港泰风茶餐厅","lon":"121.50589822","lat":"31.230998536","category":"72","category_name":"广东菜","address":"浦东新区东昌路540号(近浦东南路)"},{"poiid":"B2094750D669A2FC439F","title":"世纪100酒吧","lon":"121.508346","lat":"31.234354","category":"260","category_name":"其他","address":"浦东新区世纪大道100号环球金融中心上海柏悦酒店92楼(近东泰路)"},{"poiid":"B2094757D064A6FD4893","title":"法拉利玛莎拉蒂上海","lon":"121.51089973","lat":"31.233486369","category":"500","category_name":"未知分类","address":"上海世纪大道210号"},{"poiid":"B2094654DB6BAAF5429E","title":"陆家嘴图书馆","lon":"121.5111","lat":"31.23073","category":"181","category_name":"图书馆","address":"浦东新区浦城路150号(浦城路商城路)"},{"poiid":"B2094757D169A7FD4393","title":"橙祥烧腊餐厅","lon":"121.507852738","lat":"31.2324276469","category":"72","category_name":"广东菜","address":"浦东新区东昌路453号(近浦东南路)"},{"poiid":"B2094757D469A3F44699","title":"和兴湘菜 东昌路店","lon":"121.5094898","lat":"31.2317688","category":"77","category_name":"湖南菜","address":"浦东新区东昌路435号(近浦东南路)"},{"poiid":"B2094757D465A3F9449D","title":"金茂海悦号","lon":"121.5083021","lat":"31.2314315","category":"72","category_name":"广东菜","address":"东昌路1号东昌路渡口近富城路"},{"poiid":"B2094757D068A7FB439D","title":"盛大金磐","lon":"121.50597524","lat":"31.231531638","category":"500","category_name":"未知分类","address":"上海浦东新区东泰路200弄"}]