[{"poiid":"B2094654DA6FAAF5419F","title":"新世界城","lon":"121.47395","lat":"31.23484","category":"119","category_name":"商场","address":"黄浦区南京西路2-68号(近西藏中路)"},{"poiid":"B2094655D26DAAF4429C","title":"上海歌城(西藏中路)","lon":"121.47374","lat":"31.23549","category":"170","category_name":"KTV","address":"西藏中路399号新世界城"},{"poiid":"B2094654DA68A3FD479F","title":"上海杜莎夫人蜡像馆(南京西路)","lon":"121.47367","lat":"31.23468","category":"183","category_name":"展览馆","address":"南京西路2-68号新世界城10楼"},{"poiid":"B2094753D76FAAFA449C","title":"上海滩国泰旗舰店","lon":"121.466011","lat":"31.216125","category":"249","category_name":"购物服务","address":"淮海中路868号"},{"poiid":"B209475CD564A7F84292","title":"上海滩新天地店","lon":"121.47463","lat":"31.22164","category":"119","category_name":"商场","address":"\"太仓路181弄新天地北里15号\r\n\""},{"poiid":"B209475CD564A7F8439E","title":"上海滩中信泰富店","lon":"121.45602","lat":"31.22851","category":"119","category_name":"商场","address":"\"南京西路1168号中信泰富广场，店铺号221.\r\n\""},{"poiid":"B209475CD564A7F84392","title":"上海滩浦东香格里拉店","lon":"121.50058","lat":"31.23634","category":"119","category_name":"商场","address":"浦东富成路33号香格里拉酒店内大堂层"},{"poiid":"B2094654DA6FA1F94092","title":"世纪大上海电影城","lon":"121.47469","lat":"31.23501","category":"178","category_name":"电影院","address":"上海市西藏中路500号第一百货商店(新楼)8楼"},{"poiid":"B2094654DB64ABFC419E","title":"新世界影城","lon":"121.47399","lat":"31.2348","category":"178","category_name":"电影院","address":"南京西路2-68号新世界城12层"},{"poiid":"B2094655D26AABFD4492","title":"顺风大酒店 西藏中路店","lon":"121.474632054","lat":"31.234972793","category":"75","category_name":"浙江菜","address":"黄浦区南京东路830号第一百货新楼7楼(近西藏中路)"},{"poiid":"B2094655D26AABFD449A","title":"西堤牛排新世界店","lon":"121.474","lat":"31.2348","category":"94","category_name":"西餐厅","address":"黄浦区南京西路2-68号新世界城5楼(近西藏中路)"},{"poiid":"B2094757D068A4FF429B","title":"上海雅居乐万豪酒店","lon":"121.473508738","lat":"31.2361444261","category":"217","category_name":"旅馆招待所","address":"上海市黄浦区西藏中路555号(近新世界)"},{"poiid":"B2094757D06FA7F4449C","title":"麻辣诱惑(新世界店)","lon":"121.473465838","lat":"31.2345230916","category":"71","category_name":"四川菜","address":"黄浦区南京西路2-68号新世界城9楼"},{"poiid":"B2094654DA6FA1F9419F","title":"上海市第一百货商店","lon":"121.4747","lat":"31.23499","category":"119","category_name":"商场","address":"黄浦区南京东路830号(近西藏中路)"},{"poiid":"B2094751DA6DA1F5439F","title":"上海年代秀主题餐厅","lon":"121.473342","lat":"31.235938","category":"76","category_name":"上海菜","address":"黄浦区西藏中路525号雅居乐广场3楼308商铺(近凤阳路预计11月开业)"},{"poiid":"B2094757D06FA1F94499","title":"韩膳宫(新世界店)","lon":"121.473514938","lat":"31.2346033933","category":"96","category_name":"韩国料理","address":"黄浦区南京西路2号新世界城9楼9A(近西藏中路)"},{"poiid":"B2094752D16FA3F8499D","title":"新白鹿餐厅","lon":"121.474899","lat":"31.235458","category":"247","category_name":"餐饮美食","address":"南京东路东方商厦九楼"},{"poiid":"B2094655D36CA2FC439A","title":"雅居乐国际广场","lon":"121.47251","lat":"31.23629","category":"46","category_name":"楼宇","address":"黄浦区西藏中路525号(近凤阳路)"},{"poiid":"B2094750D26AA6FA4193","title":"人民广场地铁站","lon":"121.473411","lat":"31.234584","category":"36","category_name":"地铁站","address":null},{"poiid":"B2094757D06FA3F5489A","title":"南证大厦","lon":"121.473","lat":"31.2374","category":"46","category_name":"楼宇","address":"上海静安区南京西路580号近成都路"},{"poiid":"B2094757D56CAAFD449F","title":"来福小馆 人民广场店","lon":"121.4737085","lat":"31.2366652","category":"71","category_name":"四川菜","address":"黄浦区西藏中路559号雅居乐国际广场3楼(近凤阳路)"},{"poiid":"B2094757DB69A4F4479D","title":"雅居乐万豪酒店 都会尚膳 Shanghai City Bistro","lon":"121.4737085","lat":"31.2366652","category":"268","category_name":"自助","address":"西藏中路555号雅居乐万豪酒店3楼(近凤阳路)"},{"poiid":"B2094757D465A4F9439A","title":"避风塘 第一百货店","lon":"121.474632054","lat":"31.234972793","category":"72","category_name":"广东菜","address":"黄浦区南京东路830号第一百货4楼(近西藏中路)"},{"poiid":"B2094654DA6FAAF54298","title":"新世界紫澜门大酒店","lon":"121.4741","lat":"31.23495","category":"72","category_name":"广东菜","address":"黄浦区南京西路2-68号新世界城12楼(近西藏中路)"},{"poiid":"B2094757D068A7F84498","title":"汤姆熊(新世界店)","lon":"121.473908238","lat":"31.2356113148","category":"173","category_name":"游戏厅","address":"黄浦区南京西路2-68号新世界城9楼(近西藏中路)"},{"poiid":"B2094757D06FA1FF4998","title":"望湘园(第一百货店)","lon":"121.47446","lat":"31.23555","category":"77","category_name":"湖南菜","address":"上海黄浦区南京东路830号第一百货新楼6楼(近西藏中路)  "},{"poiid":"B2094752D068A1FF459C","title":"鱼酷活鱼现烤","lon":"121.474869","lat":"31.235397","category":"247","category_name":"餐饮美食","address":"南京东路东方商厦9楼"},{"poiid":"B2094750D76FA4FC499E","title":"山间堂民间瓦缸煨汤(人民广场店)","lon":"121.474","lat":"31.2347","category":"260","category_name":"其他","address":"黄浦区南京西路2号新世界城6楼"},{"poiid":"B2094757D46FABFD409D","title":"丰收日 人民广场店","lon":"121.4737085","lat":"31.2366652","category":"75","category_name":"浙江菜","address":"黄浦区西藏中路555号雅居乐万豪4楼(近凤阳路)"},{"poiid":"B2094757D464A7FE459B","title":"大诚 市百一店","lon":"121.474632054","lat":"31.234972793","category":"95","category_name":"日本料理","address":"黄浦区南京东路830号第一百货新楼6楼(近西藏中路)"},{"poiid":"B2094757D465A4F84298","title":"韩林炭烤 市百一店","lon":"121.474632054","lat":"31.234972793","category":"96","category_name":"韩国料理","address":"黄浦区南京东路800号市百一店北楼5楼(近西藏中路)"},{"poiid":"B2094757D069ABFA459C","title":"上海歌城新世界店","lon":"121.473934738","lat":"31.2364634329","category":"500","category_name":"未知分类","address":"上海市黄浦区温州路"},{"poiid":"B2094757D068A7FD489E","title":"新开元大酒店","lon":"121.474001738","lat":"31.2362734289","category":"75","category_name":"浙江菜","address":"黄浦区六合路98号3-4楼(近市百一店)"},{"poiid":"B2094757D069A1F94098","title":"上影华威电影城","lon":"121.473907","lat":"31.23492","category":"178","category_name":"电影院","address":"黄浦区南京西路2-68号新世界城11-12楼(近西藏中路)"},{"poiid":"B2094757D165A0FA499A","title":"千彩休闲小火锅","lon":"121.473519738","lat":"31.2350994039","category":"247","category_name":"餐饮美食","address":"上海市黄浦区黄河路"},{"poiid":"B2094751DA6EA7FB499F","title":"七叶和茶","lon":"121.472564","lat":"31.236936","category":"247","category_name":"餐饮美食","address":"黄浦区南京东路720号第一食品商厦3楼(近贵州路)"},{"poiid":"B2094757D06FA4F84298","title":"许留山(新世界店)","lon":"121.47317173","lat":"31.235074403","category":"67","category_name":"甜品店","address":"黄浦区南京西路2-68号新世纪城12楼(近西藏中路)"},{"poiid":"B2094751D56CA3FC489D","title":"悦粤茶餐厅(人民广场店)","lon":"121.47385","lat":"31.23629","category":"72","category_name":"广东菜","address":"黄浦区西藏中路525号雅居乐国际广场4楼(近新世界百货)"},{"poiid":"B2094757DB69AAFD409C","title":"善知鸟日本创作料理","lon":"121.474278","lat":"31.235902","category":"95","category_name":"日本料理","address":"黄浦区西藏中路500号思源商厦6A(近凤阳路)"},{"poiid":"B2094757D06EAAFB499D","title":"麦当劳(新世界店)","lon":"121.47294998","lat":"31.234666089","category":"68","category_name":"快餐厅","address":"黄浦区南京西路2-68号新世纪城B1楼(近西藏中路)"},{"poiid":"B2094655D26BA3F84798","title":"味千拉面新世界店","lon":"121.474","lat":"31.2348","category":"95","category_name":"日本料理","address":"黄浦区南京西路2-68号新世界城2楼(近西藏中路)"},{"poiid":"B2094752D46CA1F5409A","title":"三宝粥铺","lon":"121.474482","lat":"31.235848","category":"247","category_name":"餐饮美食","address":"第一百货8楼"},{"poiid":"B2094750D66BAAF54298","title":"猫屎咖啡(雅居乐国际广场店)","lon":"121.474","lat":"31.2358","category":"260","category_name":"其他","address":"黄浦区西藏中路525号雅居乐国际广场1楼"},{"poiid":"B2094750DA65A4FE449F","title":"五木铁板烧","lon":"121.473594","lat":"31.236803","category":"269","category_name":"烧烤","address":"黄浦区西藏中路500号思源商厦4楼"},{"poiid":"B2094757D068A0F5409B","title":"一茶一座(市百一店)","lon":"121.47438373","lat":"31.23542141","category":"47","category_name":"住宅区","address":"上海市黄浦区南京东路830号3楼"},{"poiid":"B2094751D568ABF84398","title":"王鼎铁板烧日本料理","lon":"121.473913","lat":"31.234432","category":"247","category_name":"餐饮美食","address":"南京西路253号7楼"},{"poiid":"B2094751D469A1FD459A","title":"利苒西班牙餐厅","lon":"121.47333","lat":"31.2368","category":"94","category_name":"西餐厅","address":"黄浦区西藏中路559号雅居乐国际广场3楼(近新世界)"},{"poiid":"B2094750DA64A7F4499B","title":"偶吧私房蔡音乐餐厅 Oh Bar","lon":"121.473838","lat":"31.23718","category":"248","category_name":"生活娱乐","address":"黄浦区六合路158号"},{"poiid":"B2094757D069A2FC409E","title":"新世界冰上乐园","lon":"121.47375573","lat":"31.234568392","category":"222","category_name":"溜冰场","address":"上海南京西路2-68号新世界6L"},{"poiid":"B2094757D069AAF94292","title":"大上海国际影城","lon":"121.47379873","lat":"31.235044402","category":"500","category_name":"未知分类","address":"上海市黄浦区黄河路"},{"poiid":"B2094654DA6FAAF5419F","title":"新世界城","lon":"121.47395","lat":"31.23484","category":"119","category_name":"商场","address":"黄浦区南京西路2-68号(近西藏中路)"},{"poiid":"B2094655D26DAAF4429C","title":"上海歌城(西藏中路)","lon":"121.47374","lat":"31.23549","category":"170","category_name":"KTV","address":"西藏中路399号新世界城"},{"poiid":"B2094654DA68A3FD479F","title":"上海杜莎夫人蜡像馆(南京西路)","lon":"121.47367","lat":"31.23468","category":"183","category_name":"展览馆","address":"南京西路2-68号新世界城10楼"},{"poiid":"B2094753D76FAAFA449C","title":"上海滩国泰旗舰店","lon":"121.466011","lat":"31.216125","category":"249","category_name":"购物服务","address":"淮海中路868号"},{"poiid":"B209475CD564A7F84292","title":"上海滩新天地店","lon":"121.47463","lat":"31.22164","category":"119","category_name":"商场","address":"\"太仓路181弄新天地北里15号\r\n\""},{"poiid":"B209475CD564A7F8439E","title":"上海滩中信泰富店","lon":"121.45602","lat":"31.22851","category":"119","category_name":"商场","address":"\"南京西路1168号中信泰富广场，店铺号221.\r\n\""},{"poiid":"B209475CD564A7F84392","title":"上海滩浦东香格里拉店","lon":"121.50058","lat":"31.23634","category":"119","category_name":"商场","address":"浦东富成路33号香格里拉酒店内大堂层"},{"poiid":"B2094654DA6FA1F94092","title":"世纪大上海电影城","lon":"121.47469","lat":"31.23501","category":"178","category_name":"电影院","address":"上海市西藏中路500号第一百货商店(新楼)8楼"},{"poiid":"B2094654DB64ABFC419E","title":"新世界影城","lon":"121.47399","lat":"31.2348","category":"178","category_name":"电影院","address":"南京西路2-68号新世界城12层"},{"poiid":"B2094655D26AABFD4492","title":"顺风大酒店 西藏中路店","lon":"121.474632054","lat":"31.234972793","category":"75","category_name":"浙江菜","address":"黄浦区南京东路830号第一百货新楼7楼(近西藏中路)"},{"poiid":"B2094655D26AABFD449A","title":"西堤牛排新世界店","lon":"121.474","lat":"31.2348","category":"94","category_name":"西餐厅","address":"黄浦区南京西路2-68号新世界城5楼(近西藏中路)"},{"poiid":"B2094757D068A4FF429B","title":"上海雅居乐万豪酒店","lon":"121.473508738","lat":"31.2361444261","category":"217","category_name":"旅馆招待所","address":"上海市黄浦区西藏中路555号(近新世界)"},{"poiid":"B2094757D06FA7F4449C","title":"麻辣诱惑(新世界店)","lon":"121.473465838","lat":"31.2345230916","category":"71","category_name":"四川菜","address":"黄浦区南京西路2-68号新世界城9楼"},{"poiid":"B2094654DA6FA1F9419F","title":"上海市第一百货商店","lon":"121.4747","lat":"31.23499","category":"119","category_name":"商场","address":"黄浦区南京东路830号(近西藏中路)"},{"poiid":"B2094751DA6DA1F5439F","title":"上海年代秀主题餐厅","lon":"121.473342","lat":"31.235938","category":"76","category_name":"上海菜","address":"黄浦区西藏中路525号雅居乐广场3楼308商铺(近凤阳路预计11月开业)"},{"poiid":"B2094757D06FA1F94499","title":"韩膳宫(新世界店)","lon":"121.473514938","lat":"31.2346033933","category":"96","category_name":"韩国料理","address":"黄浦区南京西路2号新世界城9楼9A(近西藏中路)"},{"poiid":"B2094752D16FA3F8499D","title":"新白鹿餐厅","lon":"121.474899","lat":"31.235458","category":"247","category_name":"餐饮美食","address":"南京东路东方商厦九楼"},{"poiid":"B2094655D36CA2FC439A","title":"雅居乐国际广场","lon":"121.47251","lat":"31.23629","category":"46","category_name":"楼宇","address":"黄浦区西藏中路525号(近凤阳路)"},{"poiid":"B2094750D26AA6FA4193","title":"人民广场地铁站","lon":"121.473411","lat":"31.234584","category":"36","category_name":"地铁站","address":null},{"poiid":"B2094757D06FA3F5489A","title":"南证大厦","lon":"121.473","lat":"31.2374","category":"46","category_name":"楼宇","address":"上海静安区南京西路580号近成都路"},{"poiid":"B2094757D56CAAFD449F","title":"来福小馆 人民广场店","lon":"121.4737085","lat":"31.2366652","category":"71","category_name":"四川菜","address":"黄浦区西藏中路559号雅居乐国际广场3楼(近凤阳路)"},{"poiid":"B2094757DB69A4F4479D","title":"雅居乐万豪酒店 都会尚膳 Shanghai City Bistro","lon":"121.4737085","lat":"31.2366652","category":"268","category_name":"自助","address":"西藏中路555号雅居乐万豪酒店3楼(近凤阳路)"},{"poiid":"B2094757D465A4F9439A","title":"避风塘 第一百货店","lon":"121.474632054","lat":"31.234972793","category":"72","category_name":"广东菜","address":"黄浦区南京东路830号第一百货4楼(近西藏中路)"},{"poiid":"B2094654DA6FAAF54298","title":"新世界紫澜门大酒店","lon":"121.4741","lat":"31.23495","category":"72","category_name":"广东菜","address":"黄浦区南京西路2-68号新世界城12楼(近西藏中路)"},{"poiid":"B2094757D068A7F84498","title":"汤姆熊(新世界店)","lon":"121.473908238","lat":"31.2356113148","category":"173","category_name":"游戏厅","address":"黄浦区南京西路2-68号新世界城9楼(近西藏中路)"},{"poiid":"B2094757D06FA1FF4998","title":"望湘园(第一百货店)","lon":"121.47446","lat":"31.23555","category":"77","category_name":"湖南菜","address":"上海黄浦区南京东路830号第一百货新楼6楼(近西藏中路)  "},{"poiid":"B2094752D068A1FF459C","title":"鱼酷活鱼现烤","lon":"121.474869","lat":"31.235397","category":"247","category_name":"餐饮美食","address":"南京东路东方商厦9楼"},{"poiid":"B2094750D76FA4FC499E","title":"山间堂民间瓦缸煨汤(人民广场店)","lon":"121.474","lat":"31.2347","category":"260","category_name":"其他","address":"黄浦区南京西路2号新世界城6楼"},{"poiid":"B2094757D46FABFD409D","title":"丰收日 人民广场店","lon":"121.4737085","lat":"31.2366652","category":"75","category_name":"浙江菜","address":"黄浦区西藏中路555号雅居乐万豪4楼(近凤阳路)"},{"poiid":"B2094757D464A7FE459B","title":"大诚 市百一店","lon":"121.474632054","lat":"31.234972793","category":"95","category_name":"日本料理","address":"黄浦区南京东路830号第一百货新楼6楼(近西藏中路)"},{"poiid":"B2094757D465A4F84298","title":"韩林炭烤 市百一店","lon":"121.474632054","lat":"31.234972793","category":"96","category_name":"韩国料理","address":"黄浦区南京东路800号市百一店北楼5楼(近西藏中路)"},{"poiid":"B2094757D069ABFA459C","title":"上海歌城新世界店","lon":"121.473934738","lat":"31.2364634329","category":"500","category_name":"未知分类","address":"上海市黄浦区温州路"},{"poiid":"B2094757D068A7FD489E","title":"新开元大酒店","lon":"121.474001738","lat":"31.2362734289","category":"75","category_name":"浙江菜","address":"黄浦区六合路98号3-4楼(近市百一店)"},{"poiid":"B2094757D069A1F94098","title":"上影华威电影城","lon":"121.473907","lat":"31.23492","category":"178","category_name":"电影院","address":"黄浦区南京西路2-68号新世界城11-12楼(近西藏中路)"},{"poiid":"B2094757D165A0FA499A","title":"千彩休闲小火锅","lon":"121.473519738","lat":"31.2350994039","category":"247","category_name":"餐饮美食","address":"上海市黄浦区黄河路"},{"poiid":"B2094751DA6EA7FB499F","title":"七叶和茶","lon":"121.472564","lat":"31.236936","category":"247","category_name":"餐饮美食","address":"黄浦区南京东路720号第一食品商厦3楼(近贵州路)"},{"poiid":"B2094757D06FA4F84298","title":"许留山(新世界店)","lon":"121.47317173","lat":"31.235074403","category":"67","category_name":"甜品店","address":"黄浦区南京西路2-68号新世纪城12楼(近西藏中路)"},{"poiid":"B2094751D56CA3FC489D","title":"悦粤茶餐厅(人民广场店)","lon":"121.47385","lat":"31.23629","category":"72","category_name":"广东菜","address":"黄浦区西藏中路525号雅居乐国际广场4楼(近新世界百货)"},{"poiid":"B2094757DB69AAFD409C","title":"善知鸟日本创作料理","lon":"121.474278","lat":"31.235902","category":"95","category_name":"日本料理","address":"黄浦区西藏中路500号思源商厦6A(近凤阳路)"},{"poiid":"B2094757D06EAAFB499D","title":"麦当劳(新世界店)","lon":"121.47294998","lat":"31.234666089","category":"68","category_name":"快餐厅","address":"黄浦区南京西路2-68号新世纪城B1楼(近西藏中路)"},{"poiid":"B2094655D26BA3F84798","title":"味千拉面新世界店","lon":"121.474","lat":"31.2348","category":"95","category_name":"日本料理","address":"黄浦区南京西路2-68号新世界城2楼(近西藏中路)"},{"poiid":"B2094752D46CA1F5409A","title":"三宝粥铺","lon":"121.474482","lat":"31.235848","category":"247","category_name":"餐饮美食","address":"第一百货8楼"},{"poiid":"B2094750D66BAAF54298","title":"猫屎咖啡(雅居乐国际广场店)","lon":"121.474","lat":"31.2358","category":"260","category_name":"其他","address":"黄浦区西藏中路525号雅居乐国际广场1楼"},{"poiid":"B2094750DA65A4FE449F","title":"五木铁板烧","lon":"121.473594","lat":"31.236803","category":"269","category_name":"烧烤","address":"黄浦区西藏中路500号思源商厦4楼"},{"poiid":"B2094757D068A0F5409B","title":"一茶一座(市百一店)","lon":"121.47438373","lat":"31.23542141","category":"47","category_name":"住宅区","address":"上海市黄浦区南京东路830号3楼"},{"poiid":"B2094751D568ABF84398","title":"王鼎铁板烧日本料理","lon":"121.473913","lat":"31.234432","category":"247","category_name":"餐饮美食","address":"南京西路253号7楼"},{"poiid":"B2094751D469A1FD459A","title":"利苒西班牙餐厅","lon":"121.47333","lat":"31.2368","category":"94","category_name":"西餐厅","address":"黄浦区西藏中路559号雅居乐国际广场3楼(近新世界)"},{"poiid":"B2094750DA64A7F4499B","title":"偶吧私房蔡音乐餐厅 Oh Bar","lon":"121.473838","lat":"31.23718","category":"248","category_name":"生活娱乐","address":"黄浦区六合路158号"},{"poiid":"B2094757D069A2FC409E","title":"新世界冰上乐园","lon":"121.47375573","lat":"31.234568392","category":"222","category_name":"溜冰场","address":"上海南京西路2-68号新世界6L"},{"poiid":"B2094757D069AAF94292","title":"大上海国际影城","lon":"121.47379873","lat":"31.235044402","category":"500","category_name":"未知分类","address":"上海市黄浦区黄河路"},{"poiid":"B2094654DA6FAAF5419F","title":"新世界城","lon":"121.47395","lat":"31.23484","category":"119","category_name":"商场","address":"黄浦区南京西路2-68号(近西藏中路)"},{"poiid":"B2094655D26DAAF4429C","title":"上海歌城(西藏中路)","lon":"121.47374","lat":"31.23549","category":"170","category_name":"KTV","address":"西藏中路399号新世界城"},{"poiid":"B2094654DA68A3FD479F","title":"上海杜莎夫人蜡像馆(南京西路)","lon":"121.47367","lat":"31.23468","category":"183","category_name":"展览馆","address":"南京西路2-68号新世界城10楼"},{"poiid":"B2094753D76FAAFA449C","title":"上海滩国泰旗舰店","lon":"121.466011","lat":"31.216125","category":"249","category_name":"购物服务","address":"淮海中路868号"},{"poiid":"B209475CD564A7F84292","title":"上海滩新天地店","lon":"121.47463","lat":"31.22164","category":"119","category_name":"商场","address":"\"太仓路181弄新天地北里15号\r\n\""},{"poiid":"B209475CD564A7F8439E","title":"上海滩中信泰富店","lon":"121.45602","lat":"31.22851","category":"119","category_name":"商场","address":"\"南京西路1168号中信泰富广场，店铺号221.\r\n\""},{"poiid":"B209475CD564A7F84392","title":"上海滩浦东香格里拉店","lon":"121.50058","lat":"31.23634","category":"119","category_name":"商场","address":"浦东富成路33号香格里拉酒店内大堂层"},{"poiid":"B2094654DA6FA1F94092","title":"世纪大上海电影城","lon":"121.47469","lat":"31.23501","category":"178","category_name":"电影院","address":"上海市西藏中路500号第一百货商店(新楼)8楼"},{"poiid":"B2094654DB64ABFC419E","title":"新世界影城","lon":"121.47399","lat":"31.2348","category":"178","category_name":"电影院","address":"南京西路2-68号新世界城12层"},{"poiid":"B2094655D26AABFD4492","title":"顺风大酒店 西藏中路店","lon":"121.474632054","lat":"31.234972793","category":"75","category_name":"浙江菜","address":"黄浦区南京东路830号第一百货新楼7楼(近西藏中路)"},{"poiid":"B2094655D26AABFD449A","title":"西堤牛排新世界店","lon":"121.474","lat":"31.2348","category":"94","category_name":"西餐厅","address":"黄浦区南京西路2-68号新世界城5楼(近西藏中路)"},{"poiid":"B2094757D068A4FF429B","title":"上海雅居乐万豪酒店","lon":"121.473508738","lat":"31.2361444261","category":"217","category_name":"旅馆招待所","address":"上海市黄浦区西藏中路555号(近新世界)"},{"poiid":"B2094757D06FA7F4449C","title":"麻辣诱惑(新世界店)","lon":"121.473465838","lat":"31.2345230916","category":"71","category_name":"四川菜","address":"黄浦区南京西路2-68号新世界城9楼"},{"poiid":"B2094654DA6FA1F9419F","title":"上海市第一百货商店","lon":"121.4747","lat":"31.23499","category":"119","category_name":"商场","address":"黄浦区南京东路830号(近西藏中路)"},{"poiid":"B2094751DA6DA1F5439F","title":"上海年代秀主题餐厅","lon":"121.473342","lat":"31.235938","category":"76","category_name":"上海菜","address":"黄浦区西藏中路525号雅居乐广场3楼308商铺(近凤阳路预计11月开业)"},{"poiid":"B2094757D06FA1F94499","title":"韩膳宫(新世界店)","lon":"121.473514938","lat":"31.2346033933","category":"96","category_name":"韩国料理","address":"黄浦区南京西路2号新世界城9楼9A(近西藏中路)"},{"poiid":"B2094752D16FA3F8499D","title":"新白鹿餐厅","lon":"121.474899","lat":"31.235458","category":"247","category_name":"餐饮美食","address":"南京东路东方商厦九楼"},{"poiid":"B2094655D36CA2FC439A","title":"雅居乐国际广场","lon":"121.47251","lat":"31.23629","category":"46","category_name":"楼宇","address":"黄浦区西藏中路525号(近凤阳路)"},{"poiid":"B2094750D26AA6FA4193","title":"人民广场地铁站","lon":"121.473411","lat":"31.234584","category":"36","category_name":"地铁站","address":null},{"poiid":"B2094757D06FA3F5489A","title":"南证大厦","lon":"121.473","lat":"31.2374","category":"46","category_name":"楼宇","address":"上海静安区南京西路580号近成都路"},{"poiid":"B2094757D56CAAFD449F","title":"来福小馆 人民广场店","lon":"121.4737085","lat":"31.2366652","category":"71","category_name":"四川菜","address":"黄浦区西藏中路559号雅居乐国际广场3楼(近凤阳路)"},{"poiid":"B2094757DB69A4F4479D","title":"雅居乐万豪酒店 都会尚膳 Shanghai City Bistro","lon":"121.4737085","lat":"31.2366652","category":"268","category_name":"自助","address":"西藏中路555号雅居乐万豪酒店3楼(近凤阳路)"},{"poiid":"B2094757D465A4F9439A","title":"避风塘 第一百货店","lon":"121.474632054","lat":"31.234972793","category":"72","category_name":"广东菜","address":"黄浦区南京东路830号第一百货4楼(近西藏中路)"},{"poiid":"B2094654DA6FAAF54298","title":"新世界紫澜门大酒店","lon":"121.4741","lat":"31.23495","category":"72","category_name":"广东菜","address":"黄浦区南京西路2-68号新世界城12楼(近西藏中路)"},{"poiid":"B2094757D068A7F84498","title":"汤姆熊(新世界店)","lon":"121.473908238","lat":"31.2356113148","category":"173","category_name":"游戏厅","address":"黄浦区南京西路2-68号新世界城9楼(近西藏中路)"},{"poiid":"B2094757D06FA1FF4998","title":"望湘园(第一百货店)","lon":"121.47446","lat":"31.23555","category":"77","category_name":"湖南菜","address":"上海黄浦区南京东路830号第一百货新楼6楼(近西藏中路)  "},{"poiid":"B2094752D068A1FF459C","title":"鱼酷活鱼现烤","lon":"121.474869","lat":"31.235397","category":"247","category_name":"餐饮美食","address":"南京东路东方商厦9楼"},{"poiid":"B2094750D76FA4FC499E","title":"山间堂民间瓦缸煨汤(人民广场店)","lon":"121.474","lat":"31.2347","category":"260","category_name":"其他","address":"黄浦区南京西路2号新世界城6楼"},{"poiid":"B2094757D46FABFD409D","title":"丰收日 人民广场店","lon":"121.4737085","lat":"31.2366652","category":"75","category_name":"浙江菜","address":"黄浦区西藏中路555号雅居乐万豪4楼(近凤阳路)"},{"poiid":"B2094757D464A7FE459B","title":"大诚 市百一店","lon":"121.474632054","lat":"31.234972793","category":"95","category_name":"日本料理","address":"黄浦区南京东路830号第一百货新楼6楼(近西藏中路)"},{"poiid":"B2094757D465A4F84298","title":"韩林炭烤 市百一店","lon":"121.474632054","lat":"31.234972793","category":"96","category_name":"韩国料理","address":"黄浦区南京东路800号市百一店北楼5楼(近西藏中路)"},{"poiid":"B2094757D069ABFA459C","title":"上海歌城新世界店","lon":"121.473934738","lat":"31.2364634329","category":"500","category_name":"未知分类","address":"上海市黄浦区温州路"},{"poiid":"B2094757D068A7FD489E","title":"新开元大酒店","lon":"121.474001738","lat":"31.2362734289","category":"75","category_name":"浙江菜","address":"黄浦区六合路98号3-4楼(近市百一店)"},{"poiid":"B2094757D069A1F94098","title":"上影华威电影城","lon":"121.473907","lat":"31.23492","category":"178","category_name":"电影院","address":"黄浦区南京西路2-68号新世界城11-12楼(近西藏中路)"},{"poiid":"B2094757D165A0FA499A","title":"千彩休闲小火锅","lon":"121.473519738","lat":"31.2350994039","category":"247","category_name":"餐饮美食","address":"上海市黄浦区黄河路"},{"poiid":"B2094751DA6EA7FB499F","title":"七叶和茶","lon":"121.472564","lat":"31.236936","category":"247","category_name":"餐饮美食","address":"黄浦区南京东路720号第一食品商厦3楼(近贵州路)"},{"poiid":"B2094757D06FA4F84298","title":"许留山(新世界店)","lon":"121.47317173","lat":"31.235074403","category":"67","category_name":"甜品店","address":"黄浦区南京西路2-68号新世纪城12楼(近西藏中路)"},{"poiid":"B2094751D56CA3FC489D","title":"悦粤茶餐厅(人民广场店)","lon":"121.47385","lat":"31.23629","category":"72","category_name":"广东菜","address":"黄浦区西藏中路525号雅居乐国际广场4楼(近新世界百货)"},{"poiid":"B2094757DB69AAFD409C","title":"善知鸟日本创作料理","lon":"121.474278","lat":"31.235902","category":"95","category_name":"日本料理","address":"黄浦区西藏中路500号思源商厦6A(近凤阳路)"},{"poiid":"B2094757D06EAAFB499D","title":"麦当劳(新世界店)","lon":"121.47294998","lat":"31.234666089","category":"68","category_name":"快餐厅","address":"黄浦区南京西路2-68号新世纪城B1楼(近西藏中路)"},{"poiid":"B2094655D26BA3F84798","title":"味千拉面新世界店","lon":"121.474","lat":"31.2348","category":"95","category_name":"日本料理","address":"黄浦区南京西路2-68号新世界城2楼(近西藏中路)"},{"poiid":"B2094752D46CA1F5409A","title":"三宝粥铺","lon":"121.474482","lat":"31.235848","category":"247","category_name":"餐饮美食","address":"第一百货8楼"},{"poiid":"B2094750D66BAAF54298","title":"猫屎咖啡(雅居乐国际广场店)","lon":"121.474","lat":"31.2358","category":"260","category_name":"其他","address":"黄浦区西藏中路525号雅居乐国际广场1楼"},{"poiid":"B2094750DA65A4FE449F","title":"五木铁板烧","lon":"121.473594","lat":"31.236803","category":"269","category_name":"烧烤","address":"黄浦区西藏中路500号思源商厦4楼"},{"poiid":"B2094757D068A0F5409B","title":"一茶一座(市百一店)","lon":"121.47438373","lat":"31.23542141","category":"47","category_name":"住宅区","address":"上海市黄浦区南京东路830号3楼"},{"poiid":"B2094751D568ABF84398","title":"王鼎铁板烧日本料理","lon":"121.473913","lat":"31.234432","category":"247","category_name":"餐饮美食","address":"南京西路253号7楼"},{"poiid":"B2094751D469A1FD459A","title":"利苒西班牙餐厅","lon":"121.47333","lat":"31.2368","category":"94","category_name":"西餐厅","address":"黄浦区西藏中路559号雅居乐国际广场3楼(近新世界)"},{"poiid":"B2094750DA64A7F4499B","title":"偶吧私房蔡音乐餐厅 Oh Bar","lon":"121.473838","lat":"31.23718","category":"248","category_name":"生活娱乐","address":"黄浦区六合路158号"},{"poiid":"B2094757D069A2FC409E","title":"新世界冰上乐园","lon":"121.47375573","lat":"31.234568392","category":"222","category_name":"溜冰场","address":"上海南京西路2-68号新世界6L"},{"poiid":"B2094757D069AAF94292","title":"大上海国际影城","lon":"121.47379873","lat":"31.235044402","category":"500","category_name":"未知分类","address":"上海市黄浦区黄河路"},{"poiid":"B2094654DA6FAAF5419F","title":"新世界城","lon":"121.47395","lat":"31.23484","category":"119","category_name":"商场","address":"黄浦区南京西路2-68号(近西藏中路)"},{"poiid":"B2094655D26DAAF4429C","title":"上海歌城(西藏中路)","lon":"121.47374","lat":"31.23549","category":"170","category_name":"KTV","address":"西藏中路399号新世界城"},{"poiid":"B2094654DA68A3FD479F","title":"上海杜莎夫人蜡像馆(南京西路)","lon":"121.47367","lat":"31.23468","category":"183","category_name":"展览馆","address":"南京西路2-68号新世界城10楼"},{"poiid":"B2094753D76FAAFA449C","title":"上海滩国泰旗舰店","lon":"121.466011","lat":"31.216125","category":"249","category_name":"购物服务","address":"淮海中路868号"},{"poiid":"B209475CD564A7F84292","title":"上海滩新天地店","lon":"121.47463","lat":"31.22164","category":"119","category_name":"商场","address":"\"太仓路181弄新天地北里15号\r\n\""},{"poiid":"B209475CD564A7F8439E","title":"上海滩中信泰富店","lon":"121.45602","lat":"31.22851","category":"119","category_name":"商场","address":"\"南京西路1168号中信泰富广场，店铺号221.\r\n\""},{"poiid":"B209475CD564A7F84392","title":"上海滩浦东香格里拉店","lon":"121.50058","lat":"31.23634","category":"119","category_name":"商场","address":"浦东富成路33号香格里拉酒店内大堂层"},{"poiid":"B2094654DA6FA1F94092","title":"世纪大上海电影城","lon":"121.47469","lat":"31.23501","category":"178","category_name":"电影院","address":"上海市西藏中路500号第一百货商店(新楼)8楼"},{"poiid":"B2094654DB64ABFC419E","title":"新世界影城","lon":"121.47399","lat":"31.2348","category":"178","category_name":"电影院","address":"南京西路2-68号新世界城12层"},{"poiid":"B2094655D26AABFD4492","title":"顺风大酒店 西藏中路店","lon":"121.474632054","lat":"31.234972793","category":"75","category_name":"浙江菜","address":"黄浦区南京东路830号第一百货新楼7楼(近西藏中路)"},{"poiid":"B2094655D26AABFD449A","title":"西堤牛排新世界店","lon":"121.474","lat":"31.2348","category":"94","category_name":"西餐厅","address":"黄浦区南京西路2-68号新世界城5楼(近西藏中路)"},{"poiid":"B2094757D068A4FF429B","title":"上海雅居乐万豪酒店","lon":"121.473508738","lat":"31.2361444261","category":"217","category_name":"旅馆招待所","address":"上海市黄浦区西藏中路555号(近新世界)"},{"poiid":"B2094757D06FA7F4449C","title":"麻辣诱惑(新世界店)","lon":"121.473465838","lat":"31.2345230916","category":"71","category_name":"四川菜","address":"黄浦区南京西路2-68号新世界城9楼"},{"poiid":"B2094654DA6FA1F9419F","title":"上海市第一百货商店","lon":"121.4747","lat":"31.23499","category":"119","category_name":"商场","address":"黄浦区南京东路830号(近西藏中路)"},{"poiid":"B2094751DA6DA1F5439F","title":"上海年代秀主题餐厅","lon":"121.473342","lat":"31.235938","category":"76","category_name":"上海菜","address":"黄浦区西藏中路525号雅居乐广场3楼308商铺(近凤阳路预计11月开业)"},{"poiid":"B2094757D06FA1F94499","title":"韩膳宫(新世界店)","lon":"121.473514938","lat":"31.2346033933","category":"96","category_name":"韩国料理","address":"黄浦区南京西路2号新世界城9楼9A(近西藏中路)"},{"poiid":"B2094752D16FA3F8499D","title":"新白鹿餐厅","lon":"121.474899","lat":"31.235458","category":"247","category_name":"餐饮美食","address":"南京东路东方商厦九楼"},{"poiid":"B2094655D36CA2FC439A","title":"雅居乐国际广场","lon":"121.47251","lat":"31.23629","category":"46","category_name":"楼宇","address":"黄浦区西藏中路525号(近凤阳路)"},{"poiid":"B2094750D26AA6FA4193","title":"人民广场地铁站","lon":"121.473411","lat":"31.234584","category":"36","category_name":"地铁站","address":null},{"poiid":"B2094757D06FA3F5489A","title":"南证大厦","lon":"121.473","lat":"31.2374","category":"46","category_name":"楼宇","address":"上海静安区南京西路580号近成都路"},{"poiid":"B2094757D56CAAFD449F","title":"来福小馆 人民广场店","lon":"121.4737085","lat":"31.2366652","category":"71","category_name":"四川菜","address":"黄浦区西藏中路559号雅居乐国际广场3楼(近凤阳路)"},{"poiid":"B2094757DB69A4F4479D","title":"雅居乐万豪酒店 都会尚膳 Shanghai City Bistro","lon":"121.4737085","lat":"31.2366652","category":"268","category_name":"自助","address":"西藏中路555号雅居乐万豪酒店3楼(近凤阳路)"},{"poiid":"B2094757D465A4F9439A","title":"避风塘 第一百货店","lon":"121.474632054","lat":"31.234972793","category":"72","category_name":"广东菜","address":"黄浦区南京东路830号第一百货4楼(近西藏中路)"},{"poiid":"B2094654DA6FAAF54298","title":"新世界紫澜门大酒店","lon":"121.4741","lat":"31.23495","category":"72","category_name":"广东菜","address":"黄浦区南京西路2-68号新世界城12楼(近西藏中路)"},{"poiid":"B2094757D068A7F84498","title":"汤姆熊(新世界店)","lon":"121.473908238","lat":"31.2356113148","category":"173","category_name":"游戏厅","address":"黄浦区南京西路2-68号新世界城9楼(近西藏中路)"},{"poiid":"B2094757D06FA1FF4998","title":"望湘园(第一百货店)","lon":"121.47446","lat":"31.23555","category":"77","category_name":"湖南菜","address":"上海黄浦区南京东路830号第一百货新楼6楼(近西藏中路)  "},{"poiid":"B2094752D068A1FF459C","title":"鱼酷活鱼现烤","lon":"121.474869","lat":"31.235397","category":"247","category_name":"餐饮美食","address":"南京东路东方商厦9楼"},{"poiid":"B2094750D76FA4FC499E","title":"山间堂民间瓦缸煨汤(人民广场店)","lon":"121.474","lat":"31.2347","category":"260","category_name":"其他","address":"黄浦区南京西路2号新世界城6楼"},{"poiid":"B2094757D46FABFD409D","title":"丰收日 人民广场店","lon":"121.4737085","lat":"31.2366652","category":"75","category_name":"浙江菜","address":"黄浦区西藏中路555号雅居乐万豪4楼(近凤阳路)"},{"poiid":"B2094757D464A7FE459B","title":"大诚 市百一店","lon":"121.474632054","lat":"31.234972793","category":"95","category_name":"日本料理","address":"黄浦区南京东路830号第一百货新楼6楼(近西藏中路)"},{"poiid":"B2094757D465A4F84298","title":"韩林炭烤 市百一店","lon":"121.474632054","lat":"31.234972793","category":"96","category_name":"韩国料理","address":"黄浦区南京东路800号市百一店北楼5楼(近西藏中路)"},{"poiid":"B2094757D069ABFA459C","title":"上海歌城新世界店","lon":"121.473934738","lat":"31.2364634329","category":"500","category_name":"未知分类","address":"上海市黄浦区温州路"},{"poiid":"B2094757D068A7FD489E","title":"新开元大酒店","lon":"121.474001738","lat":"31.2362734289","category":"75","category_name":"浙江菜","address":"黄浦区六合路98号3-4楼(近市百一店)"},{"poiid":"B2094757D069A1F94098","title":"上影华威电影城","lon":"121.473907","lat":"31.23492","category":"178","category_name":"电影院","address":"黄浦区南京西路2-68号新世界城11-12楼(近西藏中路)"},{"poiid":"B2094757D165A0FA499A","title":"千彩休闲小火锅","lon":"121.473519738","lat":"31.2350994039","category":"247","category_name":"餐饮美食","address":"上海市黄浦区黄河路"},{"poiid":"B2094751DA6EA7FB499F","title":"七叶和茶","lon":"121.472564","lat":"31.236936","category":"247","category_name":"餐饮美食","address":"黄浦区南京东路720号第一食品商厦3楼(近贵州路)"},{"poiid":"B2094757D06FA4F84298","title":"许留山(新世界店)","lon":"121.47317173","lat":"31.235074403","category":"67","category_name":"甜品店","address":"黄浦区南京西路2-68号新世纪城12楼(近西藏中路)"},{"poiid":"B2094751D56CA3FC489D","title":"悦粤茶餐厅(人民广场店)","lon":"121.47385","lat":"31.23629","category":"72","category_name":"广东菜","address":"黄浦区西藏中路525号雅居乐国际广场4楼(近新世界百货)"},{"poiid":"B2094757DB69AAFD409C","title":"善知鸟日本创作料理","lon":"121.474278","lat":"31.235902","category":"95","category_name":"日本料理","address":"黄浦区西藏中路500号思源商厦6A(近凤阳路)"},{"poiid":"B2094757D06EAAFB499D","title":"麦当劳(新世界店)","lon":"121.47294998","lat":"31.234666089","category":"68","category_name":"快餐厅","address":"黄浦区南京西路2-68号新世纪城B1楼(近西藏中路)"},{"poiid":"B2094655D26BA3F84798","title":"味千拉面新世界店","lon":"121.474","lat":"31.2348","category":"95","category_name":"日本料理","address":"黄浦区南京西路2-68号新世界城2楼(近西藏中路)"},{"poiid":"B2094752D46CA1F5409A","title":"三宝粥铺","lon":"121.474482","lat":"31.235848","category":"247","category_name":"餐饮美食","address":"第一百货8楼"},{"poiid":"B2094750D66BAAF54298","title":"猫屎咖啡(雅居乐国际广场店)","lon":"121.474","lat":"31.2358","category":"260","category_name":"其他","address":"黄浦区西藏中路525号雅居乐国际广场1楼"},{"poiid":"B2094750DA65A4FE449F","title":"五木铁板烧","lon":"121.473594","lat":"31.236803","category":"269","category_name":"烧烤","address":"黄浦区西藏中路500号思源商厦4楼"},{"poiid":"B2094757D068A0F5409B","title":"一茶一座(市百一店)","lon":"121.47438373","lat":"31.23542141","category":"47","category_name":"住宅区","address":"上海市黄浦区南京东路830号3楼"},{"poiid":"B2094751D568ABF84398","title":"王鼎铁板烧日本料理","lon":"121.473913","lat":"31.234432","category":"247","category_name":"餐饮美食","address":"南京西路253号7楼"},{"poiid":"B2094751D469A1FD459A","title":"利苒西班牙餐厅","lon":"121.47333","lat":"31.2368","category":"94","category_name":"西餐厅","address":"黄浦区西藏中路559号雅居乐国际广场3楼(近新世界)"},{"poiid":"B2094750DA64A7F4499B","title":"偶吧私房蔡音乐餐厅 Oh Bar","lon":"121.473838","lat":"31.23718","category":"248","category_name":"生活娱乐","address":"黄浦区六合路158号"},{"poiid":"B2094757D069A2FC409E","title":"新世界冰上乐园","lon":"121.47375573","lat":"31.234568392","category":"222","category_name":"溜冰场","address":"上海南京西路2-68号新世界6L"},{"poiid":"B2094757D069AAF94292","title":"大上海国际影城","lon":"121.47379873","lat":"31.235044402","category":"500","category_name":"未知分类","address":"上海市黄浦区黄河路"},{"poiid":"B2094654DA6FAAF5419F","title":"新世界城","lon":"121.47395","lat":"31.23484","category":"119","category_name":"商场","address":"黄浦区南京西路2-68号(近西藏中路)"},{"poiid":"B2094655D26DAAF4429C","title":"上海歌城(西藏中路)","lon":"121.47374","lat":"31.23549","category":"170","category_name":"KTV","address":"西藏中路399号新世界城"},{"poiid":"B2094654DA68A3FD479F","title":"上海杜莎夫人蜡像馆(南京西路)","lon":"121.47367","lat":"31.23468","category":"183","category_name":"展览馆","address":"南京西路2-68号新世界城10楼"},{"poiid":"B2094753D76FAAFA449C","title":"上海滩国泰旗舰店","lon":"121.466011","lat":"31.216125","category":"249","category_name":"购物服务","address":"淮海中路868号"},{"poiid":"B209475CD564A7F84292","title":"上海滩新天地店","lon":"121.47463","lat":"31.22164","category":"119","category_name":"商场","address":"\"太仓路181弄新天地北里15号\r\n\""},{"poiid":"B209475CD564A7F8439E","title":"上海滩中信泰富店","lon":"121.45602","lat":"31.22851","category":"119","category_name":"商场","address":"\"南京西路1168号中信泰富广场，店铺号221.\r\n\""},{"poiid":"B209475CD564A7F84392","title":"上海滩浦东香格里拉店","lon":"121.50058","lat":"31.23634","category":"119","category_name":"商场","address":"浦东富成路33号香格里拉酒店内大堂层"},{"poiid":"B2094654DA6FA1F94092","title":"世纪大上海电影城","lon":"121.47469","lat":"31.23501","category":"178","category_name":"电影院","address":"上海市西藏中路500号第一百货商店(新楼)8楼"},{"poiid":"B2094654DB64ABFC419E","title":"新世界影城","lon":"121.47399","lat":"31.2348","category":"178","category_name":"电影院","address":"南京西路2-68号新世界城12层"},{"poiid":"B2094655D26AABFD4492","title":"顺风大酒店 西藏中路店","lon":"121.474632054","lat":"31.234972793","category":"75","category_name":"浙江菜","address":"黄浦区南京东路830号第一百货新楼7楼(近西藏中路)"},{"poiid":"B2094655D26AABFD449A","title":"西堤牛排新世界店","lon":"121.474","lat":"31.2348","category":"94","category_name":"西餐厅","address":"黄浦区南京西路2-68号新世界城5楼(近西藏中路)"},{"poiid":"B2094757D068A4FF429B","title":"上海雅居乐万豪酒店","lon":"121.473508738","lat":"31.2361444261","category":"217","category_name":"旅馆招待所","address":"上海市黄浦区西藏中路555号(近新世界)"},{"poiid":"B2094757D06FA7F4449C","title":"麻辣诱惑(新世界店)","lon":"121.473465838","lat":"31.2345230916","category":"71","category_name":"四川菜","address":"黄浦区南京西路2-68号新世界城9楼"},{"poiid":"B2094654DA6FA1F9419F","title":"上海市第一百货商店","lon":"121.4747","lat":"31.23499","category":"119","category_name":"商场","address":"黄浦区南京东路830号(近西藏中路)"},{"poiid":"B2094751DA6DA1F5439F","title":"上海年代秀主题餐厅","lon":"121.473342","lat":"31.235938","category":"76","category_name":"上海菜","address":"黄浦区西藏中路525号雅居乐广场3楼308商铺(近凤阳路预计11月开业)"},{"poiid":"B2094757D06FA1F94499","title":"韩膳宫(新世界店)","lon":"121.473514938","lat":"31.2346033933","category":"96","category_name":"韩国料理","address":"黄浦区南京西路2号新世界城9楼9A(近西藏中路)"},{"poiid":"B2094752D16FA3F8499D","title":"新白鹿餐厅","lon":"121.474899","lat":"31.235458","category":"247","category_name":"餐饮美食","address":"南京东路东方商厦九楼"},{"poiid":"B2094655D36CA2FC439A","title":"雅居乐国际广场","lon":"121.47251","lat":"31.23629","category":"46","category_name":"楼宇","address":"黄浦区西藏中路525号(近凤阳路)"},{"poiid":"B2094750D26AA6FA4193","title":"人民广场地铁站","lon":"121.473411","lat":"31.234584","category":"36","category_name":"地铁站","address":null},{"poiid":"B2094757D06FA3F5489A","title":"南证大厦","lon":"121.473","lat":"31.2374","category":"46","category_name":"楼宇","address":"上海静安区南京西路580号近成都路"},{"poiid":"B2094757D56CAAFD449F","title":"来福小馆 人民广场店","lon":"121.4737085","lat":"31.2366652","category":"71","category_name":"四川菜","address":"黄浦区西藏中路559号雅居乐国际广场3楼(近凤阳路)"},{"poiid":"B2094757DB69A4F4479D","title":"雅居乐万豪酒店 都会尚膳 Shanghai City Bistro","lon":"121.4737085","lat":"31.2366652","category":"268","category_name":"自助","address":"西藏中路555号雅居乐万豪酒店3楼(近凤阳路)"},{"poiid":"B2094757D465A4F9439A","title":"避风塘 第一百货店","lon":"121.474632054","lat":"31.234972793","category":"72","category_name":"广东菜","address":"黄浦区南京东路830号第一百货4楼(近西藏中路)"},{"poiid":"B2094654DA6FAAF54298","title":"新世界紫澜门大酒店","lon":"121.4741","lat":"31.23495","category":"72","category_name":"广东菜","address":"黄浦区南京西路2-68号新世界城12楼(近西藏中路)"},{"poiid":"B2094757D068A7F84498","title":"汤姆熊(新世界店)","lon":"121.473908238","lat":"31.2356113148","category":"173","category_name":"游戏厅","address":"黄浦区南京西路2-68号新世界城9楼(近西藏中路)"},{"poiid":"B2094757D06FA1FF4998","title":"望湘园(第一百货店)","lon":"121.47446","lat":"31.23555","category":"77","category_name":"湖南菜","address":"上海黄浦区南京东路830号第一百货新楼6楼(近西藏中路)  "},{"poiid":"B2094752D068A1FF459C","title":"鱼酷活鱼现烤","lon":"121.474869","lat":"31.235397","category":"247","category_name":"餐饮美食","address":"南京东路东方商厦9楼"},{"poiid":"B2094750D76FA4FC499E","title":"山间堂民间瓦缸煨汤(人民广场店)","lon":"121.474","lat":"31.2347","category":"260","category_name":"其他","address":"黄浦区南京西路2号新世界城6楼"},{"poiid":"B2094757D46FABFD409D","title":"丰收日 人民广场店","lon":"121.4737085","lat":"31.2366652","category":"75","category_name":"浙江菜","address":"黄浦区西藏中路555号雅居乐万豪4楼(近凤阳路)"},{"poiid":"B2094757D464A7FE459B","title":"大诚 市百一店","lon":"121.474632054","lat":"31.234972793","category":"95","category_name":"日本料理","address":"黄浦区南京东路830号第一百货新楼6楼(近西藏中路)"},{"poiid":"B2094757D465A4F84298","title":"韩林炭烤 市百一店","lon":"121.474632054","lat":"31.234972793","category":"96","category_name":"韩国料理","address":"黄浦区南京东路800号市百一店北楼5楼(近西藏中路)"},{"poiid":"B2094757D069ABFA459C","title":"上海歌城新世界店","lon":"121.473934738","lat":"31.2364634329","category":"500","category_name":"未知分类","address":"上海市黄浦区温州路"},{"poiid":"B2094757D068A7FD489E","title":"新开元大酒店","lon":"121.474001738","lat":"31.2362734289","category":"75","category_name":"浙江菜","address":"黄浦区六合路98号3-4楼(近市百一店)"},{"poiid":"B2094757D069A1F94098","title":"上影华威电影城","lon":"121.473907","lat":"31.23492","category":"178","category_name":"电影院","address":"黄浦区南京西路2-68号新世界城11-12楼(近西藏中路)"},{"poiid":"B2094757D165A0FA499A","title":"千彩休闲小火锅","lon":"121.473519738","lat":"31.2350994039","category":"247","category_name":"餐饮美食","address":"上海市黄浦区黄河路"},{"poiid":"B2094751DA6EA7FB499F","title":"七叶和茶","lon":"121.472564","lat":"31.236936","category":"247","category_name":"餐饮美食","address":"黄浦区南京东路720号第一食品商厦3楼(近贵州路)"},{"poiid":"B2094757D06FA4F84298","title":"许留山(新世界店)","lon":"121.47317173","lat":"31.235074403","category":"67","category_name":"甜品店","address":"黄浦区南京西路2-68号新世纪城12楼(近西藏中路)"},{"poiid":"B2094751D56CA3FC489D","title":"悦粤茶餐厅(人民广场店)","lon":"121.47385","lat":"31.23629","category":"72","category_name":"广东菜","address":"黄浦区西藏中路525号雅居乐国际广场4楼(近新世界百货)"},{"poiid":"B2094757DB69AAFD409C","title":"善知鸟日本创作料理","lon":"121.474278","lat":"31.235902","category":"95","category_name":"日本料理","address":"黄浦区西藏中路500号思源商厦6A(近凤阳路)"},{"poiid":"B2094757D06EAAFB499D","title":"麦当劳(新世界店)","lon":"121.47294998","lat":"31.234666089","category":"68","category_name":"快餐厅","address":"黄浦区南京西路2-68号新世纪城B1楼(近西藏中路)"},{"poiid":"B2094655D26BA3F84798","title":"味千拉面新世界店","lon":"121.474","lat":"31.2348","category":"95","category_name":"日本料理","address":"黄浦区南京西路2-68号新世界城2楼(近西藏中路)"},{"poiid":"B2094752D46CA1F5409A","title":"三宝粥铺","lon":"121.474482","lat":"31.235848","category":"247","category_name":"餐饮美食","address":"第一百货8楼"},{"poiid":"B2094750D66BAAF54298","title":"猫屎咖啡(雅居乐国际广场店)","lon":"121.474","lat":"31.2358","category":"260","category_name":"其他","address":"黄浦区西藏中路525号雅居乐国际广场1楼"},{"poiid":"B2094750DA65A4FE449F","title":"五木铁板烧","lon":"121.473594","lat":"31.236803","category":"269","category_name":"烧烤","address":"黄浦区西藏中路500号思源商厦4楼"},{"poiid":"B2094757D068A0F5409B","title":"一茶一座(市百一店)","lon":"121.47438373","lat":"31.23542141","category":"47","category_name":"住宅区","address":"上海市黄浦区南京东路830号3楼"},{"poiid":"B2094751D568ABF84398","title":"王鼎铁板烧日本料理","lon":"121.473913","lat":"31.234432","category":"247","category_name":"餐饮美食","address":"南京西路253号7楼"},{"poiid":"B2094751D469A1FD459A","title":"利苒西班牙餐厅","lon":"121.47333","lat":"31.2368","category":"94","category_name":"西餐厅","address":"黄浦区西藏中路559号雅居乐国际广场3楼(近新世界)"},{"poiid":"B2094750DA64A7F4499B","title":"偶吧私房蔡音乐餐厅 Oh Bar","lon":"121.473838","lat":"31.23718","category":"248","category_name":"生活娱乐","address":"黄浦区六合路158号"},{"poiid":"B2094757D069A2FC409E","title":"新世界冰上乐园","lon":"121.47375573","lat":"31.234568392","category":"222","category_name":"溜冰场","address":"上海南京西路2-68号新世界6L"},{"poiid":"B2094757D069AAF94292","title":"大上海国际影城","lon":"121.47379873","lat":"31.235044402","category":"500","category_name":"未知分类","address":"上海市黄浦区黄河路"}]