[{"poiid":"B2094757DA6FA3FF429A","title":"鲜芋仙(崂山店)","lon":"121.524784999999","lat":"31.2231519999999","category":"67","category_name":"甜品店","address":"浦东新区崂山路640号1楼(近潍坊路)"},{"poiid":"B2094654DB6AA6FF4599","title":"上海瑞吉红塔大酒店","lon":"121.52821","lat":"31.2238","category":"213","category_name":"五星级宾馆","address":"浦东新区东方路889号"},{"poiid":"B2094654DA6AA3FA489A","title":"苏浙汇(东方店)","lon":"121.52799","lat":"31.22449","category":"76","category_name":"上海菜","address":"浦东新区东方路877号(近潍坊路)"},{"poiid":"B209475CD564A7F84392","title":"上海滩浦东香格里拉店","lon":"121.50058","lat":"31.23634","category":"119","category_name":"商场","address":"浦东富成路33号香格里拉酒店内大堂层"},{"poiid":"B2094757D06FA6FE449E","title":"齐鲁万怡大酒店","lon":"121.52576845","lat":"31.225949269","category":"217","category_name":"旅馆招待所","address":"浦东新区东方路838号(近潍坊路)"},{"poiid":"B2094757D06FA2F54298","title":"麦当劳(东方路店)","lon":"121.52743","lat":"31.22576","category":"68","category_name":"快餐厅","address":"浦东新区潍坊路162号(近东方路)"},{"poiid":"B2094751D465A3FC489E","title":"铜锣湾三记烧腊餐厅","lon":"121.52517","lat":"31.22189","category":"72","category_name":"广东菜","address":"浦东新区崂山路664号(近浦电路)"},{"poiid":"B2094654DB65A5F4489D","title":"花蝶居酒屋 东方路店","lon":"121.52739048892","lat":"31.224027003382","category":"95","category_name":"日本料理","address":"浦东新区东方路900号(向城路)"},{"poiid":"B2094757D068A0F8419B","title":"望湘园(潍坊路店)","lon":"121.52305","lat":"31.22407","category":"77","category_name":"湖南菜","address":"浦东新区潍坊路118号(近崂山路)"},{"poiid":"B2094757D068A7F8409C","title":"友乐达台北精致面馆(崂山路店)","lon":"121.52473","lat":"31.22373","category":"68","category_name":"快餐厅","address":"浦东新区崂山路632号(浦电路与潍坊路之间)"},{"poiid":"B2094757D06FA2FB499A","title":"汉堡王(96广场店)","lon":"121.52475668","lat":"31.226448426","category":"68","category_name":"快餐厅","address":"浦东新区东方路796号96广场1楼148商铺(近张杨路)"},{"poiid":"B2094757D06FA5FF4192","title":"徽珍源(潍坊路店)","lon":"121.5269","lat":"31.22535","category":"260","category_name":"其他","address":"浦东新区潍坊路162号(近东方路)"},{"poiid":"B2094654DA69ABFC419C","title":"明城大酒店","lon":"121.52449","lat":"31.22583","category":"214","category_name":"四星级宾馆","address":"上海市浦东新区崂山东路600号(近潍坊路)"},{"poiid":"B2094757D068A5FF4499","title":"小城火锅(潍坊店)","lon":"121.52465","lat":"31.22362","category":"86","category_name":"火锅店","address":"浦东新区崂山路633号(近潍坊路)"},{"poiid":"B2094757D568A6FA4892","title":"三两春","lon":"121.52516222","lat":"31.22200901","category":"68","category_name":"快餐厅","address":"浦东新区崂山路664号(近潍坊路)"},{"poiid":"B2094757D06FA4FF429A","title":"鸿瑞兴(崂山路店)","lon":"121.52561","lat":"31.22058","category":"76","category_name":"上海菜","address":"浦东新区崂山路706号(近浦电路)"},{"poiid":"B2094757D068A0F8429C","title":"苏先生海鲜渔庄 浦东店","lon":"121.52776824947","lat":"31.22331518343","category":"260","category_name":"其他","address":"浦东新区东方路920号(近浦电路)"},{"poiid":"B2094753D36FA3FC439B","title":"世纪大道地铁站","lon":"121.52771","lat":"31.225006","category":"36","category_name":"地铁站","address":"上海市 世纪大道地铁站"},{"poiid":"B2094757D06AA3F44992","title":"崂山路","lon":"121.523775","lat":"31.226032","category":"500","category_name":"未知分类","address":"上海崂山路"},{"poiid":"B2094757D068A0F5439B","title":"肯德基 KFC (潍坊店)","lon":"121.52683421","lat":"31.225123503","category":"68","category_name":"快餐厅","address":"浦东新区崂山路585号(近潍坊路)"},{"poiid":"B2094757D66DA4FE449A","title":"八百伴","lon":"121.524485938","lat":"31.2244479769","category":"119","category_name":"商场","address":"上海八百伴七楼"},{"poiid":"B2094757D068A1FD489B","title":"小歇米线(崂山店)","lon":"121.52411","lat":"31.22376","category":"68","category_name":"快餐厅","address":"浦东新区崂山路639号(近潍坊路)"},{"poiid":"B2094757D068A1F9429B","title":"干锅居(东方路店)","lon":"121.527303266","lat":"31.2256183568","category":"83","category_name":"云贵菜","address":"浦东新区潍坊路162号3幢(近东方路)"},{"poiid":"B2094757D069A1F44799","title":"招商银行(东方支行)","lon":"121.527150244","lat":"31.2238831589","category":"150","category_name":"银行","address":"浦东新区东方路902-904号(近潍坊路)"},{"poiid":"B2094654DB65A7F4439E","title":"85度(崂山店)","lon":"121.5238","lat":"31.22489","category":"111","category_name":"休闲餐饮场所","address":"浦东新区崂山路525号(近长航医院)"},{"poiid":"B2094757D16CA3F54292","title":"堡龙阁","lon":"121.525879","lat":"31.226608","category":"72","category_name":"广东菜","address":"浦东新区东方路818号众城大厦3楼(近潍坊路)"},{"poiid":"B2094757D06AA6FD489D","title":"芒不颠港式甜品(崂山路店)","lon":"121.52405","lat":"31.22264","category":"67","category_name":"甜品店","address":"浦东新区崂山路645弄4号101室(近潍坊路)"},{"poiid":"B2094757D06FAAFB409C","title":"虹桥古北汤馆(九六广场店)","lon":"121.52533968","lat":"31.226928424","category":"500","category_name":"未知分类","address":"上海世纪大道东方路九六广场二层"},{"poiid":"B2094654DB69A0FA4192","title":"大渔(东方店)","lon":"121.52796","lat":"31.22467","category":"87","category_name":"特色／地方风味餐厅","address":"浦东新区东方路877号嘉兴大厦3楼(近向城路)"},{"poiid":"B2094757D164A6FA469A","title":"老刘野生大鱼坊","lon":"121.52512673","lat":"31.223482156","category":"82","category_name":"东北菜","address":"浦东新区崂山路640号3楼"},{"poiid":"B2094757D064A2FE4298","title":"嘉园韩国料理","lon":"121.52457","lat":"31.22383","category":"96","category_name":"韩国料理","address":"浦东新区崂山路628号(近潍坊路)"},{"poiid":"B2094753DA68A5FF439A","title":"金钱豹（浦东三鑫店）","lon":"121.52349","lat":"31.224824","category":"500","category_name":"未知分类","address":"上海市 浦东张杨路579号三鑫大厦"},{"poiid":"B2094654DA69ABFE469C","title":"上海市洋泾中学东校","lon":"121.52645","lat":"31.22395","category":"55","category_name":"中学","address":"东方路900号"},{"poiid":"B2094757D068A2FB499D","title":"中国建设银行(东方路支行)","lon":"121.52546","lat":"31.22655","category":"150","category_name":"银行","address":"上海浦东新区东方路818号(近潍坊路)"},{"poiid":"B2094757D16DA4FC419A","title":"潍坊新村派出所","lon":"121.524872538","lat":"31.2225231359","category":"609","category_name":"警察局","address":"上海潍访六村628号"},{"poiid":"B2094757D06AA7F5459E","title":"中国电信东方路营业厅","lon":"121.527345","lat":"31.223444","category":"151","category_name":"电讯营业厅","address":"上海东方路908号"},{"poiid":"B2094757D16DA4FA409B","title":"清真烧烤吧","lon":"121.52472","lat":"31.22392","category":"68","category_name":"快餐厅","address":"浦东新区崂山路622号真康生清真馆内(近潍坊路)"},{"poiid":"B2094750D76DA7FD419D","title":"宝寿司(崂山路店)","lon":"121.525","lat":"31.2232","category":"95","category_name":"日本料理","address":"浦东新区崂山路640号(近浦电路)"},{"poiid":"B2094654DA69A5F54698","title":"潍坊十村一小区","lon":"121.52593","lat":"31.22524","category":"47","category_name":"住宅区","address":"潍坊路140弄2-22号"},{"poiid":"B2094757D068A7FD4092","title":"永和大王 东方路店","lon":"121.52739","lat":"31.2232","category":"68","category_name":"快餐厅","address":"浦东新区东方路912号-1(近向城路)"},{"poiid":"B2094655D36DA7F44392","title":"崂山路潍坊路","lon":"121.52438","lat":"31.22366","category":"38","category_name":"公交车站","address":""},{"poiid":"B2094751D465AAFF4093","title":"席永记苏州汤包馆(潍坊店)","lon":"121.52428","lat":"31.2244","category":"68","category_name":"快餐厅","address":"浦东新区崂山路620号(近潍坊路)"},{"poiid":"B2094757D068A3F9459C","title":"85度C 潍坊店","lon":"121.527273054","lat":"31.226372793","category":"112","category_name":"糕饼店","address":"浦东新区潍坊路164号(近东方路)"},{"poiid":"B2094654DA69A5F54792","title":"潍坊社区卫生服务中心","lon":"121.524","lat":"31.22338","category":"162","category_name":"医院","address":"崂山路639"},{"poiid":"B2094655D26EA4FC4092","title":"克莉丝汀 崂山路店","lon":"121.524286054","lat":"31.224671793","category":"112","category_name":"糕饼店","address":"浦东新区崂山路634号(近潍坊路)"},{"poiid":"B2094757D169A1F4429E","title":"潍坊街道医院","lon":"121.52446","lat":"31.223654","category":"162","category_name":"医院","address":"上海崂山路639号"},{"poiid":"B2094757D069AAF44093","title":"东方路潍坊路","lon":"121.52722773","lat":"31.225521199","category":"500","category_name":"未知分类","address":"上海东方路潍坊路"},{"poiid":"B2094757D06AABFE4998","title":"阿三生煎馆(崂山路店)","lon":"121.5249245","lat":"31.2222405","category":"68","category_name":"快餐厅","address":"浦东新区崂山路662号(近浦电路)"},{"poiid":"B2094757D169A0F94398","title":"台湾精致面馆","lon":"121.52464773","lat":"31.224187171","category":"247","category_name":"餐饮美食","address":"上海浦东新区崂山路632号"},{"poiid":"B2094757D16FABF9489C","title":"蒂凡尼","lon":"121.527249738","lat":"31.2257132038","category":"500","category_name":"未知分类","address":"上海96广场"},{"poiid":"B2094757DA6FA3FF429A","title":"鲜芋仙(崂山店)","lon":"121.524784999999","lat":"31.2231519999999","category":"67","category_name":"甜品店","address":"浦东新区崂山路640号1楼(近潍坊路)"},{"poiid":"B2094654DB6AA6FF4599","title":"上海瑞吉红塔大酒店","lon":"121.52821","lat":"31.2238","category":"213","category_name":"五星级宾馆","address":"浦东新区东方路889号"},{"poiid":"B2094654DA6AA3FA489A","title":"苏浙汇(东方店)","lon":"121.52799","lat":"31.22449","category":"76","category_name":"上海菜","address":"浦东新区东方路877号(近潍坊路)"},{"poiid":"B209475CD564A7F84392","title":"上海滩浦东香格里拉店","lon":"121.50058","lat":"31.23634","category":"119","category_name":"商场","address":"浦东富成路33号香格里拉酒店内大堂层"},{"poiid":"B2094757D06FA6FE449E","title":"齐鲁万怡大酒店","lon":"121.52576845","lat":"31.225949269","category":"217","category_name":"旅馆招待所","address":"浦东新区东方路838号(近潍坊路)"},{"poiid":"B2094757D06FA2F54298","title":"麦当劳(东方路店)","lon":"121.52743","lat":"31.22576","category":"68","category_name":"快餐厅","address":"浦东新区潍坊路162号(近东方路)"},{"poiid":"B2094751D465A3FC489E","title":"铜锣湾三记烧腊餐厅","lon":"121.52517","lat":"31.22189","category":"72","category_name":"广东菜","address":"浦东新区崂山路664号(近浦电路)"},{"poiid":"B2094654DB65A5F4489D","title":"花蝶居酒屋 东方路店","lon":"121.52739048892","lat":"31.224027003382","category":"95","category_name":"日本料理","address":"浦东新区东方路900号(向城路)"},{"poiid":"B2094757D068A0F8419B","title":"望湘园(潍坊路店)","lon":"121.52305","lat":"31.22407","category":"77","category_name":"湖南菜","address":"浦东新区潍坊路118号(近崂山路)"},{"poiid":"B2094757D068A7F8409C","title":"友乐达台北精致面馆(崂山路店)","lon":"121.52473","lat":"31.22373","category":"68","category_name":"快餐厅","address":"浦东新区崂山路632号(浦电路与潍坊路之间)"},{"poiid":"B2094757D06FA2FB499A","title":"汉堡王(96广场店)","lon":"121.52475668","lat":"31.226448426","category":"68","category_name":"快餐厅","address":"浦东新区东方路796号96广场1楼148商铺(近张杨路)"},{"poiid":"B2094757D06FA5FF4192","title":"徽珍源(潍坊路店)","lon":"121.5269","lat":"31.22535","category":"260","category_name":"其他","address":"浦东新区潍坊路162号(近东方路)"},{"poiid":"B2094654DA69ABFC419C","title":"明城大酒店","lon":"121.52449","lat":"31.22583","category":"214","category_name":"四星级宾馆","address":"上海市浦东新区崂山东路600号(近潍坊路)"},{"poiid":"B2094757D068A5FF4499","title":"小城火锅(潍坊店)","lon":"121.52465","lat":"31.22362","category":"86","category_name":"火锅店","address":"浦东新区崂山路633号(近潍坊路)"},{"poiid":"B2094757D568A6FA4892","title":"三两春","lon":"121.52516222","lat":"31.22200901","category":"68","category_name":"快餐厅","address":"浦东新区崂山路664号(近潍坊路)"},{"poiid":"B2094757D06FA4FF429A","title":"鸿瑞兴(崂山路店)","lon":"121.52561","lat":"31.22058","category":"76","category_name":"上海菜","address":"浦东新区崂山路706号(近浦电路)"},{"poiid":"B2094757D068A0F8429C","title":"苏先生海鲜渔庄 浦东店","lon":"121.52776824947","lat":"31.22331518343","category":"260","category_name":"其他","address":"浦东新区东方路920号(近浦电路)"},{"poiid":"B2094753D36FA3FC439B","title":"世纪大道地铁站","lon":"121.52771","lat":"31.225006","category":"36","category_name":"地铁站","address":"上海市 世纪大道地铁站"},{"poiid":"B2094757D06AA3F44992","title":"崂山路","lon":"121.523775","lat":"31.226032","category":"500","category_name":"未知分类","address":"上海崂山路"},{"poiid":"B2094757D068A0F5439B","title":"肯德基 KFC (潍坊店)","lon":"121.52683421","lat":"31.225123503","category":"68","category_name":"快餐厅","address":"浦东新区崂山路585号(近潍坊路)"},{"poiid":"B2094757D66DA4FE449A","title":"八百伴","lon":"121.524485938","lat":"31.2244479769","category":"119","category_name":"商场","address":"上海八百伴七楼"},{"poiid":"B2094757D068A1FD489B","title":"小歇米线(崂山店)","lon":"121.52411","lat":"31.22376","category":"68","category_name":"快餐厅","address":"浦东新区崂山路639号(近潍坊路)"},{"poiid":"B2094757D068A1F9429B","title":"干锅居(东方路店)","lon":"121.527303266","lat":"31.2256183568","category":"83","category_name":"云贵菜","address":"浦东新区潍坊路162号3幢(近东方路)"},{"poiid":"B2094757D069A1F44799","title":"招商银行(东方支行)","lon":"121.527150244","lat":"31.2238831589","category":"150","category_name":"银行","address":"浦东新区东方路902-904号(近潍坊路)"},{"poiid":"B2094654DB65A7F4439E","title":"85度(崂山店)","lon":"121.5238","lat":"31.22489","category":"111","category_name":"休闲餐饮场所","address":"浦东新区崂山路525号(近长航医院)"},{"poiid":"B2094757D16CA3F54292","title":"堡龙阁","lon":"121.525879","lat":"31.226608","category":"72","category_name":"广东菜","address":"浦东新区东方路818号众城大厦3楼(近潍坊路)"},{"poiid":"B2094757D06AA6FD489D","title":"芒不颠港式甜品(崂山路店)","lon":"121.52405","lat":"31.22264","category":"67","category_name":"甜品店","address":"浦东新区崂山路645弄4号101室(近潍坊路)"},{"poiid":"B2094757D06FAAFB409C","title":"虹桥古北汤馆(九六广场店)","lon":"121.52533968","lat":"31.226928424","category":"500","category_name":"未知分类","address":"上海世纪大道东方路九六广场二层"},{"poiid":"B2094654DB69A0FA4192","title":"大渔(东方店)","lon":"121.52796","lat":"31.22467","category":"87","category_name":"特色／地方风味餐厅","address":"浦东新区东方路877号嘉兴大厦3楼(近向城路)"},{"poiid":"B2094757D164A6FA469A","title":"老刘野生大鱼坊","lon":"121.52512673","lat":"31.223482156","category":"82","category_name":"东北菜","address":"浦东新区崂山路640号3楼"},{"poiid":"B2094757D064A2FE4298","title":"嘉园韩国料理","lon":"121.52457","lat":"31.22383","category":"96","category_name":"韩国料理","address":"浦东新区崂山路628号(近潍坊路)"},{"poiid":"B2094753DA68A5FF439A","title":"金钱豹（浦东三鑫店）","lon":"121.52349","lat":"31.224824","category":"500","category_name":"未知分类","address":"上海市 浦东张杨路579号三鑫大厦"},{"poiid":"B2094654DA69ABFE469C","title":"上海市洋泾中学东校","lon":"121.52645","lat":"31.22395","category":"55","category_name":"中学","address":"东方路900号"},{"poiid":"B2094757D068A2FB499D","title":"中国建设银行(东方路支行)","lon":"121.52546","lat":"31.22655","category":"150","category_name":"银行","address":"上海浦东新区东方路818号(近潍坊路)"},{"poiid":"B2094757D16DA4FC419A","title":"潍坊新村派出所","lon":"121.524872538","lat":"31.2225231359","category":"609","category_name":"警察局","address":"上海潍访六村628号"},{"poiid":"B2094757D06AA7F5459E","title":"中国电信东方路营业厅","lon":"121.527345","lat":"31.223444","category":"151","category_name":"电讯营业厅","address":"上海东方路908号"},{"poiid":"B2094757D16DA4FA409B","title":"清真烧烤吧","lon":"121.52472","lat":"31.22392","category":"68","category_name":"快餐厅","address":"浦东新区崂山路622号真康生清真馆内(近潍坊路)"},{"poiid":"B2094750D76DA7FD419D","title":"宝寿司(崂山路店)","lon":"121.525","lat":"31.2232","category":"95","category_name":"日本料理","address":"浦东新区崂山路640号(近浦电路)"},{"poiid":"B2094654DA69A5F54698","title":"潍坊十村一小区","lon":"121.52593","lat":"31.22524","category":"47","category_name":"住宅区","address":"潍坊路140弄2-22号"},{"poiid":"B2094757D068A7FD4092","title":"永和大王 东方路店","lon":"121.52739","lat":"31.2232","category":"68","category_name":"快餐厅","address":"浦东新区东方路912号-1(近向城路)"},{"poiid":"B2094655D36DA7F44392","title":"崂山路潍坊路","lon":"121.52438","lat":"31.22366","category":"38","category_name":"公交车站","address":""},{"poiid":"B2094751D465AAFF4093","title":"席永记苏州汤包馆(潍坊店)","lon":"121.52428","lat":"31.2244","category":"68","category_name":"快餐厅","address":"浦东新区崂山路620号(近潍坊路)"},{"poiid":"B2094757D068A3F9459C","title":"85度C 潍坊店","lon":"121.527273054","lat":"31.226372793","category":"112","category_name":"糕饼店","address":"浦东新区潍坊路164号(近东方路)"},{"poiid":"B2094654DA69A5F54792","title":"潍坊社区卫生服务中心","lon":"121.524","lat":"31.22338","category":"162","category_name":"医院","address":"崂山路639"},{"poiid":"B2094655D26EA4FC4092","title":"克莉丝汀 崂山路店","lon":"121.524286054","lat":"31.224671793","category":"112","category_name":"糕饼店","address":"浦东新区崂山路634号(近潍坊路)"},{"poiid":"B2094757D169A1F4429E","title":"潍坊街道医院","lon":"121.52446","lat":"31.223654","category":"162","category_name":"医院","address":"上海崂山路639号"},{"poiid":"B2094757D069AAF44093","title":"东方路潍坊路","lon":"121.52722773","lat":"31.225521199","category":"500","category_name":"未知分类","address":"上海东方路潍坊路"},{"poiid":"B2094757D06AABFE4998","title":"阿三生煎馆(崂山路店)","lon":"121.5249245","lat":"31.2222405","category":"68","category_name":"快餐厅","address":"浦东新区崂山路662号(近浦电路)"},{"poiid":"B2094757D169A0F94398","title":"台湾精致面馆","lon":"121.52464773","lat":"31.224187171","category":"247","category_name":"餐饮美食","address":"上海浦东新区崂山路632号"},{"poiid":"B2094757D16FABF9489C","title":"蒂凡尼","lon":"121.527249738","lat":"31.2257132038","category":"500","category_name":"未知分类","address":"上海96广场"},{"poiid":"B2094757DA6FA3FF429A","title":"鲜芋仙(崂山店)","lon":"121.524784999999","lat":"31.2231519999999","category":"67","category_name":"甜品店","address":"浦东新区崂山路640号1楼(近潍坊路)"},{"poiid":"B2094654DB6AA6FF4599","title":"上海瑞吉红塔大酒店","lon":"121.52821","lat":"31.2238","category":"213","category_name":"五星级宾馆","address":"浦东新区东方路889号"},{"poiid":"B2094654DA6AA3FA489A","title":"苏浙汇(东方店)","lon":"121.52799","lat":"31.22449","category":"76","category_name":"上海菜","address":"浦东新区东方路877号(近潍坊路)"},{"poiid":"B209475CD564A7F84392","title":"上海滩浦东香格里拉店","lon":"121.50058","lat":"31.23634","category":"119","category_name":"商场","address":"浦东富成路33号香格里拉酒店内大堂层"},{"poiid":"B2094757D06FA6FE449E","title":"齐鲁万怡大酒店","lon":"121.52576845","lat":"31.225949269","category":"217","category_name":"旅馆招待所","address":"浦东新区东方路838号(近潍坊路)"},{"poiid":"B2094757D06FA2F54298","title":"麦当劳(东方路店)","lon":"121.52743","lat":"31.22576","category":"68","category_name":"快餐厅","address":"浦东新区潍坊路162号(近东方路)"},{"poiid":"B2094751D465A3FC489E","title":"铜锣湾三记烧腊餐厅","lon":"121.52517","lat":"31.22189","category":"72","category_name":"广东菜","address":"浦东新区崂山路664号(近浦电路)"},{"poiid":"B2094654DB65A5F4489D","title":"花蝶居酒屋 东方路店","lon":"121.52739048892","lat":"31.224027003382","category":"95","category_name":"日本料理","address":"浦东新区东方路900号(向城路)"},{"poiid":"B2094757D068A0F8419B","title":"望湘园(潍坊路店)","lon":"121.52305","lat":"31.22407","category":"77","category_name":"湖南菜","address":"浦东新区潍坊路118号(近崂山路)"},{"poiid":"B2094757D068A7F8409C","title":"友乐达台北精致面馆(崂山路店)","lon":"121.52473","lat":"31.22373","category":"68","category_name":"快餐厅","address":"浦东新区崂山路632号(浦电路与潍坊路之间)"},{"poiid":"B2094757D06FA2FB499A","title":"汉堡王(96广场店)","lon":"121.52475668","lat":"31.226448426","category":"68","category_name":"快餐厅","address":"浦东新区东方路796号96广场1楼148商铺(近张杨路)"},{"poiid":"B2094757D06FA5FF4192","title":"徽珍源(潍坊路店)","lon":"121.5269","lat":"31.22535","category":"260","category_name":"其他","address":"浦东新区潍坊路162号(近东方路)"},{"poiid":"B2094654DA69ABFC419C","title":"明城大酒店","lon":"121.52449","lat":"31.22583","category":"214","category_name":"四星级宾馆","address":"上海市浦东新区崂山东路600号(近潍坊路)"},{"poiid":"B2094757D068A5FF4499","title":"小城火锅(潍坊店)","lon":"121.52465","lat":"31.22362","category":"86","category_name":"火锅店","address":"浦东新区崂山路633号(近潍坊路)"},{"poiid":"B2094757D568A6FA4892","title":"三两春","lon":"121.52516222","lat":"31.22200901","category":"68","category_name":"快餐厅","address":"浦东新区崂山路664号(近潍坊路)"},{"poiid":"B2094757D06FA4FF429A","title":"鸿瑞兴(崂山路店)","lon":"121.52561","lat":"31.22058","category":"76","category_name":"上海菜","address":"浦东新区崂山路706号(近浦电路)"},{"poiid":"B2094757D068A0F8429C","title":"苏先生海鲜渔庄 浦东店","lon":"121.52776824947","lat":"31.22331518343","category":"260","category_name":"其他","address":"浦东新区东方路920号(近浦电路)"},{"poiid":"B2094753D36FA3FC439B","title":"世纪大道地铁站","lon":"121.52771","lat":"31.225006","category":"36","category_name":"地铁站","address":"上海市 世纪大道地铁站"},{"poiid":"B2094757D06AA3F44992","title":"崂山路","lon":"121.523775","lat":"31.226032","category":"500","category_name":"未知分类","address":"上海崂山路"},{"poiid":"B2094757D068A0F5439B","title":"肯德基 KFC (潍坊店)","lon":"121.52683421","lat":"31.225123503","category":"68","category_name":"快餐厅","address":"浦东新区崂山路585号(近潍坊路)"},{"poiid":"B2094757D66DA4FE449A","title":"八百伴","lon":"121.524485938","lat":"31.2244479769","category":"119","category_name":"商场","address":"上海八百伴七楼"},{"poiid":"B2094757D068A1FD489B","title":"小歇米线(崂山店)","lon":"121.52411","lat":"31.22376","category":"68","category_name":"快餐厅","address":"浦东新区崂山路639号(近潍坊路)"},{"poiid":"B2094757D068A1F9429B","title":"干锅居(东方路店)","lon":"121.527303266","lat":"31.2256183568","category":"83","category_name":"云贵菜","address":"浦东新区潍坊路162号3幢(近东方路)"},{"poiid":"B2094757D069A1F44799","title":"招商银行(东方支行)","lon":"121.527150244","lat":"31.2238831589","category":"150","category_name":"银行","address":"浦东新区东方路902-904号(近潍坊路)"},{"poiid":"B2094654DB65A7F4439E","title":"85度(崂山店)","lon":"121.5238","lat":"31.22489","category":"111","category_name":"休闲餐饮场所","address":"浦东新区崂山路525号(近长航医院)"},{"poiid":"B2094757D16CA3F54292","title":"堡龙阁","lon":"121.525879","lat":"31.226608","category":"72","category_name":"广东菜","address":"浦东新区东方路818号众城大厦3楼(近潍坊路)"},{"poiid":"B2094757D06AA6FD489D","title":"芒不颠港式甜品(崂山路店)","lon":"121.52405","lat":"31.22264","category":"67","category_name":"甜品店","address":"浦东新区崂山路645弄4号101室(近潍坊路)"},{"poiid":"B2094757D06FAAFB409C","title":"虹桥古北汤馆(九六广场店)","lon":"121.52533968","lat":"31.226928424","category":"500","category_name":"未知分类","address":"上海世纪大道东方路九六广场二层"},{"poiid":"B2094654DB69A0FA4192","title":"大渔(东方店)","lon":"121.52796","lat":"31.22467","category":"87","category_name":"特色／地方风味餐厅","address":"浦东新区东方路877号嘉兴大厦3楼(近向城路)"},{"poiid":"B2094757D164A6FA469A","title":"老刘野生大鱼坊","lon":"121.52512673","lat":"31.223482156","category":"82","category_name":"东北菜","address":"浦东新区崂山路640号3楼"},{"poiid":"B2094757D064A2FE4298","title":"嘉园韩国料理","lon":"121.52457","lat":"31.22383","category":"96","category_name":"韩国料理","address":"浦东新区崂山路628号(近潍坊路)"},{"poiid":"B2094753DA68A5FF439A","title":"金钱豹（浦东三鑫店）","lon":"121.52349","lat":"31.224824","category":"500","category_name":"未知分类","address":"上海市 浦东张杨路579号三鑫大厦"},{"poiid":"B2094654DA69ABFE469C","title":"上海市洋泾中学东校","lon":"121.52645","lat":"31.22395","category":"55","category_name":"中学","address":"东方路900号"},{"poiid":"B2094757D068A2FB499D","title":"中国建设银行(东方路支行)","lon":"121.52546","lat":"31.22655","category":"150","category_name":"银行","address":"上海浦东新区东方路818号(近潍坊路)"},{"poiid":"B2094757D16DA4FC419A","title":"潍坊新村派出所","lon":"121.524872538","lat":"31.2225231359","category":"609","category_name":"警察局","address":"上海潍访六村628号"},{"poiid":"B2094757D06AA7F5459E","title":"中国电信东方路营业厅","lon":"121.527345","lat":"31.223444","category":"151","category_name":"电讯营业厅","address":"上海东方路908号"},{"poiid":"B2094757D16DA4FA409B","title":"清真烧烤吧","lon":"121.52472","lat":"31.22392","category":"68","category_name":"快餐厅","address":"浦东新区崂山路622号真康生清真馆内(近潍坊路)"},{"poiid":"B2094750D76DA7FD419D","title":"宝寿司(崂山路店)","lon":"121.525","lat":"31.2232","category":"95","category_name":"日本料理","address":"浦东新区崂山路640号(近浦电路)"},{"poiid":"B2094654DA69A5F54698","title":"潍坊十村一小区","lon":"121.52593","lat":"31.22524","category":"47","category_name":"住宅区","address":"潍坊路140弄2-22号"},{"poiid":"B2094757D068A7FD4092","title":"永和大王 东方路店","lon":"121.52739","lat":"31.2232","category":"68","category_name":"快餐厅","address":"浦东新区东方路912号-1(近向城路)"},{"poiid":"B2094655D36DA7F44392","title":"崂山路潍坊路","lon":"121.52438","lat":"31.22366","category":"38","category_name":"公交车站","address":""},{"poiid":"B2094751D465AAFF4093","title":"席永记苏州汤包馆(潍坊店)","lon":"121.52428","lat":"31.2244","category":"68","category_name":"快餐厅","address":"浦东新区崂山路620号(近潍坊路)"},{"poiid":"B2094757D068A3F9459C","title":"85度C 潍坊店","lon":"121.527273054","lat":"31.226372793","category":"112","category_name":"糕饼店","address":"浦东新区潍坊路164号(近东方路)"},{"poiid":"B2094654DA69A5F54792","title":"潍坊社区卫生服务中心","lon":"121.524","lat":"31.22338","category":"162","category_name":"医院","address":"崂山路639"},{"poiid":"B2094655D26EA4FC4092","title":"克莉丝汀 崂山路店","lon":"121.524286054","lat":"31.224671793","category":"112","category_name":"糕饼店","address":"浦东新区崂山路634号(近潍坊路)"},{"poiid":"B2094757D169A1F4429E","title":"潍坊街道医院","lon":"121.52446","lat":"31.223654","category":"162","category_name":"医院","address":"上海崂山路639号"},{"poiid":"B2094757D069AAF44093","title":"东方路潍坊路","lon":"121.52722773","lat":"31.225521199","category":"500","category_name":"未知分类","address":"上海东方路潍坊路"},{"poiid":"B2094757D06AABFE4998","title":"阿三生煎馆(崂山路店)","lon":"121.5249245","lat":"31.2222405","category":"68","category_name":"快餐厅","address":"浦东新区崂山路662号(近浦电路)"},{"poiid":"B2094757D169A0F94398","title":"台湾精致面馆","lon":"121.52464773","lat":"31.224187171","category":"247","category_name":"餐饮美食","address":"上海浦东新区崂山路632号"},{"poiid":"B2094757D16FABF9489C","title":"蒂凡尼","lon":"121.527249738","lat":"31.2257132038","category":"500","category_name":"未知分类","address":"上海96广场"},{"poiid":"B2094757DA6FA3FF429A","title":"鲜芋仙(崂山店)","lon":"121.524784999999","lat":"31.2231519999999","category":"67","category_name":"甜品店","address":"浦东新区崂山路640号1楼(近潍坊路)"},{"poiid":"B2094654DB6AA6FF4599","title":"上海瑞吉红塔大酒店","lon":"121.52821","lat":"31.2238","category":"213","category_name":"五星级宾馆","address":"浦东新区东方路889号"},{"poiid":"B2094654DA6AA3FA489A","title":"苏浙汇(东方店)","lon":"121.52799","lat":"31.22449","category":"76","category_name":"上海菜","address":"浦东新区东方路877号(近潍坊路)"},{"poiid":"B209475CD564A7F84392","title":"上海滩浦东香格里拉店","lon":"121.50058","lat":"31.23634","category":"119","category_name":"商场","address":"浦东富成路33号香格里拉酒店内大堂层"},{"poiid":"B2094757D06FA6FE449E","title":"齐鲁万怡大酒店","lon":"121.52576845","lat":"31.225949269","category":"217","category_name":"旅馆招待所","address":"浦东新区东方路838号(近潍坊路)"},{"poiid":"B2094757D06FA2F54298","title":"麦当劳(东方路店)","lon":"121.52743","lat":"31.22576","category":"68","category_name":"快餐厅","address":"浦东新区潍坊路162号(近东方路)"},{"poiid":"B2094751D465A3FC489E","title":"铜锣湾三记烧腊餐厅","lon":"121.52517","lat":"31.22189","category":"72","category_name":"广东菜","address":"浦东新区崂山路664号(近浦电路)"},{"poiid":"B2094654DB65A5F4489D","title":"花蝶居酒屋 东方路店","lon":"121.52739048892","lat":"31.224027003382","category":"95","category_name":"日本料理","address":"浦东新区东方路900号(向城路)"},{"poiid":"B2094757D068A0F8419B","title":"望湘园(潍坊路店)","lon":"121.52305","lat":"31.22407","category":"77","category_name":"湖南菜","address":"浦东新区潍坊路118号(近崂山路)"},{"poiid":"B2094757D068A7F8409C","title":"友乐达台北精致面馆(崂山路店)","lon":"121.52473","lat":"31.22373","category":"68","category_name":"快餐厅","address":"浦东新区崂山路632号(浦电路与潍坊路之间)"},{"poiid":"B2094757D06FA2FB499A","title":"汉堡王(96广场店)","lon":"121.52475668","lat":"31.226448426","category":"68","category_name":"快餐厅","address":"浦东新区东方路796号96广场1楼148商铺(近张杨路)"},{"poiid":"B2094757D06FA5FF4192","title":"徽珍源(潍坊路店)","lon":"121.5269","lat":"31.22535","category":"260","category_name":"其他","address":"浦东新区潍坊路162号(近东方路)"},{"poiid":"B2094654DA69ABFC419C","title":"明城大酒店","lon":"121.52449","lat":"31.22583","category":"214","category_name":"四星级宾馆","address":"上海市浦东新区崂山东路600号(近潍坊路)"},{"poiid":"B2094757D068A5FF4499","title":"小城火锅(潍坊店)","lon":"121.52465","lat":"31.22362","category":"86","category_name":"火锅店","address":"浦东新区崂山路633号(近潍坊路)"},{"poiid":"B2094757D568A6FA4892","title":"三两春","lon":"121.52516222","lat":"31.22200901","category":"68","category_name":"快餐厅","address":"浦东新区崂山路664号(近潍坊路)"},{"poiid":"B2094757D06FA4FF429A","title":"鸿瑞兴(崂山路店)","lon":"121.52561","lat":"31.22058","category":"76","category_name":"上海菜","address":"浦东新区崂山路706号(近浦电路)"},{"poiid":"B2094757D068A0F8429C","title":"苏先生海鲜渔庄 浦东店","lon":"121.52776824947","lat":"31.22331518343","category":"260","category_name":"其他","address":"浦东新区东方路920号(近浦电路)"},{"poiid":"B2094753D36FA3FC439B","title":"世纪大道地铁站","lon":"121.52771","lat":"31.225006","category":"36","category_name":"地铁站","address":"上海市 世纪大道地铁站"},{"poiid":"B2094757D06AA3F44992","title":"崂山路","lon":"121.523775","lat":"31.226032","category":"500","category_name":"未知分类","address":"上海崂山路"},{"poiid":"B2094757D068A0F5439B","title":"肯德基 KFC (潍坊店)","lon":"121.52683421","lat":"31.225123503","category":"68","category_name":"快餐厅","address":"浦东新区崂山路585号(近潍坊路)"},{"poiid":"B2094757D66DA4FE449A","title":"八百伴","lon":"121.524485938","lat":"31.2244479769","category":"119","category_name":"商场","address":"上海八百伴七楼"},{"poiid":"B2094757D068A1FD489B","title":"小歇米线(崂山店)","lon":"121.52411","lat":"31.22376","category":"68","category_name":"快餐厅","address":"浦东新区崂山路639号(近潍坊路)"},{"poiid":"B2094757D068A1F9429B","title":"干锅居(东方路店)","lon":"121.527303266","lat":"31.2256183568","category":"83","category_name":"云贵菜","address":"浦东新区潍坊路162号3幢(近东方路)"},{"poiid":"B2094757D069A1F44799","title":"招商银行(东方支行)","lon":"121.527150244","lat":"31.2238831589","category":"150","category_name":"银行","address":"浦东新区东方路902-904号(近潍坊路)"},{"poiid":"B2094654DB65A7F4439E","title":"85度(崂山店)","lon":"121.5238","lat":"31.22489","category":"111","category_name":"休闲餐饮场所","address":"浦东新区崂山路525号(近长航医院)"},{"poiid":"B2094757D16CA3F54292","title":"堡龙阁","lon":"121.525879","lat":"31.226608","category":"72","category_name":"广东菜","address":"浦东新区东方路818号众城大厦3楼(近潍坊路)"},{"poiid":"B2094757D06AA6FD489D","title":"芒不颠港式甜品(崂山路店)","lon":"121.52405","lat":"31.22264","category":"67","category_name":"甜品店","address":"浦东新区崂山路645弄4号101室(近潍坊路)"},{"poiid":"B2094757D06FAAFB409C","title":"虹桥古北汤馆(九六广场店)","lon":"121.52533968","lat":"31.226928424","category":"500","category_name":"未知分类","address":"上海世纪大道东方路九六广场二层"},{"poiid":"B2094654DB69A0FA4192","title":"大渔(东方店)","lon":"121.52796","lat":"31.22467","category":"87","category_name":"特色／地方风味餐厅","address":"浦东新区东方路877号嘉兴大厦3楼(近向城路)"},{"poiid":"B2094757D164A6FA469A","title":"老刘野生大鱼坊","lon":"121.52512673","lat":"31.223482156","category":"82","category_name":"东北菜","address":"浦东新区崂山路640号3楼"},{"poiid":"B2094757D064A2FE4298","title":"嘉园韩国料理","lon":"121.52457","lat":"31.22383","category":"96","category_name":"韩国料理","address":"浦东新区崂山路628号(近潍坊路)"},{"poiid":"B2094753DA68A5FF439A","title":"金钱豹（浦东三鑫店）","lon":"121.52349","lat":"31.224824","category":"500","category_name":"未知分类","address":"上海市 浦东张杨路579号三鑫大厦"},{"poiid":"B2094654DA69ABFE469C","title":"上海市洋泾中学东校","lon":"121.52645","lat":"31.22395","category":"55","category_name":"中学","address":"东方路900号"},{"poiid":"B2094757D068A2FB499D","title":"中国建设银行(东方路支行)","lon":"121.52546","lat":"31.22655","category":"150","category_name":"银行","address":"上海浦东新区东方路818号(近潍坊路)"},{"poiid":"B2094757D16DA4FC419A","title":"潍坊新村派出所","lon":"121.524872538","lat":"31.2225231359","category":"609","category_name":"警察局","address":"上海潍访六村628号"},{"poiid":"B2094757D06AA7F5459E","title":"中国电信东方路营业厅","lon":"121.527345","lat":"31.223444","category":"151","category_name":"电讯营业厅","address":"上海东方路908号"},{"poiid":"B2094757D16DA4FA409B","title":"清真烧烤吧","lon":"121.52472","lat":"31.22392","category":"68","category_name":"快餐厅","address":"浦东新区崂山路622号真康生清真馆内(近潍坊路)"},{"poiid":"B2094750D76DA7FD419D","title":"宝寿司(崂山路店)","lon":"121.525","lat":"31.2232","category":"95","category_name":"日本料理","address":"浦东新区崂山路640号(近浦电路)"},{"poiid":"B2094654DA69A5F54698","title":"潍坊十村一小区","lon":"121.52593","lat":"31.22524","category":"47","category_name":"住宅区","address":"潍坊路140弄2-22号"},{"poiid":"B2094757D068A7FD4092","title":"永和大王 东方路店","lon":"121.52739","lat":"31.2232","category":"68","category_name":"快餐厅","address":"浦东新区东方路912号-1(近向城路)"},{"poiid":"B2094655D36DA7F44392","title":"崂山路潍坊路","lon":"121.52438","lat":"31.22366","category":"38","category_name":"公交车站","address":""},{"poiid":"B2094751D465AAFF4093","title":"席永记苏州汤包馆(潍坊店)","lon":"121.52428","lat":"31.2244","category":"68","category_name":"快餐厅","address":"浦东新区崂山路620号(近潍坊路)"},{"poiid":"B2094757D068A3F9459C","title":"85度C 潍坊店","lon":"121.527273054","lat":"31.226372793","category":"112","category_name":"糕饼店","address":"浦东新区潍坊路164号(近东方路)"},{"poiid":"B2094654DA69A5F54792","title":"潍坊社区卫生服务中心","lon":"121.524","lat":"31.22338","category":"162","category_name":"医院","address":"崂山路639"},{"poiid":"B2094655D26EA4FC4092","title":"克莉丝汀 崂山路店","lon":"121.524286054","lat":"31.224671793","category":"112","category_name":"糕饼店","address":"浦东新区崂山路634号(近潍坊路)"},{"poiid":"B2094757D169A1F4429E","title":"潍坊街道医院","lon":"121.52446","lat":"31.223654","category":"162","category_name":"医院","address":"上海崂山路639号"},{"poiid":"B2094757D069AAF44093","title":"东方路潍坊路","lon":"121.52722773","lat":"31.225521199","category":"500","category_name":"未知分类","address":"上海东方路潍坊路"},{"poiid":"B2094757D06AABFE4998","title":"阿三生煎馆(崂山路店)","lon":"121.5249245","lat":"31.2222405","category":"68","category_name":"快餐厅","address":"浦东新区崂山路662号(近浦电路)"},{"poiid":"B2094757D169A0F94398","title":"台湾精致面馆","lon":"121.52464773","lat":"31.224187171","category":"247","category_name":"餐饮美食","address":"上海浦东新区崂山路632号"},{"poiid":"B2094757D16FABF9489C","title":"蒂凡尼","lon":"121.527249738","lat":"31.2257132038","category":"500","category_name":"未知分类","address":"上海96广场"}]