[{"poiid":"B2094654DA6DA4FF439A","title":"上海绿地徐汇","lon":"121.4599","lat":"31.18599","category":"159","category_name":"汽车维修","address":"船厂路185号"},{"poiid":"B2094757D069A6FB459F","title":"龙腾大道","lon":"121.45933573","lat":"31.175346131","category":"500","category_name":"未知分类","address":"上海龙腾大道"},{"poiid":"B2094750DA6BA4FA429E","title":"西岸音乐节","lon":"121.456642","lat":"31.185581","category":"248","category_name":"生活娱乐","address":"徐汇滨江龙腾大道"},{"poiid":"B2094757D16CA6FA479B","title":"徐汇滨江龙腾大道","lon":"121.46242978","lat":"31.171125424","category":"500","category_name":"未知分类","address":"上海龙腾大道丰谷路"},{"poiid":"B2094757D16FAAF84392","title":"龙腾大道","lon":"121.46266273","lat":"31.182472283","category":"500","category_name":"未知分类","address":"上海市徐汇区龙恒路"},{"poiid":"B2094752D06CA0F44198","title":"上海华士达东方影城","lon":"121.4572","lat":"31.18539","category":"178","category_name":"电影院","address":"上海市徐汇区东安路599号绿地中心正大乐城1号楼301"},{"poiid":"B209475CD76CA3F8459F","title":"maan coffee漫咖啡","lon":"121.458557","lat":"31.186952","category":"500","category_name":"未知分类","address":"上海市 中山南二路699号正大乐城2楼(近东安路)"},{"poiid":"B2094753D664A3FA4792","title":"TOUCH正大乐城","lon":"121.457603","lat":"31.186313","category":"500","category_name":"未知分类","address":"上海市 东安路599号"},{"poiid":"B2094753D165A3F8459E","title":"查理布朗咖啡馆正大乐城店","lon":"121.458608","lat":"31.186094","category":"65","category_name":"咖啡厅","address":"上海市 东安路599号 正大乐城6-101-1号"},{"poiid":"B2094654DA6DA4F9419C","title":"尚海湾豪庭","lon":"121.45771","lat":"31.178894","category":"47","category_name":"住宅区","address":"徐汇区宛平南路1455弄"},{"poiid":"B2094757D06FA6FD4293","title":"龙腾大道","lon":"121.46263851","lat":"31.171261612","category":"260","category_name":"其他","address":"上海徐汇滨江亲水区"},{"poiid":"B2094753DB69A7FF439B","title":"翠華餐廳（正大樂城店）","lon":"121.463157","lat":"31.184999","category":"500","category_name":"未知分类","address":"上海市 上海徐匯區中山南二路"},{"poiid":"B2094757D06FA1FA4893","title":"盛大花园","lon":"121.45329","lat":"31.179134","category":"47","category_name":"住宅区","address":"上海市徐汇区龙华路2518弄"},{"poiid":"B2094751DA6BA2F4499C","title":"美丽岛意大利餐厅","lon":"121.459256540038","lat":"31.18285984269632","category":"247","category_name":"餐饮美食","address":"徐汇区龙腾大道3222号(东安路口)"},{"poiid":"B2094757D06FA6FC469A","title":"卜蜂莲花(船厂路店)","lon":"121.45965576","lat":"31.18546145","category":"118","category_name":"超级市场","address":"徐汇区船厂路178号(近中山南二路)"},{"poiid":"B2094753D164A5FC439D","title":"费尼汉堡","lon":"121.457205","lat":"31.186739","category":"247","category_name":"餐饮美食","address":"上海市 中山南二路699号正大乐城2-104室"},{"poiid":"B2094750DA6BA4F44698","title":"上海西岸音乐节","lon":"121.462753","lat":"31.182302","category":"500","category_name":"未知分类","address":null},{"poiid":"B2094757D06FA3FD4192","title":"船厂路地铁站","lon":"121.46025679","lat":"31.185244349","category":"36","category_name":"地铁站","address":"上海轨道交通 七号线 轨交船厂路站 7"},{"poiid":"B2094757D068A2FA4599","title":"上海市机动车物损交通事故保险理赔服务中心绿地分中心","lon":"121.460469","lat":"31.185364","category":"500","category_name":"未知分类","address":"上海市徐汇区船厂路185号"},{"poiid":"B2094753D664A3FD469E","title":"正大乐城","lon":"121.458213","lat":"31.186937","category":"170","category_name":"KTV","address":"上海市 东安路中山南二路"},{"poiid":"B2094757D069A7FF4598","title":"上海世博园冰雕艺术展","lon":"121.469558038","lat":"31.1745844152","category":"500","category_name":"未知分类","address":"浦东新区世博大道1200号梅赛德斯奔驰文化中心"},{"poiid":"B2094757D06FA2FA4293","title":"后滩地铁站","lon":"121.46936755","lat":"31.174126931","category":"36","category_name":"地铁站","address":"上海轨道交通 七号线 轨交后滩站 7"},{"poiid":"B2094752D06EAAF94293","title":"正大乐城","lon":"121.456084","lat":"31.185717","category":"170","category_name":"KTV","address":"东安路500号"},{"poiid":"B2094757D66CA1FF4692","title":"南滨江","lon":"121.46897173","lat":"31.184909334","category":"500","category_name":"未知分类","address":"上海市徐汇区瑞宁路"},{"poiid":"B2094752DA69A1F5449B","title":"博大汽车公园","lon":"121.472341","lat":"31.179505","category":"500","category_name":"未知分类","address":"上海市 国展路189号"},{"poiid":"B2094757D168A4FE489D","title":"全家便利 FamilyMart(龙腾大道店)","lon":"121.463484892","lat":"31.1813841005","category":"249","category_name":"购物服务","address":"上海徐汇区龙腾大道／东安路口"},{"poiid":"B2094750D26FA0F44898","title":"上海绿地中心","lon":"121.460937","lat":"31.186069","category":"252","category_name":"楼宇机构","address":"徐汇区 船厂路东安路"},{"poiid":"B209475CD364A0FE4199","title":"Fani Burger","lon":"121.4574","lat":"31.1862","category":"94","category_name":"西餐厅","address":"东安路500号正大乐城(近中山南二路)"},{"poiid":"B2094753D768AAFC4499","title":"BBQ 比比客","lon":"121.45932","lat":"31.184492","category":"247","category_name":"餐饮美食","address":"上海市 正大乐城"},{"poiid":"B2094757D06BA6FF469E","title":"船厂路中山南二路","lon":"121.459764","lat":"31.18839","category":"500","category_name":"未知分类","address":"上海船厂路中山南二路"},{"poiid":"B2094753D56BABFC439D","title":"大众书局(正大乐城店)","lon":"121.457672","lat":"31.185836","category":"249","category_name":"购物服务","address":"上海市 徐汇区中山南二路699号正大乐城2层(近东安路)"},{"poiid":"B2094750DA69A5FC4393","title":"上海市第九人民医院","lon":"121.46212","lat":"31.177307","category":"162","category_name":"医院","address":"制造局路639号"},{"poiid":"B2094753D764A1F84899","title":"正大乐城华士达影城","lon":"121.457672","lat":"31.186075","category":"500","category_name":"未知分类","address":"上海市 徐汇区东安路598号绿地中心正大乐城3楼"},{"poiid":"B2094757D069A0F84793","title":"斯柯达4s店","lon":"121.460461","lat":"31.188615","category":"500","category_name":"未知分类","address":"上海中山南二路555号"},{"poiid":"B2094750DA65A3FF4898","title":"徐汇滨江","lon":"121.467994","lat":"31.181165","category":"47","category_name":"住宅区","address":null},{"poiid":"B2094654DA6DABF54493","title":"俞一小区","lon":"121.458","lat":"31.1762","category":"47","category_name":"住宅区","address":"龙华西路31弄"},{"poiid":"B2094655D26AA1FF4999","title":"通用雪佛兰绿地4S店","lon":"121.46107","lat":"31.18481","category":"247","category_name":"餐饮美食","address":"徐汇区船厂路187号(近中山南二路)"},{"poiid":"B2094655D26AA0F44799","title":"新偶像艺术学校","lon":"121.46105","lat":"31.18889","category":"247","category_name":"餐饮美食","address":"徐汇区中山南二路555号冠霖大楼4127室(近大木桥路)"},{"poiid":"B2094753D769A1F54499","title":"茶马颐苑","lon":"121.45903","lat":"31.186122","category":"47","category_name":"住宅区","address":"上海市 上海市徐汇区东安路598号绿地中心正大乐城2楼"},{"poiid":"B2094654DA6DAAFC409C","title":"上飞新村","lon":"121.464091","lat":"31.179351","category":"47","category_name":"住宅区","address":"徐汇区云锦路185弄1-13号"},{"poiid":"B2094655D36DA7F8469C","title":"中山南二路东安路","lon":"121.45702","lat":"31.18704","category":"38","category_name":"公交车站","address":""},{"poiid":"B209475DD468A4F5499B","title":"龙美术馆西岸馆","lon":"121.465316","lat":"31.185104","category":"248","category_name":"生活娱乐","address":"上海市 徐汇区龙腾大道3398号"},{"poiid":"B2094750DB68AAFB469E","title":"新天地时尚","lon":"121.461364","lat":"31.177936","category":"500","category_name":"未知分类","address":null},{"poiid":"B2094750DA6AA7FA4992","title":"复旦大学附属眼耳鼻喉科医院","lon":"121.458534","lat":"31.182331","category":"162","category_name":"医院","address":"汾阳路83号"},{"poiid":"B2094753DB65A6FE499C","title":"Dazzling Cafe Shanghai No.2","lon":"121.457717","lat":"31.18633","category":"500","category_name":"未知分类","address":"上海市 上海市徐汇区龙华中路602号 7-105铺位"},{"poiid":"B2094654DB6BA4FE429F","title":"龙华西路81弄小区","lon":"121.458","lat":"31.178","category":"47","category_name":"住宅区","address":"龙华西路81弄41-66号,70-92号"},{"poiid":"B209475CD565A5FA4592","title":"Ashley 正大乐城店","lon":"121.462982","lat":"31.184814","category":"247","category_name":"餐饮美食","address":"上海市中山南二路699号"},{"poiid":"B2094753DB64A0F94598","title":"一麻一辣","lon":"121.457527","lat":"31.187007","category":"500","category_name":"未知分类","address":"上海市 上海市中山南二路699号2楼"},{"poiid":"B2094757D06FA4FA499B","title":"金龙花苑","lon":"121.459503","lat":"31.180959","category":"47","category_name":"住宅区","address":"上海市徐汇区丰谷路225弄1号"},{"poiid":"B2094654DA6DAAFC419A","title":"华龙新苑小区","lon":"121.45664","lat":"31.17359","category":"47","category_name":"住宅区","address":"上海徐汇区云锦路50弄"},{"poiid":"B2094654DA6DA4FF439A","title":"上海绿地徐汇","lon":"121.4599","lat":"31.18599","category":"159","category_name":"汽车维修","address":"船厂路185号"},{"poiid":"B2094757D069A6FB459F","title":"龙腾大道","lon":"121.45933573","lat":"31.175346131","category":"500","category_name":"未知分类","address":"上海龙腾大道"},{"poiid":"B2094750DA6BA4FA429E","title":"西岸音乐节","lon":"121.456642","lat":"31.185581","category":"248","category_name":"生活娱乐","address":"徐汇滨江龙腾大道"},{"poiid":"B2094757D16CA6FA479B","title":"徐汇滨江龙腾大道","lon":"121.46242978","lat":"31.171125424","category":"500","category_name":"未知分类","address":"上海龙腾大道丰谷路"},{"poiid":"B2094757D16FAAF84392","title":"龙腾大道","lon":"121.46266273","lat":"31.182472283","category":"500","category_name":"未知分类","address":"上海市徐汇区龙恒路"},{"poiid":"B2094752D06CA0F44198","title":"上海华士达东方影城","lon":"121.4572","lat":"31.18539","category":"178","category_name":"电影院","address":"上海市徐汇区东安路599号绿地中心正大乐城1号楼301"},{"poiid":"B209475CD76CA3F8459F","title":"maan coffee漫咖啡","lon":"121.458557","lat":"31.186952","category":"500","category_name":"未知分类","address":"上海市 中山南二路699号正大乐城2楼(近东安路)"},{"poiid":"B2094753D664A3FA4792","title":"TOUCH正大乐城","lon":"121.457603","lat":"31.186313","category":"500","category_name":"未知分类","address":"上海市 东安路599号"},{"poiid":"B2094753D165A3F8459E","title":"查理布朗咖啡馆正大乐城店","lon":"121.458608","lat":"31.186094","category":"65","category_name":"咖啡厅","address":"上海市 东安路599号 正大乐城6-101-1号"},{"poiid":"B2094654DA6DA4F9419C","title":"尚海湾豪庭","lon":"121.45771","lat":"31.178894","category":"47","category_name":"住宅区","address":"徐汇区宛平南路1455弄"},{"poiid":"B2094757D06FA6FD4293","title":"龙腾大道","lon":"121.46263851","lat":"31.171261612","category":"260","category_name":"其他","address":"上海徐汇滨江亲水区"},{"poiid":"B2094753DB69A7FF439B","title":"翠華餐廳（正大樂城店）","lon":"121.463157","lat":"31.184999","category":"500","category_name":"未知分类","address":"上海市 上海徐匯區中山南二路"},{"poiid":"B2094757D06FA1FA4893","title":"盛大花园","lon":"121.45329","lat":"31.179134","category":"47","category_name":"住宅区","address":"上海市徐汇区龙华路2518弄"},{"poiid":"B2094751DA6BA2F4499C","title":"美丽岛意大利餐厅","lon":"121.459256540038","lat":"31.18285984269632","category":"247","category_name":"餐饮美食","address":"徐汇区龙腾大道3222号(东安路口)"},{"poiid":"B2094757D06FA6FC469A","title":"卜蜂莲花(船厂路店)","lon":"121.45965576","lat":"31.18546145","category":"118","category_name":"超级市场","address":"徐汇区船厂路178号(近中山南二路)"},{"poiid":"B2094753D164A5FC439D","title":"费尼汉堡","lon":"121.457205","lat":"31.186739","category":"247","category_name":"餐饮美食","address":"上海市 中山南二路699号正大乐城2-104室"},{"poiid":"B2094750DA6BA4F44698","title":"上海西岸音乐节","lon":"121.462753","lat":"31.182302","category":"500","category_name":"未知分类","address":null},{"poiid":"B2094757D06FA3FD4192","title":"船厂路地铁站","lon":"121.46025679","lat":"31.185244349","category":"36","category_name":"地铁站","address":"上海轨道交通 七号线 轨交船厂路站 7"},{"poiid":"B2094757D068A2FA4599","title":"上海市机动车物损交通事故保险理赔服务中心绿地分中心","lon":"121.460469","lat":"31.185364","category":"500","category_name":"未知分类","address":"上海市徐汇区船厂路185号"},{"poiid":"B2094753D664A3FD469E","title":"正大乐城","lon":"121.458213","lat":"31.186937","category":"170","category_name":"KTV","address":"上海市 东安路中山南二路"},{"poiid":"B2094757D069A7FF4598","title":"上海世博园冰雕艺术展","lon":"121.469558038","lat":"31.1745844152","category":"500","category_name":"未知分类","address":"浦东新区世博大道1200号梅赛德斯奔驰文化中心"},{"poiid":"B2094757D06FA2FA4293","title":"后滩地铁站","lon":"121.46936755","lat":"31.174126931","category":"36","category_name":"地铁站","address":"上海轨道交通 七号线 轨交后滩站 7"},{"poiid":"B2094752D06EAAF94293","title":"正大乐城","lon":"121.456084","lat":"31.185717","category":"170","category_name":"KTV","address":"东安路500号"},{"poiid":"B2094757D66CA1FF4692","title":"南滨江","lon":"121.46897173","lat":"31.184909334","category":"500","category_name":"未知分类","address":"上海市徐汇区瑞宁路"},{"poiid":"B2094752DA69A1F5449B","title":"博大汽车公园","lon":"121.472341","lat":"31.179505","category":"500","category_name":"未知分类","address":"上海市 国展路189号"},{"poiid":"B2094757D168A4FE489D","title":"全家便利 FamilyMart(龙腾大道店)","lon":"121.463484892","lat":"31.1813841005","category":"249","category_name":"购物服务","address":"上海徐汇区龙腾大道／东安路口"},{"poiid":"B2094750D26FA0F44898","title":"上海绿地中心","lon":"121.460937","lat":"31.186069","category":"252","category_name":"楼宇机构","address":"徐汇区 船厂路东安路"},{"poiid":"B209475CD364A0FE4199","title":"Fani Burger","lon":"121.4574","lat":"31.1862","category":"94","category_name":"西餐厅","address":"东安路500号正大乐城(近中山南二路)"},{"poiid":"B2094753D768AAFC4499","title":"BBQ 比比客","lon":"121.45932","lat":"31.184492","category":"247","category_name":"餐饮美食","address":"上海市 正大乐城"},{"poiid":"B2094757D06BA6FF469E","title":"船厂路中山南二路","lon":"121.459764","lat":"31.18839","category":"500","category_name":"未知分类","address":"上海船厂路中山南二路"},{"poiid":"B2094753D56BABFC439D","title":"大众书局(正大乐城店)","lon":"121.457672","lat":"31.185836","category":"249","category_name":"购物服务","address":"上海市 徐汇区中山南二路699号正大乐城2层(近东安路)"},{"poiid":"B2094750DA69A5FC4393","title":"上海市第九人民医院","lon":"121.46212","lat":"31.177307","category":"162","category_name":"医院","address":"制造局路639号"},{"poiid":"B2094753D764A1F84899","title":"正大乐城华士达影城","lon":"121.457672","lat":"31.186075","category":"500","category_name":"未知分类","address":"上海市 徐汇区东安路598号绿地中心正大乐城3楼"},{"poiid":"B2094757D069A0F84793","title":"斯柯达4s店","lon":"121.460461","lat":"31.188615","category":"500","category_name":"未知分类","address":"上海中山南二路555号"},{"poiid":"B2094750DA65A3FF4898","title":"徐汇滨江","lon":"121.467994","lat":"31.181165","category":"47","category_name":"住宅区","address":null},{"poiid":"B2094654DA6DABF54493","title":"俞一小区","lon":"121.458","lat":"31.1762","category":"47","category_name":"住宅区","address":"龙华西路31弄"},{"poiid":"B2094655D26AA1FF4999","title":"通用雪佛兰绿地4S店","lon":"121.46107","lat":"31.18481","category":"247","category_name":"餐饮美食","address":"徐汇区船厂路187号(近中山南二路)"},{"poiid":"B2094655D26AA0F44799","title":"新偶像艺术学校","lon":"121.46105","lat":"31.18889","category":"247","category_name":"餐饮美食","address":"徐汇区中山南二路555号冠霖大楼4127室(近大木桥路)"},{"poiid":"B2094753D769A1F54499","title":"茶马颐苑","lon":"121.45903","lat":"31.186122","category":"47","category_name":"住宅区","address":"上海市 上海市徐汇区东安路598号绿地中心正大乐城2楼"},{"poiid":"B2094654DA6DAAFC409C","title":"上飞新村","lon":"121.464091","lat":"31.179351","category":"47","category_name":"住宅区","address":"徐汇区云锦路185弄1-13号"},{"poiid":"B2094655D36DA7F8469C","title":"中山南二路东安路","lon":"121.45702","lat":"31.18704","category":"38","category_name":"公交车站","address":""},{"poiid":"B209475DD468A4F5499B","title":"龙美术馆西岸馆","lon":"121.465316","lat":"31.185104","category":"248","category_name":"生活娱乐","address":"上海市 徐汇区龙腾大道3398号"},{"poiid":"B2094750DB68AAFB469E","title":"新天地时尚","lon":"121.461364","lat":"31.177936","category":"500","category_name":"未知分类","address":null},{"poiid":"B2094750DA6AA7FA4992","title":"复旦大学附属眼耳鼻喉科医院","lon":"121.458534","lat":"31.182331","category":"162","category_name":"医院","address":"汾阳路83号"},{"poiid":"B2094753DB65A6FE499C","title":"Dazzling Cafe Shanghai No.2","lon":"121.457717","lat":"31.18633","category":"500","category_name":"未知分类","address":"上海市 上海市徐汇区龙华中路602号 7-105铺位"},{"poiid":"B2094654DB6BA4FE429F","title":"龙华西路81弄小区","lon":"121.458","lat":"31.178","category":"47","category_name":"住宅区","address":"龙华西路81弄41-66号,70-92号"},{"poiid":"B209475CD565A5FA4592","title":"Ashley 正大乐城店","lon":"121.462982","lat":"31.184814","category":"247","category_name":"餐饮美食","address":"上海市中山南二路699号"},{"poiid":"B2094753DB64A0F94598","title":"一麻一辣","lon":"121.457527","lat":"31.187007","category":"500","category_name":"未知分类","address":"上海市 上海市中山南二路699号2楼"},{"poiid":"B2094757D06FA4FA499B","title":"金龙花苑","lon":"121.459503","lat":"31.180959","category":"47","category_name":"住宅区","address":"上海市徐汇区丰谷路225弄1号"},{"poiid":"B2094654DA6DAAFC419A","title":"华龙新苑小区","lon":"121.45664","lat":"31.17359","category":"47","category_name":"住宅区","address":"上海徐汇区云锦路50弄"},{"poiid":"B2094654DA6DA4FF439A","title":"上海绿地徐汇","lon":"121.4599","lat":"31.18599","category":"159","category_name":"汽车维修","address":"船厂路185号"},{"poiid":"B2094757D069A6FB459F","title":"龙腾大道","lon":"121.45933573","lat":"31.175346131","category":"500","category_name":"未知分类","address":"上海龙腾大道"},{"poiid":"B2094750DA6BA4FA429E","title":"西岸音乐节","lon":"121.456642","lat":"31.185581","category":"248","category_name":"生活娱乐","address":"徐汇滨江龙腾大道"},{"poiid":"B2094757D16CA6FA479B","title":"徐汇滨江龙腾大道","lon":"121.46242978","lat":"31.171125424","category":"500","category_name":"未知分类","address":"上海龙腾大道丰谷路"},{"poiid":"B2094757D16FAAF84392","title":"龙腾大道","lon":"121.46266273","lat":"31.182472283","category":"500","category_name":"未知分类","address":"上海市徐汇区龙恒路"},{"poiid":"B2094752D06CA0F44198","title":"上海华士达东方影城","lon":"121.4572","lat":"31.18539","category":"178","category_name":"电影院","address":"上海市徐汇区东安路599号绿地中心正大乐城1号楼301"},{"poiid":"B209475CD76CA3F8459F","title":"maan coffee漫咖啡","lon":"121.458557","lat":"31.186952","category":"500","category_name":"未知分类","address":"上海市 中山南二路699号正大乐城2楼(近东安路)"},{"poiid":"B2094753D664A3FA4792","title":"TOUCH正大乐城","lon":"121.457603","lat":"31.186313","category":"500","category_name":"未知分类","address":"上海市 东安路599号"},{"poiid":"B2094753D165A3F8459E","title":"查理布朗咖啡馆正大乐城店","lon":"121.458608","lat":"31.186094","category":"65","category_name":"咖啡厅","address":"上海市 东安路599号 正大乐城6-101-1号"},{"poiid":"B2094654DA6DA4F9419C","title":"尚海湾豪庭","lon":"121.45771","lat":"31.178894","category":"47","category_name":"住宅区","address":"徐汇区宛平南路1455弄"},{"poiid":"B2094757D06FA6FD4293","title":"龙腾大道","lon":"121.46263851","lat":"31.171261612","category":"260","category_name":"其他","address":"上海徐汇滨江亲水区"},{"poiid":"B2094753DB69A7FF439B","title":"翠華餐廳（正大樂城店）","lon":"121.463157","lat":"31.184999","category":"500","category_name":"未知分类","address":"上海市 上海徐匯區中山南二路"},{"poiid":"B2094757D06FA1FA4893","title":"盛大花园","lon":"121.45329","lat":"31.179134","category":"47","category_name":"住宅区","address":"上海市徐汇区龙华路2518弄"},{"poiid":"B2094751DA6BA2F4499C","title":"美丽岛意大利餐厅","lon":"121.459256540038","lat":"31.18285984269632","category":"247","category_name":"餐饮美食","address":"徐汇区龙腾大道3222号(东安路口)"},{"poiid":"B2094757D06FA6FC469A","title":"卜蜂莲花(船厂路店)","lon":"121.45965576","lat":"31.18546145","category":"118","category_name":"超级市场","address":"徐汇区船厂路178号(近中山南二路)"},{"poiid":"B2094753D164A5FC439D","title":"费尼汉堡","lon":"121.457205","lat":"31.186739","category":"247","category_name":"餐饮美食","address":"上海市 中山南二路699号正大乐城2-104室"},{"poiid":"B2094750DA6BA4F44698","title":"上海西岸音乐节","lon":"121.462753","lat":"31.182302","category":"500","category_name":"未知分类","address":null},{"poiid":"B2094757D06FA3FD4192","title":"船厂路地铁站","lon":"121.46025679","lat":"31.185244349","category":"36","category_name":"地铁站","address":"上海轨道交通 七号线 轨交船厂路站 7"},{"poiid":"B2094757D068A2FA4599","title":"上海市机动车物损交通事故保险理赔服务中心绿地分中心","lon":"121.460469","lat":"31.185364","category":"500","category_name":"未知分类","address":"上海市徐汇区船厂路185号"},{"poiid":"B2094753D664A3FD469E","title":"正大乐城","lon":"121.458213","lat":"31.186937","category":"170","category_name":"KTV","address":"上海市 东安路中山南二路"},{"poiid":"B2094757D069A7FF4598","title":"上海世博园冰雕艺术展","lon":"121.469558038","lat":"31.1745844152","category":"500","category_name":"未知分类","address":"浦东新区世博大道1200号梅赛德斯奔驰文化中心"},{"poiid":"B2094757D06FA2FA4293","title":"后滩地铁站","lon":"121.46936755","lat":"31.174126931","category":"36","category_name":"地铁站","address":"上海轨道交通 七号线 轨交后滩站 7"},{"poiid":"B2094752D06EAAF94293","title":"正大乐城","lon":"121.456084","lat":"31.185717","category":"170","category_name":"KTV","address":"东安路500号"},{"poiid":"B2094757D66CA1FF4692","title":"南滨江","lon":"121.46897173","lat":"31.184909334","category":"500","category_name":"未知分类","address":"上海市徐汇区瑞宁路"},{"poiid":"B2094752DA69A1F5449B","title":"博大汽车公园","lon":"121.472341","lat":"31.179505","category":"500","category_name":"未知分类","address":"上海市 国展路189号"},{"poiid":"B2094757D168A4FE489D","title":"全家便利 FamilyMart(龙腾大道店)","lon":"121.463484892","lat":"31.1813841005","category":"249","category_name":"购物服务","address":"上海徐汇区龙腾大道／东安路口"},{"poiid":"B2094750D26FA0F44898","title":"上海绿地中心","lon":"121.460937","lat":"31.186069","category":"252","category_name":"楼宇机构","address":"徐汇区 船厂路东安路"},{"poiid":"B209475CD364A0FE4199","title":"Fani Burger","lon":"121.4574","lat":"31.1862","category":"94","category_name":"西餐厅","address":"东安路500号正大乐城(近中山南二路)"},{"poiid":"B2094753D768AAFC4499","title":"BBQ 比比客","lon":"121.45932","lat":"31.184492","category":"247","category_name":"餐饮美食","address":"上海市 正大乐城"},{"poiid":"B2094757D06BA6FF469E","title":"船厂路中山南二路","lon":"121.459764","lat":"31.18839","category":"500","category_name":"未知分类","address":"上海船厂路中山南二路"},{"poiid":"B2094753D56BABFC439D","title":"大众书局(正大乐城店)","lon":"121.457672","lat":"31.185836","category":"249","category_name":"购物服务","address":"上海市 徐汇区中山南二路699号正大乐城2层(近东安路)"},{"poiid":"B2094750DA69A5FC4393","title":"上海市第九人民医院","lon":"121.46212","lat":"31.177307","category":"162","category_name":"医院","address":"制造局路639号"},{"poiid":"B2094753D764A1F84899","title":"正大乐城华士达影城","lon":"121.457672","lat":"31.186075","category":"500","category_name":"未知分类","address":"上海市 徐汇区东安路598号绿地中心正大乐城3楼"},{"poiid":"B2094757D069A0F84793","title":"斯柯达4s店","lon":"121.460461","lat":"31.188615","category":"500","category_name":"未知分类","address":"上海中山南二路555号"},{"poiid":"B2094750DA65A3FF4898","title":"徐汇滨江","lon":"121.467994","lat":"31.181165","category":"47","category_name":"住宅区","address":null},{"poiid":"B2094654DA6DABF54493","title":"俞一小区","lon":"121.458","lat":"31.1762","category":"47","category_name":"住宅区","address":"龙华西路31弄"},{"poiid":"B2094655D26AA1FF4999","title":"通用雪佛兰绿地4S店","lon":"121.46107","lat":"31.18481","category":"247","category_name":"餐饮美食","address":"徐汇区船厂路187号(近中山南二路)"},{"poiid":"B2094655D26AA0F44799","title":"新偶像艺术学校","lon":"121.46105","lat":"31.18889","category":"247","category_name":"餐饮美食","address":"徐汇区中山南二路555号冠霖大楼4127室(近大木桥路)"},{"poiid":"B2094753D769A1F54499","title":"茶马颐苑","lon":"121.45903","lat":"31.186122","category":"47","category_name":"住宅区","address":"上海市 上海市徐汇区东安路598号绿地中心正大乐城2楼"},{"poiid":"B2094654DA6DAAFC409C","title":"上飞新村","lon":"121.464091","lat":"31.179351","category":"47","category_name":"住宅区","address":"徐汇区云锦路185弄1-13号"},{"poiid":"B2094655D36DA7F8469C","title":"中山南二路东安路","lon":"121.45702","lat":"31.18704","category":"38","category_name":"公交车站","address":""},{"poiid":"B209475DD468A4F5499B","title":"龙美术馆西岸馆","lon":"121.465316","lat":"31.185104","category":"248","category_name":"生活娱乐","address":"上海市 徐汇区龙腾大道3398号"},{"poiid":"B2094750DB68AAFB469E","title":"新天地时尚","lon":"121.461364","lat":"31.177936","category":"500","category_name":"未知分类","address":null},{"poiid":"B2094750DA6AA7FA4992","title":"复旦大学附属眼耳鼻喉科医院","lon":"121.458534","lat":"31.182331","category":"162","category_name":"医院","address":"汾阳路83号"},{"poiid":"B2094753DB65A6FE499C","title":"Dazzling Cafe Shanghai No.2","lon":"121.457717","lat":"31.18633","category":"500","category_name":"未知分类","address":"上海市 上海市徐汇区龙华中路602号 7-105铺位"},{"poiid":"B2094654DB6BA4FE429F","title":"龙华西路81弄小区","lon":"121.458","lat":"31.178","category":"47","category_name":"住宅区","address":"龙华西路81弄41-66号,70-92号"},{"poiid":"B209475CD565A5FA4592","title":"Ashley 正大乐城店","lon":"121.462982","lat":"31.184814","category":"247","category_name":"餐饮美食","address":"上海市中山南二路699号"},{"poiid":"B2094753DB64A0F94598","title":"一麻一辣","lon":"121.457527","lat":"31.187007","category":"500","category_name":"未知分类","address":"上海市 上海市中山南二路699号2楼"},{"poiid":"B2094757D06FA4FA499B","title":"金龙花苑","lon":"121.459503","lat":"31.180959","category":"47","category_name":"住宅区","address":"上海市徐汇区丰谷路225弄1号"},{"poiid":"B2094654DA6DAAFC419A","title":"华龙新苑小区","lon":"121.45664","lat":"31.17359","category":"47","category_name":"住宅区","address":"上海徐汇区云锦路50弄"},{"poiid":"B2094654DA6DA4FF439A","title":"上海绿地徐汇","lon":"121.4599","lat":"31.18599","category":"159","category_name":"汽车维修","address":"船厂路185号"},{"poiid":"B2094757D069A6FB459F","title":"龙腾大道","lon":"121.45933573","lat":"31.175346131","category":"500","category_name":"未知分类","address":"上海龙腾大道"},{"poiid":"B2094750DA6BA4FA429E","title":"西岸音乐节","lon":"121.456642","lat":"31.185581","category":"248","category_name":"生活娱乐","address":"徐汇滨江龙腾大道"},{"poiid":"B2094757D16CA6FA479B","title":"徐汇滨江龙腾大道","lon":"121.46242978","lat":"31.171125424","category":"500","category_name":"未知分类","address":"上海龙腾大道丰谷路"},{"poiid":"B2094757D16FAAF84392","title":"龙腾大道","lon":"121.46266273","lat":"31.182472283","category":"500","category_name":"未知分类","address":"上海市徐汇区龙恒路"},{"poiid":"B2094752D06CA0F44198","title":"上海华士达东方影城","lon":"121.4572","lat":"31.18539","category":"178","category_name":"电影院","address":"上海市徐汇区东安路599号绿地中心正大乐城1号楼301"},{"poiid":"B209475CD76CA3F8459F","title":"maan coffee漫咖啡","lon":"121.458557","lat":"31.186952","category":"500","category_name":"未知分类","address":"上海市 中山南二路699号正大乐城2楼(近东安路)"},{"poiid":"B2094753D664A3FA4792","title":"TOUCH正大乐城","lon":"121.457603","lat":"31.186313","category":"500","category_name":"未知分类","address":"上海市 东安路599号"},{"poiid":"B2094753D165A3F8459E","title":"查理布朗咖啡馆正大乐城店","lon":"121.458608","lat":"31.186094","category":"65","category_name":"咖啡厅","address":"上海市 东安路599号 正大乐城6-101-1号"},{"poiid":"B2094654DA6DA4F9419C","title":"尚海湾豪庭","lon":"121.45771","lat":"31.178894","category":"47","category_name":"住宅区","address":"徐汇区宛平南路1455弄"},{"poiid":"B2094757D06FA6FD4293","title":"龙腾大道","lon":"121.46263851","lat":"31.171261612","category":"260","category_name":"其他","address":"上海徐汇滨江亲水区"},{"poiid":"B2094753DB69A7FF439B","title":"翠華餐廳（正大樂城店）","lon":"121.463157","lat":"31.184999","category":"500","category_name":"未知分类","address":"上海市 上海徐匯區中山南二路"},{"poiid":"B2094757D06FA1FA4893","title":"盛大花园","lon":"121.45329","lat":"31.179134","category":"47","category_name":"住宅区","address":"上海市徐汇区龙华路2518弄"},{"poiid":"B2094751DA6BA2F4499C","title":"美丽岛意大利餐厅","lon":"121.459256540038","lat":"31.18285984269632","category":"247","category_name":"餐饮美食","address":"徐汇区龙腾大道3222号(东安路口)"},{"poiid":"B2094757D06FA6FC469A","title":"卜蜂莲花(船厂路店)","lon":"121.45965576","lat":"31.18546145","category":"118","category_name":"超级市场","address":"徐汇区船厂路178号(近中山南二路)"},{"poiid":"B2094753D164A5FC439D","title":"费尼汉堡","lon":"121.457205","lat":"31.186739","category":"247","category_name":"餐饮美食","address":"上海市 中山南二路699号正大乐城2-104室"},{"poiid":"B2094750DA6BA4F44698","title":"上海西岸音乐节","lon":"121.462753","lat":"31.182302","category":"500","category_name":"未知分类","address":null},{"poiid":"B2094757D06FA3FD4192","title":"船厂路地铁站","lon":"121.46025679","lat":"31.185244349","category":"36","category_name":"地铁站","address":"上海轨道交通 七号线 轨交船厂路站 7"},{"poiid":"B2094757D068A2FA4599","title":"上海市机动车物损交通事故保险理赔服务中心绿地分中心","lon":"121.460469","lat":"31.185364","category":"500","category_name":"未知分类","address":"上海市徐汇区船厂路185号"},{"poiid":"B2094753D664A3FD469E","title":"正大乐城","lon":"121.458213","lat":"31.186937","category":"170","category_name":"KTV","address":"上海市 东安路中山南二路"},{"poiid":"B2094757D069A7FF4598","title":"上海世博园冰雕艺术展","lon":"121.469558038","lat":"31.1745844152","category":"500","category_name":"未知分类","address":"浦东新区世博大道1200号梅赛德斯奔驰文化中心"},{"poiid":"B2094757D06FA2FA4293","title":"后滩地铁站","lon":"121.46936755","lat":"31.174126931","category":"36","category_name":"地铁站","address":"上海轨道交通 七号线 轨交后滩站 7"},{"poiid":"B2094752D06EAAF94293","title":"正大乐城","lon":"121.456084","lat":"31.185717","category":"170","category_name":"KTV","address":"东安路500号"},{"poiid":"B2094757D66CA1FF4692","title":"南滨江","lon":"121.46897173","lat":"31.184909334","category":"500","category_name":"未知分类","address":"上海市徐汇区瑞宁路"},{"poiid":"B2094752DA69A1F5449B","title":"博大汽车公园","lon":"121.472341","lat":"31.179505","category":"500","category_name":"未知分类","address":"上海市 国展路189号"},{"poiid":"B2094757D168A4FE489D","title":"全家便利 FamilyMart(龙腾大道店)","lon":"121.463484892","lat":"31.1813841005","category":"249","category_name":"购物服务","address":"上海徐汇区龙腾大道／东安路口"},{"poiid":"B2094750D26FA0F44898","title":"上海绿地中心","lon":"121.460937","lat":"31.186069","category":"252","category_name":"楼宇机构","address":"徐汇区 船厂路东安路"},{"poiid":"B209475CD364A0FE4199","title":"Fani Burger","lon":"121.4574","lat":"31.1862","category":"94","category_name":"西餐厅","address":"东安路500号正大乐城(近中山南二路)"},{"poiid":"B2094753D768AAFC4499","title":"BBQ 比比客","lon":"121.45932","lat":"31.184492","category":"247","category_name":"餐饮美食","address":"上海市 正大乐城"},{"poiid":"B2094757D06BA6FF469E","title":"船厂路中山南二路","lon":"121.459764","lat":"31.18839","category":"500","category_name":"未知分类","address":"上海船厂路中山南二路"},{"poiid":"B2094753D56BABFC439D","title":"大众书局(正大乐城店)","lon":"121.457672","lat":"31.185836","category":"249","category_name":"购物服务","address":"上海市 徐汇区中山南二路699号正大乐城2层(近东安路)"},{"poiid":"B2094750DA69A5FC4393","title":"上海市第九人民医院","lon":"121.46212","lat":"31.177307","category":"162","category_name":"医院","address":"制造局路639号"},{"poiid":"B2094753D764A1F84899","title":"正大乐城华士达影城","lon":"121.457672","lat":"31.186075","category":"500","category_name":"未知分类","address":"上海市 徐汇区东安路598号绿地中心正大乐城3楼"},{"poiid":"B2094757D069A0F84793","title":"斯柯达4s店","lon":"121.460461","lat":"31.188615","category":"500","category_name":"未知分类","address":"上海中山南二路555号"},{"poiid":"B2094750DA65A3FF4898","title":"徐汇滨江","lon":"121.467994","lat":"31.181165","category":"47","category_name":"住宅区","address":null},{"poiid":"B2094654DA6DABF54493","title":"俞一小区","lon":"121.458","lat":"31.1762","category":"47","category_name":"住宅区","address":"龙华西路31弄"},{"poiid":"B2094655D26AA1FF4999","title":"通用雪佛兰绿地4S店","lon":"121.46107","lat":"31.18481","category":"247","category_name":"餐饮美食","address":"徐汇区船厂路187号(近中山南二路)"},{"poiid":"B2094655D26AA0F44799","title":"新偶像艺术学校","lon":"121.46105","lat":"31.18889","category":"247","category_name":"餐饮美食","address":"徐汇区中山南二路555号冠霖大楼4127室(近大木桥路)"},{"poiid":"B2094753D769A1F54499","title":"茶马颐苑","lon":"121.45903","lat":"31.186122","category":"47","category_name":"住宅区","address":"上海市 上海市徐汇区东安路598号绿地中心正大乐城2楼"},{"poiid":"B2094654DA6DAAFC409C","title":"上飞新村","lon":"121.464091","lat":"31.179351","category":"47","category_name":"住宅区","address":"徐汇区云锦路185弄1-13号"},{"poiid":"B2094655D36DA7F8469C","title":"中山南二路东安路","lon":"121.45702","lat":"31.18704","category":"38","category_name":"公交车站","address":""},{"poiid":"B209475DD468A4F5499B","title":"龙美术馆西岸馆","lon":"121.465316","lat":"31.185104","category":"248","category_name":"生活娱乐","address":"上海市 徐汇区龙腾大道3398号"},{"poiid":"B2094750DB68AAFB469E","title":"新天地时尚","lon":"121.461364","lat":"31.177936","category":"500","category_name":"未知分类","address":null},{"poiid":"B2094750DA6AA7FA4992","title":"复旦大学附属眼耳鼻喉科医院","lon":"121.458534","lat":"31.182331","category":"162","category_name":"医院","address":"汾阳路83号"},{"poiid":"B2094753DB65A6FE499C","title":"Dazzling Cafe Shanghai No.2","lon":"121.457717","lat":"31.18633","category":"500","category_name":"未知分类","address":"上海市 上海市徐汇区龙华中路602号 7-105铺位"},{"poiid":"B2094654DB6BA4FE429F","title":"龙华西路81弄小区","lon":"121.458","lat":"31.178","category":"47","category_name":"住宅区","address":"龙华西路81弄41-66号,70-92号"},{"poiid":"B209475CD565A5FA4592","title":"Ashley 正大乐城店","lon":"121.462982","lat":"31.184814","category":"247","category_name":"餐饮美食","address":"上海市中山南二路699号"},{"poiid":"B2094753DB64A0F94598","title":"一麻一辣","lon":"121.457527","lat":"31.187007","category":"500","category_name":"未知分类","address":"上海市 上海市中山南二路699号2楼"},{"poiid":"B2094757D06FA4FA499B","title":"金龙花苑","lon":"121.459503","lat":"31.180959","category":"47","category_name":"住宅区","address":"上海市徐汇区丰谷路225弄1号"},{"poiid":"B2094654DA6DAAFC419A","title":"华龙新苑小区","lon":"121.45664","lat":"31.17359","category":"47","category_name":"住宅区","address":"上海徐汇区云锦路50弄"}]