[{"poiid":"B2094655D36CA1FF4999","title":"龙阳路地铁站","lon":"121.55906","lat":"31.20345","category":"36","category_name":"地铁站","address":""},{"poiid":"B2094655D264A6FE429D","title":"磁浮龙阳路站","lon":"121.55832","lat":"31.2024","category":"251","category_name":"出行住宿","address":"上海磁浮线 磁悬浮 龙阳路"},{"poiid":"B2094757D66FA6FA489A","title":"麦当劳(龙阳路店)","lon":"121.55834","lat":"31.20304","category":"68","category_name":"快餐厅","address":"浦东新区龙阳路2345号新国际展览中心W4馆2楼(近芳甸路)"},{"poiid":"B2094655D26AA0F9479E","title":"地铁龙阳路站","lon":"121.55769","lat":"31.20329","category":"36","category_name":"地铁站","address":""},{"poiid":"B2094655D26EA6F4459F","title":"迪卡侬(花木店)","lon":"121.55962","lat":"31.20538","category":"248","category_name":"生活娱乐","address":"浦东新区银霄路393号(龙阳路)"},{"poiid":"B2094757D06FA2F84398","title":"麦德龙(浦东店)","lon":"121.556523614","lat":"31.2043843307","category":"119","category_name":"商场","address":"浦东新区花木镇白杨路383号(龙阳路地铁站对面)"},{"poiid":"B2094757D06FA2FD489D","title":"85度C(龙阳地铁站店)","lon":"121.557519452","lat":"31.2033092315","category":"67","category_name":"甜品店","address":"浦东新区龙阳路2100号底层126-127室商铺(近白杨路)"},{"poiid":"B2094757D06FABF84292","title":"羊家胡同(龙汇路店)","lon":"121.55573","lat":"31.20022","category":"86","category_name":"火锅店","address":"浦东新区龙汇路356号2楼(近白杨路)"},{"poiid":"B2094757D06FA1F44492","title":"味千拉面 龙阳路店","lon":"121.55777","lat":"31.20364","category":"95","category_name":"日本料理","address":"龙阳路2100号1楼128,130室商铺"},{"poiid":"B2094757D068A0F84492","title":"万邦都市花园","lon":"121.55590146","lat":"31.201959711","category":"47","category_name":"住宅区","address":"上海龙阳路1880弄"},{"poiid":"B2094757D068A7F9469F","title":"龙阳路地铁站站(公交581,798,975,969,方川,东川,桥六)","lon":"121.556909","lat":"31.199984","category":"38","category_name":"公交车站","address":"上海浦东新区白杨路龙汇路"},{"poiid":"B2094757D06FA7F8419C","title":"肯德基 KFC (龙阳店)","lon":"121.55788461","lat":"31.203098326","category":"68","category_name":"快餐厅","address":"浦东新区龙阳路2000号轨道交通二号线龙阳路站2号口(近白杨路)"},{"poiid":"B2094757DB6CA7FE419B","title":"地铁2号线龙阳路站","lon":"121.564178","lat":"31.20425","category":"627","category_name":"一般地点标志","address":"地铁2号线龙阳路站"},{"poiid":"B2094757D06AA1FE479E","title":"迪卡侬(龙阳路店)","lon":"121.56047797","lat":"31.204747464","category":"500","category_name":"未知分类","address":"上海龙阳路"},{"poiid":"B2094757D068A4F4499A","title":"小阿梅香香烤鱼","lon":"121.55591","lat":"31.20014","category":"71","category_name":"四川菜","address":"上海浦东新区龙汇路300号新都汇美食广场2楼206-208单元(近白杨路)"},{"poiid":"B2094655D36DA6FD499D","title":"龙阳路","lon":"121.55769","lat":"31.20328","category":"38","category_name":"公交车站","address":"磁悬浮"},{"poiid":"B2094757DA6EAAF54798","title":"小杨生煎(龙汇路店)","lon":"121.555910110472","lat":"31.2004316428239","category":"68","category_name":"快餐厅","address":"浦东新区龙汇路338号新都汇美食广场1楼(近白杨路)"},{"poiid":"B2094757D069A1F44299","title":"天豪大酒店 龙阳店","lon":"121.55444","lat":"31.19971","category":"76","category_name":"上海菜","address":"浦东新区白杨路608号(近龙汇路)"},{"poiid":"B2094757D068ABFF489D","title":"天天渔港(永达店)","lon":"121.563","lat":"31.20427","category":"72","category_name":"广东菜","address":"浦东新区龙阳路2277号(兰花路石楠路)"},{"poiid":"B2094757D068A5F5439C","title":"永和大王(龙阳路店)","lon":"121.55858","lat":"31.20208","category":"68","category_name":"快餐厅","address":"浦东新区龙阳路2000号101室(近地铁站磁悬浮站)"},{"poiid":"B2094757D068A7F4439E","title":"唐韵秦风 龙汇路店","lon":"121.55443","lat":"31.19975","category":"84","category_name":"西北菜","address":"浦东新区龙汇路300号新都汇美食广场115-116号(近白杨路)"},{"poiid":"B2094757D468AAFD4492","title":"西域美食楼","lon":"121.55443","lat":"31.19975","category":"90","category_name":"清真餐馆","address":"浦东新区龙汇路300号新都汇美食广场107号铺(近白杨路)"},{"poiid":"B2094757D56CA1FD4999","title":"兄弟盱眙龙虾 芳华路店","lon":"121.55951","lat":"31.19597","category":"68","category_name":"快餐厅","address":"浦东新区芳华路452号(近乔家栅)"},{"poiid":"B2094757D665A0FB489F","title":"DQ冰雪皇后 银霄路店 Dairy Queen","lon":"121.558800054","lat":"31.205117793","category":"113","category_name":"冷饮店","address":"浦东新区银霄路393号(近百安居)"},{"poiid":"B2094655D36CA6F94298","title":"芳华路白杨路","lon":"121.55869","lat":"31.19595","category":"38","category_name":"公交车站","address":""},{"poiid":"B2094757D06AA0FA469B","title":"龙阳路龙汇路站(龙港快线,龙芦线,龙东线,龙临线,龙滨线,龙平芦线,龙新芦线,龙大线)","lon":"121.55931861","lat":"31.2029143223","category":"38","category_name":"公交车站","address":"上海市浦东新区龙阳路龙汇路"},{"poiid":"B2094757D465A1FE459E","title":"汤豪仕汤馆 龙汇路店","lon":"121.55443","lat":"31.19975","category":"76","category_name":"上海菜","address":"浦东新区龙汇路300号新都汇美食广场1楼(近白杨路)"},{"poiid":"B2094655D268A3F44193","title":"棒约翰(银霄路)","lon":"121.55907","lat":"31.20515","category":"68","category_name":"快餐厅","address":""},{"poiid":"B2094752DA6FA7FF489C","title":"上海新国际博览中心","lon":"121.560756","lat":"31.198895","category":"500","category_name":"未知分类","address":"上海市 龙阳路"},{"poiid":"B2094757D06FA7F54898","title":"上海轨道交通龙阳路实训基地","lon":"121.562013193","lat":"31.2046851723","category":"190","category_name":"培训机构","address":"上海浦东龙阳路2520号"},{"poiid":"B2094757D06FA5FF429B","title":"百安居(浦东店)","lon":"121.55992573","lat":"31.204291906","category":"123","category_name":"家具建材市场","address":"浦东新区银霄路393号(龙阳路地铁站)"},{"poiid":"B2094757D468A7FB469F","title":"筷将军 龙阳路店","lon":"121.55807","lat":"31.20331","category":"68","category_name":"快餐厅","address":"浦东新区龙阳路2100号磁悬浮车站1楼(近白杨路)"},{"poiid":"B2094757D064A6FA489A","title":"盆盆香","lon":"121.55766","lat":"31.20082","category":"71","category_name":"四川菜","address":"浦东新区龙汇路322号(白杨路龙汇路)"},{"poiid":"B2094750D768A7F44092","title":"超级鸡车(龙阳路店)","lon":"121.563","lat":"31.2021","category":"68","category_name":"快餐厅","address":"浦东新区龙阳路2000号107室(近地铁7号线龙阳路站)"},{"poiid":"B2094757D064A2F4459D","title":"味千拉面 银霄路店","lon":"121.558824054","lat":"31.204173793","category":"95","category_name":"日本料理","address":"浦东新区银霄路393号百安居1楼园艺区B区(近龙阳路)"},{"poiid":"B2094654DB6BABFA449B","title":"上海新国际博览中心(南门)","lon":"121.5652","lat":"31.20455","category":"183","category_name":"展览馆","address":"龙阳路2345"},{"poiid":"B2094757D069A1FE4899","title":"丽君桌球俱乐部","lon":"121.55648","lat":"31.20028","category":"248","category_name":"生活娱乐","address":"浦东新区龙汇路300号新都汇美食广场B1楼(近白杨路)"},{"poiid":"B209475CDA6AAAFE409E","title":"磁悬浮列车","lon":"121.56198","lat":"31.20154","category":"607","category_name":"一般景点","address":"上海磁悬浮列车地址：磁浮龙阳路站在龙阳路2100号。磁浮机场站在上海浦东国际机场候机楼东侧。"},{"poiid":"B2094655D26FA6FD4198","title":"上海新国际博览中心(西二门)","lon":"121.56411","lat":"31.20592","category":"183","category_name":"展览馆","address":""},{"poiid":"B2094752D36EA2FD439E","title":"上海浦东机场","lon":"121.562057","lat":"31.194992","category":"500","category_name":"未知分类","address":null},{"poiid":"B2094757D465A4FD479E","title":"重庆鸡公煲 芳华路店","lon":"121.560450054","lat":"31.196370793","category":"247","category_name":"餐饮美食","address":"浦东新区芳华路861号(近629路终点站)"},{"poiid":"B2094752D76EA4F5419A","title":"浦东国际机场T2","lon":"121.560965","lat":"31.199975","category":"252","category_name":"楼宇机构","address":null},{"poiid":"B2094757D76CA3FE469C","title":"麦咖啡 龙阳路店 McCafe","lon":"121.55976","lat":"31.20371","category":"65","category_name":"咖啡厅","address":"浦东新区龙阳路2100号1楼132室(近龙阳路地铁站)"},{"poiid":"B2094757D66CAAFE419D","title":"汤豪士","lon":"121.555875","lat":"31.20045","category":"247","category_name":"餐饮美食","address":"上海龙汇路"},{"poiid":"B2094750DB6EAAF54398","title":"牛灿炭火烧肉","lon":"121.557212","lat":"31.201364","category":"269","category_name":"烧烤","address":"浦东新区龙汇路364号新都汇美食广场(近白杨路)"},{"poiid":"B2094654DA6AA0FF489A","title":"花木久远小区","lon":"121.56032","lat":"31.19588","category":"47","category_name":"住宅区","address":"芳华路478弄1-86号"},{"poiid":"B2094757D66AA6FE499D","title":"云龙韩国料理 龙阳店","lon":"121.55443","lat":"31.19975","category":"96","category_name":"韩国料理","address":"浦东新区龙汇路300号新都汇美食广场118号(近白杨路)"},{"poiid":"B2094751D36FA6FC439A","title":"老昌兴苏州汤包馆(芳华路店)","lon":"121.55969","lat":"31.19577","category":"68","category_name":"快餐厅","address":"浦东新区芳华路466号"},{"poiid":"B2094654DA6AA0FF4999","title":"东东骨头王火锅城 芳华路店","lon":"121.55962442862","lat":"31.195987319126","category":"86","category_name":"火锅店","address":"浦东新区芳华路448号(近白杨路)"},{"poiid":"B2094757D76CA0FF419E","title":"大娘水饺 龙阳路店","lon":"121.556349","lat":"31.203563","category":"68","category_name":"快餐厅","address":"浦东新区龙阳路2000号(近地铁2号线龙阳路站)"},{"poiid":"B2094655D36CA1FF4999","title":"龙阳路地铁站","lon":"121.55906","lat":"31.20345","category":"36","category_name":"地铁站","address":""},{"poiid":"B2094655D264A6FE429D","title":"磁浮龙阳路站","lon":"121.55832","lat":"31.2024","category":"251","category_name":"出行住宿","address":"上海磁浮线 磁悬浮 龙阳路"},{"poiid":"B2094757D66FA6FA489A","title":"麦当劳(龙阳路店)","lon":"121.55834","lat":"31.20304","category":"68","category_name":"快餐厅","address":"浦东新区龙阳路2345号新国际展览中心W4馆2楼(近芳甸路)"},{"poiid":"B2094655D26AA0F9479E","title":"地铁龙阳路站","lon":"121.55769","lat":"31.20329","category":"36","category_name":"地铁站","address":""},{"poiid":"B2094655D26EA6F4459F","title":"迪卡侬(花木店)","lon":"121.55962","lat":"31.20538","category":"248","category_name":"生活娱乐","address":"浦东新区银霄路393号(龙阳路)"},{"poiid":"B2094757D06FA2F84398","title":"麦德龙(浦东店)","lon":"121.556523614","lat":"31.2043843307","category":"119","category_name":"商场","address":"浦东新区花木镇白杨路383号(龙阳路地铁站对面)"},{"poiid":"B2094757D06FA2FD489D","title":"85度C(龙阳地铁站店)","lon":"121.557519452","lat":"31.2033092315","category":"67","category_name":"甜品店","address":"浦东新区龙阳路2100号底层126-127室商铺(近白杨路)"},{"poiid":"B2094757D06FABF84292","title":"羊家胡同(龙汇路店)","lon":"121.55573","lat":"31.20022","category":"86","category_name":"火锅店","address":"浦东新区龙汇路356号2楼(近白杨路)"},{"poiid":"B2094757D06FA1F44492","title":"味千拉面 龙阳路店","lon":"121.55777","lat":"31.20364","category":"95","category_name":"日本料理","address":"龙阳路2100号1楼128,130室商铺"},{"poiid":"B2094757D068A0F84492","title":"万邦都市花园","lon":"121.55590146","lat":"31.201959711","category":"47","category_name":"住宅区","address":"上海龙阳路1880弄"},{"poiid":"B2094757D068A7F9469F","title":"龙阳路地铁站站(公交581,798,975,969,方川,东川,桥六)","lon":"121.556909","lat":"31.199984","category":"38","category_name":"公交车站","address":"上海浦东新区白杨路龙汇路"},{"poiid":"B2094757D06FA7F8419C","title":"肯德基 KFC (龙阳店)","lon":"121.55788461","lat":"31.203098326","category":"68","category_name":"快餐厅","address":"浦东新区龙阳路2000号轨道交通二号线龙阳路站2号口(近白杨路)"},{"poiid":"B2094757DB6CA7FE419B","title":"地铁2号线龙阳路站","lon":"121.564178","lat":"31.20425","category":"627","category_name":"一般地点标志","address":"地铁2号线龙阳路站"},{"poiid":"B2094757D06AA1FE479E","title":"迪卡侬(龙阳路店)","lon":"121.56047797","lat":"31.204747464","category":"500","category_name":"未知分类","address":"上海龙阳路"},{"poiid":"B2094757D068A4F4499A","title":"小阿梅香香烤鱼","lon":"121.55591","lat":"31.20014","category":"71","category_name":"四川菜","address":"上海浦东新区龙汇路300号新都汇美食广场2楼206-208单元(近白杨路)"},{"poiid":"B2094655D36DA6FD499D","title":"龙阳路","lon":"121.55769","lat":"31.20328","category":"38","category_name":"公交车站","address":"磁悬浮"},{"poiid":"B2094757DA6EAAF54798","title":"小杨生煎(龙汇路店)","lon":"121.555910110472","lat":"31.2004316428239","category":"68","category_name":"快餐厅","address":"浦东新区龙汇路338号新都汇美食广场1楼(近白杨路)"},{"poiid":"B2094757D069A1F44299","title":"天豪大酒店 龙阳店","lon":"121.55444","lat":"31.19971","category":"76","category_name":"上海菜","address":"浦东新区白杨路608号(近龙汇路)"},{"poiid":"B2094757D068ABFF489D","title":"天天渔港(永达店)","lon":"121.563","lat":"31.20427","category":"72","category_name":"广东菜","address":"浦东新区龙阳路2277号(兰花路石楠路)"},{"poiid":"B2094757D068A5F5439C","title":"永和大王(龙阳路店)","lon":"121.55858","lat":"31.20208","category":"68","category_name":"快餐厅","address":"浦东新区龙阳路2000号101室(近地铁站磁悬浮站)"},{"poiid":"B2094757D068A7F4439E","title":"唐韵秦风 龙汇路店","lon":"121.55443","lat":"31.19975","category":"84","category_name":"西北菜","address":"浦东新区龙汇路300号新都汇美食广场115-116号(近白杨路)"},{"poiid":"B2094757D468AAFD4492","title":"西域美食楼","lon":"121.55443","lat":"31.19975","category":"90","category_name":"清真餐馆","address":"浦东新区龙汇路300号新都汇美食广场107号铺(近白杨路)"},{"poiid":"B2094757D56CA1FD4999","title":"兄弟盱眙龙虾 芳华路店","lon":"121.55951","lat":"31.19597","category":"68","category_name":"快餐厅","address":"浦东新区芳华路452号(近乔家栅)"},{"poiid":"B2094757D665A0FB489F","title":"DQ冰雪皇后 银霄路店 Dairy Queen","lon":"121.558800054","lat":"31.205117793","category":"113","category_name":"冷饮店","address":"浦东新区银霄路393号(近百安居)"},{"poiid":"B2094655D36CA6F94298","title":"芳华路白杨路","lon":"121.55869","lat":"31.19595","category":"38","category_name":"公交车站","address":""},{"poiid":"B2094757D06AA0FA469B","title":"龙阳路龙汇路站(龙港快线,龙芦线,龙东线,龙临线,龙滨线,龙平芦线,龙新芦线,龙大线)","lon":"121.55931861","lat":"31.2029143223","category":"38","category_name":"公交车站","address":"上海市浦东新区龙阳路龙汇路"},{"poiid":"B2094757D465A1FE459E","title":"汤豪仕汤馆 龙汇路店","lon":"121.55443","lat":"31.19975","category":"76","category_name":"上海菜","address":"浦东新区龙汇路300号新都汇美食广场1楼(近白杨路)"},{"poiid":"B2094655D268A3F44193","title":"棒约翰(银霄路)","lon":"121.55907","lat":"31.20515","category":"68","category_name":"快餐厅","address":""},{"poiid":"B2094752DA6FA7FF489C","title":"上海新国际博览中心","lon":"121.560756","lat":"31.198895","category":"500","category_name":"未知分类","address":"上海市 龙阳路"},{"poiid":"B2094757D06FA7F54898","title":"上海轨道交通龙阳路实训基地","lon":"121.562013193","lat":"31.2046851723","category":"190","category_name":"培训机构","address":"上海浦东龙阳路2520号"},{"poiid":"B2094757D06FA5FF429B","title":"百安居(浦东店)","lon":"121.55992573","lat":"31.204291906","category":"123","category_name":"家具建材市场","address":"浦东新区银霄路393号(龙阳路地铁站)"},{"poiid":"B2094757D468A7FB469F","title":"筷将军 龙阳路店","lon":"121.55807","lat":"31.20331","category":"68","category_name":"快餐厅","address":"浦东新区龙阳路2100号磁悬浮车站1楼(近白杨路)"},{"poiid":"B2094757D064A6FA489A","title":"盆盆香","lon":"121.55766","lat":"31.20082","category":"71","category_name":"四川菜","address":"浦东新区龙汇路322号(白杨路龙汇路)"},{"poiid":"B2094750D768A7F44092","title":"超级鸡车(龙阳路店)","lon":"121.563","lat":"31.2021","category":"68","category_name":"快餐厅","address":"浦东新区龙阳路2000号107室(近地铁7号线龙阳路站)"},{"poiid":"B2094757D064A2F4459D","title":"味千拉面 银霄路店","lon":"121.558824054","lat":"31.204173793","category":"95","category_name":"日本料理","address":"浦东新区银霄路393号百安居1楼园艺区B区(近龙阳路)"},{"poiid":"B2094654DB6BABFA449B","title":"上海新国际博览中心(南门)","lon":"121.5652","lat":"31.20455","category":"183","category_name":"展览馆","address":"龙阳路2345"},{"poiid":"B2094757D069A1FE4899","title":"丽君桌球俱乐部","lon":"121.55648","lat":"31.20028","category":"248","category_name":"生活娱乐","address":"浦东新区龙汇路300号新都汇美食广场B1楼(近白杨路)"},{"poiid":"B209475CDA6AAAFE409E","title":"磁悬浮列车","lon":"121.56198","lat":"31.20154","category":"607","category_name":"一般景点","address":"上海磁悬浮列车地址：磁浮龙阳路站在龙阳路2100号。磁浮机场站在上海浦东国际机场候机楼东侧。"},{"poiid":"B2094655D26FA6FD4198","title":"上海新国际博览中心(西二门)","lon":"121.56411","lat":"31.20592","category":"183","category_name":"展览馆","address":""},{"poiid":"B2094752D36EA2FD439E","title":"上海浦东机场","lon":"121.562057","lat":"31.194992","category":"500","category_name":"未知分类","address":null},{"poiid":"B2094757D465A4FD479E","title":"重庆鸡公煲 芳华路店","lon":"121.560450054","lat":"31.196370793","category":"247","category_name":"餐饮美食","address":"浦东新区芳华路861号(近629路终点站)"},{"poiid":"B2094752D76EA4F5419A","title":"浦东国际机场T2","lon":"121.560965","lat":"31.199975","category":"252","category_name":"楼宇机构","address":null},{"poiid":"B2094757D76CA3FE469C","title":"麦咖啡 龙阳路店 McCafe","lon":"121.55976","lat":"31.20371","category":"65","category_name":"咖啡厅","address":"浦东新区龙阳路2100号1楼132室(近龙阳路地铁站)"},{"poiid":"B2094757D66CAAFE419D","title":"汤豪士","lon":"121.555875","lat":"31.20045","category":"247","category_name":"餐饮美食","address":"上海龙汇路"},{"poiid":"B2094750DB6EAAF54398","title":"牛灿炭火烧肉","lon":"121.557212","lat":"31.201364","category":"269","category_name":"烧烤","address":"浦东新区龙汇路364号新都汇美食广场(近白杨路)"},{"poiid":"B2094654DA6AA0FF489A","title":"花木久远小区","lon":"121.56032","lat":"31.19588","category":"47","category_name":"住宅区","address":"芳华路478弄1-86号"},{"poiid":"B2094757D66AA6FE499D","title":"云龙韩国料理 龙阳店","lon":"121.55443","lat":"31.19975","category":"96","category_name":"韩国料理","address":"浦东新区龙汇路300号新都汇美食广场118号(近白杨路)"},{"poiid":"B2094751D36FA6FC439A","title":"老昌兴苏州汤包馆(芳华路店)","lon":"121.55969","lat":"31.19577","category":"68","category_name":"快餐厅","address":"浦东新区芳华路466号"},{"poiid":"B2094654DA6AA0FF4999","title":"东东骨头王火锅城 芳华路店","lon":"121.55962442862","lat":"31.195987319126","category":"86","category_name":"火锅店","address":"浦东新区芳华路448号(近白杨路)"},{"poiid":"B2094757D76CA0FF419E","title":"大娘水饺 龙阳路店","lon":"121.556349","lat":"31.203563","category":"68","category_name":"快餐厅","address":"浦东新区龙阳路2000号(近地铁2号线龙阳路站)"},{"poiid":"B2094655D36CA1FF4999","title":"龙阳路地铁站","lon":"121.55906","lat":"31.20345","category":"36","category_name":"地铁站","address":""},{"poiid":"B2094655D264A6FE429D","title":"磁浮龙阳路站","lon":"121.55832","lat":"31.2024","category":"251","category_name":"出行住宿","address":"上海磁浮线 磁悬浮 龙阳路"},{"poiid":"B2094757D66FA6FA489A","title":"麦当劳(龙阳路店)","lon":"121.55834","lat":"31.20304","category":"68","category_name":"快餐厅","address":"浦东新区龙阳路2345号新国际展览中心W4馆2楼(近芳甸路)"},{"poiid":"B2094655D26AA0F9479E","title":"地铁龙阳路站","lon":"121.55769","lat":"31.20329","category":"36","category_name":"地铁站","address":""},{"poiid":"B2094655D26EA6F4459F","title":"迪卡侬(花木店)","lon":"121.55962","lat":"31.20538","category":"248","category_name":"生活娱乐","address":"浦东新区银霄路393号(龙阳路)"},{"poiid":"B2094757D06FA2F84398","title":"麦德龙(浦东店)","lon":"121.556523614","lat":"31.2043843307","category":"119","category_name":"商场","address":"浦东新区花木镇白杨路383号(龙阳路地铁站对面)"},{"poiid":"B2094757D06FA2FD489D","title":"85度C(龙阳地铁站店)","lon":"121.557519452","lat":"31.2033092315","category":"67","category_name":"甜品店","address":"浦东新区龙阳路2100号底层126-127室商铺(近白杨路)"},{"poiid":"B2094757D06FABF84292","title":"羊家胡同(龙汇路店)","lon":"121.55573","lat":"31.20022","category":"86","category_name":"火锅店","address":"浦东新区龙汇路356号2楼(近白杨路)"},{"poiid":"B2094757D06FA1F44492","title":"味千拉面 龙阳路店","lon":"121.55777","lat":"31.20364","category":"95","category_name":"日本料理","address":"龙阳路2100号1楼128,130室商铺"},{"poiid":"B2094757D068A0F84492","title":"万邦都市花园","lon":"121.55590146","lat":"31.201959711","category":"47","category_name":"住宅区","address":"上海龙阳路1880弄"},{"poiid":"B2094757D068A7F9469F","title":"龙阳路地铁站站(公交581,798,975,969,方川,东川,桥六)","lon":"121.556909","lat":"31.199984","category":"38","category_name":"公交车站","address":"上海浦东新区白杨路龙汇路"},{"poiid":"B2094757D06FA7F8419C","title":"肯德基 KFC (龙阳店)","lon":"121.55788461","lat":"31.203098326","category":"68","category_name":"快餐厅","address":"浦东新区龙阳路2000号轨道交通二号线龙阳路站2号口(近白杨路)"},{"poiid":"B2094757DB6CA7FE419B","title":"地铁2号线龙阳路站","lon":"121.564178","lat":"31.20425","category":"627","category_name":"一般地点标志","address":"地铁2号线龙阳路站"},{"poiid":"B2094757D06AA1FE479E","title":"迪卡侬(龙阳路店)","lon":"121.56047797","lat":"31.204747464","category":"500","category_name":"未知分类","address":"上海龙阳路"},{"poiid":"B2094757D068A4F4499A","title":"小阿梅香香烤鱼","lon":"121.55591","lat":"31.20014","category":"71","category_name":"四川菜","address":"上海浦东新区龙汇路300号新都汇美食广场2楼206-208单元(近白杨路)"},{"poiid":"B2094655D36DA6FD499D","title":"龙阳路","lon":"121.55769","lat":"31.20328","category":"38","category_name":"公交车站","address":"磁悬浮"},{"poiid":"B2094757DA6EAAF54798","title":"小杨生煎(龙汇路店)","lon":"121.555910110472","lat":"31.2004316428239","category":"68","category_name":"快餐厅","address":"浦东新区龙汇路338号新都汇美食广场1楼(近白杨路)"},{"poiid":"B2094757D069A1F44299","title":"天豪大酒店 龙阳店","lon":"121.55444","lat":"31.19971","category":"76","category_name":"上海菜","address":"浦东新区白杨路608号(近龙汇路)"},{"poiid":"B2094757D068ABFF489D","title":"天天渔港(永达店)","lon":"121.563","lat":"31.20427","category":"72","category_name":"广东菜","address":"浦东新区龙阳路2277号(兰花路石楠路)"},{"poiid":"B2094757D068A5F5439C","title":"永和大王(龙阳路店)","lon":"121.55858","lat":"31.20208","category":"68","category_name":"快餐厅","address":"浦东新区龙阳路2000号101室(近地铁站磁悬浮站)"},{"poiid":"B2094757D068A7F4439E","title":"唐韵秦风 龙汇路店","lon":"121.55443","lat":"31.19975","category":"84","category_name":"西北菜","address":"浦东新区龙汇路300号新都汇美食广场115-116号(近白杨路)"},{"poiid":"B2094757D468AAFD4492","title":"西域美食楼","lon":"121.55443","lat":"31.19975","category":"90","category_name":"清真餐馆","address":"浦东新区龙汇路300号新都汇美食广场107号铺(近白杨路)"},{"poiid":"B2094757D56CA1FD4999","title":"兄弟盱眙龙虾 芳华路店","lon":"121.55951","lat":"31.19597","category":"68","category_name":"快餐厅","address":"浦东新区芳华路452号(近乔家栅)"},{"poiid":"B2094757D665A0FB489F","title":"DQ冰雪皇后 银霄路店 Dairy Queen","lon":"121.558800054","lat":"31.205117793","category":"113","category_name":"冷饮店","address":"浦东新区银霄路393号(近百安居)"},{"poiid":"B2094655D36CA6F94298","title":"芳华路白杨路","lon":"121.55869","lat":"31.19595","category":"38","category_name":"公交车站","address":""},{"poiid":"B2094757D06AA0FA469B","title":"龙阳路龙汇路站(龙港快线,龙芦线,龙东线,龙临线,龙滨线,龙平芦线,龙新芦线,龙大线)","lon":"121.55931861","lat":"31.2029143223","category":"38","category_name":"公交车站","address":"上海市浦东新区龙阳路龙汇路"},{"poiid":"B2094757D465A1FE459E","title":"汤豪仕汤馆 龙汇路店","lon":"121.55443","lat":"31.19975","category":"76","category_name":"上海菜","address":"浦东新区龙汇路300号新都汇美食广场1楼(近白杨路)"},{"poiid":"B2094655D268A3F44193","title":"棒约翰(银霄路)","lon":"121.55907","lat":"31.20515","category":"68","category_name":"快餐厅","address":""},{"poiid":"B2094752DA6FA7FF489C","title":"上海新国际博览中心","lon":"121.560756","lat":"31.198895","category":"500","category_name":"未知分类","address":"上海市 龙阳路"},{"poiid":"B2094757D06FA7F54898","title":"上海轨道交通龙阳路实训基地","lon":"121.562013193","lat":"31.2046851723","category":"190","category_name":"培训机构","address":"上海浦东龙阳路2520号"},{"poiid":"B2094757D06FA5FF429B","title":"百安居(浦东店)","lon":"121.55992573","lat":"31.204291906","category":"123","category_name":"家具建材市场","address":"浦东新区银霄路393号(龙阳路地铁站)"},{"poiid":"B2094757D468A7FB469F","title":"筷将军 龙阳路店","lon":"121.55807","lat":"31.20331","category":"68","category_name":"快餐厅","address":"浦东新区龙阳路2100号磁悬浮车站1楼(近白杨路)"},{"poiid":"B2094757D064A6FA489A","title":"盆盆香","lon":"121.55766","lat":"31.20082","category":"71","category_name":"四川菜","address":"浦东新区龙汇路322号(白杨路龙汇路)"},{"poiid":"B2094750D768A7F44092","title":"超级鸡车(龙阳路店)","lon":"121.563","lat":"31.2021","category":"68","category_name":"快餐厅","address":"浦东新区龙阳路2000号107室(近地铁7号线龙阳路站)"},{"poiid":"B2094757D064A2F4459D","title":"味千拉面 银霄路店","lon":"121.558824054","lat":"31.204173793","category":"95","category_name":"日本料理","address":"浦东新区银霄路393号百安居1楼园艺区B区(近龙阳路)"},{"poiid":"B2094654DB6BABFA449B","title":"上海新国际博览中心(南门)","lon":"121.5652","lat":"31.20455","category":"183","category_name":"展览馆","address":"龙阳路2345"},{"poiid":"B2094757D069A1FE4899","title":"丽君桌球俱乐部","lon":"121.55648","lat":"31.20028","category":"248","category_name":"生活娱乐","address":"浦东新区龙汇路300号新都汇美食广场B1楼(近白杨路)"},{"poiid":"B209475CDA6AAAFE409E","title":"磁悬浮列车","lon":"121.56198","lat":"31.20154","category":"607","category_name":"一般景点","address":"上海磁悬浮列车地址：磁浮龙阳路站在龙阳路2100号。磁浮机场站在上海浦东国际机场候机楼东侧。"},{"poiid":"B2094655D26FA6FD4198","title":"上海新国际博览中心(西二门)","lon":"121.56411","lat":"31.20592","category":"183","category_name":"展览馆","address":""},{"poiid":"B2094752D36EA2FD439E","title":"上海浦东机场","lon":"121.562057","lat":"31.194992","category":"500","category_name":"未知分类","address":null},{"poiid":"B2094757D465A4FD479E","title":"重庆鸡公煲 芳华路店","lon":"121.560450054","lat":"31.196370793","category":"247","category_name":"餐饮美食","address":"浦东新区芳华路861号(近629路终点站)"},{"poiid":"B2094752D76EA4F5419A","title":"浦东国际机场T2","lon":"121.560965","lat":"31.199975","category":"252","category_name":"楼宇机构","address":null},{"poiid":"B2094757D76CA3FE469C","title":"麦咖啡 龙阳路店 McCafe","lon":"121.55976","lat":"31.20371","category":"65","category_name":"咖啡厅","address":"浦东新区龙阳路2100号1楼132室(近龙阳路地铁站)"},{"poiid":"B2094757D66CAAFE419D","title":"汤豪士","lon":"121.555875","lat":"31.20045","category":"247","category_name":"餐饮美食","address":"上海龙汇路"},{"poiid":"B2094750DB6EAAF54398","title":"牛灿炭火烧肉","lon":"121.557212","lat":"31.201364","category":"269","category_name":"烧烤","address":"浦东新区龙汇路364号新都汇美食广场(近白杨路)"},{"poiid":"B2094654DA6AA0FF489A","title":"花木久远小区","lon":"121.56032","lat":"31.19588","category":"47","category_name":"住宅区","address":"芳华路478弄1-86号"},{"poiid":"B2094757D66AA6FE499D","title":"云龙韩国料理 龙阳店","lon":"121.55443","lat":"31.19975","category":"96","category_name":"韩国料理","address":"浦东新区龙汇路300号新都汇美食广场118号(近白杨路)"},{"poiid":"B2094751D36FA6FC439A","title":"老昌兴苏州汤包馆(芳华路店)","lon":"121.55969","lat":"31.19577","category":"68","category_name":"快餐厅","address":"浦东新区芳华路466号"},{"poiid":"B2094654DA6AA0FF4999","title":"东东骨头王火锅城 芳华路店","lon":"121.55962442862","lat":"31.195987319126","category":"86","category_name":"火锅店","address":"浦东新区芳华路448号(近白杨路)"},{"poiid":"B2094757D76CA0FF419E","title":"大娘水饺 龙阳路店","lon":"121.556349","lat":"31.203563","category":"68","category_name":"快餐厅","address":"浦东新区龙阳路2000号(近地铁2号线龙阳路站)"},{"poiid":"B2094655D36CA1FF4999","title":"龙阳路地铁站","lon":"121.55906","lat":"31.20345","category":"36","category_name":"地铁站","address":""},{"poiid":"B2094655D264A6FE429D","title":"磁浮龙阳路站","lon":"121.55832","lat":"31.2024","category":"251","category_name":"出行住宿","address":"上海磁浮线 磁悬浮 龙阳路"},{"poiid":"B2094757D66FA6FA489A","title":"麦当劳(龙阳路店)","lon":"121.55834","lat":"31.20304","category":"68","category_name":"快餐厅","address":"浦东新区龙阳路2345号新国际展览中心W4馆2楼(近芳甸路)"},{"poiid":"B2094655D26AA0F9479E","title":"地铁龙阳路站","lon":"121.55769","lat":"31.20329","category":"36","category_name":"地铁站","address":""},{"poiid":"B2094655D26EA6F4459F","title":"迪卡侬(花木店)","lon":"121.55962","lat":"31.20538","category":"248","category_name":"生活娱乐","address":"浦东新区银霄路393号(龙阳路)"},{"poiid":"B2094757D06FA2F84398","title":"麦德龙(浦东店)","lon":"121.556523614","lat":"31.2043843307","category":"119","category_name":"商场","address":"浦东新区花木镇白杨路383号(龙阳路地铁站对面)"},{"poiid":"B2094757D06FA2FD489D","title":"85度C(龙阳地铁站店)","lon":"121.557519452","lat":"31.2033092315","category":"67","category_name":"甜品店","address":"浦东新区龙阳路2100号底层126-127室商铺(近白杨路)"},{"poiid":"B2094757D06FABF84292","title":"羊家胡同(龙汇路店)","lon":"121.55573","lat":"31.20022","category":"86","category_name":"火锅店","address":"浦东新区龙汇路356号2楼(近白杨路)"},{"poiid":"B2094757D06FA1F44492","title":"味千拉面 龙阳路店","lon":"121.55777","lat":"31.20364","category":"95","category_name":"日本料理","address":"龙阳路2100号1楼128,130室商铺"},{"poiid":"B2094757D068A0F84492","title":"万邦都市花园","lon":"121.55590146","lat":"31.201959711","category":"47","category_name":"住宅区","address":"上海龙阳路1880弄"},{"poiid":"B2094757D068A7F9469F","title":"龙阳路地铁站站(公交581,798,975,969,方川,东川,桥六)","lon":"121.556909","lat":"31.199984","category":"38","category_name":"公交车站","address":"上海浦东新区白杨路龙汇路"},{"poiid":"B2094757D06FA7F8419C","title":"肯德基 KFC (龙阳店)","lon":"121.55788461","lat":"31.203098326","category":"68","category_name":"快餐厅","address":"浦东新区龙阳路2000号轨道交通二号线龙阳路站2号口(近白杨路)"},{"poiid":"B2094757DB6CA7FE419B","title":"地铁2号线龙阳路站","lon":"121.564178","lat":"31.20425","category":"627","category_name":"一般地点标志","address":"地铁2号线龙阳路站"},{"poiid":"B2094757D06AA1FE479E","title":"迪卡侬(龙阳路店)","lon":"121.56047797","lat":"31.204747464","category":"500","category_name":"未知分类","address":"上海龙阳路"},{"poiid":"B2094757D068A4F4499A","title":"小阿梅香香烤鱼","lon":"121.55591","lat":"31.20014","category":"71","category_name":"四川菜","address":"上海浦东新区龙汇路300号新都汇美食广场2楼206-208单元(近白杨路)"},{"poiid":"B2094655D36DA6FD499D","title":"龙阳路","lon":"121.55769","lat":"31.20328","category":"38","category_name":"公交车站","address":"磁悬浮"},{"poiid":"B2094757DA6EAAF54798","title":"小杨生煎(龙汇路店)","lon":"121.555910110472","lat":"31.2004316428239","category":"68","category_name":"快餐厅","address":"浦东新区龙汇路338号新都汇美食广场1楼(近白杨路)"},{"poiid":"B2094757D069A1F44299","title":"天豪大酒店 龙阳店","lon":"121.55444","lat":"31.19971","category":"76","category_name":"上海菜","address":"浦东新区白杨路608号(近龙汇路)"},{"poiid":"B2094757D068ABFF489D","title":"天天渔港(永达店)","lon":"121.563","lat":"31.20427","category":"72","category_name":"广东菜","address":"浦东新区龙阳路2277号(兰花路石楠路)"},{"poiid":"B2094757D068A5F5439C","title":"永和大王(龙阳路店)","lon":"121.55858","lat":"31.20208","category":"68","category_name":"快餐厅","address":"浦东新区龙阳路2000号101室(近地铁站磁悬浮站)"},{"poiid":"B2094757D068A7F4439E","title":"唐韵秦风 龙汇路店","lon":"121.55443","lat":"31.19975","category":"84","category_name":"西北菜","address":"浦东新区龙汇路300号新都汇美食广场115-116号(近白杨路)"},{"poiid":"B2094757D468AAFD4492","title":"西域美食楼","lon":"121.55443","lat":"31.19975","category":"90","category_name":"清真餐馆","address":"浦东新区龙汇路300号新都汇美食广场107号铺(近白杨路)"},{"poiid":"B2094757D56CA1FD4999","title":"兄弟盱眙龙虾 芳华路店","lon":"121.55951","lat":"31.19597","category":"68","category_name":"快餐厅","address":"浦东新区芳华路452号(近乔家栅)"},{"poiid":"B2094757D665A0FB489F","title":"DQ冰雪皇后 银霄路店 Dairy Queen","lon":"121.558800054","lat":"31.205117793","category":"113","category_name":"冷饮店","address":"浦东新区银霄路393号(近百安居)"},{"poiid":"B2094655D36CA6F94298","title":"芳华路白杨路","lon":"121.55869","lat":"31.19595","category":"38","category_name":"公交车站","address":""},{"poiid":"B2094757D06AA0FA469B","title":"龙阳路龙汇路站(龙港快线,龙芦线,龙东线,龙临线,龙滨线,龙平芦线,龙新芦线,龙大线)","lon":"121.55931861","lat":"31.2029143223","category":"38","category_name":"公交车站","address":"上海市浦东新区龙阳路龙汇路"},{"poiid":"B2094757D465A1FE459E","title":"汤豪仕汤馆 龙汇路店","lon":"121.55443","lat":"31.19975","category":"76","category_name":"上海菜","address":"浦东新区龙汇路300号新都汇美食广场1楼(近白杨路)"},{"poiid":"B2094655D268A3F44193","title":"棒约翰(银霄路)","lon":"121.55907","lat":"31.20515","category":"68","category_name":"快餐厅","address":""},{"poiid":"B2094752DA6FA7FF489C","title":"上海新国际博览中心","lon":"121.560756","lat":"31.198895","category":"500","category_name":"未知分类","address":"上海市 龙阳路"},{"poiid":"B2094757D06FA7F54898","title":"上海轨道交通龙阳路实训基地","lon":"121.562013193","lat":"31.2046851723","category":"190","category_name":"培训机构","address":"上海浦东龙阳路2520号"},{"poiid":"B2094757D06FA5FF429B","title":"百安居(浦东店)","lon":"121.55992573","lat":"31.204291906","category":"123","category_name":"家具建材市场","address":"浦东新区银霄路393号(龙阳路地铁站)"},{"poiid":"B2094757D468A7FB469F","title":"筷将军 龙阳路店","lon":"121.55807","lat":"31.20331","category":"68","category_name":"快餐厅","address":"浦东新区龙阳路2100号磁悬浮车站1楼(近白杨路)"},{"poiid":"B2094757D064A6FA489A","title":"盆盆香","lon":"121.55766","lat":"31.20082","category":"71","category_name":"四川菜","address":"浦东新区龙汇路322号(白杨路龙汇路)"},{"poiid":"B2094750D768A7F44092","title":"超级鸡车(龙阳路店)","lon":"121.563","lat":"31.2021","category":"68","category_name":"快餐厅","address":"浦东新区龙阳路2000号107室(近地铁7号线龙阳路站)"},{"poiid":"B2094757D064A2F4459D","title":"味千拉面 银霄路店","lon":"121.558824054","lat":"31.204173793","category":"95","category_name":"日本料理","address":"浦东新区银霄路393号百安居1楼园艺区B区(近龙阳路)"},{"poiid":"B2094654DB6BABFA449B","title":"上海新国际博览中心(南门)","lon":"121.5652","lat":"31.20455","category":"183","category_name":"展览馆","address":"龙阳路2345"},{"poiid":"B2094757D069A1FE4899","title":"丽君桌球俱乐部","lon":"121.55648","lat":"31.20028","category":"248","category_name":"生活娱乐","address":"浦东新区龙汇路300号新都汇美食广场B1楼(近白杨路)"},{"poiid":"B209475CDA6AAAFE409E","title":"磁悬浮列车","lon":"121.56198","lat":"31.20154","category":"607","category_name":"一般景点","address":"上海磁悬浮列车地址：磁浮龙阳路站在龙阳路2100号。磁浮机场站在上海浦东国际机场候机楼东侧。"},{"poiid":"B2094655D26FA6FD4198","title":"上海新国际博览中心(西二门)","lon":"121.56411","lat":"31.20592","category":"183","category_name":"展览馆","address":""},{"poiid":"B2094752D36EA2FD439E","title":"上海浦东机场","lon":"121.562057","lat":"31.194992","category":"500","category_name":"未知分类","address":null},{"poiid":"B2094757D465A4FD479E","title":"重庆鸡公煲 芳华路店","lon":"121.560450054","lat":"31.196370793","category":"247","category_name":"餐饮美食","address":"浦东新区芳华路861号(近629路终点站)"},{"poiid":"B2094752D76EA4F5419A","title":"浦东国际机场T2","lon":"121.560965","lat":"31.199975","category":"252","category_name":"楼宇机构","address":null},{"poiid":"B2094757D76CA3FE469C","title":"麦咖啡 龙阳路店 McCafe","lon":"121.55976","lat":"31.20371","category":"65","category_name":"咖啡厅","address":"浦东新区龙阳路2100号1楼132室(近龙阳路地铁站)"},{"poiid":"B2094757D66CAAFE419D","title":"汤豪士","lon":"121.555875","lat":"31.20045","category":"247","category_name":"餐饮美食","address":"上海龙汇路"},{"poiid":"B2094750DB6EAAF54398","title":"牛灿炭火烧肉","lon":"121.557212","lat":"31.201364","category":"269","category_name":"烧烤","address":"浦东新区龙汇路364号新都汇美食广场(近白杨路)"},{"poiid":"B2094654DA6AA0FF489A","title":"花木久远小区","lon":"121.56032","lat":"31.19588","category":"47","category_name":"住宅区","address":"芳华路478弄1-86号"},{"poiid":"B2094757D66AA6FE499D","title":"云龙韩国料理 龙阳店","lon":"121.55443","lat":"31.19975","category":"96","category_name":"韩国料理","address":"浦东新区龙汇路300号新都汇美食广场118号(近白杨路)"},{"poiid":"B2094751D36FA6FC439A","title":"老昌兴苏州汤包馆(芳华路店)","lon":"121.55969","lat":"31.19577","category":"68","category_name":"快餐厅","address":"浦东新区芳华路466号"},{"poiid":"B2094654DA6AA0FF4999","title":"东东骨头王火锅城 芳华路店","lon":"121.55962442862","lat":"31.195987319126","category":"86","category_name":"火锅店","address":"浦东新区芳华路448号(近白杨路)"},{"poiid":"B2094757D76CA0FF419E","title":"大娘水饺 龙阳路店","lon":"121.556349","lat":"31.203563","category":"68","category_name":"快餐厅","address":"浦东新区龙阳路2000号(近地铁2号线龙阳路站)"}]