[{"poiid":"B2094757D16CA1FF419E","title":"龚路","lon":"121.684123","lat":"31.261737","category":"500","category_name":"未知分类","address":"上海市浦东新区川沙路816号(金海路口)"},{"poiid":"B2094655D26BA4F44493","title":"银丰苑","lon":"121.68941","lat":"31.266304","category":"47","category_name":"住宅区","address":"上海市浦东新区银峰路199弄1-164号"},{"poiid":"B2094655D36CA0FD4792","title":"金钻路海松路","lon":"121.67915","lat":"31.27706","category":"38","category_name":"公交车站","address":""},{"poiid":"B2094655D36CA6FD4699","title":"龚华路龚丰路","lon":"121.68848","lat":"31.25777","category":"38","category_name":"公交车站","address":""},{"poiid":"B2094757D06AA4F94193","title":"浦东殡仪馆","lon":"121.69492","lat":"31.27649","category":"620","category_name":"丧葬","address":"浦东新区龚路支路1401号"},{"poiid":"B2094757D16BA3F8419B","title":"天长墓园","lon":"121.68140845","lat":"31.2666481506","category":"500","category_name":"未知分类","address":"上海金海路"},{"poiid":"B2094654D569A2FD4892","title":"晨光理发","lon":"121.69316","lat":"31.26503","category":"148","category_name":"美容美发店","address":""},{"poiid":"B2094757D16BA7FD439F","title":"爵鼎鸡(龚路店)","lon":"121.68375745","lat":"31.263124074","category":"87","category_name":"特色／地方风味餐厅","address":"浦东新区龚华路479弄龚路新城旁(近龚丰路)"},{"poiid":"B2094654D569A3F54293","title":"龙王庙","lon":"121.6964","lat":"31.2751","category":"244","category_name":"寺庙道观","address":"曹路镇"},{"poiid":"B2094655D36CA2FF469C","title":"钦公塘大码头","lon":"121.70224","lat":"31.26356","category":"38","category_name":"公交车站","address":""},{"poiid":"B2094757D16BA1FA479C","title":"中国邮政上海中心局","lon":"121.69853345","lat":"31.2692282063","category":"500","category_name":"未知分类","address":"上海龙东大道4877号"},{"poiid":"B2094654DB6BA1FA469A","title":"联华(秦家港路)","lon":"121.69656","lat":"31.27242","category":"118","category_name":"超级市场","address":""},{"poiid":"B2094654D569A3F44793","title":"沈氏日用杂货服务社","lon":"121.69127","lat":"31.26375","category":"117","category_name":"便民商店/便利店","address":""},{"poiid":"B2094757D46EA5F54699","title":"NORTHERN诺森 龚华路店","lon":"121.6867239","lat":"31.2601424","category":"112","category_name":"糕饼店","address":"浦东新区龚华路426号"},{"poiid":"B2094655D36DA0FB429F","title":"银峰路溪平路","lon":"121.68816","lat":"31.26582","category":"38","category_name":"公交车站","address":""},{"poiid":"B2094654D569A3FF4498","title":"光明综合商店","lon":"121.69245","lat":"31.26015","category":"117","category_name":"便民商店/便利店","address":"永和村6队"},{"poiid":"B2094655D36DA2F44292","title":"溪平路桥","lon":"121.68976","lat":"31.26297","category":"250","category_name":"公园户外","address":""},{"poiid":"B2094654D569A2FD4492","title":"龚路中心小学","lon":"121.68437","lat":"31.26647","category":"56","category_name":"小学","address":"浦东新区龚华路69号"},{"poiid":"B2094757D165A2F5479C","title":"丰怡苑","lon":"121.68333","lat":"31.266808","category":"252","category_name":"楼宇机构","address":"上海龚华路50弄"},{"poiid":"B2094654D569A3F5419F","title":"前锋企业","lon":"121.69685","lat":"31.27254","category":"263","category_name":"公司","address":""},{"poiid":"B2094757D16EA1FF439B","title":"989路华东路龙东大道(王港)站","lon":"121.68770945","lat":"31.2679101778","category":"500","category_name":"未知分类","address":"上海华东路龙东大道"},{"poiid":"B2094757D76EA3FE439D","title":"来伊份 龚华路店","lon":"121.68682","lat":"31.26064","category":"68","category_name":"快餐厅","address":"浦东新区龚华路100号(近龚兴路)"},{"poiid":"B2094654D569A2FE419B","title":"龚路幼儿园","lon":"121.68589","lat":"31.26281","category":"57","category_name":"幼儿园","address":"浦东新区龚华路265号(龚路公路龚新路)"},{"poiid":"B2094654D569A2FF4098","title":"中国电信龚路营业处","lon":"121.68634","lat":"31.26249","category":"151","category_name":"电讯营业厅","address":"龚华路295号"},{"poiid":"B2094757D06AA6FB489A","title":"缘中林庄园","lon":"121.692482","lat":"31.28229","category":"76","category_name":"上海菜","address":"浦东新区东川公路3229号(近金海路龙王庙)"},{"poiid":"B2094655D36CA6FD4592","title":"龚华路秦家港路","lon":"121.68373","lat":"31.26751","category":"38","category_name":"公交车站","address":""},{"poiid":"B2094654DB64A6FF4493","title":"中国移动龚路镇营业厅","lon":"121.68645","lat":"31.26116","category":"151","category_name":"电讯营业厅","address":"浦东新区龚华路391-393号"},{"poiid":"B209475DDA6EA3F9479E","title":"iapm","lon":"121.708808","lat":"31.265434","category":"247","category_name":"餐饮美食","address":"上海市 淮海中路999号"},{"poiid":"B2094655D36CA0FD4793","title":"金钻路金海路","lon":"121.68237","lat":"31.27092","category":"38","category_name":"公交车站","address":""},{"poiid":"B2094757D16AA1FF4999","title":"金砖苑 海顺路359弄","lon":"121.68340345","lat":"31.2759013503","category":"252","category_name":"楼宇机构","address":"上海浦东新区曹路镇金砖苑海顺路359弄"},{"poiid":"B2094654D569A3F8459E","title":"龚华公寓","lon":"121.68587","lat":"31.260445","category":"47","category_name":"住宅区","address":"龚华路406弄"},{"poiid":"B2094654D569A3F8489B","title":"新偶像专业美容美发","lon":"121.68589","lat":"31.2615","category":"148","category_name":"美容美发店","address":"龚华路356号"},{"poiid":"B2094654D569A2FD4992","title":"白切羊肉","lon":"121.68635","lat":"31.26166","category":"117","category_name":"便民商店/便利店","address":""},{"poiid":"B2094655D36CA6FD4599","title":"龚路支路龚华路","lon":"121.68497","lat":"31.26194","category":"38","category_name":"公交车站","address":""},{"poiid":"B2094757D164A7F5419E","title":"龚路支路","lon":"121.687202","lat":"31.259098","category":"500","category_name":"未知分类","address":"上海龚路支路溪平路"},{"poiid":"B2094654D569A2FE4293","title":"中国农业银行(龚华路)","lon":"121.68708","lat":"31.26002","category":"150","category_name":"银行","address":""},{"poiid":"B2094654D569A2FD4998","title":"心动24小时便利","lon":"121.68635","lat":"31.26039","category":"117","category_name":"便民商店/便利店","address":""},{"poiid":"B2094757D164A0FC4192","title":"徐家汇汇联商厦永和大王","lon":"121.69067325","lat":"31.258733179","category":"500","category_name":"未知分类","address":"上海天钥桥路40-90号"},{"poiid":"B2094654D569A3FF499B","title":"曹路镇卫生院","lon":"121.68266","lat":"31.25825","category":"162","category_name":"医院","address":"曹路镇"},{"poiid":"B2094654D569A2FE4292","title":"上海第二工业大学附属龚路中学","lon":"121.67911","lat":"31.26514","category":"55","category_name":"中学","address":""},{"poiid":"B2094757D06AA0F94592","title":"陆家浜路大兴街车站","lon":"121.694654","lat":"31.276764","category":"500","category_name":"未知分类","address":"上海43路"},{"poiid":"B2094757D16CA6F54898","title":"浦东新区肺科医院","lon":"121.67921","lat":"31.26676","category":"162","category_name":"医院","address":"上海浦东新区龚路镇北直庙后4号  "},{"poiid":"B2094655D36CA5FE4092","title":"川沙路龚路公路","lon":"121.67843","lat":"31.26137","category":"38","category_name":"公交车站","address":""},{"poiid":"B2094750DA69AAFA469D","title":"大湾名苑","lon":"121.692224","lat":"31.252076","category":"47","category_name":"住宅区","address":"浦东新区川沙路2015弄"},{"poiid":"B2094752D66CA2F5489F","title":"上海第二工业大学","lon":"121.700194","lat":"31.256233","category":"253","category_name":"校园生活","address":"上海市浦东新区金海路2360号"},{"poiid":"B2094655D36DA0FF4792","title":"迅建村","lon":"121.69363","lat":"31.28074","category":"38","category_name":"公交车站","address":""},{"poiid":"B2094654DB6AA3FB449B","title":"龚丰路派出所","lon":"121.68734","lat":"31.25768","category":"609","category_name":"警察局","address":"上海市浦东新区龚丰路295号"},{"poiid":"B2094757D169A7F9489E","title":"浦东新区结核病防治院","lon":"121.68252","lat":"31.2668","category":"500","category_name":"未知分类","address":"浦东新区龚路镇北首庙后4号"},{"poiid":"B2094654D569A3FF429F","title":"上海龚路镇畜牧兽医站","lon":"121.68107","lat":"31.26559","category":"162","category_name":"医院","address":"龚路镇直一村"},{"poiid":"B2094750D464AAF9409E","title":"金桥国际","lon":"121.687744","lat":"31.257833","category":"500","category_name":"未知分类","address":null},{"poiid":"B2094757D16CA1FF419E","title":"龚路","lon":"121.684123","lat":"31.261737","category":"500","category_name":"未知分类","address":"上海市浦东新区川沙路816号(金海路口)"},{"poiid":"B2094655D26BA4F44493","title":"银丰苑","lon":"121.68941","lat":"31.266304","category":"47","category_name":"住宅区","address":"上海市浦东新区银峰路199弄1-164号"},{"poiid":"B2094655D36CA0FD4792","title":"金钻路海松路","lon":"121.67915","lat":"31.27706","category":"38","category_name":"公交车站","address":""},{"poiid":"B2094655D36CA6FD4699","title":"龚华路龚丰路","lon":"121.68848","lat":"31.25777","category":"38","category_name":"公交车站","address":""},{"poiid":"B2094757D06AA4F94193","title":"浦东殡仪馆","lon":"121.69492","lat":"31.27649","category":"620","category_name":"丧葬","address":"浦东新区龚路支路1401号"},{"poiid":"B2094757D16BA3F8419B","title":"天长墓园","lon":"121.68140845","lat":"31.2666481506","category":"500","category_name":"未知分类","address":"上海金海路"},{"poiid":"B2094654D569A2FD4892","title":"晨光理发","lon":"121.69316","lat":"31.26503","category":"148","category_name":"美容美发店","address":""},{"poiid":"B2094757D16BA7FD439F","title":"爵鼎鸡(龚路店)","lon":"121.68375745","lat":"31.263124074","category":"87","category_name":"特色／地方风味餐厅","address":"浦东新区龚华路479弄龚路新城旁(近龚丰路)"},{"poiid":"B2094654D569A3F54293","title":"龙王庙","lon":"121.6964","lat":"31.2751","category":"244","category_name":"寺庙道观","address":"曹路镇"},{"poiid":"B2094655D36CA2FF469C","title":"钦公塘大码头","lon":"121.70224","lat":"31.26356","category":"38","category_name":"公交车站","address":""},{"poiid":"B2094757D16BA1FA479C","title":"中国邮政上海中心局","lon":"121.69853345","lat":"31.2692282063","category":"500","category_name":"未知分类","address":"上海龙东大道4877号"},{"poiid":"B2094654DB6BA1FA469A","title":"联华(秦家港路)","lon":"121.69656","lat":"31.27242","category":"118","category_name":"超级市场","address":""},{"poiid":"B2094654D569A3F44793","title":"沈氏日用杂货服务社","lon":"121.69127","lat":"31.26375","category":"117","category_name":"便民商店/便利店","address":""},{"poiid":"B2094757D46EA5F54699","title":"NORTHERN诺森 龚华路店","lon":"121.6867239","lat":"31.2601424","category":"112","category_name":"糕饼店","address":"浦东新区龚华路426号"},{"poiid":"B2094655D36DA0FB429F","title":"银峰路溪平路","lon":"121.68816","lat":"31.26582","category":"38","category_name":"公交车站","address":""},{"poiid":"B2094654D569A3FF4498","title":"光明综合商店","lon":"121.69245","lat":"31.26015","category":"117","category_name":"便民商店/便利店","address":"永和村6队"},{"poiid":"B2094655D36DA2F44292","title":"溪平路桥","lon":"121.68976","lat":"31.26297","category":"250","category_name":"公园户外","address":""},{"poiid":"B2094654D569A2FD4492","title":"龚路中心小学","lon":"121.68437","lat":"31.26647","category":"56","category_name":"小学","address":"浦东新区龚华路69号"},{"poiid":"B2094757D165A2F5479C","title":"丰怡苑","lon":"121.68333","lat":"31.266808","category":"252","category_name":"楼宇机构","address":"上海龚华路50弄"},{"poiid":"B2094654D569A3F5419F","title":"前锋企业","lon":"121.69685","lat":"31.27254","category":"263","category_name":"公司","address":""},{"poiid":"B2094757D16EA1FF439B","title":"989路华东路龙东大道(王港)站","lon":"121.68770945","lat":"31.2679101778","category":"500","category_name":"未知分类","address":"上海华东路龙东大道"},{"poiid":"B2094757D76EA3FE439D","title":"来伊份 龚华路店","lon":"121.68682","lat":"31.26064","category":"68","category_name":"快餐厅","address":"浦东新区龚华路100号(近龚兴路)"},{"poiid":"B2094654D569A2FE419B","title":"龚路幼儿园","lon":"121.68589","lat":"31.26281","category":"57","category_name":"幼儿园","address":"浦东新区龚华路265号(龚路公路龚新路)"},{"poiid":"B2094654D569A2FF4098","title":"中国电信龚路营业处","lon":"121.68634","lat":"31.26249","category":"151","category_name":"电讯营业厅","address":"龚华路295号"},{"poiid":"B2094757D06AA6FB489A","title":"缘中林庄园","lon":"121.692482","lat":"31.28229","category":"76","category_name":"上海菜","address":"浦东新区东川公路3229号(近金海路龙王庙)"},{"poiid":"B2094655D36CA6FD4592","title":"龚华路秦家港路","lon":"121.68373","lat":"31.26751","category":"38","category_name":"公交车站","address":""},{"poiid":"B2094654DB64A6FF4493","title":"中国移动龚路镇营业厅","lon":"121.68645","lat":"31.26116","category":"151","category_name":"电讯营业厅","address":"浦东新区龚华路391-393号"},{"poiid":"B209475DDA6EA3F9479E","title":"iapm","lon":"121.708808","lat":"31.265434","category":"247","category_name":"餐饮美食","address":"上海市 淮海中路999号"},{"poiid":"B2094655D36CA0FD4793","title":"金钻路金海路","lon":"121.68237","lat":"31.27092","category":"38","category_name":"公交车站","address":""},{"poiid":"B2094757D16AA1FF4999","title":"金砖苑 海顺路359弄","lon":"121.68340345","lat":"31.2759013503","category":"252","category_name":"楼宇机构","address":"上海浦东新区曹路镇金砖苑海顺路359弄"},{"poiid":"B2094654D569A3F8459E","title":"龚华公寓","lon":"121.68587","lat":"31.260445","category":"47","category_name":"住宅区","address":"龚华路406弄"},{"poiid":"B2094654D569A3F8489B","title":"新偶像专业美容美发","lon":"121.68589","lat":"31.2615","category":"148","category_name":"美容美发店","address":"龚华路356号"},{"poiid":"B2094654D569A2FD4992","title":"白切羊肉","lon":"121.68635","lat":"31.26166","category":"117","category_name":"便民商店/便利店","address":""},{"poiid":"B2094655D36CA6FD4599","title":"龚路支路龚华路","lon":"121.68497","lat":"31.26194","category":"38","category_name":"公交车站","address":""},{"poiid":"B2094757D164A7F5419E","title":"龚路支路","lon":"121.687202","lat":"31.259098","category":"500","category_name":"未知分类","address":"上海龚路支路溪平路"},{"poiid":"B2094654D569A2FE4293","title":"中国农业银行(龚华路)","lon":"121.68708","lat":"31.26002","category":"150","category_name":"银行","address":""},{"poiid":"B2094654D569A2FD4998","title":"心动24小时便利","lon":"121.68635","lat":"31.26039","category":"117","category_name":"便民商店/便利店","address":""},{"poiid":"B2094757D164A0FC4192","title":"徐家汇汇联商厦永和大王","lon":"121.69067325","lat":"31.258733179","category":"500","category_name":"未知分类","address":"上海天钥桥路40-90号"},{"poiid":"B2094654D569A3FF499B","title":"曹路镇卫生院","lon":"121.68266","lat":"31.25825","category":"162","category_name":"医院","address":"曹路镇"},{"poiid":"B2094654D569A2FE4292","title":"上海第二工业大学附属龚路中学","lon":"121.67911","lat":"31.26514","category":"55","category_name":"中学","address":""},{"poiid":"B2094757D06AA0F94592","title":"陆家浜路大兴街车站","lon":"121.694654","lat":"31.276764","category":"500","category_name":"未知分类","address":"上海43路"},{"poiid":"B2094757D16CA6F54898","title":"浦东新区肺科医院","lon":"121.67921","lat":"31.26676","category":"162","category_name":"医院","address":"上海浦东新区龚路镇北直庙后4号  "},{"poiid":"B2094655D36CA5FE4092","title":"川沙路龚路公路","lon":"121.67843","lat":"31.26137","category":"38","category_name":"公交车站","address":""},{"poiid":"B2094750DA69AAFA469D","title":"大湾名苑","lon":"121.692224","lat":"31.252076","category":"47","category_name":"住宅区","address":"浦东新区川沙路2015弄"},{"poiid":"B2094752D66CA2F5489F","title":"上海第二工业大学","lon":"121.700194","lat":"31.256233","category":"253","category_name":"校园生活","address":"上海市浦东新区金海路2360号"},{"poiid":"B2094655D36DA0FF4792","title":"迅建村","lon":"121.69363","lat":"31.28074","category":"38","category_name":"公交车站","address":""},{"poiid":"B2094654DB6AA3FB449B","title":"龚丰路派出所","lon":"121.68734","lat":"31.25768","category":"609","category_name":"警察局","address":"上海市浦东新区龚丰路295号"},{"poiid":"B2094757D169A7F9489E","title":"浦东新区结核病防治院","lon":"121.68252","lat":"31.2668","category":"500","category_name":"未知分类","address":"浦东新区龚路镇北首庙后4号"},{"poiid":"B2094654D569A3FF429F","title":"上海龚路镇畜牧兽医站","lon":"121.68107","lat":"31.26559","category":"162","category_name":"医院","address":"龚路镇直一村"},{"poiid":"B2094750D464AAF9409E","title":"金桥国际","lon":"121.687744","lat":"31.257833","category":"500","category_name":"未知分类","address":null}]