[
  {
    "poiid": "B2094655D26BA7FF469B",
    "title": "安诚财险",
    "lon": "121.47646",
    "lat": "31.27033",
    "category": "219",
    "category_name": "其他",
    "address": "花园路88号华博科技大楼8层"
  },
  {
    "poiid": "B2094655D26CAAF8419D",
    "title": "太平人寿保险有限公司上海分公司(石门一路)",
    "lon": "121.46246",
    "lat": "31.22795",
    "category": "219",
    "category_name": "其他",
    "address": "静安区石门一路211号旺旺大厦5、6、7层"
  },
  {
    "poiid": "B2094654D56CA7F8449C",
    "title": "恒泰证券公司上海祥德路证券营业部",
    "lon": "121.49166",
    "lat": "31.271",
    "category": "219",
    "category_name": "其他",
    "address": "祥德路383号磊博商务楼316-320"
  },
  {
    "poiid": "B2094655D264A7FD4393",
    "title": "中意人寿",
    "lon": "121.49094",
    "lat": "31.24838",
    "category": "219",
    "category_name": "其他",
    "address": "吴淞路218号宝矿国际大厦"
  },
  {
    "poiid": "B2094654DA6DA2FB489E",
    "title": "爱建证券有限责任公司零陵路证券营业部",
    "lon": "121.44688",
    "lat": "31.18803",
    "category": "219",
    "category_name": "其他",
    "address": "零陵路621"
  },
  {
    "poiid": "B2094655D26BA5FA4799",
    "title": "中德安联",
    "lon": "121.50587",
    "lat": "31.22836",
    "category": "219",
    "category_name": "其他",
    "address": "浦明路132"
  },
  {
    "poiid": "B2094655D26AA7F5419A",
    "title": "中信游船",
    "lon": "121.50117",
    "lat": "31.22559",
    "category": "219",
    "category_name": "其他",
    "address": "黄浦区外马路19号(近东门路)"
  },
  {
    "poiid": "B2094655D26BABFF449F",
    "title": "光大期货有限公司",
    "lon": "121.44815",
    "lat": "31.23072",
    "category": "219",
    "category_name": "其他",
    "address": "新闸路1518"
  },
  {
    "poiid": "B2094654D56FAAF84398",
    "title": "中信建投证券有限公司营口路证券营业部",
    "lon": "121.53231",
    "lat": "31.29874",
    "category": "219",
    "category_name": "其他",
    "address": "营口路818"
  },
  {
    "poiid": "B2094654DA6CA5F54598",
    "title": "申银万国证券股份有限公司(昌化路)",
    "lon": "121.4547",
    "lat": "31.23427",
    "category": "219",
    "category_name": "其他",
    "address": ""
  },
  {
    "poiid": "B2094654D56DA5FD439D",
    "title": "华安保险(凉城路)",
    "lon": "121.46952",
    "lat": "31.2831",
    "category": "219",
    "category_name": "其他",
    "address": "凉城路205"
  },
  {
    "poiid": "B2094654DA6EA1F9499C",
    "title": "中信证券(复兴中路)",
    "lon": "121.46478",
    "lat": "31.21389",
    "category": "219",
    "category_name": "其他",
    "address": "复兴中路593号"
  },
  {
    "poiid": "B2094654DA6EA6F84299",
    "title": "兴业证券公司上海金陵东路营业部",
    "lon": "121.48239",
    "lat": "31.22826",
    "category": "219",
    "category_name": "其他",
    "address": "金陵东路368号金陵商厦2-3层"
  },
  {
    "poiid": "B2094654D56CA6F44393",
    "title": "中国人寿保险股份有限公司(青云路)",
    "lon": "121.47425",
    "lat": "31.26421",
    "category": "219",
    "category_name": "其他",
    "address": "青云路266号2层"
  },
  {
    "poiid": "B2094757DA69A3F44698",
    "title": "歌诗达邮轮",
    "lon": "121.47661783258",
    "lat": "31.220618610093",
    "category": "219",
    "category_name": "其他",
    "address": "湖滨路222号企业天地1号楼"
  },
  {
    "poiid": "B2094654DA6EA4F5499C",
    "title": "瑞泰人寿保险有限公司上海分公司",
    "lon": "121.47171",
    "lat": "31.22249",
    "category": "219",
    "category_name": "其他",
    "address": "淮海中路398号世纪巴士大厦19ABC1、20C2"
  },
  {
    "poiid": "B2094655D265A0FE4499",
    "title": "光大证券有限公司",
    "lon": "121.51765",
    "lat": "31.22269",
    "category": "219",
    "category_name": "其他",
    "address": "浦东南路1428"
  },
  {
    "poiid": "B2094654DA69ABFD429C",
    "title": "海通证券崂山西路营业部",
    "lon": "121.51769",
    "lat": "31.226",
    "category": "219",
    "category_name": "其他",
    "address": "崂山西路1021"
  },
  {
    "poiid": "B2094654DA6FA7FE4393",
    "title": "上投摩根基金管理有限公司",
    "lon": "121.49967",
    "lat": "31.23463",
    "category": "219",
    "category_name": "其他",
    "address": "富城路99号震旦大厦20层"
  },
  {
    "poiid": "B2094654DB6BABFC419B",
    "title": "国海富兰克林基金管理有限公司",
    "lon": "121.49968",
    "lat": "31.23463",
    "category": "219",
    "category_name": "其他",
    "address": "富城路99号震旦大厦17层01、18层01-02、04"
  },
  {
    "poiid": "B2094654DA68A7F5439D",
    "title": "国元证券有限责任公司斜土路证券营业部",
    "lon": "121.47708",
    "lat": "31.20336",
    "category": "219",
    "category_name": "其他",
    "address": "斜土路500号"
  },
  {
    "poiid": "B2094654DA68A7F54799",
    "title": "鲁班路供电营业厅",
    "lon": "121.47532",
    "lat": "31.2035",
    "category": "219",
    "category_name": "其他",
    "address": "鲁班路317号"
  },
  {
    "poiid": "B2094654DA68A2F94892",
    "title": "南车站路供电营业厅",
    "lon": "121.49192",
    "lat": "31.20775",
    "category": "219",
    "category_name": "其他",
    "address": "南车站路298"
  },
  {
    "poiid": "B2094654DB6AA4F54993",
    "title": "大通证券",
    "lon": "121.4324",
    "lat": "31.27252",
    "category": "219",
    "category_name": "其他",
    "address": "广中西路988号3层"
  },
  {
    "poiid": "B2094654DA6EA5FC479F",
    "title": "中国人寿保险股份有限公司(人民路)",
    "lon": "121.48263",
    "lat": "31.22589",
    "category": "219",
    "category_name": "其他",
    "address": "人民路858号中国人寿大厦"
  },
  {
    "poiid": "B2094750D36BA5F4469D",
    "title": "三甲港海滨乐场",
    "lon": "121.76526643813",
    "lat": "31.209387666855",
    "category": "219",
    "category_name": "其他",
    "address": "华夏东路东首三甲港海滨广场"
  },
  {
    "poiid": "B2094757D06FA4FE4593",
    "title": "和越式火车头",
    "lon": "121.47637548",
    "lat": "31.2326314572",
    "category": "219",
    "category_name": "其他",
    "address": "黄浦区西藏中路268号来福士广场B1楼(近福州路)"
  },
  {
    "poiid": "B2094757D068A1F44792",
    "title": "hyatt on the bund",
    "lon": "121.49350738",
    "lat": "31.245241165",
    "category": "219",
    "category_name": "其他",
    "address": "上海虹口区黄浦路199号"
  },
  {
    "poiid": "B2094654DA6FA2FC459E",
    "title": "中国太平洋人寿保险股份有限公司",
    "lon": "121.46898",
    "lat": "31.24593",
    "category": "219",
    "category_name": "其他",
    "address": "天目中路325号"
  },
  {
    "poiid": "B2094654DA6BA1F9439F",
    "title": "中国平安(上丰路)",
    "lon": "121.66452",
    "lat": "31.23766",
    "category": "219",
    "category_name": "其他",
    "address": "上丰路1158号2号门"
  },
  {
    "poiid": "B2094655D265ABF5489C",
    "title": "中国太平洋人寿保险人身险营业部",
    "lon": "121.469",
    "lat": "31.24592",
    "category": "219",
    "category_name": "其他",
    "address": "天目中路325号"
  },
  {
    "poiid": "B2094655D268ABFD469E",
    "title": "证大五道口金融中心",
    "lon": "121.55009",
    "lat": "31.22604",
    "category": "219",
    "category_name": "其他",
    "address": "东新区丁香路"
  },
  {
    "poiid": "B2094655D26DA0FC4699",
    "title": "中国大地财产保险股份有限公司",
    "lon": "121.55002",
    "lat": "31.22676",
    "category": "219",
    "category_name": "其他",
    "address": "民生路1199弄证大五道口广场金融大厦8层"
  },
  {
    "poiid": "B2094654DA69A2F4489C",
    "title": "太平人寿保险有限公司",
    "lon": "121.55068",
    "lat": "31.22429",
    "category": "219",
    "category_name": "其他",
    "address": "民生路1399号太平人寿大厦4、7-10、17-18层"
  },
  {
    "poiid": "B2094655D36CA3F5439E",
    "title": "物损交通事故保险理赔服务中心星州分中心",
    "lon": "121.45843",
    "lat": "31.12496",
    "category": "219",
    "category_name": "其他",
    "address": "徐梅路180临"
  },
  {
    "poiid": "B2094655D265A5F84299",
    "title": "中国人民财产保险上海市分公司直属支公司",
    "lon": "121.48396",
    "lat": "31.24194",
    "category": "219",
    "category_name": "其他",
    "address": "南苏州路333号华隆大厦18层"
  },
  {
    "poiid": "B2094654DA6FABFC4992",
    "title": "海通证券香港路营业部",
    "lon": "121.4856",
    "lat": "31.24246",
    "category": "219",
    "category_name": "其他",
    "address": "香港路117号"
  },
  {
    "poiid": "B2094654DA6FAAF5489F",
    "title": "中华联合财产保险股份有限公司上海分公司",
    "lon": "121.46685",
    "lat": "31.23414",
    "category": "219",
    "category_name": "其他",
    "address": "成都北路600号中华保险华盛大厦"
  },
  {
    "poiid": "B2094757D165ABF84193",
    "title": "飞利浦游船",
    "lon": "121.511839103",
    "lat": "31.2496129875",
    "category": "219",
    "category_name": "其他",
    "address": "上海秦皇岛世博水门"
  },
  {
    "poiid": "B2094654D564A2FE489B",
    "title": "中国平安人寿保险股份有限公司上海分公司培训基地",
    "lon": "121.39952",
    "lat": "31.16934",
    "category": "219",
    "category_name": "其他",
    "address": "虹梅路2008"
  },
  {
    "poiid": "B2094654D469AAFC4392",
    "title": "中国人寿保险股份有限公司(淞滨路)",
    "lon": "121.49372",
    "lat": "31.37247",
    "category": "219",
    "category_name": "其他",
    "address": "淞滨路387"
  },
  {
    "poiid": "B2094654D46AA2FE409E",
    "title": "中国平安(淞滨路)",
    "lon": "121.49472",
    "lat": "31.37244",
    "category": "219",
    "category_name": "其他",
    "address": ""
  },
  {
    "poiid": "B2094654D469AAFC439B",
    "title": "中国太平洋财产保险股份有限公司上海市宝山支公司",
    "lon": "121.48984",
    "lat": "31.37047",
    "category": "219",
    "category_name": "其他",
    "address": "淞滨路779号"
  },
  {
    "poiid": "B2094654DB6BA4F9479E",
    "title": "东方证券(陆家浜路)",
    "lon": "121.50071",
    "lat": "31.21116",
    "category": "219",
    "category_name": "其他",
    "address": "陆家浜路307"
  },
  {
    "poiid": "B2094654DA6FA4FA4893",
    "title": "上海国际信托有限公司",
    "lon": "121.48783",
    "lat": "31.2372",
    "category": "219",
    "category_name": "其他",
    "address": "九江路111号上投大厦"
  },
  {
    "poiid": "B2094654DA68A3FB449D",
    "title": "世纪证券上海威海路营业部",
    "lon": "121.47067",
    "lat": "31.22843",
    "category": "219",
    "category_name": "其他",
    "address": "威海路48号中国民生银行大厦24-25层"
  },
  {
    "poiid": "B2094654D568A1FA439B",
    "title": "上海证券交易所卫星通信地球站",
    "lon": "121.60694",
    "lat": "31.31989",
    "category": "219",
    "category_name": "其他",
    "address": "台中北路8"
  },
  {
    "poiid": "B2094654D468A7FA429A",
    "title": "中国平安(崇明县劳动和社会保障局南)",
    "lon": "121.40213",
    "lat": "31.62244",
    "category": "219",
    "category_name": "其他",
    "address": ""
  },
  {
    "poiid": "B2094654DB6AA6F9449B",
    "title": "中国太平洋财产保险股份有限公司",
    "lon": "121.40477",
    "lat": "31.63046",
    "category": "219",
    "category_name": "其他",
    "address": "东门路43"
  },
  {
    "poiid": "B2094654DA64A2F8449E",
    "title": "中国人寿保险公司上海市闵行支公司",
    "lon": "121.36589",
    "lat": "31.10495",
    "category": "219",
    "category_name": "其他",
    "address": "莘谭路580"
  },
  {
    "poiid": "B2094654DB64A2FF459D",
    "title": "中国平安人寿保险(莘松路)",
    "lon": "121.37267",
    "lat": "31.10564",
    "category": "219",
    "category_name": "其他",
    "address": "莘庄镇"
  },
  {
    "poiid": "B2094654DA65A3FD469F",
    "title": "上海证券有限责任公司",
    "lon": "121.37297",
    "lat": "31.10543",
    "category": "219",
    "category_name": "其他",
    "address": "莘西路319"
  },
  {
    "poiid": "B2094654D564AAF84592",
    "title": "中国平安保险公司",
    "lon": "121.45785",
    "lat": "31.22194",
    "category": "219",
    "category_name": "其他",
    "address": "巨鹿路417号欣广大厦1205"
  },
  {
    "poiid": "B2094655D26EABF44293",
    "title": "中国平安人寿保险股份有限公司上海分公司",
    "lon": "121.45785",
    "lat": "31.22194",
    "category": "219",
    "category_name": "其他",
    "address": "巨鹿路417号欣广大厦1-8层"
  },
  {
    "poiid": "B2094654DA69ABF5479F",
    "title": "上海期货交易所",
    "lon": "121.53494",
    "lat": "31.22595",
    "category": "219",
    "category_name": "其他",
    "address": "浦东新区松林路300号"
  },
  {
    "poiid": "B2094654DA6FA4FB4193",
    "title": "上海市电力公司客户服务中心",
    "lon": "121.48645",
    "lat": "31.23793",
    "category": "219",
    "category_name": "其他",
    "address": "南京东路181"
  },
  {
    "poiid": "B2094654DA6DA5FD419D",
    "title": "齐鲁证券有限公司(建国中路)",
    "lon": "121.47095",
    "lat": "31.20962",
    "category": "219",
    "category_name": "其他",
    "address": "建国中路29-31号国信商务大厦1-2层"
  },
  {
    "poiid": "B2094654DB65A1FA409D",
    "title": "财通证券襄阳南路证券营业厅",
    "lon": "121.45828",
    "lat": "31.20415",
    "category": "219",
    "category_name": "其他",
    "address": "襄阳南路485、489号金环大厦"
  },
  {
    "poiid": "B2094654DB6BA2F8449A",
    "title": "国泰君安证券股份有限公司(杨树浦路)",
    "lon": "121.55184",
    "lat": "31.26804",
    "category": "219",
    "category_name": "其他",
    "address": "杨树浦路2525号"
  },
  {
    "poiid": "B2094654DB6AA3FF4593",
    "title": "东京海上保险上海分公司",
    "lon": "121.50737",
    "lat": "31.24024",
    "category": "219",
    "category_name": "其他",
    "address": "浦东新区陆家嘴环路1000号汇丰大厦38楼"
  },
  {
    "poiid": "B2094654DA6FA7FD419A",
    "title": "中国太平洋保险(集团)股份有限公司",
    "lon": "121.50402",
    "lat": "31.23916",
    "category": "219",
    "category_name": "其他",
    "address": "银城中路188交银金融大厦"
  },
  {
    "poiid": "B2094654DA69A7F44799",
    "title": "湘财证券(陆家嘴环路)",
    "lon": "121.50804",
    "lat": "31.23915",
    "category": "219",
    "category_name": "其他",
    "address": "陆家嘴环路958号华能联合大厦1、5、13层"
  },
  {
    "poiid": "B2094654DA69A7F44798",
    "title": "通联期货万向资源(陆家嘴环路)",
    "lon": "121.50804",
    "lat": "31.23915",
    "category": "219",
    "category_name": "其他",
    "address": "陆家嘴环路958号华能联合大厦7层"
  },
  {
    "poiid": "B2094654DB64A7F8499F",
    "title": "申银万国证券",
    "lon": "121.50796",
    "lat": "31.23892",
    "category": "219",
    "category_name": "其他",
    "address": ""
  },
  {
    "poiid": "B2094655D26AA0FB449B",
    "title": "卡塔尔航空",
    "lon": "121.50879",
    "lat": "31.23972",
    "category": "219",
    "category_name": "其他",
    "address": "浦东新区浦东南路256号华夏银行大厦2202室(东城路浦东南路)"
  },
  {
    "poiid": "B2094654DA69A1F5469E",
    "title": "国华人寿股份有限公司",
    "lon": "121.5047",
    "lat": "31.2398",
    "category": "219",
    "category_name": "其他",
    "address": "银城中路168号上海银行大厦23层"
  },
  {
    "poiid": "B2094654DB6BAAFB459B",
    "title": "中国平安保险股份有限公司上海浦东支公司",
    "lon": "121.50933",
    "lat": "31.2388",
    "category": "219",
    "category_name": "其他",
    "address": "浦东南路360号新上海国际大厦28"
  },
  {
    "poiid": "B2094654DB69A1F5469F",
    "title": "中国人寿保险股份有限公司(蒙山路)",
    "lon": "121.34721",
    "lat": "30.71132",
    "category": "219",
    "category_name": "其他",
    "address": "蒙山路61号"
  },
  {
    "poiid": "B2094654DB69A1FF4799",
    "title": "申银万国证券股份有限公司(蒙山路)",
    "lon": "121.34604",
    "lat": "30.71665",
    "category": "219",
    "category_name": "其他",
    "address": "蒙山路279"
  },
  {
    "poiid": "B2094654DB69A1FF469D",
    "title": "中信证券(隆安路)",
    "lon": "121.34563",
    "lat": "30.71826",
    "category": "219",
    "category_name": "其他",
    "address": "隆安路290"
  },
  {
    "poiid": "B2094655D26BA4FF439A",
    "title": "上水市南公司天钥桥路营业站",
    "lon": "121.44647",
    "lat": "31.17591",
    "category": "219",
    "category_name": "其他",
    "address": "天钥桥路1164"
  },
  {
    "poiid": "B2094654DA6DA7FE439D",
    "title": "中航期货",
    "lon": "121.44465",
    "lat": "31.17531",
    "category": "219",
    "category_name": "其他",
    "address": "龙华西路396号"
  },
  {
    "poiid": "B2094654DA6DA7FE439F",
    "title": "航空证券有限责任公司龙华西路证券营业部",
    "lon": "121.44465",
    "lat": "31.17531",
    "category": "219",
    "category_name": "其他",
    "address": "龙华西路396号"
  },
  {
    "poiid": "B2094654DA6CA2FF469E",
    "title": "新华人寿保险股份有限公司(北京西路)",
    "lon": "121.46185",
    "lat": "31.23266",
    "category": "219",
    "category_name": "其他",
    "address": "北京西路669号东展商业大厦7-8F"
  },
  {
    "poiid": "B2094654DA6CAAFD4099",
    "title": "国泰君安证券股份有限公司虹桥路证券营业部",
    "lon": "121.43195",
    "lat": "31.19178",
    "category": "219",
    "category_name": "其他",
    "address": "虹桥路188-1"
  },
  {
    "poiid": "B2094654DB6DABFB4799",
    "title": "中国人寿保险股份有限公司上海市松江支公司",
    "lon": "121.22858",
    "lat": "31.01011",
    "category": "219",
    "category_name": "其他",
    "address": "人民北路46号"
  },
  {
    "poiid": "B2094654DA6FA4F8449B",
    "title": "上海黄金交易所",
    "lon": "121.48992",
    "lat": "31.23757",
    "category": "219",
    "category_name": "其他",
    "address": "黄浦区中山东一路15号华俄道胜银行大楼(近九江路)"
  },
  {
    "poiid": "B2094654DA6EA5F9479B",
    "title": "天平汽车保险股份有限公司上海营业总部",
    "lon": "121.48719",
    "lat": "31.23057",
    "category": "219",
    "category_name": "其他",
    "address": "黄浦区河南南路1号星腾大厦10层"
  }
]