[
  {
    "poiid": "B2094753D56DA3FD409A",
    "title": "徐汇游泳馆",
    "lon": "121.457023",
    "lat": "31.185714",
    "category": "220",
    "category_name": "运动场所",
    "address": "上海市 徐汇区枫林路"
  },
  {
    "poiid": "B2094757D06FA7FA4093",
    "title": "浦东游泳馆新羽毛球馆",
    "lon": "121.505721806",
    "lat": "31.1885572023",
    "category": "220",
    "category_name": "运动场所",
    "address": "浦东新区浦东南路3669号浦东游泳馆南门内(近沂林路)"
  },
  {
    "poiid": "B2094757D065A5F9479B",
    "title": "华师大大学生中心羽毛球馆",
    "lon": "121.40617",
    "lat": "31.23148",
    "category": "220",
    "category_name": "运动场所",
    "address": "上海普陀区金沙江路145号(近中山北路)  "
  },
  {
    "poiid": "B2094752D66AA1FC4798",
    "title": "白洋淀足球场",
    "lon": "121.450413",
    "lat": "31.231693",
    "category": "220",
    "category_name": "运动场所",
    "address": "周家嘴路军工路"
  },
  {
    "poiid": "B2094757D169A0F9409F",
    "title": "静安区游泳馆",
    "lon": "121.44489",
    "lat": "31.23032",
    "category": "220",
    "category_name": "运动场所",
    "address": "上海静安区武定路423号  "
  },
  {
    "poiid": "B2094654D56FA6FB479B",
    "title": "毅敏体育",
    "lon": "121.53465",
    "lat": "31.2948",
    "category": "220",
    "category_name": "运动场所",
    "address": "杨浦区营口路578号海尚杰座2楼(近佳木斯路)"
  },
  {
    "poiid": "B2094757D06FAAF4419B",
    "title": "沪南体育活动中心",
    "lon": "121.48268",
    "lat": "31.21256",
    "category": "220",
    "category_name": "运动场所",
    "address": "黄浦区方斜路515号(近大吉路)"
  },
  {
    "poiid": "B2094654DA6EA7F54593",
    "title": "上海市轮滑俱乐部",
    "lon": "121.48445",
    "lat": "31.21289",
    "category": "220",
    "category_name": "运动场所",
    "address": "黄浦区大林路235号黄浦轮滑馆南大门(近陆家浜路)"
  },
  {
    "poiid": "B2094757D06FA2FA4193",
    "title": "源深体育馆",
    "lon": "121.536191683",
    "lat": "31.2310137082",
    "category": "220",
    "category_name": "运动场所",
    "address": "上海浦东源深路200号"
  },
  {
    "poiid": "B2094757D06FA5F8489D",
    "title": "源深篮球公园",
    "lon": "121.536632157",
    "lat": "31.2295100303",
    "category": "220",
    "category_name": "运动场所",
    "address": "浦东新区羽山路9号浦东源深体育中心6号门(潍坊路羽山路)"
  },
  {
    "poiid": "B2094757D06FA2F9499F",
    "title": "源深体育中心羽毛球场",
    "lon": "121.538296989",
    "lat": "31.2324749785",
    "category": "220",
    "category_name": "运动场所",
    "address": "浦东新区张杨路1458号源深体育中心内(近源深路)"
  },
  {
    "poiid": "B2094757D069A1FA489E",
    "title": "索福德足球世界(源深体育中心店)",
    "lon": "121.53465",
    "lat": "31.23251",
    "category": "220",
    "category_name": "运动场所",
    "address": "浦东新区张杨路1458号源深体育中心内(近源深路)"
  },
  {
    "poiid": "B2094654DA69A3F94298",
    "title": "源深乒羽中心",
    "lon": "121.53752",
    "lat": "31.23028",
    "category": "220",
    "category_name": "运动场所",
    "address": "浦东新区张杨路1458号源深体育中心内(近源深路)"
  },
  {
    "poiid": "B2094757D06FA3FF499D",
    "title": "静安体育中心游泳馆",
    "lon": "121.4535",
    "lat": "31.23532",
    "category": "220",
    "category_name": "运动场所",
    "address": "静安区康定路151号静安体育中心内(昌化路口)"
  },
  {
    "poiid": "B2094757D068A3FB419E",
    "title": "静安体育中心",
    "lon": "121.453154634",
    "lat": "31.2354116335",
    "category": "220",
    "category_name": "运动场所",
    "address": "静安区康定路151号静安体育中心内(武定路口)"
  },
  {
    "poiid": "B2094757D069A0FA469D",
    "title": "静安体育中心羽毛球馆",
    "lon": "121.45434",
    "lat": "31.23444",
    "category": "220",
    "category_name": "运动场所",
    "address": "静安区昌化路165号(近武定路)"
  },
  {
    "poiid": "B2094757D06FA4FF459B",
    "title": "大华羽毛球馆",
    "lon": "121.413992985",
    "lat": "31.2711081854",
    "category": "220",
    "category_name": "运动场所",
    "address": "上海宝山区大华路518号4楼(近大华二路)"
  },
  {
    "poiid": "B2094757D16AA3F9489C",
    "title": "迈博健身(品尊店)",
    "lon": "121.41481985",
    "lat": "31.2713882865",
    "category": "220",
    "category_name": "运动场所",
    "address": "上海普陀区 铜川路 58弄 26号"
  },
  {
    "poiid": "B2094757D169A0F94693",
    "title": "贝力健身",
    "lon": "121.308513",
    "lat": "31.150871",
    "category": "220",
    "category_name": "运动场所",
    "address": "上海松江区"
  },
  {
    "poiid": "B2094753D46AAAF54993",
    "title": "加州健身",
    "lon": "121.482879",
    "lat": "31.223312",
    "category": "220",
    "category_name": "运动场所",
    "address": "上海市 淮海中路138号"
  },
  {
    "poiid": "B2094752D565A1FB4993",
    "title": "虹口足球场",
    "lon": "121.473479",
    "lat": "31.261634",
    "category": "220",
    "category_name": "运动场所",
    "address": null
  },
  {
    "poiid": "B2094752DB6AA3F5419A",
    "title": "虹口足球场",
    "lon": "121.474982",
    "lat": "31.265231",
    "category": "220",
    "category_name": "运动场所",
    "address": "上海市 虹口足球场"
  },
  {
    "poiid": "B2094757D06AA0F8429F",
    "title": "上海体育学院足球场",
    "lon": "121.52598",
    "lat": "31.31292",
    "category": "220",
    "category_name": "运动场所",
    "address": "杨浦区长海路399号(近长海医院)"
  },
  {
    "poiid": "B2094757D16EA2F54993",
    "title": "同济中学羽毛球馆",
    "lon": "121.52204",
    "lat": "31.30751",
    "category": "220",
    "category_name": "运动场所",
    "address": "上海杨浦区政立路20号(近同济中学体育馆)  "
  },
  {
    "poiid": "B2094750DB6DA4FC409C",
    "title": "上海体育学院室内田径馆",
    "lon": "121.52553907934566",
    "lat": "31.313592044214204",
    "category": "220",
    "category_name": "运动场所",
    "address": "杨浦区恒仁路350号"
  },
  {
    "poiid": "B2094757D16DA1FE489E",
    "title": "丽园公园篮球场",
    "lon": "121.4775",
    "lat": "31.20656",
    "category": "220",
    "category_name": "运动场所",
    "address": "卢湾区丽园路(近局门路)"
  },
  {
    "poiid": "B2094654DA68A6FD469F",
    "title": "卢工弹子房",
    "lon": "121.48285",
    "lat": "31.20034",
    "category": "220",
    "category_name": "运动场所",
    "address": "局门路580号2层"
  },
  {
    "poiid": "B2094757D06AA5FE4498",
    "title": "工人体育场",
    "lon": "121.482731751",
    "lat": "31.2003469073",
    "category": "220",
    "category_name": "运动场所",
    "address": "卢湾区局门路600号(近中山南一路)"
  },
  {
    "poiid": "B2094654DB65A7F5499E",
    "title": "Y+瑜伽生活馆(新天地店)",
    "lon": "121.4761",
    "lat": "31.22175",
    "category": "220",
    "category_name": "运动场所",
    "address": "卢湾区湖滨路202号企业天地2号楼2楼单元17-20室(近济南路)"
  },
  {
    "poiid": "B2094757DB64A3FA4493",
    "title": "Y 瑜伽生活馆（企业天地店）",
    "lon": "121.477",
    "lat": "31.221",
    "category": "220",
    "category_name": "运动场所",
    "address": "上海卢湾区湖滨路220号 企业天地二层"
  },
  {
    "poiid": "B2094757D16FA2FA4699",
    "title": "斯坦福桥球场",
    "lon": "121.444678086",
    "lat": "31.1846065391",
    "category": "220",
    "category_name": "运动场所",
    "address": "伦敦富勒姆区"
  },
  {
    "poiid": "B2094757D16FABFE429B",
    "title": "教科院附中羽毛球馆",
    "lon": "121.52156",
    "lat": "31.26448",
    "category": "220",
    "category_name": "运动场所",
    "address": "杨浦区怀德路1000号(近长阳路)"
  },
  {
    "poiid": "B2094757D069ABF8459D",
    "title": "江浦公园篮球场",
    "lon": "121.52479365",
    "lat": "31.266286509",
    "category": "220",
    "category_name": "运动场所",
    "address": "齐齐哈儿路920号上海印刷厂对面"
  },
  {
    "poiid": "B2094750DA6EA6FC429D",
    "title": "欧登保龄球",
    "lon": "121.4468",
    "lat": "31.205379",
    "category": "220",
    "category_name": "运动场所",
    "address": "衡山路10号"
  },
  {
    "poiid": "B2094757D66DA2F4439F",
    "title": "灵悟瑜伽",
    "lon": "121.632391775",
    "lat": "31.2059231922",
    "category": "220",
    "category_name": "运动场所",
    "address": "上海玉兰广场内"
  },
  {
    "poiid": "B2094757D16CA2F44899",
    "title": "佛山咏春拳研习班(张江分部)",
    "lon": "121.63351",
    "lat": "31.19982",
    "category": "220",
    "category_name": "运动场所",
    "address": "浦东新区建中路126弄2栋1号对面"
  },
  {
    "poiid": "B2094757D16CA1FB489D",
    "title": "交通大学徐汇校区篮球场",
    "lon": "121.430502176",
    "lat": "31.1989013869",
    "category": "220",
    "category_name": "运动场所",
    "address": "徐汇区华山路1954号上海交通大学内(近广元西路)"
  },
  {
    "poiid": "B2094757D06AA3F8469E",
    "title": "鲁班游泳馆",
    "lon": "121.47517",
    "lat": "31.20495",
    "category": "220",
    "category_name": "运动场所",
    "address": "卢湾区鲁班路183弄7号(近丽园路)"
  },
  {
    "poiid": "B2094757D164A0FD439E",
    "title": "麦舒瑜伽(西藏南路店)",
    "lon": "121.49009099",
    "lat": "31.204814264",
    "category": "220",
    "category_name": "运动场所",
    "address": "黄浦区西藏南路1433弄5号楼侧楼VIP会所3楼(瞿溪路保屯路间)"
  },
  {
    "poiid": "B2094757D06BA4FC4393",
    "title": "普陀体育中心篮球场",
    "lon": "121.42836",
    "lat": "31.26827",
    "category": "220",
    "category_name": "运动场所",
    "address": "普陀区西乡路288号普陀体育中心(平利路口)"
  },
  {
    "poiid": "B2094750D56EAAFB479F",
    "title": "环球健身",
    "lon": "121.435768",
    "lat": "31.27086",
    "category": "220",
    "category_name": "运动场所",
    "address": null
  },
  {
    "poiid": "B2094757D068A6FF4598",
    "title": "延福绿地篮球场",
    "lon": "121.48202",
    "lat": "31.22915",
    "category": "220",
    "category_name": "运动场所",
    "address": "黄浦区延安东路(近福建南路)"
  },
  {
    "poiid": "B2094757D66DA4FA469C",
    "title": "格致中学乒乓球馆",
    "lon": "121.481621738",
    "lat": "31.2280842544",
    "category": "220",
    "category_name": "运动场所",
    "address": "上海北海路150号4楼"
  },
  {
    "poiid": "B2094757D065A3F54092",
    "title": "诺宝健身中心游泳馆",
    "lon": "121.37289",
    "lat": "31.15739",
    "category": "220",
    "category_name": "运动场所",
    "address": "上海闵行区漕宝路1688号诺宝中心大酒店  "
  },
  {
    "poiid": "B2094757D16EA3FE459D",
    "title": "绿川学校羽毛球馆",
    "lon": "121.55062",
    "lat": "31.16855",
    "category": "220",
    "category_name": "运动场所",
    "address": "浦东新区绿林路409号(近博华路)"
  },
  {
    "poiid": "B2094757D66CA2F84192",
    "title": "未来域健身俱乐部",
    "lon": "121.53423303",
    "lat": "31.15083671",
    "category": "220",
    "category_name": "运动场所",
    "address": "上海御桥路288弄"
  },
  {
    "poiid": "B2094757D66EA0F5459A",
    "title": "SOHO GYM健身馆",
    "lon": "121.513905009",
    "lat": "31.1402548805",
    "category": "220",
    "category_name": "运动场所",
    "address": "上海金谊广场"
  },
  {
    "poiid": "B2094757D069A0FB499E",
    "title": "F1赛车场",
    "lon": "121.22218328",
    "lat": "31.334469835",
    "category": "220",
    "category_name": "运动场所",
    "address": "上海F1"
  },
  {
    "poiid": "B2094655D26FA3FE479B",
    "title": "上海国际飞行竞技场",
    "lon": "121.22354",
    "lat": "31.34551",
    "category": "220",
    "category_name": "运动场所",
    "address": ""
  },
  {
    "poiid": "B2094753D468A4F94699",
    "title": "三林游泳馆",
    "lon": "121.505798",
    "lat": "31.182657",
    "category": "220",
    "category_name": "运动场所",
    "address": "上海市 云莲路201号（三林体育中心内）"
  },
  {
    "poiid": "B2094757D06FA0F5489C",
    "title": "东方体育中心体育馆",
    "lon": "121.48134347",
    "lat": "31.156468556",
    "category": "220",
    "category_name": "运动场所",
    "address": "上海浦东新区泳耀路东育路"
  },
  {
    "poiid": "B2094757D06FAAFB479E",
    "title": "东方体育中心室外跳水池(月亮湾)",
    "lon": "121.47687046",
    "lat": "31.155626569",
    "category": "220",
    "category_name": "运动场所",
    "address": "上海浦东新区泳耀路50号东方体育中心内"
  },
  {
    "poiid": "B2094757D06EAAF8469A",
    "title": "上海东方体育中心",
    "lon": "121.544721",
    "lat": "31.221959",
    "category": "220",
    "category_name": "运动场所",
    "address": "上海浦东新区耀体路701号"
  },
  {
    "poiid": "B2094757D16DA0FE4198",
    "title": "华师大游泳馆(闵行校区)",
    "lon": "121.45451",
    "lat": "31.02473",
    "category": "220",
    "category_name": "运动场所",
    "address": "闵行区东川路500号华东师范大学体育与健康学院体育场馆(近莲花南路)"
  },
  {
    "poiid": "B2094757D16EA6F8449F",
    "title": "上海中医药大学足球场",
    "lon": "121.59859",
    "lat": "31.19268",
    "category": "220",
    "category_name": "运动场所",
    "address": "浦东新区蔡伦路1200号中医药大学内(近华佗路)"
  },
  {
    "poiid": "B2094757D06FA5F4479B",
    "title": "白洋淀足球场",
    "lon": "121.5528030307579",
    "lat": "31.28180025940597",
    "category": "220",
    "category_name": "运动场所",
    "address": "杨浦区周家嘴路4214弄22号(靠近爱国路)"
  },
  {
    "poiid": "B2094757D068A2F44398",
    "title": "白洋淀羽毛球馆",
    "lon": "121.5524",
    "lat": "31.28138",
    "category": "220",
    "category_name": "运动场所",
    "address": "杨浦区周家嘴路4214弄22号白洋淀足球场内(近内江路)"
  },
  {
    "poiid": "B2094757D16AABF84199",
    "title": "浦东张江腾越篮球馆",
    "lon": "121.64855867",
    "lat": "31.181599657",
    "category": "220",
    "category_name": "运动场所",
    "address": "上海张江三灶路(三灶浜路)851号院内(靠近孙弘路)"
  },
  {
    "poiid": "B2094757D164A3FC419D",
    "title": "腾跃球馆",
    "lon": "121.64666597",
    "lat": "31.183144959",
    "category": "220",
    "category_name": "运动场所",
    "address": null
  },
  {
    "poiid": "B2094757D169A3F9479A",
    "title": "上海大学篮球场",
    "lon": "121.39508056",
    "lat": "31.313390731",
    "category": "220",
    "category_name": "运动场所",
    "address": "宝山区上大路99号上海大学内(近南陈路)"
  },
  {
    "poiid": "B2094757D068A3F44192",
    "title": "旗忠森林网球中心中央球场",
    "lon": "121.4072113",
    "lat": "31.064144134",
    "category": "220",
    "category_name": "运动场所",
    "address": "上海闵行区元江路5500号旗忠森林网球中心内(近昆阳北路)"
  },
  {
    "poiid": "B2094654DB6DA5F5479E",
    "title": "上海天马山赛车运动俱乐部",
    "lon": "121.11988",
    "lat": "31.07748",
    "category": "220",
    "category_name": "运动场所",
    "address": "沈砖公路3000号"
  },
  {
    "poiid": "B2094654DB6DA4FF469E",
    "title": "上海333赛车俱乐部",
    "lon": "121.13887",
    "lat": "31.07591",
    "category": "220",
    "category_name": "运动场所",
    "address": "天马山镇"
  },
  {
    "poiid": "B2094757D06FABFA4099",
    "title": "上海大学生体育中心游泳馆",
    "lon": "121.21238",
    "lat": "31.04781",
    "category": "220",
    "category_name": "运动场所",
    "address": "松江区文翔路2000号(近上海外贸学院)"
  },
  {
    "poiid": "B2094757D069A3FE4592",
    "title": "大学生国际冰球馆",
    "lon": "121.21544872",
    "lat": "31.049607768",
    "category": "220",
    "category_name": "运动场所",
    "address": "松江区文翔路2000号(近上海外贸学院)"
  },
  {
    "poiid": "B2094753D66FA4FE4899",
    "title": "虹口足球场",
    "lon": "121.466725",
    "lat": "31.244699",
    "category": "220",
    "category_name": "运动场所",
    "address": "上海市 1111"
  },
  {
    "poiid": "B2094757D06BA6FA459E",
    "title": "松声马术俱乐部",
    "lon": "121.53272",
    "lat": "30.83384",
    "category": "220",
    "category_name": "运动场所",
    "address": "近郊奉贤区人民塘东路621号"
  },
  {
    "poiid": "B2094750D16BA1FD409D",
    "title": "虹口足球场",
    "lon": "121.5032644966952",
    "lat": "31.20336783101407",
    "category": "220",
    "category_name": "运动场所",
    "address": null
  },
  {
    "poiid": "B2094757D06FA3F9409C",
    "title": "iC.运动综合馆(中山北路店)",
    "lon": "121.46325",
    "lat": "31.26222",
    "category": "220",
    "category_name": "运动场所",
    "address": "闸北区中山北路585号4楼(近共和新路)"
  },
  {
    "poiid": "B2094757D064A6F9449F",
    "title": "明日星城会所游泳馆",
    "lon": "121.49261",
    "lat": "31.21471",
    "category": "220",
    "category_name": "运动场所",
    "address": "黄浦区河南南路1009号(近陆家浜路)"
  },
  {
    "poiid": "B2094757D165A0FB4093",
    "title": "九城会馆",
    "lon": "121.56373",
    "lat": "31.22408",
    "category": "220",
    "category_name": "运动场所",
    "address": "浦东新区锦绣路300弄35号(锦绣路紫槐路)"
  },
  {
    "poiid": "B2094757D06FAAFC4599",
    "title": "水上运动中心",
    "lon": "121.01121521",
    "lat": "31.100889205",
    "category": "220",
    "category_name": "运动场所",
    "address": "上海东方绿舟旁"
  },
  {
    "poiid": "B2094655D264A6F4469D",
    "title": "上海水上运动场",
    "lon": "121.01228",
    "lat": "31.11145",
    "category": "220",
    "category_name": "运动场所",
    "address": "青浦区东方绿洲"
  },
  {
    "poiid": "B2094757D06FA2F9449C",
    "title": "卢湾体育场",
    "lon": "121.46271",
    "lat": "31.2064",
    "category": "220",
    "category_name": "运动场所",
    "address": "卢湾区肇嘉浜路128号卢湾体育馆内(近陕西南路)"
  },
  {
    "poiid": "B2094757D06FAAF94998",
    "title": "卢湾体育馆羽毛球馆",
    "lon": "121.463957239",
    "lat": "31.2043254117",
    "category": "220",
    "category_name": "运动场所",
    "address": "卢湾区肇嘉浜路128号卢湾体育馆内(近陕西南路)"
  },
  {
    "poiid": "B2094655D264A2F9409C",
    "title": "上海浦东射击俱乐部(西门)",
    "lon": "121.89115",
    "lat": "31.00732",
    "category": "220",
    "category_name": "运动场所",
    "address": "滨海旅游度假区东首"
  },
  {
    "poiid": "B2094757D06AA6FC479F",
    "title": "上海海事大学(临港校区)体育馆",
    "lon": "121.90532699",
    "lat": "30.8740139785",
    "category": "220",
    "category_name": "运动场所",
    "address": "浦东新区临港新城海港大道1550号上海海事大学院内"
  },
  {
    "poiid": "B2094757D16CABFB4399",
    "title": "室外篮球场(西藏北路)",
    "lon": "121.4689411",
    "lat": "31.2531545",
    "category": "220",
    "category_name": "运动场所",
    "address": "上海西藏北路中兴路"
  },
  {
    "poiid": "B2094757D16AA1FC4899",
    "title": "中兴路篮球场",
    "lon": "121.469622",
    "lat": "31.253178",
    "category": "220",
    "category_name": "运动场所",
    "address": "上海中兴路西藏路口"
  },
  {
    "poiid": "B2094757D06FAAFC4992",
    "title": "耐克足球公园",
    "lon": "121.44049737",
    "lat": "31.183140289",
    "category": "220",
    "category_name": "运动场所",
    "address": "徐汇区零陵路800号万体馆6号门(近上海游泳馆)"
  },
  {
    "poiid": "B2094757D068A1FD4193",
    "title": "西南体育场",
    "lon": "121.407365366",
    "lat": "31.0070507406",
    "category": "220",
    "category_name": "运动场所",
    "address": "闵行区鹤庆路788号(近瑞丽路)"
  },
  {
    "poiid": "B2094757D16BA3FC409B",
    "title": "金仕堡健身",
    "lon": "121.41018695",
    "lat": "31.2909254597",
    "category": "220",
    "category_name": "运动场所",
    "address": "上海市宝山区真华路梧桐城邦店"
  },
  {
    "poiid": "B2094757D16FA3FC429F",
    "title": "平阳小学羽毛球馆",
    "lon": "121.39082",
    "lat": "31.13536",
    "category": "220",
    "category_name": "运动场所",
    "address": "上海闵行区古美西路628弄177号  "
  },
  {
    "poiid": "B2094757D16CA0F54692",
    "title": "贝菲特健身中心(虹桥店)",
    "lon": "121.32864806",
    "lat": "31.221756569",
    "category": "220",
    "category_name": "运动场所",
    "address": "闵行区北翟路1992号金色西郊休闲广场(近华江路)"
  },
  {
    "poiid": "B2094757D069A6FA489B",
    "title": "上海国际赛车场主看台",
    "lon": "121.34329565",
    "lat": "31.22072098",
    "category": "220",
    "category_name": "运动场所",
    "address": "嘉定区伊宁路2000号上海国际赛车场内(近嘉定汽车城)"
  },
  {
    "poiid": "B2094752DB6AA3F4439C",
    "title": "虹口足球场",
    "lon": "121.52218",
    "lat": "31.240464",
    "category": "220",
    "category_name": "运动场所",
    "address": "上海市 东江弯路444号"
  },
  {
    "poiid": "B2094750D56FA2FA449E",
    "title": "一兆韦德健身会所（吴尊馆）",
    "lon": "121.509231",
    "lat": "31.304971",
    "category": "220",
    "category_name": "运动场所",
    "address": null
  },
  {
    "poiid": "B2094757D16CA0FE4798",
    "title": "建平世纪中学羽毛球馆",
    "lon": "121.54632",
    "lat": "31.2087",
    "category": "220",
    "category_name": "运动场所",
    "address": "上海浦东新区玉兰路356号(梅花路口)  "
  },
  {
    "poiid": "B209475CD76CA4FF429C",
    "title": "二军大游泳馆",
    "lon": "121.532012",
    "lat": "31.307205",
    "category": "220",
    "category_name": "运动场所",
    "address": "上海市 中原路21号"
  },
  {
    "poiid": "B209475CD66DAAF4419C",
    "title": "虹口足球场",
    "lon": "121.49884",
    "lat": "31.176818",
    "category": "220",
    "category_name": "运动场所",
    "address": "上海市 上海市虹口区"
  },
  {
    "poiid": "B2094757D06FA7FD409E",
    "title": "迪士卡卡丁车赛车馆(Disckart Indoor Karting)",
    "lon": "121.40163",
    "lat": "31.22478",
    "category": "220",
    "category_name": "运动场所",
    "address": "普陀区枣阳路809号长风公园附近(近华师大后门)"
  },
  {
    "poiid": "B2094757D064A5FD4598",
    "title": "滨江大道篮球场",
    "lon": "121.50904347",
    "lat": "31.2245733115",
    "category": "220",
    "category_name": "运动场所",
    "address": "上海浦东新区滨江大道(近杨家渡轮渡站)"
  },
  {
    "poiid": "B2094757D16AA6F44099",
    "title": "青青马术俱乐部",
    "lon": "121.25145585",
    "lat": "31.075413879",
    "category": "220",
    "category_name": "运动场所",
    "address": "松江区辰花公路388号青青旅游世界内"
  },
  {
    "poiid": "B2094753D46BAAFD4398",
    "title": "海之宝足球场",
    "lon": "121.478721",
    "lat": "31.179347",
    "category": "220",
    "category_name": "运动场所",
    "address": "上海市 国展路401号"
  },
  {
    "poiid": "B2094757D66EA2F54593",
    "title": "雪域射箭场",
    "lon": "121.21851619",
    "lat": "31.09922714",
    "category": "220",
    "category_name": "运动场所",
    "address": "上海欢乐谷内"
  },
  {
    "poiid": "B2094757D068A3FE4993",
    "title": "中原体育场羽毛球馆",
    "lon": "121.53905",
    "lat": "31.31502",
    "category": "220",
    "category_name": "运动场所",
    "address": "杨浦区包头路380号(近嫩江路)"
  },
  {
    "poiid": "B2094757D069AAFC4198",
    "title": "iC.运动综合馆(通北路站)",
    "lon": "121.522716",
    "lat": "31.260681",
    "category": "220",
    "category_name": "运动场所",
    "address": "上海杨浦区济宁路201号(近许昌路)"
  },
  {
    "poiid": "B2094757D06EAAFF4793",
    "title": "上海国际体操中心",
    "lon": "121.41346669",
    "lat": "31.213709584",
    "category": "220",
    "category_name": "运动场所",
    "address": "长宁区武夷路777号国际体操中心游泳馆内(近中山西路)"
  },
  {
    "poiid": "B2094757D06FA7F4409C",
    "title": "上海国际体操中心羽毛球馆",
    "lon": "121.41341304",
    "lat": "31.213108572",
    "category": "220",
    "category_name": "运动场所",
    "address": "上海长宁区武夷路777号(近中山西路)"
  },
  {
    "poiid": "B2094655D268A6FB439C",
    "title": "徐家汇公园运动场",
    "lon": "121.44355",
    "lat": "31.1984",
    "category": "220",
    "category_name": "运动场所",
    "address": ""
  },
  {
    "poiid": "B2094757D06FABF5459E",
    "title": "徐家汇公园篮球场",
    "lon": "121.44290315",
    "lat": "31.196756486",
    "category": "220",
    "category_name": "运动场所",
    "address": "徐汇区肇嘉浜路889号(天平路宛平路间)"
  },
  {
    "poiid": "B2094757D068A4FD479B",
    "title": "高点保龄球(金桥店)",
    "lon": "121.58156",
    "lat": "31.25603",
    "category": "220",
    "category_name": "运动场所",
    "address": "浦东新区张杨路3611弄金桥国际商业广场3座4楼(金桥路张杨路)"
  },
  {
    "poiid": "B2094757D16EAAFA499A",
    "title": "静安区青少年业余体育学校",
    "lon": "121.45395",
    "lat": "31.23545",
    "category": "220",
    "category_name": "运动场所",
    "address": "静安区昌化路165号(近武定路)"
  },
  {
    "poiid": "B2094654DA6CAAFC439F",
    "title": "徐汇区羽毛球训练中心",
    "lon": "121.43556",
    "lat": "31.18918",
    "category": "220",
    "category_name": "运动场所",
    "address": "南丹路15号上海斯波特大酒店"
  },
  {
    "poiid": "B2094654DA6CAAFC439D",
    "title": "徐汇区篮球训练中心",
    "lon": "121.43556",
    "lat": "31.18918",
    "category": "220",
    "category_name": "运动场所",
    "address": "南丹路15号上海斯波特大酒店"
  },
  {
    "poiid": "B2094654DA6CAAFC439C",
    "title": "徐汇区体操训练中心",
    "lon": "121.43556",
    "lat": "31.18918",
    "category": "220",
    "category_name": "运动场所",
    "address": "南丹路15号上海斯波特大酒店"
  },
  {
    "poiid": "B2094757D06AA4FF4492",
    "title": "林克司高尔夫乡村俱乐部",
    "lon": "121.75157",
    "lat": "31.23538",
    "category": "220",
    "category_name": "运动场所",
    "address": "中国上海市浦东新区凌白路1600号"
  },
  {
    "poiid": "B2094753D56AA1FD449E",
    "title": "飞扬滑冰场",
    "lon": "121.506721",
    "lat": "31.181941",
    "category": "220",
    "category_name": "运动场所",
    "address": "上海市 齐河路471号"
  },
  {
    "poiid": "B2094752D668A0FF4598",
    "title": "浦东游泳馆",
    "lon": "121.501639",
    "lat": "31.180254",
    "category": "220",
    "category_name": "运动场所",
    "address": null
  },
  {
    "poiid": "B2094757D064A6FE4592",
    "title": "上南中学锦绣校区羽毛球馆",
    "lon": "121.53792",
    "lat": "31.17971",
    "category": "220",
    "category_name": "运动场所",
    "address": "浦东新区下南路877号(近北艾路)"
  },
  {
    "poiid": "B2094757D16FA6FD4192",
    "title": "海上国际网球场",
    "lon": "121.542315134",
    "lat": "31.1815983355",
    "category": "220",
    "category_name": "运动场所",
    "address": "上海浦东新区成山路2399号"
  },
  {
    "poiid": "B2094757D06BA2F9469F",
    "title": "通河全民健身中心游泳池",
    "lon": "121.44472",
    "lat": "31.33802",
    "category": "220",
    "category_name": "运动场所",
    "address": "宝山区通河路590号(近呼玛路)"
  },
  {
    "poiid": "B2094750D365AAF54892",
    "title": "虹口足球场",
    "lon": "121.4423087",
    "lat": "31.336529",
    "category": "220",
    "category_name": "运动场所",
    "address": null
  },
  {
    "poiid": "B2094757D068A6F84393",
    "title": "索福德足球世界(沪西体育宫店)",
    "lon": "121.39667",
    "lat": "31.24928",
    "category": "220",
    "category_name": "运动场所",
    "address": "普陀区大渡河路1860号沪西体育宫内(近铜川路)"
  },
  {
    "poiid": "B2094757D065A7FC4692",
    "title": "上海理工大学游泳池",
    "lon": "121.55837",
    "lat": "31.29093",
    "category": "220",
    "category_name": "运动场所",
    "address": "杨浦区军工路516号上海理工大学内(近控江路)"
  },
  {
    "poiid": "B2094757D06BA4FF489F",
    "title": "上海工程技术大学体育馆",
    "lon": "121.202497",
    "lat": "31.054414",
    "category": "220",
    "category_name": "运动场所",
    "address": "上海松江区龙腾路333号工程技术大学内"
  },
  {
    "poiid": "B2094757D068A6FE429A",
    "title": "银点羽乒馆",
    "lon": "121.48146",
    "lat": "31.30316",
    "category": "220",
    "category_name": "运动场所",
    "address": "虹口区新市北路1400号4楼(近仁德路)"
  },
  {
    "poiid": "B2094757D068A6F94192",
    "title": "闸北网球馆足球中心",
    "lon": "121.455741",
    "lat": "31.278968",
    "category": "220",
    "category_name": "运动场所",
    "address": "上海闸北区广延路417号"
  },
  {
    "poiid": "B2094757D068A2FF4499",
    "title": "徐汇区体育馆",
    "lon": "121.4476242",
    "lat": "31.118782043",
    "category": "220",
    "category_name": "运动场所",
    "address": "上海华泾路1190号"
  },
  {
    "poiid": "B2094757D16AAAFB4893",
    "title": "汇龙足球场",
    "lon": "121.458764009",
    "lat": "31.1214444708",
    "category": "220",
    "category_name": "运动场所",
    "address": "上海闵行区华泾镇"
  },
  {
    "poiid": "B2094654DA65A6F44293",
    "title": "上海市划船俱乐部",
    "lon": "121.45666",
    "lat": "31.13521",
    "category": "220",
    "category_name": "运动场所",
    "address": "龙吴路1594"
  },
  {
    "poiid": "B2094757D06FA3F54692",
    "title": "江湾游泳池",
    "lon": "121.51884",
    "lat": "31.30675",
    "category": "220",
    "category_name": "运动场所",
    "address": "杨浦区国和路346号(近政立路)"
  },
  {
    "poiid": "B2094655D265A0F54799",
    "title": "剑锋击剑俱乐部",
    "lon": "121.46461",
    "lat": "31.23384",
    "category": "220",
    "category_name": "运动场所",
    "address": "北京西路511"
  },
  {
    "poiid": "B2094757D06FA7FB4798",
    "title": "美兰湖高尔夫俱乐部",
    "lon": "121.3651",
    "lat": "31.40198",
    "category": "220",
    "category_name": "运动场所",
    "address": "海市宝山区沪太路6655号(内美兰湖路9号)"
  },
  {
    "poiid": "B2094757D168ABF9459A",
    "title": "金仕堡健身",
    "lon": "121.355046679",
    "lat": "31.4010760402",
    "category": "220",
    "category_name": "运动场所",
    "address": "上海美兰湖国际会议中心"
  },
  {
    "poiid": "B2094757D66EA5FE4492",
    "title": "金仕堡健身会所(美兰湖店)",
    "lon": "121.363401679",
    "lat": "31.3894778212",
    "category": "220",
    "category_name": "运动场所",
    "address": "宝山区罗芬路888号美兰湖国际会议中心1楼(近美兰湖地铁站)"
  },
  {
    "poiid": "B2094654DB65A0FA409D",
    "title": "航华二中羽毛球馆",
    "lon": "121.35118",
    "lat": "31.1646",
    "category": "220",
    "category_name": "运动场所",
    "address": "闵行区航新路75号(航新路吴中路)"
  },
  {
    "poiid": "B2094757D069A1F8479C",
    "title": "斜桥游泳馆",
    "lon": "121.48246373",
    "lat": "31.211333897",
    "category": "220",
    "category_name": "运动场所",
    "address": "黄浦区大吉路218号(近西藏南路)"
  },
  {
    "poiid": "B2094757D06AA0FE499C",
    "title": "南汇体育中心",
    "lon": "121.78353815",
    "lat": "31.054417856",
    "category": "220",
    "category_name": "运动场所",
    "address": "上海市浦东新区南汇惠南镇观海路1000号"
  },
  {
    "poiid": "B2094757D66EAAF9499B",
    "title": "南汇游泳馆",
    "lon": "121.78478126",
    "lat": "31.055395079",
    "category": "220",
    "category_name": "运动场所",
    "address": "上海浦东新区观海路1000号"
  },
  {
    "poiid": "B2094757D164AAFD4092",
    "title": "黄龙体育馆",
    "lon": "121.481685738",
    "lat": "31.1694940069",
    "category": "220",
    "category_name": "运动场所",
    "address": "杭州黄龙体育馆"
  },
  {
    "poiid": "B2094654DA6DA4FA419B",
    "title": "世博林绿地公共运动场",
    "lon": "121.47682",
    "lat": "31.19649",
    "category": "220",
    "category_name": "运动场所",
    "address": ""
  },
  {
    "poiid": "B2094757D66CA1F54899",
    "title": "敬业中学篮球场",
    "lon": "121.486119438",
    "lat": "31.1940905303",
    "category": "220",
    "category_name": "运动场所",
    "address": "黄浦区蓬莱路345号敬业中学内(文庙后面)"
  },
  {
    "poiid": "B2094750DA6CABFF429C",
    "title": "欧玫亚健身中心",
    "lon": "121.473739",
    "lat": "30.918731",
    "category": "220",
    "category_name": "运动场所",
    "address": null
  },
  {
    "poiid": "B2094757D068AAFA4692",
    "title": "东方射击射箭馆",
    "lon": "121.42682",
    "lat": "31.19442",
    "category": "220",
    "category_name": "运动场所",
    "address": "上海虹桥路663号(近番禺绿地)  "
  },
  {
    "poiid": "B2094757D06FABFD439B",
    "title": "康健社区体育场",
    "lon": "121.4185",
    "lat": "31.15231",
    "category": "220",
    "category_name": "运动场所",
    "address": "徐汇区桂林西街168号康健社区体育场(桂林西街浦北路)"
  },
  {
    "poiid": "B2094757D064A0FC499B",
    "title": "金杨中学羽毛球馆",
    "lon": "121.57733",
    "lat": "31.24878",
    "category": "220",
    "category_name": "运动场所",
    "address": "浦东新区金口路166号金杨中学内"
  },
  {
    "poiid": "B2094757D068A2F84893",
    "title": "吴泾体育场",
    "lon": "121.466128485",
    "lat": "31.0488376885",
    "category": "220",
    "category_name": "运动场所",
    "address": "闵行区龙吴路5347号(近放鹤路)"
  },
  {
    "poiid": "B2094752DB6AA3F5449F",
    "title": "虹口足球场",
    "lon": "121.470553",
    "lat": "31.270704",
    "category": "220",
    "category_name": "运动场所",
    "address": "上海市 虹口足球场"
  },
  {
    "poiid": "B2094757D168A4FA4293",
    "title": "延安西路天山路篮球场",
    "lon": "121.41299858",
    "lat": "31.208398004",
    "category": "220",
    "category_name": "运动场所",
    "address": "上海市长宁区天山路"
  },
  {
    "poiid": "B2094757D16FAAFE409C",
    "title": "曹杨职校羽毛球馆",
    "lon": "121.38697",
    "lat": "31.25772",
    "category": "220",
    "category_name": "运动场所",
    "address": "普陀区清涧路240号(近高陵路)"
  },
  {
    "poiid": "B2094757D065A1FD499E",
    "title": "铁岭中学羽毛球馆",
    "lon": "121.51011",
    "lat": "31.27877",
    "category": "220",
    "category_name": "运动场所",
    "address": "杨浦区鞍山路(近鞍山支路)"
  },
  {
    "poiid": "B2094757D16DA7FF439E",
    "title": "上海划船俱乐部羽毛球馆",
    "lon": "121.44098408",
    "lat": "31.155976529",
    "category": "220",
    "category_name": "运动场所",
    "address": "徐汇区龙吴路1594号(近罗秀路)"
  },
  {
    "poiid": "B2094750D66EABFB449D",
    "title": "浦东游泳馆",
    "lon": "121.507072",
    "lat": "31.201353",
    "category": "220",
    "category_name": "运动场所",
    "address": null
  },
  {
    "poiid": "B2094654DA68A0FD459D",
    "title": "小东门社区公共体育中心",
    "lon": "121.50191",
    "lat": "31.20886",
    "category": "220",
    "category_name": "运动场所",
    "address": "陆家浜路89号"
  },
  {
    "poiid": "B2094750DA6EABFA459E",
    "title": "虹口足球场",
    "lon": "121.539253",
    "lat": "31.263071",
    "category": "220",
    "category_name": "运动场所",
    "address": null
  },
  {
    "poiid": "B2094757D065A4FF409F",
    "title": "上海市军事体育俱乐部",
    "lon": "121.468906519",
    "lat": "31.2784701406",
    "category": "220",
    "category_name": "运动场所",
    "address": "虹口区广中路444号(近水电路)"
  },
  {
    "poiid": "B2094757D069A5F84292",
    "title": "真如体育场",
    "lon": "121.399510261",
    "lat": "31.2481169398",
    "category": "220",
    "category_name": "运动场所",
    "address": "普陀区北石路208号(近兰溪路)"
  },
  {
    "poiid": "B2094750D464A5F5469B",
    "title": "虹口足球场",
    "lon": "121.396278",
    "lat": "31.245443",
    "category": "220",
    "category_name": "运动场所",
    "address": null
  },
  {
    "poiid": "B2094757D069A0F5469D",
    "title": "虹桥河滨公园篮球场",
    "lon": "121.4026753",
    "lat": "31.218889484",
    "category": "220",
    "category_name": "运动场所",
    "address": "上海长宁区长宁路2080号(近古北路)"
  },
  {
    "poiid": "B2094757D068A7FF469B",
    "title": "星之健身(大华店)",
    "lon": "121.39299",
    "lat": "31.28234",
    "category": "220",
    "category_name": "运动场所",
    "address": "普陀区古浪路88号(真北路口)"
  },
  {
    "poiid": "B2094757DA69A1FD4293",
    "title": "上海世纪公园球场",
    "lon": "121.55975029653",
    "lat": "31.216317502733",
    "category": "220",
    "category_name": "运动场所",
    "address": "芳甸路858号"
  },
  {
    "poiid": "B2094654D46BA6FF4592",
    "title": "真新街道社区公共运动场",
    "lon": "121.37761",
    "lat": "31.25676",
    "category": "220",
    "category_name": "运动场所",
    "address": "上海普陀区真南路500号同济大学沪西校区"
  },
  {
    "poiid": "B2094757D06BAAFE419C",
    "title": "沈坚强游泳俱乐部(嘉定店)",
    "lon": "121.16339618",
    "lat": "31.291316547",
    "category": "220",
    "category_name": "运动场所",
    "address": "上海嘉定区新成路118号"
  },
  {
    "poiid": "B2094757D06BA2F9469C",
    "title": "安亭镇文体活动中心",
    "lon": "121.16436013",
    "lat": "31.30559144",
    "category": "220",
    "category_name": "运动场所",
    "address": "上海嘉定区安亭镇墨玉路621号"
  },
  {
    "poiid": "B2094757D064A4F4459F",
    "title": "中原游泳馆",
    "lon": "121.5265181",
    "lat": "31.325391571",
    "category": "220",
    "category_name": "运动场所",
    "address": "上海市杨浦区开鲁路58号"
  },
  {
    "poiid": "B2094655D26FA0FB479F",
    "title": "上海市中原体育场",
    "lon": "121.52665",
    "lat": "31.32517",
    "category": "220",
    "category_name": "运动场所",
    "address": "杨浦区淞沪路245号(近政民路)"
  },
  {
    "poiid": "B2094757D16FA6FF4998",
    "title": "中原体育场网球场",
    "lon": "121.52744",
    "lat": "31.32485",
    "category": "220",
    "category_name": "运动场所",
    "address": "杨浦区开鲁路518号(世界路口)"
  },
  {
    "poiid": "B2094757D66FA7F9409E",
    "title": "江湾体育场网球场",
    "lon": "121.5212492",
    "lat": "31.317172899",
    "category": "220",
    "category_name": "运动场所",
    "address": "上海国和路346号"
  },
  {
    "poiid": "B2094757DB6FA6FC419F",
    "title": "咪瑜伽",
    "lon": "121.4530962438949",
    "lat": "31.21785754693948",
    "category": "220",
    "category_name": "运动场所",
    "address": "襄阳南路100弄2号"
  },
  {
    "poiid": "B2094750D16BA6F9489D",
    "title": "良置保龄球馆",
    "lon": "121.455909",
    "lat": "31.26452",
    "category": "220",
    "category_name": "运动场所",
    "address": "闸北区柳营路777号盛源生活广场5楼(近共和新路)"
  },
  {
    "poiid": "B2094655D26EA4F9419D",
    "title": "三泉羽毛球俱乐部",
    "lon": "121.43845",
    "lat": "31.30795",
    "category": "220",
    "category_name": "运动场所",
    "address": "闸北区临汾路1515弄35号甲"
  },
  {
    "poiid": "B2094753D468A2FE429A",
    "title": "宝山体育馆",
    "lon": "121.493339",
    "lat": "31.40163",
    "category": "220",
    "category_name": "运动场所",
    "address": "上海市 永清路"
  },
  {
    "poiid": "B2094753DB64A7F94699",
    "title": "宝山体育馆",
    "lon": "121.492614",
    "lat": "31.398942",
    "category": "220",
    "category_name": "运动场所",
    "address": "上海市 宝山路"
  },
  {
    "poiid": "B2094757D06BAAF54298",
    "title": "宝宸体育馆",
    "lon": "121.49473",
    "lat": "31.39126",
    "category": "220",
    "category_name": "运动场所",
    "address": "上海宝山区永清路700号(近永乐路)  "
  },
  {
    "poiid": "B2094757D168A4FE489F",
    "title": "福山羽毛球馆",
    "lon": "121.54214",
    "lat": "31.22844",
    "category": "220",
    "category_name": "运动场所",
    "address": "上海浦东新区桃林路1055号福山外国语小学内(近灵山路)  "
  },
  {
    "poiid": "B2094757D16CA0FD469B",
    "title": "耀飞保龄球馆",
    "lon": "121.48738",
    "lat": "31.36635",
    "category": "220",
    "category_name": "运动场所",
    "address": "宝山区班溪路99号沪客隆商场西侧4楼"
  },
  {
    "poiid": "B2094757D06FA5F44499",
    "title": "东亚壁球馆",
    "lon": "121.43781",
    "lat": "31.17969",
    "category": "220",
    "category_name": "运动场所",
    "address": "徐汇区中山南二路1500号(近零陵路)"
  },
  {
    "poiid": "B2094757D16EA6FA429A",
    "title": "漠河路篮球场",
    "lon": "121.53073783",
    "lat": "31.36482546",
    "category": "220",
    "category_name": "运动场所",
    "address": "上海漠河路"
  },
  {
    "poiid": "B2094757D16CA2F4439B",
    "title": "高點保齡球館",
    "lon": "121.4828011",
    "lat": "31.273344483",
    "category": "220",
    "category_name": "运动场所",
    "address": "北京虹口區東江灣路456號"
  },
  {
    "poiid": "B2094757D06AA4FD459B",
    "title": "虹口训练馆",
    "lon": "121.48146581",
    "lat": "31.272329574",
    "category": "220",
    "category_name": "运动场所",
    "address": "虹口区东体育会路"
  },
  {
    "poiid": "B2094757D169A0FD449E",
    "title": "攀宇健身",
    "lon": "121.368961687",
    "lat": "31.104747197",
    "category": "220",
    "category_name": "运动场所",
    "address": "上海绿洲长岛"
  },
  {
    "poiid": "B2094757D16DAAFF469F",
    "title": "光明中学篮球场",
    "lon": "121.45736953",
    "lat": "31.221637717",
    "category": "220",
    "category_name": "运动场所",
    "address": "黄浦区西藏南路181号光明中学内(近淮海中路)"
  },
  {
    "poiid": "B2094757D06FAAFF489C",
    "title": "静安体育馆羽毛球场",
    "lon": "121.451642446",
    "lat": "31.2276017464",
    "category": "220",
    "category_name": "运动场所",
    "address": "静安区西康路99-1号静安体育馆内"
  },
  {
    "poiid": "B2094655D26EA0F9469D",
    "title": "李秋平篮球(建国西路店)",
    "lon": "121.46409",
    "lat": "31.20682",
    "category": "220",
    "category_name": "运动场所",
    "address": "卢湾区建国西路135号卢湾体育馆"
  },
  {
    "poiid": "B2094757D06BA0FE489A",
    "title": "普陀区温水游泳池",
    "lon": "121.4214",
    "lat": "31.24388",
    "category": "220",
    "category_name": "运动场所",
    "address": "上海普陀区中山北路2605号弄156号(物贸大厦对面)  "
  },
  {
    "poiid": "B2094757D069A7FF4593",
    "title": "虹口足球场外场",
    "lon": "121.4805031",
    "lat": "31.268686386",
    "category": "220",
    "category_name": "运动场所",
    "address": "上海虹口区东江湾路444号"
  },
  {
    "poiid": "B2094753D26EA2FA409C",
    "title": "虹口足球场",
    "lon": "121.484102",
    "lat": "31.265335",
    "category": "220",
    "category_name": "运动场所",
    "address": "上海市 东江湾路100号"
  },
  {
    "poiid": "B2094757D06FA4F9479F",
    "title": "杨浦体育馆羽毛球场",
    "lon": "121.54092",
    "lat": "31.27954",
    "category": "220",
    "category_name": "运动场所",
    "address": "杨浦区隆昌路640号杨浦体育场内(周家嘴路口)"
  },
  {
    "poiid": "B2094757D068A2F4479F",
    "title": "舒兰游泳娱乐中心",
    "lon": "121.5399",
    "lat": "31.28057",
    "category": "220",
    "category_name": "运动场所",
    "address": "上海杨浦区舒兰路50号(隆昌路口)"
  },
  {
    "poiid": "B2094757D06BA4FA479D",
    "title": "坤儒体育篮球馆",
    "lon": "121.415111686",
    "lat": "31.1231101817",
    "category": "220",
    "category_name": "运动场所",
    "address": "上海闵行区罗锦路211号(近龙里路)"
  },
  {
    "poiid": "B2094757D064ABF94293",
    "title": "桃浦游泳馆",
    "lon": "121.344962185",
    "lat": "31.2848239206",
    "category": "220",
    "category_name": "运动场所",
    "address": "上海金通路"
  },
  {
    "poiid": "B2094757D06AA2FB4093",
    "title": "三和花园福居游泳馆",
    "lon": "121.44143",
    "lat": "31.22867",
    "category": "220",
    "category_name": "运动场所",
    "address": "静安区延平路123弄三和花园16号(近新闸路)"
  },
  {
    "poiid": "B2094654DA6DABF4409A",
    "title": "上海现代军事体育俱乐部",
    "lon": "121.46525",
    "lat": "31.21898",
    "category": "220",
    "category_name": "运动场所",
    "address": "卢湾区淮海中路701号7楼(近思南路)"
  },
  {
    "poiid": "B2094757D66DA5FD4198",
    "title": "徐汇游泳馆 室内乒乓球场",
    "lon": "121.448876386",
    "lat": "31.1995669314",
    "category": "220",
    "category_name": "运动场所",
    "address": "上海枫林路329号"
  },
  {
    "poiid": "B2094757D16DA4F4479D",
    "title": "上海交通大学新体篮球场",
    "lon": "121.4247",
    "lat": "31.02661",
    "category": "220",
    "category_name": "运动场所",
    "address": "上海闵行区东川路800号上海交通大学闵行校区"
  },
  {
    "poiid": "B2094757D66FA3FC489B",
    "title": "上海电机学院总校篮球场",
    "lon": "121.40089",
    "lat": "31.00033",
    "category": "220",
    "category_name": "运动场所",
    "address": "闵行区江川路690号上海电机学院总校内(近5号线江川路站)"
  },
  {
    "poiid": "B2094750DA68A4FE489C",
    "title": "虹口足球场",
    "lon": "121.535",
    "lat": "31.33147",
    "category": "220",
    "category_name": "运动场所",
    "address": null
  },
  {
    "poiid": "B2094753D26EA1FC409A",
    "title": "虹口足球场",
    "lon": "121.474482",
    "lat": "31.229645",
    "category": "220",
    "category_name": "运动场所",
    "address": "上海市 东江湾路444号"
  },
  {
    "poiid": "B2094757D06FA4F54992",
    "title": "沈坚强游泳俱乐部(武宁南路店)",
    "lon": "121.437663702",
    "lat": "31.2264272769",
    "category": "220",
    "category_name": "运动场所",
    "address": "静安区武宁南路48号(近万航渡路)"
  },
  {
    "poiid": "B209475CD76AA7FD489E",
    "title": "虹口足球场",
    "lon": "121.49224",
    "lat": "31.256166",
    "category": "220",
    "category_name": "运动场所",
    "address": "上海市 东体育会路"
  },
  {
    "poiid": "B2094757D069A6FA419B",
    "title": "半岛花园游泳馆",
    "lon": "121.4347",
    "lat": "31.24511",
    "category": "220",
    "category_name": "运动场所",
    "address": "上海普陀区西康路1518弄半岛花园14号(近宜昌路)"
  },
  {
    "poiid": "B2094750D66AA4FF429E",
    "title": "虹口足球场",
    "lon": "121.429321",
    "lat": "31.245471",
    "category": "220",
    "category_name": "运动场所",
    "address": null
  },
  {
    "poiid": "B2094757D16CA4FA409D",
    "title": "特殊教育学校羽毛球馆",
    "lon": "121.56482",
    "lat": "31.24131",
    "category": "220",
    "category_name": "运动场所",
    "address": "浦东新区羽山路1890号(近德平路)"
  },
  {
    "poiid": "B2094757D068A2F9499A",
    "title": "上海市浦东棒垒球高尔夫体育公园",
    "lon": "121.49431293",
    "lat": "31.12771542",
    "category": "220",
    "category_name": "运动场所",
    "address": "上海浦星路200号"
  },
  {
    "poiid": "B2094757D069A2F5459F",
    "title": "通昌羽毛球馆台球馆兵乓球馆",
    "lon": "121.604933237",
    "lat": "31.27895176",
    "category": "220",
    "category_name": "运动场所",
    "address": "上海浦东新区乐林路133号(易初莲花超市旁)"
  },
  {
    "poiid": "B2094757D06AA6FC4099",
    "title": "上海市体育宫羽毛球场",
    "lon": "121.396973151",
    "lat": "31.2524595545",
    "category": "220",
    "category_name": "运动场所",
    "address": "普陀区大渡河路1860号沪西体育宫内(近铜川路)"
  },
  {
    "poiid": "B2094654DB69A1F5479D",
    "title": "金山轮滑球馆",
    "lon": "121.34412",
    "lat": "30.70564",
    "category": "220",
    "category_name": "运动场所",
    "address": "近郊金山区石化新城路5号(近沪杭公路)"
  },
  {
    "poiid": "B2094757D16AA1F4429C",
    "title": "曹燕华乒乓培训学校(静安校区)",
    "lon": "121.43323",
    "lat": "31.22991",
    "category": "220",
    "category_name": "运动场所",
    "address": "静安区康定路151号静安体育中心内(武定路口)"
  },
  {
    "poiid": "B2094757D66DAAFC4298",
    "title": "东海村篮球场",
    "lon": "121.67133745",
    "lat": "31.3003018771",
    "category": "220",
    "category_name": "运动场所",
    "address": "上海市浦东新区曹路镇东海村委会"
  },
  {
    "poiid": "B2094757D16BAAF5449A",
    "title": "强森健身俱乐部",
    "lon": "121.459068298",
    "lat": "31.212387085",
    "category": "220",
    "category_name": "运动场所",
    "address": "上海嘉善路复兴中路口"
  },
  {
    "poiid": "B2094654DB68AAFB4193",
    "title": "华凯乡村体育俱乐部",
    "lon": "121.46453",
    "lat": "30.81439",
    "category": "220",
    "category_name": "运动场所",
    "address": "环华路9"
  },
  {
    "poiid": "B2094757D069AAFB409E",
    "title": "大西洋保齡球館",
    "lon": "121.4365751",
    "lat": "31.197541431",
    "category": "220",
    "category_name": "运动场所",
    "address": "上海華山路1988號B1"
  },
  {
    "poiid": "B2094655D268A5FC4293",
    "title": "东华休闲运动馆射箭馆",
    "lon": "121.41361",
    "lat": "31.20364",
    "category": "220",
    "category_name": "运动场所",
    "address": "中山西路849"
  },
  {
    "poiid": "B2094757D06FA0F5429B",
    "title": "沈坚强游泳俱乐部(威海路店)",
    "lon": "121.45899",
    "lat": "31.22599",
    "category": "220",
    "category_name": "运动场所",
    "address": "静安区威海路681号(近茂名北路)"
  },
  {
    "poiid": "B2094655D26BA3F4459E",
    "title": "上海体育场攀岩运动中心",
    "lon": "121.442",
    "lat": "31.18149",
    "category": "220",
    "category_name": "运动场所",
    "address": "徐汇区天钥桥路666号八万人体育场内(近中山南二路)"
  },
  {
    "poiid": "B2094655D26EA4F94193",
    "title": "八万人体育馆羽毛球场",
    "lon": "121.442",
    "lat": "31.18149",
    "category": "220",
    "category_name": "运动场所",
    "address": "徐汇区天钥桥路666号"
  },
  {
    "poiid": "B2094753D46BA2F94593",
    "title": "虹口游泳池",
    "lon": "121.483955",
    "lat": "31.270753",
    "category": "220",
    "category_name": "运动场所",
    "address": "上海市 上海市东江湾路500号"
  },
  {
    "poiid": "B2094757D068ABFE4593",
    "title": "复旦科技园体育中心",
    "lon": "121.50234",
    "lat": "31.28847",
    "category": "220",
    "category_name": "运动场所",
    "address": "虹口区密云路1018号(近复旦大学)"
  },
  {
    "poiid": "B2094757D06BA0FB409E",
    "title": "江湖龙空中球场",
    "lon": "121.429687507",
    "lat": "31.2036847435",
    "category": "220",
    "category_name": "运动场所",
    "address": "上海长宁区法华镇路299号4楼(近番愚路)"
  },
  {
    "poiid": "B2094654DA64AAF9489B",
    "title": "中国田径协会上海莘庄训练基地",
    "lon": "121.37189",
    "lat": "31.11602",
    "category": "220",
    "category_name": "运动场所",
    "address": "莘东路589"
  },
  {
    "poiid": "B2094757D16DA3F54193",
    "title": "锐高健身",
    "lon": "121.539603103",
    "lat": "31.2807476381",
    "category": "220",
    "category_name": "运动场所",
    "address": "杨浦区舒兰路50号2-3楼(近杨浦体育场)"
  },
  {
    "poiid": "B2094757D16FA3F4429E",
    "title": "二工大游泳馆",
    "lon": "121.65173",
    "lat": "31.2606",
    "category": "220",
    "category_name": "运动场所",
    "address": "浦东新区金海路2360号上海第二工业大学内"
  },
  {
    "poiid": "B2094757D16AA4FE4998",
    "title": "万荣小区篮球场",
    "lon": "121.42102695",
    "lat": "31.280336257",
    "category": "220",
    "category_name": "运动场所",
    "address": "上海市灵石路737弄"
  }
]