[
  {
    "poiid": "B2094655D26DA3FE4698",
    "title": "泰王国驻上海总领事馆(威海路)",
    "lon": "121.46094",
    "lat": "31.22665",
    "category": "252",
    "category_name": "楼宇机构",
    "address": "威海路567-579号晶采世纪大厦15A-C"
  },
  {
    "poiid": "B2094655D26DA1FC4992",
    "title": "张园大客堂",
    "lon": "121.46028",
    "lat": "31.22833",
    "category": "252",
    "category_name": "楼宇机构",
    "address": "静安区威海路590弄72支弄1号(茂名北路威海路)"
  },
  {
    "poiid": "B2094757D064A7F54299",
    "title": "华建二街坊",
    "lon": "121.460189738",
    "lat": "31.2291262766",
    "category": "252",
    "category_name": "楼宇机构",
    "address": "上海徐汇区老沪闵路1290弄"
  },
  {
    "poiid": "B2094757D068A2F84593",
    "title": "白金府邸",
    "lon": "121.49451",
    "lat": "31.250563",
    "category": "252",
    "category_name": "楼宇机构",
    "address": "虹口区旅顺路199弄"
  },
  {
    "poiid": "B2094752D165A2FB4299",
    "title": "新华保险大厦",
    "lon": "121.494843",
    "lat": "31.250205",
    "category": "252",
    "category_name": "楼宇机构",
    "address": "东大名路558号"
  },
  {
    "poiid": "B2094757D065A1F94793",
    "title": "馨虹苑",
    "lon": "121.4950051",
    "lat": "31.254517089",
    "category": "252",
    "category_name": "楼宇机构",
    "address": "上海市浦东新区浦东大道2516号"
  },
  {
    "poiid": "B2094757D06AA1F5439C",
    "title": "君岸商务楼",
    "lon": "121.497387",
    "lat": "31.254736894",
    "category": "252",
    "category_name": "楼宇机构",
    "address": "上海虹口区高阳路553号"
  },
  {
    "poiid": "B2094654D56DA4F4479A",
    "title": "提篮桥街道职业介绍所",
    "lon": "121.49781",
    "lat": "31.25531",
    "category": "252",
    "category_name": "楼宇机构",
    "address": "周家嘴路448号B"
  },
  {
    "poiid": "B2094757D66EA2FA4292",
    "title": "宝华里",
    "lon": "121.5000821",
    "lat": "31.251370024",
    "category": "252",
    "category_name": "楼宇机构",
    "address": "上海市虹口区东长治路573弄"
  },
  {
    "poiid": "B2094757D16AA6FF429A",
    "title": "汇锦商务大厦",
    "lon": "121.4951468",
    "lat": "31.248381261",
    "category": "252",
    "category_name": "楼宇机构",
    "address": "上海吴中路259号"
  },
  {
    "poiid": "B2094757D06BA3FE459F",
    "title": "海泰苑",
    "lon": "121.49942",
    "lat": "31.255056",
    "category": "252",
    "category_name": "楼宇机构",
    "address": "上海市虹口区通州路88弄"
  },
  {
    "poiid": "B2094757D06BAAFD4099",
    "title": "君岸商务楼2F",
    "lon": "121.4995837",
    "lat": "31.257570053",
    "category": "252",
    "category_name": "楼宇机构",
    "address": null
  },
  {
    "poiid": "B2094757D165AAFE4399",
    "title": "衡安大楼",
    "lon": "121.453",
    "lat": "31.2112",
    "category": "252",
    "category_name": "楼宇机构",
    "address": "上海徐汇区衡山路20号"
  },
  {
    "poiid": "B2094757D164A7F8429E",
    "title": "新汾阳公寓",
    "lon": "121.45455",
    "lat": "31.210863",
    "category": "252",
    "category_name": "楼宇机构",
    "address": "新汾阳公寓位于徐汇汾阳路77号"
  },
  {
    "poiid": "B2094757D069A4FE409A",
    "title": "大连新村",
    "lon": "121.493652",
    "lat": "31.276257",
    "category": "252",
    "category_name": "楼宇机构",
    "address": "上海大连西路201弄"
  },
  {
    "poiid": "B2094757D064A2FF479E",
    "title": "银历大厦",
    "lon": "121.49444143",
    "lat": "31.275702866",
    "category": "252",
    "category_name": "楼宇机构",
    "address": "上海市闸北区河南北路485号"
  },
  {
    "poiid": "B2094654D56CA0FD4293",
    "title": "上海市虹口新闻传媒中心",
    "lon": "121.4946",
    "lat": "31.27601",
    "category": "252",
    "category_name": "楼宇机构",
    "address": "大连西路195弄12号"
  },
  {
    "poiid": "B2094750D668A3FD409A",
    "title": "马克华菲（上海）商业有限公司",
    "lon": "121.4392223",
    "lat": "31.1728038",
    "category": "252",
    "category_name": "楼宇机构",
    "address": "龙漕路299号天华信息科技园1号楼"
  },
  {
    "poiid": "B2094757D16BA6FC489F",
    "title": "飞洲国际商务楼",
    "lon": "121.435531",
    "lat": "31.170807",
    "category": "252",
    "category_name": "楼宇机构",
    "address": "上海零陵路漕溪路口"
  },
  {
    "poiid": "B2094757DA6EA4F8459F",
    "title": "世博场馆沙特阿拉伯馆",
    "lon": "121.4958",
    "lat": "31.188443",
    "category": "252",
    "category_name": "楼宇机构",
    "address": "浦东新区博成路1221号(近高科西路口)"
  },
  {
    "poiid": "B2094757D168ABFE489C",
    "title": "东渡名人大厦",
    "lon": "121.49715373",
    "lat": "31.184279321",
    "category": "252",
    "category_name": "楼宇机构",
    "address": "上海曲阳路"
  },
  {
    "poiid": "B2094757DA6BA3FD459F",
    "title": "21世纪中心大厦",
    "lon": "121.515055",
    "lat": "31.239151",
    "category": "252",
    "category_name": "楼宇机构",
    "address": "东城区东华门大街26号"
  },
  {
    "poiid": "B2094750D26FA0F44898",
    "title": "上海绿地中心",
    "lon": "121.460937",
    "lat": "31.186069",
    "category": "252",
    "category_name": "楼宇机构",
    "address": "徐汇区 船厂路东安路"
  },
  {
    "poiid": "B2094757D16DA2F5469F",
    "title": "上南大厦",
    "lon": "121.508",
    "lat": "31.1878",
    "category": "252",
    "category_name": "楼宇机构",
    "address": "上海云台路111"
  },
  {
    "poiid": "B2094757DA6BA3F4429F",
    "title": "城投控股大厦",
    "lon": "121.489022",
    "lat": "31.246407",
    "category": "252",
    "category_name": "楼宇机构",
    "address": "徐汇钦州北路188号"
  },
  {
    "poiid": "B2094751D16CAAFE429B",
    "title": "城投大厦",
    "lon": "121.489799",
    "lat": "31.246865",
    "category": "252",
    "category_name": "楼宇机构",
    "address": "虹口区吴淞路130号城投大厦"
  },
  {
    "poiid": "B2094750D169AAF9479F",
    "title": "联合教堂",
    "lon": "121.488555",
    "lat": "31.244016",
    "category": "252",
    "category_name": "楼宇机构",
    "address": "黄浦区圆明园路(近半岛酒店)"
  },
  {
    "poiid": "B2094654D56DABFF429A",
    "title": "乌兹别克斯坦共和国驻上海总领事馆",
    "lon": "121.49018",
    "lat": "31.24875",
    "category": "252",
    "category_name": "楼宇机构",
    "address": "吴淞路258号耀江国际广场8层801"
  },
  {
    "poiid": "B2094757D169A2FD4392",
    "title": "名师风范新家园",
    "lon": "121.40775",
    "lat": "31.230406",
    "category": "252",
    "category_name": "楼宇机构",
    "address": "上海普陀区金沙江路65弄(近中山北路)"
  },
  {
    "poiid": "B2094655D26BA0F54993",
    "title": "华申国际交流服务中心",
    "lon": "121.40984",
    "lat": "31.22805",
    "category": "252",
    "category_name": "楼宇机构",
    "address": "上海闵行区中山北路3663号华东师范大学中山北路校区"
  },
  {
    "poiid": "B2094654DA6DA2F4459C",
    "title": "上海广电影视制作有限公司",
    "lon": "121.44518",
    "lat": "31.18856",
    "category": "252",
    "category_name": "楼宇机构",
    "address": "斜土路2570"
  },
  {
    "poiid": "B2094752DA6AAAF8499F",
    "title": "上海环球金融大厦",
    "lon": "121.504135",
    "lat": "31.231482",
    "category": "252",
    "category_name": "楼宇机构",
    "address": "上海市 上海市陆家嘴Z4-1号"
  },
  {
    "poiid": "B2094757DA64A1F54393",
    "title": "上海中心大厦",
    "lon": "121.504746",
    "lat": "31.233757",
    "category": "252",
    "category_name": "楼宇机构",
    "address": "浦东新区银城中路501号(近花园石桥路)"
  },
  {
    "poiid": "B2094751D264ABF8489C",
    "title": "谷歌广告上海有限公司",
    "lon": "121.50266",
    "lat": "31.2339101",
    "category": "252",
    "category_name": "楼宇机构",
    "address": "浦东新区世纪大道100号环球金融中心"
  },
  {
    "poiid": "B2094757D16CA1F8459E",
    "title": "One Park Avenue 静安枫景苑10号楼",
    "lon": "121.44814308",
    "lat": "31.231967665",
    "category": "252",
    "category_name": "楼宇机构",
    "address": "上海武定路801号"
  },
  {
    "poiid": "B2094655D26CABFE499E",
    "title": "上海市人才发展服务中心静安中心",
    "lon": "121.44877",
    "lat": "31.23215",
    "category": "252",
    "category_name": "楼宇机构",
    "address": "西康路379"
  },
  {
    "poiid": "B2094752D66BA0F9459A",
    "title": "恒隆广场商务楼（二期）",
    "lon": "121.448523",
    "lat": "31.230238",
    "category": "252",
    "category_name": "楼宇机构",
    "address": null
  },
  {
    "poiid": "B2094757D16AA7FC429E",
    "title": "西康路370弄",
    "lon": "121.449211",
    "lat": "31.232138",
    "category": "252",
    "category_name": "楼宇机构",
    "address": "上海西康路370弄"
  },
  {
    "poiid": "B2094757DB6FA0FA429B",
    "title": "上海市教委教研室",
    "lon": "121.448386",
    "lat": "31.234121",
    "category": "252",
    "category_name": "楼宇机构",
    "address": "陕西北路500号"
  },
  {
    "poiid": "B2094752D268ABFF4193",
    "title": "881創意園",
    "lon": "121.444876",
    "lat": "31.230308",
    "category": "252",
    "category_name": "楼宇机构",
    "address": "武定路881號"
  },
  {
    "poiid": "B209475CD46FA7F44193",
    "title": "沪纺大厦",
    "lon": "121.448921",
    "lat": "31.234306",
    "category": "252",
    "category_name": "楼宇机构",
    "address": "上海市 静安区陕西北路670号"
  },
  {
    "poiid": "B2094757D068A3FA489F",
    "title": "控江五村",
    "lon": "121.536",
    "lat": "31.2946",
    "category": "252",
    "category_name": "楼宇机构",
    "address": "上海双阳路靖宇中路口"
  },
  {
    "poiid": "B2094757D06FABF5479D",
    "title": "万佳苑",
    "lon": "121.53705",
    "lat": "31.2946",
    "category": "252",
    "category_name": "楼宇机构",
    "address": "上海市杨浦区佳木斯路321弄"
  },
  {
    "poiid": "B2094750D268ABFC469C",
    "title": "浣纱四、五村",
    "lon": "121.533088",
    "lat": "31.299125",
    "category": "252",
    "category_name": "楼宇机构",
    "address": "上海市杨浦区国顺东路营口路"
  },
  {
    "poiid": "B2094757D66EABFA459F",
    "title": "东珂花苑",
    "lon": "121.53882",
    "lat": "31.235004",
    "category": "252",
    "category_name": "楼宇机构",
    "address": "上海市浦东新区张杨路1619号"
  },
  {
    "poiid": "B2094757D66FA3F9489B",
    "title": "上海海关驻邮局办事处",
    "lon": "121.45117658",
    "lat": "31.23427251",
    "category": "252",
    "category_name": "楼宇机构",
    "address": "上海武定路458号近江宁路"
  },
  {
    "poiid": "B2094654DA6CA3F9429D",
    "title": "辞海编辑委员会",
    "lon": "121.45226",
    "lat": "31.23059",
    "category": "252",
    "category_name": "楼宇机构",
    "address": "陕西北路457"
  },
  {
    "poiid": "B2094654DA6CA4FD459E",
    "title": "上海广播电视信息网络有限公司",
    "lon": "121.45216",
    "lat": "31.23531",
    "category": "252",
    "category_name": "楼宇机构",
    "address": "康定路211号艺海大厦4层"
  },
  {
    "poiid": "B2094757D66DA3F5469B",
    "title": "垚森商务楼",
    "lon": "121.462724683",
    "lat": "31.2834194439",
    "category": "252",
    "category_name": "楼宇机构",
    "address": "上海广粤路95号10栋"
  },
  {
    "poiid": "B2094757D064ABF9429D",
    "title": "万里双子座",
    "lon": "121.414",
    "lat": "31.2693",
    "category": "252",
    "category_name": "楼宇机构",
    "address": "上海市普陀区富平路727弄"
  },
  {
    "poiid": "B2094757DA6BA0FE419F",
    "title": "嘉年华大厦",
    "lon": "121.417036",
    "lat": "31.271068",
    "category": "252",
    "category_name": "楼宇机构",
    "address": "古墩路与余杭塘路交汇处西南角(余杭塘路279号)"
  },
  {
    "poiid": "B2094654DB64A7F44599",
    "title": "上海中国画院(岳阳路)",
    "lon": "121.45272",
    "lat": "31.20451",
    "category": "252",
    "category_name": "楼宇机构",
    "address": "岳阳路197"
  },
  {
    "poiid": "B2094654DA6DA4FB489A",
    "title": "诺易画廊",
    "lon": "121.45227",
    "lat": "31.20561",
    "category": "252",
    "category_name": "楼宇机构",
    "address": "徐汇区岳阳路150号"
  },
  {
    "poiid": "B2094757D16BA3FE499F",
    "title": "上钢二村",
    "lon": "121.49367",
    "lat": "31.177155",
    "category": "252",
    "category_name": "楼宇机构",
    "address": "上海上南路800弄"
  },
  {
    "poiid": "B2094654D565A4FC4492",
    "title": "华东政法大学大学生社会法律援助中心",
    "lon": "121.41798",
    "lat": "31.22347",
    "category": "252",
    "category_name": "楼宇机构",
    "address": ""
  },
  {
    "poiid": "B2094757D66CA2F44298",
    "title": "汇贤楼A203",
    "lon": "121.414786",
    "lat": "31.221743",
    "category": "252",
    "category_name": "楼宇机构",
    "address": "上海华东政法大学"
  },
  {
    "poiid": "B2094757D56DA4F4449B",
    "title": "新东方八佰伴校区",
    "lon": "121.514010738",
    "lat": "31.2268292276",
    "category": "252",
    "category_name": "楼宇机构",
    "address": "南泉北路"
  },
  {
    "poiid": "B2094757D16FA6FA479A",
    "title": "东安大楼南楼",
    "lon": "121.511905",
    "lat": "31.230207",
    "category": "252",
    "category_name": "楼宇机构",
    "address": "上海市浦东新区浦城路158弄436号"
  },
  {
    "poiid": "B2094654DA69A6FF439C",
    "title": "上海知亦行律师事务所(浦东南路)",
    "lon": "121.51499",
    "lat": "31.22901",
    "category": "252",
    "category_name": "楼宇机构",
    "address": "浦东南路1036号隆宇大厦1001-05"
  },
  {
    "poiid": "B2094750D56DAAFD4593",
    "title": "浅水湾艺术创意中心",
    "lon": "121.439895",
    "lat": "31.248973",
    "category": "252",
    "category_name": "楼宇机构",
    "address": "宜昌路179号"
  },
  {
    "poiid": "B2094757D16BAAF94893",
    "title": "常德大厦",
    "lon": "121.443",
    "lat": "31.2473",
    "category": "252",
    "category_name": "楼宇机构",
    "address": "上海市普陀区常德路239号"
  },
  {
    "poiid": "B2094751D56AA7FC419F",
    "title": "源达大厦",
    "lon": "121.439545",
    "lat": "31.245132",
    "category": "252",
    "category_name": "楼宇机构",
    "address": "普陀区长寿路360号"
  },
  {
    "poiid": "B2094757D065A4F44898",
    "title": "玉城大厦",
    "lon": "121.441141",
    "lat": "31.243818",
    "category": "252",
    "category_name": "楼宇机构",
    "address": "上海普陀区陕西北路长寿路"
  },
  {
    "poiid": "B2094757D168A5F5479B",
    "title": "都华名苑5号楼",
    "lon": "121.43804825",
    "lat": "31.246053074",
    "category": "252",
    "category_name": "楼宇机构",
    "address": "上海陕西北路1789弄5号"
  },
  {
    "poiid": "B2094757D065A2F84198",
    "title": "大华西郊别墅",
    "lon": "121.305",
    "lat": "31.1659",
    "category": "252",
    "category_name": "楼宇机构",
    "address": "上海高泾路380弄"
  },
  {
    "poiid": "B2094757D66FA3F9449F",
    "title": "桃园新村",
    "lon": "121.481030738",
    "lat": "31.2233231529",
    "category": "252",
    "category_name": "楼宇机构",
    "address": "上海淮海东路89弄"
  },
  {
    "poiid": "B2094757D66CAAFC489B",
    "title": "日本制品安全协会 中国联络所",
    "lon": "121.480084838",
    "lat": "31.2222635303",
    "category": "252",
    "category_name": "楼宇机构",
    "address": "上海新华路200号"
  },
  {
    "poiid": "B2094757D065A1F54093",
    "title": "云都苑",
    "lon": "121.43714",
    "lat": "31.242903",
    "category": "252",
    "category_name": "楼宇机构",
    "address": "上海市普陀区西康路1285号"
  },
  {
    "poiid": "B2094757DA6BA6FE4298",
    "title": "上海A座",
    "lon": "121.433292",
    "lat": "31.243334",
    "category": "252",
    "category_name": "楼宇机构",
    "address": "嘉定区金沙江路3131号(近新郁路)"
  },
  {
    "poiid": "B2094757D16DABFC4798",
    "title": "荣联公寓",
    "lon": "121.43509",
    "lat": "31.244143",
    "category": "252",
    "category_name": "楼宇机构",
    "address": "浦东南桥路1152弄1-29号"
  },
  {
    "poiid": "B2094757D069A5FF4299",
    "title": "1788国际大厦(Eco City)",
    "lon": "121.445082286",
    "lat": "31.2224787794",
    "category": "252",
    "category_name": "楼宇机构",
    "address": "上海南京西路1788号"
  },
  {
    "poiid": "B2094757D165ABF9439A",
    "title": "久欣公寓",
    "lon": "121.47313",
    "lat": "31.260344",
    "category": "252",
    "category_name": "楼宇机构",
    "address": "上海市闸北区芷江中路"
  },
  {
    "poiid": "B2094757D065A1F84892",
    "title": "虹口花苑",
    "lon": "121.476495103",
    "lat": "31.2652543143",
    "category": "252",
    "category_name": "楼宇机构",
    "address": "上海天通庵路666弄"
  },
  {
    "poiid": "B2094757D068A2FC419F",
    "title": "崂山二村",
    "lon": "121.52024",
    "lat": "31.236893",
    "category": "252",
    "category_name": "楼宇机构",
    "address": "上海市浦东新区栖霞路"
  },
  {
    "poiid": "B2094757D06FA0FD4899",
    "title": "裕景国际广场A座",
    "lon": "121.51995862",
    "lat": "31.240610617",
    "category": "252",
    "category_name": "楼宇机构",
    "address": "上海东方路69号"
  },
  {
    "poiid": "B2094655D26DA1F5419C",
    "title": "上海博思文化传播有限公司",
    "lon": "121.52059",
    "lat": "31.23931",
    "category": "252",
    "category_name": "楼宇机构",
    "address": "东方路135号海东大楼1105"
  },
  {
    "poiid": "B2094757D16AA1FD419B",
    "title": "紫光大厦",
    "lon": "121.518",
    "lat": "31.235",
    "category": "252",
    "category_name": "楼宇机构",
    "address": "紫光大厦位于浦东浦城路(商城路)"
  },
  {
    "poiid": "B2094757D66CABF5459F",
    "title": "愚园路小洋楼",
    "lon": "121.435181",
    "lat": "31.220407",
    "category": "252",
    "category_name": "楼宇机构",
    "address": "上海愚园路735号"
  },
  {
    "poiid": "B2094757D165ABF44692",
    "title": "镇宁路318弄",
    "lon": "121.43666858",
    "lat": "31.220285236",
    "category": "252",
    "category_name": "楼宇机构",
    "address": "上海市静安区镇宁路318弄"
  },
  {
    "poiid": "B2094757D06AAAF84692",
    "title": "长海三村",
    "lon": "121.52231",
    "lat": "31.309682",
    "category": "252",
    "category_name": "楼宇机构",
    "address": "上海长海路黑山路"
  },
  {
    "poiid": "B2094654DB6AA3FB449D",
    "title": "体育交流中心",
    "lon": "121.52332",
    "lat": "31.31268",
    "category": "252",
    "category_name": "楼宇机构",
    "address": "上海市杨浦区清源环路588号"
  },
  {
    "poiid": "B2094757D064A4F9489F",
    "title": "体育科技园区",
    "lon": "121.5228741",
    "lat": "31.314370341",
    "category": "252",
    "category_name": "楼宇机构",
    "address": "上海市杨浦区恒仁路350号"
  },
  {
    "poiid": "B2094757D068ABFE419F",
    "title": "国家电网沪东供电分公司沪东供电营业厅",
    "lon": "121.49130249",
    "lat": "31.2509498596",
    "category": "252",
    "category_name": "楼宇机构",
    "address": "上海九龙路375号"
  },
  {
    "poiid": "B2094655D264A4F54899",
    "title": "恒基不夜城",
    "lon": "121.457",
    "lat": "31.2521",
    "category": "252",
    "category_name": "楼宇机构",
    "address": "丰台学城海鹰路1号,3号"
  },
  {
    "poiid": "B2094757D16AA2FB459B",
    "title": "富泉公寓",
    "lon": "121.46204",
    "lat": "31.249096",
    "category": "252",
    "category_name": "楼宇机构",
    "address": "上海太阳山路78弄1号"
  },
  {
    "poiid": "B2094757D065ABFD469D",
    "title": "永业二期公寓",
    "lon": "121.47694592",
    "lat": "31.208018226",
    "category": "252",
    "category_name": "楼宇机构",
    "address": "上海徐家汇路135弄"
  },
  {
    "poiid": "B2094752D769A7FC479F",
    "title": "月子湾母婴会所（月子中心）",
    "lon": "121.478911",
    "lat": "31.207038",
    "category": "252",
    "category_name": "楼宇机构",
    "address": "上海市卢湾区丽园路708号"
  },
  {
    "poiid": "B2094757DA6EABF4459D",
    "title": "制造局路833弄",
    "lon": "121.486151200002",
    "lat": "31.1988697999997",
    "category": "252",
    "category_name": "楼宇机构",
    "address": "卢湾区制造局路833弄"
  },
  {
    "poiid": "B2094757D065A1F8459A",
    "title": "瞿四小区",
    "lon": "121.48619173",
    "lat": "31.200997677",
    "category": "252",
    "category_name": "楼宇机构",
    "address": "上海市黄浦区制造局路瞿溪路"
  },
  {
    "poiid": "B2094654DA6EABF54593",
    "title": "美国GT国际律师事务所上海代表处",
    "lon": "121.47592",
    "lat": "31.22109",
    "category": "252",
    "category_name": "楼宇机构",
    "address": "湖滨路222号企业天地15层"
  },
  {
    "poiid": "B2094757D06FA6F8439B",
    "title": "龙山新村",
    "lon": "121.44658451",
    "lat": "31.18313221",
    "category": "252",
    "category_name": "楼宇机构",
    "address": "上海八万人体育场"
  },
  {
    "poiid": "B2094757D06AA3FC4793",
    "title": "华富大厦",
    "lon": "121.448",
    "lat": "31.1834",
    "category": "252",
    "category_name": "楼宇机构",
    "address": "北一环与亳州路交叉口(庐阳区政府对面)"
  },
  {
    "poiid": "B2094757D169A0FF4393",
    "title": "天钥新村",
    "lon": "121.446525304",
    "lat": "31.1853354701",
    "category": "252",
    "category_name": "楼宇机构",
    "address": "上海天钥新村66号"
  },
  {
    "poiid": "B2094757D06AABF4489F",
    "title": "2381弄",
    "lon": "121.44830958",
    "lat": "31.182863505",
    "category": "252",
    "category_name": "楼宇机构",
    "address": "上海徐汇区龙华路2381弄"
  },
  {
    "poiid": "B2094757D064A1FC479A",
    "title": "宛南四村",
    "lon": "121.44958",
    "lat": "31.18194",
    "category": "252",
    "category_name": "楼宇机构",
    "address": "上海市徐汇区双峰路"
  },
  {
    "poiid": "B2094757D064AAF84698",
    "title": "宛南五村",
    "lon": "121.44834",
    "lat": "31.180851",
    "category": "252",
    "category_name": "楼宇机构",
    "address": "上海中山南二路双峰路"
  },
  {
    "poiid": "B2094757D168A2F84892",
    "title": "赫比国际 新金桥大厦",
    "lon": "121.599968875",
    "lat": "31.2465965438",
    "category": "252",
    "category_name": "楼宇机构",
    "address": "上海新金桥路28号"
  },
  {
    "poiid": "B2094757D069A2FC439D",
    "title": "百思买大楼",
    "lon": "121.5927124",
    "lat": "31.235210418",
    "category": "252",
    "category_name": "楼宇机构",
    "address": "上海明月路1257"
  },
  {
    "poiid": "B2094757D064A1FC409E",
    "title": "瑞典驻上海领事馆",
    "lon": "121.47202169",
    "lat": "31.221795895",
    "category": "252",
    "category_name": "楼宇机构",
    "address": "上海淮海中路381号中环广场1521-1541"
  },
  {
    "poiid": "B2094751D26DA6FC469B",
    "title": "渣打银行大厦",
    "lon": "121.4712",
    "lat": "31.22137",
    "category": "252",
    "category_name": "楼宇机构",
    "address": null
  },
  {
    "poiid": "B2094757D064A1F54798",
    "title": "祥茂新村",
    "lon": "121.4724727",
    "lat": "31.2216478",
    "category": "252",
    "category_name": "楼宇机构",
    "address": "淡水路89弄1-14号"
  },
  {
    "poiid": "B2094654DA6DABFB4592",
    "title": "卢湾区教育人才交流服务中心",
    "lon": "121.47142",
    "lat": "31.22042",
    "category": "252",
    "category_name": "楼宇机构",
    "address": "重庆南路18甲"
  },
  {
    "poiid": "B2094757D065A1FE4598",
    "title": "泰鸿苑",
    "lon": "121.51766",
    "lat": "31.267614",
    "category": "252",
    "category_name": "楼宇机构",
    "address": "上海市杨浦区周家嘴路2186号(近双辽路口)"
  },
  {
    "poiid": "B2094654DB64A6F9499A",
    "title": "美国领事馆",
    "lon": "121.44721",
    "lat": "31.2088",
    "category": "252",
    "category_name": "楼宇机构",
    "address": "乌鲁木齐中路"
  },
  {
    "poiid": "B2094757D06AA5F5449B",
    "title": "梅陇六村",
    "lon": "121.42579480056",
    "lat": "31.139487689707",
    "category": "252",
    "category_name": "楼宇机构",
    "address": "上海上中西路凌云路"
  },
  {
    "poiid": "B2094757D064A3FE479C",
    "title": "梅陇七村",
    "lon": "121.4236",
    "lat": "31.139256",
    "category": "252",
    "category_name": "楼宇机构",
    "address": "上海徐汇区龙州路"
  },
  {
    "poiid": "B2094757D165ABF4499F",
    "title": "华东理工邮政所",
    "lon": "121.424015557",
    "lat": "31.1394689527",
    "category": "252",
    "category_name": "楼宇机构",
    "address": "上海徐汇区梅陇路132号"
  },
  {
    "poiid": "B2094655D26CAAF44398",
    "title": "上外国际教育交流信息中心",
    "lon": "121.46086",
    "lat": "31.23031",
    "category": "252",
    "category_name": "楼宇机构",
    "address": "南京西路819号中创大厦1009-1012"
  },
  {
    "poiid": "B2094757D16BA0FF4992",
    "title": "香花桥小区",
    "lon": "121.42569267",
    "lat": "31.20388999",
    "category": "252",
    "category_name": "楼宇机构",
    "address": "上海新华路370号"
  },
  {
    "poiid": "B2094757D169ABFE459F",
    "title": "法華鎮路381弄",
    "lon": "121.428153",
    "lat": "31.204239",
    "category": "252",
    "category_name": "楼宇机构",
    "address": "上海法華鎮路假日苑"
  },
  {
    "poiid": "B2094757D06BA3FF479F",
    "title": "海富公寓",
    "lon": "121.4272",
    "lat": "31.205187",
    "category": "252",
    "category_name": "楼宇机构",
    "address": "上海法华镇路457号"
  },
  {
    "poiid": "B2094757D06AA2FC4492",
    "title": "长宁区文苑小区",
    "lon": "121.422483608",
    "lat": "31.2024537328",
    "category": "252",
    "category_name": "楼宇机构",
    "address": "上海定西路399弄"
  },
  {
    "poiid": "B2094752D16FA4FD449C",
    "title": "北京大学上海微电子研究院",
    "lon": "121.631226",
    "lat": "31.205564",
    "category": "252",
    "category_name": "楼宇机构",
    "address": "盛夏路608号"
  },
  {
    "poiid": "B2094757D66DA0F94093",
    "title": "盖臣商务楼",
    "lon": "121.628",
    "lat": "31.2019",
    "category": "252",
    "category_name": "楼宇机构",
    "address": "上海浦东张江蔡伦路103号"
  },
  {
    "poiid": "B2094757D168ABF5459D",
    "title": "古桐三村",
    "lon": "121.625",
    "lat": "31.2062",
    "category": "252",
    "category_name": "楼宇机构",
    "address": "上海市浦东新区张江高斯路1296弄60号401室。"
  },
  {
    "poiid": "B2094757DA6FA2F5469E",
    "title": "张江国家数字出版基地",
    "lon": "121.62893056869507",
    "lat": "31.21069099597688",
    "category": "252",
    "category_name": "楼宇机构",
    "address": "上海 上海市 盛夏路570号"
  },
  {
    "poiid": "B2094750D26FA1FB469E",
    "title": "上海船舶研究设计院",
    "lon": "121.632415",
    "lat": "31.211235",
    "category": "252",
    "category_name": "楼宇机构",
    "address": "祖冲之路2633号"
  },
  {
    "poiid": "B2094757D065A6FF409D",
    "title": "古桐二村",
    "lon": "121.61865",
    "lat": "31.200352",
    "category": "252",
    "category_name": "楼宇机构",
    "address": "上海市浦东新区高斯路1296弄"
  },
  {
    "poiid": "B2094757DA6BA4F94593",
    "title": "张江创业源商业中心",
    "lon": "121.617875",
    "lat": "31.20814",
    "category": "252",
    "category_name": "楼宇机构",
    "address": "胶南市珠海东路288号"
  },
  {
    "poiid": "B2094750D36FA3F4479F",
    "title": "执信西斋",
    "lon": "121.431137",
    "lat": "31.199972",
    "category": "252",
    "category_name": "楼宇机构",
    "address": "淮海西路211号"
  },
  {
    "poiid": "B2094654DA6DA3FD4492",
    "title": "交大昂立教育",
    "lon": "121.43574",
    "lat": "31.19785",
    "category": "252",
    "category_name": "楼宇机构",
    "address": "广元西路45号交大慧谷科技商城1层东厅"
  },
  {
    "poiid": "B2094752D16FA3FD449D",
    "title": "美罗大厦409",
    "lon": "121.433381",
    "lat": "31.195986",
    "category": "252",
    "category_name": "楼宇机构",
    "address": null
  },
  {
    "poiid": "B2094751DA64A6F8459E",
    "title": "上海出入境管理局卢湾分局",
    "lon": "121.475488",
    "lat": "31.200465",
    "category": "252",
    "category_name": "楼宇机构",
    "address": "蒙自路701号"
  },
  {
    "poiid": "B2094757D66EA1FF4899",
    "title": "打浦路339弄",
    "lon": "121.474533738",
    "lat": "31.2005396676",
    "category": "252",
    "category_name": "楼宇机构",
    "address": "打浦路339弄1-13号"
  },
  {
    "poiid": "B2094757D169A6FC479A",
    "title": "卢湾区民政局",
    "lon": "121.47454773",
    "lat": "31.204046142",
    "category": "252",
    "category_name": "楼宇机构",
    "address": "上海鲁班路"
  },
  {
    "poiid": "B2094757D065A3F9419E",
    "title": "南园大厦",
    "lon": "121.494",
    "lat": "31.2022",
    "category": "252",
    "category_name": "楼宇机构",
    "address": "上海市卢湾区龙华东路888号"
  },
  {
    "poiid": "B2094757D16BA0F84792",
    "title": "中山大楼",
    "lon": "121.495369",
    "lat": "31.205017",
    "category": "252",
    "category_name": "楼宇机构",
    "address": "中山大楼位于卢湾中山南路1569"
  },
  {
    "poiid": "B2094654DA68A1F44398",
    "title": "上海职业介绍黄浦分中心南外滩职业介绍所",
    "lon": "121.49279",
    "lat": "31.20826",
    "category": "252",
    "category_name": "楼宇机构",
    "address": "车站支路87号"
  },
  {
    "poiid": "B2094757D068A7FF499F",
    "title": "甘泉苑",
    "lon": "121.42907",
    "lat": "31.271549",
    "category": "252",
    "category_name": "楼宇机构",
    "address": "上海灵石路1082弄"
  },
  {
    "poiid": "B2094757D06FA7FB4392",
    "title": "世纪花苑",
    "lon": "121.43383",
    "lat": "31.2724",
    "category": "252",
    "category_name": "楼宇机构",
    "address": "上海市闸北区俞泾港路18号"
  },
  {
    "poiid": "B2094757D66DA6FD459B",
    "title": "大宁创业大厦",
    "lon": "121.43183588",
    "lat": "31.27262842",
    "category": "252",
    "category_name": "楼宇机构",
    "address": "上海沪太路广中西路"
  },
  {
    "poiid": "B2094751D364ABFD449D",
    "title": "陆家嘴金融中心",
    "lon": "121.434967",
    "lat": "31.273193",
    "category": "252",
    "category_name": "楼宇机构",
    "address": "浦东大道"
  },
  {
    "poiid": "B2094757D165A3F5439C",
    "title": "广茂苑",
    "lon": "121.43262",
    "lat": "31.27409",
    "category": "252",
    "category_name": "楼宇机构",
    "address": "上海市闸北区沪太路935号"
  },
  {
    "poiid": "B2094757D164A7F84598",
    "title": "甘泉新村甘泉苑21弄",
    "lon": "121.427513",
    "lat": "31.2703043",
    "category": "252",
    "category_name": "楼宇机构",
    "address": "上海平利路志丹路，好又多对面。"
  },
  {
    "poiid": "B2094757D16FA4F94499",
    "title": "甘泉路街道社区事务受理服务中心",
    "lon": "121.43534765",
    "lat": "31.2667722983",
    "category": "252",
    "category_name": "楼宇机构",
    "address": "上海宜君路9号"
  },
  {
    "poiid": "B2094757D66DA4F44892",
    "title": "甘泉一村205号",
    "lon": "121.43096195",
    "lat": "31.265914981",
    "category": "252",
    "category_name": "楼宇机构",
    "address": "上海市普陀区甘泉路子长路"
  },
  {
    "poiid": "B2094757D165AAFD4799",
    "title": "仲信苑",
    "lon": "121.42737",
    "lat": "31.21666",
    "category": "252",
    "category_name": "楼宇机构",
    "address": "上海市长宁区愚园路1203弄"
  },
  {
    "poiid": "B2094757DA6EABF44893",
    "title": "卜内门洋行高级职员住宅",
    "lon": "121.426388699998",
    "lat": "31.2188198000001",
    "category": "252",
    "category_name": "楼宇机构",
    "address": "长宁区愚园路1203弄"
  },
  {
    "poiid": "B2094757D16DA0FE4199",
    "title": "安化路300弄",
    "lon": "121.426187586",
    "lat": "31.2149651325",
    "category": "252",
    "category_name": "楼宇机构",
    "address": "上海市长宁区安化路安西路"
  },
  {
    "poiid": "B2094757D169A7F9429A",
    "title": "益丰大厦",
    "lon": "121.43011088",
    "lat": "31.218894209",
    "category": "252",
    "category_name": "楼宇机构",
    "address": "上海圆明园路34号"
  },
  {
    "poiid": "B2094757DA64AAFD4492",
    "title": "会德丰广场",
    "lon": "121.479066",
    "lat": "31.224656",
    "category": "252",
    "category_name": "楼宇机构",
    "address": "静安南京西路1717号(靠近延安路)"
  },
  {
    "poiid": "B2094757D068A0FB4699",
    "title": "航华四村",
    "lon": "121.35918",
    "lat": "31.17104",
    "category": "252",
    "category_name": "楼宇机构",
    "address": "上海市闵行区航北路"
  },
  {
    "poiid": "B2094757D16DA6FA409B",
    "title": "东风二村",
    "lon": "121.420963046",
    "lat": "31.0057513541",
    "category": "252",
    "category_name": "楼宇机构",
    "address": "上海闵行区江川路248弄"
  },
  {
    "poiid": "B2094757D06FA6FD439C",
    "title": "丰庄新郁社区",
    "lon": "121.35975372",
    "lat": "31.248725323",
    "category": "252",
    "category_name": "楼宇机构",
    "address": "上海丰庄十二街坊"
  },
  {
    "poiid": "B2094757D064ABF4409C",
    "title": "绿地崴廉公寓",
    "lon": "121.61346587",
    "lat": "31.290841159",
    "category": "252",
    "category_name": "楼宇机构",
    "address": "浦东新区东靖路2250弄"
  },
  {
    "poiid": "B2094757D068A4F5419A",
    "title": "帕缇欧香苑",
    "lon": "121.1250559",
    "lat": "31.141070094",
    "category": "252",
    "category_name": "楼宇机构",
    "address": "上海青浦区外青松公路6666弄"
  },
  {
    "poiid": "B2094757D06BA3FF479E",
    "title": "仁恒运杰河滨花苑",
    "lon": "121.12885939",
    "lat": "31.140946384",
    "category": "252",
    "category_name": "楼宇机构",
    "address": "上海青浦区外青松公路6999弄"
  },
  {
    "poiid": "B2094757D16FA0FE4898",
    "title": "青浦区桂花苑",
    "lon": "121.127376171",
    "lat": "31.1456536766",
    "category": "252",
    "category_name": "楼宇机构",
    "address": "上海青浦区青湖路1070弄"
  },
  {
    "poiid": "B2094757D065A0FC489E",
    "title": "大学生创业园区",
    "lon": "121.520395813",
    "lat": "31.2963858551",
    "category": "252",
    "category_name": "楼宇机构",
    "address": "上海国定东路200号"
  },
  {
    "poiid": "B2094757DA64A2F9479D",
    "title": "凯迪金融大厦",
    "lon": "121.517715",
    "lat": "31.301288",
    "category": "252",
    "category_name": "楼宇机构",
    "address": "嘉定区沪宜公路3103号(叶城路)"
  },
  {
    "poiid": "B2094757D068A5F8419F",
    "title": "黄浦区社会保险事业管理中心",
    "lon": "121.501153",
    "lat": "31.210839",
    "category": "252",
    "category_name": "楼宇机构",
    "address": "上海黄浦区陆家浜路265号"
  },
  {
    "poiid": "B2094757D065A3FD4193",
    "title": "鹏丰苑",
    "lon": "121.55321",
    "lat": "31.170677",
    "category": "252",
    "category_name": "楼宇机构",
    "address": "上海市浦东新区鹏岳路152弄"
  },
  {
    "poiid": "B2094757D068A3FF489B",
    "title": "南新四村",
    "lon": "121.54075",
    "lat": "31.172556",
    "category": "252",
    "category_name": "楼宇机构",
    "address": "上海下南路551弄"
  },
  {
    "poiid": "B2094757D06AA2FA419D",
    "title": "美林别墅",
    "lon": "121.535",
    "lat": "31.1525",
    "category": "252",
    "category_name": "楼宇机构",
    "address": "上海浦东新区三林路"
  },
  {
    "poiid": "B2094757D06BA0F8429F",
    "title": "盛源公寓",
    "lon": "121.52785",
    "lat": "31.14435",
    "category": "252",
    "category_name": "楼宇机构",
    "address": "上海永泰路1299弄"
  },
  {
    "poiid": "B2094751DA6EA4F54999",
    "title": "上海市东方医院南院",
    "lon": "121.507308",
    "lat": "31.146069",
    "category": "252",
    "category_name": "楼宇机构",
    "address": "上海市云台路1800号"
  },
  {
    "poiid": "B2094757D069A5FF4493",
    "title": "金光新村",
    "lon": "121.514483",
    "lat": "31.145823001",
    "category": "252",
    "category_name": "楼宇机构",
    "address": "上海市浦东新区上南路"
  },
  {
    "poiid": "B2094757D068A0FB429E",
    "title": "岭南小区",
    "lon": "121.4576",
    "lat": "31.318693",
    "category": "252",
    "category_name": "楼宇机构",
    "address": "上海岭南路539,559,700弄,汾西路650弄,保德路681弄"
  },
  {
    "poiid": "B2094757DA64A0FF419E",
    "title": "松江万达广场",
    "lon": "121.2428",
    "lat": "31.058927",
    "category": "252",
    "category_name": "楼宇机构",
    "address": "松江新城茸梅环路广富林路"
  },
  {
    "poiid": "B2094757DA6BA6FD4598",
    "title": "三湘财富广场",
    "lon": "121.236631",
    "lat": "31.058337",
    "category": "252",
    "category_name": "楼宇机构",
    "address": "松江区梅家浜路1508弄"
  },
  {
    "poiid": "B2094757D06BA1FE409D",
    "title": "三湘四季花城紫薇苑",
    "lon": "121.23387908",
    "lat": "31.056329727",
    "category": "252",
    "category_name": "楼宇机构",
    "address": "上海市松江新城嘉松南路、梅家浜路口"
  },
  {
    "poiid": "B2094757D169A1FE409D",
    "title": "安琪花苑",
    "lon": "121.23703",
    "lat": "31.040705",
    "category": "252",
    "category_name": "楼宇机构",
    "address": "上海通波路725号"
  },
  {
    "poiid": "B2094757D068A0FD419D",
    "title": "新外滩花苑",
    "lon": "121.5115161745",
    "lat": "31.255844940762",
    "category": "252",
    "category_name": "楼宇机构",
    "address": "上海市虹口区东大名路888弄"
  },
  {
    "poiid": "B2094757D06FAAFE4492",
    "title": "建爱大厦",
    "lon": "121.515",
    "lat": "31.259",
    "category": "252",
    "category_name": "楼宇机构",
    "address": "铁西区铁西兴华街与南十中路交处(兴华南街48号)"
  },
  {
    "poiid": "B2094757D068A6FB409B",
    "title": "开鲁四村",
    "lon": "121.53042",
    "lat": "31.327255",
    "category": "252",
    "category_name": "楼宇机构",
    "address": "上海市杨浦区开鲁路"
  },
  {
    "poiid": "B2094757D068A1FF4098",
    "title": "上海梦想雍景苑",
    "lon": "121.5225965",
    "lat": "31.3298326",
    "category": "252",
    "category_name": "楼宇机构",
    "address": "上海政悦路500弄"
  },
  {
    "poiid": "B2094757D169A0F9439B",
    "title": "瀚龙苑",
    "lon": "121.6634969",
    "lat": "31.194606549",
    "category": "252",
    "category_name": "楼宇机构",
    "address": "上海華夏東路860號"
  },
  {
    "poiid": "B2094757D064A0F9499F",
    "title": "瀚锦苑",
    "lon": "121.505",
    "lat": "31.1852",
    "category": "252",
    "category_name": "楼宇机构",
    "address": "上海浦东新区洪山路1889弄"
  },
  {
    "poiid": "B2094757D16CA3F9499D",
    "title": "尚电大厦",
    "lon": "121.504388738",
    "lat": "31.1842683212",
    "category": "252",
    "category_name": "楼宇机构",
    "address": "上海浦东高科西路551号"
  },
  {
    "poiid": "B2094757D06FA4FA4198",
    "title": "天鹅泉公寓",
    "lon": "121.57435",
    "lat": "31.333406",
    "category": "252",
    "category_name": "楼宇机构",
    "address": "高城路200弄"
  },
  {
    "poiid": "B2094757D069A6F4479B",
    "title": "上海市民政局",
    "lon": "121.48800659",
    "lat": "31.236328125",
    "category": "252",
    "category_name": "楼宇机构",
    "address": "上海江西中路215号汉口路口"
  },
  {
    "poiid": "B2094751D26DA0FE409A",
    "title": "古北国际财富中心二期",
    "lon": "121.41",
    "lat": "31.2036",
    "category": "252",
    "category_name": "楼宇机构",
    "address": "红宝石路200号"
  },
  {
    "poiid": "B2094757D66EA0F9489C",
    "title": "金茂大厦88层",
    "lon": "121.50547323",
    "lat": "31.236578735",
    "category": "252",
    "category_name": "楼宇机构",
    "address": "上海金茂大厦"
  },
  {
    "poiid": "B2094757D065A5F5429E",
    "title": "东林苑",
    "lon": "121.48727922",
    "lat": "31.158886081",
    "category": "252",
    "category_name": "楼宇机构",
    "address": "上海西营南路68弄"
  },
  {
    "poiid": "B2094654DA69A3FF4898",
    "title": "上海市公安局出入境管理局",
    "lon": "121.54994",
    "lat": "31.22182",
    "category": "252",
    "category_name": "楼宇机构",
    "address": "浦东新区民生路1500"
  },
  {
    "poiid": "B2094757D168A5F84993",
    "title": "蓝天东区",
    "lon": "121.259547",
    "lat": "31.015865",
    "category": "252",
    "category_name": "楼宇机构",
    "address": "上海松江区荣乐东路蓝天东区"
  },
  {
    "poiid": "B2094757D16AA4FE4799",
    "title": "古桐五村",
    "lon": "121.61243",
    "lat": "31.199644",
    "category": "252",
    "category_name": "楼宇机构",
    "address": "上海紫薇公园"
  },
  {
    "poiid": "B2094757D06FABF9419C",
    "title": "外高桥税务局",
    "lon": "121.588544",
    "lat": "31.349773",
    "category": "252",
    "category_name": "楼宇机构",
    "address": "上海浦东新区基隆路9号"
  },
  {
    "poiid": "B2094757DA6BA0FF429A",
    "title": "上海交能大厦",
    "lon": "121.599",
    "lat": "31.3506",
    "category": "252",
    "category_name": "楼宇机构",
    "address": "松江区工业区鼎源路广富林路路口"
  },
  {
    "poiid": "B2094750D66FA4F44999",
    "title": "上海浦东四季酒店",
    "lon": "121.509437",
    "lat": "31.233774",
    "category": "252",
    "category_name": "楼宇机构",
    "address": "世纪大道210号"
  },
  {
    "poiid": "B2094757D06BAAFE4893",
    "title": "21世纪大厦",
    "lon": "121.50967136",
    "lat": "31.234596161",
    "category": "252",
    "category_name": "楼宇机构",
    "address": "上海世纪大道210号"
  },
  {
    "poiid": "B2094757D069AAFF4299",
    "title": "华山花苑",
    "lon": "121.4355",
    "lat": "31.203335",
    "category": "252",
    "category_name": "楼宇机构",
    "address": "上海华山路1615号"
  },
  {
    "poiid": "B2094757D16EA2FF479D",
    "title": "中山街233弄",
    "lon": "121.321423238",
    "lat": "30.8918998226",
    "category": "252",
    "category_name": "楼宇机构",
    "address": "上海金山区亭林镇"
  },
  {
    "poiid": "B2094757D06FA6F84592",
    "title": "黄浦区地方税务局",
    "lon": "121.46609",
    "lat": "31.240098",
    "category": "252",
    "category_name": "楼宇机构",
    "address": "上海黄浦区新桥路68号"
  },
  {
    "poiid": "B2094757D16EAAF4499C",
    "title": "滄海苑",
    "lon": "121.48937503",
    "lat": "31.216520808",
    "category": "252",
    "category_name": "楼宇机构",
    "address": "沧海苑位于黄浦学前街111号"
  },
  {
    "poiid": "B2094750D16BA5F8489B",
    "title": "非洲国际",
    "lon": "121.446037",
    "lat": "31.179267",
    "category": "252",
    "category_name": "楼宇机构",
    "address": null
  },
  {
    "poiid": "B2094757DA6EAAFC479C",
    "title": "华润置地佘山九里",
    "lon": "121.239136",
    "lat": "31.108664",
    "category": "252",
    "category_name": "楼宇机构",
    "address": "松江区古楼公路529号"
  },
  {
    "poiid": "B2094757D065A3FF479C",
    "title": "银河新都",
    "lon": "121.4138",
    "lat": "31.093678",
    "category": "252",
    "category_name": "楼宇机构",
    "address": "上海市闵行区银都路666弄"
  },
  {
    "poiid": "B2094757D065A2FE4498",
    "title": "广润苑",
    "lon": "121.419823061",
    "lat": "31.0840995401",
    "category": "252",
    "category_name": "楼宇机构",
    "address": "上海春都路88弄"
  },
  {
    "poiid": "B2094757D16CA3F4439E",
    "title": "君莲新城",
    "lon": "121.40904557",
    "lat": "31.08370188",
    "category": "252",
    "category_name": "楼宇机构",
    "address": "上海都会路3199弄"
  },
  {
    "poiid": "B2094757D06AA3F94099",
    "title": "君莲新城中城苑",
    "lon": "121.41994",
    "lat": "31.082062",
    "category": "252",
    "category_name": "楼宇机构",
    "address": "上海闵行区春都路75弄"
  },
  {
    "poiid": "B2094757D165A5FE4592",
    "title": "沪华公寓",
    "lon": "121.43333",
    "lat": "31.163887",
    "category": "252",
    "category_name": "楼宇机构",
    "address": "沪华公寓位于徐汇冠生园路20号"
  },
  {
    "poiid": "B2094757D16BA2FB4793",
    "title": "高科苑",
    "lon": "121.598039675",
    "lat": "31.1916585587",
    "category": "252",
    "category_name": "楼宇机构",
    "address": "上海浦东新区蔡伦路1433号"
  },
  {
    "poiid": "B2094757D06AA7F54098",
    "title": "富海商务苑",
    "lon": "121.592",
    "lat": "31.1905",
    "category": "252",
    "category_name": "楼宇机构",
    "address": "上海市奉贤区新四平公路468弄"
  },
  {
    "poiid": "B2094757D068A2FE499A",
    "title": "东安二村",
    "lon": "121.45557",
    "lat": "31.187586",
    "category": "252",
    "category_name": "楼宇机构",
    "address": "上海中山南二路东安路"
  },
  {
    "poiid": "B2094757DA6BA6FE449C",
    "title": "上海绿地中心一期",
    "lon": "121.456362",
    "lat": "31.187987",
    "category": "252",
    "category_name": "楼宇机构",
    "address": "徐汇钦州北路188号"
  },
  {
    "poiid": "B2094757D064A0FE479A",
    "title": "蒙自新村",
    "lon": "121.4791327",
    "lat": "31.201327224",
    "category": "252",
    "category_name": "楼宇机构",
    "address": "上海卢湾区蒙自路490弄"
  },
  {
    "poiid": "B2094757D064A7FC489E",
    "title": "外滩22号",
    "lon": "121.49161573",
    "lat": "31.233858377",
    "category": "252",
    "category_name": "楼宇机构",
    "address": "上海市黄浦区江西中路"
  },
  {
    "poiid": "B2094757D064A1FF409D",
    "title": "创意大厦",
    "lon": "121.619",
    "lat": "31.2136",
    "category": "252",
    "category_name": "楼宇机构",
    "address": "上海祖冲之路1559号"
  },
  {
    "poiid": "B2094654D46BABFE4893",
    "title": "嘉定区人民法院南翔人民法庭",
    "lon": "121.32093",
    "lat": "31.29339",
    "category": "252",
    "category_name": "楼宇机构",
    "address": "真南路115号"
  },
  {
    "poiid": "B2094757D06FAAFD419E",
    "title": "黄浦区机关大楼",
    "lon": "121.484796694",
    "lat": "31.2309905459",
    "category": "252",
    "category_name": "楼宇机构",
    "address": "上海延安东路300号"
  },
  {
    "poiid": "B2094757D068A0F84798",
    "title": "上海市国家安全局",
    "lon": "121.48662337",
    "lat": "31.234723797",
    "category": "252",
    "category_name": "楼宇机构",
    "address": "上海市黄浦区福州路185号"
  },
  {
    "poiid": "B2094757D16FA6FE439E",
    "title": "高恒大厦",
    "lon": "121.541544078",
    "lat": "31.2419453798",
    "category": "252",
    "category_name": "楼宇机构",
    "address": "上海浦东大道1608号"
  },
  {
    "poiid": "B2094757D16EA5FA4893",
    "title": "惠扬大厦",
    "lon": "121.53391573",
    "lat": "31.24101853",
    "category": "252",
    "category_name": "楼宇机构",
    "address": "上海市浦东新区浦东大道1139弄"
  },
  {
    "poiid": "B2094757D16AAAFA4392",
    "title": "亭林镇 寺平新村",
    "lon": "121.31572263",
    "lat": "30.888740451",
    "category": "252",
    "category_name": "楼宇机构",
    "address": "上海市金山区亭林镇"
  },
  {
    "poiid": "B2094757D068A3FF409F",
    "title": "德州七村",
    "lon": "121.48602",
    "lat": "31.166298",
    "category": "252",
    "category_name": "楼宇机构",
    "address": "上海浦东新区德州路380弄"
  },
  {
    "poiid": "B2094757D068A7F44393",
    "title": "宝山七村",
    "lon": "121.49985",
    "lat": "31.396515",
    "category": "252",
    "category_name": "楼宇机构",
    "address": "上海宝山区海江路永乐路"
  },
  {
    "poiid": "B2094757D16EA7F94992",
    "title": "宝林九村",
    "lon": "121.504952",
    "lat": "31.410461",
    "category": "252",
    "category_name": "楼宇机构",
    "address": "上海市宝山区宝林路"
  },
  {
    "poiid": "B2094757D16BA6F9479F",
    "title": "宝林五村",
    "lon": "121.498",
    "lat": "31.4109",
    "category": "252",
    "category_name": "楼宇机构",
    "address": "上海宝山区宝林五村"
  },
  {
    "poiid": "B2094757D169A1FE459B",
    "title": "宝林三村",
    "lon": "121.499",
    "lat": "31.4084",
    "category": "252",
    "category_name": "楼宇机构",
    "address": "上海宝林三村"
  },
  {
    "poiid": "B2094654D56BA5FF449B",
    "title": "大韩民国总领事馆",
    "lon": "121.40165",
    "lat": "31.20441",
    "category": "252",
    "category_name": "楼宇机构",
    "address": "万山路60"
  },
  {
    "poiid": "B2094757D164A3F5429D",
    "title": "广由新村",
    "lon": "121.16591265",
    "lat": "31.359176409",
    "category": "252",
    "category_name": "楼宇机构",
    "address": "上海市嘉定区百安公路3555弄"
  },
  {
    "poiid": "B2094751D269AAF8409A",
    "title": "瑞金医院嘉定北院",
    "lon": "121.259979",
    "lat": "31.335048",
    "category": "252",
    "category_name": "楼宇机构",
    "address": "瑞金北院位于嘉定区嘉定新城中心区（马陆镇）希望路999号。东至永盛路、南至双丁路、西至合作路、北至希望路。"
  },
  {
    "poiid": "B2094757DA6EABFD409B",
    "title": "远香舫",
    "lon": "121.281",
    "lat": "31.3395",
    "category": "252",
    "category_name": "楼宇机构",
    "address": "嘉定区裕民南路裕民南路1777弄(近洪德路)"
  },
  {
    "poiid": "B2094757DA6BA6F9429E",
    "title": "世嘉双塔",
    "lon": "121.263142",
    "lat": "31.338317",
    "category": "252",
    "category_name": "楼宇机构",
    "address": "新区科技城太湖大道与龙山路交汇处，西北方位"
  },
  {
    "poiid": "B2094750D26EA0FC449E",
    "title": "瑞金医院北院",
    "lon": "121.262123",
    "lat": "31.333534",
    "category": "252",
    "category_name": "楼宇机构",
    "address": "双丁路888号"
  },
  {
    "poiid": "B2094757D06AAAF5439B",
    "title": "嘉定社保基金管理中心",
    "lon": "121.257152",
    "lat": "31.37966",
    "category": "252",
    "category_name": "楼宇机构",
    "address": "上海嘉定区博乐路69号"
  },
  {
    "poiid": "B2094655D26BA1F54992",
    "title": "峻岭广场",
    "lon": "121.474",
    "lat": "31.2383",
    "category": "252",
    "category_name": "楼宇机构",
    "address": "成都北路500号"
  },
  {
    "poiid": "B2094750DA6AA2F94692",
    "title": "龙之梦雅仕大厦",
    "lon": "121.416572",
    "lat": "31.214466",
    "category": "252",
    "category_name": "楼宇机构",
    "address": "长宁区凯旋路369号"
  },
  {
    "poiid": "B2094757DA64A4F5419B",
    "title": "创邑源",
    "lon": "121.417122",
    "lat": "31.211939",
    "category": "252",
    "category_name": "楼宇机构",
    "address": "长宁区凯旋路613号(近武夷路)"
  },
  {
    "poiid": "B2094757D065A7F84399",
    "title": "逸仙公寓",
    "lon": "121.505",
    "lat": "31.3528",
    "category": "252",
    "category_name": "楼宇机构",
    "address": "上海逸仙路3458弄"
  },
  {
    "poiid": "B2094757D06BA4FE439F",
    "title": "华浜二村",
    "lon": "121.50059",
    "lat": "31.346624",
    "category": "252",
    "category_name": "楼宇机构",
    "address": "逸仙路3400号"
  },
  {
    "poiid": "B2094757D16CABFA439C",
    "title": "瑞苑公寓",
    "lon": "121.51055173",
    "lat": "31.240868526",
    "category": "252",
    "category_name": "楼宇机构",
    "address": "浦东新区浦东大道3号(近即墨路)"
  },
  {
    "poiid": "B2094751D564A2FE4093",
    "title": "中国民航上海区域管制中心",
    "lon": "121.021328",
    "lat": "31.107679",
    "category": "252",
    "category_name": "楼宇机构",
    "address": null
  },
  {
    "poiid": "B2094757DA64AAFD4993",
    "title": "梅陇镇伊势丹商场(Westgate Tower)",
    "lon": "121.456645",
    "lat": "31.229242",
    "category": "252",
    "category_name": "楼宇机构",
    "address": "南京西路1038号"
  },
  {
    "poiid": "B2094757D065A2FF479A",
    "title": "美国领事馆签证处",
    "lon": "121.456695138",
    "lat": "31.2288976717",
    "category": "252",
    "category_name": "楼宇机构",
    "address": "静安区南京西路1038号梅龙镇广场8楼(近江宁路)"
  },
  {
    "poiid": "B2094757D165A7FF4799",
    "title": "复地金石湾",
    "lon": "121.3710045939",
    "lat": "30.756664362127",
    "category": "252",
    "category_name": "楼宇机构",
    "address": "浦卫公路16299号"
  },
  {
    "poiid": "B2094757DA64A6FE4492",
    "title": "长宁来福士广场",
    "lon": "121.421941",
    "lat": "31.221843",
    "category": "252",
    "category_name": "楼宇机构",
    "address": "长宁区长宁路的中山公园区域内"
  },
  {
    "poiid": "B2094757D06FABFD459D",
    "title": "荣欣大厦",
    "lon": "121.490138",
    "lat": "31.26684",
    "category": "252",
    "category_name": "楼宇机构",
    "address": "上海市四川北路1851号"
  },
  {
    "poiid": "B2094757D064A5FC499B",
    "title": "浦电路29弄",
    "lon": "121.515247",
    "lat": "31.216516",
    "category": "252",
    "category_name": "楼宇机构",
    "address": "上海我住这!!!"
  },
  {
    "poiid": "B2094757D16DA6FA459A",
    "title": "国泰大厦",
    "lon": "121.42901837812",
    "lat": "31.22256943391",
    "category": "252",
    "category_name": "楼宇机构",
    "address": "上海定西路1310弄4号"
  },
  {
    "poiid": "B2094757D064A3FF459D",
    "title": "名光大厦",
    "lon": "121.428",
    "lat": "31.2221",
    "category": "252",
    "category_name": "楼宇机构",
    "address": "上海定西路1279号"
  },
  {
    "poiid": "B2094757D16BA7FB489A",
    "title": "世贸大厦",
    "lon": "121.48218373",
    "lat": "31.232370345",
    "category": "252",
    "category_name": "楼宇机构",
    "address": "卢湾区复兴中路369号(马当路口)"
  },
  {
    "poiid": "B2094757D16DABFE479B",
    "title": "慧华苑",
    "lon": "121.39795",
    "lat": "31.308802",
    "category": "252",
    "category_name": "楼宇机构",
    "address": "上海市宝山区南陈路"
  },
  {
    "poiid": "B2094757D06FAAF4499B",
    "title": "龙南五村",
    "lon": "121.454401146",
    "lat": "31.1534590508",
    "category": "252",
    "category_name": "楼宇机构",
    "address": "上海龙水南路350号"
  },
  {
    "poiid": "B2094757D06AABFC489F",
    "title": "聚龙新苑",
    "lon": "121.45094",
    "lat": "31.156487",
    "category": "252",
    "category_name": "楼宇机构",
    "address": "上海市徐汇区黄石路8号"
  },
  {
    "poiid": "B2094757D068A2FA419C",
    "title": "宜川三村",
    "lon": "121.440673",
    "lat": "31.258837",
    "category": "252",
    "category_name": "楼宇机构",
    "address": "上海宜川路华阴路"
  },
  {
    "poiid": "B2094750DA6FA2F8439D",
    "title": "上海电气集团",
    "lon": "121.429214",
    "lat": "31.16513",
    "category": "252",
    "category_name": "楼宇机构",
    "address": "钦江路212号"
  },
  {
    "poiid": "B2094757D16DA4FB4493",
    "title": "上海康城维园道",
    "lon": "121.35380697",
    "lat": "31.103291268",
    "category": "252",
    "category_name": "楼宇机构",
    "address": "上海市闵行区莘松路958弄"
  },
  {
    "poiid": "B2094757D169A1FB4093",
    "title": "上海康城江山道",
    "lon": "121.358814",
    "lat": "31.101666",
    "category": "252",
    "category_name": "楼宇机构",
    "address": "上海莘松路958弄"
  },
  {
    "poiid": "B2094757D06BA6F9409E",
    "title": "凌阳大厦",
    "lon": "121.59737095",
    "lat": "31.203805892",
    "category": "252",
    "category_name": "楼宇机构",
    "address": "上海祖冲之路1077号"
  },
  {
    "poiid": "B2094654DA6FABF4409D",
    "title": "法国驻上海总领事馆",
    "lon": "121.47889",
    "lat": "31.23075",
    "category": "252",
    "category_name": "楼宇机构",
    "address": "上海广东路689号海通证券大楼2楼"
  },
  {
    "poiid": "B2094757D06FA7F54298",
    "title": "徐家匯花園",
    "lon": "121.44533538",
    "lat": "31.196586608",
    "category": "252",
    "category_name": "楼宇机构",
    "address": "上海宛平南路255弄"
  },
  {
    "poiid": "B2094757D06AA7F5469B",
    "title": "外滩街道社区事务受理服务中心",
    "lon": "121.484199",
    "lat": "31.240043",
    "category": "252",
    "category_name": "楼宇机构",
    "address": "上海河南中路568号"
  },
  {
    "poiid": "B2094757D065ABFA459A",
    "title": "月浦九村",
    "lon": "121.43",
    "lat": "31.4229",
    "category": "252",
    "category_name": "楼宇机构",
    "address": "上海宝山区月浦镇德都路四元路"
  },
  {
    "poiid": "B2094757D16DABF9429B",
    "title": "月浦八村",
    "lon": "121.42426",
    "lat": "31.416502",
    "category": "252",
    "category_name": "楼宇机构",
    "address": "德都路1弄"
  },
  {
    "poiid": "B2094750D56DA5FC449F",
    "title": "108创意广场银座",
    "lon": "121.466857",
    "lat": "31.267145",
    "category": "252",
    "category_name": "楼宇机构",
    "address": "闸北区平型关路138号"
  },
  {
    "poiid": "B2094757D66FA0F94898",
    "title": "荣景苑",
    "lon": "121.241",
    "lat": "31.0103",
    "category": "252",
    "category_name": "楼宇机构",
    "address": "上海松江松汇西路"
  },
  {
    "poiid": "B2094750D469A6F54692",
    "title": "上海浦东新国际展览中心",
    "lon": "121.568428",
    "lat": "31.207855",
    "category": "252",
    "category_name": "楼宇机构",
    "address": "E2馆"
  },
  {
    "poiid": "B2094753D26CABFB4398",
    "title": "金茂大厦",
    "lon": "121.485226",
    "lat": "31.224728",
    "category": "252",
    "category_name": "楼宇机构",
    "address": "上海市 上海"
  },
  {
    "poiid": "B2094757D068A7FA419E",
    "title": "凌高小区",
    "lon": "121.55047305",
    "lat": "31.246869671",
    "category": "252",
    "category_name": "楼宇机构",
    "address": "上海栖山路401弄"
  },
  {
    "poiid": "B2094757D16CA2FC4998",
    "title": "东方城市公寓",
    "lon": "121.54860963",
    "lat": "31.246827428",
    "category": "252",
    "category_name": "楼宇机构",
    "address": "上海市浦东新区苗圃路60弄"
  },
  {
    "poiid": "B2094757D16FA6FE449D",
    "title": "梅陇八村",
    "lon": "121.42489",
    "lat": "31.136774",
    "category": "252",
    "category_name": "楼宇机构",
    "address": "上海徐汇区龙州路嘉川路"
  },
  {
    "poiid": "B2094757D164A5FD499D",
    "title": "泰极大厦",
    "lon": "121.445",
    "lat": "31.2487",
    "category": "252",
    "category_name": "楼宇机构",
    "address": "上海普陀区西康路1249弄33号(长寿公园对面)"
  },
  {
    "poiid": "B2094757DA6FA3FE439D",
    "title": "龙湖好望山",
    "lon": "121.22830682175",
    "lat": "31.095928196908",
    "category": "252",
    "category_name": "楼宇机构",
    "address": "松江区人民北路2908弄"
  },
  {
    "poiid": "B2094757D064A1F9409A",
    "title": "强生花苑",
    "lon": "121.44524",
    "lat": "31.176025",
    "category": "252",
    "category_name": "楼宇机构",
    "address": "上海市徐汇区龙华西路398号"
  },
  {
    "poiid": "B2094757D16EA1F5449F",
    "title": "漕溪三村",
    "lon": "121.44387292701",
    "lat": "31.176370185723",
    "category": "252",
    "category_name": "楼宇机构",
    "address": "上海漕东支路 漕溪三村"
  },
  {
    "poiid": "B2094757D169A6F9469F",
    "title": "环球实业大厦",
    "lon": "121.446751586",
    "lat": "31.1758363677",
    "category": "252",
    "category_name": "楼宇机构",
    "address": "上海市徐汇区龙华西路"
  },
  {
    "poiid": "B2094757D169AAFD4998",
    "title": "海潮新村",
    "lon": "121.497",
    "lat": "31.209507",
    "category": "252",
    "category_name": "楼宇机构",
    "address": "上海市黄浦区陆家浜路普育东路"
  },
  {
    "poiid": "B2094751D468A5FA419A",
    "title": "公益新天地",
    "lon": "121.495041",
    "lat": "31.210663",
    "category": "252",
    "category_name": "楼宇机构",
    "address": "普育西路105号"
  },
  {
    "poiid": "B2094757D064A2FB489F",
    "title": "中福花苑青年会公寓",
    "lon": "121.499550738",
    "lat": "31.2101788729",
    "category": "252",
    "category_name": "楼宇机构",
    "address": "上海市黄浦区陆家浜路388号"
  },
  {
    "poiid": "B2094655D26BABFC459E",
    "title": "泰晤士小镇商业",
    "lon": "121.2281",
    "lat": "31.01332",
    "category": "252",
    "category_name": "楼宇机构",
    "address": "乐都路339号"
  },
  {
    "poiid": "B2094757D16AA3F84693",
    "title": "汤臣别墅区",
    "lon": "121.582292975",
    "lat": "31.2247609328",
    "category": "252",
    "category_name": "楼宇机构",
    "address": "上海市浦东新区龙东大道"
  },
  {
    "poiid": "B2094750DB64AAF84498",
    "title": "国药大厦",
    "lon": "121.410736",
    "lat": "31.201501",
    "category": "252",
    "category_name": "楼宇机构",
    "address": "中山西路1001号"
  },
  {
    "poiid": "B2094757D56DA6F5479A",
    "title": "环智国际大厦",
    "lon": "121.45422220230103",
    "lat": "31.244507776936864",
    "category": "252",
    "category_name": "楼宇机构",
    "address": "上海,上海市,恒丰路436号"
  },
  {
    "poiid": "B2094750DB69A7FC459C",
    "title": "外企德科法签上海中心",
    "lon": "121.45568",
    "lat": "31.243995",
    "category": "252",
    "category_name": "楼宇机构",
    "address": "闸北区恒丰路299号隆宇国际商务大厦8层"
  },
  {
    "poiid": "B2094750DA6AA0F4479F",
    "title": "人才大廈",
    "lon": "121.456268",
    "lat": "31.243707",
    "category": "252",
    "category_name": "楼宇机构",
    "address": "梅園路77號"
  },
  {
    "poiid": "B2094750DA6AA7F4429E",
    "title": "上海消防总队训练基地",
    "lon": "121.695243",
    "lat": "30.926071",
    "category": "252",
    "category_name": "楼宇机构",
    "address": "洪南路"
  },
  {
    "poiid": "B2094757DA64AAFC459E",
    "title": "大拇指广场",
    "lon": "121.558871",
    "lat": "31.226858",
    "category": "252",
    "category_name": "楼宇机构",
    "address": "芳甸路199弄19号"
  },
  {
    "poiid": "B2094750DA68A6F94193",
    "title": "浦东国际人才城",
    "lon": "121.590286",
    "lat": "31.186252",
    "category": "252",
    "category_name": "楼宇机构",
    "address": "科苑路张衡路"
  },
  {
    "poiid": "B2094757D16FA3F4449F",
    "title": "东沟四村",
    "lon": "121.57421",
    "lat": "31.29084",
    "category": "252",
    "category_name": "楼宇机构",
    "address": "上海市浦东新区东靖路"
  },
  {
    "poiid": "B2094757D068A0FB4492",
    "title": "东安五村",
    "lon": "121.45214709",
    "lat": "31.184289321",
    "category": "252",
    "category_name": "楼宇机构",
    "address": "上海市宛平南路909弄"
  },
  {
    "poiid": "B2094757D16EA3F4409A",
    "title": "物华公寓",
    "lon": "121.45184",
    "lat": "31.182695",
    "category": "252",
    "category_name": "楼宇机构",
    "address": "上海徐汇区宛平南路968弄"
  },
  {
    "poiid": "B2094750DB65A3F8489B",
    "title": "白金院邸",
    "lon": "121.315139",
    "lat": "31.303794",
    "category": "252",
    "category_name": "楼宇机构",
    "address": "芳林路819弄"
  },
  {
    "poiid": "B2094750D165A7FC489D",
    "title": "城汇大厦",
    "lon": "121.470672",
    "lat": "31.219001",
    "category": "252",
    "category_name": "楼宇机构",
    "address": "南昌路45号"
  },
  {
    "poiid": "B2094757D069ABFB4792",
    "title": "宝景苑",
    "lon": "121.47723",
    "lat": "31.338472",
    "category": "252",
    "category_name": "楼宇机构",
    "address": "上海宝山区通南路55弄"
  },
  {
    "poiid": "B2094757D06BA3FE499C",
    "title": "淞南八村",
    "lon": "121.487",
    "lat": "31.3413",
    "category": "252",
    "category_name": "楼宇机构",
    "address": "长江南路143号"
  },
  {
    "poiid": "B2094757D065A0F9439A",
    "title": "淞南五村(老)",
    "lon": "121.484233103",
    "lat": "31.3368458117",
    "category": "252",
    "category_name": "楼宇机构",
    "address": "上海市宝山区长逸路淞肇路"
  },
  {
    "poiid": "B2094757D068A1F9409C",
    "title": "锦通苑",
    "lon": "121.47403",
    "lat": "31.336796",
    "category": "252",
    "category_name": "楼宇机构",
    "address": "上海市宝山区新二路1398弄36号"
  },
  {
    "poiid": "B2094757D06FA5FE469A",
    "title": "民生银行大厦(威海路)",
    "lon": "121.47063446",
    "lat": "31.228408813",
    "category": "252",
    "category_name": "楼宇机构",
    "address": "黄浦区威海路48号(近黄陂北路)"
  },
  {
    "poiid": "B2094757D065A2FD479C",
    "title": "上海滩国际大厦",
    "lon": "121.52042655",
    "lat": "30.814011628",
    "category": "252",
    "category_name": "楼宇机构",
    "address": "上海黄埔路99号"
  },
  {
    "poiid": "B2094757D06FA0FB4999",
    "title": "普陀区人民政府",
    "lon": "121.396481784",
    "lat": "31.2495622802",
    "category": "252",
    "category_name": "楼宇机构",
    "address": "上海普陀区大渡河路1668号"
  },
  {
    "poiid": "B2094757D068A1FF4192",
    "title": "普陀区税务局",
    "lon": "121.394380281",
    "lat": "31.2493238773",
    "category": "252",
    "category_name": "楼宇机构",
    "address": "上海普陀区北石路579号"
  },
  {
    "poiid": "B2094757D16AA1FF409F",
    "title": "红星世贸大厦",
    "lon": "121.39256181928",
    "lat": "31.243826936363",
    "category": "252",
    "category_name": "楼宇机构",
    "address": "上海怒江北路598号"
  },
  {
    "poiid": "B2094757D16FA0FF499B",
    "title": "梧桐城邦三期",
    "lon": "121.41255",
    "lat": "31.292599",
    "category": "252",
    "category_name": "楼宇机构",
    "address": "真华路1958弄2号楼金仕堡健身会所"
  },
  {
    "poiid": "B2094757D06BABFC489B",
    "title": "松江大学城三期",
    "lon": "121.203803149",
    "lat": "31.0493673889",
    "category": "252",
    "category_name": "楼宇机构",
    "address": "上海文汇路800弄"
  },
  {
    "poiid": "B2094757D069AAF5479A",
    "title": "广杭苑135弄",
    "lon": "121.5370991",
    "lat": "31.257551153",
    "category": "252",
    "category_name": "楼宇机构",
    "address": "上海眉州路135弄"
  },
  {
    "poiid": "B2094654DB65AAF54492",
    "title": "印度驻上海总领事馆",
    "lon": "121.42526",
    "lat": "31.21385",
    "category": "252",
    "category_name": "楼宇机构",
    "address": "长宁区延安西路2200号1008室"
  },
  {
    "poiid": "B2094757D069ABFB499C",
    "title": "虹桥1号",
    "lon": "121.331484",
    "lat": "31.223735",
    "category": "252",
    "category_name": "楼宇机构",
    "address": "闵行区虹秀路8弄"
  },
  {
    "poiid": "B2094757D16CA7FE469E",
    "title": "华漕新村",
    "lon": "121.3279",
    "lat": "31.225761",
    "category": "252",
    "category_name": "楼宇机构",
    "address": "华漕新村1-58号,60-77号"
  },
  {
    "poiid": "B2094753D269A5F44199",
    "title": "嘉定国资大厦",
    "lon": "121.257034",
    "lat": "31.349564",
    "category": "252",
    "category_name": "楼宇机构",
    "address": "上海市 嘉定区德富路1288号"
  },
  {
    "poiid": "B2094757D06AA3FA439E",
    "title": "虹桥1号楼",
    "lon": "121.3544507",
    "lat": "31.1985262788",
    "category": "252",
    "category_name": "楼宇机构",
    "address": "上海虹桥机场"
  },
  {
    "poiid": "B2094757D06FA7FA4699",
    "title": "上海市交通警察总队车辆管理所(一分所)",
    "lon": "121.366082",
    "lat": "31.2012371",
    "category": "252",
    "category_name": "楼宇机构",
    "address": "上海长宁区哈密路1330号"
  },
  {
    "poiid": "B2094757D06BA7FE489E",
    "title": "金领国际",
    "lon": "121.680493",
    "lat": "31.253423",
    "category": "252",
    "category_name": "楼宇机构",
    "address": "浦东新区川沙路1666号"
  },
  {
    "poiid": "B2094757DA64A3FF4192",
    "title": "恒生商业广场",
    "lon": "121.680043",
    "lat": "31.241123",
    "category": "252",
    "category_name": "楼宇机构",
    "address": "浦东新区上丰路(近金枫公园)"
  },
  {
    "poiid": "B2094757D064A6FB469D",
    "title": "同馨苑",
    "lon": "121.684",
    "lat": "31.2496",
    "category": "252",
    "category_name": "楼宇机构",
    "address": "云雅路337号等单号"
  },
  {
    "poiid": "B2094757D06AA5FF419C",
    "title": "康泰公寓",
    "lon": "121.41457",
    "lat": "31.229763",
    "category": "252",
    "category_name": "楼宇机构",
    "address": "上海市普陀区石湾路7弄"
  },
  {
    "poiid": "B2094757DA6BA0FE459B",
    "title": "建邦大厦",
    "lon": "121.497618",
    "lat": "31.266483",
    "category": "252",
    "category_name": "楼宇机构",
    "address": "古墩路与余杭塘路交汇处西南角(余杭塘路279号)"
  },
  {
    "poiid": "B2094757D16CA3F5419A",
    "title": "电信信息大厦",
    "lon": "121.5106758",
    "lat": "31.2354171926",
    "category": "252",
    "category_name": "楼宇机构",
    "address": "上海世纪大道211号"
  },
  {
    "poiid": "B2094757D06FA6FD409D",
    "title": "平吉二村",
    "lon": "121.380914",
    "lat": "31.142429",
    "category": "252",
    "category_name": "楼宇机构",
    "address": "上海虹莘路2288号"
  },
  {
    "poiid": "B2094757D06BA0F44793",
    "title": "汇成三村",
    "lon": "121.441",
    "lat": "31.1509",
    "category": "252",
    "category_name": "楼宇机构",
    "address": "上海百色路"
  },
  {
    "poiid": "B2094750D16BA4FE4299",
    "title": "好世皇马苑",
    "lon": "121.281971",
    "lat": "31.326236",
    "category": "252",
    "category_name": "楼宇机构",
    "address": "康丰路28弄(近崇文路)"
  },
  {
    "poiid": "B2094757D16EA5FD439B",
    "title": "上南一村",
    "lon": "121.4976",
    "lat": "31.178314",
    "category": "252",
    "category_name": "楼宇机构",
    "address": "上海市浦东新上南一村"
  },
  {
    "poiid": "B2094757D068A1F94499",
    "title": "上南四村",
    "lon": "121.502",
    "lat": "31.1786",
    "category": "252",
    "category_name": "楼宇机构",
    "address": "上海上南路1251弄上南四村"
  },
  {
    "poiid": "B2094757D068A3F9469F",
    "title": "白玉新村",
    "lon": "121.416642",
    "lat": "31.232415",
    "category": "252",
    "category_name": "楼宇机构",
    "address": "上海白玉路宁夏路"
  },
  {
    "poiid": "B2094757D068A0FB4399",
    "title": "延吉七村",
    "lon": "121.54116771808",
    "lat": "31.295803022138",
    "category": "252",
    "category_name": "楼宇机构",
    "address": "上海延吉七村"
  },
  {
    "poiid": "B2094757D06FAAFA449A",
    "title": "浣沙三村",
    "lon": "121.53683",
    "lat": "31.302334",
    "category": "252",
    "category_name": "楼宇机构",
    "address": "上海杨浦区沙岗路国顺东路"
  },
  {
    "poiid": "B2094654DB64A3FA4799",
    "title": "张江集电港",
    "lon": "121.63318",
    "lat": "31.22205",
    "category": "252",
    "category_name": "楼宇机构",
    "address": "卫清西路139_149号等"
  },
  {
    "poiid": "B2094757D66EA6F94793",
    "title": "张江国际豪庭",
    "lon": "121.642386375",
    "lat": "31.2168653481",
    "category": "252",
    "category_name": "楼宇机构",
    "address": "上海银樽路58号"
  },
  {
    "poiid": "B2094757DA64ABF8479E",
    "title": "张江集电港",
    "lon": "121.635391",
    "lat": "31.217871",
    "category": "252",
    "category_name": "楼宇机构",
    "address": "卫清西路139_149号等"
  },
  {
    "poiid": "B2094757D16DABF9489C",
    "title": "仁恒运杰河滨花园",
    "lon": "121.136",
    "lat": "31.1474",
    "category": "252",
    "category_name": "楼宇机构",
    "address": "上海市浦东新区锦和路99弄"
  },
  {
    "poiid": "B2094757D06FAAFF4199",
    "title": "莱顿小城",
    "lon": "121.25373077",
    "lat": "31.065887451",
    "category": "252",
    "category_name": "楼宇机构",
    "address": "上海松江区辰花公路839弄"
  },
  {
    "poiid": "B2094757D16CABFD429F",
    "title": "浦江二号",
    "lon": "121.5048131",
    "lat": "31.248448963",
    "category": "252",
    "category_name": "楼宇机构",
    "address": "上海市浦东新区滨江大道2050号"
  },
  {
    "poiid": "B2094757D065A4F54698",
    "title": "临江大厦",
    "lon": "121.505254603",
    "lat": "31.2515369277",
    "category": "252",
    "category_name": "楼宇机构",
    "address": "上海市松江区涞坊路599弄"
  },
  {
    "poiid": "B2094757D165A1FF4999",
    "title": "杨园新村",
    "lon": "121.63865730827",
    "lat": "31.322282861356",
    "category": "252",
    "category_name": "楼宇机构",
    "address": "新龙路289弄"
  },
  {
    "poiid": "B2094757D064A0F54998",
    "title": "虹桥城市花园",
    "lon": "121.41093",
    "lat": "31.192495",
    "category": "252",
    "category_name": "楼宇机构",
    "address": "上海黄金城道99弄"
  },
  {
    "poiid": "B2094757D06AA4FF469D",
    "title": "恒安大厦",
    "lon": "121.474",
    "lat": "31.2471",
    "category": "252",
    "category_name": "楼宇机构",
    "address": "上海石门二路333弄3号楼"
  },
  {
    "poiid": "B2094757D16FA0FF4098",
    "title": "北苑大厦",
    "lon": "121.47166707348",
    "lat": "31.249941794175",
    "category": "252",
    "category_name": "楼宇机构",
    "address": "上海天目中路538弄"
  },
  {
    "poiid": "B2094757D66DA6FC469D",
    "title": "海天大厦",
    "lon": "121.475",
    "lat": "31.2507",
    "category": "252",
    "category_name": "楼宇机构",
    "address": "上海市闸北区天目中路1388号"
  },
  {
    "poiid": "B2094757D069AAF5429A",
    "title": "光鸿苑",
    "lon": "121.51543",
    "lat": "31.199341",
    "category": "252",
    "category_name": "楼宇机构",
    "address": "上海市浦东新区临沂路8弄"
  },
  {
    "poiid": "B2094750DA6AA3F5489B",
    "title": "soho世纪广场",
    "lon": "121.533538",
    "lat": "31.22653",
    "category": "252",
    "category_name": "楼宇机构",
    "address": "向城路288号"
  },
  {
    "poiid": "B2094750D26DA2F8419D",
    "title": "知爱母婴专护中心",
    "lon": "121.41734",
    "lat": "31.206205",
    "category": "252",
    "category_name": "楼宇机构",
    "address": "长宁区长宁区新华路563号(近定西路)"
  },
  {
    "poiid": "B2094757D16BAAF8429C",
    "title": "永惠大厦",
    "lon": "121.49333898869",
    "lat": "31.222608612505",
    "category": "252",
    "category_name": "楼宇机构",
    "address": "上海市黄浦区西藏南路775-779号"
  },
  {
    "poiid": "B2094757D168A2F4449E",
    "title": "江南二村",
    "lon": "121.462652573",
    "lat": "31.1907546123",
    "category": "252",
    "category_name": "楼宇机构",
    "address": "上海小木桥路中山南二路"
  },
  {
    "poiid": "B2094757D169A7F54892",
    "title": "南杨小区693弄",
    "lon": "121.49241673",
    "lat": "31.157734756",
    "category": "252",
    "category_name": "楼宇机构",
    "address": "上海市西营南路"
  },
  {
    "poiid": "B2094757D06FA7FE419E",
    "title": "水清三村",
    "lon": "121.37881",
    "lat": "31.116762",
    "category": "252",
    "category_name": "楼宇机构",
    "address": "上海市闵行区庙泾路52弄"
  },
  {
    "poiid": "B2094757D16DA2FF459A",
    "title": "晨林花苑",
    "lon": "121.49493",
    "lat": "31.259647",
    "category": "252",
    "category_name": "楼宇机构",
    "address": "上海市虹口区物华路98弄"
  },
  {
    "poiid": "B2094757D66DAAF4419E",
    "title": "赵巷 留园",
    "lon": "121.17910356",
    "lat": "31.1704191556",
    "category": "252",
    "category_name": "楼宇机构",
    "address": "上海市青浦区崧泽大道"
  },
  {
    "poiid": "B2094757D064A4F94598",
    "title": "复兴苑",
    "lon": "121.47475",
    "lat": "31.213816",
    "category": "252",
    "category_name": "楼宇机构",
    "address": "上海合肥路淡水路"
  },
  {
    "poiid": "B2094757D164AAF8409B",
    "title": "凯迪枫丹白露",
    "lon": "121.717674",
    "lat": "31.044136",
    "category": "252",
    "category_name": "楼宇机构",
    "address": "上海市浦东新区南六公路188号"
  },
  {
    "poiid": "B2094757D06AAAFF409A",
    "title": "南汇工业园区",
    "lon": "121.72476069",
    "lat": "31.035806478",
    "category": "252",
    "category_name": "楼宇机构",
    "address": "上海园中路"
  },
  {
    "poiid": "B2094757D16BA6F5449F",
    "title": "四达路25弄",
    "lon": "121.491079",
    "lat": "31.266557",
    "category": "252",
    "category_name": "楼宇机构",
    "address": "四达路25弄1-4号"
  },
  {
    "poiid": "B2094757D165ABFF499D",
    "title": "华侨城苏河湾",
    "lon": "121.473006",
    "lat": "31.241215",
    "category": "252",
    "category_name": "楼宇机构",
    "address": "廖廓北路与建宁西路交汇处"
  },
  {
    "poiid": "B2094757D06BA3FF479A",
    "title": "康健丽都",
    "lon": "121.40569",
    "lat": "31.147306",
    "category": "252",
    "category_name": "楼宇机构",
    "address": "康健丽都位于闵行古美路,顾戴路口"
  },
  {
    "poiid": "B2094757D064ABFF459C",
    "title": "海文商务楼",
    "lon": "121.47376723",
    "lat": "31.213863451",
    "category": "252",
    "category_name": "楼宇机构",
    "address": "上海合肥路315号"
  },
  {
    "poiid": "B2094757D06AA5FF489C",
    "title": "锦杨苑",
    "lon": "121.52838",
    "lat": "31.262629",
    "category": "252",
    "category_name": "楼宇机构",
    "address": "上海市杨浦区齐齐哈尔路598弄35号(惠民路口)"
  },
  {
    "poiid": "B2094757D068A2FC459C",
    "title": "杨浦区社会保险事业管理中心",
    "lon": "121.525407",
    "lat": "31.262155",
    "category": "252",
    "category_name": "楼宇机构",
    "address": "上海杨浦区江浦路736号"
  },
  {
    "poiid": "B2094757D068A2FE4898",
    "title": "明园村小区",
    "lon": "121.52177",
    "lat": "31.262873",
    "category": "252",
    "category_name": "楼宇机构",
    "address": "上海长阳路910弄(近怀德路)"
  },
  {
    "poiid": "B2094757DA64A6F9419F",
    "title": "中山商业楼",
    "lon": "121.25257360791",
    "lat": "31.040642969101",
    "category": "252",
    "category_name": "楼宇机构",
    "address": "松江茸梅路185号"
  },
  {
    "poiid": "B2094757D06BA3FC469A",
    "title": "同济.蓬莱家园",
    "lon": "121.501052856",
    "lat": "31.1994228363",
    "category": "252",
    "category_name": "楼宇机构",
    "address": "上海瞿溪路301弄"
  },
  {
    "poiid": "B2094757D16FA3F4489C",
    "title": "品新苑",
    "lon": "121.52457",
    "lat": "31.140457",
    "category": "252",
    "category_name": "楼宇机构",
    "address": "上海环林西路613弄"
  },
  {
    "poiid": "B2094757D068A0FF459E",
    "title": "呼玛四村",
    "lon": "121.44572",
    "lat": "31.344154",
    "category": "252",
    "category_name": "楼宇机构",
    "address": "上海呼兰路675号"
  },
  {
    "poiid": "B2094757D064A4F9469A",
    "title": "临沂新村",
    "lon": "121.513965",
    "lat": "31.191612",
    "category": "252",
    "category_name": "楼宇机构",
    "address": "上海东方路浦三路"
  },
  {
    "poiid": "B2094757D16FA5FF4499",
    "title": "寶城二村",
    "lon": "121.48885233",
    "lat": "31.408581263",
    "category": "252",
    "category_name": "楼宇机构",
    "address": "上海市友誼路東林路"
  },
  {
    "poiid": "B2094757D16DAAFF4399",
    "title": "新上海花园洋房",
    "lon": "121.33482283",
    "lat": "31.136132156",
    "category": "252",
    "category_name": "楼宇机构",
    "address": "新上海花园洋房(新上海里弄人家三期)位于松江涞亭南路290弄"
  },
  {
    "poiid": "B2094757D16FA3F8499D",
    "title": "上实大厦",
    "lon": "121.444503",
    "lat": "31.199355",
    "category": "252",
    "category_name": "楼宇机构",
    "address": "上海市徐汇区漕溪北路"
  },
  {
    "poiid": "B2094757D06BA2FE449B",
    "title": "芳雅苑",
    "lon": "121.56347",
    "lat": "31.196285",
    "category": "252",
    "category_name": "楼宇机构",
    "address": "芳华路630弄，芳华路660弄"
  },
  {
    "poiid": "B2094752D76EA4F5419A",
    "title": "浦东国际机场T2",
    "lon": "121.560965",
    "lat": "31.199975",
    "category": "252",
    "category_name": "楼宇机构",
    "address": null
  },
  {
    "poiid": "B2094757D069A0FF459E",
    "title": "雅州大厦1号楼",
    "lon": "121.468699",
    "lat": "31.23836",
    "category": "252",
    "category_name": "楼宇机构",
    "address": "上海黄浦区黄河路355号"
  },
  {
    "poiid": "B2094757D16DA6FB409B",
    "title": "九华苑",
    "lon": "121.46101",
    "lat": "30.933996",
    "category": "252",
    "category_name": "楼宇机构",
    "address": "上海奉浦国顺路318号"
  },
  {
    "poiid": "B2094757D16BA2FB449A",
    "title": "景怡佳苑",
    "lon": "121.46146",
    "lat": "30.941189",
    "category": "252",
    "category_name": "楼宇机构",
    "address": "上海市奉贤区环城东路499弄"
  },
  {
    "poiid": "B2094757D164ABFC489E",
    "title": "民东公寓",
    "lon": "121.31886",
    "lat": "31.294855",
    "category": "252",
    "category_name": "楼宇机构",
    "address": "上海市嘉定区南翔镇民主东街"
  },
  {
    "poiid": "B2094757D06BA2FE4799",
    "title": "明申花园",
    "lon": "121.39806",
    "lat": "31.181097",
    "category": "252",
    "category_name": "楼宇机构",
    "address": "上海市闵行区吴中路630号"
  },
  {
    "poiid": "B2094654DA6CAAFE479F",
    "title": "大韩民国驻上海总领事馆文化处",
    "lon": "121.43652",
    "lat": "31.18747",
    "category": "252",
    "category_name": "楼宇机构",
    "address": "漕溪北路396-398号汇智大厦"
  },
  {
    "poiid": "B2094757D064A1FD4798",
    "title": "运杰城市花园",
    "lon": "121.136759041",
    "lat": "31.1439934034",
    "category": "252",
    "category_name": "楼宇机构",
    "address": "上海市宝山区聚丰园路303号"
  },
  {
    "poiid": "B2094757D064A2FB429E",
    "title": "佳乐苑",
    "lon": "121.143998",
    "lat": "31.164121",
    "category": "252",
    "category_name": "楼宇机构",
    "address": "青浦华盈路685弄"
  },
  {
    "poiid": "B2094757D66CABFE4193",
    "title": "人民路邮政支局",
    "lon": "121.22650946",
    "lat": "31.005547962",
    "category": "252",
    "category_name": "楼宇机构",
    "address": "上海松江区人民南路65号"
  },
  {
    "poiid": "B2094757D66DAAFA449B",
    "title": "妙严寺邮政所",
    "lon": "121.232458467",
    "lat": "31.0057462663",
    "category": "252",
    "category_name": "楼宇机构",
    "address": "上海松江区中山中路258号"
  },
  {
    "poiid": "B2094655D26DA7F84592",
    "title": "日本国总领事馆",
    "lon": "121.40135",
    "lat": "31.2035",
    "category": "252",
    "category_name": "楼宇机构",
    "address": ""
  },
  {
    "poiid": "B2094750D26EAAF5439C",
    "title": "古北国际财富中心",
    "lon": "121.401069",
    "lat": "31.200679",
    "category": "252",
    "category_name": "楼宇机构",
    "address": "上海市长宁区虹桥路1452号"
  },
  {
    "poiid": "B2094757D068A3FD489A",
    "title": "莘城公寓",
    "lon": "121.39272",
    "lat": "31.10881",
    "category": "252",
    "category_name": "楼宇机构",
    "address": "莘城公寓位于闵行宝城路158弄(近莘朱路)"
  },
  {
    "poiid": "B2094757DA64A1F5489C",
    "title": "佘山新天地休闲广场",
    "lon": "121.178319",
    "lat": "31.092834",
    "category": "252",
    "category_name": "楼宇机构",
    "address": "松江佘山镇桃源路178号（外青松路口）"
  },
  {
    "poiid": "B2094654DA6BA4F4409F",
    "title": "上海地震科普馆",
    "lon": "121.19564",
    "lat": "31.09203",
    "category": "252",
    "category_name": "楼宇机构",
    "address": "上海市松江区佘山镇西佘山环山路"
  },
  {
    "poiid": "B2094750D26BABF9499D",
    "title": "松江区房地产交易中心",
    "lon": "121.189308",
    "lat": "31.031093",
    "category": "252",
    "category_name": "楼宇机构",
    "address": "松江区文诚路1611号"
  },
  {
    "poiid": "B2094757D16DA5FA499A",
    "title": "航华二村",
    "lon": "121.38469328",
    "lat": "31.19645972",
    "category": "252",
    "category_name": "楼宇机构",
    "address": "上海航华二村"
  },
  {
    "poiid": "B2094750DA68A1FE449D",
    "title": "张闻天故居",
    "lon": "121.759719",
    "lat": "31.139444",
    "category": "252",
    "category_name": "楼宇机构",
    "address": "浦东新区川沙新镇闻居路50号(周祝公路祝惠路)"
  },
  {
    "poiid": "B2094752D26AA6FC489A",
    "title": "浦东机场T2航站楼",
    "lon": "121.755126",
    "lat": "31.130522",
    "category": "252",
    "category_name": "楼宇机构",
    "address": null
  },
  {
    "poiid": "B2094757D065A0F44393",
    "title": "虹南小区",
    "lon": "121.41888",
    "lat": "31.191803",
    "category": "252",
    "category_name": "楼宇机构",
    "address": "上海中山西路1432弄"
  },
  {
    "poiid": "B2094757D069ABFB489F",
    "title": "湘江大厦",
    "lon": "121.420207",
    "lat": "31.192691",
    "category": "252",
    "category_name": "楼宇机构",
    "address": "上海市长宁区中山西路1265弄18号"
  },
  {
    "poiid": "B2094655D264A0F8479F",
    "title": "圣骊创意园",
    "lon": "121.42068",
    "lat": "31.19375",
    "category": "252",
    "category_name": "楼宇机构",
    "address": "闸北区中山北路470号（临近西藏北路）"
  },
  {
    "poiid": "B2094757D16DA1FD499A",
    "title": "中海翡翠湖岸别墅区",
    "lon": "121.24061279",
    "lat": "31.144267965",
    "category": "252",
    "category_name": "楼宇机构",
    "address": "上海青浦区赵巷镇"
  },
  {
    "poiid": "B2094757D16CA4FC419C",
    "title": "龙湖滟澜山",
    "lon": "121.236",
    "lat": "31.1402",
    "category": "252",
    "category_name": "楼宇机构",
    "address": "上海青浦区赵巷镇沪青平公路"
  },
  {
    "poiid": "B2094757D06AA3FC459A",
    "title": "崇明中兴镇",
    "lon": "121.755693",
    "lat": "31.521746",
    "category": "252",
    "category_name": "楼宇机构",
    "address": "上海崇明县中兴镇"
  },
  {
    "poiid": "B2094757DA6EABF84393",
    "title": "宝钢资源大厦",
    "lon": "121.499366700002",
    "lat": "31.2487691999997",
    "category": "252",
    "category_name": "楼宇机构",
    "address": "虹口区东大名路568号"
  },
  {
    "poiid": "B2094757D16AA0F8439E",
    "title": "梅川二街坊",
    "lon": "121.394079286",
    "lat": "31.241878459",
    "category": "252",
    "category_name": "楼宇机构",
    "address": "上海梅岭北路1251弄，梅川路850弄"
  },
  {
    "poiid": "B2094757DA6BA0FC4093",
    "title": "汇领商墅",
    "lon": "121.699548",
    "lat": "31.107441",
    "category": "252",
    "category_name": "楼宇机构",
    "address": "静安区南京西路555路"
  },
  {
    "poiid": "B2094757D06AA6FF429A",
    "title": "呼玛三村",
    "lon": "121.44167595",
    "lat": "31.339503388",
    "category": "252",
    "category_name": "楼宇机构",
    "address": "上海宝山区呼玛路近共和新路"
  },
  {
    "poiid": "B2094757D169ABFD449A",
    "title": "天虹四村",
    "lon": "121.24718",
    "lat": "31.030378",
    "category": "252",
    "category_name": "楼宇机构",
    "address": "上海市松江区茸梅路"
  },
  {
    "poiid": "B2094757D16EA3F4409B",
    "title": "大学城四期宿舍",
    "lon": "121.198118996",
    "lat": "31.0515447195",
    "category": "252",
    "category_name": "楼宇机构",
    "address": "上海松江大学城四期"
  },
  {
    "poiid": "B2094750D56FA4FD4692",
    "title": "华东政法大学图书馆（松江校区）",
    "lon": "121.197219",
    "lat": "31.055059",
    "category": "252",
    "category_name": "楼宇机构",
    "address": "龙源路555号"
  },
  {
    "poiid": "B2094757D16DA3F44398",
    "title": "美芦苑",
    "lon": "121.84345917",
    "lat": "30.898108517",
    "category": "252",
    "category_name": "楼宇机构",
    "address": "浦东新区南芦公路2160弄30号"
  },
  {
    "poiid": "B2094757D06AA0F8449A",
    "title": "比利时领事馆",
    "lon": "121.428513",
    "lat": "31.214012",
    "category": "252",
    "category_name": "楼宇机构",
    "address": "上海长宁区武夷路127号"
  },
  {
    "poiid": "B2094757D068A2F8449F",
    "title": "名人花苑",
    "lon": "121.45228611",
    "lat": "31.114902247",
    "category": "252",
    "category_name": "楼宇机构",
    "address": "上海徐汇区龙吴路2525弄"
  },
  {
    "poiid": "B2094757DA6FA3FF4993",
    "title": "好日子大家园D区",
    "lon": "121.37950444423",
    "lat": "31.360246626725",
    "category": "252",
    "category_name": "楼宇机构",
    "address": "上海市宝山区菊太路1399弄"
  },
  {
    "poiid": "B2094757D169A2F9499A",
    "title": "菊翔苑",
    "lon": "121.37411499",
    "lat": "31.356494903",
    "category": "252",
    "category_name": "楼宇机构",
    "address": "上海市菊联路"
  },
  {
    "poiid": "B2094757DA6BA4FA429C",
    "title": "长泰企业天地广场",
    "lon": "121.476942",
    "lat": "31.245884",
    "category": "252",
    "category_name": "楼宇机构",
    "address": "城阳308国道西侧，华仙路北侧"
  },
  {
    "poiid": "B2094750DB64A6FF489D",
    "title": "杨浦区出入境管理中心",
    "lon": "121.514968",
    "lat": "31.307382",
    "category": "252",
    "category_name": "楼宇机构",
    "address": "淞沪路605号"
  },
  {
    "poiid": "B2094751D469A2FC4092",
    "title": "中国银行上海市分行多功能厅",
    "lon": "121.4841926579378",
    "lat": "31.24184020212425",
    "category": "252",
    "category_name": "楼宇机构",
    "address": "滇池路56号"
  },
  {
    "poiid": "B2094757D169A4FD479C",
    "title": "嘉杰国际大厦",
    "lon": "121.482438138",
    "lat": "31.2418845485",
    "category": "252",
    "category_name": "楼宇机构",
    "address": "上海虹口区四川北路1717号1011"
  },
  {
    "poiid": "B2094654DA6FA4FF489A",
    "title": "上海黄浦中华职教社",
    "lon": "121.48486",
    "lat": "31.24071",
    "category": "252",
    "category_name": "楼宇机构",
    "address": "北京东路270号中一大楼702"
  },
  {
    "poiid": "B2094757DA6BA7FA499E",
    "title": "女青年会大楼",
    "lon": "121.4851",
    "lat": "31.24348",
    "category": "252",
    "category_name": "楼宇机构",
    "address": "上海市浦东新区张杨路500号"
  },
  {
    "poiid": "B2094654DA6FA4F54798",
    "title": "上海光华会计师事务所有限公司",
    "lon": "121.48584",
    "lat": "31.24291",
    "category": "252",
    "category_name": "楼宇机构",
    "address": "四川中路681号7层"
  },
  {
    "poiid": "B2094757D168A7FB429E",
    "title": "河滨大楼400号208",
    "lon": "121.48249773",
    "lat": "31.24339258",
    "category": "252",
    "category_name": "楼宇机构",
    "address": "上海虹口区北苏州路400号208室"
  },
  {
    "poiid": "B2094757D06FABF5429D",
    "title": "南泰大厦",
    "lon": "121.466",
    "lat": "31.2367",
    "category": "252",
    "category_name": "楼宇机构",
    "address": "上海南京西路920号"
  },
  {
    "poiid": "B2094757D16CA2FE4598",
    "title": "静安四季苑",
    "lon": "121.468",
    "lat": "31.2357",
    "category": "252",
    "category_name": "楼宇机构",
    "address": "上海市静安区石门一路333弄"
  },
  {
    "poiid": "B2094751DA6DA7FB4693",
    "title": "上海国际航运服务中心",
    "lon": "121.511328",
    "lat": "31.251668",
    "category": "252",
    "category_name": "楼宇机构",
    "address": "杨树浦路8号"
  },
  {
    "poiid": "B2094757D065A6F84098",
    "title": "提篮桥邮政支局",
    "lon": "121.510463764",
    "lat": "31.2519204544",
    "category": "252",
    "category_name": "楼宇机构",
    "address": "上海东大名路1209号(近惠民路)"
  },
  {
    "poiid": "B2094757D169A3FC4799",
    "title": "霍山大楼",
    "lon": "121.51325",
    "lat": "31.255457",
    "category": "252",
    "category_name": "楼宇机构",
    "address": "上海霍山路288号"
  },
  {
    "poiid": "B2094757DA64A2F9429F",
    "title": "钜凯馨园",
    "lon": "121.26759",
    "lat": "31.391075",
    "category": "252",
    "category_name": "楼宇机构",
    "address": "嘉定区和政路885弄"
  },
  {
    "poiid": "B2094757D06BA2FC4292",
    "title": "海博综合楼",
    "lon": "121.406758",
    "lat": "31.171637",
    "category": "252",
    "category_name": "楼宇机构",
    "address": "上海宜山路829号"
  },
  {
    "poiid": "B2094757D068A1FF459B",
    "title": "海博大厦",
    "lon": "121.40675949",
    "lat": "31.171217564",
    "category": "252",
    "category_name": "楼宇机构",
    "address": "上海徐汇区宜山路829号"
  },
  {
    "poiid": "B2094751D268A5FE4893",
    "title": "上海市国际孵化中心",
    "lon": "121.405299",
    "lat": "31.164781",
    "category": "252",
    "category_name": "楼宇机构",
    "address": "徐汇区桂平路410路"
  },
  {
    "poiid": "B2094757D065A2FB4193",
    "title": "江桥三村七街坊",
    "lon": "121.39966213",
    "lat": "31.170109655",
    "category": "252",
    "category_name": "楼宇机构",
    "address": "上海靖远路621弄"
  },
  {
    "poiid": "B2094757D06AA0FE4693",
    "title": "创业大厦",
    "lon": "121.403038025",
    "lat": "31.1733951569",
    "category": "252",
    "category_name": "楼宇机构",
    "address": "上海桂平路"
  },
  {
    "poiid": "B2094757D66CA0FC4793",
    "title": "市一路200号",
    "lon": "121.356282679",
    "lat": "31.3959669437",
    "category": "252",
    "category_name": "楼宇机构",
    "address": "上海罗店镇市一路200号"
  },
  {
    "poiid": "B2094757D169ABFD449E",
    "title": "富辰花苑",
    "lon": "121.36122",
    "lat": "31.386816",
    "category": "252",
    "category_name": "楼宇机构",
    "address": "上海市宝山区南东路108弄1-23号"
  },
  {
    "poiid": "B2094654D56FA3F94692",
    "title": "杨浦区职工文化考试办公室",
    "lon": "121.5235",
    "lat": "31.26204",
    "category": "252",
    "category_name": "楼宇机构",
    "address": "怀德路802"
  },
  {
    "poiid": "B2094654DA6BABFA439B",
    "title": "上海市人才发展服务中心青浦中心",
    "lon": "121.13951",
    "lat": "31.15142",
    "category": "252",
    "category_name": "楼宇机构",
    "address": ""
  },
  {
    "poiid": "B2094757D06AA5FC429A",
    "title": "青浦工业园区",
    "lon": "121.133189",
    "lat": "31.15176",
    "category": "252",
    "category_name": "楼宇机构",
    "address": "上海青浦城区"
  },
  {
    "poiid": "B2094750DB6FA4FC4498",
    "title": "上海浦东出入境管理局",
    "lon": "121.581947",
    "lat": "31.195316",
    "category": "252",
    "category_name": "楼宇机构",
    "address": "张江路39号"
  },
  {
    "poiid": "B2094757D165A3FB4892",
    "title": "富海商务苑三期",
    "lon": "121.584920975",
    "lat": "31.1843289874",
    "category": "252",
    "category_name": "楼宇机构",
    "address": "上海市浦东新区毕升路289弄"
  },
  {
    "poiid": "B2094757D16DA5FE459A",
    "title": "莲中路255弄",
    "lon": "121.5584397",
    "lat": "31.181569",
    "category": "252",
    "category_name": "楼宇机构",
    "address": "上海莲中路255弄"
  },
  {
    "poiid": "B2094757DA6FA3FD459B",
    "title": "莲中路255弄小区",
    "lon": "121.558504",
    "lat": "31.1806960000002",
    "category": "252",
    "category_name": "楼宇机构",
    "address": "浦东新区莲中路255弄"
  },
  {
    "poiid": "B2094757D66CA4FA4793",
    "title": "北中路278弄",
    "lon": "121.55652697",
    "lat": "31.182107935",
    "category": "252",
    "category_name": "楼宇机构",
    "address": "上海市浦东新区"
  },
  {
    "poiid": "B2094750D06CA0F4469E",
    "title": "培花新村第七居委",
    "lon": "121.55751",
    "lat": "31.190359",
    "category": "252",
    "category_name": "楼宇机构",
    "address": "浦东新区芳芯路210弄49号"
  },
  {
    "poiid": "B2094750D06EABF4419B",
    "title": "上海浦东机场综合保税区",
    "lon": "121.784713",
    "lat": "31.135149",
    "category": "252",
    "category_name": "楼宇机构",
    "address": "闻居路1333号"
  },
  {
    "poiid": "B2094757D16CA3F4429C",
    "title": "祝和苑",
    "lon": "121.76863877244",
    "lat": "31.128664808964",
    "category": "252",
    "category_name": "楼宇机构",
    "address": "上海市浦东新区祝桥镇千汇路1000号"
  },
  {
    "poiid": "B2094757D06BA4FF4398",
    "title": "联合滨江大厦",
    "lon": "121.494198",
    "lat": "31.371047",
    "category": "252",
    "category_name": "楼宇机构",
    "address": "上海淞桥东路111号"
  },
  {
    "poiid": "B2094757D06AA0FB4893",
    "title": "吴淞三村",
    "lon": "121.49521",
    "lat": "31.370993",
    "category": "252",
    "category_name": "楼宇机构",
    "address": "班溪路26弄"
  },
  {
    "poiid": "B2094757D064AAFB429D",
    "title": "长征新村",
    "lon": "121.492063",
    "lat": "31.370028",
    "category": "252",
    "category_name": "楼宇机构",
    "address": "上海宝山区淞滨路淞滨支路"
  },
  {
    "poiid": "B2094757D06AA0FA449C",
    "title": "海滨新村",
    "lon": "121.492617731",
    "lat": "31.3750184376",
    "category": "252",
    "category_name": "楼宇机构",
    "address": "上海同济支路同泰北路"
  },
  {
    "poiid": "B2094757D16CA3FC449D",
    "title": "西朱新村",
    "lon": "121.49135",
    "lat": "31.375687",
    "category": "252",
    "category_name": "楼宇机构",
    "address": "上海同济路泰和路"
  },
  {
    "poiid": "B2094757DA6BABFA4092",
    "title": "半岛1919",
    "lon": "121.48761",
    "lat": "31.367507",
    "category": "252",
    "category_name": "楼宇机构",
    "address": "徐汇钦州北路188号"
  },
  {
    "poiid": "B2094757D56DA5FB4992",
    "title": "上海工程技术大学",
    "lon": "121.20855331420898",
    "lat": "31.057933920678824",
    "category": "252",
    "category_name": "楼宇机构",
    "address": "上海 上海市 上海工程技术大学艺术楼"
  },
  {
    "poiid": "B2094757DA6BABFF489F",
    "title": "LOMO玩库",
    "lon": "121.250353",
    "lat": "31.009835",
    "category": "252",
    "category_name": "楼宇机构",
    "address": "松江区环城路555号"
  },
  {
    "poiid": "B2094757D06FABFF419B",
    "title": "长桥四村",
    "lon": "121.4391986",
    "lat": "31.133580784",
    "category": "252",
    "category_name": "楼宇机构",
    "address": "上海徐汇区 长桥路 龙临路 罗秀路 罗香路"
  },
  {
    "poiid": "B2094757D06AA2F44592",
    "title": "普乐三村",
    "lon": "121.432746",
    "lat": "31.123842",
    "category": "252",
    "category_name": "楼宇机构",
    "address": "上海虹梅南路1555弄"
  },
  {
    "poiid": "B2094757D06BAAFF489C",
    "title": "舒城苑",
    "lon": "121.43513",
    "lat": "31.12995",
    "category": "252",
    "category_name": "楼宇机构",
    "address": "上海市徐汇区罗秀路725号"
  },
  {
    "poiid": "B2094757D069A7FF4798",
    "title": "静安8号",
    "lon": "121.446953795",
    "lat": "31.217401334",
    "category": "252",
    "category_name": "楼宇机构",
    "address": "上海华山路339弄1号"
  },
  {
    "poiid": "B2094757D06FA4FF449B",
    "title": "广盛苑",
    "lon": "121.43116",
    "lat": "31.276625",
    "category": "252",
    "category_name": "楼宇机构",
    "address": "上海灵石路963弄"
  },
  {
    "poiid": "B2094757D168A0FD4492",
    "title": "经纬城市绿洲-阳光水岸家园",
    "lon": "121.40630425",
    "lat": "31.3280000687",
    "category": "252",
    "category_name": "楼宇机构",
    "address": "上海纬地路88弄"
  },
  {
    "poiid": "B2094655D264A1F8489D",
    "title": "良荣书画店",
    "lon": "121.64598",
    "lat": "31.02234",
    "category": "252",
    "category_name": "楼宇机构",
    "address": "新场镇大街275弄3号"
  },
  {
    "poiid": "B2094750D06CA7FD429E",
    "title": "浦东新区眼病牙病防治所",
    "lon": "121.754379",
    "lat": "31.052478",
    "category": "252",
    "category_name": "楼宇机构",
    "address": "惠南镇文化路222号"
  },
  {
    "poiid": "B2094757D164ABFD459F",
    "title": "建行大厦",
    "lon": "121.756275",
    "lat": "31.052728",
    "category": "252",
    "category_name": "楼宇机构",
    "address": "上海惠南镇人民西路85号"
  },
  {
    "poiid": "B2094757D16FA4F54899",
    "title": "给力大厦",
    "lon": "121.51304773",
    "lat": "31.211284896",
    "category": "252",
    "category_name": "楼宇机构",
    "address": "浦东新区塘桥新路78号(近浦明路)"
  },
  {
    "poiid": "B2094757D06AA5F54693",
    "title": "胶南小区",
    "lon": "121.51067",
    "lat": "31.199404",
    "category": "252",
    "category_name": "楼宇机构",
    "address": "上海东三里桥路160弄"
  },
  {
    "poiid": "B2094757D064A0FF489B",
    "title": "宏立瑞园",
    "lon": "121.32707785316",
    "lat": "31.297452736929",
    "category": "252",
    "category_name": "楼宇机构",
    "address": "上海南翔镇宝翔路560弄"
  },
  {
    "poiid": "B2094757D16FA5F5409C",
    "title": "槎浦新家园",
    "lon": "121.33017",
    "lat": "31.286604",
    "category": "252",
    "category_name": "楼宇机构",
    "address": "上海市普陀区金迈路"
  },
  {
    "poiid": "B2094757D164AAF44699",
    "title": "银翔新村",
    "lon": "121.316108925",
    "lat": "31.2864110934",
    "category": "252",
    "category_name": "楼宇机构",
    "address": "上海市嘉定区南翔镇古漪园路125弄"
  },
  {
    "poiid": "B2094757D06BA1F9489C",
    "title": "猗园新村",
    "lon": "121.3065516",
    "lat": "31.2844868",
    "category": "252",
    "category_name": "楼宇机构",
    "address": "上海嘉定区南翔镇火车站路185弄"
  },
  {
    "poiid": "B2094757D06FAAF4469E",
    "title": "嘉定区人民政府",
    "lon": "121.26968967",
    "lat": "31.37477983",
    "category": "252",
    "category_name": "楼宇机构",
    "address": "上海嘉定区博乐南路111号"
  },
  {
    "poiid": "B2094757D064A4FF479F",
    "title": "迎园路351弄",
    "lon": "121.269889832",
    "lat": "31.3873691559",
    "category": "252",
    "category_name": "楼宇机构",
    "address": "上海嘉定区迎园路(近和政路)"
  },
  {
    "poiid": "B2094757D069A1F94393",
    "title": "上钢八村",
    "lon": "121.48532673",
    "lat": "31.173201085",
    "category": "252",
    "category_name": "楼宇机构",
    "address": "上海市浦东新区耀华路414弄"
  },
  {
    "poiid": "B2094757DA6BA7FF4999",
    "title": "绿地海外滩中心B幢",
    "lon": "121.475476",
    "lat": "31.193273",
    "category": "252",
    "category_name": "楼宇机构",
    "address": "河西区土城医院西侧"
  },
  {
    "poiid": "B2094757D168ABF4429A",
    "title": "绿地大厦",
    "lon": "121.474651",
    "lat": "31.1942576",
    "category": "252",
    "category_name": "楼宇机构",
    "address": "上海打浦路700号"
  },
  {
    "poiid": "B2094750D26EA0F84199",
    "title": "绿地集团金融A",
    "lon": "121.473175",
    "lat": "31.193553",
    "category": "252",
    "category_name": "楼宇机构",
    "address": "龙华东路818号"
  },
  {
    "poiid": "B2094757D064A3FE419B",
    "title": "衡辰商务楼",
    "lon": "121.47322727",
    "lat": "31.194003299",
    "category": "252",
    "category_name": "楼宇机构",
    "address": "上海打浦路398弄4号楼"
  },
  {
    "poiid": "B2094757D165A7FA4593",
    "title": "南园新村",
    "lon": "121.473810738",
    "lat": "31.1963975794",
    "category": "252",
    "category_name": "楼宇机构",
    "address": "卢湾区打浦路457弄6号(打浦路中山南一路)"
  },
  {
    "poiid": "B2094751DA68A6F84498",
    "title": "瑞金医院六号楼",
    "lon": "121.472538",
    "lat": "31.194514",
    "category": "252",
    "category_name": "楼宇机构",
    "address": "瑞金二路"
  },
  {
    "poiid": "B2094757DA64ABFF4992",
    "title": "新富港中心",
    "lon": "121.481527",
    "lat": "31.197614",
    "category": "252",
    "category_name": "楼宇机构",
    "address": "胶南市珠海东路288号"
  },
  {
    "poiid": "B2094757D069A1F84093",
    "title": "淡水湾花园",
    "lon": "121.4753",
    "lat": "31.210466",
    "category": "252",
    "category_name": "楼宇机构",
    "address": "上海市卢湾区马当路588弄"
  },
  {
    "poiid": "B2094750DA69A0F54699",
    "title": "澳大利亚签中中心",
    "lon": "121.472793",
    "lat": "31.208116",
    "category": "252",
    "category_name": "楼宇机构",
    "address": "徐家汇路555号广发大厦"
  },
  {
    "poiid": "B2094757D06BA4FE409F",
    "title": "祁南二村",
    "lon": "121.37101371307",
    "lat": "31.427084704165",
    "category": "252",
    "category_name": "楼宇机构",
    "address": "上海市宝山区市一路"
  },
  {
    "poiid": "B2094757D06FAAF4449C",
    "title": "清涧六街坊",
    "lon": "121.389451",
    "lat": "31.266068",
    "category": "252",
    "category_name": "楼宇机构",
    "address": "上海市普陀区桃浦路1023弄"
  },
  {
    "poiid": "B2094757D06FA7F44292",
    "title": "真光七街坊",
    "lon": "121.392926",
    "lat": "31.257911",
    "category": "252",
    "category_name": "楼宇机构",
    "address": "铜川路1781弄"
  },
  {
    "poiid": "B2094757DA6BAAFA4099",
    "title": "奉贤绿地翡翠国际广场",
    "lon": "121.47068",
    "lat": "30.918168",
    "category": "252",
    "category_name": "楼宇机构",
    "address": "上海市奉贤区南桥镇南桥新城"
  },
  {
    "poiid": "B2094757D16EA5F84898",
    "title": "顺达公寓",
    "lon": "121.41752",
    "lat": "31.230507",
    "category": "252",
    "category_name": "楼宇机构",
    "address": "上海市普陀区顺义路188弄"
  },
  {
    "poiid": "B2094751D56BA2FC429D",
    "title": "上海市虹口区民政局婚姻登记处",
    "lon": "121.490429",
    "lat": "31.290217",
    "category": "252",
    "category_name": "楼宇机构",
    "address": "巴林路76号"
  },
  {
    "poiid": "B2094757D06BA1FF439D",
    "title": "文汇路300弄",
    "lon": "121.219296196",
    "lat": "31.0505500982",
    "category": "252",
    "category_name": "楼宇机构",
    "address": "上海文汇路300弄"
  },
  {
    "poiid": "B2094757D16EA3F94892",
    "title": "申亚新华府",
    "lon": "121.186520769",
    "lat": "31.2530293899",
    "category": "252",
    "category_name": "楼宇机构",
    "address": "上海新华路666弄"
  },
  {
    "poiid": "B2094750DA6DA4FD409A",
    "title": "李子园大厦",
    "lon": "121.394058",
    "lat": "31.270599",
    "category": "252",
    "category_name": "楼宇机构",
    "address": "交通路4711号"
  },
  {
    "poiid": "B2094757D068A2FC499D",
    "title": "金杨新村",
    "lon": "121.580062",
    "lat": "31.249486",
    "category": "252",
    "category_name": "楼宇机构",
    "address": "上海金杨路枣庄路"
  },
  {
    "poiid": "B2094757D66DA3FE4898",
    "title": "金杨新村三街坊",
    "lon": "121.57892",
    "lat": "31.249563",
    "category": "252",
    "category_name": "楼宇机构",
    "address": "上海金口路53弄"
  },
  {
    "poiid": "B2094757D068A2FE4499",
    "title": "淞南一村",
    "lon": "121.492",
    "lat": "31.3489",
    "category": "252",
    "category_name": "楼宇机构",
    "address": "上海卫生科路"
  },
  {
    "poiid": "B2094757DA6BABF4409F",
    "title": "碧云公馆",
    "lon": "121.599491",
    "lat": "31.25091",
    "category": "252",
    "category_name": "楼宇机构",
    "address": "浦东浙桥路289弄(近杨高中路,金海路口)"
  },
  {
    "poiid": "B2094757D168ABFF479A",
    "title": "新月翡翠园",
    "lon": "121.4289",
    "lat": "31.403162",
    "category": "252",
    "category_name": "楼宇机构",
    "address": "上海市宝山区德都路35弄"
  },
  {
    "poiid": "B2094757D06AA7F5429D",
    "title": "锦明大厦",
    "lon": "121.413",
    "lat": "31.2096",
    "category": "252",
    "category_name": "楼宇机构",
    "address": "上海遵义南路8号"
  },
  {
    "poiid": "B2094757D06BA7F44699",
    "title": "塔城小区",
    "lon": "121.25045",
    "lat": "31.380217",
    "category": "252",
    "category_name": "楼宇机构",
    "address": "塔城路341弄"
  },
  {
    "poiid": "B2094757D064A1FD4692",
    "title": "嘉定工业园区",
    "lon": "121.231022",
    "lat": "31.369367",
    "category": "252",
    "category_name": "楼宇机构",
    "address": "上海嘉定区胜辛北路"
  },
  {
    "poiid": "B2094757DA64A1F84899",
    "title": "浦发香舍",
    "lon": "121.242668",
    "lat": "31.365507",
    "category": "252",
    "category_name": "楼宇机构",
    "address": "上海市嘉定区福海路800弄"
  },
  {
    "poiid": "B2094757D06FA7FB459B",
    "title": "江桥二村",
    "lon": "121.35330757127",
    "lat": "31.258862246193",
    "category": "252",
    "category_name": "楼宇机构",
    "address": "江桥二村位于嘉定曹安路,华江路口"
  },
  {
    "poiid": "B2094752D268AAF9429F",
    "title": "上海静安区出入境办理中心",
    "lon": "121.447999",
    "lat": "31.224241",
    "category": "252",
    "category_name": "楼宇机构",
    "address": "上海南京西路1566号"
  },
  {
    "poiid": "B2094757D06AA2FC4098",
    "title": "中粮海景壹号",
    "lon": "121.51025031906",
    "lat": "31.237009051897",
    "category": "252",
    "category_name": "楼宇机构",
    "address": "上海浦东陆家嘴银城中路600弄银城中路600弄"
  },
  {
    "poiid": "B2094757D06FAAFC4192",
    "title": "徐汇区房地产交易中心",
    "lon": "121.45081329",
    "lat": "31.19335556",
    "category": "252",
    "category_name": "楼宇机构",
    "address": "上海斜土路2088号"
  },
  {
    "poiid": "B2094654DA6EA1FE459B",
    "title": "海鲸画廊",
    "lon": "121.46063",
    "lat": "31.21392",
    "category": "252",
    "category_name": "楼宇机构",
    "address": "卢湾区陕西南路165号(近长乐路)"
  },
  {
    "poiid": "B2094654DA65AAFF4599",
    "title": "上海正大综艺电视制作有限公司",
    "lon": "121.43714",
    "lat": "31.15896",
    "category": "252",
    "category_name": "楼宇机构",
    "address": "老沪闵路166"
  },
  {
    "poiid": "B2094655D265A3FB429D",
    "title": "上海市徐汇区公共就业(人才)服务中心",
    "lon": "121.43146",
    "lat": "31.16093",
    "category": "252",
    "category_name": "楼宇机构",
    "address": "沪闵路9118号"
  },
  {
    "poiid": "B2094757D169A4FF449E",
    "title": "石龙路工业园区",
    "lon": "121.43670458",
    "lat": "31.154402949",
    "category": "252",
    "category_name": "楼宇机构",
    "address": "上海石龙路411号"
  },
  {
    "poiid": "B2094757D16FA2FD4098",
    "title": "馨汇南苑21号楼",
    "lon": "121.436692086",
    "lat": "31.1543467481",
    "category": "252",
    "category_name": "楼宇机构",
    "address": null
  },
  {
    "poiid": "B2094654DB6CA6F8469F",
    "title": "上海职业介绍徐汇分中心",
    "lon": "121.43148",
    "lat": "31.16086",
    "category": "252",
    "category_name": "楼宇机构",
    "address": "钦州路107"
  },
  {
    "poiid": "B2094757D16AA7F54799",
    "title": "逸安商务楼",
    "lon": "121.431183",
    "lat": "31.162303",
    "category": "252",
    "category_name": "楼宇机构",
    "address": "上海钦州路109号"
  },
  {
    "poiid": "B2094655D265A0F84793",
    "title": "上海康盛文化传媒有限公司",
    "lon": "121.50108",
    "lat": "31.21108",
    "category": "252",
    "category_name": "楼宇机构",
    "address": "陆家浜路285号三角大楼603室"
  },
  {
    "poiid": "B2094757D068A2FD419C",
    "title": "上海市保密局",
    "lon": "121.48677063",
    "lat": "31.234815597",
    "category": "252",
    "category_name": "楼宇机构",
    "address": "上海市福州路185号"
  },
  {
    "poiid": "B2094751DA65A2FF439C",
    "title": "光明大廈",
    "lon": "121.48776",
    "lat": "31.233885",
    "category": "252",
    "category_name": "楼宇机构",
    "address": "金陵東路2號"
  },
  {
    "poiid": "B2094757D168A7FE449B",
    "title": "瑞福大楼",
    "lon": "121.487",
    "lat": "31.235",
    "category": "252",
    "category_name": "楼宇机构",
    "address": "上海市黄浦区永寿路"
  },
  {
    "poiid": "B2094757D06AA3FB459F",
    "title": "潍坊七村",
    "lon": "121.52794425626",
    "lat": "31.229840805664",
    "category": "252",
    "category_name": "楼宇机构",
    "address": "潍坊路716号"
  },
  {
    "poiid": "B2094757D06FA2F4439C",
    "title": "上海市出入境管理局徐汇分局",
    "lon": "121.428715562",
    "lat": "31.1973608269",
    "category": "252",
    "category_name": "楼宇机构",
    "address": "上海番禺路865号"
  },
  {
    "poiid": "B2094750DA6DABFD419A",
    "title": "新聚仁机构",
    "lon": "121.42807",
    "lat": "31.196475",
    "category": "252",
    "category_name": "楼宇机构",
    "address": "番愚路878号"
  },
  {
    "poiid": "B2094751D365A7FA409B",
    "title": "汤臣商务中心大厦",
    "lon": "121.5080564",
    "lat": "31.2297046",
    "category": "252",
    "category_name": "楼宇机构",
    "address": null
  },
  {
    "poiid": "B2094655D26DAAFE4998",
    "title": "上海盛大金磐国际文化艺术交流中心",
    "lon": "121.50751",
    "lat": "31.23219",
    "category": "252",
    "category_name": "楼宇机构",
    "address": ""
  },
  {
    "poiid": "B2094757D16EA7FD4593",
    "title": "东沟六村",
    "lon": "121.57726",
    "lat": "31.290091",
    "category": "252",
    "category_name": "楼宇机构",
    "address": "东高路119号"
  },
  {
    "poiid": "B2094757D16BA7F4459C",
    "title": "吉发大厦",
    "lon": "121.51587642",
    "lat": "31.344690527",
    "category": "252",
    "category_name": "楼宇机构",
    "address": "上海宝山区军工路4049号"
  },
  {
    "poiid": "B2094757D164A1F54199",
    "title": "嘉定嘉砼生活园区",
    "lon": "121.20560328",
    "lat": "31.335912865",
    "category": "252",
    "category_name": "楼宇机构",
    "address": "上海嘉安公路2699号"
  },
  {
    "poiid": "B2094757D06AA6FD4692",
    "title": "华欣苑",
    "lon": "121.42669021244",
    "lat": "31.286209001323",
    "category": "252",
    "category_name": "楼宇机构",
    "address": "上海宝山区 华灵路1225弄"
  },
  {
    "poiid": "B2094757D069A6F8469D",
    "title": "绿雅苑",
    "lon": "121.4268",
    "lat": "31.302687",
    "category": "252",
    "category_name": "楼宇机构",
    "address": "上海市闸北区场中路3428号"
  },
  {
    "poiid": "B2094757D068A1F4499E",
    "title": "永和家园",
    "lon": "121.42509",
    "lat": "31.291039",
    "category": "252",
    "category_name": "楼宇机构",
    "address": "上海市闸北区高平路809弄"
  },
  {
    "poiid": "B2094757D064A4F5459D",
    "title": "泛欧大厦",
    "lon": "121.45341695",
    "lat": "31.2805412613",
    "category": "252",
    "category_name": "楼宇机构",
    "address": "上海市闸北区共和新路2449号"
  },
  {
    "poiid": "B2094757DA64A7F54892",
    "title": "永旭家苑商业",
    "lon": "121.720952",
    "lat": "31.233674",
    "category": "252",
    "category_name": "楼宇机构",
    "address": "浦东环庆中路57弄"
  },
  {
    "poiid": "B2094757D06FA5FD4493",
    "title": "上海滩花园洋房",
    "lon": "121.54",
    "lat": "31.2457",
    "category": "252",
    "category_name": "楼宇机构",
    "address": "浦东新区乳山路506弄(福山路乳山路)"
  },
  {
    "poiid": "B2094750D268A5F9459D",
    "title": "徐汇老房子艺术中心",
    "lon": "121.438842",
    "lat": "31.207448",
    "category": "252",
    "category_name": "楼宇机构",
    "address": "武康路393号"
  },
  {
    "poiid": "B2094757D16AABFE479E",
    "title": "万科兰桥圣菲",
    "lon": "121.27794656",
    "lat": "31.200155013",
    "category": "252",
    "category_name": "楼宇机构",
    "address": "上海闵行区运乐路777弄"
  },
  {
    "poiid": "B2094757D065A1FC409B",
    "title": "天山三村",
    "lon": "121.411854086",
    "lat": "31.2150001332",
    "category": "252",
    "category_name": "楼宇机构",
    "address": "上海遵义路玉屏南路"
  },
  {
    "poiid": "B2094757D068A2F94393",
    "title": "浦东新区税务局",
    "lon": "121.4663406",
    "lat": "31.249264749",
    "category": "252",
    "category_name": "楼宇机构",
    "address": "上海浦东新区向城路80号(近福山路)"
  },
  {
    "poiid": "B2094750D465A2F94093",
    "title": "地铁港城路培训基地",
    "lon": "121.57254",
    "lat": "31.358087",
    "category": "252",
    "category_name": "楼宇机构",
    "address": "浦东新区和龙路1099号"
  },
  {
    "poiid": "B2094757D065A0FF499A",
    "title": "金光花苑",
    "lon": "121.38979",
    "lat": "31.281506",
    "category": "252",
    "category_name": "楼宇机构",
    "address": "上海古浪路355弄"
  },
  {
    "poiid": "B2094757D16CA0FD4899",
    "title": "祁连新家园",
    "lon": "121.38506095",
    "lat": "31.284919345",
    "category": "252",
    "category_name": "楼宇机构",
    "address": "上海古浪路祁安路"
  },
  {
    "poiid": "B209475DDA68A0F94592",
    "title": "金茂凯悦大酒店 hyatt",
    "lon": "121.799995",
    "lat": "31.465927",
    "category": "252",
    "category_name": "楼宇机构",
    "address": "上海市 揽海路799弄"
  },
  {
    "poiid": "B2094757D065A1FD4098",
    "title": "临平路邮政支局",
    "lon": "121.49253601",
    "lat": "31.263342102",
    "category": "252",
    "category_name": "楼宇机构",
    "address": "上海虹口区临平北路36号(近香烟桥路)"
  },
  {
    "poiid": "B2094757D66CA3FD469D",
    "title": "渡边商务大厦",
    "lon": "121.4920401",
    "lat": "31.263537278",
    "category": "252",
    "category_name": "楼宇机构",
    "address": "上海临平北路55号"
  },
  {
    "poiid": "B2094750DA6EAAF94098",
    "title": "同济大学交通运输工程学院",
    "lon": "121.214195",
    "lat": "31.288471",
    "category": "252",
    "category_name": "楼宇机构",
    "address": "同济大学交通学院楼"
  },
  {
    "poiid": "B2094757D069A4FB439F",
    "title": "紫晶苑",
    "lon": "121.62564",
    "lat": "31.176443",
    "category": "252",
    "category_name": "楼宇机构",
    "address": "上海市浦东新区孙农路398弄"
  },
  {
    "poiid": "B2094757D069ABF94192",
    "title": "梅园四区",
    "lon": "121.177470289",
    "lat": "31.3111763557",
    "category": "252",
    "category_name": "楼宇机构",
    "address": "上海宝安公路5350弄"
  },
  {
    "poiid": "B2094757DA64A1F54093",
    "title": "上海沁乐时尚广场",
    "lon": "121.159458",
    "lat": "31.306678",
    "category": "252",
    "category_name": "楼宇机构",
    "address": "嘉定安亭民丰路806号"
  },
  {
    "poiid": "B2094654DB64AAFE459F",
    "title": "安亭人民法庭",
    "lon": "121.1667",
    "lat": "31.31413",
    "category": "252",
    "category_name": "楼宇机构",
    "address": "安亭镇墨玉北路245"
  },
  {
    "poiid": "B2094757D065A3F44998",
    "title": "民京小区",
    "lon": "121.5214661",
    "lat": "31.322783517",
    "category": "252",
    "category_name": "楼宇机构",
    "address": "上海市杨浦区民京路838弄"
  },
  {
    "poiid": "B2094757D069AAFF429F",
    "title": "开鲁六村",
    "lon": "121.52821951",
    "lat": "31.328475576",
    "category": "252",
    "category_name": "楼宇机构",
    "address": "上海殷行路"
  },
  {
    "poiid": "B2094757D06BA3F44999",
    "title": "逸景佳苑",
    "lon": "121.51221518732",
    "lat": "31.326903500444",
    "category": "252",
    "category_name": "楼宇机构",
    "address": "上海市宝山区逸仙路1588号"
  },
  {
    "poiid": "B2094757D16AA4FD4098",
    "title": "开鲁三村91号",
    "lon": "121.530944103",
    "lat": "31.3245455542",
    "category": "252",
    "category_name": "楼宇机构",
    "address": "上海开鲁三村91号"
  },
  {
    "poiid": "B2094654DA64A6F94698",
    "title": "松江区人民法院泗泾人民法庭",
    "lon": "121.28068",
    "lat": "31.11633",
    "category": "252",
    "category_name": "楼宇机构",
    "address": "鼓浪路181"
  },
  {
    "poiid": "B2094757D568A5FF4698",
    "title": "上海市建瓯钢铁协会",
    "lon": "121.28379584",
    "lat": "31.10311388",
    "category": "252",
    "category_name": "楼宇机构",
    "address": "金山钢材城综合大楼"
  },
  {
    "poiid": "B2094757D164A5F4489F",
    "title": "金贸大厦",
    "lon": "121.472284238",
    "lat": "31.2308132125",
    "category": "252",
    "category_name": "楼宇机构",
    "address": "上海世纪大道88号"
  },
  {
    "poiid": "B2094654DA68A3F54499",
    "title": "上海大剧院画廊",
    "lon": "121.47058",
    "lat": "31.23037",
    "category": "252",
    "category_name": "楼宇机构",
    "address": "黄浦区黄陂北路286号(近南京西路)"
  },
  {
    "poiid": "B2094757D168AAFE439F",
    "title": "威海苑",
    "lon": "121.46918",
    "lat": "31.228424",
    "category": "252",
    "category_name": "楼宇机构",
    "address": "上海重庆北路318"
  },
  {
    "poiid": "B2094753D764A5F54598",
    "title": "创兴金融中心大厦",
    "lon": "121.470001",
    "lat": "31.227798",
    "category": "252",
    "category_name": "楼宇机构",
    "address": "上海市 南京西路288号"
  },
  {
    "poiid": "B2094757D165A6FB4293",
    "title": "重庆大楼",
    "lon": "121.469557738",
    "lat": "31.228022253",
    "category": "252",
    "category_name": "楼宇机构",
    "address": "上海市黄浦区武胜路507号"
  },
  {
    "poiid": "B2094751D26EA2F9429A",
    "title": "爱尔兰中心",
    "lon": "121.470726",
    "lat": "31.229738",
    "category": "252",
    "category_name": "楼宇机构",
    "address": "卢湾区黄陂北路227号203单位"
  },
  {
    "poiid": "B2094757D165A0FB449A",
    "title": "淮海1号",
    "lon": "121.460930738",
    "lat": "31.2208090993",
    "category": "252",
    "category_name": "楼宇机构",
    "address": "上海准海路柳林路"
  },
  {
    "poiid": "B2094757DA64A0FC4898",
    "title": "盛源生活广场",
    "lon": "121.45686",
    "lat": "31.264786",
    "category": "252",
    "category_name": "楼宇机构",
    "address": "闸北区柳营路777号"
  },
  {
    "poiid": "B2094757D06BA4FA499C",
    "title": "泰山三村",
    "lon": "121.453",
    "lat": "31.264",
    "category": "252",
    "category_name": "楼宇机构",
    "address": "中山北路1169号"
  },
  {
    "poiid": "B2094757D064A6FB449D",
    "title": "企联大厦",
    "lon": "121.45195835",
    "lat": "31.28233727",
    "category": "252",
    "category_name": "楼宇机构",
    "address": "上海共和新路2623号"
  },
  {
    "poiid": "B2094757D06BAAF84298",
    "title": "中国邮政储蓄银行(共和新路邮政储蓄所)",
    "lon": "121.45226287",
    "lat": "31.283023834",
    "category": "252",
    "category_name": "楼宇机构",
    "address": "上海闸北区共和新路3014号"
  },
  {
    "poiid": "B2094757D66CA4F94893",
    "title": "大华阳城",
    "lon": "121.43742",
    "lat": "31.295259",
    "category": "252",
    "category_name": "楼宇机构",
    "address": "上海市宝山区新村路新滬路"
  },
  {
    "poiid": "B2094757D068A1F44598",
    "title": "金泉苑",
    "lon": "121.438226",
    "lat": "31.304973",
    "category": "252",
    "category_name": "楼宇机构",
    "address": "场中路2965弄1-46号"
  },
  {
    "poiid": "B2094757D16AA5F5459D",
    "title": "上海市机动车物损交通事故保险理赔服务中心(沪仑分中心)",
    "lon": "121.44038995",
    "lat": "31.3008616497",
    "category": "252",
    "category_name": "楼宇机构",
    "address": "上海万荣路1556号"
  },
  {
    "poiid": "B2094757D168A4F4429D",
    "title": "望源公寓",
    "lon": "121.44036",
    "lat": "31.304247",
    "category": "252",
    "category_name": "楼宇机构",
    "address": "上海市闸北区场中路2828弄"
  },
  {
    "poiid": "B2094757D16CA5F44593",
    "title": "上海彭浦消防队",
    "lon": "121.44077205",
    "lat": "31.2997541285",
    "category": "252",
    "category_name": "楼宇机构",
    "address": "上海三泉路30号"
  },
  {
    "poiid": "B2094757D16EABF4469F",
    "title": "场中路2850弄",
    "lon": "121.44040325",
    "lat": "31.302115393",
    "category": "252",
    "category_name": "楼宇机构",
    "address": "上海场中路2850弄"
  },
  {
    "poiid": "B2094752D26BA6FE409D",
    "title": "海棠大厦",
    "lon": "121.442072",
    "lat": "31.297214",
    "category": "252",
    "category_name": "楼宇机构",
    "address": "江场西路299弄49号"
  },
  {
    "poiid": "B2094757D069ABFC409A",
    "title": "绿福公寓",
    "lon": "121.4332",
    "lat": "31.302603",
    "category": "252",
    "category_name": "楼宇机构",
    "address": "上海市闸北区场中路3220弄"
  },
  {
    "poiid": "B2094757D06AA4F8449E",
    "title": "场中路2601弄",
    "lon": "121.440749",
    "lat": "31.305631",
    "category": "252",
    "category_name": "楼宇机构",
    "address": "上海市闸北区场中路2601弄"
  },
  {
    "poiid": "B2094757D06AA7FF4992",
    "title": "三泉路兴泉小区",
    "lon": "121.439797",
    "lat": "31.305093",
    "category": "252",
    "category_name": "楼宇机构",
    "address": "上海821弄"
  },
  {
    "poiid": "B2094757D66CA3F5469B",
    "title": "宝山九村",
    "lon": "121.49686",
    "lat": "31.398853",
    "category": "252",
    "category_name": "楼宇机构",
    "address": "上海淞宝路宝杨路"
  },
  {
    "poiid": "B2094757D069A0FE439B",
    "title": "海滨七村",
    "lon": "121.49321235759",
    "lat": "31.402269136486",
    "category": "252",
    "category_name": "楼宇机构",
    "address": "牡丹江路382弄"
  },
  {
    "poiid": "B2094757D66CA5FB489D",
    "title": "临江二村",
    "lon": "121.496",
    "lat": "31.4069",
    "category": "252",
    "category_name": "楼宇机构",
    "address": "上海友谊支路盘古路"
  },
  {
    "poiid": "B2094757D16DA2FA4399",
    "title": "海尚菊园",
    "lon": "121.36621",
    "lat": "31.353643",
    "category": "252",
    "category_name": "楼宇机构",
    "address": "陆翔路698弄,陆翔路678弄"
  },
  {
    "poiid": "B2094751DA6FABF4429B",
    "title": "馨佳园九街坊",
    "lon": "121.371185",
    "lat": "31.358412",
    "category": "252",
    "category_name": "楼宇机构",
    "address": "韶山路348弄"
  },
  {
    "poiid": "B2094757DA64A1FC4593",
    "title": "绿地北郊广场",
    "lon": "121.384313",
    "lat": "31.357173",
    "category": "252",
    "category_name": "楼宇机构",
    "address": "经区临海滨路,西临青岛路(机场路)"
  },
  {
    "poiid": "B2094757D06AA7FF439B",
    "title": "永清二村",
    "lon": "121.49461",
    "lat": "31.389336",
    "category": "252",
    "category_name": "楼宇机构",
    "address": "上海市宝山区永清路"
  },
  {
    "poiid": "B2094757D06BA1FB429A",
    "title": "宝林四村",
    "lon": "121.49294",
    "lat": "31.404434",
    "category": "252",
    "category_name": "楼宇机构",
    "address": "上海宝林四村"
  },
  {
    "poiid": "B2094750D26AA1F84493",
    "title": "宝城一村",
    "lon": "121.489501",
    "lat": "31.407653",
    "category": "252",
    "category_name": "楼宇机构",
    "address": "友谊路友谊支路"
  },
  {
    "poiid": "B2094757D66CAAF94098",
    "title": "宝钢五村",
    "lon": "121.488084",
    "lat": "31.412205",
    "category": "252",
    "category_name": "楼宇机构",
    "address": "上海宝山区牡丹江路1779号"
  },
  {
    "poiid": "B2094757D06FAAFF469F",
    "title": "成亿宝盛858弄",
    "lon": "121.415154679",
    "lat": "31.3518701119",
    "category": "252",
    "category_name": "楼宇机构",
    "address": "上海市宝山区水产西路"
  },
  {
    "poiid": "B2094654D46AA6FB459C",
    "title": "中共宝山区委组织部党员电化教育中心",
    "lon": "121.48898",
    "lat": "31.40399",
    "category": "252",
    "category_name": "楼宇机构",
    "address": "友谊支路101号"
  },
  {
    "poiid": "B2094757D169A4FF419E",
    "title": "兴景佳苑",
    "lon": "121.49218",
    "lat": "31.398722",
    "category": "252",
    "category_name": "楼宇机构",
    "address": "上海市宝山区永清路999弄"
  },
  {
    "poiid": "B2094757D06AA3F54792",
    "title": "鹏程花苑",
    "lon": "121.495",
    "lat": "31.3436",
    "category": "252",
    "category_name": "楼宇机构",
    "address": "上海长逸路388弄"
  },
  {
    "poiid": "B2094757D064ABF44293",
    "title": "淞南二村",
    "lon": "121.49427845566",
    "lat": "31.349363439088",
    "category": "252",
    "category_name": "楼宇机构",
    "address": "淞良路201弄"
  },
  {
    "poiid": "B2094757DA64A0FF4192",
    "title": "淞南商城(巴黎时光)",
    "lon": "121.49142",
    "lat": "31.346474",
    "category": "252",
    "category_name": "楼宇机构",
    "address": "宝山区淞南路459号"
  },
  {
    "poiid": "B2094654DA6BA6FD4192",
    "title": "上海职业介绍青浦分中心",
    "lon": "121.12289",
    "lat": "31.1496",
    "category": "252",
    "category_name": "楼宇机构",
    "address": "公园路200号"
  },
  {
    "poiid": "B2094757D064A1FB4899",
    "title": "林一小区",
    "lon": "121.543081",
    "lat": "31.228198",
    "category": "252",
    "category_name": "楼宇机构",
    "address": "上海灵山路600弄"
  },
  {
    "poiid": "B2094753DB6BA7FC489D",
    "title": "金茂大厦",
    "lon": "121.543998",
    "lat": "31.227897",
    "category": "252",
    "category_name": "楼宇机构",
    "address": "上海市 陆家嘴环路888号"
  },
  {
    "poiid": "B2094654DB65A6FE4292",
    "title": "上海华夏会计师事务所",
    "lon": "121.5438",
    "lat": "31.227",
    "category": "252",
    "category_name": "楼宇机构",
    "address": "桃林路600弄桃林一小区41号101室"
  },
  {
    "poiid": "B2094751D66CA5FD4598",
    "title": "上海市浦东广播电视台",
    "lon": "121.5435329",
    "lat": "31.2262264",
    "category": "252",
    "category_name": "楼宇机构",
    "address": "上海市浦东新区丁香路716号A座"
  },
  {
    "poiid": "B2094757D064AAFD419A",
    "title": "博士蛙大厦",
    "lon": "121.59855958",
    "lat": "31.333674722",
    "category": "252",
    "category_name": "楼宇机构",
    "address": "上海浦东新区外高桥保税区泰谷路78号"
  },
  {
    "poiid": "B2094757D66EA2FC479E",
    "title": "证券技术大厦",
    "lon": "121.60474463",
    "lat": "31.318012761",
    "category": "252",
    "category_name": "楼宇机构",
    "address": "上海华京路1号"
  },
  {
    "poiid": "B2094757D16BA4FF479A",
    "title": "高东公寓",
    "lon": "121.618704",
    "lat": "31.3332875",
    "category": "252",
    "category_name": "楼宇机构",
    "address": "上海浦东新区 高东新路 500弄"
  },
  {
    "poiid": "B2094757D065A7FB489B",
    "title": "羽北小区",
    "lon": "121.54767673",
    "lat": "31.237448453",
    "category": "252",
    "category_name": "楼宇机构",
    "address": "上海市浦东新区巨野路"
  },
  {
    "poiid": "B2094757D168A3F94392",
    "title": "双城苑",
    "lon": "121.55000273",
    "lat": "31.238139468",
    "category": "252",
    "category_name": "楼宇机构",
    "address": "上海市浦东新区张杨路1998号(苗圃路口)"
  },
  {
    "poiid": "B2094654DA69A2FB4092",
    "title": "上海浦东新区人才市场",
    "lon": "121.55228",
    "lat": "31.2387",
    "category": "252",
    "category_name": "楼宇机构",
    "address": "张杨路1996"
  },
  {
    "poiid": "B2094654DA69A2FB409C",
    "title": "上海市人才发展服务中心浦东中心",
    "lon": "121.55229",
    "lat": "31.2387",
    "category": "252",
    "category_name": "楼宇机构",
    "address": "张杨路1996"
  },
  {
    "poiid": "B2094752D268A1F4499E",
    "title": "虹桥机场T2航站楼",
    "lon": "121.338149",
    "lat": "31.178736",
    "category": "252",
    "category_name": "楼宇机构",
    "address": null
  },
  {
    "poiid": "B2094757D16FAAF44399",
    "title": "云树雅居",
    "lon": "121.80354",
    "lat": "30.899317",
    "category": "252",
    "category_name": "楼宇机构",
    "address": "上海市浦东新区泥城镇彩云路718弄"
  },
  {
    "poiid": "B2094757D16AA6F5439A",
    "title": "松江工业园区",
    "lon": "121.164122196",
    "lat": "31.0491540683",
    "category": "252",
    "category_name": "楼宇机构",
    "address": "上海金都西路"
  },
  {
    "poiid": "B2094654DB68AAF84798",
    "title": "奉贤区拓林镇文化广播电视中心",
    "lon": "121.47934",
    "lat": "30.83084",
    "category": "252",
    "category_name": "楼宇机构",
    "address": "新柘中路"
  },
  {
    "poiid": "B2094757D068A1FC4698",
    "title": "爱博五村",
    "lon": "121.30659063",
    "lat": "31.211500932",
    "category": "252",
    "category_name": "楼宇机构",
    "address": "上海市闵行区天山西路申滨路"
  },
  {
    "poiid": "B2094750D465A2F9479E",
    "title": "闵行区新虹桥社区卫生服务中心",
    "lon": "121.310379",
    "lat": "31.203531",
    "category": "252",
    "category_name": "楼宇机构",
    "address": "申滨路618号"
  },
  {
    "poiid": "B2094757DA6EA4FB469D",
    "title": "万科五玠坊",
    "lon": "121.517243385312",
    "lat": "31.1552699279137",
    "category": "252",
    "category_name": "楼宇机构",
    "address": "浦东新区杨南路1705弄"
  },
  {
    "poiid": "B2094757D065A0FF459C",
    "title": "尚东国际",
    "lon": "121.512734",
    "lat": "31.160524",
    "category": "252",
    "category_name": "楼宇机构",
    "address": "上海海阳路1333弄"
  },
  {
    "poiid": "B2094757D66CA1FC4393",
    "title": "友力大厦",
    "lon": "121.42089",
    "lat": "31.208444",
    "category": "252",
    "category_name": "楼宇机构",
    "address": "长宁区延安西路1566号龙峰大厦2楼(延安西路种德桥路)"
  },
  {
    "poiid": "B2094750DA6AA6FF4893",
    "title": "飞洲国际",
    "lon": "121.438926",
    "lat": "31.180414",
    "category": "252",
    "category_name": "楼宇机构",
    "address": null
  },
  {
    "poiid": "B2094757DA64A4F54592",
    "title": "飞州国际广场",
    "lon": "121.437389",
    "lat": "31.182929",
    "category": "252",
    "category_name": "楼宇机构",
    "address": "拱墅区工业开发区祥符路33号"
  },
  {
    "poiid": "B2094757D064A5FA429F",
    "title": "公专12号楼",
    "lon": "121.518244231",
    "lat": "31.3781669358",
    "category": "252",
    "category_name": "楼宇机构",
    "address": "上海崇景路100号"
  },
  {
    "poiid": "B2094757D06AAAFB4198",
    "title": "精武大厦",
    "lon": "121.49",
    "lat": "31.2634",
    "category": "252",
    "category_name": "楼宇机构",
    "address": "卫清西路139_149号等"
  },
  {
    "poiid": "B2094655D265A0FA409D",
    "title": "东岭豪苑商业楼",
    "lon": "121.348",
    "lat": "30.7346",
    "category": "252",
    "category_name": "楼宇机构",
    "address": "金山区卫清西路555弄"
  },
  {
    "poiid": "B2094757D065A6FB419C",
    "title": "铁路新村",
    "lon": "121.42544679",
    "lat": "31.253632477",
    "category": "252",
    "category_name": "楼宇机构",
    "address": "上海普陀区华池路铁路新村"
  },
  {
    "poiid": "B2094757D065AAFB429D",
    "title": "銅鑼灣軒尼詩道",
    "lon": "121.4931101",
    "lat": "31.287159772",
    "category": "252",
    "category_name": "楼宇机构",
    "address": "香港銅鑼灣軒尼詩道"
  },
  {
    "poiid": "B2094757DA64A1F54199",
    "title": "上海商务大厦",
    "lon": "121.491709",
    "lat": "31.28695",
    "category": "252",
    "category_name": "楼宇机构",
    "address": "曲阳路800号"
  },
  {
    "poiid": "B2094757DA64A3F4499D",
    "title": "嘉年花苑商业",
    "lon": "121.402013",
    "lat": "31.62932",
    "category": "252",
    "category_name": "楼宇机构",
    "address": "体育路58弄"
  },
  {
    "poiid": "B2094757D168ABFD479D",
    "title": "崇明县总工会大楼",
    "lon": "121.399225773",
    "lat": "31.6197005883",
    "category": "252",
    "category_name": "楼宇机构",
    "address": "上海南门路118号"
  },
  {
    "poiid": "B2094757D164A1FC479F",
    "title": "城桥综治中心",
    "lon": "121.404540373",
    "lat": "31.6342595606",
    "category": "252",
    "category_name": "楼宇机构",
    "address": "上海川心街4号"
  },
  {
    "poiid": "B2094757D168A2F94992",
    "title": "天云花苑",
    "lon": "121.55939554",
    "lat": "31.592189449",
    "category": "252",
    "category_name": "楼宇机构",
    "address": "上海赢洲新河新梅424582号"
  },
  {
    "poiid": "B2094757D16DA6FE4198",
    "title": "双秀南园",
    "lon": "121.511",
    "lat": "31.1576",
    "category": "252",
    "category_name": "楼宇机构",
    "address": "上海浦东区上南路6869弄"
  },
  {
    "poiid": "B2094757D66CAAF4449A",
    "title": "上南路3651弄",
    "lon": "121.50376303",
    "lat": "31.154174781",
    "category": "252",
    "category_name": "楼宇机构",
    "address": "上海上南路3651弄"
  },
  {
    "poiid": "B2094757D064A4F94698",
    "title": "上南春天苑",
    "lon": "121.50412",
    "lat": "31.15089",
    "category": "252",
    "category_name": "楼宇机构",
    "address": "上海市浦东新区上南路4265弄"
  },
  {
    "poiid": "B2094751D264A2FC499D",
    "title": "中泽苑",
    "lon": "121.166473",
    "lat": "31.140671",
    "category": "252",
    "category_name": "楼宇机构",
    "address": null
  },
  {
    "poiid": "B2094757D164A2FE4298",
    "title": "曙光南桥小区",
    "lon": "121.70871",
    "lat": "31.191469",
    "category": "252",
    "category_name": "楼宇机构",
    "address": "上海浦东新区川沙镇南桥路237弄"
  },
  {
    "poiid": "B2094757DA6BA6F9419B",
    "title": "世纪企业中心",
    "lon": "121.489273",
    "lat": "31.262292",
    "category": "252",
    "category_name": "楼宇机构",
    "address": "政务区怀宁路与南二环路交口东北角"
  },
  {
    "poiid": "B2094757D06FAAF9499D",
    "title": "殷行二村",
    "lon": "121.546",
    "lat": "31.3339",
    "category": "252",
    "category_name": "楼宇机构",
    "address": "上海包头路开鲁路"
  },
  {
    "poiid": "B2094757D06BA4FE489C",
    "title": "殷行路250弄",
    "lon": "121.541962303",
    "lat": "31.3280365273",
    "category": "252",
    "category_name": "楼宇机构",
    "address": "上海市杨浦区殷行路"
  },
  {
    "poiid": "B2094757D66EA5F54092",
    "title": "金龙新村",
    "lon": "121.54373671984",
    "lat": "31.334932558568",
    "category": "252",
    "category_name": "楼宇机构",
    "address": "上海杨浦区殷行路430弄"
  },
  {
    "poiid": "B2094757D06FA5FB459B",
    "title": "殷行路310弄",
    "lon": "121.539127",
    "lat": "31.32899",
    "category": "252",
    "category_name": "楼宇机构",
    "address": "杨浦区殷行路310弄"
  },
  {
    "poiid": "B2094757D06BA1F9459F",
    "title": "西郊宝成花苑",
    "lon": "121.36429595",
    "lat": "31.199365615",
    "category": "252",
    "category_name": "楼宇机构",
    "address": "上海市长宁区金浜路100号"
  },
  {
    "poiid": "B2094757D66CA5F8479D",
    "title": "莘松路智慧园",
    "lon": "121.37286485",
    "lat": "31.10539497",
    "category": "252",
    "category_name": "楼宇机构",
    "address": "上海莘松路380号"
  },
  {
    "poiid": "B2094757D16BA5FE4293",
    "title": "莘松六村",
    "lon": "121.36848",
    "lat": "31.10676",
    "category": "252",
    "category_name": "楼宇机构",
    "address": "上海市闵行区莘庄镇莘松六村"
  },
  {
    "poiid": "B2094757D069AAFB4392",
    "title": "莘松三村",
    "lon": "121.37094",
    "lat": "31.108677",
    "category": "252",
    "category_name": "楼宇机构",
    "address": "上海闵行区莘沥路"
  },
  {
    "poiid": "B2094751D565A2F9469F",
    "title": "基督教教堂",
    "lon": "121.463436",
    "lat": "31.236814",
    "category": "252",
    "category_name": "楼宇机构",
    "address": "黄浦区"
  },
  {
    "poiid": "B2094654DB69A0F44792",
    "title": "波兰共和国驻上海总领事馆",
    "lon": "121.44761",
    "lat": "31.20133",
    "category": "252",
    "category_name": "楼宇机构",
    "address": "徐汇区建国西路618号"
  },
  {
    "poiid": "B2094757D16DA1F94192",
    "title": "三期20号楼6013室",
    "lon": "121.204807096",
    "lat": "31.0509474067",
    "category": "252",
    "category_name": "楼宇机构",
    "address": null
  },
  {
    "poiid": "B2094757D169A3FB4699",
    "title": "三期25号楼7008室",
    "lon": "121.20182619",
    "lat": "31.051304114",
    "category": "252",
    "category_name": "楼宇机构",
    "address": null
  },
  {
    "poiid": "B2094757DA64A1F5469C",
    "title": "尚都里休闲广场",
    "lon": "121.056386",
    "lat": "31.11028",
    "category": "252",
    "category_name": "楼宇机构",
    "address": "青浦新风路240弄"
  },
  {
    "poiid": "B2094757DA6BA0FA439B",
    "title": "锦江向阳大楼写字楼",
    "lon": "121.458621",
    "lat": "31.228977",
    "category": "252",
    "category_name": "楼宇机构",
    "address": "上海市徐汇区衡山路922号、918号"
  },
  {
    "poiid": "B2094757D16AA1FF4999",
    "title": "金砖苑 海顺路359弄",
    "lon": "121.68340345",
    "lat": "31.2759013503",
    "category": "252",
    "category_name": "楼宇机构",
    "address": "上海浦东新区曹路镇金砖苑海顺路359弄"
  },
  {
    "poiid": "B2094751DA64A1FA4492",
    "title": "星晓家园",
    "lon": "121.682233",
    "lat": "31.28393",
    "category": "252",
    "category_name": "楼宇机构",
    "address": "上海市浦东新区金晓路96弄"
  },
  {
    "poiid": "B2094757DA6EABF4419D",
    "title": "金钻苑",
    "lon": "121.6881930838",
    "lat": "31.284075437374",
    "category": "252",
    "category_name": "楼宇机构",
    "address": "浦东海松路359弄"
  },
  {
    "poiid": "B2094757D165A2F5479C",
    "title": "丰怡苑",
    "lon": "121.68333",
    "lat": "31.266808",
    "category": "252",
    "category_name": "楼宇机构",
    "address": "上海龚华路50弄"
  },
  {
    "poiid": "B2094750DB65A1FB469E",
    "title": "西藏中路168号都市总部大楼",
    "lon": "121.474624",
    "lat": "31.228435",
    "category": "252",
    "category_name": "楼宇机构",
    "address": "西藏中路168号都市总部大楼"
  },
  {
    "poiid": "B2094757DA6BA4FB479B",
    "title": "中邦MOHO写字楼",
    "lon": "121.697788",
    "lat": "31.214949",
    "category": "252",
    "category_name": "楼宇机构",
    "address": "上海市黄浦区南京西路338号"
  },
  {
    "poiid": "B2094757D66DA7FA429E",
    "title": "东方慧谷",
    "lon": "121.291843",
    "lat": "31.333605",
    "category": "252",
    "category_name": "楼宇机构",
    "address": "嘉定区宝安公路2999号"
  },
  {
    "poiid": "B2094757D66EABFE4893",
    "title": "育兰二村",
    "lon": "121.287",
    "lat": "31.3347",
    "category": "252",
    "category_name": "楼宇机构",
    "address": "上海宝安公路3412号"
  },
  {
    "poiid": "B2094757D06FAAFA459E",
    "title": "罗秀三村",
    "lon": "121.452958",
    "lat": "31.139931",
    "category": "252",
    "category_name": "楼宇机构",
    "address": "罗秀路210号"
  },
  {
    "poiid": "B2094757DA64A0FE4792",
    "title": "顺恒国际商业广场",
    "lon": "121.33466",
    "lat": "31.162578",
    "category": "252",
    "category_name": "楼宇机构",
    "address": "沪星路299弄东（近七莘路吴中路）"
  },
  {
    "poiid": "B2094757D16AABFC449D",
    "title": "张江创洁大厦",
    "lon": "121.59916418",
    "lat": "31.211424755",
    "category": "252",
    "category_name": "楼宇机构",
    "address": "上海郭守敬路433号"
  },
  {
    "poiid": "B2094757DA64A0FF469C",
    "title": "太平洋企业中心",
    "lon": "121.439",
    "lat": "31.2209",
    "category": "252",
    "category_name": "楼宇机构",
    "address": "上海市长宁区延安西路889号"
  },
  {
    "poiid": "B2094757D068A7FC439A",
    "title": "凤城五村",
    "lon": "121.5178502",
    "lat": "31.282865282",
    "category": "252",
    "category_name": "楼宇机构",
    "address": "上海江浦路抚顺路"
  },
  {
    "poiid": "B2094757DA6BABF84198",
    "title": "SOHO世纪大道",
    "lon": "121.533176",
    "lat": "31.226032",
    "category": "252",
    "category_name": "楼宇机构",
    "address": "安阳市中华路与文昌大道交叉口向北200米路东"
  },
  {
    "poiid": "B2094757D164A4FE479F",
    "title": "崇明县建设镇人民政府",
    "lon": "121.453673001",
    "lat": "31.6567194148",
    "category": "252",
    "category_name": "楼宇机构",
    "address": "上海建设镇建星路108号"
  },
  {
    "poiid": "B2094757D169A1F4449A",
    "title": "丽娃大厦",
    "lon": "121.405339086",
    "lat": "31.2238598064",
    "category": "252",
    "category_name": "楼宇机构",
    "address": "上海华师大一村"
  },
  {
    "poiid": "B2094654DB6CA6F44092",
    "title": "上海广播电视卫星地球站",
    "lon": "121.49898",
    "lat": "31.08422",
    "category": "252",
    "category_name": "楼宇机构",
    "address": "鲁陈路3555号"
  },
  {
    "poiid": "B2094654D56EA5F9459B",
    "title": "上海杨浦教育人才交流服务中心",
    "lon": "121.5204",
    "lat": "31.25723",
    "category": "252",
    "category_name": "楼宇机构",
    "address": "杨浦区通北路350号(近榆林路)"
  },
  {
    "poiid": "B2094757D16CA6F5419C",
    "title": "瑞雪大楼",
    "lon": "121.471574",
    "lat": "31.214498",
    "category": "252",
    "category_name": "楼宇机构",
    "address": "陕西南路271弄"
  },
  {
    "poiid": "B2094757D16CA0FD4993",
    "title": "陆家嘴街道社区事务受理服务中心",
    "lon": "121.524777738",
    "lat": "31.2350854036",
    "category": "252",
    "category_name": "楼宇机构",
    "address": "上海市浦东新区福山路55号"
  },
  {
    "poiid": "B2094757D06FA0F94493",
    "title": "开鲁二村",
    "lon": "121.533",
    "lat": "31.3291",
    "category": "252",
    "category_name": "楼宇机构",
    "address": "上海市杨浦区开鲁二村"
  },
  {
    "poiid": "B2094757D064A2F94999",
    "title": "兴浦新村",
    "lon": "121.52944",
    "lat": "31.334749",
    "category": "252",
    "category_name": "楼宇机构",
    "address": "上海闸殷路75弄"
  },
  {
    "poiid": "B2094757D068A3FD499A",
    "title": "新泾六村",
    "lon": "121.373",
    "lat": "31.2258",
    "category": "252",
    "category_name": "楼宇机构",
    "address": "上海金钟路340弄"
  },
  {
    "poiid": "B2094757D065A3F9489E",
    "title": "上海赢华国际广场",
    "lon": "121.385167586",
    "lat": "31.2210462514",
    "category": "252",
    "category_name": "楼宇机构",
    "address": "重庆市渝中区解放碑步行街民族路188号(女人广场旁)"
  },
  {
    "poiid": "B2094752D76CA4F8489E",
    "title": "海亮大厦",
    "lon": "121.386355",
    "lat": "31.224745",
    "category": "252",
    "category_name": "楼宇机构",
    "address": "上海市普陀区大渡河路"
  },
  {
    "poiid": "B209475DD664A5FC499D",
    "title": "上海市儿童医院普陀新院",
    "lon": "121.389511",
    "lat": "31.2257",
    "category": "252",
    "category_name": "楼宇机构",
    "address": "上海市 同普路517号"
  },
  {
    "poiid": "B2094757D16EAAFE4892",
    "title": "东渡国际大厦",
    "lon": "121.381794586",
    "lat": "31.2222152743",
    "category": "252",
    "category_name": "楼宇机构",
    "address": "上海云岭东路651弄"
  },
  {
    "poiid": "B2094757D06FA4F54293",
    "title": "凤城四村",
    "lon": "121.528",
    "lat": "31.2891",
    "category": "252",
    "category_name": "楼宇机构",
    "address": "上海黄兴路抚顺路"
  },
  {
    "poiid": "B2094757D16AA4FB419E",
    "title": "福阳大厦",
    "lon": "121.529",
    "lat": "31.292",
    "category": "252",
    "category_name": "楼宇机构",
    "address": "上海市杨浦区松花江路1250号"
  },
  {
    "poiid": "B2094757D06BABFF439B",
    "title": "恒升大厦",
    "lon": "121.4824",
    "lat": "31.21172",
    "category": "252",
    "category_name": "楼宇机构",
    "address": "上海市黄浦区陆家浜路1396-1398号"
  },
  {
    "poiid": "B2094757D06BA2F94192",
    "title": "爱法新都",
    "lon": "121.60023",
    "lat": "31.256149",
    "category": "252",
    "category_name": "楼宇机构",
    "address": "上海浦东新区杨高中路58弄"
  },
  {
    "poiid": "B2094757D065A1F84993",
    "title": "金舟苑",
    "lon": "121.60213",
    "lat": "31.262424",
    "category": "252",
    "category_name": "楼宇机构",
    "address": "上海市卢湾区徐家汇路515弄"
  },
  {
    "poiid": "B2094757D068A7F8439B",
    "title": "泗塘三村",
    "lon": "121.461",
    "lat": "31.3399",
    "category": "252",
    "category_name": "楼宇机构",
    "address": "上海长江西路泗塘三村"
  },
  {
    "poiid": "B2094757D064A4FE429F",
    "title": "泗塘八村",
    "lon": "121.466",
    "lat": "31.3365",
    "category": "252",
    "category_name": "楼宇机构",
    "address": "上海市宝山区共江路"
  },
  {
    "poiid": "B2094757D065A7FD4398",
    "title": "中星红庐别墅区",
    "lon": "121.36200112",
    "lat": "31.045167113",
    "category": "252",
    "category_name": "楼宇机构",
    "address": "上海市闵行区昆阳路"
  },
  {
    "poiid": "B2094654DA6EA3FD4799",
    "title": "卢湾教育文体中心",
    "lon": "121.46962",
    "lat": "31.20208",
    "category": "252",
    "category_name": "楼宇机构",
    "address": "斜土路855"
  },
  {
    "poiid": "B2094757D16CA3FB499A",
    "title": "江浦路2009弄",
    "lon": "121.516144103",
    "lat": "31.2801996266",
    "category": "252",
    "category_name": "楼宇机构",
    "address": "上海江浦路2009弄"
  },
  {
    "poiid": "B2094654D56EA0F5449C",
    "title": "上海市杨浦区四平法律服务所",
    "lon": "121.513",
    "lat": "31.27975",
    "category": "252",
    "category_name": "楼宇机构",
    "address": "铁岭路88号-2"
  },
  {
    "poiid": "B2094757D16EA1F5409E",
    "title": "打虎大楼",
    "lon": "121.516",
    "lat": "31.278",
    "category": "252",
    "category_name": "楼宇机构",
    "address": "上海控江路2023号"
  },
  {
    "poiid": "B2094757D165A4FB479B",
    "title": "13点星座",
    "lon": "121.512357103",
    "lat": "31.2844987165",
    "category": "252",
    "category_name": "楼宇机构",
    "address": "上海某处"
  },
  {
    "poiid": "B2094757D069A4F4439E",
    "title": "桃浦四村",
    "lon": "121.352",
    "lat": "31.2902",
    "category": "252",
    "category_name": "楼宇机构",
    "address": "上海市普陀区绿杨路51弄"
  },
  {
    "poiid": "B2094757DA64A3FE489D",
    "title": "恒达休闲广场",
    "lon": "121.349509",
    "lat": "31.282448",
    "category": "252",
    "category_name": "楼宇机构",
    "address": "普陀白丽路237-257(单)号"
  },
  {
    "poiid": "B2094757D06FA4FD449C",
    "title": "桃浦六村(樱花苑)",
    "lon": "121.354376849",
    "lat": "31.2825719372",
    "category": "252",
    "category_name": "楼宇机构",
    "address": "上海普陀区雪松路330弄"
  },
  {
    "poiid": "B2094757D06FA0F94693",
    "title": "高境二村",
    "lon": "121.47961",
    "lat": "31.320936",
    "category": "252",
    "category_name": "楼宇机构",
    "address": "上海市宝山区殷高西路"
  },
  {
    "poiid": "B2094757D065A7F44092",
    "title": "馨良苑",
    "lon": "121.4754",
    "lat": "31.32555",
    "category": "252",
    "category_name": "楼宇机构",
    "address": "上海市宝山区新二路183弄"
  },
  {
    "poiid": "B2094757DA64A0FA4892",
    "title": "同华大厦",
    "lon": "121.61644174655",
    "lat": "31.259770959798",
    "category": "252",
    "category_name": "楼宇机构",
    "address": "金湘路345号"
  },
  {
    "poiid": "B2094757D16BA3F44992",
    "title": "佳林路小区",
    "lon": "121.615771339",
    "lat": "31.2636201104",
    "category": "252",
    "category_name": "楼宇机构",
    "address": "上海市浦东新区佳林路1071弄"
  },
  {
    "poiid": "B2094757D068A6F8439A",
    "title": "双辽新村",
    "lon": "121.5162558",
    "lat": "31.270172308",
    "category": "252",
    "category_name": "楼宇机构",
    "address": "上海市杨浦区双辽支路60弄"
  },
  {
    "poiid": "B2094654D468A7FE4798",
    "title": "崇明县人民法院庙镇人民法庭",
    "lon": "121.35105",
    "lat": "31.71465",
    "category": "252",
    "category_name": "楼宇机构",
    "address": ""
  },
  {
    "poiid": "B2094757D06BA6FE499E",
    "title": "步高苑",
    "lon": "121.46265",
    "lat": "31.20546",
    "category": "252",
    "category_name": "楼宇机构",
    "address": "上海市卢湾区陕西南路327号"
  },
  {
    "poiid": "B2094757D064A6F94698",
    "title": "三航大厦",
    "lon": "121.462",
    "lat": "31.2059",
    "category": "252",
    "category_name": "楼宇机构",
    "address": "上海平江路139号"
  },
  {
    "poiid": "B2094757D16DAAF44092",
    "title": "江桥镇天际蓝桥",
    "lon": "121.34121892",
    "lat": "31.259357533",
    "category": "252",
    "category_name": "楼宇机构",
    "address": "上海市嘉定区江桥镇华江支路328弄"
  },
  {
    "poiid": "B2094757D065A0FC4293",
    "title": "江桥二村99弄",
    "lon": "121.348159925",
    "lat": "31.254704437",
    "category": "252",
    "category_name": "楼宇机构",
    "address": "上海市嘉定区华江公路"
  },
  {
    "poiid": "B2094654D46BAAF44699",
    "title": "江桥镇文化广播电视服务公司",
    "lon": "121.3445",
    "lat": "31.25605",
    "category": "252",
    "category_name": "楼宇机构",
    "address": ""
  },
  {
    "poiid": "B2094757DA6BA3FC479C",
    "title": "上海普陀区房产交易中心",
    "lon": "121.41673007377847",
    "lat": "31.23966038441211",
    "category": "252",
    "category_name": "楼宇机构",
    "address": "上海市普陀区中山北路2930号"
  },
  {
    "poiid": "B2094757D169AAF54092",
    "title": "联纵智达大厦",
    "lon": "121.41165758",
    "lat": "31.241588853",
    "category": "252",
    "category_name": "楼宇机构",
    "address": "上海市普陀区曹杨路867号"
  },
  {
    "poiid": "B2094757D16BA3FB449C",
    "title": "枣阳苑",
    "lon": "121.415",
    "lat": "31.2417",
    "category": "252",
    "category_name": "楼宇机构",
    "address": "上海市普陀区杏山路254号"
  },
  {
    "poiid": "B2094750DA6DA3F9409D",
    "title": "普陀城投-安居房产",
    "lon": "121.412399",
    "lat": "31.241737",
    "category": "252",
    "category_name": "楼宇机构",
    "address": "上海市普陀区曹杨路868号"
  },
  {
    "poiid": "B2094757D065A4F84798",
    "title": "曹阳八村",
    "lon": "121.41157641",
    "lat": "31.24538096",
    "category": "252",
    "category_name": "楼宇机构",
    "address": "上海曹阳八村"
  },
  {
    "poiid": "B2094757D065A1F8419E",
    "title": "君悦苑",
    "lon": "121.413758019",
    "lat": "31.2397964857",
    "category": "252",
    "category_name": "楼宇机构",
    "address": "上海兰溪路10号"
  },
  {
    "poiid": "B2094757D168A0F8479C",
    "title": "联农大厦",
    "lon": "121.41198",
    "lat": "31.241074",
    "category": "252",
    "category_name": "楼宇机构",
    "address": "上海曹杨路859弄5号"
  },
  {
    "poiid": "B2094654D56AAAFD459A",
    "title": "上海职业介绍普陀分中心(武宁路)",
    "lon": "121.41065",
    "lat": "31.24596",
    "category": "252",
    "category_name": "楼宇机构",
    "address": "武宁路1036"
  },
  {
    "poiid": "B2094757D16BA1FD499C",
    "title": "汇尚商务楼",
    "lon": "121.41029554",
    "lat": "31.24294353",
    "category": "252",
    "category_name": "楼宇机构",
    "address": "上海曹杨路930号"
  },
  {
    "poiid": "B2094757D06AAAFE479D",
    "title": "宝山区工业园区",
    "lon": "121.348006018",
    "lat": "31.4565459615",
    "category": "252",
    "category_name": "楼宇机构",
    "address": "上海市宝山区金石路"
  },
  {
    "poiid": "B2094757D06BA1FA4299",
    "title": "月浦七村",
    "lon": "121.432",
    "lat": "31.4132",
    "category": "252",
    "category_name": "楼宇机构",
    "address": "上海龙镇路德都路"
  },
  {
    "poiid": "B2094757D065A0F4489A",
    "title": "乐业三村",
    "lon": "121.431414",
    "lat": "31.414577",
    "category": "252",
    "category_name": "楼宇机构",
    "address": "上海市宝山区德都路168弄"
  },
  {
    "poiid": "B2094757D164A3FF4493",
    "title": "四元路360弄",
    "lon": "121.434423",
    "lat": "31.413126",
    "category": "252",
    "category_name": "楼宇机构",
    "address": "上海市宝山区四元路360弄"
  },
  {
    "poiid": "B2094757DA64A1F5429D",
    "title": "上海五金城",
    "lon": "121.147614",
    "lat": "31.382072",
    "category": "252",
    "category_name": "楼宇机构",
    "address": "嘉定区外冈宝线公路5000弄60号"
  },
  {
    "poiid": "B2094757D064AAFF4292",
    "title": "中国邮政复兴中路邮政所",
    "lon": "121.458617",
    "lat": "31.213082",
    "category": "252",
    "category_name": "楼宇机构",
    "address": "上海徐汇区复兴中路1246号近陕西南路"
  },
  {
    "poiid": "B2094757D66FA0FF4693",
    "title": "国际贸易大厦外服",
    "lon": "121.45830993",
    "lat": "31.211544702",
    "category": "252",
    "category_name": "楼宇机构",
    "address": "上海延安西路2200号316室"
  },
  {
    "poiid": "B2094757D06BA1FD4393",
    "title": "车站新村",
    "lon": "121.40018795",
    "lat": "31.260032869",
    "category": "252",
    "category_name": "楼宇机构",
    "address": "上海市普陀区桃浦路"
  },
  {
    "poiid": "B2094757D16BA0FE419F",
    "title": "曹杨苑",
    "lon": "121.40232",
    "lat": "31.258879",
    "category": "252",
    "category_name": "楼宇机构",
    "address": "上海市普陀区桃浦路"
  },
  {
    "poiid": "B2094757D16CA4FB499E",
    "title": "上南一村",
    "lon": "121.40285625",
    "lat": "31.263012093",
    "category": "252",
    "category_name": "楼宇机构",
    "address": "上海浦东南路洪山路"
  },
  {
    "poiid": "B2094757D66CA6FA4192",
    "title": "清涧八街坊",
    "lon": "121.40542265579",
    "lat": "31.266734357522",
    "category": "252",
    "category_name": "楼宇机构",
    "address": "上海市普陀区桃浦路"
  },
  {
    "poiid": "B2094757D66DA6F54398",
    "title": "嘉发公寓",
    "lon": "121.4001",
    "lat": "31.260305",
    "category": "252",
    "category_name": "楼宇机构",
    "address": "上海市普陀区桃浦路171号"
  },
  {
    "poiid": "B2094752D76FA0FF499E",
    "title": "东方明珠",
    "lon": "121.408345",
    "lat": "31.263323",
    "category": "252",
    "category_name": "楼宇机构",
    "address": null
  },
  {
    "poiid": "B2094757D16AA5F44498",
    "title": "交通路3193弄",
    "lon": "121.41137495",
    "lat": "31.261781903",
    "category": "252",
    "category_name": "楼宇机构",
    "address": "上海市普陀区交通路"
  },
  {
    "poiid": "B2094757D16EA5FC489F",
    "title": "南圩新村",
    "lon": "121.167",
    "lat": "30.9055",
    "category": "252",
    "category_name": "楼宇机构",
    "address": "上海金山区朱泾镇临源街健康路"
  },
  {
    "poiid": "B2094757D06BA1FD4892",
    "title": "金象大厦",
    "lon": "121.485",
    "lat": "31.2673",
    "category": "252",
    "category_name": "楼宇机构",
    "address": "上海市虹口区华昌路9号"
  },
  {
    "poiid": "B2094757D06AAAF5409C",
    "title": "汇成二村",
    "lon": "121.43526",
    "lat": "31.146408",
    "category": "252",
    "category_name": "楼宇机构",
    "address": "上海汇成二村"
  },
  {
    "poiid": "B2094757D16EA5FC4192",
    "title": "罗城小区",
    "lon": "121.434948",
    "lat": "31.14913",
    "category": "252",
    "category_name": "楼宇机构",
    "address": "上海罗城路700弄"
  },
  {
    "poiid": "B2094757D66CA0F44598",
    "title": "园南二村77号",
    "lon": "121.44353005",
    "lat": "31.142187807",
    "category": "252",
    "category_name": "楼宇机构",
    "address": "上海平福路园南二村77号"
  },
  {
    "poiid": "B2094757D068A3FD469B",
    "title": "南江苑",
    "lon": "121.5181",
    "lat": "31.16831",
    "category": "252",
    "category_name": "楼宇机构",
    "address": "上海浦东杨高南路3288弄"
  },
  {
    "poiid": "B2094757D16EA7FC499A",
    "title": "内江路391弄",
    "lon": "121.5474038",
    "lat": "31.283558096",
    "category": "252",
    "category_name": "楼宇机构",
    "address": "上海内江路391弄"
  },
  {
    "poiid": "B2094757D169A3FF409A",
    "title": "松江二中男生宿舍",
    "lon": "121.248239",
    "lat": "31.008033",
    "category": "252",
    "category_name": "楼宇机构",
    "address": "上海松江区中山东路250号"
  },
  {
    "poiid": "B2094655D265A3FE429C",
    "title": "长征万里社区文化活动中心",
    "lon": "121.41218",
    "lat": "31.2651",
    "category": "252",
    "category_name": "楼宇机构",
    "address": "富平路518"
  },
  {
    "poiid": "B2094757D06BA2F54998",
    "title": "九州花苑",
    "lon": "121.52592",
    "lat": "31.283064",
    "category": "252",
    "category_name": "楼宇机构",
    "address": "上海杨浦区靖宇南路99弄"
  },
  {
    "poiid": "B2094753D46AA3F8439E",
    "title": "金茂大厦",
    "lon": "121.479522",
    "lat": "31.250631",
    "category": "252",
    "category_name": "楼宇机构",
    "address": "上海市 浦东新区世纪大道88号"
  },
  {
    "poiid": "B2094757D06FABF9409B",
    "title": "梅陇九村",
    "lon": "121.42123",
    "lat": "31.131018",
    "category": "252",
    "category_name": "楼宇机构",
    "address": "上海凌云路(上中西路罗秀路)"
  },
  {
    "poiid": "B2094757D16DA4FC489D",
    "title": "源梦苑",
    "lon": "121.422412",
    "lat": "31.113569",
    "category": "252",
    "category_name": "楼宇机构",
    "address": "上海市闵行区虹梅南路215号"
  },
  {
    "poiid": "B2094757D06AA3F5409F",
    "title": "桃浦九村",
    "lon": "121.34585",
    "lat": "31.290047",
    "category": "252",
    "category_name": "楼宇机构",
    "address": "上海市普陀区白丽路656号"
  },
  {
    "poiid": "B2094757D16CA1FB4393",
    "title": "和乐苑",
    "lon": "121.34688082",
    "lat": "31.28146209",
    "category": "252",
    "category_name": "楼宇机构",
    "address": "上海桃浦老三村"
  },
  {
    "poiid": "B2094757D06BAAF9449A",
    "title": "桃浦新村石榴苑",
    "lon": "121.34212162",
    "lat": "31.280734575",
    "category": "252",
    "category_name": "楼宇机构",
    "address": "上海绿杨路"
  },
  {
    "poiid": "B2094757D06AA5FF439F",
    "title": "兴银花园",
    "lon": "121.40198",
    "lat": "31.08066",
    "category": "252",
    "category_name": "楼宇机构",
    "address": "上海市闵行区都市路3509弄"
  },
  {
    "poiid": "B2094757D069A4FC459E",
    "title": "櫻園南區",
    "lon": "121.403245207",
    "lat": "31.0834322703",
    "category": "252",
    "category_name": "楼宇机构",
    "address": "上海都市路3566弄"
  },
  {
    "poiid": "B2094757D069AAFF4798",
    "title": "石泉苑",
    "lon": "121.42654",
    "lat": "31.250622",
    "category": "252",
    "category_name": "楼宇机构",
    "address": "上海石泉路135弄"
  },
  {
    "poiid": "B2094757D064A7FC449A",
    "title": "卢湾邮政支局",
    "lon": "121.46610108",
    "lat": "31.219262045",
    "category": "252",
    "category_name": "楼宇机构",
    "address": "上海卢湾区思南路7号"
  },
  {
    "poiid": "B2094757D064A4FC449C",
    "title": "现代大厦",
    "lon": "121.464",
    "lat": "31.2183",
    "category": "252",
    "category_name": "楼宇机构",
    "address": "上海襄阳南路 218号"
  },
  {
    "poiid": "B2094757D66DA1F84493",
    "title": "三枪工业城",
    "lon": "121.464390738",
    "lat": "31.2199148803",
    "category": "252",
    "category_name": "楼宇机构",
    "address": "上海市浦东新区康桥镇康梧路555号"
  },
  {
    "poiid": "B2094655D268A3FB449D",
    "title": "马来西亚总领事馆(红宝石路)",
    "lon": "121.39944",
    "lat": "31.19811",
    "category": "252",
    "category_name": "楼宇机构",
    "address": "红宝石路500号东银中心9层01"
  },
  {
    "poiid": "B2094757DA64A3F5409D",
    "title": "嘉饰茂居家生活广场",
    "lon": "121.227264",
    "lat": "31.314342",
    "category": "252",
    "category_name": "楼宇机构",
    "address": "其他区无锡锡沪东路99号"
  },
  {
    "poiid": "B2094757D064A3FE4399",
    "title": "天和湖滨家园",
    "lon": "121.748495225",
    "lat": "31.1818711999",
    "category": "252",
    "category_name": "楼宇机构",
    "address": "上海晚霞路715弄"
  },
  {
    "poiid": "B2094757D068A2FB4892",
    "title": "聚能湾大厦",
    "lon": "121.436895",
    "lat": "31.292047",
    "category": "252",
    "category_name": "楼宇机构",
    "address": "松江区工业区鼎源路广富林路路口"
  },
  {
    "poiid": "B2094757D16FABFD4592",
    "title": "经纬城市绿洲-观澜泓郡家园",
    "lon": "121.40769085",
    "lat": "31.327486758",
    "category": "252",
    "category_name": "楼宇机构",
    "address": "上海纬地路358弄"
  },
  {
    "poiid": "B2094757D06FAAFF409B",
    "title": "明丰阳光苑",
    "lon": "121.52362",
    "lat": "31.315937",
    "category": "252",
    "category_name": "楼宇机构",
    "address": "上海市杨浦区政立路1585号(逸仙路)"
  },
  {
    "poiid": "B2094750DB6DA4F9469A",
    "title": "上海中福会少年宫",
    "lon": "121.4393039831297",
    "lat": "31.22352354984343",
    "category": "252",
    "category_name": "楼宇机构",
    "address": "静安寺"
  },
  {
    "poiid": "B2094750DA6CA1F5459B",
    "title": "国家音乐产业基地",
    "lon": "121.491798",
    "lat": "31.256912",
    "category": "252",
    "category_name": "楼宇机构",
    "address": "辽宁路46号"
  },
  {
    "poiid": "B2094757D068A0F44093",
    "title": "水语人家",
    "lon": "121.54162",
    "lat": "31.049992",
    "category": "252",
    "category_name": "楼宇机构",
    "address": "上海浦涛路768弄"
  },
  {
    "poiid": "B2094757D069A5FE439F",
    "title": "浦江丽都",
    "lon": "121.53684",
    "lat": "31.05422",
    "category": "252",
    "category_name": "楼宇机构",
    "address": "上海市闵行区浦连路"
  },
  {
    "poiid": "B2094757D065A7FC449F",
    "title": "浦涛路 瑞和新苑",
    "lon": "121.53823164",
    "lat": "31.047809719",
    "category": "252",
    "category_name": "楼宇机构",
    "address": "上海市闵行区浦涛路"
  },
  {
    "poiid": "B2094752D46CA3F94392",
    "title": "陆家嘴环路未来资产大厦",
    "lon": "121.500338",
    "lat": "31.235001",
    "category": "252",
    "category_name": "楼宇机构",
    "address": "浦东新区陆家嘴环路166号"
  },
  {
    "poiid": "B2094752D265A5F54493",
    "title": "正大广场正大厅",
    "lon": "121.501697",
    "lat": "31.234907",
    "category": "252",
    "category_name": "楼宇机构",
    "address": null
  },
  {
    "poiid": "B2094757D06AA4F4479F",
    "title": "芙蓉花苑",
    "lon": "121.43077358",
    "lat": "31.246468748",
    "category": "252",
    "category_name": "楼宇机构",
    "address": "上海市普陀区镇坪路"
  },
  {
    "poiid": "B2094757D16DA2FA4298",
    "title": "纺博大厦",
    "lon": "121.445721586",
    "lat": "31.2469297578",
    "category": "252",
    "category_name": "楼宇机构",
    "address": "上海市普陀区澳门路158号"
  },
  {
    "poiid": "B2094757D16DA6FD4998",
    "title": "万事发公寓",
    "lon": "121.183588",
    "lat": "31.201294",
    "category": "252",
    "category_name": "楼宇机构",
    "address": null
  },
  {
    "poiid": "B2094654D569A1F5489E",
    "title": "青浦区重固镇劳动服务所",
    "lon": "121.18117",
    "lat": "31.20051",
    "category": "252",
    "category_name": "楼宇机构",
    "address": "福泉山路494"
  },
  {
    "poiid": "B2094757D165A1F9469E",
    "title": "强生南泰大厦",
    "lon": "121.45691773",
    "lat": "31.205863781",
    "category": "252",
    "category_name": "楼宇机构",
    "address": "上海南京西路泰兴路"
  },
  {
    "poiid": "B2094757D16CA0FC459D",
    "title": "襄阳南路357弄",
    "lon": "121.458103",
    "lat": "31.20786",
    "category": "252",
    "category_name": "楼宇机构",
    "address": "上海襄阳南路357弄"
  },
  {
    "poiid": "B2094757D06AA5F4499A",
    "title": "科技投资大厦",
    "lon": "121.458855",
    "lat": "31.204914",
    "category": "252",
    "category_name": "楼宇机构",
    "address": "上海建国西路285号"
  },
  {
    "poiid": "B2094654DB65AAF5449F",
    "title": "南汇区人民法院芦潮港法庭",
    "lon": "121.84837",
    "lat": "30.88076",
    "category": "252",
    "category_name": "楼宇机构",
    "address": "南汇区芦潮港镇果园桥车站东首"
  },
  {
    "poiid": "B2094757D064A0FB479C",
    "title": "罗山七村",
    "lon": "121.56448",
    "lat": "31.252216",
    "category": "252",
    "category_name": "楼宇机构",
    "address": "上海市浦东新区龙居路"
  },
  {
    "poiid": "B2094757D66EABF5499C",
    "title": "黄山新村",
    "lon": "121.56908",
    "lat": "31.252127",
    "category": "252",
    "category_name": "楼宇机构",
    "address": "上海博山东路枣庄路(787大桥三线终点站)"
  },
  {
    "poiid": "B2094757D06FAAF94299",
    "title": "潍坊六村",
    "lon": "121.526",
    "lat": "31.242",
    "category": "252",
    "category_name": "楼宇机构",
    "address": "崂山东路645弄"
  },
  {
    "poiid": "B2094757D064A1FE4698",
    "title": "崂山四村",
    "lon": "121.525",
    "lat": "31.2416",
    "category": "252",
    "category_name": "楼宇机构",
    "address": "上海南泉北路乳山路"
  },
  {
    "poiid": "B2094757D66DA1FE459B",
    "title": "闵浦新苑三村",
    "lon": "121.529292",
    "lat": "31.060967154",
    "category": "252",
    "category_name": "楼宇机构",
    "address": "上海市闵行区浦江镇鹤破南路169弄"
  },
  {
    "poiid": "B2094757D66DA0F44492",
    "title": "绿洲千岛别墅",
    "lon": "121.57981824",
    "lat": "31.050486313",
    "category": "252",
    "category_name": "楼宇机构",
    "address": "上海市浦东新区鹤立西路"
  },
  {
    "poiid": "B2094757D165AAFF469B",
    "title": "南郊中华园",
    "lon": "121.584413882",
    "lat": "31.0456200471",
    "category": "252",
    "category_name": "楼宇机构",
    "address": "上海浦东新区"
  },
  {
    "poiid": "B2094757D16FA6FB4692",
    "title": "南汇三灶光明小区",
    "lon": "121.720417258",
    "lat": "31.0720878025",
    "category": "252",
    "category_name": "楼宇机构",
    "address": "上海南六公路下盐公路"
  },
  {
    "poiid": "B2094654D565A1FD4299",
    "title": "上海市房地产交易中心《上海楼市》编辑部",
    "lon": "121.43327",
    "lat": "31.22976",
    "category": "252",
    "category_name": "楼宇机构",
    "address": ""
  },
  {
    "poiid": "B2094750DA69A3FA419C",
    "title": "鮮芋仙",
    "lon": "121.482955",
    "lat": "31.258655",
    "category": "252",
    "category_name": "楼宇机构",
    "address": "嘉杰廣場店"
  },
  {
    "poiid": "B2094757D16EA7F5409B",
    "title": "富同商务大厦",
    "lon": "121.55266373",
    "lat": "31.267519794",
    "category": "252",
    "category_name": "楼宇机构",
    "address": "上海杨树浦路2300号"
  },
  {
    "poiid": "B2094750D26BA2F4409A",
    "title": "环球金融大厦",
    "lon": "121.508422",
    "lat": "31.238952",
    "category": "252",
    "category_name": "楼宇机构",
    "address": "陆家嘴"
  },
  {
    "poiid": "B2094757D16BA0F54998",
    "title": "华都大厦八楼",
    "lon": "121.50835773",
    "lat": "31.239882505",
    "category": "252",
    "category_name": "楼宇机构",
    "address": "上海市浦东新区"
  },
  {
    "poiid": "B2094654DA6FA7FD439E",
    "title": "路透社上海记者站",
    "lon": "121.50415",
    "lat": "31.24097",
    "category": "252",
    "category_name": "楼宇机构",
    "address": "陆家嘴环路1233号汇亚大厦3004"
  },
  {
    "poiid": "B2094752D76EA6FB439F",
    "title": "陆家嘴 招商局大厦",
    "lon": "121.503587",
    "lat": "31.240332",
    "category": "252",
    "category_name": "楼宇机构",
    "address": "上海市浦东新区陆家嘴东路161号招商局大厦"
  },
  {
    "poiid": "B2094757D165A1F5469B",
    "title": "兴园大楼",
    "lon": "121.40365918",
    "lat": "31.162687711",
    "category": "252",
    "category_name": "楼宇机构",
    "address": "上海桂平路410号"
  },
  {
    "poiid": "B2094751D365A2FD4898",
    "title": "上海漕河径新兴技术开发区科技创业中心",
    "lon": "121.4019417",
    "lat": "31.1638837",
    "category": "252",
    "category_name": "楼宇机构",
    "address": "上海市桂平路410号"
  },
  {
    "poiid": "B2094757D16EA1FF4892",
    "title": "平南二村",
    "lon": "121.401",
    "lat": "31.159594",
    "category": "252",
    "category_name": "楼宇机构",
    "address": "万源路2388弄"
  },
  {
    "poiid": "B2094757D66CA2FC479E",
    "title": "聚科园区",
    "lon": "121.402260586",
    "lat": "31.1591940428",
    "category": "252",
    "category_name": "楼宇机构",
    "address": "上海徐汇区漕宝路桂平路"
  },
  {
    "poiid": "B2094757D069A7F54193",
    "title": "现代物流大厦",
    "lon": "121.409635",
    "lat": "31.177039",
    "category": "252",
    "category_name": "楼宇机构",
    "address": "上海虹漕路481号"
  },
  {
    "poiid": "B2094757D16FA4F9439E",
    "title": "金山一号",
    "lon": "121.392947035",
    "lat": "30.8232000041",
    "category": "252",
    "category_name": "楼宇机构",
    "address": "上海市金山区长埝路"
  },
  {
    "poiid": "B2094757D66EA2F9419C",
    "title": "国际创意产业园区",
    "lon": "121.44518",
    "lat": "31.178647",
    "category": "252",
    "category_name": "楼宇机构",
    "address": "上海天钥桥路909号"
  },
  {
    "poiid": "B2094757D165A6FC4693",
    "title": "漕东公寓",
    "lon": "121.445128",
    "lat": "31.180273",
    "category": "252",
    "category_name": "楼宇机构",
    "address": "上海漕东路30弄"
  },
  {
    "poiid": "B2094757D16AAAF9479F",
    "title": "祥康里",
    "lon": "121.4686",
    "lat": "31.232643",
    "category": "252",
    "category_name": "楼宇机构",
    "address": "上海市黄浦区新昌路"
  },
  {
    "poiid": "B2094757D069A0F44093",
    "title": "志园公寓",
    "lon": "121.46949",
    "lat": "31.257713",
    "category": "252",
    "category_name": "楼宇机构",
    "address": "上海市闸北区止园路299号"
  },
  {
    "poiid": "B2094757D068A7F54698",
    "title": "黎安二村",
    "lon": "121.384",
    "lat": "31.1387",
    "category": "252",
    "category_name": "楼宇机构",
    "address": "上海市闵行区黎安路443号"
  },
  {
    "poiid": "B2094654DA6CA2F44298",
    "title": "上海文广新闻传媒集团",
    "lon": "121.46484",
    "lat": "31.23036",
    "category": "252",
    "category_name": "楼宇机构",
    "address": "南京西路651号广电大厦"
  },
  {
    "poiid": "B2094654DA6CA2FF479E",
    "title": "尼泊尔驻上海领事馆签证处",
    "lon": "121.46184",
    "lat": "31.23266",
    "category": "252",
    "category_name": "楼宇机构",
    "address": "北京西路669号东展商业大厦16-A"
  },
  {
    "poiid": "B2094654DA6CA2F44299",
    "title": "上海广播电视国际新闻交流中心",
    "lon": "121.46485",
    "lat": "31.23036",
    "category": "252",
    "category_name": "楼宇机构",
    "address": "南京西路651号广电大厦"
  },
  {
    "poiid": "B2094757D16EABF84292",
    "title": "博爱大厦13层",
    "lon": "121.462242738",
    "lat": "31.231072318",
    "category": "252",
    "category_name": "楼宇机构",
    "address": "上海市静安区"
  },
  {
    "poiid": "B2094654DA6DA6FD4398",
    "title": "上海明圆文化艺术中心",
    "lon": "121.45884",
    "lat": "31.21253",
    "category": "252",
    "category_name": "楼宇机构",
    "address": "徐汇区复兴中路1199号明园商务中心1-5层"
  },
  {
    "poiid": "B2094757D16BA4F4439E",
    "title": "润欣公寓",
    "lon": "121.49649",
    "lat": "31.260841",
    "category": "252",
    "category_name": "楼宇机构",
    "address": "上海市虹口区天宝路49号"
  },
  {
    "poiid": "B2094757D16DA2FC4492",
    "title": "四达路220弄",
    "lon": "121.486756",
    "lat": "31.2678793",
    "category": "252",
    "category_name": "楼宇机构",
    "address": "上海虹口四达路220弄"
  },
  {
    "poiid": "B2094757D068A2F5459C",
    "title": "恒丰里",
    "lon": "121.485046",
    "lat": "31.265118",
    "category": "252",
    "category_name": "楼宇机构",
    "address": "上海山阴路69弄"
  },
  {
    "poiid": "B2094752D468ABFF4699",
    "title": "红房子妇产科医院杨浦院区",
    "lon": "121.488754",
    "lat": "31.269523",
    "category": "252",
    "category_name": "楼宇机构",
    "address": "上海市杨浦区沈阳路"
  },
  {
    "poiid": "B2094757D66DA2FC4098",
    "title": "欧阳路351弄",
    "lon": "121.4899321",
    "lat": "31.269704407",
    "category": "252",
    "category_name": "楼宇机构",
    "address": "上海欧阳路351弄"
  },
  {
    "poiid": "B2094757D168A2FB479B",
    "title": "万国大厦",
    "lon": "121.46920394",
    "lat": "31.233403787",
    "category": "252",
    "category_name": "楼宇机构",
    "address": "上海凤阳路358号万国大厦"
  },
  {
    "poiid": "B2094654DA6CA5F94599",
    "title": "上海捷讯传媒有限公司",
    "lon": "121.45066",
    "lat": "31.23936",
    "category": "252",
    "category_name": "楼宇机构",
    "address": "淮安路735号"
  },
  {
    "poiid": "B2094757D164A1FB499E",
    "title": "南新东苑",
    "lon": "121.58885233",
    "lat": "31.327624582",
    "category": "252",
    "category_name": "楼宇机构",
    "address": "上海行南路900弄"
  },
  {
    "poiid": "B2094757D16DA7FA469D",
    "title": "富特三村",
    "lon": "121.594",
    "lat": "31.3406",
    "category": "252",
    "category_name": "楼宇机构",
    "address": "上海秋霞路300弄"
  },
  {
    "poiid": "B2094654D46AA1FF419B",
    "title": "宝山区人民法院淞南人民法庭",
    "lon": "121.49127",
    "lat": "31.34358",
    "category": "252",
    "category_name": "楼宇机构",
    "address": "淞南路302"
  },
  {
    "poiid": "B2094757D064A7FD429E",
    "title": "春申四季苑",
    "lon": "121.39245",
    "lat": "31.102919",
    "category": "252",
    "category_name": "楼宇机构",
    "address": "上海都市路春申路"
  },
  {
    "poiid": "B2094757D06BA0F54692",
    "title": "贵都新村",
    "lon": "121.400224857",
    "lat": "31.0812989876",
    "category": "252",
    "category_name": "楼宇机构",
    "address": "上海闵行区都市路3635弄"
  },
  {
    "poiid": "B2094757D06FA6F8439A",
    "title": "泰山二村",
    "lon": "121.443912",
    "lat": "31.275656",
    "category": "252",
    "category_name": "楼宇机构",
    "address": "上海市普陀区华阴路"
  },
  {
    "poiid": "B2094757D66CABF4429B",
    "title": "豫园邮政所",
    "lon": "121.49347686",
    "lat": "31.225627899",
    "category": "252",
    "category_name": "楼宇机构",
    "address": "黄浦区方浜中路193号"
  },
  {
    "poiid": "B2094757D065AAFF4192",
    "title": "紫虹大厦",
    "lon": "121.409798",
    "lat": "31.205941",
    "category": "252",
    "category_name": "楼宇机构",
    "address": "上海中山西路800弄57号"
  },
  {
    "poiid": "B2094757D06AABFC4893",
    "title": "南陆大厦",
    "lon": "121.48441",
    "lat": "31.211267",
    "category": "252",
    "category_name": "楼宇机构",
    "address": "上海陆家浜路1300号"
  },
  {
    "poiid": "B2094757D065ABFD469F",
    "title": "联通中区",
    "lon": "121.48250473",
    "lat": "31.211164893",
    "category": "252",
    "category_name": "楼宇机构",
    "address": "上海市黄浦区万事利大厦"
  },
  {
    "poiid": "B2094757D16CA5FE409A",
    "title": "新陆大厦",
    "lon": "121.484377",
    "lat": "31.211275",
    "category": "252",
    "category_name": "楼宇机构",
    "address": "上海共和新路4727号"
  },
  {
    "poiid": "B2094757D16BA1FA499D",
    "title": "长白二村",
    "lon": "121.548677",
    "lat": "31.299976",
    "category": "252",
    "category_name": "楼宇机构",
    "address": "延吉东路靖宇东路"
  },
  {
    "poiid": "B2094752D16EAAFB4298",
    "title": "浦东出入境管理局",
    "lon": "121.512623",
    "lat": "31.199971",
    "category": "252",
    "category_name": "楼宇机构",
    "address": "民生路1500号"
  },
  {
    "poiid": "B2094654DA6CAAFC4192",
    "title": "上海星达广告传播有限公司",
    "lon": "121.43176",
    "lat": "31.19001",
    "category": "252",
    "category_name": "楼宇机构",
    "address": "南丹路191号诚品商务中心4层D座"
  },
  {
    "poiid": "B2094751D26EA5F84599",
    "title": "上海芭比舞蹈中心",
    "lon": "121.432197",
    "lat": "31.189984",
    "category": "252",
    "category_name": "楼宇机构",
    "address": "徐汇区南丹路191号诚品商务中心4楼C室(近宜山路)"
  },
  {
    "poiid": "B2094757D16EA0F54892",
    "title": "兆丰虹桥公寓",
    "lon": "121.430747",
    "lat": "31.19036",
    "category": "252",
    "category_name": "楼宇机构",
    "address": "兆丰虹桥公寓位于徐汇中山西路1790号"
  },
  {
    "poiid": "B2094757D065A2F44492",
    "title": "锦汇苑",
    "lon": "121.4339",
    "lat": "31.187771",
    "category": "252",
    "category_name": "楼宇机构",
    "address": "锦汇苑位于徐汇文定路80弄"
  },
  {
    "poiid": "B2094655D26DA2F9419D",
    "title": "芬兰驻沪总领事馆",
    "lon": "121.45577",
    "lat": "31.22875",
    "category": "252",
    "category_name": "楼宇机构",
    "address": "上海市南京西路1168号中信泰富广场25楼2501-2505室"
  },
  {
    "poiid": "B2094654DA6CA0FE499C",
    "title": "毕马威华振会计师事务所",
    "lon": "121.45423",
    "lat": "31.22813",
    "category": "252",
    "category_name": "楼宇机构",
    "address": "恒隆广场1号楼55层5501、5508-5512、47-52层"
  },
  {
    "poiid": "B2094757DA6BA5F5409C",
    "title": "徐家汇独栋花园办公楼",
    "lon": "121.449909",
    "lat": "31.200101",
    "category": "252",
    "category_name": "楼宇机构",
    "address": "杨浦区大学路33号"
  },
  {
    "poiid": "B2094757DA6BA4FE449C",
    "title": "银座印象",
    "lon": "121.369",
    "lat": "31.2628",
    "category": "252",
    "category_name": "楼宇机构",
    "address": "普陀区大渡河路588号"
  },
  {
    "poiid": "B2094757D16AAAF4449E",
    "title": "3131曹安商务园",
    "lon": "121.37074395",
    "lat": "31.2525797273",
    "category": "252",
    "category_name": "楼宇机构",
    "address": null
  },
  {
    "poiid": "B2094757D06BA0FF469E",
    "title": "浦发绿城2079弄",
    "lon": "121.80331899",
    "lat": "31.150236688",
    "category": "252",
    "category_name": "楼宇机构",
    "address": "上海市浦东新区浦三路永泰路"
  },
  {
    "poiid": "B2094757D168ABF54698",
    "title": "欣梅工业园",
    "lon": "121.44946",
    "lat": "31.097557",
    "category": "252",
    "category_name": "楼宇机构",
    "address": "上海市闵行区联曹路260号(近龙吴路)"
  },
  {
    "poiid": "B2094757D06BA1FE489F",
    "title": "真北新村一街坊",
    "lon": "121.397213776",
    "lat": "31.2582428086",
    "category": "252",
    "category_name": "楼宇机构",
    "address": "上海大渡河路2087弄"
  },
  {
    "poiid": "B2094757D068A3FD489F",
    "title": "颐宁苑",
    "lon": "121.40983",
    "lat": "31.246778",
    "category": "252",
    "category_name": "楼宇机构",
    "address": "上海市普陀区曹杨路1222弄"
  },
  {
    "poiid": "B2094757D06FA1F84493",
    "title": "品尊国际",
    "lon": "121.419493",
    "lat": "31.255982",
    "category": "252",
    "category_name": "楼宇机构",
    "address": "上海铜川路58弄"
  },
  {
    "poiid": "B2094751DA69A0FA4499",
    "title": "北外滩艺术园区",
    "lon": "121.489171",
    "lat": "31.249484",
    "category": "252",
    "category_name": "楼宇机构",
    "address": "溧阳路111号"
  },
  {
    "poiid": "B2094757DA6BABF44099",
    "title": "碧云90商业中心",
    "lon": "121.598265",
    "lat": "31.251295",
    "category": "252",
    "category_name": "楼宇机构",
    "address": "浦东浙桥路200号"
  },
  {
    "poiid": "B2094757D06AA1FB4199",
    "title": "黄浦区人民政府",
    "lon": "121.48615473",
    "lat": "31.232495348",
    "category": "252",
    "category_name": "楼宇机构",
    "address": "上海黄浦区广东路山东中路"
  },
  {
    "poiid": "B2094757D068A3F84999",
    "title": "李园二村",
    "lon": "121.25837740036",
    "lat": "31.395148864936",
    "category": "252",
    "category_name": "楼宇机构",
    "address": "博乐路252弄"
  },
  {
    "poiid": "B2094757DA6BABFF409B",
    "title": "总工会",
    "lon": "121.489917",
    "lat": "31.237133",
    "category": "252",
    "category_name": "楼宇机构",
    "address": "嘉定区阿克苏路1187号"
  },
  {
    "poiid": "B2094757DA64ABFF429D",
    "title": "天赐公寓",
    "lon": "121.49",
    "lat": "31.238",
    "category": "252",
    "category_name": "楼宇机构",
    "address": "上海市浦东新区张杨路500号"
  },
  {
    "poiid": "B209475DD769ABF5499A",
    "title": "上海东方滨江大酒店",
    "lon": "121.496299",
    "lat": "31.239501",
    "category": "252",
    "category_name": "楼宇机构",
    "address": "上海市 浦东新区滨江大道2727号"
  },
  {
    "poiid": "B2094654DB69A6FE4698",
    "title": "挪威驻上海总领事馆",
    "lon": "121.49013",
    "lat": "31.23594",
    "category": "252",
    "category_name": "楼宇机构",
    "address": "黄浦区中山东一路12号3楼"
  },
  {
    "poiid": "B2094757D169A4FD4598",
    "title": "外滩2号",
    "lon": "121.4902825",
    "lat": "31.2379243",
    "category": "252",
    "category_name": "楼宇机构",
    "address": "上海中山东一路2号"
  },
  {
    "poiid": "B2094757DA6EA4F5499C",
    "title": "外滩九号",
    "lon": "121.490354499999",
    "lat": "31.2354359000001",
    "category": "252",
    "category_name": "楼宇机构",
    "address": "黄浦区中山东一路9号"
  },
  {
    "poiid": "B2094757D069A1FF479E",
    "title": "宜川二村",
    "lon": "121.437716",
    "lat": "31.260315",
    "category": "252",
    "category_name": "楼宇机构",
    "address": "上海延长西路泾惠路"
  },
  {
    "poiid": "B2094654DB68A0F84893",
    "title": "朱行镇文化广播影视服务中心",
    "lon": "121.3426",
    "lat": "30.84734",
    "category": "252",
    "category_name": "楼宇机构",
    "address": "珠港街148"
  },
  {
    "poiid": "B2094757D16CA2FF499C",
    "title": "银杏新村",
    "lon": "121.27444",
    "lat": "31.234022",
    "category": "252",
    "category_name": "楼宇机构",
    "address": "上海纪翟路1625弄"
  },
  {
    "poiid": "B2094757D068A2FF419B",
    "title": "浦江世博家园十街坊",
    "lon": "121.51285149573",
    "lat": "31.08091972082",
    "category": "252",
    "category_name": "楼宇机构",
    "address": "上海浦申路200弄"
  },
  {
    "poiid": "B2094752D265A2F4489B",
    "title": "上海虹桥机场T2航站楼",
    "lon": "121.394469",
    "lat": "31.186937",
    "category": "252",
    "category_name": "楼宇机构",
    "address": null
  },
  {
    "poiid": "B2094757D068A2FA4898",
    "title": "城杰苑",
    "lon": "121.30789856",
    "lat": "31.244244944",
    "category": "252",
    "category_name": "楼宇机构",
    "address": "上海鹤霞路600弄"
  },
  {
    "poiid": "B2094757DA6EAAFC4899",
    "title": "海关联办楼",
    "lon": "121.585906100002",
    "lat": "31.3600806000001",
    "category": "252",
    "category_name": "楼宇机构",
    "address": "浦东新区杨高北一路90号"
  },
  {
    "poiid": "B2094757D06BA7F5449E",
    "title": "河滨城市花园",
    "lon": "121.65675",
    "lat": "31.263691",
    "category": "252",
    "category_name": "楼宇机构",
    "address": "上海市浦东新区顾唐路138弄"
  },
  {
    "poiid": "B2094750D26AA1F5459D",
    "title": "南馨佳苑",
    "lon": "121.590339",
    "lat": "31.080825",
    "category": "252",
    "category_name": "楼宇机构",
    "address": "鹤驰路88弄"
  },
  {
    "poiid": "B2094757D16FA7FF4893",
    "title": "金榜世家四期",
    "lon": "121.44",
    "lat": "31.0236",
    "category": "252",
    "category_name": "楼宇机构",
    "address": "上海市闵行区沧源路770弄"
  },
  {
    "poiid": "B2094750D66EA5FC4699",
    "title": "华东师范大学行政楼",
    "lon": "121.446281",
    "lat": "31.021865",
    "category": "252",
    "category_name": "楼宇机构",
    "address": null
  },
  {
    "poiid": "B2094757D065AAF9459C",
    "title": "武泰公寓",
    "lon": "121.45557",
    "lat": "31.236061",
    "category": "252",
    "category_name": "楼宇机构",
    "address": "武泰公寓位于静安泰兴路567号"
  },
  {
    "poiid": "B2094750D26CA3FC419A",
    "title": "创益家",
    "lon": "121.4578684981338",
    "lat": "31.23414667774911",
    "category": "252",
    "category_name": "楼宇机构",
    "address": "北京西路605弄王家沙花苑22号"
  },
  {
    "poiid": "B2094757D068A1FB479D",
    "title": "静安紫苑",
    "lon": "121.46",
    "lat": "31.2397",
    "category": "252",
    "category_name": "楼宇机构",
    "address": "静安区江宁路356弄5号(近新闸路)"
  },
  {
    "poiid": "B2094654DA6FA2FF429A",
    "title": "北站社区文化活动中心",
    "lon": "121.47686",
    "lat": "31.24664",
    "category": "252",
    "category_name": "楼宇机构",
    "address": "康乐路101号"
  },
  {
    "poiid": "B2094757D16FA3F5469B",
    "title": "建设大厦",
    "lon": "121.252174467",
    "lat": "31.0170242139",
    "category": "252",
    "category_name": "楼宇机构",
    "address": "上海市松江区荣乐东路"
  },
  {
    "poiid": "B2094757D168ABF54992",
    "title": "方东小区",
    "lon": "121.244516",
    "lat": "31.007208",
    "category": "252",
    "category_name": "楼宇机构",
    "address": "上海松江区中山东路"
  },
  {
    "poiid": "B2094757D069A7FA4199",
    "title": "斜土路阳光名苑",
    "lon": "121.449859619",
    "lat": "31.1941432953",
    "category": "252",
    "category_name": "楼宇机构",
    "address": "上海斜土路1975弄"
  },
  {
    "poiid": "B2094757D168A4F44299",
    "title": "云一小区",
    "lon": "121.513",
    "lat": "31.1783",
    "category": "252",
    "category_name": "楼宇机构",
    "address": "上海市浦东新区昌里路"
  },
  {
    "poiid": "B2094757D064A2F9489D",
    "title": "闵行大楼",
    "lon": "121.49109309",
    "lat": "31.243511223",
    "category": "252",
    "category_name": "楼宇机构",
    "address": "上海闵行路201号"
  },
  {
    "poiid": "B2094757DB69A1F94099",
    "title": "上海铁路局",
    "lon": "121.473663",
    "lat": "31.252436",
    "category": "252",
    "category_name": "楼宇机构",
    "address": "闸北区天目东路80号"
  },
  {
    "poiid": "B2094757D065A3F5499D",
    "title": "明和苑",
    "lon": "121.48788",
    "lat": "31.301453",
    "category": "252",
    "category_name": "楼宇机构",
    "address": "上海市杨浦区逸仙路599弄"
  },
  {
    "poiid": "B2094757D66EA4F5499E",
    "title": "智汇园82号楼",
    "lon": "121.40037965",
    "lat": "31.177964799",
    "category": "252",
    "category_name": "楼宇机构",
    "address": "上海钦州北路1198号"
  },
  {
    "poiid": "B2094757DA64A3FB439F",
    "title": "汇丰豪轩",
    "lon": "121.118039",
    "lat": "31.152473",
    "category": "252",
    "category_name": "楼宇机构",
    "address": "青浦区五厍浜路168弄"
  },
  {
    "poiid": "B2094757D16CA2F5439F",
    "title": "新亚大厦",
    "lon": "121.43121337",
    "lat": "31.222753524",
    "category": "252",
    "category_name": "楼宇机构",
    "address": "上海江苏北路89号"
  },
  {
    "poiid": "B2094757D56DABF4479C",
    "title": "古美现代企业中心",
    "lon": "121.37898472757",
    "lat": "31.136262689468",
    "category": "252",
    "category_name": "楼宇机构",
    "address": "平阳路1481号—1501号"
  },
  {
    "poiid": "B2094757D66DA2F8429B",
    "title": "古美社区学校",
    "lon": "121.381331257",
    "lat": "31.1358850808",
    "category": "252",
    "category_name": "楼宇机构",
    "address": "上海平阳路1512号"
  },
  {
    "poiid": "B2094757D06AAAFA489C",
    "title": "黎安三村",
    "lon": "121.3742",
    "lat": "31.131178",
    "category": "252",
    "category_name": "楼宇机构",
    "address": "上海市闵行区黎安路380弄"
  },
  {
    "poiid": "B2094757D16FA4FE449E",
    "title": "黎安四村",
    "lon": "121.37524",
    "lat": "31.129057",
    "category": "252",
    "category_name": "楼宇机构",
    "address": "水清路1100弄"
  },
  {
    "poiid": "B2094654D56EABFC449E",
    "title": "杨浦区社区教育实验中心",
    "lon": "121.52239",
    "lat": "31.27928",
    "category": "252",
    "category_name": "楼宇机构",
    "address": "凤城路101"
  },
  {
    "poiid": "B2094654D56FA5F8429A",
    "title": "控江社区职工援助分中心法律服务站",
    "lon": "121.52547",
    "lat": "31.28271",
    "category": "252",
    "category_name": "楼宇机构",
    "address": "靖宇南路99弄17"
  },
  {
    "poiid": "B2094757D06FAAFF419F",
    "title": "富林苑中区(富林四季)",
    "lon": "121.3597706",
    "lat": "31.1179871",
    "category": "252",
    "category_name": "楼宇机构",
    "address": "上海市闵行区疏影路999弄"
  },
  {
    "poiid": "B2094757D069A0FC439C",
    "title": "绿梅二村",
    "lon": "121.368906",
    "lat": "31.114986662",
    "category": "252",
    "category_name": "楼宇机构",
    "address": "上海闵行区莘凌路285弄"
  },
  {
    "poiid": "B2094757D064A1F94793",
    "title": "富林苑",
    "lon": "121.3662193",
    "lat": "31.1198661",
    "category": "252",
    "category_name": "楼宇机构",
    "address": "上海市闵行区中春路5839弄"
  },
  {
    "poiid": "B2094757D66CA1F8409B",
    "title": "五角场商业区",
    "lon": "121.461881103",
    "lat": "31.3116522844",
    "category": "252",
    "category_name": "楼宇机构",
    "address": "上海淞沪路"
  },
  {
    "poiid": "B2094655D26DA2F5489F",
    "title": "澳大利亚驻上海总领事馆签证处",
    "lon": "121.45154",
    "lat": "31.22659",
    "category": "252",
    "category_name": "楼宇机构",
    "address": "上海商城东办公楼401"
  },
  {
    "poiid": "B2094751D364A4FA479D",
    "title": "德康苑",
    "lon": "121.5087417",
    "lat": "31.118144",
    "category": "252",
    "category_name": "楼宇机构",
    "address": "浦东新区和炯路501弄"
  },
  {
    "poiid": "B2094752D16AABFE4293",
    "title": "漕河泾浦江科技广场",
    "lon": "121.502335",
    "lat": "31.100123",
    "category": "252",
    "category_name": "楼宇机构",
    "address": "陈行路2388号"
  },
  {
    "poiid": "B2094757D068A6F9439D",
    "title": "金山区人民政府",
    "lon": "121.35082244",
    "lat": "30.738594055",
    "category": "252",
    "category_name": "楼宇机构",
    "address": "上海金山区金山大道2000号"
  },
  {
    "poiid": "B2094654DB69A2FA479D",
    "title": "上海职业介绍金山分中心",
    "lon": "121.33729",
    "lat": "30.72328",
    "category": "252",
    "category_name": "楼宇机构",
    "address": "卫零路365"
  },
  {
    "poiid": "B2094757D164A0F84192",
    "title": "金杨新村11街坊",
    "lon": "121.586490475",
    "lat": "31.2471965578",
    "category": "252",
    "category_name": "楼宇机构",
    "address": "上海杨高中路750弄"
  },
  {
    "poiid": "B2094757D069A5FD4698",
    "title": "广德苑",
    "lon": "121.36808",
    "lat": "31.246727",
    "category": "252",
    "category_name": "楼宇机构",
    "address": "上海市普陀区延川路299号"
  },
  {
    "poiid": "B2094757D06AA3F5449A",
    "title": "祁连二村",
    "lon": "121.384",
    "lat": "31.3208",
    "category": "252",
    "category_name": "楼宇机构",
    "address": "祁连山路60弄"
  },
  {
    "poiid": "B2094757D065A2FD4698",
    "title": "祁连四村",
    "lon": "121.38197",
    "lat": "31.317041",
    "category": "252",
    "category_name": "楼宇机构",
    "address": "上海祁连山路2777弄"
  },
  {
    "poiid": "B2094750D26BA4F54092",
    "title": "滨浦二村",
    "lon": "121.506324",
    "lat": "31.065662",
    "category": "252",
    "category_name": "楼宇机构",
    "address": "江汉路99弄"
  },
  {
    "poiid": "B2094757D06BA4FD479C",
    "title": "金汇豪庭",
    "lon": "121.37957",
    "lat": "31.154713",
    "category": "252",
    "category_name": "楼宇机构",
    "address": "上海市闵行区龙茗路2121弄"
  },
  {
    "poiid": "B2094757D168A3FB429A",
    "title": "九星苑",
    "lon": "121.3811",
    "lat": "31.150282",
    "category": "252",
    "category_name": "楼宇机构",
    "address": "上海市闵行区星东路"
  },
  {
    "poiid": "B2094757D06BA1FB499C",
    "title": "沁春二村",
    "lon": "121.377639",
    "lat": "31.095369",
    "category": "252",
    "category_name": "楼宇机构",
    "address": "上海莘西南路155弄"
  },
  {
    "poiid": "B2094757D06AA5FC4192",
    "title": "华高二村",
    "lon": "121.617243587",
    "lat": "31.2814044326",
    "category": "252",
    "category_name": "楼宇机构",
    "address": "上海巨峰路997弄"
  },
  {
    "poiid": "B2094757D065A4F54099",
    "title": "民胜苑",
    "lon": "121.66054879769",
    "lat": "31.27680370356",
    "category": "252",
    "category_name": "楼宇机构",
    "address": "民同路290弄"
  },
  {
    "poiid": "B2094757D66FA2F8439B",
    "title": "共和五村",
    "lon": "121.4641751",
    "lat": "31.324313549",
    "category": "252",
    "category_name": "楼宇机构",
    "address": "上海共康东路共和五村"
  },
  {
    "poiid": "B2094757D16AA0F9469A",
    "title": "新九龙城",
    "lon": "121.501654738",
    "lat": "31.2371814482",
    "category": "252",
    "category_name": "楼宇机构",
    "address": "上海96广场"
  },
  {
    "poiid": "B2094757D164A4FA479F",
    "title": "宝钢六村",
    "lon": "121.487",
    "lat": "31.41",
    "category": "252",
    "category_name": "楼宇机构",
    "address": "上海牡丹江路友谊路"
  },
  {
    "poiid": "B2094757D16BA5F9439C",
    "title": "李园二村西片",
    "lon": "121.255624253",
    "lat": "31.4019848416",
    "category": "252",
    "category_name": "楼宇机构",
    "address": "上海李园二村西片"
  },
  {
    "poiid": "B2094750D26AA3FA459B",
    "title": "北水湾大厦",
    "lon": "121.248641",
    "lat": "31.398479",
    "category": "252",
    "category_name": "楼宇机构",
    "address": "嘉定区平城路811号"
  },
  {
    "poiid": "B2094757DA64A6FE459D",
    "title": "长泰国际广场",
    "lon": "121.608715",
    "lat": "31.206265",
    "category": "252",
    "category_name": "楼宇机构",
    "address": "浦东新区祖冲之路金科路"
  },
  {
    "poiid": "B2094654DA6AA5FD429B",
    "title": "张江园区人才公寓租赁服务中心",
    "lon": "121.61213",
    "lat": "31.20755",
    "category": "252",
    "category_name": "楼宇机构",
    "address": "祖冲之路1559"
  },
  {
    "poiid": "B2094750D26BA2F54199",
    "title": "亮景路",
    "lon": "121.605827",
    "lat": "31.203313",
    "category": "252",
    "category_name": "楼宇机构",
    "address": null
  },
  {
    "poiid": "B2094757D064A4FC4798",
    "title": "裕景国际东楼",
    "lon": "121.520285",
    "lat": "31.240932",
    "category": "252",
    "category_name": "楼宇机构",
    "address": "上海浦东大道555号"
  },
  {
    "poiid": "B2094757D16DA1F84498",
    "title": "武康路280弄",
    "lon": "121.437438",
    "lat": "31.206797",
    "category": "252",
    "category_name": "楼宇机构",
    "address": "上海武康路280弄"
  },
  {
    "poiid": "B2094757D065A1F4449C",
    "title": "福苑大厦",
    "lon": "121.438",
    "lat": "31.2105",
    "category": "252",
    "category_name": "楼宇机构",
    "address": "浦东区崂山东路410号"
  },
  {
    "poiid": "B2094655D26FA5FE459E",
    "title": "博雅珊艺术中心",
    "lon": "121.43832",
    "lat": "31.21082",
    "category": "252",
    "category_name": "楼宇机构",
    "address": "徐汇区复兴西路299弄3号楼(近华山路)"
  },
  {
    "poiid": "B2094757D16EA2FA4998",
    "title": "尊萃508公馆",
    "lon": "121.43772",
    "lat": "31.21125",
    "category": "252",
    "category_name": "楼宇机构",
    "address": "上海卢湾区华山路1749号  "
  },
  {
    "poiid": "B2094654D564A5F4419F",
    "title": "上海东方宣传教育服务中心",
    "lon": "121.43915",
    "lat": "31.20515",
    "category": "252",
    "category_name": "楼宇机构",
    "address": "淮海中路1800号2层"
  },
  {
    "poiid": "B2094757D16AAAF9439E",
    "title": "茂龄别墅11号",
    "lon": "121.441263186",
    "lat": "31.2062050612",
    "category": "252",
    "category_name": "楼宇机构",
    "address": "上海建国西路619弄"
  },
  {
    "poiid": "B2094752D36EA2FA4298",
    "title": "中国平安陆家嘴金融大厦",
    "lon": "121.498453",
    "lat": "31.241606",
    "category": "252",
    "category_name": "楼宇机构",
    "address": "陆家嘴环路1333号"
  },
  {
    "poiid": "B2094655D26BA7F54599",
    "title": "东方明珠新闻中心",
    "lon": "121.50084",
    "lat": "31.23941",
    "category": "252",
    "category_name": "楼宇机构",
    "address": ""
  },
  {
    "poiid": "B2094757D16CA6FC499B",
    "title": "园景苑",
    "lon": "121.48133",
    "lat": "31.210024",
    "category": "252",
    "category_name": "楼宇机构",
    "address": "上海市卢湾区徐家汇路1弄"
  },
  {
    "poiid": "B2094757D168ABFB409B",
    "title": "望佳二村",
    "lon": "121.52932",
    "lat": "31.01918",
    "category": "252",
    "category_name": "楼宇机构",
    "address": "上海闸航路2825弄"
  },
  {
    "poiid": "B2094757D068A5F8449B",
    "title": "远景佳苑2期",
    "lon": "121.41934518",
    "lat": "31.280725929",
    "category": "252",
    "category_name": "楼宇机构",
    "address": "上海行知路381弄"
  },
  {
    "poiid": "B2094757D16EA3FB439C",
    "title": "解放日报大厦",
    "lon": "121.399031857",
    "lat": "31.1016403948",
    "category": "252",
    "category_name": "楼宇机构",
    "address": "上海都市路4588号"
  },
  {
    "poiid": "B2094757D165A1FD449B",
    "title": "华山花园",
    "lon": "121.42752395",
    "lat": "31.119768657",
    "category": "252",
    "category_name": "楼宇机构",
    "address": "上海华山医院内"
  },
  {
    "poiid": "B2094757D16CA5FE499A",
    "title": "莲花新村",
    "lon": "121.422",
    "lat": "31.1181",
    "category": "252",
    "category_name": "楼宇机构",
    "address": "莲花新村位于徐汇春申路2458弄"
  },
  {
    "poiid": "B2094751DA6EA1F5439E",
    "title": "恒生大厦",
    "lon": "121.510966681",
    "lat": "31.2386820402",
    "category": "252",
    "category_name": "楼宇机构",
    "address": "上海市浦东新区陆家嘴环路1000号"
  },
  {
    "poiid": "B2094757D66EA1FF489D",
    "title": "殷行路296弄",
    "lon": "121.521814103",
    "lat": "31.2569491407",
    "category": "252",
    "category_name": "楼宇机构",
    "address": "上海殷行路296弄"
  },
  {
    "poiid": "B2094757D065AAFC439A",
    "title": "兴业大厦",
    "lon": "121.455293",
    "lat": "31.230702",
    "category": "252",
    "category_name": "楼宇机构",
    "address": "北京西路1028号,江宁路168号"
  },
  {
    "poiid": "B2094757D16EABF9499A",
    "title": "香山新村",
    "lon": "121.57532369025",
    "lat": "31.248709855441",
    "category": "252",
    "category_name": "楼宇机构",
    "address": "上海德平路1125弄"
  },
  {
    "poiid": "B2094757D16FA3FD4799",
    "title": "康庭苑",
    "lon": "121.61406",
    "lat": "31.142563",
    "category": "252",
    "category_name": "楼宇机构",
    "address": "上海市南汇区川周公路2928弄"
  },
  {
    "poiid": "B2094757D064A3F9499E",
    "title": "剑河路2001弄小区",
    "lon": "121.371079",
    "lat": "31.194754",
    "category": "252",
    "category_name": "楼宇机构",
    "address": "上海剑河路2001弄"
  },
  {
    "poiid": "B2094757D064A0FF4098",
    "title": "鑫苑国际城市花园",
    "lon": "121.14067411",
    "lat": "31.281735582",
    "category": "252",
    "category_name": "楼宇机构",
    "address": "太仓市滨河路1号"
  },
  {
    "poiid": "B2094757DA6BA7F4439A",
    "title": "启航城",
    "lon": "121.14287983347",
    "lat": "31.261837437623",
    "category": "252",
    "category_name": "楼宇机构",
    "address": "上海市长宁区延安西路2077号"
  },
  {
    "poiid": "B2094757D069ABFC489D",
    "title": "夏朵小城(三期)",
    "lon": "121.397407128",
    "lat": "31.0257307141",
    "category": "252",
    "category_name": "楼宇机构",
    "address": "上海银春路1799弄"
  },
  {
    "poiid": "B2094757D064A6F4429D",
    "title": "合生城邦 四街坊",
    "lon": "121.40320077",
    "lat": "31.036318744",
    "category": "252",
    "category_name": "楼宇机构",
    "address": "上海金平路788弄"
  },
  {
    "poiid": "B2094757D16CAAFC499C",
    "title": "翠湖天地嘉苑The Manor(三期)",
    "lon": "121.47566373",
    "lat": "31.218604052",
    "category": "252",
    "category_name": "楼宇机构",
    "address": "上海卢湾黄陂南路506弄"
  },
  {
    "poiid": "B2094757D06FAAFE459A",
    "title": "延吉四村",
    "lon": "121.53846",
    "lat": "31.293301",
    "category": "252",
    "category_name": "楼宇机构",
    "address": "上海敦化路松花江路"
  },
  {
    "poiid": "B2094757D06FA0F4429F",
    "title": "延吉五村",
    "lon": "121.5398493",
    "lat": "31.2897694",
    "category": "252",
    "category_name": "楼宇机构",
    "address": "上海敦化路延吉五六村"
  }
]