[
{
    "poiid": "B2094655D26DA2FC429E",
    "title": "DOHO",
    "lon": "121.40579871717932",
    "lat": "31.220632293765263",
    "category": "45",
    "category_name": "产业园区",
    "address": "上海市长宁区万航渡路2452号"
  },{
    "poiid": "B2094750DB6AA2FD499F",
    "title": "上海M50创意园区",
    "lon": "121.448632",
    "lat": "31.247654",
    "category": "45",
    "category_name": "产业园区",
    "address": "普陀区莫干山路50号"
  },{
    "poiid": "B2094654DB6BA5F4439B",
    "title": "X2创意空间",
    "lon": "121.46488",
    "lat": "31.1983",
    "category": "45",
    "category_name": "产业园区",
    "address": "西湖区古墩路沿线"
  },{
    "poiid": "B2094655D26CA5F9489D",
    "title": "上海滨江创意产业园(北门)",
    "lon": "121.54779",
    "lat": "31.26471",
    "category": "45",
    "category_name": "产业园区",
    "address": "杨树浦路2218"
  },{
    "poiid": "B2094655D26CA5FD439F",
    "title": "上海滨江创意产业园",
    "lon": "121.54797",
    "lat": "31.26447",
    "category": "45",
    "category_name": "产业园区",
    "address": "杨树浦路2218"
  },{
    "poiid": "B2094654DA6AAAF9449B",
    "title": "上海畅成滨江工业区",
    "lon": "121.75141",
    "lat": "31.2359",
    "category": "45",
    "category_name": "产业园区",
    "address": ""
  },{
    "poiid": "B2094654DA6DA7FE4292",
    "title": "2577创意大院",
    "lon": "121.45108",
    "lat": "31.17846",
    "category": "45",
    "category_name": "产业园区",
    "address": "徐汇区龙华路2577号(近龙华寺)"
  },{
    "poiid": "B2094655D26DA1FC409F",
    "title": "湖丝栈创意产业园",
    "lon": "121.42192",
    "lat": "31.22534",
    "category": "45",
    "category_name": "产业园区",
    "address": "万航渡路1384弄12"
  },{
    "poiid": "B2094757DA69A1FC4098",
    "title": "皇家加勒比国际游轮",
    "lon": "121.49591",
    "lat": "31.24677",
    "category": "254",
    "category_name": "售票处",
    "address": "东大名路358号国际港务大厦"
  },{
    "poiid": "B2094655D26AA7F5419A",
    "title": "中信游船",
    "lon": "121.50117",
    "lat": "31.22559",
    "category": "219",
    "category_name": "其他",
    "address": "黄浦区外马路19号(近东门路)"
  },{
    "poiid": "B2094757DA69A3F44698",
    "title": "歌诗达邮轮",
    "lon": "121.47661783258",
    "lat": "31.220618610093",
    "category": "219",
    "category_name": "其他",
    "address": "湖滨路222号企业天地1号楼"
  },{
    "poiid": "B2094750D36BA5F4469D",
    "title": "三甲港海滨乐场",
    "lon": "121.76526643813",
    "lat": "31.209387666855",
    "category": "219",
    "category_name": "其他",
    "address": "华夏东路东首三甲港海滨广场"
  },{
    "poiid": "B2094757D165ABF84193",
    "title": "飞利浦游船",
    "lon": "121.511839103",
    "lat": "31.2496129875",
    "category": "219",
    "category_name": "其他",
    "address": "上海秦皇岛世博水门"
  },{
    "poiid": "B2094757DA6EA4F8459F",
    "title": "世博场馆沙特阿拉伯馆",
    "lon": "121.4958",
    "lat": "31.188443",
    "category": "252",
    "category_name": "楼宇机构",
    "address": "浦东新区博成路1221号(近高科西路口)"
  },{
    "poiid": "B2094750D56DAAFD4593",
    "title": "浅水湾艺术创意中心",
    "lon": "121.439895",
    "lat": "31.248973",
    "category": "252",
    "category_name": "楼宇机构",
    "address": "宜昌路179号"
  },{
    "poiid": "B2094751D364ABFD449D",
    "title": "陆家嘴金融中心",
    "lon": "121.434967",
    "lat": "31.273193",
    "category": "252",
    "category_name": "楼宇机构",
    "address": "浦东大道"
  },{
    "poiid": "B2094757DA64A0FF419E",
    "title": "松江万达广场",
    "lon": "121.2428",
    "lat": "31.058927",
    "category": "252",
    "category_name": "楼宇机构",
    "address": "松江新城茸梅环路广富林路"
  },{
    "poiid": "B2094757D064A7FC489E",
    "title": "外滩22号",
    "lon": "121.49161573",
    "lat": "31.233858377",
    "category": "252",
    "category_name": "楼宇机构",
    "address": "上海市黄浦区江西中路"
  },{
    "poiid": "B2094750D56DA5FC449F",
    "title": "108创意广场银座",
    "lon": "121.466857",
    "lat": "31.267145",
    "category": "252",
    "category_name": "楼宇机构",
    "address": "闸北区平型关路138号"
  },{
    "poiid": "B2094750D469A6F54692",
    "title": "上海浦东新国际展览中心",
    "lon": "121.568428",
    "lat": "31.207855",
    "category": "252",
    "category_name": "楼宇机构",
    "address": "E2馆"
  },{
    "poiid": "B2094753D26CABFB4398",
    "title": "金茂大厦",
    "lon": "121.485226",
    "lat": "31.224728",
    "category": "252",
    "category_name": "楼宇机构",
    "address": "上海市 上海"
  },{
    "poiid": "B2094757DA64AAFC459E",
    "title": "大拇指广场",
    "lon": "121.558871",
    "lat": "31.226858",
    "category": "252",
    "category_name": "楼宇机构",
    "address": "芳甸路199弄19号"
  },{
    "poiid": "B2094757DA6BABFA4092",
    "title": "半岛1919",
    "lon": "121.48761",
    "lat": "31.367507",
    "category": "252",
    "category_name": "楼宇机构",
    "address": "徐汇钦州北路188号"
  },{
    "poiid": "B2094757DA6BABFF489F",
    "title": "LOMO玩库",
    "lon": "121.250353",
    "lat": "31.009835",
    "category": "252",
    "category_name": "楼宇机构",
    "address": "松江区环城路555号"
  },{
    "poiid": "B2094757DA6BAAFA4099",
    "title": "奉贤绿地翡翠国际广场",
    "lon": "121.47068",
    "lat": "30.918168",
    "category": "252",
    "category_name": "楼宇机构",
    "address": "上海市奉贤区南桥镇南桥新城"
  },{
    "poiid": "B2094750D268A5F9459D",
    "title": "徐汇老房子艺术中心",
    "lon": "121.438842",
    "lat": "31.207448",
    "category": "252",
    "category_name": "楼宇机构",
    "address": "武康路393号"
  },{
    "poiid": "B2094753DB6BA7FC489D",
    "title": "金茂大厦",
    "lon": "121.543998",
    "lat": "31.227897",
    "category": "252",
    "category_name": "楼宇机构",
    "address": "上海市 陆家嘴环路888号"
  },{
    "poiid": "B2094751D565A2F9469F",
    "title": "基督教教堂",
    "lon": "121.463436",
    "lat": "31.236814",
    "category": "252",
    "category_name": "楼宇机构",
    "address": "黄浦区"
  },{
    "poiid": "B2094757DA64A1F5469C",
    "title": "尚都里休闲广场",
    "lon": "121.056386",
    "lat": "31.11028",
    "category": "252",
    "category_name": "楼宇机构",
    "address": "青浦新风路240弄"
  },{
    "poiid": "B2094757DA64A0FE4792",
    "title": "顺恒国际商业广场",
    "lon": "121.33466",
    "lat": "31.162578",
    "category": "252",
    "category_name": "楼宇机构",
    "address": "沪星路299弄东（近七莘路吴中路）"
  },{
    "poiid": "B2094757DA64A3FE489D",
    "title": "恒达休闲广场",
    "lon": "121.349509",
    "lat": "31.282448",
    "category": "252",
    "category_name": "楼宇机构",
    "address": "普陀白丽路237-257(单)号"
  },{
    "poiid": "B2094752D76FA0FF499E",
    "title": "东方明珠",
    "lon": "121.408345",
    "lat": "31.263323",
    "category": "252",
    "category_name": "楼宇机构",
    "address": null
  },{
    "poiid": "B2094752D265A5F54493",
    "title": "正大广场正大厅",
    "lon": "121.501697",
    "lat": "31.234907",
    "category": "252",
    "category_name": "楼宇机构",
    "address": null
  },{
    "poiid": "B2094654DA6DA6FD4398",
    "title": "上海明圆文化艺术中心",
    "lon": "121.45884",
    "lat": "31.21253",
    "category": "252",
    "category_name": "楼宇机构",
    "address": "徐汇区复兴中路1199号明园商务中心1-5层"
  },{
    "poiid": "B2094751DA69A0FA4499",
    "title": "北外滩艺术园区",
    "lon": "121.489171",
    "lat": "31.249484",
    "category": "252",
    "category_name": "楼宇机构",
    "address": "溧阳路111号"
  },{
    "poiid": "B2094757D169A4FD4598",
    "title": "外滩2号",
    "lon": "121.4902825",
    "lat": "31.2379243",
    "category": "252",
    "category_name": "楼宇机构",
    "address": "上海中山东一路2号"
  },{
    "poiid": "B2094757DA6EA4F5499C",
    "title": "外滩九号",
    "lon": "121.490354499999",
    "lat": "31.2354359000001",
    "category": "252",
    "category_name": "楼宇机构",
    "address": "黄浦区中山东一路9号"
  },{
    "poiid": "B2094655D26FA5FE459E",
    "title": "博雅珊艺术中心",
    "lon": "121.43832",
    "lat": "31.21082",
    "category": "252",
    "category_name": "楼宇机构",
    "address": "徐汇区复兴西路299弄3号楼(近华山路)"
  },{
    "poiid": "B2094757D06FA2FA4193",
    "title": "源深体育馆",
    "lon": "121.536191683",
    "lat": "31.2310137082",
    "category": "220",
    "category_name": "运动场所",
    "address": "上海浦东源深路200号"
  },{
    "poiid": "B2094752D565A1FB4993",
    "title": "虹口足球场",
    "lon": "121.473479",
    "lat": "31.261634",
    "category": "220",
    "category_name": "运动场所",
    "address": null
  },{
    "poiid": "B2094752DB6AA3F5419A",
    "title": "虹口足球场",
    "lon": "121.474982",
    "lat": "31.265231",
    "category": "220",
    "category_name": "运动场所",
    "address": "上海市 虹口足球场"
  },{
    "poiid": "B2094757D069A0FB499E",
    "title": "F1赛车场",
    "lon": "121.22218328",
    "lat": "31.334469835",
    "category": "220",
    "category_name": "运动场所",
    "address": "上海F1"
  },{
    "poiid": "B2094757D06FA0F5489C",
    "title": "东方体育中心体育馆",
    "lon": "121.48134347",
    "lat": "31.156468556",
    "category": "220",
    "category_name": "运动场所",
    "address": "上海浦东新区泳耀路东育路"
  },{
    "poiid": "B2094757D06FAAFB479E",
    "title": "东方体育中心室外跳水池(月亮湾)",
    "lon": "121.47687046",
    "lat": "31.155626569",
    "category": "220",
    "category_name": "运动场所",
    "address": "上海浦东新区泳耀路50号东方体育中心内"
  },{
    "poiid": "B2094757D06EAAF8469A",
    "title": "上海东方体育中心",
    "lon": "121.544721",
    "lat": "31.221959",
    "category": "220",
    "category_name": "运动场所",
    "address": "上海浦东新区耀体路701号"
  },{
    "poiid": "B2094753D66FA4FE4899",
    "title": "虹口足球场",
    "lon": "121.466725",
    "lat": "31.244699",
    "category": "220",
    "category_name": "运动场所",
    "address": "上海市 1111"
  },{
    "poiid": "B2094750D16BA1FD409D",
    "title": "虹口足球场",
    "lon": "121.5032644966952",
    "lat": "31.20336783101407",
    "category": "220",
    "category_name": "运动场所",
    "address": null
  },{
    "poiid": "B2094757D06FAAFC4599",
    "title": "水上运动中心",
    "lon": "121.01121521",
    "lat": "31.100889205",
    "category": "220",
    "category_name": "运动场所",
    "address": "上海东方绿舟旁"
  },{
    "poiid": "B2094655D264A6F4469D",
    "title": "上海水上运动场",
    "lon": "121.01228",
    "lat": "31.11145",
    "category": "220",
    "category_name": "运动场所",
    "address": "青浦区东方绿洲"
  },{
    "poiid": "B2094757D06FAAFC4992",
    "title": "耐克足球公园",
    "lon": "121.44049737",
    "lat": "31.183140289",
    "category": "220",
    "category_name": "运动场所",
    "address": "徐汇区零陵路800号万体馆6号门(近上海游泳馆)"
  },{
    "poiid": "B2094757D069A6FA489B",
    "title": "上海国际赛车场主看台",
    "lon": "121.34329565",
    "lat": "31.22072098",
    "category": "220",
    "category_name": "运动场所",
    "address": "嘉定区伊宁路2000号上海国际赛车场内(近嘉定汽车城)"
  },{
    "poiid": "B2094752DB6AA3F4439C",
    "title": "虹口足球场",
    "lon": "121.52218",
    "lat": "31.240464",
    "category": "220",
    "category_name": "运动场所",
    "address": "上海市 东江弯路444号"
  },{
    "poiid": "B209475CD66DAAF4419C",
    "title": "虹口足球场",
    "lon": "121.49884",
    "lat": "31.176818",
    "category": "220",
    "category_name": "运动场所",
    "address": "上海市 上海市虹口区"
  },{
    "poiid": "B2094757D16AA6F44099",
    "title": "青青马术俱乐部",
    "lon": "121.25145585",
    "lat": "31.075413879",
    "category": "220",
    "category_name": "运动场所",
    "address": "松江区辰花公路388号青青旅游世界内"
  },{
    "poiid": "B2094757D06EAAFF4793",
    "title": "上海国际体操中心",
    "lon": "121.41346669",
    "lat": "31.213709584",
    "category": "220",
    "category_name": "运动场所",
    "address": "长宁区武夷路777号国际体操中心游泳馆内(近中山西路)"
  },{
    "poiid": "B2094757D06FA7F4409C",
    "title": "上海国际体操中心羽毛球馆",
    "lon": "121.41341304",
    "lat": "31.213108572",
    "category": "220",
    "category_name": "运动场所",
    "address": "上海长宁区武夷路777号(近中山西路)"
  },{
    "poiid": "B2094655D268A6FB439C",
    "title": "徐家汇公园运动场",
    "lon": "121.44355",
    "lat": "31.1984",
    "category": "220",
    "category_name": "运动场所",
    "address": ""
  },{
    "poiid": "B2094757D06FABF5459E",
    "title": "徐家汇公园篮球场",
    "lon": "121.44290315",
    "lat": "31.196756486",
    "category": "220",
    "category_name": "运动场所",
    "address": "徐汇区肇嘉浜路889号(天平路宛平路间)"
  },{
    "poiid": "B2094757D06AA4FF4492",
    "title": "林克司高尔夫乡村俱乐部",
    "lon": "121.75157",
    "lat": "31.23538",
    "category": "220",
    "category_name": "运动场所",
    "address": "中国上海市浦东新区凌白路1600号"
  },  {
    "poiid": "B2094750D365AAF54892",
    "title": "虹口足球场",
    "lon": "121.4423087",
    "lat": "31.336529",
    "category": "220",
    "category_name": "运动场所",
    "address": null
  },{
    "poiid": "B2094654DA6DA4FA419B",
    "title": "世博林绿地公共运动场",
    "lon": "121.47682",
    "lat": "31.19649",
    "category": "220",
    "category_name": "运动场所",
    "address": ""
  },{
    "poiid": "B2094752DB6AA3F5449F",
    "title": "虹口足球场",
    "lon": "121.470553",
    "lat": "31.270704",
    "category": "220",
    "category_name": "运动场所",
    "address": "上海市 虹口足球场"
  },{
    "poiid": "B2094750DA6EABFA459E",
    "title": "虹口足球场",
    "lon": "121.539253",
    "lat": "31.263071",
    "category": "220",
    "category_name": "运动场所",
    "address": null
  },{
    "poiid": "B2094750D464A5F5469B",
    "title": "虹口足球场",
    "lon": "121.396278",
    "lat": "31.245443",
    "category": "220",
    "category_name": "运动场所",
    "address": null
  },{
    "poiid": "B2094757DA69A1FD4293",
    "title": "上海世纪公园球场",
    "lon": "121.55975029653",
    "lat": "31.216317502733",
    "category": "220",
    "category_name": "运动场所",
    "address": "芳甸路858号"
  },{
    "poiid": "B2094753D26EA2FA409C",
    "title": "虹口足球场",
    "lon": "121.484102",
    "lat": "31.265335",
    "category": "220",
    "category_name": "运动场所",
    "address": "上海市 东江湾路100号"
  },{
    "poiid": "B2094750DA68A4FE489C",
    "title": "虹口足球场",
    "lon": "121.535",
    "lat": "31.33147",
    "category": "220",
    "category_name": "运动场所",
    "address": null
  },{
    "poiid": "B2094753D26EA1FC409A",
    "title": "虹口足球场",
    "lon": "121.474482",
    "lat": "31.229645",
    "category": "220",
    "category_name": "运动场所",
    "address": "上海市 东江湾路444号"
  },{
    "poiid": "B209475CD76AA7FD489E",
    "title": "虹口足球场",
    "lon": "121.49224",
    "lat": "31.256166",
    "category": "220",
    "category_name": "运动场所",
    "address": "上海市 东体育会路"
  },{
    "poiid": "B2094750D66AA4FF429E",
    "title": "虹口足球场",
    "lon": "121.429321",
    "lat": "31.245471",
    "category": "220",
    "category_name": "运动场所",
    "address": null
  },{
    "poiid": "B209475DD76FAAF54799",
    "title": "k11",
    "lon": "121.498527",
    "lat": "31.185899",
    "category": "627",
    "category_name": "一般地点标志",
    "address": "上海市 上海"
  },{
    "poiid": "B209475DDA6EABFE4093",
    "title": "上海国际赛车场",
    "lon": "121.454513",
    "lat": "31.232475",
    "category": "627",
    "category_name": "一般地点标志",
    "address": "上海市 上海嘉定区"
  },{
    "poiid": "B209475DD568A5F84093",
    "title": "外滩十八号",
    "lon": "121.521324",
    "lat": "31.309238",
    "category": "627",
    "category_name": "一般地点标志",
    "address": "上海市 上海市外滩观景大道"
  },{
    "poiid": "B209475DD569A0FF479E",
    "title": "上海市南京路步行街",
    "lon": "121.456871",
    "lat": "31.252502",
    "category": "627",
    "category_name": "一般地点标志",
    "address": "上海市 上海"
  },{
    "poiid": "B2094750D26BAAFD459D",
    "title": "上海老相机制造博物馆",
    "lon": "121.474777",
    "lat": "31.207374",
    "category": "627",
    "category_name": "一般地点标志",
    "address": null
  },{
    "poiid": "B209475DD76FA4FC4299",
    "title": "上海外滩",
    "lon": "121.489639",
    "lat": "31.200765",
    "category": "627",
    "category_name": "一般地点标志",
    "address": "上海市 外滩"
  },{
    "poiid": "B2094454D06DA6FA499E",
    "title": "梅赛德斯-奔驰文化中心",
    "lon": "121.48645",
    "lat": "31.203289",
    "category": "627",
    "category_name": "一般地点标志",
    "address": "上海市 上海浦东世博大道1200号"
  },{
    "poiid": "B2094757DB6DA3FC409E",
    "title": "上海彩翼儿童美术馆",
    "lon": "121.42475",
    "lat": "31.199087",
    "category": "627",
    "category_name": "一般地点标志",
    "address": "长宁区淮海西路570号红坊创意园区B幢104室(近安顺路)"
  },{
    "poiid": "B2094750D365A6F9459D",
    "title": "黃浦江上",
    "lon": "121.495994",
    "lat": "31.234579",
    "category": "627",
    "category_name": "一般地点标志",
    "address": null
  },{
    "poiid": "B2094750D165ABF4419A",
    "title": "步行街",
    "lon": "121.477325",
    "lat": "31.200706",
    "category": "627",
    "category_name": "一般地点标志",
    "address": "南京路"
  },{
    "poiid": "B209475DDA6EA5F84299",
    "title": "上海国际赛车场",
    "lon": "121.229812",
    "lat": "31.333917",
    "category": "627",
    "category_name": "一般地点标志",
    "address": "上海市 上海市嘉定区"
  },{
    "poiid": "B209475DDA6DA5FC4198",
    "title": "上海国际赛车场",
    "lon": "121.234741",
    "lat": "31.330848",
    "category": "627",
    "category_name": "一般地点标志",
    "address": "上海市 上海国际赛车场"
  },{
    "poiid": "B209475DD564A4FC4293",
    "title": "上海国际赛车场",
    "lon": "121.229827",
    "lat": "31.332103",
    "category": "627",
    "category_name": "一般地点标志",
    "address": "上海市 上海市"
  },{
    "poiid": "B209475DDB65A7F84299",
    "title": "天马赛车场",
    "lon": "121.137512",
    "lat": "31.041851",
    "category": "627",
    "category_name": "一般地点标志",
    "address": "上海市松江区沈砖公路3000号"
  },{
    "poiid": "B2094757DA65A3F94198",
    "title": "大拇指",
    "lon": "121.55253955661",
    "lat": "31.225538360007",
    "category": "627",
    "category_name": "一般地点标志",
    "address": "丁香路"
  },{
    "poiid": "B2094752D56AABF44693",
    "title": "世博展览馆",
    "lon": "121.476251",
    "lat": "31.172501",
    "category": "627",
    "category_name": "一般地点标志",
    "address": null
  },{
    "poiid": "B2094757D165A6FD409E",
    "title": "外滩二十二号",
    "lon": "121.48842638473934",
    "lat": "31.239447501314032",
    "category": "627",
    "category_name": "一般地点标志",
    "address": "上海市黄埔区中山东一路"
  },{
    "poiid": "B2094750D66FA4FD439F",
    "title": "龙之梦",
    "lon": "121.420227",
    "lat": "31.219264",
    "category": "627",
    "category_name": "一般地点标志",
    "address": "长宁路"
  },{
    "poiid": "B209475DD46EAAF9459C",
    "title": "上海车墩影视基地",
    "lon": "121.317459",
    "lat": "31.013418",
    "category": "627",
    "category_name": "一般地点标志",
    "address": "上海市 上海市松江区车墩镇"
  },{
    "poiid": "B2094750D464A6F8479B",
    "title": "八万人体育馆",
    "lon": "121.440307",
    "lat": "31.183748",
    "category": "627",
    "category_name": "一般地点标志",
    "address": null
  },{
    "poiid": "B2094750D165A1F94692",
    "title": "陆家嘴正大广场",
    "lon": "121.516113",
    "lat": "31.201364",
    "category": "627",
    "category_name": "一般地点标志",
    "address": null
  },{
    "poiid": "B2094752D16FAAF84599",
    "title": "民生现代美术馆",
    "lon": "121.48347",
    "lat": "31.243975",
    "category": "627",
    "category_name": "一般地点标志",
    "address": "上海市淮海西路570号F座"
  },{
    "poiid": "B2094751D56BA0FD419D",
    "title": "黄浦江上",
    "lon": "121.502458",
    "lat": "31.235053",
    "category": "627",
    "category_name": "一般地点标志",
    "address": "黄浦江"
  },{
    "poiid": "B2094750DB65A5FC4492",
    "title": "上海寰球金融中心100楼观光厅",
    "lon": "121.506111",
    "lat": "31.234416",
    "category": "627",
    "category_name": "一般地点标志",
    "address": null
  },{
    "poiid": "B2094752D665A5FE469D",
    "title": "上海外滩",
    "lon": "121.473537",
    "lat": "31.239756",
    "category": "627",
    "category_name": "一般地点标志",
    "address": null
  },{
    "poiid": "B2094752D769A1F54493",
    "title": "上海车墩影视城",
    "lon": "121.261565",
    "lat": "31.018636",
    "category": "627",
    "category_name": "一般地点标志",
    "address": null
  },{
    "poiid": "B2094750D36BA2FF4293",
    "title": "新国际博览中心N3馆",
    "lon": "121.567161",
    "lat": "31.212766",
    "category": "627",
    "category_name": "一般地点标志",
    "address": "浦东新区龙阳路2345号"
  },{
    "poiid": "B2094750DB6EA2F9459D",
    "title": "崇明西沙湿地",
    "lon": "121.266029",
    "lat": "31.711324",
    "category": "627",
    "category_name": "一般地点标志",
    "address": null
  },{
    "poiid": "B2094750DB68A0FA4899",
    "title": "佘山",
    "lon": "121.186706",
    "lat": "31.154985",
    "category": "627",
    "category_name": "一般地点标志",
    "address": "森林公园"
  },{
    "poiid": "B2094752D76AA1FB4798",
    "title": "上海南京路步行街",
    "lon": "121.484502",
    "lat": "31.237004",
    "category": "627",
    "category_name": "一般地点标志",
    "address": null
  },{
    "poiid": "B209475DDA6EAAFB409C",
    "title": "上海国际赛车场",
    "lon": "121.224311",
    "lat": "31.317581",
    "category": "627",
    "category_name": "一般地点标志",
    "address": "上海市 上海市嘉定区"
  },{
    "poiid": "B209475DD56EA2F54999",
    "title": "田子坊",
    "lon": "121.444259",
    "lat": "31.255485",
    "category": "627",
    "category_name": "一般地点标志",
    "address": "上海市 上海市卢湾区打浦桥"
  },{
    "poiid": "B209475DDB68A2F9449B",
    "title": "上海野生动物园",
    "lon": "121.712135",
    "lat": "31.047901",
    "category": "627",
    "category_name": "一般地点标志",
    "address": "上海市 上海市浦东新区"
  },
]