[{"poiid":"B2094757D069A6FF449E","title":"虹口龙之梦","lon":"121.478023103","lat":"31.2704374226","category":"119","category_name":"商场","address":"上海凯德龙之梦"},{"poiid":"B2094757D06EAAFC4693","title":"外婆家(虹口龙之梦店)","lon":"121.477355384","lat":"31.2715242437","category":"75","category_name":"浙江菜","address":"虹口区西江湾路388号虹口凯德龙之梦购物中心B楼2楼(近虹口足球场)"},{"poiid":"B2094757D06EAAF4429F","title":"绿茶餐厅(虹口龙之梦店)","lon":"121.478928943","lat":"31.2702827941","category":"75","category_name":"浙江菜","address":"虹口区西江湾路388号虹口凯德龙之梦购物中心A座4楼(近虹口足球场)"},{"poiid":"B2094757D06FA0F5459B","title":"港丽餐厅 虹口龙之梦店","lon":"121.4792384","lat":"31.271403","category":"72","category_name":"广东菜","address":"虹口区西江湾路388号虹口凯德龙之梦购物中心4楼(近虹口足球场)"},{"poiid":"B2094757D068A6F54098","title":"茶香书香","lon":"121.477679203","lat":"31.2708627315","category":"67","category_name":"甜品店","address":"虹口区西江湾路388号虹口凯德龙之梦购物中心B2楼10号商铺(近虹口足球场)"},{"poiid":"B2094757D06FA7F84993","title":"麻辣诱惑(虹口龙之梦店)","lon":"121.478586491","lat":"31.2705254648","category":"71","category_name":"四川菜","address":"虹口区西江湾路388号凯德龙之梦购物中心A座6楼"},{"poiid":"B2094757D56DABFA419D","title":"金逸影城(虹口龙之梦店)","lon":"121.47867335581964","lat":"31.27029995391715","category":"178","category_name":"电影院","address":"上海市虹口区西江湾路388号凯德龙之梦B座6F-7F"},{"poiid":"B2094757D068A0FD439D","title":"PANKOO釜山料理(虹口龙之梦店)","lon":"121.478202432","lat":"31.270454593","category":"96","category_name":"韩国料理","address":"虹口区西江湾路388号虹口凯德龙之梦购物中心6楼(近虹口足球场)"},{"poiid":"B2094757D068A3FA439D","title":"新辣道鱼火锅(虹口龙之梦店)","lon":"121.477231103","lat":"31.2705774255","category":"86","category_name":"火锅店","address":"虹口区西江湾路388号虹口凯德龙之梦购物中心6楼(近虹口足球场)"},{"poiid":"B2094757D16EA6FA4799","title":"满记甜品（虹口龙之梦店）","lon":"121.478750103","lat":"31.2700474144","category":"67","category_name":"甜品店","address":"虹口区西江湾路388号虹口凯德龙之梦购物中心A楼2楼50-51号商铺"},{"poiid":"B2094757D06BA6F4499C","title":"哈根达斯(虹口龙之梦店)","lon":"121.478530297","lat":"31.2711829166","category":"113","category_name":"冷饮店","address":"虹口区西江湾路388号虹口凯德龙之梦购物中心A栋1楼8店铺(近虹口足球场)"},{"poiid":"B2094757D068A0FC419E","title":"COSTACOFFEE(虹口凯德龙之梦店)","lon":"121.478434965","lat":"31.2705698259","category":"65","category_name":"咖啡厅","address":"虹口区西江湾路388号虹口凯德龙之梦购物中心1楼19号铺"},{"poiid":"B2094757D06FA7FC489C","title":"西贝莜面村(虹口龙之梦店)","lon":"121.478574892","lat":"31.2709338788","category":"257","category_name":"中餐厅","address":"上海虹口区西江湾路388路凯德龙之梦(A)05-02(近花园路)"},{"poiid":"B2094757DA6EAAFE4393","title":"掌上韩品(虹口龙之梦店)","lon":"121.478276252748","lat":"31.2704630708311","category":"96","category_name":"韩国料理","address":"虹口区西江湾路388凯德龙之梦B2楼52B(近虹口足球场)"},{"poiid":"B2094757D06AA0F94992","title":"Mr.Pizza米斯特比萨(虹口龙之梦店)","lon":"121.477753934","lat":"31.2711280492","category":"68","category_name":"快餐厅","address":"虹口区西江湾路388号凯德龙之梦B1楼19号铺(花园路口)"},{"poiid":"B2094757D06FABF84893","title":"避风塘(虹口龙之梦店)","lon":"121.478681648","lat":"31.2710151449","category":"72","category_name":"广东菜","address":"虹口区西江湾路388号虹口凯德龙之梦购物中心A幢5楼(近虹口足球场)"},{"poiid":"B2094750D269A1FF409F","title":"金逸国际影院","lon":"121.474807","lat":"31.270542","category":"248","category_name":"生活娱乐","address":"西江弯路388号虹口龙之梦6楼"},{"poiid":"B2094757D069A3FD4698","title":"屋企汤馆 虹口龙之梦店","lon":"121.47923","lat":"31.2714","category":"72","category_name":"广东菜","address":"虹口区西江湾路388号虹口凯德龙之梦购物中心A座6楼(近虹口足球场)"},{"poiid":"B2094757D06FABFC469E","title":"家有好面(虹口龙之梦店)","lon":"121.478424688","lat":"31.2705854115","category":"68","category_name":"快餐厅","address":"虹口区西江湾路388号虹口凯德龙之梦购物中心5楼(近虹口足球场)"},{"poiid":"B2094757D06FA7FB489C","title":"芋贵人甜品店(虹口龙之梦店)","lon":"121.478397664","lat":"31.2707429019","category":"67","category_name":"甜品店","address":"虹口区西江湾路388号虹口龙之梦购物中心B2楼(近虹口足球场)"},{"poiid":"B2094757D06FA5FD479E","title":"许留山(虹口龙之梦店)","lon":"121.478773174","lat":"31.2702477101","category":"113","category_name":"冷饮店","address":"上海虹口区西江湾路388号(A)05-41(近花园路)"},{"poiid":"B2094757D069A6FA4492","title":"禾绿回转寿司(虹口龙之梦店)","lon":"121.478015313","lat":"31.2706143656","category":"95","category_name":"日本料理","address":"虹口区西江湾路388号虹口凯德龙之梦购物中心5楼(近虹口足球场)"},{"poiid":"B2094757D06AA0F44199","title":"宝珠奶酪(虹口龙之梦店)","lon":"121.47926","lat":"31.27095","category":"67","category_name":"甜品店","address":"虹口区西江湾路388号虹口凯德龙之梦购物中心B2楼28铺(近虹口足球场)"},{"poiid":"B2094757D068A2FD4293","title":"点沁","lon":"121.478838025","lat":"31.270128805","category":"68","category_name":"快餐厅","address":"虹口区西江湾路388号虹口凯德龙之梦购物中心B1楼28号(近虹口足球场)"},{"poiid":"B2094757D06FA2FE4793","title":"家乐福(虹口龙之梦店)","lon":"121.476983168","lat":"31.2707235693","category":"118","category_name":"超级市场","address":"虹口区西江湾路388号虹口凯德龙之梦购物中心B1-B2楼(近虹口足球场)"},{"poiid":"B2094752DA6FA6F4439E","title":"凯德龙之梦虹口•耶里夏丽","lon":"121.47763","lat":"31.270987","category":"500","category_name":"未知分类","address":"上海市 西江湾路388号凯德龙之梦虹口B座5层"},{"poiid":"B2094751DA69A7F8459F","title":"西九巷","lon":"121.478391","lat":"31.2704","category":"247","category_name":"餐饮美食","address":"东江湾路444号龙之梦地下2层"},{"poiid":"B2094757D065A6F5429F","title":"必胜客(虹口龙之梦店)","lon":"121.479206","lat":"31.2719671","category":"94","category_name":"西餐厅","address":"虹口区西江湾路388号虹口凯德龙之梦购物中心B2楼(近虹口足球场)"},{"poiid":"B2094757D06AA2FB499C","title":"佳家汤包(虹口龙之梦店)","lon":"121.478279647","lat":"31.2707337317","category":"68","category_name":"快餐厅","address":"虹口区西江湾路388号虹口凯德龙之梦购物中心B2楼(近虹口足球场)"},{"poiid":"B2094757D065A5FB4293","title":"土豆爸爸 龙之梦虹口店","lon":"121.47784","lat":"31.27106","category":"68","category_name":"快餐厅","address":"虹口区西江湾路388号虹口凯德龙之梦购物中心B2楼(近虹口足球场)"},{"poiid":"B2094757D06BA0FA409B","title":"一茶一坐(虹口龙之梦店)","lon":"121.478354306","lat":"31.270520414","category":"260","category_name":"其他","address":"虹口区西江湾路388号虹口凯德龙之梦购物中心A栋5楼21铺(近四川北路)"},{"poiid":"B2094757DA6EAAF5489E","title":"潮人餐馆","lon":"121.478404998777","lat":"31.2708482193223","category":"260","category_name":"其他","address":"虹口区西江湾路388号凯德龙之梦购物中心B2楼"},{"poiid":"B2094757D06AA0FD469C","title":"大家乐(虹口龙之梦店)","lon":"121.477654034","lat":"31.2708959266","category":"68","category_name":"快餐厅","address":"虹口区西江湾路388号虹口凯德龙之梦购物中心B1楼(近虹口足球场)"},{"poiid":"B2094757D068AAFE499D","title":"呷哺呷哺(虹口龙之梦店)","lon":"121.477625188","lat":"31.2710271775","category":"86","category_name":"火锅店","address":"虹口区西江湾路388号虹口凯德龙之梦购物中心B2楼B2-81号(近虹口足球场)"},{"poiid":"B2094750DB6EA1FF469F","title":"悦蓉香锅牛蛙","lon":"121.478569","lat":"31.272125","category":"71","category_name":"四川菜","address":"虹口区西江湾路388号虹口凯德龙之梦购物中心A座B2楼(近虹口足球场)"},{"poiid":"B2094757D068A3FE4099","title":"YUMMIE HOUSE|呀咪咖喱屋(虹口龙之梦店)","lon":"121.478299812","lat":"31.2704573695","category":"260","category_name":"其他","address":"虹口区西江湾路388号虹口凯德龙之梦购物中心A栋5楼(近虹口足球场)"},{"poiid":"B2094753D16DA4FD459C","title":"糖纸","lon":"121.477951","lat":"31.270844","category":"500","category_name":"未知分类","address":"上海市 西江湾路388号凯德龙之梦B2"},{"poiid":"B2094753D664A2FE409D","title":"柳家","lon":"121.477691","lat":"31.269426","category":"500","category_name":"未知分类","address":"上海市 虹口龙之梦b座5楼"},{"poiid":"B2094757D06AA2FA4293","title":"老妈米线(虹口龙之梦店)","lon":"121.477857106","lat":"31.2707298593","category":"86","category_name":"火锅店","address":"虹口区西江湾路388号虹口凯德龙之梦购物中心A座5楼33号铺(近虹口足球场)"},{"poiid":"B2094757D064A5FC439B","title":"萨莉亚(虹口龙之梦店)","lon":"121.477956489","lat":"31.2706316035","category":"94","category_name":"西餐厅","address":"虹口区西江湾路388号虹口凯德龙之梦购物中心A座5楼(近虹口足球场)"},{"poiid":"B2094757D064A2FC489C","title":"汉堡王(虹口龙之梦店)","lon":"121.477817014","lat":"31.2708333478","category":"68","category_name":"快餐厅","address":"虹口区西江湾路388号虹口凯德龙之梦购物中心B2楼(近虹口足球场)"},{"poiid":"B2094753D76CA6FD469A","title":"上海金逸影城(虹口龍之夢店)","lon":"121.478012","lat":"31.270542","category":"500","category_name":"未知分类","address":"上海市 上海虹口區西江灣路388號六樓"},{"poiid":"B2094757D064A2F54693","title":"新之卷 新の卷(虹口龙之梦店)","lon":"121.478185272","lat":"31.2706840154","category":"95","category_name":"日本料理","address":"虹口区西江湾路388号凯德龙之梦B2楼72b号商铺(花园路口)"},{"poiid":"B2094757D065ABF9409D","title":"一茶一座(虹口足球场店)","lon":"121.475179103","lat":"31.2699884132","category":"47","category_name":"住宅区","address":"上海凯德·龙之梦(虹口店)5楼"},{"poiid":"B2094655D26DAAF5469A","title":"上海花园坊节能环保产业园","lon":"121.47562","lat":"31.27226","category":"45","category_name":"产业园区","address":"虹口区花园路171号(近中山北一路)"},{"poiid":"B2094757D069ABFC429E","title":"GAP(虹口龙之梦店)","lon":"121.476748601","lat":"31.2709293828","category":"141","category_name":"服装鞋帽皮具店","address":"虹口区西江湾路388号凯德龙之梦1楼、2楼"},{"poiid":"B2094757D16CA7F4439B","title":"Cold Stone 酷圣石(虹口龙之梦店)","lon":"121.478386935","lat":"31.2708804547","category":"113","category_name":"冷饮店","address":"虹口区西江湾路388号虹口凯德龙之梦购物中心B2楼k37室"},{"poiid":"B2094751D565ABF44292","title":"虹口龙之梦黄记煌","lon":"121.477679","lat":"31.270959","category":"247","category_name":"餐饮美食","address":"虹口龙之梦2楼"},{"poiid":"B2094757D66EA0FC499D","title":"台金兰沙嗲云吞面","lon":"121.477862103","lat":"31.2709084324","category":"68","category_name":"快餐厅","address":"虹口区西江湾路388号虹口凯德龙之梦购物中心B2楼82室"},{"poiid":"B2094750DB6FA4F5479F","title":"龙之梦西提牛排","lon":"121.478889","lat":"31.271074","category":"247","category_name":"餐饮美食","address":null},{"poiid":"B2094757D06AA5FD4899","title":"1001赞生活•牛肉面(虹口龙之梦店)","lon":"121.478572052","lat":"31.270658871","category":"257","category_name":"中餐厅","address":"虹口区西江湾路388号虹口龙之梦6楼19室(近虹口足球场)"},{"poiid":"B2094757D068A3F54699","title":"浅草家(虹口龙之梦店)","lon":"121.476729663","lat":"31.2698938612","category":"95","category_name":"日本料理","address":"虹口区西江湾路388号虹口凯德龙之梦购物中心B1楼(近虹口足球场)"},{"poiid":"B2094752DA68A0F94292","title":"耶里夏利","lon":"121.477881","lat":"31.270823","category":"163","category_name":"4S店","address":"上海市 虹口龙之梦"},{"poiid":"B2094750D66BA4F84692","title":"龙之梦金逸影院","lon":"121.476669","lat":"31.271545","category":"248","category_name":"生活娱乐","address":null},{"poiid":"B2094757D06BA0FE439F","title":"爱茜茜里(虹口龙之梦店)","lon":"121.478644428","lat":"31.2706236893","category":"113","category_name":"冷饮店","address":"上海虹口区西江湾路388路凯德龙之梦B2-58(近花园路)"},{"poiid":"B2094753D165A4F9489A","title":"票票糖","lon":"121.477727","lat":"31.270321","category":"500","category_name":"未知分类","address":"上海市 虹口龙之梦B2层"},{"poiid":"B2094757D16DA0F84592","title":"神采飞扬梦幻游戏王国","lon":"121.478059103","lat":"31.2704374226","category":"500","category_name":"未知分类","address":"上海虹口龙之梦"},{"poiid":"B2094750D76DA0FF459D","title":"丸之内","lon":"121.479","lat":"31.271","category":"95","category_name":"日本料理","address":"虹口区西江湾路388号虹口凯德龙之梦购物中心A座5楼(近虹口足球场)"},{"poiid":"B2094752D269AAFF429E","title":"黄记煌三汁闷锅","lon":"121.477119","lat":"31.271237","category":"247","category_name":"餐饮美食","address":"虹口龙之梦"},{"poiid":"B2094757DA69A3FA469B","title":"凯德龙之梦虹口","lon":"121.47852924867","lat":"31.270619957594","category":"119","category_name":"商场","address":"西江湾路388号"},{"poiid":"B209475DDB64A3F84399","title":"上上谦串串香时尚火锅","lon":"121.474777","lat":"31.270488","category":"247","category_name":"餐饮美食","address":"上海市 上海市虹口龙之梦"},{"poiid":"B2094757D66CA6FF449B","title":"安徒生冰淇淋","lon":"121.477280103","lat":"31.2715334455","category":"113","category_name":"冷饮店","address":"虹口区西江湾路388号虹口凯德龙之梦购物中心B座1楼(近虹口足球场)"},{"poiid":"B2094757D065A6F44998","title":"神采飞扬游乐公园","lon":"121.474746103","lat":"31.2704644231","category":"173","category_name":"游戏厅","address":"虹口区西江湾路388号凯德龙之梦购物中心B座5楼"},{"poiid":"B2094654D56EA1FF459B","title":"申航大厦","lon":"121.477","lat":"31.2705","category":"46","category_name":"楼宇","address":"杨浦区大学路33号"},{"poiid":"B2094757D16AA5F9469E","title":"YOBA优芭酸奶冰淇淋(虹口龙之梦店)","lon":"121.477743205","lat":"31.2710271775","category":"113","category_name":"冷饮店","address":"上海虹口区西江湾路388路凯德龙之梦B2-76(近花园路)"},{"poiid":"B2094655D26CA1FD479C","title":"花园城Ⅲ","lon":"121.47476","lat":"31.27089","category":"47","category_name":"住宅区","address":"花园路118弄"},{"poiid":"B2094750D16AABF54799","title":"in house","lon":"121.477767","lat":"31.270526","category":"248","category_name":"生活娱乐","address":null},{"poiid":"B2094654DB6AAAF9499E","title":"嘉和国际大厦1号楼","lon":"121.47727","lat":"31.26959","category":"46","category_name":"楼宇","address":"花园路66弄"},{"poiid":"B2094757D065ABFD429C","title":"大和生煎(虹口龙之梦店)","lon":"121.477968511","lat":"31.2713114522","category":"68","category_name":"快餐厅","address":"虹口区西江湾路388号虹口凯德龙之梦购物中心B1楼(近虹口足球场)"},{"poiid":"B2094752D669A0F4439C","title":"西九巷","lon":"121.478357","lat":"31.270353","category":"247","category_name":"餐饮美食","address":"西江湾路388号虹口凯德龙之梦购物中心B2楼52A号铺"},{"poiid":"B2094757D16AA6F9469F","title":"状元牛舍(虹口龙之梦店)","lon":"121.478483495","lat":"31.2706511999","category":"257","category_name":"中餐厅","address":"虹口区西江湾路388号虹口凯德龙之梦购物中心B2楼52a号铺(近虹口足球场)"},{"poiid":"B2094757DA6EA7F84899","title":"食之秘(虹口龙之梦店)","lon":"121.478726999998","lat":"31.2708850000002","category":"67","category_name":"甜品店","address":"虹口区西江湾路388号虹口凯德龙之梦购物中心B2楼13铺(虹口足球场)"},{"poiid":"B2094750D568A1FA489D","title":"味千拉面(虹口龙之梦店)","lon":"121.479","lat":"31.2712","category":"95","category_name":"日本料理","address":"虹口区西江湾路388号虹口凯德龙之梦购物中心B1楼"},{"poiid":"B2094751DA6AA0F5429D","title":"西九巷（虹口龙之梦）","lon":"121.476837","lat":"31.269348","category":"500","category_name":"未知分类","address":null},{"poiid":"B2094757D069A4FD479D","title":"上海市能效中心","lon":"121.47597221","lat":"31.271471121","category":"46","category_name":"楼宇","address":"上海中山北一路121号"},{"poiid":"B2094757D16CA5FF439A","title":"快乐柠檬(虹口龙之梦店)","lon":"121.47816163","lat":"31.270797923","category":"113","category_name":"冷饮店","address":"虹口区西江湾路388号虹口凯德龙之梦购物中心B2楼k14室"},{"poiid":"B2094752D36FA6F9489D","title":"甜爱路","lon":"121.477211","lat":"31.269997","category":"500","category_name":"未知分类","address":null},{"poiid":"B2094750D768ABF54593","title":"希望先生(虹口龙之梦店)","lon":"121.479","lat":"31.271","category":"113","category_name":"冷饮店","address":"虹口区西江湾路388号龙之梦购物中心B2楼(近虹口足球场)"},{"poiid":"B2094757D168AAF4489C","title":"永和大王(虹口龙之梦店)","lon":"121.477829036","lat":"31.2706787105","category":"68","category_name":"快餐厅","address":"近郊奉贤区南桥镇百齐路588号百联南桥购物中心1楼(近南桥汽车站)"},{"poiid":"B2094757D66DA7FA4798","title":"魔锅坊麻辣香锅","lon":"121.4788841","lat":"31.271029434","category":"247","category_name":"餐饮美食","address":"上海市虹口区花园路"},{"poiid":"B2094454D26EABFD429C","title":"上上谦 虹口龙之梦店","lon":"121.475006","lat":"31.270296","category":"247","category_name":"餐饮美食","address":"上海市 上海虹口区花园路"},{"poiid":"B209475CD56EA3FE429B","title":"星巴克(虹口龙之梦店)","lon":"121.478652","lat":"31.270782","category":"500","category_name":"未知分类","address":"上海市 东江湾路"},{"poiid":"B2094757D064ABFC4192","title":"MU.BREAD麦卡优娜(虹口龙之梦店)","lon":"121.478475403","lat":"31.2703548208","category":"247","category_name":"餐饮美食","address":"虹口区西江湾路388号虹口凯德龙之梦购物中心B1楼(近虹口足球场)"},{"poiid":"B2094454D36BA7FF4693","title":"小辉哥火锅","lon":"121.477706","lat":"31.271188","category":"247","category_name":"餐饮美食","address":"上海市 虹口龙之梦B1"},{"poiid":"B2094753D568AAFA4098","title":"糖纸甜品","lon":"121.477943","lat":"31.270853","category":"247","category_name":"餐饮美食","address":"上海市 虹口龙之梦B2"},{"poiid":"B2094752D76EA1F9419E","title":"和民（虹口龙之梦）","lon":"121.474785","lat":"31.270496","category":"247","category_name":"餐饮美食","address":null},{"poiid":"B2094654DB6AAAFA4092","title":"嘉福悦国际大酒店","lon":"121.47843","lat":"31.26954","category":"214","category_name":"四星级宾馆","address":"黄浦区花园路16号"},{"poiid":"B2094757D168A6F5449C","title":"东方既白(虹口龙之梦店)","lon":"121.47742134","lat":"31.2707612423","category":"68","category_name":"快餐厅","address":"虹口区西江湾路388号虹口凯德龙之梦购物中心B2楼"},{"poiid":"B2094750D664A7FE4193","title":"YOBA酸奶冰淇淋(虹口龙之梦店)","lon":"121.479","lat":"31.2712","category":"113","category_name":"冷饮店","address":"虹口区西江湾路388号虹口凯德龙之梦购物中心B2-77室(近虹口足球场)"},{"poiid":"B2094757D168A7FE4093","title":"小林煎饼(虹口龙之梦店)","lon":"121.478311834","lat":"31.2707795826","category":"67","category_name":"甜品店","address":"虹口区上海西江湾路388号虹口凯德龙之梦购物中心B2楼(近虹口足球场)"},{"poiid":"B2094750D665A3FB479D","title":"每日新鲜水果吧(虹口龙之梦店)","lon":"121.479","lat":"31.271","category":"113","category_name":"冷饮店","address":"虹口区西江湾路388号虹口凯德龙之梦购物中心B2楼(近虹口足球场)"},{"poiid":"B2094753D56CA1FC449A","title":"柳家","lon":"121.477584","lat":"31.270879","category":"500","category_name":"未知分类","address":"上海市 虹口龙之梦"},{"poiid":"B209475CD26EA2FE4798","title":"丸龟制面(虹口龙之梦店)","lon":"121.479","lat":"31.271","category":"95","category_name":"日本料理","address":"西江湾路388号凯德龙之梦B2楼02D02E"},{"poiid":"B2094757D66FA2F8439E","title":"丸来玩趣(虹口龙之梦店)","lon":"121.478140172","lat":"31.2707520721","category":"68","category_name":"快餐厅","address":"虹口区西江湾路388号虹口凯德龙之梦购物中心B2楼(近虹口足球场)"},{"poiid":"B2094757D069A0FA449C","title":"招商银行(虹口体育场支行)","lon":"121.477950177","lat":"31.2698271613","category":"150","category_name":"银行","address":"虹口区花园路32-40号(广中路西江湾路)"},{"poiid":"B209475CD36AAAF94493","title":"57度湘 虹口龙之梦店","lon":"121.47892","lat":"31.2712","category":"77","category_name":"湖南菜","address":"西江湾路388号凯德龙之梦A座6楼(近虹口足球场)"},{"poiid":"B209475CD764A2FE419D","title":"西九巷咖啡 虹口龙之梦店","lon":"121.47829","lat":"31.27026","category":"94","category_name":"西餐厅","address":"西江湾路388号虹口凯德龙之梦购物中心B2楼52A号铺(近莉莲蛋挞)"},{"poiid":"B2094757D168A2F4499D","title":"老娘舅(虹口龙之梦店)","lon":"121.477571544","lat":"31.2710180073","category":"68","category_name":"快餐厅","address":"虹口区西江湾路388号虹口凯德龙之梦购物中心B2楼(近虹口足球场)"},{"poiid":"B2094753D36DA3FA4693","title":"稻香源","lon":"121.478464","lat":"31.270738","category":"113","category_name":"冷饮店","address":"西江湾路388号虹口龙之梦购物中心A栋3楼"},{"poiid":"B2094750D769A3F44099","title":"桂都台湾美食(西江湾路店)","lon":"121.479","lat":"31.2712","category":"91","category_name":"台湾菜","address":"虹口区西江湾路388号虹口凯德龙之梦购物中心(近虹口足球场)"},{"poiid":"B2094753DA68A3F8479B","title":"小杨生煎","lon":"121.476089","lat":"31.270589","category":"247","category_name":"餐饮美食","address":"虹口龙之梦店"},{"poiid":"B2094750D66BAAFB4998","title":"猪饱饱本铺","lon":"121.479","lat":"31.271","category":"68","category_name":"快餐厅","address":"虹口区西江湾路388号虹口龙之梦购物中心B2楼(近虹口足球场)"},{"poiid":"B2094750D76FA4F44998","title":"美仕唐纳滋(虹口龙之梦店)","lon":"121.479","lat":"31.271","category":"67","category_name":"甜品店","address":"虹口区西江湾路388号虹口凯德龙之梦购物中心B2楼70铺(近虹口足球场)"},{"poiid":"B2094655D265A3FA449A","title":"花园城游泳馆","lon":"121.4754","lat":"31.2703","category":"231","category_name":"游泳馆","address":"花园路118弄花园城会所1层"},{"poiid":"B2094752DB6AA5FE479C","title":"耶里夏丽新疆餐厅","lon":"121.477742","lat":"31.271062","category":"500","category_name":"未知分类","address":"上海市 虹口龙之梦B座5楼"},{"poiid":"B2094752DB65ABF54893","title":"几分甜烘培工坊","lon":"121.4772319469806","lat":"31.27048030687518","category":"247","category_name":"餐饮美食","address":"上海市 虹口区四川北路2318号"},{"poiid":"B2094757D66EA1F9469A","title":"mvuke tokyu","lon":"121.475619103","lat":"31.270888432","category":"500","category_name":"未知分类","address":"上海虹口区西江湾路388号凯德龙之梦1FB座"},{"poiid":"B2094757D16DA4F5449D","title":"爱西西里意大利手工冰激凌","lon":"121.477810863","lat":"31.2705774255","category":"113","category_name":"冷饮店","address":"虹口区西江湾路388号虹口凯德龙之梦购物中心B2楼(近虹口足球场)"},{"poiid":"B2094750DB6CA0FA4298","title":"上海虹口体育场","lon":"121.478302","lat":"31.27165","category":"500","category_name":"未知分类","address":null},{"poiid":"B2094753D56DA1FA4998","title":"票票糖(虹口龙之梦店)","lon":"121.47821","lat":"31.270557","category":"500","category_name":"未知分类","address":"上海市 凯德龙之梦B2-21C"},{"poiid":"B2094753D669ABF54398","title":"深井大叔","lon":"121.477752","lat":"31.270509","category":"247","category_name":"餐饮美食","address":"上海市 虹口龙之梦"},{"poiid":"B2094750D76CABFC429D","title":"莉莲蛋挞(虹口龙之梦店)","lon":"121.479","lat":"31.271","category":"67","category_name":"甜品店","address":"虹口区西江湾路388号虹口凯德龙之梦购物中心B2楼(近虹口足球场)"},{"poiid":"B2094750D76DA3F54498","title":"摩提工房(虹口龙之梦店)","lon":"121.479","lat":"31.271","category":"67","category_name":"甜品店","address":"虹口区西江湾路388号虹口凯德龙之梦购物中心B2楼(近四川北路)"},{"poiid":"B2094750D76CAAFE479C","title":"可口味小吃","lon":"121.479","lat":"31.271","category":"68","category_name":"快餐厅","address":"虹口区西江湾路388号凯德龙之梦广场B2楼(近虹口足球场)"},{"poiid":"B2094757D169A2FB4898","title":"黑川饮铺(虹口龙之梦店)","lon":"121.476884445","lat":"31.2708015666","category":"113","category_name":"冷饮店","address":"虹口区西江湾路388号虹口凯德龙之梦购物中心B楼3楼14号商户"},{"poiid":"B2094757D16EA0FB489B","title":"可颂坊(虹口龙之梦店)","lon":"121.478512487","lat":"31.2710165061","category":"112","category_name":"糕饼店","address":"虹口区西江湾路388号虹口凯德龙之梦购物中心B2楼(近虹口足球场)"},{"poiid":"B2094757D465A0FA449C","title":"伊诺咖啡 花园路店","lon":"121.476579054","lat":"31.270716793","category":"260","category_name":"其他","address":"虹口区花园路171号(近中山北一路)"},{"poiid":"B2094750D76EA6FC469E","title":"呈隆记","lon":"121.479","lat":"31.271","category":"68","category_name":"快餐厅","address":"虹口区西江湾路388号虹口凯德龙之梦购物中心B2楼(近虹口足球场)"},{"poiid":"B2094750D56DA5F94292","title":"味千拉面","lon":"121.478523","lat":"31.272132","category":"247","category_name":"餐饮美食","address":"虹口足球场龙之梦"},{"poiid":"B2094757D06AAAFD499B","title":"上海安装工程有限公司教培中心","lon":"121.478387","lat":"31.271808","category":"500","category_name":"未知分类","address":"上海同煌路26号"},{"poiid":"B2094750D76EA2FB489F","title":"新饭碗(虹口龙之梦店)","lon":"121.479","lat":"31.2712","category":"68","category_name":"快餐厅","address":"虹口区西江湾路388号虹口凯德龙之梦购物中心B1楼(近虹口足球场)"},{"poiid":"B2094757DA6AA6FB469F","title":"瑞丽摄影","lon":"121.4763029963627","lat":"31.26976521985689","category":"611","category_name":"照相馆","address":"虹口区东江湾路创意园188号F7幢"},{"poiid":"B2094752D164A0FC489A","title":"和民居食屋虹口龙之梦","lon":"121.478046","lat":"31.270211","category":"247","category_name":"餐饮美食","address":null},{"poiid":"B209475DDB69A4FD469E","title":"上上谦","lon":"121.477882","lat":"31.271118","category":"247","category_name":"餐饮美食","address":"上海市 虹口龙之梦"},{"poiid":"B2094757D66EAAF44098","title":"潮手潮脚","lon":"121.476442103","lat":"31.2704374226","category":"500","category_name":"未知分类","address":"虹口区西江湾路388号凯德龙之梦购物中心4楼"},{"poiid":"B2094753D664ABFC4098","title":"西九巷咖啡馆","lon":"121.478179","lat":"31.270597","category":"65","category_name":"咖啡厅","address":"上海市 上海市虹口龙之梦B2"},{"poiid":"B2094750D665A2F5419E","title":"大阪味锦(虹口龙之梦店)","lon":"121.479","lat":"31.2713","category":"68","category_name":"快餐厅","address":"虹口区西江湾路388号虹口凯德龙之梦购物中心B2楼(近虹口足球场)"},{"poiid":"B2094655D26BA7FF4199","title":"上海科学节能展示馆","lon":"121.47606","lat":"31.27174","category":"183","category_name":"展览馆","address":"虹口区花园路171号A1室"},{"poiid":"B2094753D66EA0F44498","title":"妈咪厨房（虹口龙之梦）","lon":"121.478842","lat":"31.270944","category":"249","category_name":"购物服务","address":"上海市 虹口区西江湾路388号凯德虹口龙之梦"},{"poiid":"B2094757D66CA5FD409D","title":"福人聚东北菜","lon":"121.478977803","lat":"31.2712783401","category":"82","category_name":"东北菜","address":"虹口区广中路307号(近水电路)"},{"poiid":"B2094654DB65A4F94793","title":"嘉和国际大厦2号楼","lon":"121.47853","lat":"31.26948","category":"46","category_name":"楼宇","address":"花园路66弄"},{"poiid":"B2094757D16CA3FF4393","title":"气味图书馆(凯德龙之梦)","lon":"121.478734103","lat":"31.2700194138","category":"500","category_name":"未知分类","address":"上海市东江湾路444号虹口凯德龙之梦4楼"},{"poiid":"B2094750DA6FA6FF459C","title":"十院","lon":"121.476211","lat":"31.271175","category":"500","category_name":"未知分类","address":null},{"poiid":"B2094750D66CA4F8439D","title":"金宝贝早教（上海虹口中心）","lon":"121.477424","lat":"31.270887","category":"248","category_name":"生活娱乐","address":"上海虹口区西江湾路388号凯德龙之梦B座3楼-11"},{"poiid":"B2094757D06BA1FF499D","title":"上海市体育运动学校羽毛球馆","lon":"121.47750854","lat":"31.27137947","category":"500","category_name":"未知分类","address":"上海水电路176号4楼"},{"poiid":"B2094750D36DA5F94898","title":"虹口龙之梦茶香书香","lon":"121.478553","lat":"31.270858","category":"500","category_name":"未知分类","address":null},{"poiid":"B2094757D06FA5F94398","title":"188号创意园区","lon":"121.475895","lat":"31.271097","category":"260","category_name":"其他","address":"上海虹口区东江湾路188号创意园区"},{"poiid":"B209475CD36EA0FF449D","title":"黄记煌三汁焖锅","lon":"121.477027","lat":"31.270622","category":"247","category_name":"餐饮美食","address":"上海市 虹口龙之梦B座2楼"},{"poiid":"B2094654D56CA6F5479E","title":"华博科技大楼","lon":"121.47646","lat":"31.27033","category":"46","category_name":"楼宇","address":"花园路88"},{"poiid":"B2094757D168A4FB4092","title":"70路中山北一路花园路站","lon":"121.47697616","lat":"31.27246729","category":"38","category_name":"公交车站","address":"上海中山北一路(进花园路)"},{"poiid":"B2094750D76CA0FD459D","title":"卷筒披萨","lon":"121.479","lat":"31.271","category":"94","category_name":"西餐厅","address":"西江湾路388号虹口凯德龙之梦购物中心B2楼(近四川北路)"},{"poiid":"B2094654D56CA6FA4093","title":"华星公寓","lon":"121.47789","lat":"31.268978","category":"47","category_name":"住宅区","address":"同鸣路140弄1-15号"},{"poiid":"B2094753D564ABF4489B","title":"杭州东站","lon":"121.479026","lat":"31.270624","category":"500","category_name":"未知分类","address":"上海市 浙江杭州"},{"poiid":"B2094752D06EA3FE4693","title":"costa coffer","lon":"121.477214","lat":"31.270524","category":"247","category_name":"餐饮美食","address":"上海四川北路2398号"},{"poiid":"B2094757D16AA0FD4993","title":"139路公交车 虹口足球场站","lon":"121.4784052","lat":"31.271942654","category":"38","category_name":"公交车站","address":"上海三商巧福对面"},{"poiid":"B2094753D469A1FE4692","title":"黄记煌三汁焖锅","lon":"121.477882","lat":"31.269136","category":"247","category_name":"餐饮美食","address":"上海市 虹口龙之梦"},{"poiid":"B2094655D26BA6F9459E","title":"三阳小区","lon":"121.476","lat":"31.2716","category":"47","category_name":"住宅区","address":"黄山路280弄2-10号"},{"poiid":"B209475DD36FABF8419B","title":"威尔士健身会所","lon":"121.478073","lat":"31.271915","category":"500","category_name":"未知分类","address":"上海市 虹口凯德龙之梦七楼"},{"poiid":"B2094757D06FA5FE469F","title":"联游网络","lon":"121.4758909","lat":"31.271306648","category":"46","category_name":"楼宇","address":"上海市虹口区花园路171号A2栋3楼"},{"poiid":"B2094753DA6AA7FE429D","title":"上海中医药大学附属岳阳中西医结合医院","lon":"121.475448","lat":"31.269615","category":"162","category_name":"医院","address":"上海市 甘河路"},{"poiid":"B2094753D76CA6FA479B","title":"深井大叔","lon":"121.47705","lat":"31.269847","category":"247","category_name":"餐饮美食","address":"上海市 虹口龙之梦5楼"},{"poiid":"B209475CD468A3FC469B","title":"蛋卷先生（虹口龙之梦店）","lon":"121.47745","lat":"31.271343","category":"67","category_name":"甜品店","address":"虹口区西江湾路388号凯德龙之梦B座1楼K13-K15号商铺"},{"poiid":"B2094752D568A4FF4693","title":"神曲酒吧","lon":"121.475481","lat":"31.271432","category":"247","category_name":"餐饮美食","address":null},{"poiid":"B209475CD668A0F8409A","title":"花蒲甜品","lon":"121.478996","lat":"31.270595","category":"247","category_name":"餐饮美食","address":"上海市 虹口凯德龙之梦三楼55号"},{"poiid":"B2094757D66EA4FF4593","title":"艾手艾脚(虹口龙之梦店)","lon":"121.478016103","lat":"31.2712024386","category":"500","category_name":"未知分类","address":"上海凯德广场B2"},{"poiid":"B2094655D265A4F94792","title":"张堰公园","lon":"121.47757","lat":"31.27019","category":"196","category_name":"公园","address":"张堰镇花园路20号"},{"poiid":"B2094757DB6AA3FD449E","title":"淮海中路","lon":"121.4750957894403","lat":"31.27090974162349","category":"500","category_name":"未知分类","address":null},{"poiid":"B2094654D56CA6F9429E","title":"上海市工业设备安装公司职工中等专业学校","lon":"121.47838","lat":"31.2718","category":"54","category_name":"职业技术学校","address":"同煌路26"},{"poiid":"B2094654D56CA6FA4298","title":"绿寓","lon":"121.47586","lat":"31.26892","category":"47","category_name":"住宅区","address":"恒业路115弄1-13号"},{"poiid":"B209475DD26BA1FC4892","title":"人民广场","lon":"121.47866","lat":"31.271268","category":"500","category_name":"未知分类","address":"上海市 上海黄浦区"},{"poiid":"B2094655D26FA1F5419B","title":"嘉苑公寓","lon":"121.47676","lat":"31.269394","category":"47","category_name":"住宅区","address":"同鸣路206弄3-43号"},{"poiid":"B2094655D26FA1F54292","title":"绿寓(东门)","lon":"121.47607","lat":"31.26895","category":"47","category_name":"住宅区","address":"恒业路115弄1-13号"},{"poiid":"B2094655D264A7F8479B","title":"花园城三期印象生活","lon":"121.47637","lat":"31.2704","category":"47","category_name":"住宅区","address":"花园路250号"},{"poiid":"B2094752D268AAFA419C","title":"调一调交换商店","lon":"121.476596","lat":"31.269116","category":"249","category_name":"购物服务","address":"同鸣路145号"},{"poiid":"B2094753D16DA4FD499B","title":"糖纸","lon":"121.477951","lat":"31.270844","category":"500","category_name":"未知分类","address":"上海市 虹口区西江湾路388号凯德龙之梦B2"},{"poiid":"B2094753D66EA7FE4092","title":"Sugar Report","lon":"121.477951","lat":"31.270798","category":"500","category_name":"未知分类","address":"上海市 虹口龙之梦"},{"poiid":"B2094757D06AA6F9419E","title":"上海青年管理干部学院一号楼1006室","lon":"121.47628569","lat":"31.272661332","category":"500","category_name":"未知分类","address":"上海西江湾路574号进门喷水池右手一号楼"},{"poiid":"B2094654D56CA6FA419C","title":"上海市虹口区宝宝食品店","lon":"121.47658","lat":"31.26915","category":"117","category_name":"便民商店/便利店","address":"同鸣路200识别"},{"poiid":"B2094753D568ABF4499F","title":"比比客虹口龙之梦店","lon":"121.478706","lat":"31.270177","category":"500","category_name":"未知分类","address":"上海市 虹口区西江湾路388号凯德龙之梦购物中心B2-01A"},{"poiid":"B2094752D265A1F5459F","title":"虹口银乐迪龙之梦店","lon":"121.476876","lat":"31.268691","category":"500","category_name":"未知分类","address":null},{"poiid":"B2094752DA68A6FA409E","title":"Mr.Pizza","lon":"121.477831","lat":"31.270957","category":"500","category_name":"未知分类","address":"上海市 上海虹口龙之梦"},{"poiid":"B2094655D26CA7F8449E","title":"第157国家职业技能鉴定所","lon":"121.47838","lat":"31.2718","category":"250","category_name":"公园户外","address":"同煌路26"},{"poiid":"B2094753D76DA4F54299","title":"糖纸","lon":"121.478378","lat":"31.270677","category":"500","category_name":"未知分类","address":"上海市 虹口凯德龙之梦"},{"poiid":"B2094752D568A0F9459D","title":"辛格灵","lon":"121.47541","lat":"31.270304","category":"248","category_name":"生活娱乐","address":"虹口凯德龙之梦"},{"poiid":"B2094655D265A3FF459A","title":"圣亿教育培训中心","lon":"121.47876","lat":"31.27161","category":"190","category_name":"培训机构","address":"西江湾路420号2幢"},{"poiid":"B2094654DB6AAAF9499C","title":"上海安装工程职业技术培训中心(同煌路)","lon":"121.47839","lat":"31.27181","category":"190","category_name":"培训机构","address":"同煌路26"},{"poiid":"B2094750DA6BA2F94793","title":"中国农业银行（花园路支行)","lon":"121.47884030422972","lat":"31.269932870770123","category":"150","category_name":"银行","address":"虹口区花园路16号"},{"poiid":"B2094753D768A5FE4193","title":"上海音乐厅","lon":"121.478477","lat":"31.270704","category":"500","category_name":"未知分类","address":"上海市 101"},{"poiid":"B2094757D168A1FF449B","title":"江华舞蹈工作室","lon":"121.478580103","lat":"31.2693413997","category":"500","category_name":"未知分类","address":"上海市虹口区花园路"},{"poiid":"B2094654DB6AAAF9499D","title":"上海市安装人才培训中心(同煌路)","lon":"121.47839","lat":"31.27181","category":"190","category_name":"培训机构","address":"同煌路26"},{"poiid":"B2094757D06BA4F84192","title":"Gagner China","lon":"121.475900103","lat":"31.2703724212","category":"500","category_name":"未知分类","address":"上海花园路"},{"poiid":"B2094757D164A3FD4899","title":"happy lemon虹口足球场站店","lon":"121.478738103","lat":"31.2713294412","category":"500","category_name":"未知分类","address":"上海市虹口区虹口足球场站轻轨"},{"poiid":"B2094655D264ABF54993","title":"齐乐宠物","lon":"121.47632","lat":"31.26888","category":"129","category_name":"宠物用品店","address":"虹口区恒业路122号(近同鸣路)"},{"poiid":"B2094757D069A7F44092","title":"两岸咖啡 花园路店","lon":"121.476488054","lat":"31.270452793","category":"260","category_name":"其他","address":"虹口区花园路88号(近虹口体育场)"},{"poiid":"B2094655D265A0FB439A","title":"迪乐教育少儿英语中心","lon":"121.47646","lat":"31.27033","category":"190","category_name":"培训机构","address":"花园路88号华博科技大楼7层"},{"poiid":"B2094757D16EA2F5459E","title":"同煌路西江湾路","lon":"121.477853769","lat":"31.2720597898","category":"500","category_name":"未知分类","address":"上海同煌路西江湾路"},{"poiid":"B2094757D065A6FA409A","title":"纽约时尚婚纱摄影","lon":"121.47615","lat":"31.26993","category":"500","category_name":"未知分类","address":"上海虹口区花园路128号运动LOFT创意园区(近虹口体育馆)  "},{"poiid":"B2094757D66EABF94593","title":"小龙鱼环球双语幼儿园","lon":"121.475153503","lat":"31.2712994406","category":"253","category_name":"校园生活","address":"上海浦东新区环林东路807号"},{"poiid":"B2094757D16CAAFC4298","title":"Archiive Ltd. 亚凯科技","lon":"121.4757512","lat":"31.270933032","category":"249","category_name":"购物服务","address":"上海花园路128号，1街区A座3楼"},{"poiid":"B2094655D264A0FB459C","title":"相宜本草","lon":"121.47727","lat":"31.2696","category":"248","category_name":"生活娱乐","address":"虹口区花园路66弄1号嘉和国际大厦18-19楼(近虹口体育场)"},{"poiid":"B2094753D36FA5FA489A","title":"花园宝宝国际精品早教","lon":"121.478512","lat":"31.270633","category":"632","category_name":"教育出国类公司","address":"上海市虹口区西江湾路388号龙之梦B座4楼"},{"poiid":"B2094654DB6AAAF4469A","title":"何家宅小区(东门)","lon":"121.47683","lat":"31.27231","category":"656","category_name":"大门","address":"中山北一路131弄"},{"poiid":"B2094654D56CA6F5489F","title":"珑森棋牌","lon":"121.47539","lat":"31.26935","category":"175","category_name":"棋牌室","address":"中山北一路48号2层"},{"poiid":"B2094654D56CAAF8419B","title":"虹口区花园烟杂店","lon":"121.47602","lat":"31.27148","category":"136","category_name":"烟酒专卖店","address":""},{"poiid":"B2094655D26BA7FF469B","title":"安诚财险","lon":"121.47646","lat":"31.27033","category":"219","category_name":"其他","address":"花园路88号华博科技大楼8层"},{"poiid":"B2094757D569A3FB4198","title":"嘉富悦国际大酒店大堂吧","lon":"121.4784461","lat":"31.26954806","category":"251","category_name":"出行住宿","address":"花园路16号嘉富悦国际大酒店1层"},{"poiid":"B2094654DB6AAAFA4093","title":"嘉苑公寓(南门)","lon":"121.47652","lat":"31.26919","category":"656","category_name":"大门","address":"同鸣路206弄3-43号"},{"poiid":"B2094655D26CA7FE4899","title":"虹光公寓(北二门)","lon":"121.47685","lat":"31.26866","category":"656","category_name":"大门","address":""},{"poiid":"B2094655D26CA7F8469C","title":"嘉苑公寓(南二门)","lon":"121.47707","lat":"31.26891","category":"656","category_name":"大门","address":""},{"poiid":"B2094655D26FA0F5469B","title":"虹光公寓(北门)","lon":"121.47723","lat":"31.26853","category":"656","category_name":"大门","address":"同鸣路111弄1-9号"}]