[{"poiid":"B2094654DB6BA3FF489E","title":"旺旺火锅城(旺旺新店)","lon":"121.50295","lat":"31.25948","category":"86","category_name":"火锅店","address":"虹口区舟山路"},{"poiid":"B2094757D068A2FE479A","title":"虹口区妇幼保健院","lon":"121.5043","lat":"31.25814","category":"162","category_name":"医院","address":"虹口区舟山路445号(近周家嘴路)"},{"poiid":"B2094757D06FA5FA429E","title":"阿五涮羊肉火锅(安国路一店)","lon":"121.50567","lat":"31.25982","category":"86","category_name":"火锅店","address":"虹口区安国路280号(近周家嘴路)"},{"poiid":"B209475CD564A7F84392","title":"上海滩浦东香格里拉店","lon":"121.50058","lat":"31.23634","category":"119","category_name":"商场","address":"浦东富成路33号香格里拉酒店内大堂层"},{"poiid":"B2094654D56DA4FD489F","title":"马大姐烧烤店","lon":"121.503343","lat":"31.256401","category":"68","category_name":"快餐厅","address":"虹口区东余杭路(近公平路)"},{"poiid":"B2094757D068A0F9459E","title":"澄衷高级中学","lon":"121.50316","lat":"31.25529","category":"55","category_name":"中学","address":"虹口区东余杭路800号(近下海庙)"},{"poiid":"B2094655D36DA7F9499B","title":"周家嘴路高阳路","lon":"121.5002","lat":"31.25672","category":"38","category_name":"公交车站","address":""},{"poiid":"B2094757D069A0FC439B","title":"旺旺火锅楼(周家嘴路三店)","lon":"121.50353","lat":"31.25874","category":"86","category_name":"火锅店","address":"虹口区周家嘴路816号(舟山路口)"},{"poiid":"B2094654D56DAAFA419F","title":"紫虹嘉苑","lon":"121.50306","lat":"31.261141","category":"47","category_name":"住宅区","address":"虹口岳州路399弄"},{"poiid":"B2094757D06BA5F84993","title":"村夫烤鱼(东余杭路店)","lon":"121.50412","lat":"31.25664","category":"68","category_name":"快餐厅","address":"虹口区东余杭路907号(近公平路)"},{"poiid":"B2094757D068AAF9489A","title":"周家嘴路舟山路","lon":"121.503261","lat":"31.259006","category":"260","category_name":"其他","address":"上海虹口区周家嘴路舟山路"},{"poiid":"B2094750D76FA0FF4792","title":"尧耀沈家门海鲜(海门路店)","lon":"121.502","lat":"31.2574","category":"75","category_name":"浙江菜","address":"虹口区海门路528号(近周家嘴路)"},{"poiid":"B2094757D16BA1FD4092","title":"沈家门海鲜(周家嘴路店)","lon":"121.50458","lat":"31.25956","category":"75","category_name":"浙江菜","address":"杨浦区周家嘴路888号(近安国路)"},{"poiid":"B2094654D56DA4FE419C","title":"阿德羊肉火锅","lon":"121.50407","lat":"31.25883","category":"86","category_name":"火锅店","address":"虹口区舟山路504弄5-6号(近周家嘴路)"},{"poiid":"B2094757D069A3FD4099","title":"小孟烧烤麻辣烫(东余杭路店)","lon":"121.50416","lat":"31.25669","category":"68","category_name":"快餐厅","address":"虹口区东余杭路909号(近公平路)"},{"poiid":"B2094757D66EA1FF419C","title":"玛格萝妮餐厅","lon":"121.503051103","lat":"31.2581421657","category":"500","category_name":"未知分类","address":"上海市虹口区临平路"},{"poiid":"B2094757D06FA4F8439A","title":"九龙制造港式茶餐厅(瑞虹店)","lon":"121.50485377","lat":"31.258163743","category":"111","category_name":"休闲餐饮场所","address":"虹口区临平路133弄瑞虹生活广场2-22单元(近飞虹路)"},{"poiid":"B2094655D26FA6FA4593","title":"中虹明珠苑","lon":"121.50266","lat":"31.256445","category":"47","category_name":"住宅区","address":"上海市虹口区东余杭路809号"},{"poiid":"B2094757D065A4F84399","title":"马大姐烧烤","lon":"121.503139103","lat":"31.2557491157","category":"247","category_name":"餐饮美食","address":"上海市虹口区东余杭路公平路"},{"poiid":"B2094757D069A2FD409D","title":"福德小笼","lon":"121.5038","lat":"31.25597","category":"68","category_name":"快餐厅","address":"虹口区东余杭路862号(近海门路)"},{"poiid":"B2094757D16CA4FD459F","title":"东伶港海鲜大酒店","lon":"121.50163","lat":"31.25714","category":"71","category_name":"四川菜","address":"虹口区海门路528号(近周家嘴路)"},{"poiid":"B2094757D06FAAFF439A","title":"虹鎮老街","lon":"121.500021","lat":"31.258873","category":"500","category_name":"未知分类","address":"上海虹鎮老街"},{"poiid":"B2094655D36CA7FB429E","title":"海门路周家嘴路","lon":"121.50163","lat":"31.2572","category":"38","category_name":"公交车站","address":""},{"poiid":"B2094757D06BA3FC499A","title":"周家嘴路保定路公交车站","lon":"121.50191926","lat":"31.258267101","category":"38","category_name":"公交车站","address":"上海周家嘴路保定路"},{"poiid":"B2094753D768ABFE439C","title":"大香港甜品","lon":"121.501808","lat":"31.260797","category":"247","category_name":"餐饮美食","address":"上海市 舟山路566号"},{"poiid":"B2094757D16CA5F84399","title":"小孟烧烤","lon":"121.5035361","lat":"31.257107644","category":"247","category_name":"餐饮美食","address":"上海东余杭路909号「安国路口」"},{"poiid":"B2094655D26CA0F5429E","title":"周家嘴路750弄小区","lon":"121.50262","lat":"31.25826","category":"47","category_name":"住宅区","address":"周家嘴路750弄1-50号"},{"poiid":"B2094757D064A0FE469F","title":"提篮桥街道社区卫生服务中心海门路分中心","lon":"121.502691","lat":"31.257026","category":"500","category_name":"未知分类","address":"上海海门路456号"},{"poiid":"B2094655D26CA1FF4099","title":"旺旺羊肉火锅旺旺老店","lon":"121.50376","lat":"31.25912","category":"86","category_name":"火锅店","address":"虹口区舟山路475号(近周家嘴路)"},{"poiid":"B2094655D36CA6FD449B","title":"公平路","lon":"121.50261","lat":"31.2589","category":"38","category_name":"公交车站","address":""},{"poiid":"B2094654D56DA4F54992","title":"新抚钢大楼","lon":"121.504","lat":"31.258","category":"46","category_name":"楼宇","address":"东汉阳路455号"},{"poiid":"B2094757D06BA1F9419C","title":"东方都市景苑","lon":"121.5012","lat":"31.260063","category":"47","category_name":"住宅区","address":"上海市虹口区公平路768弄"},{"poiid":"B209475CD768A5F94092","title":"滨江大道","lon":"121.503005","lat":"31.257307","category":"500","category_name":"未知分类","address":"上海市 上海浦东滨江大道"},{"poiid":"B2094750D46BABF4489B","title":"修剪拾光美发沙龙","lon":"121.502298","lat":"31.260632","category":"249","category_name":"购物服务","address":"虹口区舟山路562号(岳州路口)"},{"poiid":"B2094654DB6BA3FF499B","title":"诸葛烤鱼食府(东余杭路)","lon":"121.50392","lat":"31.25665","category":"87","category_name":"特色／地方风味餐厅","address":"东余杭路公平路口"},{"poiid":"B2094757D06BAAFF499C","title":"湘湘小厨","lon":"121.49723625044","lat":"31.262295285682","category":"77","category_name":"湖南菜","address":"虹口区天宝路63号(近临平路)"},{"poiid":"B2094757D06AA6F5439B","title":"澳门豆捞坊(高阳店)","lon":"121.49962659","lat":"31.258649176","category":"86","category_name":"火锅店","address":"虹口区高阳路690号(近继光中学)"},{"poiid":"B2094655D26CA0F54299","title":"周家嘴路750弄小区(北门)","lon":"121.50244","lat":"31.25841","category":"47","category_name":"住宅区","address":"周家嘴路750弄1-50号"},{"poiid":"B2094753D76FA5FE499D","title":"红麻辣料理","lon":"121.501205","lat":"31.257452","category":"247","category_name":"餐饮美食","address":"上海市 物华路73号"},{"poiid":"B2094757D06BA3FA4298","title":"帝海沈家门海鲜","lon":"121.50094874946","lat":"31.255188994862","category":"76","category_name":"上海菜","address":"虹口区东余杭路716号(东余杭路高阳路)"},{"poiid":"B2094757D064A5F44892","title":"海门路周家嘴路站(公交13,103,510)","lon":"121.5031769","lat":"31.256148824","category":"38","category_name":"公交车站","address":"上海市虹口区海门路周家嘴路"},{"poiid":"B2094654D56DABFC439B","title":"宇泰公寓","lon":"121.502","lat":"31.2566","category":"47","category_name":"住宅区","address":"上海市虹口区东汉阳路338号"},{"poiid":"B2094752DB6DA0F94998","title":"夜市豆浆油条店","lon":"121.504371","lat":"31.255701","category":"247","category_name":"餐饮美食","address":"上海市 霍山路203号"},{"poiid":"B2094757D16EABFD469D","title":"舟山路幼儿园","lon":"121.50415","lat":"31.2584","category":"57","category_name":"幼儿园","address":"虹口区舟山路455号(舟山路周家嘴路)"},{"poiid":"B2094654D56DA4FD4898","title":"盈顺杂货店","lon":"121.50325","lat":"31.25683","category":"117","category_name":"便民商店/便利店","address":"周家嘴路"},{"poiid":"B2094757D66CA3FE429C","title":"临潼西村","lon":"121.5033401","lat":"31.258159166","category":"500","category_name":"未知分类","address":"上海市榆林路"},{"poiid":"B2094654D56DA4FE4999","title":"景泰酒店式商务中心","lon":"121.50111","lat":"31.25703","category":"46","category_name":"楼宇","address":"周家嘴路628号"},{"poiid":"B2094654DB6BA3F9429D","title":"彬彬餐厅","lon":"121.50115","lat":"31.25872","category":"76","category_name":"上海菜","address":"虹口区公平路684号(近周家嘴路)"},{"poiid":"B2094654D56DA4FE4192","title":"世纪华联舟山路店","lon":"121.50373","lat":"31.25885","category":"117","category_name":"便民商店/便利店","address":"舟山路467号"},{"poiid":"B2094654D56EA3FC4998","title":"全家福No.16","lon":"121.50246","lat":"31.25908","category":"117","category_name":"便民商店/便利店","address":""},{"poiid":"B2094655D26CA1FB459A","title":"通德里(北门)","lon":"121.50418","lat":"31.25844","category":"47","category_name":"住宅区","address":"舟山路429弄2-10号"},{"poiid":"B2094654DB6BA3F9489B","title":"嘉德小区(东门)","lon":"121.50211","lat":"31.25881","category":"47","category_name":"住宅区","address":"周家嘴路753弄1-23号"},{"poiid":"B2094654D56DA4FE499E","title":"绿地阳光园·顺风港","lon":"121.50141","lat":"31.25662","category":"46","category_name":"楼宇","address":"丹徒路377"},{"poiid":"B2094655D26DAAF5479D","title":"好德便利No.289","lon":"121.50284","lat":"31.25616","category":"117","category_name":"便民商店/便利店","address":"东余杭路833"},{"poiid":"B2094655D26EAAF4479A","title":"阿堂火锅","lon":"121.50373","lat":"31.25937","category":"86","category_name":"火锅店","address":"虹口区周家嘴路842号"},{"poiid":"B2094757D06AA4FD439D","title":"中石化高虹加油站","lon":"121.500729","lat":"31.25886","category":"154","category_name":"加油加气站","address":"上海周家嘴路678号(海门路公平路)"},{"poiid":"B2094655D26CA6FE4493","title":"舟山路401弄小区","lon":"121.50462","lat":"31.25785","category":"47","category_name":"住宅区","address":"舟山路401弄2-6号"},{"poiid":"B2094757D66AA7F8419E","title":"相庆缘酒家","lon":"121.50803","lat":"31.26054","category":"260","category_name":"其他","address":"虹口区东余杭路1308号(保定路口)"},{"poiid":"B2094757D169A2FA4798","title":"虹宸易居","lon":"121.50326","lat":"31.255772","category":"47","category_name":"住宅区","address":"上海市虹口区公平路469弄457,479,483号"},{"poiid":"B2094750DB64A6FC429A","title":"浦东大道地铁站","lon":"121.503166","lat":"31.255228","category":"36","category_name":"地铁站","address":null},{"poiid":"B2094757D064ABFE499A","title":"七十三家房客","lon":"121.50378352","lat":"31.258587492","category":"500","category_name":"未知分类","address":"上海临平北路"},{"poiid":"B2094757D16FABFB439A","title":"段氏龙虾(鞍山店)","lon":"121.50019546","lat":"31.25742735","category":"247","category_name":"餐饮美食","address":"上海许昌路1473号"},{"poiid":"B2094757D168A6F5439E","title":"上海银行瑞虹新城支行","lon":"121.50380259","lat":"31.258476841","category":"150","category_name":"银行","address":"虹口区临平路1号"},{"poiid":"B2094655D26EA2FD4898","title":"舟山路401弄小区(北门)","lon":"121.50477","lat":"31.25797","category":"47","category_name":"住宅区","address":"舟山路401弄2-6号"},{"poiid":"B2094757D56CABFA4898","title":"凯司令西点房 公平路店","lon":"121.500433","lat":"31.259565","category":"67","category_name":"甜品店","address":"虹口区公平路758号"},{"poiid":"B2094757D16AA6F5409F","title":"失乐园by me","lon":"121.501959903","lat":"31.2584633724","category":"500","category_name":"未知分类","address":null},{"poiid":"B2094654D56DAAFD489E","title":"博硕商务楼","lon":"121.50077","lat":"31.25871","category":"46","category_name":"楼宇","address":"公平路695号"},{"poiid":"B2094655D36CA6FD439D","title":"公平路周家嘴路","lon":"121.50007","lat":"31.25952","category":"38","category_name":"公交车站","address":""},{"poiid":"B2094757D068AAFA459F","title":"公交134路","lon":"121.50490831","lat":"31.259198062","category":"38","category_name":"公交车站","address":"上海大连路杨树浦路—彭浦新村（保德路）"},{"poiid":"B2094655D268A5FF419C","title":"515空间咖吧","lon":"121.50308","lat":"31.25661","category":"260","category_name":"其他","address":"虹口区海门路515号(近澄中高级中学)"},{"poiid":"B2094654D56FA2F4439F","title":"新阿五涮羊肉","lon":"121.50518","lat":"31.26038","category":"86","category_name":"火锅店","address":"虹口区安国路932号(安国路周家嘴路)"},{"poiid":"B2094757D66AA7F84699","title":"康盛酒家","lon":"121.50211535525","lat":"31.258602878157","category":"260","category_name":"其他","address":"虹口区周家嘴路886号(近安国路)"},{"poiid":"B2094654D56DA4FE499F","title":"景泰小区","lon":"121.50091","lat":"31.25662","category":"47","category_name":"住宅区","address":"丹徒路405"},{"poiid":"B2094654D56FA3FB429A","title":"外婆面馆","lon":"121.50267118308","lat":"31.259074123933","category":"76","category_name":"上海菜","address":"虹口区周家嘴路906号(近安国路)"},{"poiid":"B2094655D268A6F44498","title":"恭安坊","lon":"121.50511","lat":"31.25834","category":"47","category_name":"住宅区","address":"东余杭路1021弄1"},{"poiid":"B2094750DB69A2FC419A","title":"粥色特侬","lon":"121.503524","lat":"31.259828","category":"68","category_name":"快餐厅","address":"虹口区舟山路613号(近飞虹路)"},{"poiid":"B2094655D26FA0FA459D","title":"远虹大厦(北一门)","lon":"121.50022","lat":"31.25749","category":"46","category_name":"楼宇","address":"海门路609"},{"poiid":"B2094757D069A0F4469D","title":"小家","lon":"121.504415","lat":"31.258491","category":"500","category_name":"未知分类","address":"上海舟山路430號"},{"poiid":"B2094655D26CA0FA4993","title":"天厚里","lon":"121.50169","lat":"31.25943","category":"47","category_name":"住宅区","address":"岳州路288弄2-44号"},{"poiid":"B2094655D26CA7FC419F","title":"岳州路312弄小区","lon":"121.50203","lat":"31.25965","category":"47","category_name":"住宅区","address":"岳州路312弄3-34号"},{"poiid":"B2094757D16AA6F54792","title":"澳门路477号","lon":"121.502850652","lat":"31.2561164736","category":"500","category_name":"未知分类","address":"上海澳门路477号"},{"poiid":"B2094752DA6BA2F4449C","title":"上海八万人体育场","lon":"121.501488","lat":"31.254608","category":"500","category_name":"未知分类","address":"上海市 上海市上海徐汇区零陵路上海体育场"},{"poiid":"B2094655D268A6F4449B","title":"恭安坊(南门)","lon":"121.50537","lat":"31.25819","category":"47","category_name":"住宅区","address":"东余杭路1021弄1"},{"poiid":"B2094655D26DA4FB4398","title":"公平路438弄小区(西门)","lon":"121.50418","lat":"31.25576","category":"47","category_name":"住宅区","address":"公平路438弄4-12号"},{"poiid":"B2094655D264A2FA4293","title":"舟山路350弄小区","lon":"121.50576","lat":"31.25759","category":"47","category_name":"住宅区","address":"舟山路350弄1-151号"},{"poiid":"B2094655D26DA5FC4992","title":"公平路438弄小区","lon":"121.50431","lat":"31.25581","category":"47","category_name":"住宅区","address":"公平路438弄4-12号"},{"poiid":"B2094655D268A5FF4193","title":"公平里(东门)","lon":"121.50406","lat":"31.25555","category":"47","category_name":"住宅区","address":"公平路425弄4-12号"},{"poiid":"B2094655D26CA7FC419C","title":"天厚里(北门)","lon":"121.50149","lat":"31.25964","category":"47","category_name":"住宅区","address":"岳州路288弄2-44号"},{"poiid":"B2094655D26CA0F94099","title":"岳州路312弄小区(北门)","lon":"121.50183","lat":"31.25983","category":"47","category_name":"住宅区","address":"岳州路312弄3-34号"},{"poiid":"B2094757D16BA7FB4693","title":"苏州老德和羊肉馆","lon":"121.500391103","lat":"31.2587401782","category":"247","category_name":"餐饮美食","address":"上海岳州路260号"},{"poiid":"B2094757D06BA2FE479C","title":"周家嘴路保定路站(公交6,17,19,103,145,220,573)","lon":"121.505941","lat":"31.259489","category":"38","category_name":"公交车站","address":"上海市虹口区周家嘴路保定路"},{"poiid":"B2094655D265A2FE4293","title":"舟山路350弄小区(边门)","lon":"121.50566","lat":"31.25744","category":"47","category_name":"住宅区","address":"舟山路350弄1-151号"},{"poiid":"B2094757D169A5FD479A","title":"台湾精致涮涮锅","lon":"121.5006087","lat":"31.259152786","category":"247","category_name":"餐饮美食","address":"大连路970号海上海内"},{"poiid":"B2094757D568ABFD469E","title":"中皇外滩","lon":"121.500467","lat":"31.260162","category":"47","category_name":"住宅区","address":"上海市虹口区梧州路218弄"},{"poiid":"B2094655D26FA6FC409E","title":"远虹大厦(北二门)","lon":"121.49969","lat":"31.25763","category":"46","category_name":"楼宇","address":""},{"poiid":"B2094655D26DABF4439B","title":"东余杭路1051弄小区","lon":"121.50552","lat":"31.25865","category":"47","category_name":"住宅区","address":"东余杭路1051弄3-64号"},{"poiid":"B2094654D56FA2F44293","title":"英才大厦","lon":"121.50524","lat":"31.25985","category":"46","category_name":"楼宇","address":"安国路285号"},{"poiid":"B2094654D56DA4FE449C","title":"绿韵棋牌室","lon":"121.50409","lat":"31.25675","category":"175","category_name":"棋牌室","address":"东余杭路910号3层"},{"poiid":"B2094654D56FA2F4499B","title":"三铭小区","lon":"121.50558","lat":"31.255882","category":"47","category_name":"住宅区","address":"唐山路557弄1-19号"},{"poiid":"B2094655D268A0F8409E","title":"中虹明珠苑(北门)","lon":"121.5024","lat":"31.25677","category":"656","category_name":"大门","address":"东余杭路869弄1-13号"},{"poiid":"B2094655D26CA6FE4598","title":"东余杭路1051弄小区(东门)","lon":"121.50576","lat":"31.25854","category":"47","category_name":"住宅区","address":"东余杭路1051弄3-64号"},{"poiid":"B2094654D56DAAFA439A","title":"香梦丽雨旗舰店(岳州路)","lon":"121.50109","lat":"31.25968","category":"148","category_name":"美容美发店","address":"虹口区岳州路231号(近公平路)"},{"poiid":"B2094655D36DA7FC439F","title":"岳州路公平路","lon":"121.49959","lat":"31.25857","category":"38","category_name":"公交车站","address":""},{"poiid":"B2094654D56DAAFA4293","title":"虹领公寓","lon":"121.50124","lat":"31.260344","category":"47","category_name":"住宅区","address":"虹领公寓位于虹口岳州路,公平路,近周家嘴路"},{"poiid":"B2094654D56EA3FD4298","title":"蔻缇美甲彩绘坊","lon":"121.50159","lat":"31.26053","category":"148","category_name":"美容美发店","address":""},{"poiid":"B2094655D265A4F9499B","title":"铂金富邑","lon":"121.501","lat":"31.2555","category":"47","category_name":"住宅区","address":"上海市虹口区旅顺路188弄"},{"poiid":"B2094655D26CA0FE479A","title":"喜士多便利店公平门市","lon":"121.50052","lat":"31.25954","category":"117","category_name":"便民商店/便利店","address":""},{"poiid":"B2094753DA6BAAF5449D","title":"VUE BAR","lon":"121.500099","lat":"31.256498","category":"500","category_name":"未知分类","address":"上海市 外滩茂悦大酒店"},{"poiid":"B2094655D26CA6FA459C","title":"周家嘴路900弄小区(一号门)","lon":"121.50453","lat":"31.26001","category":"47","category_name":"住宅区","address":"周家嘴路900弄6-100号"},{"poiid":"B2094655D26CA0FD499C","title":"良友金伴便利连锁No.606","lon":"121.50009","lat":"31.25911","category":"117","category_name":"便民商店/便利店","address":"岳州路205号"},{"poiid":"B2094654DB6BA3F9439F","title":"光明便利No.230","lon":"121.50041","lat":"31.25958","category":"117","category_name":"便民商店/便利店","address":"公平路758"},{"poiid":"B2094654D56DAAFA449A","title":"佐登妮丝美容SPA生活馆公平路店","lon":"121.50031","lat":"31.25961","category":"148","category_name":"美容美发店","address":"公平路772"},{"poiid":"B2094654D56FA1FC489F","title":"上海东安菜场","lon":"121.50601","lat":"31.25849","category":"117","category_name":"便民商店/便利店","address":"东余杭路1062"},{"poiid":"B2094655D26AA5FB4192","title":"唐山路第一小学","lon":"121.50274","lat":"31.25501","category":"56","category_name":"小学","address":"虹口区丹徒路270号(丹徒路东余杭路)"},{"poiid":"B2094654DB6BA3F8409A","title":"虹宸易居(东门)","lon":"121.50379","lat":"31.25606","category":"48","category_name":"楼宇大门","address":"公平路469弄1-3号"},{"poiid":"B2094757D065A5FC499E","title":"周家嘴路高阳路车站","lon":"121.500559","lat":"31.256924","category":"500","category_name":"未知分类","address":"上海周家嘴路高阳路"},{"poiid":"B2094757D065A1FB419A","title":"6路周家嘴路公平路站","lon":"121.50073242","lat":"31.258859634","category":"500","category_name":"未知分类","address":"上海周家嘴路公平路"},{"poiid":"B2094654D56DAAF94892","title":"虹口耀华烟杂店","lon":"121.50299","lat":"31.2604","category":"117","category_name":"便民商店/便利店","address":"岳州路374"},{"poiid":"B2094757D064A4F8439C","title":"关爱宠物诊所","lon":"121.50304","lat":"31.26029","category":"668","category_name":"诊所","address":"虹口区岳州路377号(近舟山路)"},{"poiid":"B2094654D56DA4FF479F","title":"上海烟草集团烟酒专卖店虹029","lon":"121.50342","lat":"31.2561","category":"136","category_name":"烟酒专卖店","address":"东余杭路858"},{"poiid":"B2094757D66EA3FA429D","title":"卜峰莲花","lon":"121.500195613","lat":"31.2565689028","category":"249","category_name":"购物服务","address":"虹口区新港路(近四平路)"},{"poiid":"B2094757D165A5F94693","title":"中国银行瑞虹支行","lon":"121.501282503","lat":"31.2607398199","category":"150","category_name":"银行","address":"上海飞虹路15号"},{"poiid":"B2094655D26DA4F54193","title":"安国路297弄小区","lon":"121.50487","lat":"31.26004","category":"47","category_name":"住宅区","address":"安国路297弄1-2号"},{"poiid":"B2094751D26FA5FE439D","title":"上海桔子水晶","lon":"121.504165","lat":"31.255355","category":"500","category_name":"未知分类","address":"虹口区公平路369号"},{"poiid":"B2094757D66DA7F8409D","title":"乌托邦","lon":"121.501603103","lat":"31.2596591974","category":"500","category_name":"未知分类","address":"上海岳州路312弄10号"},{"poiid":"B2094655D26DA5FE4092","title":"路平小区(西门)","lon":"121.50455","lat":"31.25528","category":"47","category_name":"住宅区","address":"公平路402弄1-2号"},{"poiid":"B2094655D26FA7FC469F","title":"中虹明珠苑(南门)","lon":"121.50305","lat":"31.25634","category":"656","category_name":"大门","address":"东余杭路869弄1-13号"},{"poiid":"B2094655D26DA5F5429F","title":"路平小区","lon":"121.50497","lat":"31.2554","category":"47","category_name":"住宅区","address":"公平路402弄1-2号"},{"poiid":"B2094655D26CA6FA459D","title":"安国路297弄小区(一号门)","lon":"121.50485","lat":"31.26018","category":"47","category_name":"住宅区","address":"安国路297弄1-2号"},{"poiid":"B2094655D26CA6FE4592","title":"五福里","lon":"121.50622","lat":"31.25658","category":"47","category_name":"住宅区","address":"唐山路635弄3-65号"},{"poiid":"B2094757D66FA6FC479B","title":"99旅馆连锁公平店","lon":"121.500333153","lat":"31.2582894187","category":"500","category_name":"未知分类","address":"上海公平路761"},{"poiid":"B2094654D56DA4FF469D","title":"帝海酒店","lon":"121.501","lat":"31.25532","category":"250","category_name":"公园户外","address":"虹口区东余杭路716号"},{"poiid":"B2094654D56DA4FF459A","title":"光明新鲜屋丹徒路店","lon":"121.50296","lat":"31.25445","category":"117","category_name":"便民商店/便利店","address":""},{"poiid":"B2094757D66CA0FD4893","title":"公平路","lon":"121.50058185","lat":"31.259178787","category":"500","category_name":"未知分类","address":"上海公平路home"},{"poiid":"B2094655D26DABFB4299","title":"三益村","lon":"121.50592","lat":"31.25601","category":"47","category_name":"住宅区","address":"唐山路599弄"},{"poiid":"B2094655D26FA0F4429E","title":"紫虹嘉苑(南门)","lon":"121.50339","lat":"31.26104","category":"47","category_name":"住宅区","address":"岳州路399弄"},{"poiid":"B2094757D16DA1F94298","title":"D8桌球会馆","lon":"121.50556621","lat":"31.257498102","category":"248","category_name":"生活娱乐","address":"上海舟山路"},{"poiid":"B2094757D16CA4F54098","title":"丹徒路小学","lon":"121.50317","lat":"31.25456","category":"56","category_name":"小学","address":"虹口区丹徒路140号(丹徒路东余杭路)"},{"poiid":"B2094654DB6BA3FF499F","title":"中虹明珠苑(西门)","lon":"121.50172","lat":"31.25663","category":"656","category_name":"大门","address":""},{"poiid":"B2094757D16FA2F84993","title":"麗站美甲","lon":"121.502394","lat":"31.26017","category":"148","category_name":"美容美发店","address":"上海舟山路580號"},{"poiid":"B2094757D06BA1FA4792","title":"wing's home","lon":"121.5054691","lat":"31.256046121","category":"500","category_name":"未知分类","address":null},{"poiid":"B2094654DB6BA3FF4998","title":"景泰小区(东门)","lon":"121.5013","lat":"31.25681","category":"656","category_name":"大门","address":"丹徒路405"},{"poiid":"B2094655D26CA6FD4999","title":"华维桌球房","lon":"121.50524","lat":"31.25985","category":"171","category_name":"台球厅","address":"虹口区周家嘴路安国路285号3楼(安国路周家嘴路)"},{"poiid":"B2094757D16EA7FA469C","title":"751路(终点站)","lon":"121.499596","lat":"31.258575","category":"500","category_name":"未知分类","address":"上海岳州路公平路"},{"poiid":"B2094654D56DABF44299","title":"足益轻","lon":"121.50006","lat":"31.25908","category":"149","category_name":"洗浴推拿场所","address":"岳州路203"},{"poiid":"B2094757D06BAAFD4099","title":"君岸商务楼2F","lon":"121.4995837","lat":"31.257570053","category":"252","category_name":"楼宇机构","address":null},{"poiid":"B2094655D268A2FC4698","title":"景泰小区(北门)","lon":"121.50083","lat":"31.25686","category":"656","category_name":"大门","address":"丹徒路405"},{"poiid":"B2094655D26FA0FE4592","title":"虹领公寓(南门)","lon":"121.50161","lat":"31.26011","category":"48","category_name":"楼宇大门","address":""},{"poiid":"B2094757D065A4F84698","title":"建行周家嘴路支行","lon":"121.504374","lat":"31.260636","category":"500","category_name":"未知分类","address":"上海周家嘴路安国路"},{"poiid":"B2094757D165A0FD4193","title":"养慈坊","lon":"121.5009881","lat":"31.260390212","category":"500","category_name":"未知分类","address":"上海市虹口区岳州路78弄"},{"poiid":"B2094654D56DA4FA459A","title":"上海雷允上北区药业股份有限公司","lon":"121.50102","lat":"31.25489","category":"263","category_name":"公司","address":"高阳路396-398号"},{"poiid":"B2094654D56EA3FD439A","title":"成成棋牌室(周家嘴路)","lon":"121.50415","lat":"31.26031","category":"175","category_name":"棋牌室","address":"周家嘴路901号2层"},{"poiid":"B2094757D064A7F8449D","title":"丹徒路东余杭路","lon":"121.50103343","lat":"31.255130786","category":"260","category_name":"其他","address":"上海丹徒路东余杭路"},{"poiid":"B2094655D26CA1F4499C","title":"东方都市景苑(东门)","lon":"121.50125","lat":"31.25986","category":"656","category_name":"大门","address":"岳州路227、235"},{"poiid":"B2094655D26FA0F5459E","title":"虹岳小区(东门)","lon":"121.49996","lat":"31.25901","category":"656","category_name":"大门","address":"岳州路173弄1-3号"},{"poiid":"B2094654D56FA1FC499C","title":"阿根炒菜店","lon":"121.5006","lat":"31.25526","category":"260","category_name":"其他","address":"虹口区东余杭路(近舟山路)"},{"poiid":"B2094757D568A0F8499B","title":"环亚大酒店","lon":"121.5044783","lat":"31.25481677","category":"251","category_name":"出行住宿","address":"公平路369号"},{"poiid":"B2094655D26DABFF499D","title":"虹岳小区(北门)","lon":"121.49994","lat":"31.25935","category":"656","category_name":"大门","address":"公平路751弄1-4号"},{"poiid":"B2094654DB6BA3F9439E","title":"东方都市景苑(南门)","lon":"121.50025","lat":"31.25976","category":"656","category_name":"大门","address":"公平路768弄1-10号"}]