[{"poiid":"B2094757D06EAAF8449E","title":"曲阳路地铁站","lon":"121.49069713","lat":"31.276512768","category":"36","category_name":"地铁站","address":"上海轨道交通 八号线 轨交曲阳路站 8"},{"poiid":"B2094752D364A5F9489F","title":"居食屋和民(虹口凯德龙之梦店)","lon":"121.491485","lat":"31.277919","category":"95","category_name":"日本料理","address":"虹口区西江湾路388号虹口凯德龙之梦6楼(近花园路)"},{"poiid":"B2094757D06FA5FC4692","title":"大连西路曲阳路","lon":"121.488515","lat":"31.27648","category":"500","category_name":"未知分类","address":"上海100。959。70。937。751。310。79。848。"},{"poiid":"B2094757D06FA6FF4493","title":"北郊高级中学","lon":"121.48976","lat":"31.2753","category":"55","category_name":"中学","address":"虹口区曲阳路497号(近大连西路)"},{"poiid":"B2094757D06FA3FB469C","title":"欧阳花苑","lon":"121.49108","lat":"31.272671","category":"47","category_name":"住宅区","address":"上海虹口区曲阳路385弄"},{"poiid":"B2094654D56CA7FF499C","title":"红城阁","lon":"121.49215","lat":"31.27108","category":"76","category_name":"上海菜","address":"虹口区曲阳路239号(近四平路)"},{"poiid":"B2094757D068A7FD4193","title":"上海市社会保险基金管理中心","lon":"121.492274","lat":"31.270805","category":"500","category_name":"未知分类","address":"上海曲阳路179号"},{"poiid":"B2094655D36CA2F94098","title":"曲阳路祥德路","lon":"121.49199","lat":"31.2722","category":"38","category_name":"公交车站","address":""},{"poiid":"B2094654DB6AAAF84398","title":"大连新村小区","lon":"121.49335","lat":"31.27489","category":"47","category_name":"住宅区","address":"大连西路201弄7-54号、215弄1-17号、221弄1-8"},{"poiid":"B2094757D06FABFC4498","title":"祥德路欧阳路","lon":"121.491545","lat":"31.271189","category":"47","category_name":"住宅区","address":"上海祥德路欧阳路"},{"poiid":"B2094654DB6AAAF84399","title":"祥东小区","lon":"121.49424","lat":"31.27349","category":"47","category_name":"住宅区","address":"天宝西路242弄1-41号、4弄1-13号、268号"},{"poiid":"B2094757D16DA1FC439D","title":"欧阳路派出所","lon":"121.4920234","lat":"31.274508287","category":"609","category_name":"警察局","address":"上海天宝西路277号"},{"poiid":"B2094654DB6AAAF8459C","title":"上岛咖啡(曲阳店)","lon":"121.49298","lat":"31.27155","category":"260","category_name":"其他","address":"虹口区曲阳路118弄28号3楼(近祥德路)"},{"poiid":"B2094654D56CA0FC4799","title":"大西小区","lon":"121.49454","lat":"31.275146","category":"47","category_name":"住宅区","address":"大连西路195弄1-12号,165弄1-29号"},{"poiid":"B2094757D06BA4FC4593","title":"象山海鲜","lon":"121.488563533","lat":"31.2736898305","category":"500","category_name":"未知分类","address":"虹口区山阴路175号(近四川北路)"},{"poiid":"B2094655D36DA6FE4292","title":"曲阳路","lon":"121.49071","lat":"31.27652","category":"38","category_name":"公交车站","address":""},{"poiid":"B2094752DA6CA6FC419F","title":"虹口足球场","lon":"121.490775","lat":"31.276519","category":"250","category_name":"公园户外","address":null},{"poiid":"B2094654D56CA0FD419C","title":"大连新村第二小区","lon":"121.49257","lat":"31.27394","category":"47","category_name":"住宅区","address":"天宝西路252弄1-19号"},{"poiid":"B2094654D56CA0FC459C","title":"上海市工商行政管理局虹口分局检查支队","lon":"121.4919","lat":"31.27465","category":"250","category_name":"公园户外","address":"天宝西路279"},{"poiid":"B2094655D26BA4FA439D","title":"曲阳住宅楼","lon":"121.49179","lat":"31.27357","category":"47","category_name":"住宅区","address":"曲阳住宅楼位于虹口曲阳路428弄"},{"poiid":"B2094655D26DAAFB4498","title":"曲阳路428弄小区","lon":"121.49179","lat":"31.27357","category":"47","category_name":"住宅区","address":"曲阳路428弄1-8号"},{"poiid":"B2094654D56CA0FD4298","title":"好德便利No.690","lon":"121.4911","lat":"31.27437","category":"117","category_name":"便民商店/便利店","address":"曲阳路452"},{"poiid":"B2094655D26AA6F8469C","title":"BoardCraft桌游名人店","lon":"121.49121","lat":"31.27419","category":"247","category_name":"餐饮美食","address":"虹口区曲阳路440号东渡名人大厦2104室(近大连西路)"},{"poiid":"B2094752DB6BA2FF409E","title":"麻辣诱惑","lon":"121.492536","lat":"31.273477","category":"247","category_name":"餐饮美食","address":"上海市 虹口龙之梦"},{"poiid":"B2094654D56CA0FC459F","title":"嘉兴工商所","lon":"121.49191","lat":"31.27465","category":"250","category_name":"公园户外","address":"天宝西路279"},{"poiid":"B2094655D26FA0F84799","title":"飘鹰东方花园","lon":"121.49414","lat":"31.271051","category":"47","category_name":"住宅区","address":"上海曲阳路118弄"},{"poiid":"B2094655D26CA0F44092","title":"天宝西路248弄小区","lon":"121.4932","lat":"31.27391","category":"47","category_name":"住宅区","address":"天宝西路248弄"},{"poiid":"B2094750D768A2FC489A","title":"群龙无首小菜","lon":"121.493","lat":"31.2719","category":"76","category_name":"上海菜","address":"虹口区曲阳路158号瑞峰商务楼105-106室(近祥德路)"},{"poiid":"B2094753D569A2FF499C","title":"candy master 糖果大师","lon":"121.492334","lat":"31.274752","category":"500","category_name":"未知分类","address":"虹口区四川北路1363号壹丰广场B2楼18号铺"},{"poiid":"B2094654D56CA0F84998","title":"子衡瑜珈","lon":"121.49117","lat":"31.27425","category":"221","category_name":"健身中心","address":"虹口区曲阳路440号22楼(近天宝西路)"},{"poiid":"B2094751DB64A0FD4398","title":"东吴一品大酒楼","lon":"121.49286","lat":"31.27156","category":"72","category_name":"广东菜","address":"虹口区曲阳路158号(近祥德路)"},{"poiid":"B2094655D26DA6FF4992","title":"曲阳路428弄小区(西门)","lon":"121.49143","lat":"31.27347","category":"47","category_name":"住宅区","address":"曲阳路428弄1-8号"},{"poiid":"B2094655D26CA0F4429B","title":"甜爱别墅","lon":"121.49215058598","lat":"31.277001639697","category":"47","category_name":"住宅区","address":"祥德路96弄35-41号"},{"poiid":"B2094752D46CA5FD419D","title":"物心 | K11","lon":"121.49259","lat":"31.274964","category":"249","category_name":"购物服务","address":"上海市黄浦区淮海中路300号K11购物艺术中心308"},{"poiid":"B2094655D26FA0F4419D","title":"东渡名人大厦(西门)","lon":"121.49115","lat":"31.274","category":"48","category_name":"楼宇大门","address":"曲阳路440号"},{"poiid":"B2094654D56CA0F8469B","title":"大二小区","lon":"121.4929","lat":"31.27334","category":"47","category_name":"住宅区","address":"天宝西路248弄1-5号"},{"poiid":"B2094757D069A3FA429A","title":"悦华小区","lon":"121.490817","lat":"31.2741978","category":"47","category_name":"住宅区","address":"上海虹口区曲阳路428弄"},{"poiid":"B2094654D56CA1FA419F","title":"曲阳大楼","lon":"121.49091","lat":"31.277754","category":"47","category_name":"住宅区","address":"铁西区铁西兴华街与南十中路交处(兴华南街48号)"},{"poiid":"B2094654D56CA0F84799","title":"永琪美容美发(曲阳路)","lon":"121.49231","lat":"31.27206","category":"148","category_name":"美容美发店","address":"曲阳路258"},{"poiid":"B2094757D66CA4FC489D","title":"虹口区公安消防支队","lon":"121.4920111","lat":"31.273613489","category":"500","category_name":"未知分类","address":"上海市虹口区曲阳路"},{"poiid":"B2094655D26FA4FE4893","title":"嘉兰大厦","lon":"121.488","lat":"31.2741","category":"46","category_name":"楼宇","address":"四川北路2261、2263号"},{"poiid":"B2094655D26DABFA4993","title":"天宝西路248弄小区(北门)","lon":"121.49341","lat":"31.27413","category":"47","category_name":"住宅区","address":"天宝西路248弄"},{"poiid":"B2094655D26EA5FC489B","title":"艾耀国创刊号报纸博物馆","lon":"121.49335","lat":"31.27489","category":"182","category_name":"博物馆","address":"虹口区大连西路201弄50号405室"},{"poiid":"B2094654D56CA7F84898","title":"欧阳花苑(东门)","lon":"121.49101","lat":"31.27314","category":"47","category_name":"住宅区","address":"曲阳路385弄1-7号"},{"poiid":"B2094655D26EA2F9489F","title":"祥德路500弄小区","lon":"121.49285","lat":"31.27312","category":"47","category_name":"住宅区","address":"祥德路500弄1-5号"},{"poiid":"B2094655D26CA0F44192","title":"曲阳路455弄小区","lon":"121.49061","lat":"31.27352","category":"47","category_name":"住宅区","address":"曲阳路455弄1-3号"},{"poiid":"B2094757D66BA5FA4593","title":"美基饺子馆","lon":"121.49200877277","lat":"31.271969204655","category":"68","category_name":"快餐厅","address":"虹口区曲阳路296号(近祥德路)"},{"poiid":"B2094655D26FA0F4419F","title":"大二小区(东门)","lon":"121.49337","lat":"31.27316","category":"47","category_name":"住宅区","address":"天宝西路248弄1-5号"},{"poiid":"B2094757D06BA2F8449E","title":"北郊小区","lon":"121.49004","lat":"31.274565","category":"47","category_name":"住宅区","address":"上海虹口区曲阳路487弄"},{"poiid":"B2094757D06BA4FD479B","title":"上海市公积金管理中心","lon":"121.491546631","lat":"31.2721328735","category":"500","category_name":"未知分类","address":"上海曲阳路299号"},{"poiid":"B2094757D06BA3F84292","title":"鑫旺府","lon":"121.49156","lat":"31.27253","category":"247","category_name":"餐饮美食","address":"上海虹口区曲阳路379号(近详德路)  "},{"poiid":"B2094757D568ABFD419A","title":"上海市虹口区大连新村幼儿园","lon":"121.493103","lat":"31.275526","category":"57","category_name":"幼儿园","address":"虹口区大连西路201弄36号甲(近曲阳路)"},{"poiid":"B2094655D265A2FB4098","title":"欧阳路街道残疾人康复服务指导站","lon":"121.4939","lat":"31.27358","category":"162","category_name":"医院","address":"祥德路577"},{"poiid":"B2094655D26CA0FD4398","title":"优抚园(南门)","lon":"121.49391","lat":"31.27445","category":"47","category_name":"住宅区","address":"天宝西路241弄1-31号"},{"poiid":"B2094654D56CA7F9439F","title":"晶钻博华","lon":"121.49","lat":"31.2734","category":"47","category_name":"住宅区","address":"甜爱路128弄1-4号"},{"poiid":"B2094654D56CA0FC4499","title":"奇趣珠艺DIY","lon":"121.49133","lat":"31.27461","category":"248","category_name":"生活娱乐","address":""},{"poiid":"B2094655D26CA1F8469B","title":"优抚园","lon":"121.49429","lat":"31.274937","category":"47","category_name":"住宅区","address":"天宝西路241弄1-31号"},{"poiid":"B2094655D26AA0FA419E","title":"地铁曲阳路站","lon":"121.49071","lat":"31.27652","category":"36","category_name":"地铁站","address":""},{"poiid":"B2094757D168A5FC429A","title":"曉♥窩","lon":"121.4924409","lat":"31.275263723","category":"500","category_name":"未知分类","address":null},{"poiid":"B2094655D26CA1FA429D","title":"祥德路500弄小区(东门)","lon":"121.49327","lat":"31.2729","category":"47","category_name":"住宅区","address":"祥德路500弄1-5号"},{"poiid":"B2094757D064A1F54993","title":"木子麻雀","lon":"121.49404","lat":"31.27406","category":"149","category_name":"洗浴推拿场所","address":"虹口区天宝路59弄19号1楼(近物华路)"},{"poiid":"B2094655D26CA1F44593","title":"大三小区","lon":"121.491105","lat":"31.27539","category":"47","category_name":"住宅区","address":"大连西路221弄"},{"poiid":"B2094757D66DA7FA4593","title":"_H&amp;W House!!!","lon":"121.492763103","lat":"31.273087478","category":"500","category_name":"未知分类","address":"上海市虹口区天宝西路242弄"},{"poiid":"B2094750D664A5FD489D","title":"老顺昌汤包馆","lon":"121.493","lat":"31.2719","category":"68","category_name":"快餐厅","address":"虹口区曲阳路158号(近祥德路)"},{"poiid":"B2094655D26DABF5499D","title":"祥德路480弄小区(东门)","lon":"121.49322","lat":"31.27266","category":"47","category_name":"住宅区","address":"祥德路480弄1-3号"},{"poiid":"B2094655D26CA1F94298","title":"祥德路480弄小区","lon":"121.49295","lat":"31.27252","category":"47","category_name":"住宅区","address":"祥德路480弄1-3号"},{"poiid":"B2094654D56CA0F8459F","title":"瑞峰商务","lon":"121.49339","lat":"31.27214","category":"46","category_name":"楼宇","address":"曲阳路158号"},{"poiid":"B2094750DA65A3FA489E","title":"欧阳路","lon":"121.489891","lat":"31.273492","category":"500","category_name":"未知分类","address":null},{"poiid":"B2094751D469A1FA409F","title":"PXⅡ酒吧","lon":"121.49354865","lat":"31.27349514","category":"248","category_name":"生活娱乐","address":"四平路775弄1号楼"},{"poiid":"B2094655D26FA6FF429B","title":"天宝公寓","lon":"121.48923","lat":"31.274361","category":"47","category_name":"住宅区","address":"天宝公寓位于虹口曲阳路487弄15号"},{"poiid":"B2094757D06AABFA4499","title":"虹口区职业技术培训中心","lon":"121.48996","lat":"31.275294","category":"253","category_name":"校园生活","address":"上海曲阳路489弄8号"},{"poiid":"B2094757D16BA5FB449C","title":"德阳花苑","lon":"121.491952103","lat":"31.271464444","category":"47","category_name":"住宅区","address":"德阳花苑位于虹口曲阳路269弄"},{"poiid":"B2094655D26CA0FE4299","title":"虹口区密云学校","lon":"121.49478","lat":"31.27376","category":"56","category_name":"小学","address":"虹口区天宝西路242弄40号"},{"poiid":"B2094750D76EA4F54592","title":"味多美(大连西路店)","lon":"121.489","lat":"31.2764","category":"112","category_name":"糕饼店","address":"虹口区大连西路247号(近曲阳路)"},{"poiid":"B2094654D56CA0FD429C","title":"虹连大楼","lon":"121.49413","lat":"31.276159","category":"47","category_name":"住宅区","address":"上海大连西路201弄1号"},{"poiid":"B2094757D064A1FD429A","title":"天宝西路烧烤摊","lon":"121.49601","lat":"31.27442","category":"68","category_name":"快餐厅","address":"虹口区天宝西路邮政局门口(天宝西路祥德路)"},{"poiid":"B2094757D16FA6F5409B","title":"天宝西路水果摊","lon":"121.49385833","lat":"31.274393081","category":"500","category_name":"未知分类","address":"上海虹口区天宝西路247号"},{"poiid":"B2094757D16CA3F5499C","title":"上外生活区","lon":"121.49185943","lat":"31.277566909","category":"500","category_name":"未知分类","address":"上海东体育会路411号"},{"poiid":"B2094757D66DA5FB4393","title":"虹口区劳动仲裁","lon":"121.493047","lat":"31.272383","category":"500","category_name":"未知分类","address":"上海祥德路468号"},{"poiid":"B2094757D16FA1FD4798","title":"937路大连西路东体育会路站","lon":"121.4905451","lat":"31.2765491","category":"38","category_name":"公交车站","address":"上海大连西路(上外门口)"},{"poiid":"B2094757D16CA0FB459F","title":"养心殿","lon":"121.490864603","lat":"31.2727835716","category":"500","category_name":"未知分类","address":"上海曲阳路"},{"poiid":"B2094757D068A2F5479E","title":"全家便利曲阳医院店","lon":"121.49152686","lat":"31.276936898","category":"117","category_name":"便民商店/便利店","address":"上海虹口区玉田路333号"},{"poiid":"B2094757D16EA2F9499B","title":"文峰美容美发(曲阳店)","lon":"121.4915426","lat":"31.272355062","category":"148","category_name":"美容美发店","address":"上海曲阳路267号"},{"poiid":"B2094654D56CA0FD419D","title":"大连新村第二小区(北门)","lon":"121.4928","lat":"31.2742","category":"656","category_name":"大门","address":"天宝西路252弄1-19号"},{"poiid":"B2094751D364A5F84899","title":"彭浦夜市","lon":"121.493859","lat":"31.270961","category":"247","category_name":"餐饮美食","address":"闻喜路"},{"poiid":"B2094655D26CA1F4469B","title":"大三小区(南门)","lon":"121.49113","lat":"31.27464","category":"656","category_name":"大门","address":"天宝西路299弄1-9号"},{"poiid":"B2094752D565AAFD449E","title":"西缇牛排","lon":"121.488663","lat":"31.272049","category":"247","category_name":"餐饮美食","address":"虹口足球场龙之梦5楼"},{"poiid":"B2094654DB6AAAF8439F","title":"虹连大楼(北门)","lon":"121.49389","lat":"31.2763","category":"47","category_name":"住宅区","address":"大连西路201弄1"},{"poiid":"B2094654D56CA0F8459B","title":"好德便利No.986","lon":"121.49294","lat":"31.27145","category":"117","category_name":"便民商店/便利店","address":"曲阳路"},{"poiid":"B2094654D56CA0FC469B","title":"大连新村小区(南门)","lon":"121.49299","lat":"31.27456","category":"656","category_name":"大门","address":"天宝西路251弄6-7号、299弄1-9号"},{"poiid":"B2094654DB69A5FC4792","title":"福奈特洗衣(曲阳路店)","lon":"121.49219","lat":"31.27226","category":"249","category_name":"购物服务","address":"虹口区曲阳路268-272号(近四平路)"},{"poiid":"B2094655D26CA0F8439F","title":"祥德路274弄小区","lon":"121.4897","lat":"31.27136","category":"47","category_name":"住宅区","address":"祥德路274弄1-220号"},{"poiid":"B2094655D26FA0FD4198","title":"虹鹰大楼","lon":"121.488","lat":"31.2732","category":"46","category_name":"楼宇","address":"黄渡路74,80"},{"poiid":"B2094655D26CA0F4419D","title":"曲阳路455弄小区(东一门)","lon":"121.4909","lat":"31.27344","category":"656","category_name":"大门","address":"曲阳路455弄1-3号"},{"poiid":"B2094757D168AAFA419E","title":"79路平凉路大连路终点站","lon":"121.495096103","lat":"31.2759455377","category":"38","category_name":"公交车站","address":"上海平凉路(近大连路)"},{"poiid":"B2094654D56CA0F84598","title":"农工商超市No.130","lon":"121.49295","lat":"31.27152","category":"118","category_name":"超级市场","address":"曲阳路"},{"poiid":"B2094757D169A1F54092","title":"13CC's 屋企","lon":"121.494161103","lat":"31.2720664566","category":"247","category_name":"餐饮美食","address":"上海市虹口区曲阳路祥德路"},{"poiid":"B2094757D06BA4F5419F","title":"梦境","lon":"121.4903561","lat":"31.272301461","category":"500","category_name":"未知分类","address":"未知"},{"poiid":"B2094654D56CA7F84492","title":"磊博商务楼","lon":"121.49166","lat":"31.271","category":"46","category_name":"楼宇","address":"祥德路383"},{"poiid":"B2094655D265A1F4449B","title":"京世造型·美容","lon":"121.49326","lat":"31.27054","category":"148","category_name":"美容美发店","address":""},{"poiid":"B2094757D069A4FE409A","title":"大连新村","lon":"121.493652","lat":"31.276257","category":"252","category_name":"楼宇机构","address":"上海大连西路201弄"},{"poiid":"B2094757D069A7F54492","title":"工作ing","lon":"121.4902886","lat":"31.272534966","category":"500","category_name":"未知分类","address":"上海工作状态"},{"poiid":"B2094654D56CA0FD439C","title":"良友金伴便利连锁No.139","lon":"121.49507","lat":"31.27624","category":"117","category_name":"便民商店/便利店","address":"虹口区大连西路197号(近曲阳路)"},{"poiid":"B2094757D16FA6F5449D","title":"123路(区间)玉田路曲阳路站","lon":"121.4902316","lat":"31.276243043","category":"500","category_name":"未知分类","address":"上海市虹口区玉田路近曲阳路"},{"poiid":"B2094757D16BAAF5439C","title":"兴业公寓","lon":"121.48904","lat":"31.275259","category":"500","category_name":"未知分类","address":"兴业公寓位于虹口曲阳路489弄2号"},{"poiid":"B2094655D26CA1FD439D","title":"兴业公寓(东门)","lon":"121.49021","lat":"31.27519","category":"48","category_name":"楼宇大门","address":"曲阳路489弄2-8号"},{"poiid":"B2094757D065A4FC499C","title":"李子の家","lon":"121.4906335","lat":"31.2763225347","category":"500","category_name":"未知分类","address":null},{"poiid":"B2094655D26CA0FE4292","title":"曲阳路455弄小区(东二门)","lon":"121.49076","lat":"31.2737","category":"656","category_name":"大门","address":"曲阳路465弄1-2号"},{"poiid":"B2094655D26FA0FC4599","title":"北郊小区(东二门)","lon":"121.49024","lat":"31.27471","category":"656","category_name":"大门","address":"曲阳路487弄1-14号"},{"poiid":"B2094655D26CA1F8489E","title":"上海市虹口区幸福四平实验小学","lon":"121.49421","lat":"31.27166","category":"56","category_name":"小学","address":"虹口区四平路621弄100号"},{"poiid":"B2094753D165A5FA4598","title":"3D魔幻趣味馆","lon":"121.494893","lat":"31.273048","category":"500","category_name":"未知分类","address":"上海市 滨江大道2727号对面"},{"poiid":"B2094655D269AAF8499E","title":"雷允上药房大连西路店","lon":"121.49444","lat":"31.27662","category":"247","category_name":"餐饮美食","address":"虹口区大连西路86号(近密云路)"},{"poiid":"B2094757D16DA7F8499F","title":"老盛兴汤包馆","lon":"121.490597103","lat":"31.2712474395","category":"247","category_name":"餐饮美食","address":"上海市虹口区祥德路"},{"poiid":"B2094757D16DABFF4999","title":"贱贱6人组","lon":"121.4903426","lat":"31.272299461","category":"500","category_name":"未知分类","address":"上海三多~患患~洪爷~草莓~小白~亲亲"},{"poiid":"B2094757D169A5FB4798","title":"HoMe、","lon":"121.4946581","lat":"31.27561153","category":"500","category_name":"未知分类","address":null},{"poiid":"B2094654DB6AAAF8499D","title":"北郊小区(东一门)","lon":"121.49033","lat":"31.27447","category":"656","category_name":"大门","address":"曲阳路483弄1-3号"},{"poiid":"B2094654DB69A6F8439C","title":"上海市虹口区教育学院附中","lon":"121.48893","lat":"31.27149","category":"55","category_name":"中学","address":"虹口区祥德路274弄22号"},{"poiid":"B2094757D06AA0F8479F","title":"上海职业介绍虹口分中心","lon":"121.492242","lat":"31.270854","category":"500","category_name":"未知分类","address":"上海曲阳路191号"},{"poiid":"B2094655D26FA7FA419E","title":"玉四小区","lon":"121.49188","lat":"31.278299","category":"47","category_name":"住宅区","address":"玉田路311弄1-27号"},{"poiid":"B2094655D26CA7FC479C","title":"邮电公寓","lon":"121.48976","lat":"31.277052","category":"47","category_name":"住宅区","address":"曲阳路501号"},{"poiid":"B2094757D064A2FF479E","title":"银历大厦","lon":"121.49444143","lat":"31.275702866","category":"252","category_name":"楼宇机构","address":"上海市闸北区河南北路485号"},{"poiid":"B2094654D56CA0FD4798","title":"良友金伴便利连锁No.357","lon":"121.49588","lat":"31.27279","category":"117","category_name":"便民商店/便利店","address":"密云路243"},{"poiid":"B2094752D66DA2F94699","title":"上海海事大学","lon":"121.489526","lat":"31.276273","category":"500","category_name":"未知分类","address":"上海市，浦东新区，临港大道"},{"poiid":"B2094654D56CA7FF4998","title":"宏城公寓","lon":"121.49235","lat":"31.270332","category":"47","category_name":"住宅区","address":"曲阳路163-167"},{"poiid":"B2094655D26CA1FA479D","title":"欧阳路555弄小区","lon":"121.48789","lat":"31.27373","category":"47","category_name":"住宅区","address":"欧阳路555弄1-6号"},{"poiid":"B2094655D26DA4FB469B","title":"祥德路274弄小区(南门)","lon":"121.48989","lat":"31.27112","category":"47","category_name":"住宅区","address":"祥德路274弄1-220号"},{"poiid":"B2094654D56CA0FC479E","title":"大西小区(南门)","lon":"121.49391","lat":"31.27445","category":"656","category_name":"大门","address":"天宝西路241弄1-31号"},{"poiid":"B2094757D168A5F84893","title":"116曲阳总点站","lon":"121.4880411","lat":"31.27561953","category":"500","category_name":"未知分类","address":"上海玉田支路"},{"poiid":"B2094655D26FA0FB449A","title":"宝莲大厦(东二门)","lon":"121.49157","lat":"31.27238","category":"656","category_name":"大门","address":"曲阳路299号"},{"poiid":"B2094655D26DA5FC4998","title":"大连新村小区(北二门)","lon":"121.49149","lat":"31.27617","category":"656","category_name":"大门","address":"大连西路215弄1-17号"},{"poiid":"B2094655D26CA1F4469A","title":"大连新村小区(北一门)","lon":"121.49327","lat":"31.27594","category":"656","category_name":"大门","address":"大连西路201弄7-54号、215弄1-17号、221弄1-8号"},{"poiid":"B2094654D56CA7FF4993","title":"金钵桌球俱乐部","lon":"121.49213","lat":"31.27113","category":"171","category_name":"台球厅","address":"虹口区曲阳路239号3楼(近祥德路)"},{"poiid":"B2094654D56CA0FD4293","title":"上海市虹口新闻传媒中心","lon":"121.4946","lat":"31.27601","category":"252","category_name":"楼宇机构","address":"大连西路195弄12号"},{"poiid":"B2094757D568A7F84793","title":"炘锐软件专卖","lon":"121.49369","lat":"31.27668306","category":"249","category_name":"购物服务","address":"虹口区大连西路90号(近曲阳路)"},{"poiid":"B2094757D16DA1FF439A","title":"上海市学生艺术舞蹈团","lon":"121.488903103","lat":"31.2765755509","category":"500","category_name":"未知分类","address":"上海市虹口区大连西路235号"},{"poiid":"B2094655D26CA1FA489B","title":"祥德路311弄小区(北门)","lon":"121.48964","lat":"31.2708","category":"47","category_name":"住宅区","address":"祥德路311弄1-8号"},{"poiid":"B2094655D26CA0F84399","title":"谭家桥(北门)","lon":"121.48967","lat":"31.27078","category":"47","category_name":"住宅区","address":"祥德路谭家桥6-52号"},{"poiid":"B2094752D169A5FF4192","title":"巴黎春天五角场店","lon":"121.490188","lat":"31.277022","category":"500","category_name":"未知分类","address":null},{"poiid":"B2094753D66BA4F84893","title":"瑞金医院总院","lon":"121.493621","lat":"31.277515","category":"500","category_name":"未知分类","address":"上海市 上海市瑞金二路197号"},{"poiid":"B2094654DB6AAAF8459D","title":"大连新村第二小区(东门)","lon":"121.49293","lat":"31.27217","category":"656","category_name":"大门","address":"祥德路450弄1-10号"},{"poiid":"B2094750DB6AABFD429F","title":"上外","lon":"121.489791","lat":"31.277496","category":"500","category_name":"未知分类","address":"大连西路544弄"},{"poiid":"B2094654DB64A7FA499B","title":"美基酒吧","lon":"121.48886","lat":"31.27635","category":"172","category_name":"酒吧","address":"大连西路251"},{"poiid":"B2094757D064A7FC4899","title":"B705","lon":"121.49129196","lat":"31.277437535","category":"500","category_name":"未知分类","address":"上海国顺东路"},{"poiid":"B2094757D165A6F94998","title":"鼓浪屿别墅酒店","lon":"121.4895516","lat":"31.271687948","category":"217","category_name":"旅馆招待所","address":"上海厦门鼓浪屿鼓声路14号"},{"poiid":"B2094655D26FA7F84599","title":"祥东小区(北一门)","lon":"121.49456","lat":"31.27401","category":"656","category_name":"大门","address":"天宝西路242弄1-41号、4弄1-13号、268号"},{"poiid":"B2094655D26CA1F84699","title":"宝莲大厦(东一门)","lon":"121.49176","lat":"31.27206","category":"656","category_name":"大门","address":""},{"poiid":"B2094654D56CA7F8459E","title":"德阳花苑(东门)","lon":"121.49175","lat":"31.27202","category":"656","category_name":"大门","address":"曲阳路269弄1-8号"},{"poiid":"B2094757D16CA4FD419B","title":"La Maison de Rickey","lon":"121.4933941","lat":"31.277455569","category":"500","category_name":"未知分类","address":"上海市虹口区玉田路"},{"poiid":"B2094655D26CA1F9469A","title":"玉龙大厦(北门)","lon":"121.48878","lat":"31.27624","category":"48","category_name":"楼宇大门","address":"大连西路253弄1-2号"},{"poiid":"B2094757D168A0F5499C","title":"仪征化纤公司体育中心","lon":"121.4903269","lat":"31.277405368","category":"500","category_name":"未知分类","address":"扬州仪化环东路  "},{"poiid":"B2094757D16BA2FF479C","title":"甜心MIA★公主行宫  The Villa La Leopolda","lon":"121.49554684","lat":"31.272175939","category":"500","category_name":"未知分类","address":"法国南部蔚蓝海岸，斯和摩纳哥之间的滨海自由城！"},{"poiid":"B2094757D164AAFF489F","title":"星光大道","lon":"121.49549067","lat":"31.272076644","category":"500","category_name":"未知分类","address":"虹口区新港路20号(近和平公园2号门)"},{"poiid":"B2094757D16BAAFA4992","title":"定家小酥肉","lon":"121.49543155","lat":"31.27219993","category":"500","category_name":"未知分类","address":"陕西，西安，城内，大皮院西口，223号"},{"poiid":"B2094757D66CA4FE4892","title":"娇艳化妆品瘦身连锁祥德店","lon":"121.4900591","lat":"31.271000434","category":"500","category_name":"未知分类","address":"上海市虹口区祥德路323号"},{"poiid":"B2094654D56CA1FD499F","title":"曲苑(南门)","lon":"121.48867","lat":"31.27674","category":"680","category_name":"楼宇机构","address":"大连西路246"},{"poiid":"B2094655D26CA0FA4298","title":"玉田小区(南三门)","lon":"121.49176","lat":"31.2769","category":"656","category_name":"大门","address":""},{"poiid":"B2094757D16BA2F9469F","title":"顾村701终点站","lon":"121.4899032","lat":"31.277581071","category":"500","category_name":"未知分类","address":"上海"},{"poiid":"B2094655D26CA1F4439E","title":"玉田小区(南二门)","lon":"121.4934","lat":"31.2767","category":"656","category_name":"大门","address":""},{"poiid":"B2094757D16FA1F5479A","title":"天宝西路公共厕所","lon":"121.49521637","lat":"31.2741546631","category":"261","category_name":"公共厕所","address":"上海虹口区天宝西路4弄右侧"},{"poiid":"B2094654D56CA7F8449C","title":"恒泰证券公司上海祥德路证券营业部","lon":"121.49166","lat":"31.271","category":"219","category_name":"其他","address":"祥德路383号磊博商务楼316-320"},{"poiid":"B2094757D16BA6F9489B","title":"StanleyMaid女仆桌游","lon":"121.493391103","lat":"31.2707824298","category":"248","category_name":"生活娱乐","address":"上海国顺东路800号西楼401A"},{"poiid":"B2094655D26FA0FC4698","title":"曲阳大楼(西门)","lon":"121.49077","lat":"31.27801","category":"48","category_name":"楼宇大门","address":"曲阳路510"},{"poiid":"B2094757D164A5FF4398","title":"托尼地产","lon":"121.493442","lat":"31.270375","category":"263","category_name":"公司","address":"上海曲阳路106号"},{"poiid":"B2094757D16CA5F5479D","title":"金钵棋牌室","lon":"121.489929199","lat":"31.2708244324","category":"248","category_name":"生活娱乐","address":"上海虹口区祥德路曲阳路路口"},{"poiid":"B2094655D26CA0FE4298","title":"祥东小区(北二门)","lon":"121.49556","lat":"31.27399","category":"656","category_name":"大门","address":"天宝西路4弄1-13号"},{"poiid":"B2094757D16AAAFB4293","title":"城市生态森林公园","lon":"121.491491103","lat":"31.2710894362","category":"260","category_name":"其他","address":"苏州昆山市马鞍山路888号  "},{"poiid":"B2094654D56CA0F84392","title":"托尼地产曲阳店","lon":"121.49344","lat":"31.27038","category":"248","category_name":"生活娱乐","address":"曲阳路106号甲铺"},{"poiid":"B2094654D56CA1FD499E","title":"曲一花苑(南门)","lon":"121.48973","lat":"31.27674","category":"656","category_name":"大门","address":"曲阳路501-551号"},{"poiid":"B2094752D16EA3F84492","title":"上海浦东国际机场T2航站楼","lon":"121.492667","lat":"31.270439","category":"500","category_name":"未知分类","address":null},{"poiid":"B2094655D26CA0FD4399","title":"德阳花苑(南门)","lon":"121.49092","lat":"31.27115","category":"656","category_name":"大门","address":"曲阳路269弄"},{"poiid":"B2094654D56CA0F84493","title":"飘鹰东方花园(西门)","lon":"121.49317","lat":"31.27073","category":"656","category_name":"大门","address":"曲阳路118弄"},{"poiid":"B2094655D26FA0FE409F","title":"大西小区(北一门)","lon":"121.49518","lat":"31.27621","category":"656","category_name":"大门","address":"大连西路195弄1-12号、165弄1-29号"},{"poiid":"B2094655D26CA0F84798","title":"祥东小区(东二门)","lon":"121.49587","lat":"31.27315","category":"656","category_name":"大门","address":""},{"poiid":"B2094757D16FA4FC449D","title":"百老汇","lon":"121.495490675","lat":"31.2720766449","category":"260","category_name":"其他","address":"美国"},{"poiid":"B2094655D26FA1F5429A","title":"玉田小区(南一门)","lon":"121.49523","lat":"31.27659","category":"656","category_name":"大门","address":""},{"poiid":"B2094655D26CA1FC4698","title":"宏城公寓(东二门)","lon":"121.49256","lat":"31.27057","category":"656","category_name":"大门","address":"曲阳路167号"},{"poiid":"B2094655D26FA1FA489E","title":"宏城公寓(东一门)","lon":"121.49267","lat":"31.27025","category":"656","category_name":"大门","address":"曲阳路163"}]