[{"poiid":"B2094757D16BA5F5489D","title":"诺恩海德怡温泉会馆","lon":"117.624229431","lat":"38.8479309082","category":"260","category_name":"其他","address":"滨海新区海滨大道17107号(近海滨浴场)"},{"poiid":"B2094757D06FA5F9479A","title":"漕溪公园","lon":"121.435923354","lat":"31.1717042748","category":"196","category_name":"公园","address":"徐汇区漕溪路203号(近田林东路)"},{"poiid":"B2094757D068A6FE4392","title":"宏润国际花园","lon":"121.439842998","lat":"31.1738835497","category":"47","category_name":"住宅区","address":"上海田东路258弄"},{"poiid":"B2094757D16BAAF84499","title":"虹橋火車站動車和諧號","lon":"121.440905586","lat":"31.1722102969","category":"500","category_name":"未知分类","address":"上海虹橋火車站"},{"poiid":"B2094757D06AABFA489B","title":"徐汇职业高级中学","lon":"121.43834","lat":"31.17182","category":"52","category_name":"高等院校","address":"徐汇区漕东支路101号(近龙漕路)"},{"poiid":"B2094757D56CA6FE4693","title":"望族楼","lon":"121.43669207282","lat":"31.170843613437","category":"77","category_name":"湖南菜","address":"徐汇区漕溪路251弄望族城5号102室(近漕宝路)"},{"poiid":"B2094654DA6DA1F4419B","title":"漕溪二村","lon":"121.43728","lat":"31.171253","category":"47","category_name":"住宅区","address":"漕东路100号"},{"poiid":"B2094654DB65A1FA429C","title":"香江小厨","lon":"121.438135054","lat":"31.169062793","category":"76","category_name":"上海菜","address":"徐汇区漕东支路1弄8号(近龙漕路)"},{"poiid":"B2094757D065A4FB429B","title":"卢大姐四川简阳羊肉汤","lon":"121.436490586","lat":"31.1694412428","category":"71","category_name":"四川菜","address":"徐汇区龙漕路63号(近漕溪路)"},{"poiid":"B2094655D26FA7F54099","title":"漕溪四村","lon":"121.44029","lat":"31.170727","category":"47","category_name":"住宅区","address":"田东路78号"},{"poiid":"B2094654DA6DA1F9449F","title":"广明牛肉","lon":"121.43573406628","lat":"31.168551302981","category":"86","category_name":"火锅店","address":"徐汇区龙漕路67号(近漕宝路)"},{"poiid":"B2094654DA6DA1F4409D","title":"汉城石锅拌饭","lon":"121.437233054","lat":"31.172811793","category":"68","category_name":"快餐厅","address":"徐汇区漕东支路108号(近漕东路)"},{"poiid":"B2094654DA6DA1F9409D","title":"凯翔小区","lon":"121.43934","lat":"31.170198","category":"47","category_name":"住宅区","address":"龙漕路135弄"},{"poiid":"B2094654DA6DA1FA439F","title":"凯诚商务大厦","lon":"121.43902","lat":"31.17091","category":"46","category_name":"楼宇","address":"龙漕路135弄8号"},{"poiid":"B2094654DA6DA1F44399","title":"佳信徐汇公寓","lon":"121.43832","lat":"31.172869","category":"47","category_name":"住宅区","address":"漕东支路111弄"},{"poiid":"B2094654DA6DA1F4429A","title":"上海市徐汇职业高级中学(漕东支路)","lon":"121.43826","lat":"31.17223","category":"54","category_name":"职业技术学校","address":"漕东支路101"},{"poiid":"B2094654DA6DA1FA409A","title":"春光饭店","lon":"121.434820054","lat":"31.170345793","category":"71","category_name":"四川菜","address":"徐汇区漕东三路28号(近漕溪路)"},{"poiid":"B2094655D268A0FC4198","title":"现代商务中心","lon":"121.43743","lat":"31.1694","category":"46","category_name":"楼宇","address":"徐汇区田林路300号"},{"poiid":"B2094655D264A2FB4899","title":"上海望族城5号楼","lon":"121.43573","lat":"31.17041","category":"46","category_name":"楼宇","address":"漕溪路251弄5"},{"poiid":"B2094757D66AA6FB489C","title":"忠义新香辣 田东店","lon":"121.44088288648","lat":"31.16982342958","category":"71","category_name":"四川菜","address":"徐汇区田东路3号(近龙漕路)"},{"poiid":"B2094752D364A3FB489A","title":"润苑","lon":"121.43975","lat":"31.17404","category":"47","category_name":"住宅区","address":"徐汇区田东路258弄-4号(宏润花园旁)"},{"poiid":"B2094655D268A4F5479A","title":"漕溪二村(边门)","lon":"121.43749","lat":"31.17168","category":"47","category_name":"住宅区","address":"漕河泾镇"},{"poiid":"B2094654DB6BA5F8459C","title":"科汇景苑","lon":"121.43967","lat":"31.172112","category":"47","category_name":"住宅区","address":"上海市徐汇区田东路75号"},{"poiid":"B2094654DB65A6FD4793","title":"兆嘉园田东路","lon":"121.4399","lat":"31.17143","category":"47","category_name":"住宅区","address":""},{"poiid":"B2094655D265A4FF489B","title":"漕溪二村30号小区","lon":"121.43742","lat":"31.17106","category":"47","category_name":"住宅区","address":""},{"poiid":"B2094655D26BABFE489F","title":"康惠花苑","lon":"121.44","lat":"31.1714","category":"47","category_name":"住宅区","address":"上海市徐汇区康健路16弄"},{"poiid":"B2094655D268A4F5479C","title":"漕溪三村小区北区","lon":"121.437615","lat":"31.170355","category":"47","category_name":"住宅区","address":"漕河泾镇"},{"poiid":"B2094654DB6BA5F8479B","title":"佳信徐汇公寓(西2门)","lon":"121.43766","lat":"31.17247","category":"47","category_name":"住宅区","address":"漕东支路111"},{"poiid":"B2094654DA6DA1FA419A","title":"好德便利No.686","lon":"121.43783","lat":"31.1702","category":"117","category_name":"便民商店/便利店","address":"漕河泾镇"},{"poiid":"B2094654DA6DA1F4429F","title":"徐汇区振旅进修学校","lon":"121.43771","lat":"31.17234","category":"53","category_name":"成人教育","address":"徐汇区漕东支路101号"},{"poiid":"B2094654DA6DA1F4439C","title":"哈尔滨小吃","lon":"121.43744954165","lat":"31.173411648653","category":"82","category_name":"东北菜","address":"徐汇区漕东支路(近田东路)"},{"poiid":"B2094757D16FA5F4419A","title":"事故多发地段","lon":"121.43975067","lat":"31.170680999","category":"902","category_name":"楼宇机构","address":"上海沪闵路高架"},{"poiid":"B2094655D264A1F8439E","title":"村夫烤鱼龙漕路店","lon":"121.43727","lat":"31.16893","category":"68","category_name":"快餐厅","address":"徐汇区龙漕路61号(近漕溪路)"},{"poiid":"B2094757D064A1F5449F","title":"天下壹福海鲜酒楼","lon":"121.439842","lat":"31.173884","category":"72","category_name":"广东菜","address":"徐汇区田东路258弄4号宏润会所(近漕溪路预计10月份营业)"},{"poiid":"B2094655D26BA3F5439D","title":"银星名庭","lon":"121.43723","lat":"31.169052","category":"47","category_name":"住宅区","address":"上海市徐汇区龙漕路51弄"},{"poiid":"B2094654DB69A5F5409F","title":"避风塘(漕溪店)","lon":"121.43579","lat":"31.16936","category":"66","category_name":"茶艺馆","address":"徐汇区漕溪路121号(近中山西路)"},{"poiid":"B2094654DA6DA1FA439B","title":"凯翔小区(西门)","lon":"121.4382","lat":"31.17008","category":"47","category_name":"住宅区","address":""},{"poiid":"B2094757D16DA5FE4992","title":"my办公室","lon":"121.437711","lat":"31.172263","category":"500","category_name":"未知分类","address":"上海学校漕东支路"},{"poiid":"B2094655D268A7F84392","title":"康健路43弄小区","lon":"121.437432","lat":"31.173046","category":"47","category_name":"住宅区","address":"康健路43弄1-14号"},{"poiid":"B2094655D36CA3F9439E","title":"兆嘉园(东门)","lon":"121.44021","lat":"31.17209","category":"47","category_name":"住宅区","address":""},{"poiid":"B2094655D264ABFF429F","title":"漕溪二村165-174号小区","lon":"121.43714","lat":"31.17275","category":"47","category_name":"住宅区","address":""},{"poiid":"B2094757D16AABF44393","title":"my校门口","lon":"121.437783","lat":"31.170695","category":"500","category_name":"未知分类","address":"上海市徐汇区漕东支路"},{"poiid":"B2094757D66CA2FA409A","title":"海同科技","lon":"121.43811058","lat":"31.170583265","category":"249","category_name":"购物服务","address":"上海市徐汇区漕东支路95号"},{"poiid":"B2094750D668A3FD409A","title":"马克华菲（上海）商业有限公司","lon":"121.4392223","lat":"31.1728038","category":"252","category_name":"楼宇机构","address":"龙漕路299号天华信息科技园1号楼"},{"poiid":"B2094654DB65A4FC4999","title":"凯翔商务中心","lon":"121.43838","lat":"31.16954","category":"46","category_name":"楼宇","address":"漕东支路1-5号"},{"poiid":"B2094655D268ABFC459E","title":"漕溪三村小区南区(北门)","lon":"121.43752","lat":"31.16995","category":"47","category_name":"住宅区","address":""},{"poiid":"B2094654DA6DA1F44892","title":"华联水果大卖场","lon":"121.43796","lat":"31.17347","category":"117","category_name":"便民商店/便利店","address":"漕东路209号"},{"poiid":"B2094655D26EA0FD409B","title":"漕溪四村(东2门)","lon":"121.44044","lat":"31.17118","category":"47","category_name":"住宅区","address":""},{"poiid":"B2094757D16FA2F4409F","title":"国兴宠物医院(徐汇分院)","lon":"121.44002","lat":"31.17304","category":"162","category_name":"医院","address":"上海徐汇区田东路392号  "},{"poiid":"B2094654DA6DA1F84599","title":"华南公寓","lon":"121.44097","lat":"31.171789","category":"47","category_name":"住宅区","address":"上海市徐汇区田东路70弄"},{"poiid":"B2094757D065A0FF4892","title":"春草堂足疗(龙漕店)","lon":"121.44092","lat":"31.1713","category":"149","category_name":"洗浴推拿场所","address":"徐汇区漕溪四村12号"},{"poiid":"B2094752DB6EA3F5469B","title":"寿宁路","lon":"121.439769","lat":"31.170652","category":"500","category_name":"未知分类","address":"上海市 黄浦人民广场"},{"poiid":"B2094757D164A0F44293","title":"亿蜀乐滋味坊","lon":"121.43868458","lat":"31.173460321","category":"247","category_name":"餐饮美食","address":"上海市徐汇区田林东路152号"},{"poiid":"B2094654DA6DA1F44393","title":"陈思专业造型沙龙","lon":"121.43771","lat":"31.17342","category":"148","category_name":"美容美发店","address":"漕东支路117"},{"poiid":"B2094654DA6DA1F9409E","title":"宏伟阁","lon":"121.44034","lat":"31.169998","category":"47","category_name":"住宅区","address":"上海龙漕路145号"},{"poiid":"B2094654DB6BA5F8479F","title":"华联超市(漕东店)","lon":"121.43815","lat":"31.17349","category":"118","category_name":"超级市场","address":"漕东路209号"},{"poiid":"B2094757D464AAF9449C","title":"吉祥馄饨 龙漕路店 Gll Wonton","lon":"121.437451054","lat":"31.168520793","category":"68","category_name":"快餐厅","address":"徐汇区龙漕路50号(近地铁漕宝路站4号口)"},{"poiid":"B2094654DA6DA1F84398","title":"宏润国际会所","lon":"121.43972","lat":"31.17394","category":"149","category_name":"洗浴推拿场所","address":"徐汇区田东路258弄4号(近漕溪路)"},{"poiid":"B2094757D16BA6F8429F","title":"bread talk (龙之梦店)","lon":"121.439846786","lat":"31.1731899161","category":"500","category_name":"未知分类","address":"上海长宁路1018号"},{"poiid":"B2094757D06AA1FD429A","title":"上海市漕东支路","lon":"121.436879","lat":"31.173043","category":"500","category_name":"未知分类","address":"上海漕溪一村"},{"poiid":"B2094654DA6DA1F9459A","title":"金海大厦","lon":"121.43687","lat":"31.169207","category":"47","category_name":"住宅区","address":"龙漕路51弄1号"},{"poiid":"B2094654DB65A6F44392","title":"永琪美容美发","lon":"121.4379","lat":"31.17446","category":"148","category_name":"美容美发店","address":"徐汇区田东路330号(近漕溪路)"},{"poiid":"B2094654DA6DA1F54093","title":"联华(漕东路)","lon":"121.43929","lat":"31.17362","category":"118","category_name":"超级市场","address":"漕东路18"},{"poiid":"B2094655D268A0FC419A","title":"漕东路30弄小区","lon":"121.43871","lat":"31.17386","category":"47","category_name":"住宅区","address":"漕东路30弄"},{"poiid":"B2094654DA6DA1F84293","title":"农工商超市No.0048","lon":"121.43877","lat":"31.17405","category":"118","category_name":"超级市场","address":"田东路191"},{"poiid":"B2094757D165A4FF419D","title":"人何主题菜馆","lon":"121.43905001","lat":"31.169186357","category":"247","category_name":"餐饮美食","address":"上海龙漕路190号"},{"poiid":"B2094654DB65A4FF459D","title":"象王洗得好(田东店)","lon":"121.4401","lat":"31.17231","category":"249","category_name":"购物服务","address":"徐汇区田东路73号"},{"poiid":"B2094757D66CA1F9429E","title":"求知小学","lon":"121.43598758","lat":"31.170081255","category":"56","category_name":"小学","address":"上海漕东支路"},{"poiid":"B2094655D265A5FD469F","title":"田东佳苑","lon":"121.43794","lat":"31.17388","category":"47","category_name":"住宅区","address":""},{"poiid":"B2094654DB64ABFC469F","title":"星远小区","lon":"121.44034","lat":"31.16999","category":"47","category_name":"住宅区","address":"龙漕路145"},{"poiid":"B2094750DA6FA6F8449B","title":"老蔡摄影","lon":"121.43548589947511","lat":"31.16994393973088","category":"611","category_name":"照相馆","address":"徐汇区望族城4号1503室"},{"poiid":"B2094753D26EA1FE499E","title":"世博会中国馆","lon":"121.436178","lat":"31.171695","category":"263","category_name":"公司","address":"上海市 中国 上海市 世博大道1200号梅赛德斯奔驰文化演艺中心"},{"poiid":"B2094654DA6DA1F44698","title":"好德便利No.817","lon":"121.43674","lat":"31.17374","category":"117","category_name":"便民商店/便利店","address":"漕溪一村48号底层"},{"poiid":"B2094655D26FA4FA469D","title":"漕溪二村(侧门)","lon":"121.43759","lat":"31.17116","category":"656","category_name":"大门","address":"漕溪二村30"},{"poiid":"B2094654DA6DA1F5429F","title":"金衡公寓","lon":"121.43622","lat":"31.17407","category":"47","category_name":"住宅区","address":"上海市徐汇区漕东路286号"},{"poiid":"B2094654DB65A4FD479D","title":"宏润花园(南2门)","lon":"121.44029","lat":"31.17338","category":"47","category_name":"住宅区","address":"田东路258弄1-15"},{"poiid":"B2094757D66CA2FE499D","title":"遛哈皮","lon":"121.43955558","lat":"31.169873251","category":"500","category_name":"未知分类","address":"上海市徐汇区沪闵高架路"},{"poiid":"B2094757D16BA5F5449C","title":"觉丹家庭旅馆","lon":"121.43693388","lat":"31.16929334","category":"216","category_name":"经济型连锁酒店","address":"西藏自治区拉萨市北京中路措美林26号"},{"poiid":"B2094757D169A5FB4493","title":"田东路","lon":"121.436424586","lat":"31.1738073281","category":"500","category_name":"未知分类","address":"上海市徐汇区田林东路"},{"poiid":"B2094757D169A6FA479E","title":"爱雅美容美发(田东店)","lon":"121.44059753","lat":"31.172624588","category":"148","category_name":"美容美发店","address":"徐汇区田东路380号(近漕溪路)"},{"poiid":"B2094757D568A7FD4193","title":"朱记菜饭骨头汤","lon":"121.4360369","lat":"31.17435083","category":"68","category_name":"快餐厅","address":"徐汇区田东路416号(近漕溪路)"},{"poiid":"B2094654DA6DA1F84598","title":"上海工程化学设计院有限公司","lon":"121.44062","lat":"31.17195","category":"263","category_name":"公司","address":"上海市徐汇区田东路88号"},{"poiid":"B2094655D36CA1FF4692","title":"龙漕路田东路","lon":"121.4415","lat":"31.16989","category":"38","category_name":"公交车站","address":""},{"poiid":"B2094654DA6DA1F8489D","title":"云都新苑","lon":"121.44181","lat":"31.170837","category":"47","category_name":"住宅区","address":"上海市徐汇区龙漕路219号"},{"poiid":"B2094654DA6DA1F94099","title":"广济堂国药号","lon":"121.4407","lat":"31.16975","category":"162","category_name":"医院","address":"徐汇区龙漕路149号(龙漕路田东路)"},{"poiid":"B2094655D26FA4F44298","title":"星远小区(南门)","lon":"121.44042","lat":"31.16968","category":"47","category_name":"住宅区","address":"龙漕路145"},{"poiid":"B2094654DA6DA1F94493","title":"克丽缇娜上海龙漕店","lon":"121.43717","lat":"31.16898","category":"148","category_name":"美容美发店","address":"徐汇区龙漕路59号(近沪闵路)"},{"poiid":"B2094757D568ABF94198","title":"良友金伴便利店(龙田路)","lon":"121.44083198","lat":"31.1731014","category":"117","category_name":"便民商店/便利店","address":"徐汇区龙田路195号101室(近天华信息科技园)"},{"poiid":"B2094757D06AABFA4898","title":"罗森便利(龙漕二店)","lon":"121.44077301","lat":"31.169761657","category":"117","category_name":"便民商店/便利店","address":"上海徐汇区龙漕路151号(近田东路)"},{"poiid":"B2094654DA6DA1F9459B","title":"澳龙公寓","lon":"121.43652","lat":"31.168953","category":"47","category_name":"住宅区","address":"上海市徐汇区龙漕路3号"},{"poiid":"B2094757D165A3FC429D","title":"龍漕路200弄","lon":"121.441844586","lat":"31.1714412819","category":"47","category_name":"住宅区","address":"上海龍漕路200弄"},{"poiid":"B2094757D169ABFC4198","title":"潮尹舞蹈工作室","lon":"121.43709958","lat":"31.169191638","category":"148","category_name":"美容美发店","address":"徐汇区三江路68号(近龙漕路地铁站)"},{"poiid":"B2094654DA6DA2F94699","title":"荣臣汽车驾驶员培训学校","lon":"121.43999","lat":"31.16927","category":"248","category_name":"生活娱乐","address":"龙漕路180-24"},{"poiid":"B2094757D16FA3FA479A","title":"龙漕路79号","lon":"121.438075","lat":"31.16934","category":"500","category_name":"未知分类","address":"上海大众燃气输配部"},{"poiid":"B2094757D16EA4FC469F","title":"大众燃气输配所","lon":"121.43732758","lat":"31.16929624","category":"500","category_name":"未知分类","address":"上海市徐汇区龙漕路79号"},{"poiid":"B2094654DA6DA1F44592","title":"大道堂养生","lon":"121.43624","lat":"31.17375","category":"162","category_name":"医院","address":"徐汇区漕东路282号(漕东路漕溪路)"},{"poiid":"B2094757D065A1FF4798","title":"哈皮肚子里","lon":"121.43972698","lat":"31.169709048","category":"500","category_name":"未知分类","address":"上海"},{"poiid":"B2094757D568A4FC469F","title":"宏润花园一期","lon":"121.437255","lat":"31.17500389","category":"47","category_name":"住宅区","address":"上海市徐汇区漕东支路218弄"},{"poiid":"B2094757D169A1FC409B","title":"上海嘉信公寓","lon":"121.43759858","lat":"31.173792327","category":"500","category_name":"未知分类","address":"上海市徐汇区漕东支路111弄"},{"poiid":"B2094654DB6BA5F8469A","title":"罗森","lon":"121.43675","lat":"31.16884","category":"117","category_name":"便民商店/便利店","address":"龙漕路39"},{"poiid":"B2094757D16BA6FC489F","title":"飞洲国际商务楼","lon":"121.435531","lat":"31.170807","category":"252","category_name":"楼宇机构","address":"上海零陵路漕溪路口"},{"poiid":"B2094751D26EA5FE4192","title":"上海赛车场","lon":"121.4377853","lat":"31.1741991","category":"500","category_name":"未知分类","address":"嘉定区伊宁路2000号"},{"poiid":"B2094751DA65A4F9439A","title":"上海市徐汇区出入境办事中心","lon":"121.438484","lat":"31.173576","category":"627","category_name":"一般地点标志","address":"番禺路865号"},{"poiid":"B2094750D26FA3F5439B","title":"Lili高级婚纱礼服定制","lon":"121.436889","lat":"31.169799","category":"263","category_name":"公司","address":"长宁区新华路569弄99号7号楼1801室（靠近新华路隧道）"},{"poiid":"B2094757D66CA1FE449E","title":"盐酥鸡","lon":"121.43701058","lat":"31.168935233","category":"247","category_name":"餐饮美食","address":"上海市徐汇区龙漕路42号"},{"poiid":"B2094655D26BA0FA419A","title":"咏蝶苑","lon":"121.441472","lat":"31.16989","category":"47","category_name":"住宅区","address":"上海市徐汇区宾阳路50弄(原老沪闵路110弄6号)"},{"poiid":"B2094757D568A1FA419E","title":"宏润花园二期","lon":"121.437255","lat":"31.17500389","category":"47","category_name":"住宅区","address":"上海市徐汇区漕东支路218弄"},{"poiid":"B2094655D265ABF8409B","title":"燃料商务楼","lon":"121.43606","lat":"31.16904","category":"46","category_name":"楼宇","address":""},{"poiid":"B2094655D264AAF54698","title":"龙漕路66弄小区","lon":"121.43732","lat":"31.1682","category":"47","category_name":"住宅区","address":"龙漕路66弄"},{"poiid":"B2094654DA6DA1F94499","title":"中国建设银行上海龙漕路支行","lon":"121.43783","lat":"31.16907","category":"150","category_name":"银行","address":"龙漕路69"},{"poiid":"B2094655D265A5F5469A","title":"时代(上海)高尔夫俱乐部","lon":"121.43743","lat":"31.16908","category":"206","category_name":"高尔夫相关","address":"龙漕路51弄4号现代商务中心210"},{"poiid":"B2094757D16FA7FE4698","title":"上海市工商行政管理局闵行分局","lon":"121.435938919","lat":"31.1727521186","category":"500","category_name":"未知分类","address":"上海雅清路"},{"poiid":"B2094654DA6DA1F9469B","title":"上海富利经济城","lon":"121.43611","lat":"31.16882","category":"45","category_name":"产业园区","address":"龙漕路1弄1号龙漕大楼底层"},{"poiid":"B2094757D168ABF44698","title":"动感101 动感星期天","lon":"121.436929986","lat":"31.1692925399","category":"249","category_name":"购物服务","address":"上海FM101.7 每周日12"},{"poiid":"B2094655D264A2FF429C","title":"汇众教育游戏学院","lon":"121.43573","lat":"31.17041","category":"190","category_name":"培训机构","address":"徐汇区漕溪路251弄望族城5号楼1101室(近漕宝路)"},{"poiid":"B2094655D26FAAFF469F","title":"漕溪一村(东一门)","lon":"121.43737","lat":"31.17288","category":"656","category_name":"大门","address":"漕河泾镇"},{"poiid":"B2094654DB64AAFA479E","title":"佳信徐汇公寓(西门)","lon":"121.43765","lat":"31.17302","category":"656","category_name":"大门","address":"漕东支路111"},{"poiid":"B2094757D569A7FB479C","title":"雷石KTV徐汇店","lon":"121.4357911","lat":"31.16936389","category":"170","category_name":"KTV","address":"漕溪路251弄望族城5号23层d座"},{"poiid":"B2094655D264ABF5469E","title":"龙漕路66弄小区(北门)","lon":"121.43738","lat":"31.1685","category":"47","category_name":"住宅区","address":"龙漕路66弄"},{"poiid":"B2094654DA6DA1F9469A","title":"龙漕大楼","lon":"121.43611","lat":"31.168823","category":"47","category_name":"住宅区","address":"龙漕路1弄1"},{"poiid":"B2094757D16DA4FD449B","title":"联想阳光服务田东店","lon":"121.438186","lat":"31.174426","category":"500","category_name":"未知分类","address":"上海田东路317号"},{"poiid":"B2094655D268A3FD4798","title":"宏润国际花园(边门)","lon":"121.43737","lat":"31.17476","category":"47","category_name":"住宅区","address":""},{"poiid":"B2094654DA6DA1F8439A","title":"上海市环境监测技术装备有限公司","lon":"121.43885","lat":"31.17405","category":"263","category_name":"公司","address":"上海徐汇区田东路181号"},{"poiid":"B2094655D268ABFC459B","title":"漕溪三村小区北区(南门)","lon":"121.43744","lat":"31.17012","category":"656","category_name":"大门","address":"漕河泾镇"},{"poiid":"B2094757DA69A3F4459C","title":"游多多","lon":"121.43568146289","lat":"31.17045731466","category":"630","category_name":"电子商务公司","address":"上海市漕溪路251弄5号801室"},{"poiid":"B2094655D265A4FC4593","title":"气象苑(东门)","lon":"121.43815","lat":"31.16806","category":"47","category_name":"住宅区","address":""},{"poiid":"B2094757D66DABF54298","title":"希夷养生馆","lon":"121.43721358","lat":"31.17442834","category":"148","category_name":"美容美发店","address":"上海徐汇区田东路386号"},{"poiid":"B2094654DA6DA1F44693","title":"漕溪新村邮政所","lon":"121.43668","lat":"31.17354","category":"248","category_name":"生活娱乐","address":"漕东支路28号"},{"poiid":"B2094654DA6DA1F94998","title":"漕溪公园(南门)","lon":"121.43626","lat":"31.17082","category":"656","category_name":"大门","address":"漕河泾镇"},{"poiid":"B2094750DB69A3FC499B","title":"热舞舞蹈会所徐汇店","lon":"121.43605","lat":"31.170007","category":"248","category_name":"生活娱乐","address":"徐汇区漕溪路251弄望族城5号楼1502室(近漕宝路)"},{"poiid":"B2094654DA6DA1F84692","title":"中国工商银行上海市龙漕路支行","lon":"121.44111","lat":"31.1699","category":"150","category_name":"银行","address":"漕溪新村四村5"},{"poiid":"B2094655D268A4F5479E","title":"佳信徐汇公寓(北门)","lon":"121.43852","lat":"31.17347","category":"656","category_name":"大门","address":""},{"poiid":"B2094757D169A4FC4499","title":"秀域减肥院","lon":"121.438133586","lat":"31.1744843413","category":"148","category_name":"美容美发店","address":"上海市田东路"},{"poiid":"B2094757D568A6F44093","title":"美卡拉漕溪路店","lon":"121.4357911","lat":"31.16936389","category":"141","category_name":"服装鞋帽皮具店","address":"徐汇区漕溪路251弄望族城5号楼10B(近漕宝路)"},{"poiid":"B2094757D66CABFA449B","title":"上海精忠摩托车行","lon":"121.43509258","lat":"31.170729268","category":"163","category_name":"4S店","address":"徐汇区桂平路354号(近漕宝路)"},{"poiid":"B2094757D165A4F9439C","title":"福贝贝早教","lon":"121.43517458","lat":"31.172848309","category":"500","category_name":"未知分类","address":"上海市江宁路599弄1号"},{"poiid":"B2094757D16EABFA449B","title":"潔Home","lon":"121.437558586","lat":"31.1686442273","category":"500","category_name":"未知分类","address":null},{"poiid":"B2094757D569A3FB429E","title":"燕子办公家具网","lon":"121.4392011","lat":"31.17440694","category":"249","category_name":"购物服务","address":"田东路258弄"},{"poiid":"B2094655D268A2FA4199","title":"光胤瑜伽漕溪路总店","lon":"121.43579","lat":"31.16937","category":"221","category_name":"健身中心","address":"漕溪路251弄望族城5号楼18B座"},{"poiid":"B2094654DA6DA1F4459A","title":"眼圈の周末","lon":"121.43579","lat":"31.17378","category":"130","category_name":"礼品饰品店","address":"漕东路304"},{"poiid":"B2094655D264ABFF4298","title":"银星名庭(东门)","lon":"121.43802","lat":"31.16945","category":"656","category_name":"大门","address":""},{"poiid":"B2094655D26FA4F44192","title":"漕溪四村(东四门)","lon":"121.4406","lat":"31.17059","category":"656","category_name":"大门","address":""},{"poiid":"B2094757D169ABFB4398","title":"香港九龙酒店","lon":"121.436271586","lat":"31.1740653332","category":"217","category_name":"旅馆招待所","address":"香港油尖旺区弥敦道19-20号"},{"poiid":"B2094655D26FA4FA4393","title":"漕溪一村(北门)","lon":"121.43701","lat":"31.1735","category":"656","category_name":"大门","address":"漕溪一村26-28甲乙"},{"poiid":"B2094757D16CABFF4699","title":"43路漕宝路","lon":"121.43940317","lat":"31.168185006","category":"500","category_name":"未知分类","address":"上海漕宝路沪闵路"},{"poiid":"B2094655D26FA4F4429A","title":"漕溪四村(东五门)","lon":"121.44066","lat":"31.17035","category":"656","category_name":"大门","address":""},{"poiid":"B2094655D268A7F44799","title":"漕东路30弄小区(西门)","lon":"121.43848","lat":"31.17386","category":"656","category_name":"大门","address":"漕东路30弄"},{"poiid":"B2094655D26FA7F9499C","title":"漕溪公园(西门)","lon":"121.4355","lat":"31.17201","category":"656","category_name":"大门","address":"漕溪路203"},{"poiid":"B2094655D26FA4FA4799","title":"漕溪三村(侧门)","lon":"121.43592","lat":"31.17053","category":"656","category_name":"大门","address":"漕河泾镇"},{"poiid":"B2094750D56EA5FB419C","title":"联想阳光服务客户服务中心","lon":"121.43811","lat":"31.174413","category":"634","category_name":"IT类公司","address":"徐汇区田东路318号"},{"poiid":"B2094655D26FA7FB459D","title":"漕溪南一村(南门)","lon":"121.43695","lat":"31.17374","category":"656","category_name":"大门","address":""},{"poiid":"B2094654DA6DA1F4449D","title":"我爱我家田东店","lon":"121.43627","lat":"31.17447","category":"248","category_name":"生活娱乐","address":"徐汇区田东路400-402号"},{"poiid":"B2094655D26FAAF8459D","title":"漕东路30弄小区(北门)","lon":"121.43901","lat":"31.17404","category":"656","category_name":"大门","address":"漕东路30弄"},{"poiid":"B2094655D264ABF5469F","title":"银星名庭(南一门)","lon":"121.43764","lat":"31.16906","category":"656","category_name":"大门","address":""},{"poiid":"B2094654DA6DA1F54193","title":"CCHO PARK游艺吧","lon":"121.43705","lat":"31.17446","category":"173","category_name":"游戏厅","address":""},{"poiid":"B2094655D26FA4FA4392","title":"漕溪南一村(侧门)","lon":"121.43648","lat":"31.17376","category":"656","category_name":"大门","address":""},{"poiid":"B2094757D66EA1FB499D","title":"亚龙湾热带天堂森林公园","lon":"121.440906886","lat":"31.173700726","category":"260","category_name":"其他","address":"海南州亚龙湾  "},{"poiid":"B2094655D265ABFE4592","title":"银星名庭(南门)","lon":"121.43693","lat":"31.16883","category":"656","category_name":"大门","address":"龙漕路51弄1-4号"},{"poiid":"B2094655D26FA7F9489D","title":"金衡公寓(北门)","lon":"121.4364","lat":"31.17413","category":"656","category_name":"大门","address":"田东路377弄1-6号"},{"poiid":"B2094654DB65A6FA429F","title":"金衡公寓(南门)","lon":"121.43577","lat":"31.17376","category":"656","category_name":"大门","address":""},{"poiid":"B2094655D26FA1F9459F","title":"宏润国际花园(西门)","lon":"121.43778","lat":"31.17504","category":"656","category_name":"大门","address":""}]