[{"poiid":"B2094654DA6DA4FF439A","title":"上海绿地徐汇","lon":"121.4599","lat":"31.18599","category":"159","category_name":"汽车维修","address":"船厂路185号"},{"poiid":"B2094750DA6BA4FA429E","title":"西岸音乐节","lon":"121.456642","lat":"31.185581","category":"248","category_name":"生活娱乐","address":"徐汇滨江龙腾大道"},{"poiid":"B2094757D16FAAF84392","title":"龙腾大道","lon":"121.46266273","lat":"31.182472283","category":"500","category_name":"未知分类","address":"上海市徐汇区龙恒路"},{"poiid":"B2094752D06CA0F44198","title":"上海华士达东方影城","lon":"121.4572","lat":"31.18539","category":"178","category_name":"电影院","address":"上海市徐汇区东安路599号绿地中心正大乐城1号楼301"},{"poiid":"B209475CD76CA3F8459F","title":"maan coffee漫咖啡","lon":"121.458557","lat":"31.186952","category":"500","category_name":"未知分类","address":"上海市 中山南二路699号正大乐城2楼(近东安路)"},{"poiid":"B2094753D664A3FA4792","title":"TOUCH正大乐城","lon":"121.457603","lat":"31.186313","category":"500","category_name":"未知分类","address":"上海市 东安路599号"},{"poiid":"B2094753D165A3F8459E","title":"查理布朗咖啡馆正大乐城店","lon":"121.458608","lat":"31.186094","category":"65","category_name":"咖啡厅","address":"上海市 东安路599号 正大乐城6-101-1号"},{"poiid":"B2094757D06FA6FD489C","title":"上海市建筑建材业行政管理服务中心","lon":"121.463631","lat":"31.189351","category":"46","category_name":"楼宇","address":"上海小木桥路683号"},{"poiid":"B2094753DB69A7FF439B","title":"翠華餐廳（正大樂城店）","lon":"121.463157","lat":"31.184999","category":"500","category_name":"未知分类","address":"上海市 上海徐匯區中山南二路"},{"poiid":"B2094654DA6DA4F9419C","title":"尚海湾豪庭","lon":"121.45771","lat":"31.178894","category":"47","category_name":"住宅区","address":"徐汇区宛平南路1455弄"},{"poiid":"B2094757D06FA6FC469A","title":"卜蜂莲花(船厂路店)","lon":"121.45965576","lat":"31.18546145","category":"118","category_name":"超级市场","address":"徐汇区船厂路178号(近中山南二路)"},{"poiid":"B2094751DA6BA2F4499C","title":"美丽岛意大利餐厅","lon":"121.459256540038","lat":"31.18285984269632","category":"247","category_name":"餐饮美食","address":"徐汇区龙腾大道3222号(东安路口)"},{"poiid":"B2094750DA6BA4F44698","title":"上海西岸音乐节","lon":"121.462753","lat":"31.182302","category":"500","category_name":"未知分类","address":null},{"poiid":"B2094753D164A5FC439D","title":"费尼汉堡","lon":"121.457205","lat":"31.186739","category":"247","category_name":"餐饮美食","address":"上海市 中山南二路699号正大乐城2-104室"},{"poiid":"B2094757D06FA3FD4192","title":"船厂路地铁站","lon":"121.46025679","lat":"31.185244349","category":"36","category_name":"地铁站","address":"上海轨道交通 七号线 轨交船厂路站 7"},{"poiid":"B2094757D068A2FA4599","title":"上海市机动车物损交通事故保险理赔服务中心绿地分中心","lon":"121.460469","lat":"31.185364","category":"500","category_name":"未知分类","address":"上海市徐汇区船厂路185号"},{"poiid":"B2094753D664A3FD469E","title":"正大乐城","lon":"121.458213","lat":"31.186937","category":"170","category_name":"KTV","address":"上海市 东安路中山南二路"},{"poiid":"B2094757D06FA4FC419C","title":"上海外经大厦","lon":"121.463529","lat":"31.189459","category":"46","category_name":"楼宇","address":"上海徐汇区小木桥路681号"},{"poiid":"B2094752D06EAAF94293","title":"正大乐城","lon":"121.456084","lat":"31.185717","category":"170","category_name":"KTV","address":"东安路500号"},{"poiid":"B2094757D66CA1FF4692","title":"南滨江","lon":"121.46897173","lat":"31.184909334","category":"500","category_name":"未知分类","address":"上海市徐汇区瑞宁路"},{"poiid":"B2094750D26FA0F44898","title":"上海绿地中心","lon":"121.460937","lat":"31.186069","category":"252","category_name":"楼宇机构","address":"徐汇区 船厂路东安路"},{"poiid":"B2094753D768AAFC4499","title":"BBQ 比比客","lon":"121.45932","lat":"31.184492","category":"247","category_name":"餐饮美食","address":"上海市 正大乐城"},{"poiid":"B2094757D168A4FE489D","title":"全家便利 FamilyMart(龙腾大道店)","lon":"121.463484892","lat":"31.1813841005","category":"249","category_name":"购物服务","address":"上海徐汇区龙腾大道／东安路口"},{"poiid":"B209475CD364A0FE4199","title":"Fani Burger","lon":"121.4574","lat":"31.1862","category":"94","category_name":"西餐厅","address":"东安路500号正大乐城(近中山南二路)"},{"poiid":"B2094753D56BABFC439D","title":"大众书局(正大乐城店)","lon":"121.457672","lat":"31.185836","category":"249","category_name":"购物服务","address":"上海市 徐汇区中山南二路699号正大乐城2层(近东安路)"},{"poiid":"B2094757D06BA6FF469E","title":"船厂路中山南二路","lon":"121.459764","lat":"31.18839","category":"500","category_name":"未知分类","address":"上海船厂路中山南二路"},{"poiid":"B2094655D26AA1FF4999","title":"通用雪佛兰绿地4S店","lon":"121.46107","lat":"31.18481","category":"247","category_name":"餐饮美食","address":"徐汇区船厂路187号(近中山南二路)"},{"poiid":"B2094753D764A1F84899","title":"正大乐城华士达影城","lon":"121.457672","lat":"31.186075","category":"500","category_name":"未知分类","address":"上海市 徐汇区东安路598号绿地中心正大乐城3楼"},{"poiid":"B2094757D069A0F84793","title":"斯柯达4s店","lon":"121.460461","lat":"31.188615","category":"500","category_name":"未知分类","address":"上海中山南二路555号"},{"poiid":"B2094753D769A1F54499","title":"茶马颐苑","lon":"121.45903","lat":"31.186122","category":"47","category_name":"住宅区","address":"上海市 上海市徐汇区东安路598号绿地中心正大乐城2楼"},{"poiid":"B209475CD565A5FA4592","title":"Ashley 正大乐城店","lon":"121.462982","lat":"31.184814","category":"247","category_name":"餐饮美食","address":"上海市中山南二路699号"},{"poiid":"B2094655D26AA0F44799","title":"新偶像艺术学校","lon":"121.46105","lat":"31.18889","category":"247","category_name":"餐饮美食","address":"徐汇区中山南二路555号冠霖大楼4127室(近大木桥路)"},{"poiid":"B209475DD468A4F5499B","title":"龙美术馆西岸馆","lon":"121.465316","lat":"31.185104","category":"248","category_name":"生活娱乐","address":"上海市 徐汇区龙腾大道3398号"},{"poiid":"B209475DD268A5FE4693","title":"24ktv","lon":"121.462265","lat":"31.184169","category":"170","category_name":"KTV","address":"上海市 中山南二路699号正大乐城3楼(近龙华中路)"},{"poiid":"B2094655D36DA6FD4098","title":"船厂路","lon":"121.46075","lat":"31.18435","category":"38","category_name":"公交车站","address":""},{"poiid":"B209475CD669A6F54999","title":"旺池川菜(正大乐城店)","lon":"121.463218","lat":"31.184926","category":"247","category_name":"餐饮美食","address":"上海市 徐汇区东安路599号绿地正大乐城2层(近龙华中路)"},{"poiid":"B2094753DB65A6FE499C","title":"Dazzling Cafe Shanghai No.2","lon":"121.457717","lat":"31.18633","category":"500","category_name":"未知分类","address":"上海市 上海市徐汇区龙华中路602号 7-105铺位"},{"poiid":"B2094655D36DA7F8469C","title":"中山南二路东安路","lon":"121.45702","lat":"31.18704","category":"38","category_name":"公交车站","address":""},{"poiid":"B2094757D06BABFA4892","title":"上海绿地徐汇别克","lon":"121.462371826","lat":"31.1853466034","category":"500","category_name":"未知分类","address":"上海市船厂路183号"},{"poiid":"B2094753D46AAAF84592","title":"小辉哥火锅","lon":"121.462516","lat":"31.184583","category":"247","category_name":"餐饮美食","address":"上海市 龙华西路"},{"poiid":"B209475DDA6FA7FD459E","title":"24K梦幻小镇主题KTV","lon":"121.462272","lat":"31.183992","category":"248","category_name":"生活娱乐","address":"上海市 徐汇区中山南二路699号"},{"poiid":"B2094757D169A1F8449F","title":"绿地东风本田","lon":"121.460247973","lat":"31.1852243216","category":"500","category_name":"未知分类","address":"上海船厂路189号"},{"poiid":"B2094753D465A4FF4593","title":"牛信亭韩国料理","lon":"121.463096","lat":"31.184497","category":"247","category_name":"餐饮美食","address":"上海市 正大乐成二楼"},{"poiid":"B2094753DB64A0F94598","title":"一麻一辣","lon":"121.457527","lat":"31.187007","category":"500","category_name":"未知分类","address":"上海市 上海市中山南二路699号2楼"},{"poiid":"B2094753D76DA1FE449B","title":"正大乐城","lon":"121.458435","lat":"31.186231","category":"170","category_name":"KTV","address":"上海市 上海市徐汇区龙华中路602号"},{"poiid":"B2094750DA6AA7FA4992","title":"复旦大学附属眼耳鼻喉科医院","lon":"121.458534","lat":"31.182331","category":"162","category_name":"医院","address":"汾阳路83号"},{"poiid":"B2094753D76AAAFF499D","title":"正大乐城","lon":"121.461982","lat":"31.184505","category":"170","category_name":"KTV","address":"上海市 上海市中山南二路699号"},{"poiid":"B2094750DA65A3FF4898","title":"徐汇滨江","lon":"121.467994","lat":"31.181165","category":"47","category_name":"住宅区","address":null},{"poiid":"B2094757D16DA7FA409D","title":"绿地别克4S店","lon":"121.464352738","lat":"31.1840643169","category":"500","category_name":"未知分类","address":"上海船厂路183号"},{"poiid":"B209475CD16FA1FF459D","title":"小辉哥火锅","lon":"121.458099","lat":"31.186601","category":"247","category_name":"餐饮美食","address":"上海市 正大乐城"},{"poiid":"B2094655D26AA0F9469F","title":"地铁浦江南浦站","lon":"121.46075","lat":"31.18435","category":"36","category_name":"地铁站","address":""},{"poiid":"B2094753DA64A6F54992","title":"玳思琳蜜糖土司","lon":"121.458007","lat":"31.186092","category":"247","category_name":"餐饮美食","address":"上海市 中山南二路699号 正大乐城"},{"poiid":"B2094753D56DA5F5479E","title":"复旦大学附属中山医院","lon":"121.459541","lat":"31.184139","category":"162","category_name":"医院","address":"上海市 枫林路180号"},{"poiid":"B2094753DB69ABFD4592","title":"华仕达东方影城","lon":"121.46231","lat":"31.184078","category":"500","category_name":"未知分类","address":"上海市 正大绿城三楼"},{"poiid":"B2094753DB6AA5F4499E","title":"Wagas（正大乐城）","lon":"121.461524","lat":"31.187013","category":"500","category_name":"未知分类","address":"上海市 船厂路180号"},{"poiid":"B2094753D46CA1FE4792","title":"绿地中心·正大乐城","lon":"121.461997","lat":"31.184309","category":"500","category_name":"未知分类","address":"上海市 徐汇区东安路599号(近龙华中路地铁站)"},{"poiid":"B2094753D76DA5FB4192","title":"乐新皇朝","lon":"121.457908","lat":"31.186717","category":"500","category_name":"未知分类","address":"上海市 上海市徐汇区东安路600号正大乐城"},{"poiid":"B2094454D36DAAF44293","title":"啡你啡思","lon":"121.457443","lat":"31.186225","category":"247","category_name":"餐饮美食","address":"上海市 东安路599号1-105室"},{"poiid":"B209475CD264A7F4449F","title":"BBQ橄榄油休闲餐厅","lon":"121.462974","lat":"31.184356","category":"500","category_name":"未知分类","address":"上海市 徐汇区中山南二路699号正大乐城"},{"poiid":"B2094750DA6BABFF479F","title":"W-Bank Music Festivel","lon":"121.462638","lat":"31.183364","category":"627","category_name":"一般地点标志","address":"徐汇区滨江绿地"},{"poiid":"B2094757D06AAAF4499D","title":"绿地别克","lon":"121.460757","lat":"31.184352","category":"163","category_name":"4S店","address":"上海船厂路"},{"poiid":"B2094757D06FA4FA499B","title":"金龙花苑","lon":"121.459503","lat":"31.180959","category":"47","category_name":"住宅区","address":"上海市徐汇区丰谷路225弄1号"},{"poiid":"B2094655D268A4FC489D","title":"上海电子信息职业技术学院徐汇校区(东门)","lon":"121.45886","lat":"31.18878","category":"52","category_name":"高等院校","address":""},{"poiid":"B2094654DA6DA4FF439E","title":"上海机动车绿地上牌点","lon":"121.46108","lat":"31.18481","category":"250","category_name":"公园户外","address":"船厂路187号"},{"poiid":"B209475DD56CA0FE469D","title":"泰亭","lon":"121.457504","lat":"31.186347","category":"247","category_name":"餐饮美食","address":"上海市 正大乐城"},{"poiid":"B2094753D66BA0FF439C","title":"乐城广场大众书局","lon":"121.460472","lat":"31.185485","category":"500","category_name":"未知分类","address":"上海市 上海徐汇中山南二路699号正大乐成广场二楼"},{"poiid":"B209475CDB6BA3F5469A","title":"翠华餐厅","lon":"121.463134","lat":"31.185117","category":"500","category_name":"未知分类","address":"上海市 正大乐城"},{"poiid":"B2094750DA69A5FC4393","title":"上海市第九人民医院","lon":"121.46212","lat":"31.177307","category":"162","category_name":"医院","address":"制造局路639号"},{"poiid":"B2094655D26AA6FB459F","title":"红叶餐厅","lon":"121.45632","lat":"31.18579","category":"86","category_name":"火锅店","address":"徐汇区龙华路1833号(近中山南二路东安路)"},{"poiid":"B2094757D16DA1FA419B","title":"船长烧烤","lon":"121.45977673","lat":"31.187683393","category":"68","category_name":"快餐厅","address":"徐汇区船厂路178号卜蜂莲花超市旁(近龙华中路)"},{"poiid":"B209475DD26EAAF4419E","title":"芙乐儿flavor","lon":"121.45774","lat":"31.186334","category":"249","category_name":"购物服务","address":"上海市 上海市徐汇区龙华中路602号正大乐城商场7-202-1 Flavor"},{"poiid":"B2094757D66DAAF44399","title":"上海大众斯柯达4S店","lon":"121.459050828","lat":"31.1829300928","category":"500","category_name":"未知分类","address":"上海中山南二路555号"},{"poiid":"B2094654DA6DAAFC409C","title":"上飞新村","lon":"121.464091","lat":"31.179351","category":"47","category_name":"住宅区","address":"徐汇区云锦路185弄1-13号"},{"poiid":"B209475DD76DA6F84492","title":"比比客正大乐城店","lon":"121.458921","lat":"31.186188","category":"247","category_name":"餐饮美食","address":"徐汇区龙华中路620号7-111室"},{"poiid":"B2094655D26EA1FA469C","title":"日豪商厦","lon":"121.45889","lat":"31.18654","category":"46","category_name":"楼宇","address":"船厂路156"},{"poiid":"B2094753D664A4F9449A","title":"正大乐城","lon":"121.457763","lat":"31.18633","category":"170","category_name":"KTV","address":"上海市 徐汇区中山南二路699号"},{"poiid":"B2094757D06BA4FF489E","title":"盛南易初莲花(船厂店)","lon":"121.45964456","lat":"31.1854372665","category":"500","category_name":"未知分类","address":"上海船厂路178号"},{"poiid":"B2094757D16AABFA4099","title":"沪闵高架","lon":"121.45958143","lat":"31.179679223","category":"500","category_name":"未知分类","address":"上海虹梅路出口"},{"poiid":"B2094753D764A0FE4693","title":"正大乐城","lon":"121.461433","lat":"31.187242","category":"170","category_name":"KTV","address":"上海市 徐汇区东安路"},{"poiid":"B2094757D069A3F44792","title":"东风本田汽车(船厂路店)","lon":"121.45987382","lat":"31.186184469","category":"163","category_name":"4S店","address":"徐汇区船厂路187号(近中山南二路)"},{"poiid":"B2094655D36CA1F8449A","title":"龙华路中山南二路","lon":"121.45662","lat":"31.18479","category":"38","category_name":"公交车站","address":""},{"poiid":"B2094654DA6DA4FE449F","title":"冠霖商务楼","lon":"121.46105","lat":"31.18889","category":"46","category_name":"楼宇","address":"中山南二路555号"},{"poiid":"B209475CDA64A4FB419C","title":"小辉哥火锅","lon":"121.45787","lat":"31.186494","category":"247","category_name":"餐饮美食","address":"上海市 正大悦城"},{"poiid":"B2094753D76CA4F8479D","title":"正大乐城","lon":"121.457603","lat":"31.186372","category":"170","category_name":"KTV","address":"上海市 徐汇区东安路599号"},{"poiid":"B209475DD069ABFE489F","title":"翠华餐厅","lon":"121.458625","lat":"31.187028","category":"500","category_name":"未知分类","address":"上海市 东安路"},{"poiid":"B2094654DA6DA4FE4993","title":"一品香馒头 船厂路店","lon":"121.459118","lat":"31.18735","category":"68","category_name":"快餐厅","address":"徐汇区船厂路11号(近中山南二路)"},{"poiid":"B2094654DA6DA4FF4292","title":"上海绿地徐通雪佛兰","lon":"121.46047","lat":"31.18536","category":"158","category_name":"汽车销售","address":"船厂路185号"},{"poiid":"B209475DD169A1F9409C","title":"千秋膳房（正大乐城店）","lon":"121.459029","lat":"31.187418","category":"247","category_name":"餐饮美食","address":"上海市船厂路36号B1A-51号"},{"poiid":"B209475CD76FA7FC4093","title":"小辉哥火锅","lon":"121.458038","lat":"31.186737","category":"247","category_name":"餐饮美食","address":"上海市 中山南二路699号"},{"poiid":"B209475CDA65A5FB429D","title":"Fanier Burger","lon":"121.458496","lat":"31.18497","category":"500","category_name":"未知分类","address":"上海市 正大乐城"},{"poiid":"B2094654DB6BA4FE429F","title":"龙华西路81弄小区","lon":"121.458","lat":"31.178","category":"47","category_name":"住宅区","address":"龙华西路81弄41-66号,70-92号"},{"poiid":"B209475CD76CA5F54792","title":"徐汇滨江","lon":"121.457733","lat":"31.18633","category":"47","category_name":"住宅区","address":"上海市 徐汇滨江"},{"poiid":"B209475CD26BA2FD469D","title":"吉亨面馆（正大乐城店）","lon":"121.456085","lat":"31.185747","category":"247","category_name":"餐饮美食","address":"上海市 上海中山南二路699号正大乐城2楼"},{"poiid":"B2094655D26BAAFD4693","title":"原生湿地景观","lon":"121.46889","lat":"31.18182","category":"250","category_name":"公园户外","address":"上海世博园区"},{"poiid":"B209475DD66DA4F9499F","title":"maan coffee","lon":"121.458709","lat":"31.187118","category":"247","category_name":"餐饮美食","address":"上海市 龙华中路"},{"poiid":"B209475CD36FA7FE459B","title":"旺池川菜","lon":"121.457534","lat":"31.186996","category":"247","category_name":"餐饮美食","address":"上海市 正大乐城2楼"},{"poiid":"B2094654DA6DA4FF4299","title":"东风本田汽车绿地特约销售服务店","lon":"121.45934","lat":"31.18628","category":"159","category_name":"汽车维修","address":"船厂路171号"},{"poiid":"B2094655D265ABFD4499","title":"宜车洗车中心","lon":"121.46098","lat":"31.18585","category":"159","category_name":"汽车维修","address":""},{"poiid":"B209475DD468A4F54392","title":"龙美术馆西岸馆","lon":"121.463035","lat":"31.187294","category":"248","category_name":"生活娱乐","address":"上海市 徐汇区龙腾大道3398号"},{"poiid":"B209475DD46EABF9479A","title":"龙美术馆西岸馆","lon":"121.465721","lat":"31.184631","category":"627","category_name":"一般地点标志","address":"上海市 上海徐汇龙腾大道3398号"},{"poiid":"B2094654DB64A4FE449D","title":"中南楼宇","lon":"121.45975","lat":"31.1878","category":"46","category_name":"楼宇","address":"中山南二路595-597"},{"poiid":"B2094757D064A4FA449C","title":"内环宛平路","lon":"121.457165738","lat":"31.1873613871","category":"500","category_name":"未知分类","address":"上海高架上"},{"poiid":"B2094757D66DA1FC489D","title":"Marriott Shanghai Luwan","lon":"121.467268338","lat":"31.1879998007","category":"500","category_name":"未知分类","address":"上海江滨路99号"},{"poiid":"B2094750DB68AAFB469E","title":"新天地时尚","lon":"121.461364","lat":"31.177936","category":"500","category_name":"未知分类","address":null},{"poiid":"B209475CD76CA5FD4698","title":"渝乡人家川菜馆","lon":"121.459373","lat":"31.188089","category":"247","category_name":"餐饮美食","address":"上海市 正大乐城店"},{"poiid":"B2094654DB6BA5F4459F","title":"南浦站(西门)","lon":"121.46479","lat":"31.18802","category":"22","category_name":"火车站","address":""},{"poiid":"B2094654DA6DA4FE479B","title":"中南都市型工业园区","lon":"121.45975","lat":"31.18781","category":"45","category_name":"产业园区","address":"中山南二路595-597"},{"poiid":"B2094753D76EA7FF4699","title":"Green Vege","lon":"121.458221","lat":"31.186666","category":"500","category_name":"未知分类","address":"上海市 中山南二路679号正大乐城3-301室(近船厂路)"},{"poiid":"B2094757D16CAAF8499D","title":"航头","lon":"121.467045805","lat":"31.1822647786","category":"500","category_name":"未知分类","address":"上海航头"},{"poiid":"B2094654DB64A5F5429A","title":"霓虹商务楼","lon":"121.45953","lat":"31.18803","category":"46","category_name":"楼宇","address":"中山南二路591"},{"poiid":"B2094750D165A3FA459C","title":"Mo-mo 牧场","lon":"121.458381","lat":"31.179075","category":"500","category_name":"未知分类","address":null},{"poiid":"B209475CDB6AA0F5439F","title":"Ashley","lon":"121.45874","lat":"31.187097","category":"500","category_name":"未知分类","address":"上海市 中山南二路699号3F5-302"},{"poiid":"B2094750D26FA5FA4093","title":"dancespace_吾秀文化","lon":"121.46113026222","lat":"31.188705252005","category":"606","category_name":"社区服务","address":"中山南二路555号冠霖大楼404"},{"poiid":"B209475DDA6FA7FD4399","title":"24K梦幻小镇KTV","lon":"121.457649","lat":"31.185853","category":"248","category_name":"生活娱乐","address":"上海市 徐汇区中山南二路699号"},{"poiid":"B2094654DB69ABFA489E","title":"神州租车(船厂路店)","lon":"121.4599","lat":"31.18599","category":"161","category_name":"汽车租赁","address":"徐汇区船厂路183号绿地别克4S店销售大厅(易初莲花对面)"},{"poiid":"B2094757D069A6FD469D","title":"日本国驻上海总领事馆","lon":"121.46448516","lat":"31.185117721","category":"260","category_name":"其他","address":"上海万山路8号"},{"poiid":"B2094757D66EA7F9489E","title":"斜土路107地块","lon":"121.45758163","lat":"31.182608535","category":"500","category_name":"未知分类","address":"上海中山南二路船厂路"},{"poiid":"B2094753DA6FAAF54398","title":"MEET SWEET觅甜記","lon":"121.457168","lat":"31.180727","category":"500","category_name":"未知分类","address":"上海市 上海市徐汇区宛平南路"},{"poiid":"B2094757D66CA4F9469B","title":"天赛摄影","lon":"121.4620487","lat":"31.187273045","category":"500","category_name":"未知分类","address":"上海小木桥路810号"},{"poiid":"B209475CD76DABFA449C","title":"西岸音乐节","lon":"121.457366","lat":"31.187662","category":"500","category_name":"未知分类","address":"上海市 上海市徐汇区滨江绿地"},{"poiid":"B2094654DA6DA4FE4998","title":"中南都市型工业园区(北门)","lon":"121.45942","lat":"31.18799","category":"45","category_name":"产业园区","address":"中山南二路595-597"},{"poiid":"B2094655D26FA3FB429C","title":"裕发饮食","lon":"121.45454828596","lat":"31.188997192661","category":"257","category_name":"中餐厅","address":"船厂路48号"},{"poiid":"B2094751D06EA6FF479E","title":"地铁4号线西藏南路站","lon":"121.45636","lat":"31.183655","category":"500","category_name":"未知分类","address":null},{"poiid":"B2094654DA6DA5F9499F","title":"东安一村(4号门)","lon":"121.45842","lat":"31.18798","category":"47","category_name":"住宅区","address":""},{"poiid":"B2094757D56EA5F5419A","title":"船厂路站14号口(地铁7号线)","lon":"121.457082","lat":"31.185626","category":"251","category_name":"出行住宿","address":"中国上海市徐汇区龙华路1960"},{"poiid":"B2094654DA6DA5F94999","title":"上海电子信息职业技术学院徐汇校区","lon":"121.45859","lat":"31.18879","category":"54","category_name":"职业技术学校","address":""},{"poiid":"B2094757D06BAAFE409A","title":"派之星KTV","lon":"121.466360738","lat":"31.1880299013","category":"170","category_name":"KTV","address":"上海吴泾"},{"poiid":"B2094654DA6DA5F94892","title":"上海市工业技术学校(中山南二路)","lon":"121.45996","lat":"31.18919","category":"54","category_name":"职业技术学校","address":"中山南二路530"},{"poiid":"B2094655D26EA7FE4893","title":"宜车汽车沪南维修中心","lon":"121.4608","lat":"31.18682","category":"159","category_name":"汽车维修","address":""},{"poiid":"B2094655D26AA0F4479C","title":"LilyDanceCenter","lon":"121.46033","lat":"31.18855","category":"247","category_name":"餐饮美食","address":"徐汇区中山南二路555号冠霖大楼4楼(近大木桥路)"},{"poiid":"B2094655D264A7FA459B","title":"上海大众汽车斯柯达交运起成","lon":"121.46057","lat":"31.18868","category":"158","category_name":"汽车销售","address":""},{"poiid":"B2094757D66CA4FE479A","title":"TF烧烤店","lon":"121.45995273","lat":"31.188295407","category":"247","category_name":"餐饮美食","address":"上海市徐汇区船厂路"},{"poiid":"B209475CD264A1FB4998","title":"正大乐城","lon":"121.459716","lat":"31.188455","category":"170","category_name":"KTV","address":"上海市 中山南二路"},{"poiid":"B2094753D369AAFD499D","title":"世博后滩湿地公园","lon":"121.469","lat":"31.18152","category":"33","category_name":"公园景点售票处","address":"浦东新区世博会浦东地块C片区"},{"poiid":"B2094654DB65A3FE419D","title":"上海电视大学物资分校北校区","lon":"121.45619","lat":"31.18636","category":"52","category_name":"高等院校","address":"龙华路1831"},{"poiid":"B2094753D66FA0FC439C","title":"曼都发型(正大乐城店)","lon":"121.457342","lat":"31.18708","category":"148","category_name":"美容美发店","address":"中山南二路699号7号楼2层05室"},{"poiid":"B2094757D16CA6FB4698","title":"吉祥馄饨(东安店)","lon":"121.45678","lat":"31.18694","category":"247","category_name":"餐饮美食","address":"上海徐汇区东安路507号(近中山南二路)  "},{"poiid":"B2094654DA6DA4FE4099","title":"良友金伴No.393(中山南二路)","lon":"121.46193","lat":"31.18959","category":"117","category_name":"便民商店/便利店","address":"徐汇区中山南二路481号(近小木桥路)"},{"poiid":"B2094655D268A2F5489E","title":"上海电子信息职业技术培训学校(东门)","lon":"121.45885","lat":"31.1888","category":"678","category_name":"学校大门","address":""},{"poiid":"B2094655D268A5F4489D","title":"上海南亚职业技术培训学校(南门)","lon":"121.4603","lat":"31.18909","category":"678","category_name":"学校大门","address":"中山南二路530"},{"poiid":"B209475CD16AA7FE479E","title":"徐汇滨江","lon":"121.467231","lat":"31.188117","category":"47","category_name":"住宅区","address":"上海市 徐汇区中山南二路"},{"poiid":"B2094655D268A5F44899","title":"上海工艺美术职业学院徐汇二分院(南门)","lon":"121.46028","lat":"31.18909","category":"52","category_name":"高等院校","address":"中山南二路530"},{"poiid":"B2094753D464ABFB429B","title":"WAGAS","lon":"121.457054","lat":"31.187139","category":"500","category_name":"未知分类","address":"上海市 上海中山南二路699号2号楼104正大乐城店"},{"poiid":"B2094757D065A3F54198","title":"尚海湾","lon":"121.45691","lat":"31.177977","category":"500","category_name":"未知分类","address":"上海宛平南路1441号13"},{"poiid":"B2094655D264A1FE4192","title":"上海市徐汇区枫安菜市场","lon":"121.46133","lat":"31.18975","category":"117","category_name":"便民商店/便利店","address":"中山南二路450、450-1临"},{"poiid":"B2094753D569A2FA4098","title":"泰古泰国休闲餐厅","lon":"121.45758","lat":"31.186435","category":"500","category_name":"未知分类","address":"上海市 芳甸路1188号喜玛拉雅中心B2楼151室(近梅花路)"},{"poiid":"B2094753D56DA3FD409A","title":"徐汇游泳馆","lon":"121.457023","lat":"31.185714","category":"220","category_name":"运动场所","address":"上海市 徐汇区枫林路"},{"poiid":"B2094757D06BA0FD479A","title":"上海中医药大学零陵路校区","lon":"121.460261","lat":"31.189074","category":"500","category_name":"未知分类","address":"上海市东安路530号"},{"poiid":"B2094757D164A4FE409F","title":"上海物流职业技能培训学校","lon":"121.45658403","lat":"31.186781174","category":"500","category_name":"未知分类","address":"徐汇区龙华路1831号2层"},{"poiid":"B2094654DA6DA5F9489D","title":"上海工艺美术职业学院徐汇二分院","lon":"121.45996","lat":"31.18918","category":"52","category_name":"高等院校","address":"中山南二路530"},{"poiid":"B2094655D268A5F84098","title":"上海市工业技术学校南门(中山南二路)","lon":"121.46023","lat":"31.18906","category":"54","category_name":"职业技术学校","address":"中山南二路530"},{"poiid":"B2094655D268A5F44898","title":"上海市轻工业学校(南门)","lon":"121.46024","lat":"31.18907","category":"678","category_name":"学校大门","address":"中山南二路530"},{"poiid":"B2094655D268A5F4489E","title":"上海电子信息职业技术培训学校","lon":"121.45859","lat":"31.18878","category":"54","category_name":"职业技术学校","address":""},{"poiid":"B2094750DA64A7FD499F","title":"西岸音乐会","lon":"121.462768","lat":"31.188514","category":"500","category_name":"未知分类","address":"滨江大道"},{"poiid":"B2094654DA6DA4FF469A","title":"东安苍苑(东门)","lon":"121.45625","lat":"31.18618","category":"47","category_name":"住宅区","address":"中山南二路777弄3-22号"},{"poiid":"B2094750D768ABF8449B","title":"查尔斯咖啡","lon":"121.462","lat":"31.1773","category":"260","category_name":"其他","address":"徐汇区龙腾大道3036号"},{"poiid":"B2094655D268A5F44792","title":"上海电子工业学校徐汇校区","lon":"121.45859","lat":"31.18879","category":"54","category_name":"职业技术学校","address":""},{"poiid":"B2094655D26FABFC4999","title":"上海电子信息职业技术学院继续教育学院","lon":"121.45859","lat":"31.18879","category":"53","category_name":"成人教育","address":""},{"poiid":"B2094753D664AAFB479D","title":"green vege cafe","lon":"121.460998","lat":"31.189102","category":"500","category_name":"未知分类","address":"上海市 徐汇区中山南二路699号3F"},{"poiid":"B2094654DA6DA4FE459C","title":"上海交运股份有限公司汽车零部件分公司","lon":"121.46045","lat":"31.18861","category":"263","category_name":"公司","address":"中山南二路555号"},{"poiid":"B2094757D16FA0F5499F","title":"学而思&乐加乐","lon":"121.45588173","lat":"31.185926356","category":"500","category_name":"未知分类","address":"上海市徐汇区中山南二路295号3楼"},{"poiid":"B2094757D168A7FB449B","title":"上海市建设工程安全质量监督总站","lon":"121.463710138","lat":"31.1895991347","category":"500","category_name":"未知分类","address":"上海小木桥路683号"},{"poiid":"B2094757D16CA5FB429D","title":"GRGBanking|广电银通","lon":"121.456474738","lat":"31.1858453548","category":"500","category_name":"未知分类","address":"上海市徐汇区中山南二路777弄1号楼"},{"poiid":"B2094757D16CA5F4409C","title":"新警集训基地","lon":"121.46265173","lat":"31.189063423","category":"253","category_name":"校园生活","address":"上海市徐汇区龙华中路"},{"poiid":"B2094757D66EA2FF479E","title":"全方位图文","lon":"121.46233853","lat":"31.18893762","category":"500","category_name":"未知分类","address":"上海中山南二路小木桥路"},{"poiid":"B2094757D16BA0F9489D","title":"檬舒舒~大悦城","lon":"121.462419738","lat":"31.1892724278","category":"500","category_name":"未知分类","address":"上海大悦城一楼中庭"},{"poiid":"B2094654DA6DA4FE4493","title":"上海盛研摩托车销售有限公司","lon":"121.46077","lat":"31.18878","category":"159","category_name":"汽车维修","address":"中山南二路555-2"},{"poiid":"B2094655D26FA4F4499A","title":"中粮大厦(南门)","lon":"121.4617","lat":"31.19005","category":"48","category_name":"楼宇大门","address":"中山南二路440号"},{"poiid":"B2094757D168ABFE459A","title":"韩宫摄影","lon":"121.45638","lat":"31.18627","category":"500","category_name":"未知分类","address":"上海徐汇区中山南二路777弄2号楼底楼(东安路口)  "},{"poiid":"B2094757D16DA1F8419F","title":"我爱我家","lon":"121.46207573","lat":"31.190013443","category":"500","category_name":"未知分类","address":"徐汇区文定路200号盛源大地1楼A05室(近蒲汇塘路)"},{"poiid":"B2094654DA6DA4FE459F","title":"上海运通工程机械总厂","lon":"121.46046","lat":"31.18861","category":"263","category_name":"公司","address":"中山南二路555号"},{"poiid":"B2094757D068A3F44992","title":"9.12张国荣55岁生日","lon":"121.45744753","lat":"31.18753799","category":"500","category_name":"未知分类","address":null},{"poiid":"B2094757D168ABF9479B","title":"中环线仙霞路下口","lon":"121.46074143","lat":"31.189652035","category":"500","category_name":"未知分类","address":"上海仙霞路水城路"},{"poiid":"B2094757D66DA1FA499B","title":"漕溪北路中山南二路","lon":"121.46183073","lat":"31.189830439","category":"500","category_name":"未知分类","address":"上海漕溪北路中山南二路"},{"poiid":"B2094757D169A3FC4893","title":"临时抱佛脚集中营","lon":"121.460013738","lat":"31.1894024305","category":"500","category_name":"未知分类","address":"上海背书 复习 准备考试 伤不起"},{"poiid":"B2094654DA6DA4FE409E","title":"上海良菱配销有限公司","lon":"121.46192","lat":"31.18947","category":"263","category_name":"公司","address":"中山南二路481"},{"poiid":"B2094655D268ABFE419B","title":"上海乐惠食品有限公司","lon":"121.46324","lat":"31.18935","category":"263","category_name":"公司","address":"徐汇区小木桥路680号"},{"poiid":"B2094654DA6DA4FE4499","title":"上海交通大学医学院疼痛诊疗技术联合研发中心临床研究室","lon":"121.46125","lat":"31.18899","category":"191","category_name":"科研机构","address":"中山南二路555-5号"},{"poiid":"B2094757D66CA5F4429F","title":"上海铭铜品牌策划有限公司","lon":"121.465512938","lat":"31.1768965644","category":"260","category_name":"其他","address":"上海浦东新区耀龙路190号(世博冰雕艺术园)"}]