[{"poiid":"B2094757D06FA2FD479A","title":"上海大厦","lon":"121.489893266","lat":"31.2444576229","category":"213","category_name":"五星级宾馆","address":"徐汇区田林路300号"},{"poiid":"B2094654DB6BA3F8449E","title":"星巴克(耀江广场店)","lon":"121.489692","lat":"31.2488751","category":"65","category_name":"咖啡厅","address":"虹口区吴淞路258号耀江国际广场1楼(近汉阳路)"},{"poiid":"B2094757D06FA5FB419B","title":"虹口公安分局出入境管理处","lon":"121.4903231","lat":"31.2475029045","category":"46","category_name":"楼宇","address":"上海闵行路260号1号楼213室"},{"poiid":"B209475CD564A7F84392","title":"上海滩浦东香格里拉店","lon":"121.50058","lat":"31.23634","category":"119","category_name":"商场","address":"浦东富成路33号香格里拉酒店内大堂层"},{"poiid":"B2094654DA6FA6FE4299","title":"恒升半岛国际酒店","lon":"121.48945","lat":"31.24747","category":"214","category_name":"四星级宾馆","address":"虹口区吴淞路205号恒升半岛国际酒店内(近武昌路)"},{"poiid":"B2094757D06FABFB4898","title":"金米箩大酒店(虹口店)","lon":"121.487483791","lat":"31.2466599519","category":"76","category_name":"上海菜","address":"虹口区乍浦路125号(近武昌路)"},{"poiid":"B2094757D06FAAFF429D","title":"海王大酒店","lon":"121.48797","lat":"31.24649","category":"76","category_name":"上海菜","address":"虹口区乍浦路130-138号(近武昌路)"},{"poiid":"B2094757DA69A1FC439D","title":"上海大厦-外滩","lon":"121.48994","lat":"31.24432","category":"251","category_name":"出行住宿","address":"北苏州路20号"},{"poiid":"B2094757D06FA6FE409A","title":"Jamaica Blue(九江路店)","lon":"121.49105","lat":"31.24837","category":"260","category_name":"其他","address":"黄浦区九江路700号南新雅大酒店1楼铺面E座(近贵州路)"},{"poiid":"B2094757D068A6FE419D","title":"宝御酒店 (Hotel Pravo Shanghai)","lon":"121.489273","lat":"31.248918","category":"217","category_name":"旅馆招待所","address":"上海虹口区吴淞路299号"},{"poiid":"B2094757D06FA2FF4898","title":"BM TOWER(宝矿大厦)","lon":"121.49057006","lat":"31.248397827","category":"46","category_name":"楼宇","address":"上海市虹口区吴淞路218号"},{"poiid":"B2094654DB69A7FE489D","title":"物资大厦","lon":"121.488","lat":"31.2453","category":"46","category_name":"楼宇","address":"上海市闵行区莲花南路1500弄"},{"poiid":"B2094757D468A4FD429C","title":"来亿锅羊蝎子火锅 虹口店","lon":"121.490562054","lat":"31.244352793","category":"86","category_name":"火锅店","address":"虹口区大名路86号(金山路口)"},{"poiid":"B2094654DB69AAFD489B","title":"吴记老锅底上海飘鹰店","lon":"121.48759","lat":"31.24573","category":"247","category_name":"餐饮美食","address":"虹口区乍浦路71号(近天潼路)"},{"poiid":"B2094757D06BA5FB4093","title":"玛蕾西餐厅","lon":"121.4893438","lat":"31.2491687","category":"94","category_name":"西餐厅","address":"虹口区吴淞路299号宝御酒店2楼(近塘沽路)"},{"poiid":"B2094757D068AAFD499A","title":"胖阿姨正宗朝鲜冷面(乍浦路店)","lon":"121.48764","lat":"31.2461","category":"96","category_name":"韩国料理","address":"虹口区乍浦路99号(近天潼路)"},{"poiid":"B2094757D064A6FF4793","title":"好孃孃净素坊","lon":"121.487745686","lat":"31.2463521158","category":"89","category_name":"中式素餐馆","address":"虹口区乍浦路108号(天潼路与武昌路之间)"},{"poiid":"B2094655D26FA3FB4193","title":"外滩建筑群","lon":"121.48994","lat":"31.24431","category":"257","category_name":"中餐厅","address":"大厦至延安东路口"},{"poiid":"B2094757D06FAAFD469E","title":"上海市公安局虹口分局","lon":"121.490322","lat":"31.247499","category":"46","category_name":"楼宇","address":"上海闵行路260号"},{"poiid":"B2094757D06FA3FE4898","title":"A.T bar","lon":"121.491054","lat":"31.245104","category":"172","category_name":"酒吧","address":"虹口区大名路68号(近黄浦路)"},{"poiid":"B2094654DA6FA7FF4993","title":"家化金融大厦","lon":"121.49047","lat":"31.2455","category":"46","category_name":"楼宇","address":"丰台学城海鹰路1号，3号"},{"poiid":"B2094757D06FA2F44899","title":"上海法语培训中心(吴淞路校区)","lon":"121.48962","lat":"31.24837","category":"260","category_name":"其他","address":"虹口区吴淞路297号虹口区业余大学5-6楼(近塘沽路)"},{"poiid":"B2094757D065A5FB489A","title":"复茂小龙虾 天潼路店 FOMO","lon":"121.48818446619","lat":"31.245820558351","category":"68","category_name":"快餐厅","address":"虹口区天潼路300号(近四川北路)"},{"poiid":"B2094757D16FA5F8459B","title":"乍浦路武昌路","lon":"121.48768374","lat":"31.246402537","category":"500","category_name":"未知分类","address":"上海乍浦路"},{"poiid":"B2094757D06FA5FD4898","title":"华隆大厦","lon":"121.491","lat":"31.2478","category":"46","category_name":"楼宇","address":"浦东新区金湘路225弄"},{"poiid":"B2094757D06AA5F4439C","title":"东泰大厦","lon":"121.4890747","lat":"31.24793624","category":"46","category_name":"楼宇","address":"东泰大厦位于虹口上海市外滩塘沽路309号"},{"poiid":"B2094751D36FA7FC4992","title":"北外滩之夜酒吧","lon":"121.4895","lat":"31.24745","category":"247","category_name":"餐饮美食","address":"虹口区吴淞路205号恒升半岛国际酒店26楼B(近武昌路)"},{"poiid":"B2094757D064A1FE4892","title":"太平洋口腔医疗中心","lon":"121.48987","lat":"31.24671","category":"500","category_name":"未知分类","address":"上海虹口区武昌路269号(近吴淞路)  "},{"poiid":"B209475DDA64A2F5449A","title":"同一首歌","lon":"121.489189","lat":"31.246513","category":"170","category_name":"KTV","address":"上海市 上海市虹口区吴淞路205号"},{"poiid":"B2094654D56EA1FD409A","title":"东北饺子馆(乍浦路)","lon":"121.488","lat":"31.2463","category":"82","category_name":"东北菜","address":"虹口区乍浦路106号(近海宁路)"},{"poiid":"B2094757D16CA2F9419D","title":"东之杰","lon":"121.4879","lat":"31.24642","category":"76","category_name":"上海菜","address":"虹口区乍浦路88号(近天潼路)"},{"poiid":"B2094757DA6BA3F4429F","title":"城投控股大厦","lon":"121.489022","lat":"31.246407","category":"252","category_name":"楼宇机构","address":"徐汇钦州北路188号"},{"poiid":"B2094751D16CAAFE429B","title":"城投大厦","lon":"121.489799","lat":"31.246865","category":"252","category_name":"楼宇机构","address":"虹口区吴淞路130号城投大厦"},{"poiid":"B2094655D26FA6FE469B","title":"上海太平洋口腔医院","lon":"121.48939","lat":"31.2468","category":"162","category_name":"医院","address":"虹口区武昌路269号"},{"poiid":"B2094757D56EA2FB419E","title":"辉煌海鲜捞","lon":"121.48825564213","lat":"31.247010228679","category":"247","category_name":"餐饮美食","address":"虹口区黄浦路128号"},{"poiid":"B2094757D664A5F5489B","title":"重庆周氏麻辣烫 武昌店","lon":"121.489907","lat":"31.2468847","category":"68","category_name":"快餐厅","address":"虹口区武昌路297号(近吴淞路)"},{"poiid":"B2094757D065AAFB479D","title":"丁香饭店","lon":"121.48778","lat":"31.24677","category":"76","category_name":"上海菜","address":"虹口区乍浦路78号(近天潼路)"},{"poiid":"B2094655D26CAAFB469F","title":"同仁里","lon":"121.48911","lat":"31.24645","category":"47","category_name":"住宅区","address":"吴淞路143弄43-79号"},{"poiid":"B2094757D469A5F8419E","title":"牛奶棚 吴淞路店","lon":"121.489595054","lat":"31.245791793","category":"67","category_name":"甜品店","address":"虹口区吴淞路119号(近天潼路)"},{"poiid":"B2094757D169A3FC4298","title":"Mezomd Bar","lon":"121.490364738","lat":"31.2444546033","category":"500","category_name":"未知分类","address":"上海外白渡桥"},{"poiid":"B2094655D26DA3FD4692","title":"同仁里(东门)","lon":"121.48937","lat":"31.24636","category":"47","category_name":"住宅区","address":"吴淞路143弄43-79号"},{"poiid":"B2094655D26DAAFF449A","title":"半岛咖啡厅","lon":"121.48931","lat":"31.24717","category":"65","category_name":"咖啡厅","address":""},{"poiid":"B2094757D56CA5F54693","title":"红辣椒 吴淞店","lon":"121.489738","lat":"31.2466616","category":"247","category_name":"餐饮美食","address":"吴淞路144号"},{"poiid":"B209475CD16AABF9429F","title":"Zoo Coffee","lon":"121.488822","lat":"31.246572","category":"500","category_name":"未知分类","address":"上海市 四川北路859号中信广场中庭102(近塘沽路)"},{"poiid":"B2094757D069A4FE4593","title":"上海市公安局虹口分局办证接待处","lon":"121.49066945","lat":"31.246804253","category":"500","category_name":"未知分类","address":"上海虹口区闵行路260号"},{"poiid":"B2094655D26AAAF4409F","title":"灵怡一番屋 虹口店","lon":"121.489854054","lat":"31.244008793","category":"269","category_name":"烧烤","address":"虹口区北苏州路20号上海大厦1楼(近吴淞路)"},{"poiid":"B2094757D068A1FD499D","title":"福德商务楼","lon":"121.489668838","lat":"31.2471399605","category":"46","category_name":"楼宇","address":"上海吴淞路50号(天潼路)"},{"poiid":"B2094757D068A0FF4692","title":"中国建设银行股份有限公司上海虹口支行","lon":"121.48999786","lat":"31.247400283","category":"500","category_name":"未知分类","address":"虹口区吴淞路211号(汉阳路塘沽路)"},{"poiid":"B2094757D064A7FE4893","title":"天潼路242号","lon":"121.488731538","lat":"31.2463253432","category":"47","category_name":"住宅区","address":"上海天潼路242号"},{"poiid":"B2094757D168ABFB4199","title":"新疆穆斯林顾客满意餐厅","lon":"121.48795","lat":"31.24634","category":"90","category_name":"清真餐馆","address":"虹口区乍浦路414号"},{"poiid":"B2094654DA6FA6FE439A","title":"天武小区","lon":"121.48856","lat":"31.246578","category":"47","category_name":"住宅区","address":"武昌路309弄"},{"poiid":"B2094752DB6FA7FD459F","title":"上海外滩","lon":"121.490742","lat":"31.247427","category":"500","category_name":"未知分类","address":"上海市 上海外滩"},{"poiid":"B2094655D26DA7FC429F","title":"银波大厦","lon":"121.48999","lat":"31.24555","category":"46","category_name":"楼宇","address":""},{"poiid":"B209475CD769ABFA459C","title":"zoo coffee","lon":"121.488868","lat":"31.246288","category":"500","category_name":"未知分类","address":"上海市 上海市四川北路853号 中信广场 中庭1F"},{"poiid":"B2094654DB6BABFC4799","title":"天武小区(北门)","lon":"121.4887","lat":"31.24694","category":"47","category_name":"住宅区","address":"武昌路311"},{"poiid":"B2094757D165A7F54993","title":"冈山眷村台湾私房牛肉面","lon":"121.48958143","lat":"31.24715446","category":"247","category_name":"餐饮美食","address":"上海乍浦路167号"},{"poiid":"B2094757D16AA3FF429E","title":"金米萝","lon":"121.48757173","lat":"31.24666965","category":"500","category_name":"未知分类","address":"上海虹口区乍浦路"},{"poiid":"B2094654DA6FA6FE489E","title":"重庆鸡公煲乍浦店","lon":"121.4875","lat":"31.24655","category":"71","category_name":"四川菜","address":"虹口区北海宁路64号104室(近乍浦路)"},{"poiid":"B2094757D069A2FB439D","title":"61路吴淞路天潼路站","lon":"121.489157","lat":"31.244892","category":"38","category_name":"公交车站","address":"上海吴淞路天潼路"},{"poiid":"B2094655D26AA5FC4598","title":"恒升半岛国际酒店牡丹厅","lon":"121.48944","lat":"31.24746","category":"247","category_name":"餐饮美食","address":"虹口区吴淞路205号恒升半岛国际酒店3楼(近武昌路)查看地图"},{"poiid":"B2094757D065A5F84398","title":"品寿司","lon":"121.491281","lat":"31.24787","category":"95","category_name":"日本料理","address":"虹口区塘沽路195号(峨眉路塘沽路)"},{"poiid":"B2094757D665A3FC4792","title":"浏阳河香辣馆 乍浦路店","lon":"121.487669","lat":"31.24598","category":"77","category_name":"湖南菜","address":"虹口区乍浦路91号(近天潼路)"},{"poiid":"B2094655D265ABFC4798","title":"河滨豪园","lon":"121.487","lat":"31.2469","category":"47","category_name":"住宅区","address":"上海市闸北区北苏州路668号"},{"poiid":"B2094654DB64AAFD4498","title":"北京小区","lon":"121.491","lat":"31.2464","category":"47","category_name":"住宅区","address":"北京东路288弄8号"},{"poiid":"B2094757D569A2F44592","title":"上海大厦18楼餐厅","lon":"121.4900058","lat":"31.2443025","category":"76","category_name":"上海菜","address":"虹口区北苏州路20号上海大厦18楼(近吴淞路)"},{"poiid":"B2094757D169A3FD4399","title":"上海市堤防(泵闸)设施管理处","lon":"121.489967955","lat":"31.2455355894","category":"46","category_name":"楼宇","address":"上海市虹口区天潼路80号(上海大厦北侧)"},{"poiid":"B209475DD66DA5F8419F","title":"Zoo coffee","lon":"121.488136","lat":"31.245754","category":"247","category_name":"餐饮美食","address":"上海市 虹口区四川北路859号"},{"poiid":"B2094654DB6BABFC449F","title":"好德No.246","lon":"121.48988","lat":"31.24558","category":"117","category_name":"便民商店/便利店","address":"吴淞路80"},{"poiid":"B2094757D069A5FD439A","title":"虹口区业余大学","lon":"121.48968","lat":"31.2482","category":"52","category_name":"高等院校","address":"虹口区吴淞路297号(近昆山路)"},{"poiid":"B2094753D26CA5F4409A","title":"江边城外烤鱼","lon":"121.487529","lat":"31.247777","category":"247","category_name":"餐饮美食","address":"上海市 五角场百联又一城"},{"poiid":"B209475CD46FA3F8439A","title":"Staytion","lon":"121.488166","lat":"31.246671","category":"500","category_name":"未知分类","address":"上海市 虹口区海宁路四川北路"},{"poiid":"B2094757D165A1FE4098","title":"乍浦路地段医院","lon":"121.48957","lat":"31.2479","category":"162","category_name":"医院","address":"虹口区塘沽路300号(汉阳路塘沽路)"},{"poiid":"B2094654DA6FA6FE429E","title":"阳光男孩工作室","lon":"121.48819","lat":"31.24698","category":"148","category_name":"美容美发店","address":"武昌路331"},{"poiid":"B2094750D664AAFA499E","title":"御园中餐厅","lon":"121.489","lat":"31.2489","category":"72","category_name":"广东菜","address":"虹口区吴淞路299号宝御酒店3楼(近塘沽路)"},{"poiid":"B2094655D268A6F5459F","title":"联安里","lon":"121.48824","lat":"31.24592","category":"47","category_name":"住宅区","address":"天潼路242弄3-45号"},{"poiid":"B2094655D26CAAFE4792","title":"上海市公安局虹口分局出入境接待大厅","lon":"121.49013","lat":"31.24761","category":"248","category_name":"生活娱乐","address":""},{"poiid":"B2094654DA6FA7F4439C","title":"飘鹰大酒店","lon":"121.48759","lat":"31.24573","category":"215","category_name":"三星级宾馆","address":"虹口区乍浦路71号(近天潼路)"},{"poiid":"B2094655D268A6F5459E","title":"联安里(南门)","lon":"121.4883","lat":"31.24572","category":"47","category_name":"住宅区","address":"天潼路242弄3-45号"},{"poiid":"B2094655D26DA1FD419B","title":"中一大楼","lon":"121.491","lat":"31.2465","category":"46","category_name":"楼宇","address":"北京东路270号"},{"poiid":"B2094654DA6FA6FE4298","title":"恒升半岛俱乐部","lon":"121.48931","lat":"31.24716","category":"248","category_name":"生活娱乐","address":"吴淞路205号恒升半岛国际中心"},{"poiid":"B2094751D26BA6F9409C","title":"地铁4号线大连路","lon":"121.4894929276499","lat":"31.24837257002929","category":"500","category_name":"未知分类","address":null},{"poiid":"B2094654DA6FA7F4439A","title":"德欣面馆","lon":"121.48966","lat":"31.24484","category":"68","category_name":"快餐厅","address":"虹口区吴淞路34号"},{"poiid":"B2094752D56DAAFE4192","title":"蒗渟泰式酒吧餐厅","lon":"121.49055","lat":"31.247303","category":"247","category_name":"餐饮美食","address":"滨江大道2600号"},{"poiid":"B2094654DA6FA4FE459F","title":"上海外滩社区老年公寓","lon":"121.4891855105","lat":"31.245270840123","category":"47","category_name":"住宅区","address":"山东北路22弄"},{"poiid":"B2094757D469A3FB479B","title":"珀玏坊法式西餐厅 Belle Vue","lon":"121.489854054","lat":"31.244008793","category":"97","category_name":"法式菜品餐厅","address":"北苏州路20号上海大厦2楼近吴淞路近外白渡桥"},{"poiid":"B2094654DA6FA7F54492","title":"光明便利No.527","lon":"121.48787","lat":"31.24572","category":"117","category_name":"便民商店/便利店","address":"乍浦路68"},{"poiid":"B2094753D764AAFB459C","title":"外滩茂悦大酒店","lon":"121.488822","lat":"31.247886","category":"500","category_name":"未知分类","address":"上海市 黄浦路199号"},{"poiid":"B2094757D165A1F4469E","title":"肯德基KFC 虹桥火车站店","lon":"121.488975403","lat":"31.2485611655","category":"500","category_name":"未知分类","address":"上海虹桥火车站B1"},{"poiid":"B2094655D268A7F54893","title":"沈家门海鲜馆","lon":"121.49042","lat":"31.24459","category":"76","category_name":"上海菜","address":"虹口区大名路25号(近外白渡桥)"},{"poiid":"B2094757D16CA0FA4499","title":"闵行路长治路站(公交22,33,37,135,868,934)","lon":"121.491100738","lat":"31.2461676398","category":"38","category_name":"公交车站","address":"上海虹口区闵行路长治路(外白渡桥)"},{"poiid":"B2094757D465A4F9469B","title":"恒升半岛咖啡厅","lon":"121.489512254","lat":"31.247433193","category":"260","category_name":"其他","address":"虹口区吴淞路205号恒升半岛国际酒店内(近武昌路)"},{"poiid":"B2094654DA6FA7FA4898","title":"可的(闵行路)","lon":"121.49112","lat":"31.24705","category":"117","category_name":"便民商店/便利店","address":"虹口区闵行路213号(近峨眉路)"},{"poiid":"B2094655D26DA3FD4492","title":"乍浦里(东门)","lon":"121.48752","lat":"31.24644","category":"47","category_name":"住宅区","address":"乍浦路113弄"},{"poiid":"B2094655D26DABF44998","title":"豪景苑(南门)","lon":"121.48854","lat":"31.24711","category":"48","category_name":"楼宇大门","address":""},{"poiid":"B2094752D36CA1F5429C","title":"ET CAFE","lon":"121.48855925","lat":"31.24758125","category":"500","category_name":"未知分类","address":"溧阳路113号"},{"poiid":"B2094655D26BA2FA419F","title":"塘沽路乍浦路","lon":"121.48773","lat":"31.24829","category":"38","category_name":"公交车站","address":""},{"poiid":"B2094654D56EA2F5469E","title":"可的(塘沽路)","lon":"121.48895","lat":"31.24818","category":"117","category_name":"便民商店/便利店","address":"虹口区塘沽路318号(近汉阳路)"},{"poiid":"B2094654DB6BABFC439C","title":"新康里南门","lon":"121.4908","lat":"31.24735","category":"47","category_name":"住宅区","address":"闵行路232弄3-35号"},{"poiid":"B2094655D36DA7FD419A","title":"乍浦路北苏州河路","lon":"121.48781","lat":"31.24526","category":"38","category_name":"公交车站","address":""},{"poiid":"B2094757D06AA0F8459D","title":"上食清真牛羊肉公司熟食部","lon":"121.48965","lat":"31.2477","category":"500","category_name":"未知分类","address":"上海虹口区塘沽路310-330号(吴淞路口)  "},{"poiid":"B2094655D26BA2FA419C","title":"塘沽路吴淞路","lon":"121.48959","lat":"31.24841","category":"38","category_name":"公交车站","address":""},{"poiid":"B2094655D268A6F54592","title":"潮闽轩","lon":"121.48766","lat":"31.24578","category":"260","category_name":"其他","address":"虹口区乍浦路71号(近天潼路)"},{"poiid":"B2094757D168AAF94692","title":"嫖客家","lon":"121.48931739","lat":"31.248215618","category":"247","category_name":"餐饮美食","address":null},{"poiid":"B2094655D26FA3FF409A","title":"奥金曼酒吧","lon":"121.48981","lat":"31.24556","category":"260","category_name":"其他","address":"虹口区吴淞路72-74号(近天潼路)"},{"poiid":"B2094655D26EA1F5469C","title":"Alliance Francaise","lon":"121.48937","lat":"31.24852","category":"247","category_name":"餐饮美食","address":"吴淞路297号6楼"},{"poiid":"B2094654DA6FA7FF499D","title":"上海家化(集团)有限公司","lon":"121.49048","lat":"31.24549","category":"263","category_name":"公司","address":"天潼路133号家化金融大厦"},{"poiid":"B2094757D064A5F44999","title":"松柏公寓","lon":"121.488","lat":"31.2456","category":"500","category_name":"未知分类","address":"上海市黄浦区北京东路431弄"},{"poiid":"B2094654D56EA2F54699","title":"上食清真牛羊肉专卖店No.1","lon":"121.48908","lat":"31.24816","category":"117","category_name":"便民商店/便利店","address":"塘沽路310"},{"poiid":"B2094757D064ABFA469C","title":"特色川味馆 塘沽路店","lon":"121.49259678552","lat":"31.247665841871","category":"71","category_name":"四川菜","address":"虹口区塘沽路157号(近南浔路)"},{"poiid":"B2094757D169A4FB4393","title":"海宁路第一小学","lon":"121.48747","lat":"31.24757","category":"56","category_name":"小学","address":"虹口区乍浦路173号(近塘沽路)"},{"poiid":"B2094757D16FA5F4499F","title":"中国人寿财产保险股份有限公司上海市分公司","lon":"121.490478","lat":"31.245496","category":"500","category_name":"未知分类","address":"上海虹口区天潼路133号12楼"},{"poiid":"B2094655D36DA7F4479A","title":"闵行路长治路","lon":"121.49141","lat":"31.24701","category":"38","category_name":"公交车站","address":""},{"poiid":"B2094654DB6BA3FB4099","title":"上海电视大学虹口分校(东门)","lon":"121.48941","lat":"31.2485","category":"52","category_name":"高等院校","address":"吴淞路297"},{"poiid":"B2094752D16DA0F44692","title":"k5","lon":"121.490989","lat":"31.24649","category":"247","category_name":"餐饮美食","address":"黄浦路200号"},{"poiid":"B2094655D26DA3FC459E","title":"乍浦里","lon":"121.48714","lat":"31.2464","category":"47","category_name":"住宅区","address":"乍浦路113弄"},{"poiid":"B2094757D068A1FC4799","title":"上海市中心图书馆虹口分馆","lon":"121.48756","lat":"31.24863","category":"181","category_name":"图书馆","address":"上海虹口区乍浦路245号(近昆山路)"},{"poiid":"B2094655D26BA2FC4699","title":"吴淞路闵行路","lon":"121.48964","lat":"31.24877","category":"38","category_name":"公交车站","address":""},{"poiid":"B2094757D068A2FD469F","title":"上海建工安装工程有限公司","lon":"121.4874287","lat":"31.2483265","category":"46","category_name":"楼宇","address":"上海市虹口区塘沽路390"},{"poiid":"B2094757D06BABF4409F","title":"61终点站","lon":"121.49014773","lat":"31.245008615","category":"500","category_name":"未知分类","address":"上海市吴凇路"},{"poiid":"B2094757D06AA5FF4092","title":"848路终点站","lon":"121.487803","lat":"31.248346","category":"38","category_name":"公交车站","address":"上海虹口区塘沽路乍浦路"},{"poiid":"B2094751DA6DA1FD4093","title":"上海半島酒店","lon":"121.48739295","lat":"31.24536805","category":"500","category_name":"未知分类","address":"中山東一路32號"},{"poiid":"B2094757D16FABF5479B","title":"易乐儿童乐园(春天百货店)","lon":"121.487516738","lat":"31.2464406456","category":"500","category_name":"未知分类","address":"虹口区四川北路521号春天百货"},{"poiid":"B2094757D065AAFD439A","title":"真食汇美食城","lon":"121.491488","lat":"31.246831","category":"247","category_name":"餐饮美食","address":"上海虹口区闵行路181号"},{"poiid":"B2094757D66CA6FE449F","title":"COME BUY","lon":"121.48770273","lat":"31.247920677","category":"500","category_name":"未知分类","address":"闸北区天目中路359号(近晋元路)"},{"poiid":"B2094655D26EA4F9499E","title":"塞外香驴火锅城","lon":"121.49152","lat":"31.2468","category":"86","category_name":"火锅店","address":"虹口区闵行路181号"},{"poiid":"B2094655D26BA3F54493","title":"纤纤美容养颜","lon":"121.48774","lat":"31.2461","category":"248","category_name":"生活娱乐","address":"虹口区乍浦路71号飘鹰大酒店4楼(近天潼路)"},{"poiid":"B2094757D66CA0F94498","title":"飘鹰大酒店中餐厅","lon":"121.48769","lat":"31.24702","category":"217","category_name":"旅馆招待所","address":"上海虹口区乍浦路71号飘鹰大酒店(近天潼路)  "},{"poiid":"B2094757D66DA0FF4198","title":"包旺锅贴(聚丰园店)","lon":"121.486703","lat":"31.246707","category":"247","category_name":"餐饮美食","address":"上海宝山区聚丰园路9弄(鸿基广场内)50号一楼"},{"poiid":"B2094655D26DA5FC479F","title":"上海市虹口区社区学院","lon":"121.48918","lat":"31.24864","category":"52","category_name":"高等院校","address":"吴淞路297"},{"poiid":"B2094757D66CA3FB429C","title":"闵行路长治路(Bus Stop N→S)","lon":"121.49198427","lat":"31.246112592","category":"38","category_name":"公交车站","address":"上海闵行路131号"},{"poiid":"B2094757D56EA6F8439A","title":"纤纤生活美容馆","lon":"121.4876379","lat":"31.2457884","category":"249","category_name":"购物服务","address":"乍浦路71号(近外滩)飘鹰大酒店4F"},{"poiid":"B2094757D169A7FB4499","title":"白渡桥站","lon":"121.491459","lat":"31.245552","category":"500","category_name":"未知分类","address":"上海大名路武昌路口"},{"poiid":"B2094757D66DA6F9409D","title":"纤纤美容","lon":"121.48745373","lat":"31.245977635","category":"148","category_name":"美容美发店","address":"上海市虹口区江西北路"},{"poiid":"B2094655D26CAAFE499C","title":"新康里东门","lon":"121.49121","lat":"31.24771","category":"47","category_name":"住宅区","address":"峨眉路119弄"},{"poiid":"B2094654DB6BABFC479F","title":"浦西小区(东门)","lon":"121.48728","lat":"31.24778","category":"47","category_name":"住宅区","address":"蟠龙街26号"},{"poiid":"B2094655D26CA4F44499","title":"新康里(南一号门)","lon":"121.4916","lat":"31.24694","category":"47","category_name":"住宅区","address":"闵行路188弄2-42号"},{"poiid":"B2094757D66AA0F8409E","title":"Alt-coffee","lon":"121.489296054","lat":"31.244541793","category":"260","category_name":"其他","address":"虹口区吴淞路30号(近北苏州路)"},{"poiid":"B2094757D16CAAFA4398","title":"塘沽路乍浦路口","lon":"121.48779236","lat":"31.248523181","category":"500","category_name":"未知分类","address":"上海塘沽路乍浦路口"},{"poiid":"B2094655D26CAAFE4793","title":"新康里(南二号门)","lon":"121.49172","lat":"31.24686","category":"47","category_name":"住宅区","address":"闵行路178弄5-41号"},{"poiid":"B2094757D568A5FB459F","title":"上海市虹口区桂福综合商店","lon":"121.4909896","lat":"31.2478814","category":"117","category_name":"便民商店/便利店","address":"塘沽路207"},{"poiid":"B2094757D16FA2FB4493","title":"Y ' s home","lon":"121.491078738","lat":"31.247207962","category":"500","category_name":"未知分类","address":null},{"poiid":"B2094757DA6EABFC489C","title":"纤纤美容养颜SPA(虹口店)","lon":"121.487720000002","lat":"31.2455710000002","category":"248","category_name":"生活娱乐","address":"虹口区乍浦路71号飘鹰大酒店4楼"},{"poiid":"B2094654D56EA1FD469F","title":"中国工商银行上海市吴淞路支行","lon":"121.48939","lat":"31.24855","category":"150","category_name":"银行","address":"虹口区吴淞路297号近塘沽路(汉阳路塘沽路)"},{"poiid":"B2094655D269AAFB4593","title":"金富运酒店中餐厅","lon":"121.48927","lat":"31.24891","category":"247","category_name":"餐饮美食","address":"虹口区吴淞路299号2楼(近昆山路)"},{"poiid":"B2094757D16BA6FB489F","title":"L'Alliance Francaise","lon":"121.48919","lat":"31.248643","category":"500","category_name":"未知分类","address":"上海虹口区吴淞路虹口区业余大学五楼"},{"poiid":"B2094757D66EABF9459F","title":"寶石樓","lon":"121.48706773","lat":"31.246409645","category":"500","category_name":"未知分类","address":"上海市乍浦路116號"},{"poiid":"B2094655D269AAFD4998","title":"金富运桑拿中心","lon":"121.48927","lat":"31.24891","category":"247","category_name":"餐饮美食","address":"虹口区吴淞路299号金富运大酒店辅楼5楼"},{"poiid":"B2094757D16EABF94699","title":"沙縣小吃","lon":"121.4913701","lat":"31.248072955","category":"247","category_name":"餐饮美食","address":"上海市虹口区峨眉路"},{"poiid":"B2094757D66EA2FE4398","title":"肯德基 KFC (清河店)","lon":"121.491665738","lat":"31.2453506224","category":"500","category_name":"未知分类","address":"上海城中路162号"},{"poiid":"B2094757D66AA5FD419F","title":"安琪酒吧 Angie's Pub","lon":"121.491135","lat":"31.245336","category":"172","category_name":"酒吧","address":"虹口区大名路72号(近金山路)"},{"poiid":"B2094654D56EA1FC4293","title":"上海市虹口区第一中心小学","lon":"121.48854","lat":"31.24925","category":"56","category_name":"小学","address":"虹口区昆山路111"},{"poiid":"B2094655D268A6F54599","title":"同德里(南门)","lon":"121.48647","lat":"31.24699","category":"47","category_name":"住宅区","address":"武昌路420弄6-37号"},{"poiid":"B2094654DA6FA7F4439B","title":"上海北外滩地区楼宇服务中心分部","lon":"121.48966","lat":"31.24478","category":"248","category_name":"生活娱乐","address":"吴淞路32号"},{"poiid":"B2094757D16AA2FA469C","title":"小王子美容美发连锁机构","lon":"121.490430103","lat":"31.2487809701","category":"148","category_name":"美容美发店","address":"上海虹口区乍浦路304号"},{"poiid":"B2094757D16FABFD4993","title":"吴淞路塘沽路","lon":"121.490938","lat":"31.248383","category":"500","category_name":"未知分类","address":"上海吴淞路218号"},{"poiid":"B2094750D169AAF9479F","title":"联合教堂","lon":"121.488555","lat":"31.244016","category":"252","category_name":"楼宇机构","address":"黄浦区圆明园路(近半岛酒店)"},{"poiid":"B2094654D56EA1FD459C","title":"金富运大酒店","lon":"121.48927","lat":"31.24891","category":"214","category_name":"四星级宾馆","address":"虹口区吴淞路299号"},{"poiid":"B2094655D264A0FE4493","title":"昆山路103弄小区","lon":"121.48877","lat":"31.24929","category":"47","category_name":"住宅区","address":""},{"poiid":"B2094654D56EA2F5459C","title":"小王子美容美发形象设计福生连锁机构","lon":"121.487","lat":"31.24824","category":"148","category_name":"美容美发店","address":"塘沽路423号"},{"poiid":"B209475CD16AA5FE4299","title":"外滩隧道","lon":"121.491844","lat":"31.247085","category":"500","category_name":"未知分类","address":"上海市 外滩隧道"},{"poiid":"B2094757D064A6FD419D","title":"西山","lon":"121.48994","lat":"31.244321","category":"500","category_name":"未知分类","address":"上海苏州"},{"poiid":"B2094757D168A2F44299","title":"上海市外国人就业中心","lon":"121.490158","lat":"31.248755","category":"500","category_name":"未知分类","address":"上海吴淞路258号"},{"poiid":"B2094757D569A3F8459C","title":"British Bar","lon":"121.4899439","lat":"31.244325","category":"260","category_name":"其他","address":"虹口区北苏州路20号上海大厦1楼(近吴淞路)"},{"poiid":"B2094655D264A1F8409B","title":"旌盛艺术馆","lon":"121.48968","lat":"31.24437","category":"131","category_name":"珠宝首饰工艺品","address":""},{"poiid":"B2094757D16BA4FF489B","title":"大名路武昌路","lon":"121.491661","lat":"31.245207","category":"500","category_name":"未知分类","address":"上海大名路108号"},{"poiid":"B2094654D56DABFE499B","title":"泛成国际货运有限公司","lon":"121.49094","lat":"31.24838","category":"248","category_name":"生活娱乐","address":"吴淞路218号宝矿国际大厦8-11层"},{"poiid":"B2094757D169ABFB499C","title":"上海市劳教局","lon":"121.4895081","lat":"31.24928498","category":"500","category_name":"未知分类","address":"上海市吴淞路333号"},{"poiid":"B2094757D165A4FF4293","title":"萍萍餐厅","lon":"121.4892071","lat":"31.248888972","category":"500","category_name":"未知分类","address":"上海市杨浦区波阳路12号"},{"poiid":"B2094654D56DABFE4899","title":"中国银联股份有限公司上海分公司","lon":"121.49094","lat":"31.24838","category":"263","category_name":"公司","address":"吴淞路218号宝矿国际大厦7层"},{"poiid":"B2094757D16AAAFD439F","title":"皇家一号","lon":"121.491426","lat":"31.245021","category":"500","category_name":"未知分类","address":"上海金山"},{"poiid":"B2094654D56DABFF429A","title":"乌兹别克斯坦共和国驻上海总领事馆","lon":"121.49018","lat":"31.24875","category":"252","category_name":"楼宇机构","address":"吴淞路258号耀江国际广场8层801"},{"poiid":"B2094750D76FA1FB4199","title":"曼索蒂咖啡","lon":"121.49","lat":"31.2441","category":"260","category_name":"其他","address":"虹口区大名路26号(近浦江饭店)"},{"poiid":"B2094655D265A6F94098","title":"优特埃国际物流(中国)有限公司","lon":"121.48998","lat":"31.24909","category":"248","category_name":"生活娱乐","address":"吴淞路268"},{"poiid":"B2094655D265A7FC419B","title":"悠游电子游艺馆","lon":"121.48731","lat":"31.24817","category":"173","category_name":"游戏厅","address":"虹口区乍浦路218号(近塘沽路)"},{"poiid":"B2094655D264A7FD4393","title":"中意人寿","lon":"121.49094","lat":"31.24838","category":"219","category_name":"其他","address":"吴淞路218号宝矿国际大厦"},{"poiid":"B2094655D26FAAF4419B","title":"上海大厦(东门)","lon":"121.49038","lat":"31.24443","category":"656","category_name":"大门","address":"上海市虹口区北苏州路20号（近外白渡桥）"}]