[{"poiid":"B2094757D06FA7FE4793","title":"薇拉宫邸私人婚礼会所(杨浦店)","lon":"121.53268","lat":"31.29639","category":"500","category_name":"未知分类","address":"杨浦区营口路699号(近双阳北路)查看地图"},{"poiid":"B2094757D06FA7FB409F","title":"佳龙花园","lon":"121.53535","lat":"31.296806","category":"47","category_name":"住宅区","address":"上海市营口路600弄"},{"poiid":"B2094757DA64AAF54799","title":"五角场","lon":"121.531717","lat":"31.296098","category":"500","category_name":"未知分类","address":"万达广场"},{"poiid":"B2094757D06FA3FC4398","title":"汤豪仕汤馆 国顺店","lon":"121.535952054","lat":"31.300504793","category":"76","category_name":"上海菜","address":"杨浦区国顺东路180号(近沙岗路)"},{"poiid":"B2094757D06BA0F44798","title":"八号线 延吉中路站","lon":"121.532200903","lat":"31.2966668709","category":"500","category_name":"未知分类","address":"上海市杨浦区靖宇中路营口路"},{"poiid":"B2094757D06FA7F84293","title":"肯德基 KFC (国顺店)","lon":"121.536208","lat":"31.300525","category":"68","category_name":"快餐厅","address":"杨浦区国顺东路180号(近沙岗路)"},{"poiid":"B2094757D06FA1FF4198","title":"深山老屋(国顺店)","lon":"121.53643","lat":"31.30035","category":"260","category_name":"其他","address":"杨浦区沙岗路632号(国顺东路口)"},{"poiid":"B2094655D26DA4FE4499","title":"华夏良子上海旗舰店","lon":"121.53315","lat":"31.29881","category":"149","category_name":"洗浴推拿场所","address":"国顺东路258"},{"poiid":"B2094757D068A3FA489F","title":"控江五村","lon":"121.536","lat":"31.2946","category":"252","category_name":"楼宇机构","address":"上海双阳路靖宇中路口"},{"poiid":"B2094655D26AA0FA429A","title":"地铁黄兴公园站","lon":"121.53276","lat":"31.29651","category":"36","category_name":"地铁站","address":""},{"poiid":"B2094655D26DABFB419C","title":"黄兴绿园(国顺东路)","lon":"121.53826","lat":"31.30028","category":"47","category_name":"住宅区","address":"国顺东路179弄"},{"poiid":"B2094757D66EA5FD449F","title":"仲益黄兴健身游泳瑜伽会所","lon":"121.531677103","lat":"31.2985010093","category":"500","category_name":"未知分类","address":"杨浦区国顺东路318号仲益黄兴体育公园内(近双阳北路)"},{"poiid":"B2094757D068A4FB4592","title":"颐风茶道","lon":"121.53686","lat":"31.29993","category":"260","category_name":"其他","address":"杨浦区沙岗路588号(国顺东路沙岗路)"},{"poiid":"B2094654DB6BA2F4429D","title":"佳泰花园","lon":"121.53121","lat":"31.299124","category":"47","category_name":"住宅区","address":"上海市杨浦区营口路789弄1号(国顺东路口)"},{"poiid":"B2094757D069AAFE429F","title":"哈达瑜伽会所(佳木斯路店)","lon":"121.537234491","lat":"31.2958221136","category":"148","category_name":"美容美发店","address":"杨浦区佳木斯路358号2楼(近营口路)"},{"poiid":"B2094654D56FA5FC429C","title":"黄兴公园(东门)","lon":"121.53286","lat":"31.29486","category":"656","category_name":"大门","address":""},{"poiid":"B2094757D069A6FD409E","title":"豪享来上海国顺店","lon":"121.5358","lat":"31.3013","category":"247","category_name":"餐饮美食","address":"上海市杨浦区沙岗路620号国顺东路店"},{"poiid":"B2094757DA6FA3F44298","title":"鸡排超人(黄兴公园店)","lon":"121.534342999999","lat":"31.2990749999998","category":"68","category_name":"快餐厅","address":"杨浦区国顺东路237号(近营口路)"},{"poiid":"B2094757D16AA3FF4699","title":"营口路","lon":"121.5367481","lat":"31.298007999","category":"500","category_name":"未知分类","address":"上海市杨浦区营口路"},{"poiid":"B2094757D068A7FB4598","title":"上海800号美术馆","lon":"121.53504","lat":"31.29969","category":"179","category_name":"音乐厅","address":"杨浦区国顺东路800号黄兴公园东楼1楼(近双阳北路)"},{"poiid":"B2094757D068A3FC469F","title":"意膳舫","lon":"121.53456","lat":"31.29369","category":"75","category_name":"浙江菜","address":"杨浦区营口路578号海尚杰作内(近佳木斯路)"},{"poiid":"B2094757D06AABF5419E","title":"重庆鸡公煲 国顺东路店","lon":"121.53605708498","lat":"31.300342585043","category":"71","category_name":"四川菜","address":"杨浦区国顺东路221号(近沙岗路)"},{"poiid":"B2094654D56FA6FB489A","title":"浣纱六村","lon":"121.53369","lat":"31.29766","category":"47","category_name":"住宅区","address":"营口路776弄3-13号"},{"poiid":"B2094750DB6CABFE459D","title":"农屋里香","lon":"121.53203","lat":"31.29788","category":"87","category_name":"特色／地方风味餐厅","address":"杨浦区国顺东路318号仲益高尔夫会所内(近黄兴公园)"},{"poiid":"B2094757D06AA1FF419D","title":"永琪美容美发(国顺店)","lon":"121.53351","lat":"31.29819","category":"148","category_name":"美容美发店","address":"杨浦区国顺东路249号(近营口路)"},{"poiid":"B2094757D66DABF5419B","title":"苏州面菜馆","lon":"121.53365","lat":"31.29828","category":"76","category_name":"上海菜","address":"杨浦区国顺东路245号(近黄兴公园)"},{"poiid":"B2094757D068A1F4419C","title":"苏武牧羊(国顺店)","lon":"121.53473","lat":"31.29892","category":"86","category_name":"火锅店","address":"杨浦区国顺东路"},{"poiid":"B2094654D56FA6F9469E","title":"仁缘坊","lon":"121.53511","lat":"31.298645","category":"47","category_name":"住宅区","address":"国顺东路201弄"},{"poiid":"B2094655D26FA0FF4298","title":"浣纱雅苑","lon":"121.53371","lat":"31.29767","category":"47","category_name":"住宅区","address":"上海市杨浦区营口路776弄"},{"poiid":"B2094757D069ABFF429A","title":"法国UWANTART当代画廊","lon":"121.5354","lat":"31.29991","category":"179","category_name":"音乐厅","address":"杨浦区国顺东路800号艺术园区三楼303-305室(近双阳北路)"},{"poiid":"B2094750D76EA3F54692","title":"渔乐勝","lon":"121.532","lat":"31.2979","category":"95","category_name":"日本料理","address":"杨浦区国顺东路318号仲益国际高尔夫会所内"},{"poiid":"B2094757D16AA0FA489E","title":"顺旺基","lon":"121.533247803","lat":"31.2985999114","category":"68","category_name":"快餐厅","address":"杨浦区国顺东路237号"},{"poiid":"B2094757D16FA4FE4799","title":"聚湘福","lon":"121.53345","lat":"31.29643","category":"77","category_name":"湖南菜","address":"杨浦区营口路776号(近国顺东路)"},{"poiid":"B2094654D56FA6F9439F","title":"河南拉面麻辣烫(国顺东路)","lon":"121.53276","lat":"31.29814","category":"68","category_name":"快餐厅","address":"杨浦区国顺东路267号(近营口路)"},{"poiid":"B2094750D664A7FB439D","title":"都可茶饮(靖宇东路店)","lon":"121.53603","lat":"31.30038","category":"113","category_name":"冷饮店","address":"杨浦区国顺东路200-3号(近沙岗路)"},{"poiid":"B2094655D36DA0FB459C","title":"营口路国顺东路","lon":"121.53209","lat":"31.29865","category":"38","category_name":"公交车站","address":""},{"poiid":"B2094757D06BAAFD469F","title":"凯华嘉禾沐浴","lon":"121.53291","lat":"31.2972","category":"149","category_name":"洗浴推拿场所","address":"上海杨浦区营口路788号(近国顺东路)  "},{"poiid":"B2094655D26DAAFE4799","title":"城浦公寓","lon":"121.5337","lat":"31.297665","category":"47","category_name":"住宅区","address":"营口路776弄3-13号"},{"poiid":"B2094757D165A3FC449D","title":"修身堂健康美体服务中心(营口路店)","lon":"121.53295","lat":"31.29698","category":"148","category_name":"美容美发店","address":"杨浦区营口路790号(近黄兴公园)"},{"poiid":"B2094752D369A3F4449C","title":"万达广场","lon":"121.538368","lat":"31.29781","category":"247","category_name":"餐饮美食","address":"五角场万达广场第一食品商店二楼"},{"poiid":"B2094655D26FA0F8439B","title":"浣纱四、五村(南门)","lon":"121.53356","lat":"31.29904","category":"47","category_name":"住宅区","address":""},{"poiid":"B2094757D069A5F9499E","title":"国顺东路沙岗路","lon":"121.537473","lat":"31.301165","category":"500","category_name":"未知分类","address":"上海国顺东路沙岗路"},{"poiid":"B2094757D169A6F8499E","title":"酷烫百变美容美发(国顺东路店)","lon":"121.53389925","lat":"31.298974776","category":"148","category_name":"美容美发店","address":"杨浦区国顺东路239号"},{"poiid":"B2094655D26FA0FE4298","title":"城浦公寓(北门)","lon":"121.53386","lat":"31.2988","category":"47","category_name":"住宅区","address":"国顺东路243弄1-5号"},{"poiid":"B2094757D069ABFD4193","title":"延吉幼儿园","lon":"121.534091954","lat":"31.2956836147","category":"57","category_name":"幼儿园","address":"杨浦区营口路600弄15号(近佳木斯路)"},{"poiid":"B2094757D569A7FB499D","title":"克莉丝汀佳木斯店","lon":"121.537185","lat":"31.29577194","category":"112","category_name":"糕饼店","address":"杨浦区佳木斯路356号(近营口路)"},{"poiid":"B2094750D768A5F84693","title":"轻松熊主题烘焙","lon":"121.535","lat":"31.2945","category":"112","category_name":"糕饼店","address":"杨浦区营口路578弄海尚杰座1号楼7k(黄兴公园对面)"},{"poiid":"B2094655D264ABFF419A","title":"艺品黄兴","lon":"121.53291","lat":"31.297661","category":"47","category_name":"住宅区","address":"艺品黄兴位于杨浦营口路776弄"},{"poiid":"B2094757D76EA3FB489C","title":"厨趣 icook","lon":"121.53465","lat":"31.2948","category":"67","category_name":"甜品店","address":"营口路578号海尚杰座1号楼7K座近佳木斯路"},{"poiid":"B2094757D068A0F9479E","title":"新昌润 长阳店","lon":"121.5345714682","lat":"31.292694241399","category":"247","category_name":"餐饮美食","address":"杨浦区长阳路2467号(近隆昌路)"},{"poiid":"B2094757D16EA7FA4292","title":"DQ万达广场","lon":"121.5332831","lat":"31.298909017","category":"500","category_name":"未知分类","address":"上海市邯郸路"},{"poiid":"B2094757D164A5FE469C","title":"华氏大药房(营口店)","lon":"121.53288","lat":"31.29777","category":"162","category_name":"医院","address":"杨浦区国顺东路275号(近黄兴路)"},{"poiid":"B2094757D169A1FB499D","title":"营口路安波路公交站","lon":"121.53275308","lat":"31.296840042","category":"38","category_name":"公交车站","address":"上海营口路安波路路口"},{"poiid":"B2094757D069ABF9439D","title":"爱婴室","lon":"121.5324123","lat":"31.298372793","category":"500","category_name":"未知分类","address":"杨浦区国顺东路260号(近营口路)"},{"poiid":"B2094757D069A6F9499D","title":"五角场镇社区卫生服务中心","lon":"121.533872","lat":"31.295202","category":"500","category_name":"未知分类","address":"上海营口路760号"},{"poiid":"B2094757D169A7FA4899","title":"中国石化加油站黄兴公园门市","lon":"121.533283","lat":"31.296237","category":"196","category_name":"公园","address":"上海营口路770号"},{"poiid":"B2094654D56FAAF84493","title":"舒雨美容美发（国顺店）","lon":"121.53455","lat":"31.29964","category":"148","category_name":"美容美发店","address":"杨浦区国顺东路228号(近沙岗路)"},{"poiid":"B2094757D065A3FD4592","title":"好德便利(浣纱店)","lon":"121.53378295","lat":"31.299150466","category":"117","category_name":"便民商店/便利店","address":"上海杨浦区国顺东路244号甲"},{"poiid":"B2094757D06FABF5479D","title":"万佳苑","lon":"121.53705","lat":"31.2946","category":"252","category_name":"楼宇机构","address":"上海市杨浦区佳木斯路321弄"},{"poiid":"B2094757D16DA0FA4793","title":"罗森 国顺路店","lon":"121.535568237","lat":"31.2999038696","category":"117","category_name":"便民商店/便利店","address":"上海国顺路209号"},{"poiid":"B2094654DB6BA2F8459A","title":"好德No.3018","lon":"121.53262","lat":"31.29738","category":"117","category_name":"便民商店/便利店","address":"营口路792"},{"poiid":"B2094654DB6BA2FB439B","title":"上海(杭州)湖畔人家酒店","lon":"121.53244","lat":"31.29843","category":"75","category_name":"浙江菜","address":"营口路816"},{"poiid":"B2094757D568A1FB4693","title":"嘉丽尔养生美容会所(国顺东路店)","lon":"121.53298204","lat":"31.29871582","category":"148","category_name":"美容美发店","address":"杨浦区国顺东路260号(国顺东路营口路)"},{"poiid":"B2094757D569A2FA4298","title":"麦奇面包坊","lon":"121.53264757","lat":"31.29847222","category":"112","category_name":"糕饼店","address":"杨浦区国顺东路260号1楼6铺(近营口路)"},{"poiid":"B2094654D56FAAF8429D","title":"绿景家苑","lon":"121.53362","lat":"31.3004","category":"47","category_name":"住宅区","address":"绿景家苑位于闵行营口路838弄"},{"poiid":"B2094757D66DA7F8499D","title":"蘑菇宝贝","lon":"121.5336791","lat":"31.298853016","category":"249","category_name":"购物服务","address":"上海市杨浦区国顺东路"},{"poiid":"B2094751D568A5F4479F","title":"东信港大酒店","lon":"121.53445","lat":"31.29461","category":"260","category_name":"其他","address":"杨浦区营口路578号海尚杰作内(近佳木斯路)"},{"poiid":"B2094654DB6BA2F84598","title":"城浦公寓1-5号(西门)","lon":"121.53261","lat":"31.29753","category":"47","category_name":"住宅区","address":"营口路776弄3-13号"},{"poiid":"B2094750DA6AA6FF4092","title":"延吉幼儿园","lon":"121.534141","lat":"31.295499","category":"57","category_name":"幼儿园","address":null},{"poiid":"B2094655D26DA5FF409F","title":"系洲健身俱乐部","lon":"121.53449","lat":"31.2996","category":"221","category_name":"健身中心","address":"杨浦区国顺东路232-1"},{"poiid":"B2094757D16AA4F44999","title":"营口路佳木斯路站(公交28,522,577,812,813,868)","lon":"121.532926","lat":"31.295918","category":"38","category_name":"公交车站","address":"上海营口路佳木斯路"},{"poiid":"B2094757D16EAAFE4292","title":"无限DIY蛋糕饼干烘培教室","lon":"121.535574103","lat":"31.2944129238","category":"500","category_name":"未知分类","address":"上海营口路578号海尚杰座1号楼7A座(近黄兴公园)"},{"poiid":"B2094654D56FA6FB419D","title":"快客(佳木斯路)","lon":"121.53758","lat":"31.29605","category":"117","category_name":"便民商店/便利店","address":"长白新村"},{"poiid":"B2094757D06BA4FB499F","title":"133路终点站","lon":"121.53663756","lat":"31.300757225","category":"38","category_name":"公交车站","address":"上海国顺东路沙岗路"},{"poiid":"B2094757D16AA6FA4493","title":"870营口路佳木斯路","lon":"121.53473663","lat":"31.296066958","category":"500","category_name":"未知分类","address":"上海营口路佳木斯路"},{"poiid":"B2094757D168ABF84192","title":"完美主义摄影","lon":"121.533336103","lat":"31.2959879567","category":"249","category_name":"购物服务","address":"杨浦区营口路618号(近黄兴公园地铁站1号口)"},{"poiid":"B2094753D464AAF9419E","title":"网鱼网咖","lon":"121.534599","lat":"31.299472","category":"248","category_name":"生活娱乐","address":"上海市 国顺东路"},{"poiid":"B2094757D16EABF54698","title":"佳友宠物","lon":"121.5341271","lat":"31.299332026","category":"249","category_name":"购物服务","address":"杨浦区国顺东路235号(近沙岗路)"},{"poiid":"B2094757DA69A2FE4498","title":"无限diy烘焙教室","lon":"121.53491253967","lat":"31.294583673563","category":"95","category_name":"日本料理","address":"杨浦区营口路578号海尚杰座1号楼7A座(近黄兴公园)"},{"poiid":"B2094757D569A7F4409A","title":"Iris Cafe","lon":"121.5376281","lat":"31.29565194","category":"65","category_name":"咖啡厅","address":"佳木斯路313号"},{"poiid":"B2094757D66EABF8479A","title":"绿地公园广场","lon":"121.534075103","lat":"31.2949059341","category":"196","category_name":"公园","address":"上海顾村公园"},{"poiid":"B2094757D16AABFF489B","title":"城市名园大门口","lon":"121.534440973","lat":"31.2995302008","category":"500","category_name":"未知分类","address":"上海包头路1150弄"},{"poiid":"B2094655D26CA6F5429E","title":"爱瑞咖啡","lon":"121.53762","lat":"31.29565","category":"65","category_name":"咖啡厅","address":"佳木斯路313号"},{"poiid":"B2094655D26AA3FF4292","title":"毅敏游泳馆","lon":"121.53465","lat":"31.2948","category":"247","category_name":"餐饮美食","address":"杨浦区营口路588号海尚杰座2楼(近佳木斯路)"},{"poiid":"B2094757D66CA3FF4693","title":"东茂家园","lon":"121.5331731","lat":"31.298664012","category":"500","category_name":"未知分类","address":"上海市杨浦区安波路"},{"poiid":"B2094655D26DABFB4392","title":"劲强桌球","lon":"121.53328","lat":"31.29617","category":"171","category_name":"台球厅","address":"营口路766甲6层"},{"poiid":"B2094655D26CA6F9469C","title":"哈达瑜伽","lon":"121.53709","lat":"31.29582","category":"221","category_name":"健身中心","address":"营口路600弄45号2层"},{"poiid":"B2094655D36DA0FB459D","title":"营口路佳木斯路","lon":"121.53358","lat":"31.29493","category":"38","category_name":"公交车站","address":""},{"poiid":"B2094655D26BA6FC4093","title":"佳龙大厦","lon":"121.53432","lat":"31.29468","category":"46","category_name":"楼宇","address":"营口路578号"},{"poiid":"B2094757D06AA7FF4498","title":"佳泰花苑","lon":"121.531702","lat":"31.299057","category":"47","category_name":"住宅区","address":"上海营口路789弄"},{"poiid":"B2094757D064ABF9429F","title":"七年八班烧烤店","lon":"121.5360067","lat":"31.300672354","category":"247","category_name":"餐饮美食","address":"上海长清路77号"},{"poiid":"B2094757D16AA6FE4193","title":"杏花楼食品专卖(国顺东路店)","lon":"121.53602","lat":"31.29985","category":"500","category_name":"未知分类","address":"上海杨浦区国顺东路201-2号(近沙岗路)  "},{"poiid":"B2094654D56FA6F9439D","title":"上海银行营口路支行","lon":"121.53242","lat":"31.29788","category":"150","category_name":"银行","address":"营口路800号"},{"poiid":"B2094750D268ABFC469C","title":"浣纱四、五村","lon":"121.533088","lat":"31.299125","category":"252","category_name":"楼宇机构","address":"上海市杨浦区国顺东路营口路"},{"poiid":"B2094750D465A2FC479E","title":"延吉东路82弄","lon":"121.538108","lat":"31.29737","category":"500","category_name":"未知分类","address":"延吉东路82弄"},{"poiid":"B2094757D568A1FA469D","title":"南京银行(杨浦支行)","lon":"121.53241943","lat":"31.29848226","category":"150","category_name":"银行","address":"中国上海市杨浦区营口路"},{"poiid":"B2094654D56FA6FB479B","title":"毅敏体育","lon":"121.53465","lat":"31.2948","category":"220","category_name":"运动场所","address":"杨浦区营口路578号海尚杰座2楼(近佳木斯路)"},{"poiid":"B209475CD36AA0FA4192","title":"小南国花园酒店ADD西餐厅","lon":"121.539173","lat":"31.298171","category":"268","category_name":"自助","address":"佳木斯路777号小南国花园酒店3楼(近营口路)"},{"poiid":"B2094655D26DA6FA489E","title":"东北福农家菜","lon":"121.537024054","lat":"31.301260793","category":"82","category_name":"东北菜","address":"杨浦区国顺东路102号(近包头南路)"},{"poiid":"B2094757D168A3F9469B","title":"上海医疗器械高等专科学校图书馆","lon":"121.534163","lat":"31.294674","category":"181","category_name":"图书馆","address":"上海营口路101号"},{"poiid":"B2094757D66CA1FE409F","title":"东鹰假日酒店","lon":"121.533278","lat":"31.296177","category":"217","category_name":"旅馆招待所","address":"上海营口路758号"},{"poiid":"B2094655D26FA0FF4599","title":"浣沙四、五村(东门)","lon":"121.53551","lat":"31.30098","category":"47","category_name":"住宅区","address":"沙岗路689"},{"poiid":"B2094655D26CA6F5429F","title":"佳木斯路315弄小区(北门)","lon":"121.53823","lat":"31.29617","category":"47","category_name":"住宅区","address":"佳木斯路315弄"},{"poiid":"B2094757D068A3FC429C","title":"怡佳苑","lon":"121.53907","lat":"31.296066","category":"500","category_name":"未知分类","address":"上海佳木斯路315弄沙岗路口"},{"poiid":"B2094757D16DA2FE4693","title":"金美","lon":"121.53626","lat":"31.30009","category":"500","category_name":"未知分类","address":"杨浦区沙岗路(近国顺东路)"},{"poiid":"B2094655D26DABFF409E","title":"万翼汽车生活馆","lon":"121.53334","lat":"31.29598","category":"159","category_name":"汽车维修","address":""},{"poiid":"B2094654D56FAAF84599","title":"台球电玩城(三树客栈西)","lon":"121.53491","lat":"31.29987","category":"248","category_name":"生活娱乐","address":""},{"poiid":"B2094654DB6BA2F84493","title":"上海杨浦城市建设投资有限公司(营口路)","lon":"121.53243","lat":"31.29771","category":"263","category_name":"公司","address":"营口路798号"},{"poiid":"B2094655D26CA5FB439F","title":"白玉兰环保广场二期","lon":"121.5353","lat":"31.29359","category":"46","category_name":"楼宇","address":"佳木斯路353号"},{"poiid":"B2094757D16FA5FD419B","title":"澜坊参茸海味行","lon":"121.5346678","lat":"31.294628828","category":"162","category_name":"医院","address":"上海杨浦区伟德路52号(创智坊，近松沪路大学路)"},{"poiid":"B2094757D569A3F9409E","title":"龙文教育","lon":"121.53246501","lat":"31.29851915","category":"190","category_name":"培训机构","address":"国顺东路260号"},{"poiid":"B2094654D56FA6FA499F","title":"上海市杨浦区民办新光医院","lon":"121.53936","lat":"31.29772","category":"162","category_name":"医院","address":"杨浦区佳木斯路258临"},{"poiid":"B2094757D66DA7FF4199","title":"新大桥中学","lon":"121.532838303","lat":"31.2993123513","category":"253","category_name":"校园生活","address":"上海黄兴路眉州支路"},{"poiid":"B2094752D364A6FA429A","title":"超级鸡车(国顺东路店)","lon":"121.53589","lat":"31.30054","category":"68","category_name":"快餐厅","address":"杨浦区国顺东路200号(近沙岗路)"},{"poiid":"B2094757D56EA5F5449D","title":"黄兴公园站1号口(地铁8号线)","lon":"121.533584","lat":"31.295597","category":"251","category_name":"出行住宿","address":"营口路608"},{"poiid":"B2094655D26DABFE489E","title":"佳龙花园(东二门)","lon":"121.537","lat":"31.2984","category":"656","category_name":"大门","address":""},{"poiid":"B209475CDA69A1FA449E","title":"藏珑云海","lon":"121.538833","lat":"31.296905","category":"500","category_name":"未知分类","address":"上海市 上海市杨浦区五角场大学路"},{"poiid":"B2094654DB6BA2FB439C","title":"上海环球公司浣纱店","lon":"121.53538","lat":"31.30118","category":"118","category_name":"超级市场","address":"沙岗路695-703"},{"poiid":"B2094654D56FA6FB4199","title":"俏皮宠物乐园","lon":"121.53764","lat":"31.2961","category":"129","category_name":"宠物用品店","address":"佳木斯路328"},{"poiid":"B2094654D56FA6F94699","title":"仁缘坊(北门)","lon":"121.53508","lat":"31.29958","category":"656","category_name":"大门","address":"国顺东路223弄"},{"poiid":"B2094655D26CA7FB419C","title":"浣纱雅苑(北门)","lon":"121.53386","lat":"31.2988","category":"656","category_name":"大门","address":"国顺东路243弄"},{"poiid":"B2094654D56FA6F9489F","title":"台球电玩(国顺东路)","lon":"121.53584","lat":"31.30009","category":"248","category_name":"生活娱乐","address":""},{"poiid":"B2094654D56FAAF8499E","title":"罗森(国顺东路)","lon":"121.5374","lat":"31.30148","category":"117","category_name":"便民商店/便利店","address":"国顺东路106"},{"poiid":"B2094757D66CA1F4499B","title":"诚马车饰","lon":"121.537902","lat":"31.296407","category":"163","category_name":"4S店","address":"上海佳木斯路318号"},{"poiid":"B2094655D26FA1F4489F","title":"好德No.3038","lon":"121.53746","lat":"31.30096","category":"117","category_name":"便民商店/便利店","address":"国顺东路183-2识别"},{"poiid":"B2094655D26CA5F9499A","title":"远东一村南门(佳木斯路)","lon":"121.53924","lat":"31.29756","category":"47","category_name":"住宅区","address":"佳木斯路266-270"},{"poiid":"B2094757D16CA6FF449A","title":"中国银行(佳木斯路支行)","lon":"121.53779","lat":"31.29574","category":"150","category_name":"银行","address":"杨浦区佳木斯路338号(佳木斯路沙岗路)"},{"poiid":"B2094655D36CA2FB459A","title":"沙岗路","lon":"121.5351","lat":"31.30198","category":"38","category_name":"公交车站","address":""},{"poiid":"B2094757D16FABFB439C","title":"Cherry's sweet house","lon":"121.538659103","lat":"31.2977789942","category":"500","category_name":"未知分类","address":null},{"poiid":"B2094654D56FA6F9499C","title":"名角女士生活馆NO.4568","lon":"121.53749","lat":"31.30099","category":"148","category_name":"美容美发店","address":""},{"poiid":"B2094654D56FA6FA409B","title":"申之春(国顺东路)","lon":"121.53786","lat":"31.30124","category":"148","category_name":"美容美发店","address":"国顺东路173"},{"poiid":"B2094654DB6BA2F84699","title":"佳龙花园(东门)","lon":"121.53617","lat":"31.29942","category":"656","category_name":"大门","address":"营口路600弄"},{"poiid":"B2094757D16AA4F84993","title":"八号线靖宇东路","lon":"121.5318831","lat":"31.298774615","category":"500","category_name":"未知分类","address":"上海地铁八号线"},{"poiid":"B2094757DA6EAAF44299","title":"老北京刷锅","lon":"121.537725100003","lat":"31.3014710999999","category":"247","category_name":"餐饮美食","address":"杨浦区国顺东路96号(近包头路)"},{"poiid":"B2094757D065ABFA469B","title":"靖宇东路夜市","lon":"121.5379137","lat":"31.295800802","category":"500","category_name":"未知分类","address":"上海靖宇东路（营口路至敦化路）"},{"poiid":"B2094654D56FAAF84898","title":"宝岛眼镜(国顺东路)","lon":"121.5362","lat":"31.30074","category":"132","category_name":"眼镜店","address":"杨浦区国顺东路180号101室(近沙岗路)"},{"poiid":"B2094654DB6BA2FB4499","title":"光明便利(国顺东路)","lon":"121.53718","lat":"31.30134","category":"117","category_name":"便民商店/便利店","address":"国顺东路126"},{"poiid":"B2094655D26FA1F4489C","title":"佳龙花园(南二门)","lon":"121.53694","lat":"31.2959","category":"656","category_name":"大门","address":"营口路600弄"},{"poiid":"B2094757D06BA1FE479E","title":"远东一村","lon":"121.53943","lat":"31.298613","category":"500","category_name":"未知分类","address":"上海佳木斯路包头南路口"},{"poiid":"B2094757D16EAAFD439F","title":"克丽缇娜(佳木斯路店)","lon":"121.53696","lat":"31.29511","category":"148","category_name":"美容美发店","address":"杨浦区佳木斯路370号(近佳龙花园)"},{"poiid":"B2094654D56FA6FB489B","title":"浣纱六村(西门)","lon":"121.53261","lat":"31.29754","category":"656","category_name":"大门","address":"营口路776弄3-13号"},{"poiid":"B2094757D16FA7FC439E","title":"工商银行佳木斯路支行","lon":"121.536556886","lat":"31.2948403906","category":"500","category_name":"未知分类","address":"上海楊浦區佳木斯路390號"},{"poiid":"B2094655D26CA5FE4293","title":"营口路788弄小区(西门)","lon":"121.53278","lat":"31.29722","category":"656","category_name":"大门","address":"营口路788弄1-11号"},{"poiid":"B2094752D06CA6FF469F","title":"长白新城","lon":"121.537815","lat":"31.295135","category":"47","category_name":"住宅区","address":"靖宇东路58弄"},{"poiid":"B2094757D568ABF8499C","title":"皖江之星商务酒店","lon":"121.53281169","lat":"31.29867052","category":"251","category_name":"出行住宿","address":"杨浦区国顺东路260号"},{"poiid":"B2094655D26CA6F4489C","title":"营口路788弄小区(南门)","lon":"121.53333","lat":"31.29665","category":"656","category_name":"大门","address":"营口路788弄"},{"poiid":"B2094757D169A3F4419B","title":"yoka发型工作室","lon":"121.537456","lat":"31.300964","category":"148","category_name":"美容美发店","address":"上海国顺东路183号"},{"poiid":"B2094654D56FAAF84398","title":"中信建投证券有限公司营口路证券营业部","lon":"121.53231","lat":"31.29874","category":"219","category_name":"其他","address":"营口路818"},{"poiid":"B2094654D56FAAF8439A","title":"中国工商银行国顺东路支行24小时自助银行","lon":"121.5323","lat":"31.29909","category":"152","category_name":"ATM","address":"营口路820"},{"poiid":"B2094757D568A0F8469A","title":"鑫墅通讯","lon":"121.53524794","lat":"31.30141819","category":"138","category_name":"家电电子卖场","address":"沙岗路719"},{"poiid":"B2094655D26CA5F4479A","title":"仁缘坊(北二门)","lon":"121.53554","lat":"31.29987","category":"656","category_name":"大门","address":""},{"poiid":"B2094757D66DABFE4092","title":"沙岗路邮政所","lon":"121.535678","lat":"31.301316","category":"500","category_name":"未知分类","address":"上海沙岗路654号"},{"poiid":"B2094654D56FAAF84799","title":"小山东水果沙岗店","lon":"121.53533","lat":"31.30189","category":"117","category_name":"便民商店/便利店","address":""},{"poiid":"B2094654D56FA6FB469D","title":"上海农村商业银行中原支行","lon":"121.53535","lat":"31.29427","category":"150","category_name":"银行","address":"佳木斯路432"},{"poiid":"B2094654DB6BA2F8469E","title":"佳龙花园(南门)","lon":"121.53619","lat":"31.29502","category":"656","category_name":"大门","address":"营口路600弄"},{"poiid":"B2094654D56FA6FB439F","title":"万佳苑(北门)","lon":"121.53676","lat":"31.29497","category":"48","category_name":"楼宇大门","address":"佳木斯路321弄"},{"poiid":"B2094757D165AAFC479A","title":"那又如何","lon":"121.535522103","lat":"31.2941799189","category":"500","category_name":"未知分类","address":null},{"poiid":"B2094654DB6BA2F84599","title":"浣纱雅苑(西门)","lon":"121.5326","lat":"31.29754","category":"656","category_name":"大门","address":"营口路776弄3-13号"},{"poiid":"B2094757D16DA0F4469F","title":"喜上眉梢婚礼策划(佳木斯路店)","lon":"121.53838","lat":"31.29581","category":"263","category_name":"公司","address":"上海"},{"poiid":"B2094757D16AA0FB429A","title":"沙岗路菜场","lon":"121.535485","lat":"31.301633","category":"500","category_name":"未知分类","address":"上海杨浦区沙岗路706号"},{"poiid":"B2094757D068A4FA439A","title":"綠景家園","lon":"121.5323881","lat":"31.300578052","category":"500","category_name":"未知分类","address":"上海市杨浦区營口路"},{"poiid":"B2094757D165A7FE419B","title":"Just","lon":"121.539553103","lat":"31.2968759753","category":"500","category_name":"未知分类","address":"it's the only thing to do"},{"poiid":"B2094757D16CA4F94193","title":"上海銀行","lon":"121.532301","lat":"31.299145","category":"260","category_name":"其他","address":"上海國順東路營口路"},{"poiid":"B2094757D16DABFB479B","title":"阿三熊窟","lon":"121.5393453","lat":"31.296822724","category":"500","category_name":"未知分类","address":"上海佳木斯路315弄"},{"poiid":"B2094655D26CA6F5429C","title":"佳龙花园(西门)","lon":"121.53398","lat":"31.29542","category":"656","category_name":"大门","address":"营口路600弄"},{"poiid":"B2094654D56FA6F94893","title":"中原地产国顺店","lon":"121.53704","lat":"31.30077","category":"248","category_name":"生活娱乐","address":"国顺东路191"},{"poiid":"B2094757D06AA0FE4893","title":"囧～宅","lon":"121.53948789","lat":"31.296627381","category":"500","category_name":"未知分类","address":null},{"poiid":"B2094757D66DA5FA4198","title":"和家苑","lon":"121.5389871","lat":"31.295897954","category":"500","category_name":"未知分类","address":"上海市佳木斯路315弄"},{"poiid":"B2094654D56FAAF84292","title":"绿景家苑(西门)","lon":"121.53226","lat":"31.30031","category":"48","category_name":"楼宇大门","address":"营口路838弄"},{"poiid":"B2094654D56FAAF84999","title":"羽弦琴行","lon":"121.53734","lat":"31.30145","category":"255","category_name":"专卖店","address":"国顺东路108号"},{"poiid":"B2094757D66DA5F94693","title":"杨浦区五角场镇315弄居委会","lon":"121.5357611","lat":"31.294001915","category":"253","category_name":"校园生活","address":"上海市杨浦区佳木斯路315弄14号乙-临6"},{"poiid":"B2094757D168A7F5429D","title":"137车站","lon":"121.538341","lat":"31.296373","category":"251","category_name":"出行住宿","address":"上海佳木斯路沙岗路"},{"poiid":"B2094654DB6BA2F8469F","title":"海尚杰座(西门)","lon":"121.53432","lat":"31.29468","category":"656","category_name":"大门","address":"营口路578、588"},{"poiid":"B2094654D568A3FB439C","title":"佳泰花园(东门)","lon":"121.53173","lat":"31.299","category":"656","category_name":"大门","address":"营口路789弄"},{"poiid":"B2094655D26CA5FE469C","title":"白玉兰环保广场二期(北门)","lon":"121.53566","lat":"31.29416","category":"48","category_name":"楼宇大门","address":"佳木斯路353号"},{"poiid":"B2094654D56FA6FA4992","title":"怡佳苑(北门)","lon":"121.53869","lat":"31.29658","category":"656","category_name":"大门","address":"佳木斯路275-279号"},{"poiid":"B2094655D26FA7FE449C","title":"怡佳苑(北二门)","lon":"121.5391","lat":"31.2969","category":"656","category_name":"大门","address":"佳木斯路315弄"},{"poiid":"B2094654D56FAAF8489B","title":"浣沙三村(西门)","lon":"121.53582","lat":"31.3011","category":"656","category_name":"大门","address":""},{"poiid":"B2094655D26FA7FD419C","title":"海尚杰座(南门)","lon":"121.5351","lat":"31.29412","category":"656","category_name":"大门","address":"营口路578-588号"},{"poiid":"B2094654D56FA6F94993","title":"黄兴绿园(北门)","lon":"121.53781","lat":"31.30119","category":"656","category_name":"大门","address":"国顺东路179弄"}]