[{"poiid":"B2094655D26FA1FD459E","title":"源深体育中心","lon":"121.53706","lat":"31.2334","category":"224","category_name":"综合体育馆","address":"浦东新区张杨路1458号"},{"poiid":"B2094757D06FA2FA4193","title":"源深体育馆","lon":"121.536191683","lat":"31.2310137082","category":"220","category_name":"运动场所","address":"上海浦东源深路200号"},{"poiid":"B2094757D06FA3F84798","title":"浦东假日酒店","lon":"121.536","lat":"31.2292","category":"214","category_name":"四星级宾馆","address":"浦东新区东方路899号(近向城路)"},{"poiid":"B2094757D06FA3FB429D","title":"浦东游泳馆(源深馆)","lon":"121.53847","lat":"31.23198","category":"231","category_name":"游泳馆","address":"浦东新区张杨路1458号源深体育中心内(近源深路)"},{"poiid":"B2094655D26AA0FB459F","title":"源深体育场","lon":"121.53635","lat":"31.2306","category":"247","category_name":"餐饮美食","address":"浦东新区深源路655号"},{"poiid":"B2094757D06FA6FE419D","title":"柚子林炭火烧肉(潍坊路店)","lon":"121.53636","lat":"31.22868","category":"269","category_name":"烧烤","address":"上海浦东新区潍坊路328号嘉瑞酒店1楼(近源深路)  "},{"poiid":"B2094757D068A4F9469E","title":"汉唐酒店","lon":"121.539241","lat":"31.23287","category":"72","category_name":"广东菜","address":"浦东新区桃林路777号(近张杨路)"},{"poiid":"B2094757D06FA5F8489D","title":"源深篮球公园","lon":"121.536632157","lat":"31.2295100303","category":"220","category_name":"运动场所","address":"浦东新区羽山路9号浦东源深体育中心6号门(潍坊路羽山路)"},{"poiid":"B2094757D068A6FE429D","title":"枣子树 源深店","lon":"121.534981","lat":"31.23073","category":"89","category_name":"中式素餐馆","address":"浦东新区张杨路1458号源深体育中心北区3楼(近源深路)"},{"poiid":"B2094757D06FA1F5459F","title":"中建大厦","lon":"121.54","lat":"31.2295","category":"46","category_name":"楼宇","address":"上海市浦东新区世纪大道1568号"},{"poiid":"B2094654DA68ABF8499E","title":"陆家嘴国际华城","lon":"121.53563","lat":"31.235361","category":"47","category_name":"住宅区","address":"上海市浦东新区张扬路1351号"},{"poiid":"B2094757D06FABFE439A","title":"宏嘉大厦","lon":"121.537","lat":"31.2307","category":"46","category_name":"楼宇","address":"上海浦东新区福山路388号"},{"poiid":"B2094654DA6AA2FD4292","title":"东方国际科技大厦","lon":"121.537","lat":"31.2299","category":"46","category_name":"楼宇","address":"浦东新区向城路58号"},{"poiid":"B2094655D26EA7FA4293","title":"苏先生海鲜渔庄 源深店","lon":"121.53480097364","lat":"31.232918552506","category":"260","category_name":"其他","address":"浦东新区源深路655号体育中心内(近张杨路)"},{"poiid":"B2094757D068A1FB479A","title":"陆家嘴花园","lon":"121.540586699","lat":"31.2326953785","category":"47","category_name":"住宅区","address":"上海浦东新区桃林路815弄"},{"poiid":"B2094757D06FABFF4799","title":"老碗 源深店","lon":"121.537022054","lat":"31.229380793","category":"84","category_name":"西北菜","address":"浦东新区羽山路68号(近源深路)"},{"poiid":"B2094757D165AAF54892","title":"陆家嘴基金大厦","lon":"121.539","lat":"31.2302","category":"46","category_name":"楼宇","address":"上海竹林路101號"},{"poiid":"B2094757D06FA2F9499F","title":"源深体育中心羽毛球场","lon":"121.538296989","lat":"31.2324749785","category":"220","category_name":"运动场所","address":"浦东新区张杨路1458号源深体育中心内(近源深路)"},{"poiid":"B2094757D06FA0FB439F","title":"宝钢大厦","lon":"121.538","lat":"31.2278","category":"46","category_name":"楼宇","address":"朝阳区北三环东路与京顺路交接处路口北侧"},{"poiid":"B2094654DA6AA3FB469F","title":"中达广场","lon":"121.536","lat":"31.2275","category":"46","category_name":"楼宇","address":"沈河北站路与北京街的交汇处"},{"poiid":"B2094757D06FA6FD449B","title":"盛世年华花园","lon":"121.5390333","lat":"31.229134892","category":"47","category_name":"住宅区","address":"上海市浦东新区羽山路100弄"},{"poiid":"B2094757D068A4FA489C","title":"鼎杰保龄球馆","lon":"121.53581","lat":"31.23152","category":"228","category_name":"保龄球馆","address":"浦东新区张杨路1458号源深体育馆3号门1楼(近源深路)"},{"poiid":"B2094757D06FAAF94899","title":"同盛大厦","lon":"121.538","lat":"31.2292","category":"46","category_name":"楼宇","address":"黄浦区南京东路311号"},{"poiid":"B2094757D069A1F84599","title":"全华信息大厦","lon":"121.538","lat":"31.2304","category":"46","category_name":"楼宇","address":"黄陂区楚天大道与盘龙三路交汇处"},{"poiid":"B2094655D26FA2F9439C","title":"新加坡泰国村鱼翅 浦东店","lon":"121.53573989868","lat":"31.228344021284","category":"72","category_name":"广东菜","address":"浦东新区潍坊路328号嘉瑞酒店内(近源深路)"},{"poiid":"B2094757D66BA2FA4098","title":"紫阳富豪精菜坊","lon":"121.53687","lat":"31.23347","category":"72","category_name":"广东菜","address":"浦东新区张杨路1458号源深体育中心1楼(近桃林路)"},{"poiid":"B2094654DA6AA3F5479A","title":"钱江大厦","lon":"121.537","lat":"31.2286","category":"46","category_name":"楼宇","address":"浦东新区东方路971号"},{"poiid":"B2094750DA6EA7F94892","title":"6号线世纪大道站","lon":"121.533592","lat":"31.230928","category":"500","category_name":"未知分类","address":"世纪大道"},{"poiid":"B2094757D064AAFE4599","title":"易公馆","lon":"121.536671","lat":"31.228654","category":"72","category_name":"广东菜","address":"浦东新区源深路789号2楼(近羽山路)"},{"poiid":"B2094654DA6AA3FA4792","title":"嘉兴大厦","lon":"121.535","lat":"31.2305","category":"46","category_name":"楼宇","address":"丰台学城海鹰路1号,3号"},{"poiid":"B2094655D26EA3F5479B","title":"中国电信张杨路营业厅","lon":"121.53703","lat":"31.23426","category":"151","category_name":"电讯营业厅","address":"张杨路1551号"},{"poiid":"B2094757D06FABF5459A","title":"新天国际大厦","lon":"121.538","lat":"31.2301","category":"46","category_name":"楼宇","address":"上海市长宁区遵义南路88号"},{"poiid":"B2094654DB64A6FB449B","title":"莫泰268(上海羽山路店)","lon":"121.53953","lat":"31.23068","category":"250","category_name":"公园户外","address":"上海市浦东新区羽山路166号(近桃林路)"},{"poiid":"B2094751D465A3F4489B","title":"镰仓pasta","lon":"121.538772","lat":"31.229763","category":"247","category_name":"餐饮美食","address":"浦东新区东方路796号96广场9号门2楼212单元(近世纪大道)"},{"poiid":"B2094757D569A2FE459F","title":"茶识地","lon":"121.53570584","lat":"31.23188911","category":"66","category_name":"茶艺馆","address":"浦东新区张杨路1458号源深体育中心1楼(近源深路)"},{"poiid":"B2094757D068A1FF4398","title":"国际华城","lon":"121.53430175","lat":"31.233566284","category":"47","category_name":"住宅区","address":"上海源深路419号"},{"poiid":"B2094654DA6AA2FE4799","title":"爵士大厦","lon":"121.535","lat":"31.2306","category":"46","category_name":"楼宇","address":"向城路29号"},{"poiid":"B2094757D06FAAFA489B","title":"星之健身(源深体育馆店)","lon":"121.53567","lat":"31.22904","category":"148","category_name":"美容美发店","address":"浦东新区张杨路1458号源深体育中心内(近源深路)"},{"poiid":"B2094654DB64ABF9479B","title":"源深游泳馆","lon":"121.53855","lat":"31.23223","category":"231","category_name":"游泳馆","address":"桃林路892"},{"poiid":"B2094757D069A1FA489E","title":"索福德足球世界(源深体育中心店)","lon":"121.53465","lat":"31.23251","category":"220","category_name":"运动场所","address":"浦东新区张杨路1458号源深体育中心内(近源深路)"},{"poiid":"B2094757D465ABFD419B","title":"甜心皇后咖啡 Sweet Queen","lon":"121.536355054","lat":"31.231988793","category":"247","category_name":"餐饮美食","address":"源深路655号源深加州酒店1楼近张杨路"},{"poiid":"B2094654DA6AA3F4459F","title":"一百杉杉大厦","lon":"121.536","lat":"31.2279","category":"46","category_name":"楼宇","address":"浦东临港新城主城区申港大道200号"},{"poiid":"B2094655D264A4F54499","title":"德加置地大厦","lon":"121.536","lat":"31.2322","category":"46","category_name":"楼宇","address":"世纪大道1118号"},{"poiid":"B2094655D265A7F8439E","title":"普罗旺斯的树 L'Arbre de Provence","lon":"121.536603054","lat":"31.231831793","category":"94","category_name":"西餐厅","address":"张杨路1458号源深体育中心3楼近桃林路"},{"poiid":"B2094757D06FA0FF439E","title":"源深SMP滑板公园","lon":"121.5351809","lat":"31.2304439","category":"196","category_name":"公园","address":"浦东新区源深路655号源深体育中心4号门(近张扬路)"},{"poiid":"B2094757D06BA6FC429B","title":"佳思多食品料理店(羽山路店)","lon":"121.53914","lat":"31.22978","category":"91","category_name":"台湾菜","address":"浦东新区羽山路146号(近源深路)"},{"poiid":"B2094654DB69AAF9499D","title":"宁波汉通酒店","lon":"121.53834","lat":"31.2347","category":"247","category_name":"餐饮美食","address":"上海市浦东新区张杨路1587号八方大厦2楼(近桃林路)"},{"poiid":"B2094655D269AAFA419A","title":"SPR咖啡源深路店","lon":"121.53635","lat":"31.2306","category":"247","category_name":"餐饮美食","address":"浦东新区源深路655号浦东体育公园内源深加州酒店1楼"},{"poiid":"B2094655D36DA7FC429F","title":"源深路张杨路","lon":"121.53438","lat":"31.2314","category":"38","category_name":"公交车站","address":""},{"poiid":"B2094654DB64A6FB449F","title":"源深加州酒店","lon":"121.53654","lat":"31.23061","category":"250","category_name":"公园户外","address":"源深路655号"},{"poiid":"B2094757D16DA2FB489F","title":"竞天台球俱乐部(源深体育中心店)","lon":"121.53621","lat":"31.23113","category":"171","category_name":"台球厅","address":"浦东新区源深路655号东区5楼(近源深体育中心)"},{"poiid":"B2094757DB6DA5F8439E","title":"上海鄂尔多斯艾力酒店","lon":"121.539521813","lat":"31.233371411","category":"216","category_name":"经济型连锁酒店","address":"桃林路777号(靠近张杨路路口)"},{"poiid":"B2094751D469A3FA499F","title":"香格里拉酒店","lon":"121.53627","lat":"31.231628","category":"500","category_name":"未知分类","address":null},{"poiid":"B2094654DB6AA7F44993","title":"唐晋人家(源深路店)","lon":"121.53543","lat":"31.23151","category":"260","category_name":"其他","address":"浦东新区张杨路1458号源深体育中心内(近源深路)"},{"poiid":"B2094757D569A6FA449D","title":"好家庭健身器材连锁","lon":"121.53671061","lat":"31.23158447","category":"140","category_name":"体育用品店","address":"中国上海市浦东新区"},{"poiid":"B2094654DA69ABF5429E","title":"上海市浦东新区精神卫生中心","lon":"121.53485","lat":"31.23027","category":"162","category_name":"医院","address":"浦东新区源深路622号(近张杨路)"},{"poiid":"B2094654DB65A0FD439E","title":"源深体育发展中心(2号门)","lon":"121.53454","lat":"31.23173","category":"224","category_name":"综合体育馆","address":""},{"poiid":"B2094654DA68ABF84393","title":"八方大酒店","lon":"121.53851","lat":"31.23477","category":"215","category_name":"三星级宾馆","address":"张杨路1587号(近桃林路)"},{"poiid":"B2094654DA69A3F8489E","title":"浦东网球中心","lon":"121.53911","lat":"31.23113","category":"226","category_name":"网球场","address":"浦东新区羽山路9号"},{"poiid":"B2094655D265A4FB4299","title":"远东国际大厦","lon":"121.539","lat":"31.2297","category":"46","category_name":"楼宇","address":"丰台学城海鹰路1号,3号"},{"poiid":"B2094655D36DA7FC4298","title":"源深路","lon":"121.53243","lat":"31.23229","category":"38","category_name":"公交车站","address":""},{"poiid":"B2094654DB65A0FD479B","title":"上海市台球培训中心","lon":"121.5367","lat":"31.23132","category":"190","category_name":"培训机构","address":"浦东新区源深体育发展中心5层(202-205)"},{"poiid":"B2094655D36DA0F54299","title":"羽山路源深路","lon":"121.53722","lat":"31.22952","category":"38","category_name":"公交车站","address":""},{"poiid":"B2094655D26FAAFA419C","title":"建平中学西校(陆家嘴国际华城西南)","lon":"121.53402","lat":"31.2342","category":"55","category_name":"中学","address":"源深路383"},{"poiid":"B2094654DB65A0FD479E","title":"蝎斗足球场","lon":"121.5353","lat":"31.23238","category":"230","category_name":"足球场","address":""},{"poiid":"B2094654DA69A3F94292","title":"源深体育发展中心(3号门)","lon":"121.53694","lat":"31.23336","category":"224","category_name":"综合体育馆","address":"张杨路1458"},{"poiid":"B2094757D66DA7FF499F","title":"伦伦餐厅","lon":"121.53606773","lat":"31.231915336","category":"500","category_name":"未知分类","address":"上海市浦东新区源深路665号源深体育中心内"},{"poiid":"B2094757D66CA2F94092","title":"老干部活动中心","lon":"121.536842","lat":"31.233563","category":"500","category_name":"未知分类","address":"浦东新区张杨路1458号源深体育中心内(近源深路)"},{"poiid":"B2094654DA69A3F94298","title":"源深乒羽中心","lon":"121.53752","lat":"31.23028","category":"220","category_name":"运动场所","address":"浦东新区张杨路1458号源深体育中心内(近源深路)"},{"poiid":"B2094655D26AA0FA439B","title":"地铁源深体育中心站","lon":"121.53439","lat":"31.23292","category":"36","category_name":"地铁站","address":""},{"poiid":"B2094654DA69A3F94193","title":"浦东体育公园(1号门)","lon":"121.5353","lat":"31.23085","category":"224","category_name":"综合体育馆","address":"源深路655"},{"poiid":"B2094757D16BA4F8459C","title":"775路浦东体育公园站","lon":"121.538332","lat":"31.23251","category":"38","category_name":"公交车站","address":"上海市浦东新区羽山路近源深路东"},{"poiid":"B2094654DA69A3F9429B","title":"浦东张德英乒乓中心","lon":"121.53752","lat":"31.23028","category":"225","category_name":"乒乓球馆","address":"羽山路9"},{"poiid":"B2094757D16DA7F54298","title":"易茶生活","lon":"121.53620823","lat":"31.229561985","category":"66","category_name":"茶艺馆","address":"上海源深路789号"},{"poiid":"B2094757D068A1FF4193","title":"国际华城小区","lon":"121.53621114","lat":"31.23470831","category":"47","category_name":"住宅区","address":"上海张杨路1515号"},{"poiid":"B2094655D36CA2FE409B","title":"证大宽城","lon":"121.53857","lat":"31.23373","category":"46","category_name":"楼宇","address":"桃林路777号"},{"poiid":"B2094654DB64A5FD4098","title":"斯巴顿健身会所(源深店)","lon":"121.53562","lat":"31.23536","category":"221","category_name":"健身中心","address":"浦东新区张杨路1515弄19号陆家嘴国际华城(近源深路)"},{"poiid":"B2094757D064A4FF429F","title":"3TOP","lon":"121.536271388","lat":"31.2308955643","category":"500","category_name":"未知分类","address":"上海新乐路47号"},{"poiid":"B2094654DB65A0FD439B","title":"羽毛球馆","lon":"121.53751","lat":"31.23269","category":"227","category_name":"羽毛球场","address":""},{"poiid":"B2094750D66CABF54293","title":"visible cafe","lon":"121.539001","lat":"31.233734","category":"260","category_name":"其他","address":"浦东新区张杨路1500弄17号(近桃林路)"},{"poiid":"B2094655D268A7FB469B","title":"浦东新区源深体育发展中心(六-一号门)","lon":"121.53743","lat":"31.22979","category":"224","category_name":"综合体育馆","address":""},{"poiid":"B2094655D268A4FA459A","title":"源深体育发展中心(五号门)","lon":"121.53918","lat":"31.23208","category":"224","category_name":"综合体育馆","address":""},{"poiid":"B2094655D26DA1FB499B","title":"源竹小区","lon":"121.53326","lat":"31.230068","category":"47","category_name":"住宅区","address":"潍坊路355弄2-23号"},{"poiid":"B2094655D26DA7FF469D","title":"八方大厦","lon":"121.5382","lat":"31.234913","category":"47","category_name":"住宅区","address":"张杨路1551-1591号"},{"poiid":"B2094757D16EA1F8439A","title":"忆江南","lon":"121.536568687","lat":"31.2285083906","category":"72","category_name":"广东菜","address":"浦东新区羽山路2号(源深体育馆对面)"},{"poiid":"B2094757D16AA0FC4793","title":"桃林路","lon":"121.53951073","lat":"31.233128361","category":"500","category_name":"未知分类","address":"上海张杨路1647弄"},{"poiid":"B2094654DA69ABF54292","title":"春竹大楼","lon":"121.5335","lat":"31.232193","category":"47","category_name":"住宅区","address":"张杨路1348号"},{"poiid":"B2094655D264A2FA409D","title":"恒升名邸","lon":"121.5389","lat":"31.23316","category":"47","category_name":"住宅区","address":"上海市浦东新区桃林路777弄"},{"poiid":"B2094654DA69A3F8499D","title":"必胜宅急送","lon":"121.53885","lat":"31.22999","category":"94","category_name":"西餐厅","address":"浦东新区羽山路132-134号(近源深体育中心)"},{"poiid":"B2094750D364A7FB449D","title":"闺蜜美甲沙龙","lon":"121.53905964226","lat":"31.233700325857","category":"148","category_name":"美容美发店","address":"张杨路1500弄25号(桃林路口鄂尔多斯艾力大厦后面商业街)"},{"poiid":"B2094757DA68A1F5489D","title":"浦南幼儿园（陆家嘴分部）","lon":"121.53942892619","lat":"31.231126849804","category":"57","category_name":"幼儿园","address":"灵山路609号"},{"poiid":"B2094655D268A3F4449A","title":"瑞斯玛丽西餐厅","lon":"121.53536","lat":"31.22835","category":"94","category_name":"西餐厅","address":"浦东新区潍坊路328号嘉瑞酒店1楼(近源深路)"},{"poiid":"B2094654DB6BABF54692","title":"全家羽山路店","lon":"121.53754","lat":"31.22913","category":"117","category_name":"便民商店/便利店","address":"羽山路70-80"},{"poiid":"B2094654DB65A0FC489F","title":"源深体育发展中心(7号门)","lon":"121.53591","lat":"31.22962","category":"224","category_name":"综合体育馆","address":""},{"poiid":"B2094654DA68ABF84999","title":"快客(张杨路)","lon":"121.53595","lat":"31.23431","category":"117","category_name":"便民商店/便利店","address":"张杨路1517"},{"poiid":"B2094655D26DA4F5479B","title":"中国建设银行信用卡中心","lon":"121.5343","lat":"31.23356","category":"150","category_name":"银行","address":"源深路419号国际华城"},{"poiid":"B2094654DA68ABF8499B","title":"联阳口腔","lon":"121.53613","lat":"31.23432","category":"162","category_name":"医院","address":"浦东新区张杨路1525号(桃林路张杨路)"},{"poiid":"B2094757D169A5FA459C","title":"源深路600弄","lon":"121.534217","lat":"31.2312","category":"500","category_name":"未知分类","address":"上海xx小区"},{"poiid":"B2094757D065A6FA469C","title":"安波路","lon":"121.53512549","lat":"31.232853689","category":"500","category_name":"未知分类","address":"上海兰花教师公寓"},{"poiid":"B2094654DB64A4FA429E","title":"新概念酒店连锁","lon":"121.53939","lat":"31.23031","category":"216","category_name":"经济型连锁酒店","address":"浦东新区羽山路386号"},{"poiid":"B2094757DA69A1FD4993","title":"TOPTOYS滑板公园","lon":"121.53477356623","lat":"31.232318185032","category":"646","category_name":"文化体育类公司","address":"浦东新区张杨路1458号源深体育中心内(近源深路)"},{"poiid":"B2094654DB65ABFE439C","title":"驿居酒店连锁·上海羽山路店","lon":"121.53966","lat":"31.23073","category":"216","category_name":"经济型连锁酒店","address":"浦东新区羽山路166号"},{"poiid":"B2094757D16AA7FB4393","title":"巨龙武术搏击俱乐部(源深店)","lon":"121.53765","lat":"31.22993","category":"500","category_name":"未知分类","address":"上海浦东新区羽山路源深体育6号门  "},{"poiid":"B2094654DA69A3F8499C","title":"上海美时美分美发有限公司","lon":"121.53892","lat":"31.23001","category":"148","category_name":"美容美发店","address":"浦东新区羽山路136号"},{"poiid":"B2094654DA69A3F8499F","title":"真锅咖啡馆源深体育店","lon":"121.5392","lat":"31.23008","category":"260","category_name":"其他","address":"浦东新区羽山路158号(近桃林路)"},{"poiid":"B2094750D76DAAF9439E","title":"米道餐厅","lon":"121.537","lat":"31.2356","category":"76","category_name":"上海菜","address":"浦东新区桃林路465号(近张杨路)"},{"poiid":"B2094757D16EA1FF449B","title":"奔驰4S","lon":"121.53703","lat":"31.23394","category":"500","category_name":"未知分类","address":"上海张扬路3501号"},{"poiid":"B2094757D569A0F8439D","title":"sagapo·爱会所","lon":"121.535087","lat":"31.23393","category":"148","category_name":"美容美发店","address":"张杨路1367"},{"poiid":"B2094757D568A5F4499A","title":"瑞雅丽养生SPA会馆","lon":"121.53645725","lat":"31.23436062","category":"148","category_name":"美容美发店","address":"浦东新区张杨路1533号(近源深路)"},{"poiid":"B2094757D16BA1FC499D","title":"浦东清真寺","lon":"121.53471873","lat":"31.235506412","category":"245","category_name":"教堂","address":"浦东新区源深路375号(近商城路)"},{"poiid":"B2094752DA6EA1F9449A","title":"世纪大道","lon":"121.533951","lat":"31.229172","category":"500","category_name":"未知分类","address":"上海市 地铁站"},{"poiid":"B2094655D26AA5F94199","title":"唯尚咖啡 羽山路店","lon":"121.54041626996","lat":"31.231321622837","category":"260","category_name":"其他","address":"浦东新区羽山路252号(桃林路口)"},{"poiid":"B2094757D169A2FD4692","title":"張楊路桃林路站","lon":"121.537194","lat":"31.233962","category":"500","category_name":"未知分类","address":"上海張楊路桃林路，736、783、961、791、339、790、169、630、170、隧道三線公車站"},{"poiid":"B2094757D569A3FD4098","title":"A 1专业女子SPA生会馆","lon":"121.535369","lat":"31.234109","category":"148","category_name":"美容美发店","address":"浦东新区张杨路1377号(近地铁六号线源深路站)"},{"poiid":"B2094655D268A2FB419F","title":"全家(八方大酒店西南)","lon":"121.53823","lat":"31.23456","category":"117","category_name":"便民商店/便利店","address":""},{"poiid":"B2094757D165A3FD459F","title":"775东方路站","lon":"121.534447738","lat":"31.2307793118","category":"500","category_name":"未知分类","address":"上海东方路张杨路"},{"poiid":"B2094654DB69A7FA4699","title":"九段沙湿地自然保护区","lon":"121.53777","lat":"31.23423","category":"250","category_name":"公园户外","address":"浦东新区张杨路"},{"poiid":"B2094654DA69A3F94199","title":"新新美容城","lon":"121.5369","lat":"31.22899","category":"148","category_name":"美容美发店","address":"羽山路18"},{"poiid":"B2094757D169A2F4459D","title":"桃林幼儿园","lon":"121.53993143","lat":"31.231301022","category":"57","category_name":"幼儿园","address":"浦东新区桃林路815弄38号101-103室(桃林路羽山路)"},{"poiid":"B2094654DA69A3F94099","title":"招商银行上海源深支行","lon":"121.53828","lat":"31.22961","category":"150","category_name":"银行","address":"羽山路108"},{"poiid":"B2094654DB69A7F84398","title":"天翔公寓","lon":"121.539","lat":"31.23381","category":"47","category_name":"住宅区","address":"闵行区中原路10弄"},{"poiid":"B2094757D168A0F8439B","title":"建行信用卡中心","lon":"121.5343","lat":"31.233566","category":"150","category_name":"银行","address":"上海源深路419号"},{"poiid":"B2094752D46FAAFA459F","title":"上海东方明珠","lon":"121.533278","lat":"31.234649","category":"500","category_name":"未知分类","address":null},{"poiid":"B2094654DA69ABF5439A","title":"申竹大楼","lon":"121.53293","lat":"31.231997","category":"47","category_name":"住宅区","address":"张杨路1338号"},{"poiid":"B2094655D269ABF5469A","title":"村夫烤鱼潍坊路店","lon":"121.53517","lat":"31.22874","category":"68","category_name":"快餐厅","address":"浦东新区潍坊路383号(近桃林路)"},{"poiid":"B2094757D66FA0FC4793","title":"中国银行 羽山路支行","lon":"121.536991538","lat":"31.2293173806","category":"150","category_name":"银行","address":"浦东新区羽山路86-96号(潍坊路羽山路)"},{"poiid":"B2094753D26DA2FD459F","title":"Apple Campus","lon":"121.533482","lat":"31.233487","category":"500","category_name":"未知分类","address":"上海市 源深路391号"},{"poiid":"B2094654DB64ABFB469C","title":"御园古道茶馆","lon":"121.54264","lat":"31.23212","category":"260","category_name":"其他","address":"浦东新区羽山路348号(近源深路)"},{"poiid":"B2094757D569A0F44993","title":"星盛美容美发养生(张杨路)","lon":"121.5383865","lat":"31.23460802","category":"148","category_name":"美容美发店","address":"张杨路1579"},{"poiid":"B2094655D265AAFB4293","title":"证大源深金融大厦","lon":"121.53962","lat":"31.2346","category":"46","category_name":"楼宇","address":"张杨路1500弄"},{"poiid":"B2094757D168A4F5439E","title":"奥园盲人保健按摩院(羽山路店)","lon":"121.53683","lat":"31.22874","category":"149","category_name":"洗浴推拿场所","address":"浦东新区羽山路28号(近源深路)"},{"poiid":"B2094751DA68ABFA489C","title":"云鼎臻品海鲜","lon":"121.53635","lat":"31.2285","category":"260","category_name":"其他","address":"浦东新区羽山路2号(源深体育馆对面)"},{"poiid":"B2094757D16BA2F4439C","title":"永琪美容美发羽山店","lon":"121.538967","lat":"31.230007","category":"500","category_name":"未知分类","address":"上海羽山路328号"},{"poiid":"B2094655D26FABF84292","title":"唯尚咖啡蛋糕烘焙专卖店","lon":"121.54104","lat":"31.23134","category":"112","category_name":"糕饼店","address":""},{"poiid":"B2094654DA69ABF5439F","title":"明竹公寓","lon":"121.53233","lat":"31.231768","category":"47","category_name":"住宅区","address":"张杨路1328号"},{"poiid":"B2094655D268A3F4439F","title":"金博尚品(北门)","lon":"121.53961","lat":"31.2343","category":"47","category_name":"住宅区","address":"张杨路1518号"},{"poiid":"B2094757D16BA6F9449E","title":"宁波汉通张扬店","lon":"121.538497738","lat":"31.2342973868","category":"500","category_name":"未知分类","address":"上海张杨路1587号"},{"poiid":"B2094655D26AA7F5459B","title":"豪苑盲人推拿保健中心","lon":"121.53234","lat":"31.23187","category":"247","category_name":"餐饮美食","address":"浦东新区张杨路1328号明竹公寓105室(松林路源深路间)"},{"poiid":"B2094757D06BA6FB459E","title":"中国工商银行(桃林路支行)","lon":"121.53931","lat":"31.23456","category":"150","category_name":"银行","address":"浦东新区张杨路1593号(近桃林路)"},{"poiid":"B209475CD16FABF84899","title":"建平中心西校","lon":"121.533081","lat":"31.23232","category":"500","category_name":"未知分类","address":"上海市 乳山路188号"},{"poiid":"B2094655D268A3F4439E","title":"金博尚品","lon":"121.54019","lat":"31.233955","category":"47","category_name":"住宅区","address":"浦东张杨路1578号(近桃林路)"},{"poiid":"B2094757D16DA4FE4192","title":"建平中学西校","lon":"121.53426273","lat":"31.235114404","category":"253","category_name":"校园生活","address":"浦东新区区东方路420号(近世纪大道)"},{"poiid":"B2094654DA68ABF8499F","title":"陆家嘴国际华城(南门)","lon":"121.53571","lat":"31.23419","category":"656","category_name":"大门","address":"张杨路1515弄"},{"poiid":"B2094655D26FA7FA4698","title":"涵乐园(一号门)","lon":"121.53261","lat":"31.23323","category":"47","category_name":"住宅区","address":""},{"poiid":"B2094757D06AA6F94698","title":"张杨路金博尚品","lon":"121.539416738","lat":"31.2338023762","category":"500","category_name":"未知分类","address":"上海张杨路1518号"},{"poiid":"B2094750DA6DA1FC4193","title":"康骏养生","lon":"121.535629","lat":"31.228717","category":"248","category_name":"生活娱乐","address":"潍坊路328号嘉瑞酒店2楼(近源深路)"},{"poiid":"B2094655D26FA6FD4192","title":"东珂花苑北门(沈家弄路)","lon":"121.53896","lat":"31.23535","category":"47","category_name":"住宅区","address":""},{"poiid":"B2094757D165A3F8439D","title":"源深体育场 乐培儿童创意中心","lon":"121.54063673","lat":"31.231816333","category":"500","category_name":"未知分类","address":"上海市浦东新区张杨路"},{"poiid":"B2094654DB64A3FE439E","title":"源竹小区(东三门)","lon":"121.53421","lat":"31.2312","category":"656","category_name":"大门","address":"源深路600弄1-3支弄"},{"poiid":"B2094757D16AA0FF449E","title":"宽域","lon":"121.53874969","lat":"31.234622955","category":"500","category_name":"未知分类","address":"上海张杨路桃林路"},{"poiid":"B2094654DA69ABF5409F","title":"中国工商银行竹园新村支行","lon":"121.53524","lat":"31.22877","category":"150","category_name":"银行","address":"潍坊路389号"},{"poiid":"B2094655D26FABFE489F","title":"上海市第二轻工业学校(南门)","lon":"121.53862","lat":"31.23551","category":"678","category_name":"学校大门","address":"沈家弄路650"},{"poiid":"B2094655D26EAAF54793","title":"智慧盲人按摩中心(源深路店)","lon":"121.53317","lat":"31.23329","category":"149","category_name":"洗浴推拿场所","address":"浦东新区源深路488号2层"},{"poiid":"B2094757D169A1FA4298","title":"全家桃林店","lon":"121.53855133","lat":"31.234563827","category":"500","category_name":"未知分类","address":"上海张扬路1575号"},{"poiid":"B2094757D66EABFA459F","title":"东珂花苑","lon":"121.53882","lat":"31.235004","category":"252","category_name":"楼宇机构","address":"上海市浦东新区张杨路1619号"},{"poiid":"B2094655D26DA1FF4092","title":"源竹小区(东一门)","lon":"121.53533","lat":"31.22986","category":"656","category_name":"大门","address":""},{"poiid":"B2094654DA69ABF54098","title":"白雪公主健康洗衣(潍坊路)","lon":"121.53505","lat":"31.2287","category":"249","category_name":"购物服务","address":"潍坊路377"},{"poiid":"B2094654DA69A3F9409F","title":"盛世年华(北门)","lon":"121.53791","lat":"31.22941","category":"656","category_name":"大门","address":"羽山路100弄1-36号"},{"poiid":"B2094757D064A1FE469C","title":"思明堂","lon":"121.5377979","lat":"31.228290725","category":"500","category_name":"未知分类","address":"上海灵山路566号"},{"poiid":"B2094757D16FA1F9469B","title":"Bus No.181","lon":"121.54066403","lat":"31.232987658","category":"500","category_name":"未知分类","address":"上海181路公车"},{"poiid":"B2094752D264AAFA4899","title":"浦东国际机场一号航站楼12登机口","lon":"121.53724","lat":"31.227357","category":"500","category_name":"未知分类","address":null},{"poiid":"B2094757D16DA7FD4999","title":"潍坊路源深路","lon":"121.536801","lat":"31.227884","category":"500","category_name":"未知分类","address":"上海潍坊路源深路"},{"poiid":"B2094654DA69A3F9429E","title":"陆家嘴花园(西门)","lon":"121.5398","lat":"31.23161","category":"656","category_name":"大门","address":"洋泾"},{"poiid":"B2094654DA68ABFF489F","title":"上海长航职业技术培训中心","lon":"121.53784","lat":"31.23549","category":"190","category_name":"培训机构","address":"沈家弄路640号"},{"poiid":"B2094655D26EA2F4479A","title":"天乐会所","lon":"121.53224","lat":"31.23262","category":"149","category_name":"洗浴推拿场所","address":"张杨路1291号"},{"poiid":"B2094654DA69ABF5439E","title":"上海宏基物业管理有限公司明竹公寓管理部","lon":"121.53233","lat":"31.23176","category":"263","category_name":"公司","address":"张杨路1328号明竹公寓"},{"poiid":"B2094757D06AA1FF4893","title":"第一医药(张杨路店)","lon":"121.53981","lat":"31.2347","category":"500","category_name":"未知分类","address":"浦东新区张杨路1611号(民生路张杨路)"},{"poiid":"B2094654DA68ABFF4793","title":"上海市第二轻工业学校新天地培训中心","lon":"121.5384","lat":"31.23554","category":"190","category_name":"培训机构","address":"沈家弄路650号底层"},{"poiid":"B2094654DA68ABFF479D","title":"上海电信联网信息平台运营中心","lon":"121.5384","lat":"31.23554","category":"263","category_name":"公司","address":"沈家弄路650号"},{"poiid":"B2094655D26DA1FB499A","title":"竹园小区(北五门)","lon":"121.5332","lat":"31.23208","category":"656","category_name":"大门","address":""},{"poiid":"B2094654DA68ABF84398","title":"陆家嘴国际华城(东门)","lon":"121.53721","lat":"31.23498","category":"656","category_name":"大门","address":"洋泾"},{"poiid":"B2094655D26EA3FB419B","title":"源竹小区(南二门)","lon":"121.53489","lat":"31.22872","category":"656","category_name":"大门","address":"潍坊路375弄1-35号"},{"poiid":"B2094655D26EA3FF4292","title":"上海钦赐仰殿道观(南门)","lon":"121.53304","lat":"31.23365","category":"656","category_name":"大门","address":""},{"poiid":"B2094654DB6BABF4449A","title":"八方大厦(北门)","lon":"121.53815","lat":"31.23514","category":"656","category_name":"大门","address":"张杨路1幢1589号"},{"poiid":"B2094654DA68ABF84499","title":"八方大厦(南门)","lon":"121.53919","lat":"31.23487","category":"656","category_name":"大门","address":"张杨路1551-1591号"},{"poiid":"B2094654DB64A3FE439B","title":"源竹小区(西门)","lon":"121.53253","lat":"31.23064","category":"656","category_name":"大门","address":""},{"poiid":"B2094655D26DAAF84598","title":"香榭丽花园(东门)","lon":"121.53649","lat":"31.2275","category":"656","category_name":"大门","address":"源深路836"},{"poiid":"B2094654DB64A3FE4399","title":"源竹小区(北门)","lon":"121.53421","lat":"31.22811","category":"656","category_name":"大门","address":"潍坊路278"}]