[{"poiid":"B2094757D06FA3FD4592","title":"同乐坊","lon":"121.44327","lat":"31.23616","category":"172","category_name":"酒吧","address":"静安区余姚路60号(近海防路)"},{"poiid":"B2094654DA6CA4FD449A","title":"艺海剧院","lon":"121.45229","lat":"31.23502","category":"180","category_name":"剧场","address":"静安区江宁路466号(近武定路)"},{"poiid":"B2094655D26CAAF94198","title":"SOHO东海广场","lon":"121.455285","lat":"31.23305","category":"46","category_name":"楼宇","address":"上海市浦东新区金桥路983号"},{"poiid":"B2094753D76FAAFA449C","title":"上海滩国泰旗舰店","lon":"121.466011","lat":"31.216125","category":"249","category_name":"购物服务","address":"淮海中路868号"},{"poiid":"B209475CD564A7F84292","title":"上海滩新天地店","lon":"121.47463","lat":"31.22164","category":"119","category_name":"商场","address":"\"太仓路181弄新天地北里15号\r\n\""},{"poiid":"B209475CD564A7F8439E","title":"上海滩中信泰富店","lon":"121.45602","lat":"31.22851","category":"119","category_name":"商场","address":"\"南京西路1168号中信泰富广场，店铺号221.\r\n\""},{"poiid":"B2094757DA69A2F9489F","title":"CLUB-IBIZA","lon":"121.45313","lat":"31.23536","category":"111","category_name":"休闲餐饮场所","address":"静安区江宁路428号(近武定路)"},{"poiid":"B2094757D06FA3FF499D","title":"静安体育中心游泳馆","lon":"121.4535","lat":"31.23532","category":"220","category_name":"运动场所","address":"静安区康定路151号静安体育中心内(昌化路口)"},{"poiid":"B2094654DB65A6FF449F","title":"cd bar & club","lon":"121.45264","lat":"31.23504","category":"174","category_name":"迪厅","address":"江宁路428号静安体育中心2楼"},{"poiid":"B2094757D068A3FB419E","title":"静安体育中心","lon":"121.453154634","lat":"31.2354116335","category":"220","category_name":"运动场所","address":"静安区康定路151号静安体育中心内(武定路口)"},{"poiid":"B2094757D66FA3F9489B","title":"上海海关驻邮局办事处","lon":"121.45117658","lat":"31.23427251","category":"252","category_name":"楼宇机构","address":"上海武定路458号近江宁路"},{"poiid":"B2094654DA6CA0FA4893","title":"国立大厦","lon":"121.454","lat":"31.2337","category":"46","category_name":"楼宇","address":"北京西路1465号"},{"poiid":"B2094757D06FA7F5489C","title":"静安中华大厦","lon":"121.45067142182","lat":"31.231695206825","category":"46","category_name":"楼宇","address":"北京西路1701号"},{"poiid":"B2094757D06FA6FE499D","title":"耐克员工店","lon":"121.4538","lat":"31.23262","category":"141","category_name":"服装鞋帽皮具店","address":"静安区江宁路293号201室(江宁路新闸路)"},{"poiid":"B2094757D068A2FD4292","title":"艺海剧院小剧场","lon":"121.452154","lat":"31.235312","category":"260","category_name":"其他","address":"上海艺海剧院五楼"},{"poiid":"B2094751D56AA2FC459A","title":"肥仔文猪骨煲","lon":"121.454025","lat":"31.232972","category":"247","category_name":"餐饮美食","address":"静安区南汇路77号(近北京西路)"},{"poiid":"B2094757D06FA1FC4599","title":"星之健身(静安店)","lon":"121.4527","lat":"31.2345","category":"221","category_name":"健身中心","address":"静安区江宁路428号静安体育中心4楼(武定路口)"},{"poiid":"B2094757D064A0FA409C","title":"源创创意园","lon":"121.452468586","lat":"31.2323354722","category":"500","category_name":"未知分类","address":"静安区陕西北路600号"},{"poiid":"B2094751DA65AAF84593","title":"许留山","lon":"121.454341","lat":"31.231159","category":"247","category_name":"餐饮美食","address":"静安区吴江路269号湟普汇商场1楼C单元(近南京西路)"},{"poiid":"B2094757D06FA4F9469F","title":"信达大厦","lon":"121.455","lat":"31.2339","category":"46","category_name":"楼宇","address":"上海北京西路1399号"},{"poiid":"B2094654DA6CA2FD419C","title":"免税店","lon":"121.45382","lat":"31.23208","category":"119","category_name":"商场","address":"静安区江宁路261-293号(近新闸路)"},{"poiid":"B2094655D26AA1FC469D","title":"小杨生煎陕西北路店","lon":"121.4508","lat":"31.23411","category":"68","category_name":"快餐厅","address":"静安区陕西北路678号(近武定路)"},{"poiid":"B2094655D36CA0F94398","title":"江宁路","lon":"121.45409","lat":"31.23283","category":"38","category_name":"公交车站","address":""},{"poiid":"B2094757D069A0FA469D","title":"静安体育中心羽毛球馆","lon":"121.45434","lat":"31.23444","category":"220","category_name":"运动场所","address":"静安区昌化路165号(近武定路)"},{"poiid":"B2094757D068AAF9449C","title":"酷芝餐厅(陕西北路店)","lon":"121.45137","lat":"31.23337","category":"94","category_name":"西餐厅","address":"静安区陕西北路670号(近武定路)"},{"poiid":"B2094757D06FA5FA4592","title":"MU.BREAD麦卡优娜(江宁路店)","lon":"121.45178","lat":"31.23516","category":"112","category_name":"糕饼店","address":"静安区江宁路499号(近康定路)"},{"poiid":"B2094654DB6BA6F4409E","title":"同济大学附属七一中学","lon":"121.45207","lat":"31.231","category":"55","category_name":"中学","address":"陕西北路461"},{"poiid":"B2094655D26DA3FE4392","title":"沪纺大厦","lon":"121.45114","lat":"31.23378","category":"215","category_name":"三星级宾馆","address":"浦东新区金湘路345号"},{"poiid":"B2094654DA6CA3FF419A","title":"上海市语言文字水平测试中心","lon":"121.45272","lat":"31.23152","category":"250","category_name":"公园户外","address":"静安区陕西北路500号"},{"poiid":"B2094454D26CAAF44892","title":"和一大厦写字楼","lon":"121.453246","lat":"31.234619","category":"46","category_name":"楼宇","address":"静安区江宁路420号"},{"poiid":"B2094751D369ABF54598","title":"芙蓉豪廷餐饮会所","lon":"121.45204","lat":"31.23481","category":"77","category_name":"湖南菜","address":"静安区江宁路445号1-4楼(近武定路)"},{"poiid":"B2094757D065ABF8459F","title":"Coolzey","lon":"121.45089465","lat":"31.233744983","category":"500","category_name":"未知分类","address":"上海陕西北路670号"},{"poiid":"B2094750D76CA2FE4292","title":"沈永昌苏州汤包馆","lon":"121.452","lat":"31.235","category":"68","category_name":"快餐厅","address":"静安区江宁路495号博鸿大厦(近康定路)"},{"poiid":"B2094654DA6CA3F5449F","title":"上海大学高等技术学院","lon":"121.45289","lat":"31.2329","category":"671","category_name":"高校中心点","address":"新闸路1220"},{"poiid":"B2094654DA6CA4FD419D","title":"石油天然气大厦","lon":"121.45375","lat":"31.23303","category":"46","category_name":"楼宇","address":"卢湾区局门路427号(邮编:200023)"},{"poiid":"B2094757DB69A4FD4692","title":"平壤檀君馆","lon":"121.4550440992128","lat":"31.23223564735837","category":"500","category_name":"未知分类","address":"静安区南京西路889号2楼(近泰兴路)"},{"poiid":"B2094757D065A7F5439D","title":"普通话测试中心","lon":"121.452602","lat":"31.231316","category":"500","category_name":"未知分类","address":"上海陕西北路500号6号楼101室"},{"poiid":"B2094655D269A4F5489B","title":"上海航空公司江宁路分部","lon":"121.45472","lat":"31.23155","category":"247","category_name":"餐饮美食","address":"静安区江宁路212号(近北京西路)"},{"poiid":"B2094757D065A4FB449A","title":"食昇精作坊","lon":"121.45284","lat":"31.23432","category":"76","category_name":"上海菜","address":"静安区江宁路420号和一大厦内(近武定路)"},{"poiid":"B2094757D168A3FA4799","title":"海底捞火锅","lon":"121.453200586","lat":"31.2316024579","category":"247","category_name":"餐饮美食","address":"上海市江宁路食博汇"},{"poiid":"B2094654DA6CA0FB4498","title":"京德大楼","lon":"121.453","lat":"31.2331","category":"46","category_name":"楼宇","address":"静安区西康路946号"},{"poiid":"B2094654DA6CA0FB479A","title":"胶州大楼","lon":"121.451","lat":"31.232","category":"46","category_name":"楼宇","address":"胶州路58号"},{"poiid":"B2094757D16EA4FA4792","title":"上海公馆","lon":"121.4536201","lat":"31.233273332","category":"47","category_name":"住宅区","address":"静安区江宁路169号(近陕西北路)"},{"poiid":"B2094757D06FAAF4469F","title":"HERMES(恒隆店)","lon":"121.453051086","lat":"31.2314859556","category":"141","category_name":"服装鞋帽皮具店","address":"静安区南京西路1266号恒隆广场3楼(近陕西北路)"},{"poiid":"B2094655D36DA0FE4092","title":"新闸路江宁路","lon":"121.45418","lat":"31.23286","category":"38","category_name":"公交车站","address":""},{"poiid":"B2094757D069A1F4459C","title":"舒蔡记(新闸路店)","lon":"121.453983","lat":"31.232678","category":"68","category_name":"快餐厅","address":"静安区新闸路1123号(近江宁路)"},{"poiid":"B2094654DA6CA3F94092","title":"上海市静安区牙病防治所昌平门诊部","lon":"121.45136","lat":"31.23492","category":"162","category_name":"医院","address":"静安区康定路253号(康定路近江宁路)"},{"poiid":"B2094654DA6CA3F5449E","title":"上海大学-巴黎国际时装艺术学院","lon":"121.45289","lat":"31.2329","category":"52","category_name":"高等院校","address":"新闸路1220"},{"poiid":"B2094654DA6CA2FD4198","title":"香樟花园","lon":"121.45367","lat":"31.231253","category":"47","category_name":"住宅区","address":"江宁路219,239"},{"poiid":"B2094655D26AA7F5429F","title":"金舫专业按摩陕西北路店","lon":"121.4508","lat":"31.23411","category":"247","category_name":"餐饮美食","address":"静安区陕西北路678号小杨生煎旁(近武定路)"},{"poiid":"B2094752D36DA3FF469E","title":"和幸","lon":"121.452415","lat":"31.230493","category":"247","category_name":"餐饮美食","address":"上海市南京西路1038号梅陇镇广场B1楼B1楼"},{"poiid":"B2094757D16CABFA4092","title":"重庆鸡公煲 陕西北路店","lon":"121.450478054","lat":"31.234135793","category":"71","category_name":"四川菜","address":"静安区陕西北路680号小杨生煎旁(近武定路)"},{"poiid":"B2094655D265A5F9449A","title":"通鸿大厦","lon":"121.452","lat":"31.2314","category":"46","category_name":"楼宇","address":"上海市四川北路1851号"},{"poiid":"B2094655D26DABFD489A","title":"明佳美容美发","lon":"121.45281","lat":"31.23361","category":"148","category_name":"美容美发店","address":"静安区江宁路373号G楼E座(近新闸路)"},{"poiid":"B2094654DA6CA3FF449E","title":"上海邮政国际邮购有限公司","lon":"121.45146","lat":"31.23438","category":"248","category_name":"生活娱乐","address":"武定路458号"},{"poiid":"B2094757DA69A1FB4398","title":"上海中服出国人员服务中心免税店","lon":"121.45378921173","lat":"31.232119436623","category":"119","category_name":"商场","address":"江宁路261号"},{"poiid":"B2094757D465A1F44499","title":"赵记桂林米粉店 武定路店","lon":"121.451723054","lat":"31.234163793","category":"87","category_name":"特色／地方风味餐厅","address":"静安区武定路411号(江宁路口)"},{"poiid":"B2094757DB6CA7F84299","title":"cat&jazz","lon":"121.45267","lat":"31.23461","category":"260","category_name":"其他","address":"静安区江宁路420号和一大厦18楼C座(近武定路)"},{"poiid":"B2094654DA6CA2FD4398","title":"达安大厦","lon":"121.45275","lat":"31.233776","category":"47","category_name":"住宅区","address":"浦东区崂山东路410号"},{"poiid":"B2094654DB65A6FA469D","title":"全家","lon":"121.45304","lat":"31.23264","category":"117","category_name":"便民商店/便利店","address":"新闸路1220-5"},{"poiid":"B2094757D16FA4FF439A","title":"辞书出版社","lon":"121.4526062","lat":"31.230722427","category":"46","category_name":"楼宇","address":"上海陕西北路457号"},{"poiid":"B2094757D16CA7FB489B","title":"艺海食堂","lon":"121.45232","lat":"31.23501","category":"68","category_name":"快餐厅","address":"静安区康定路211号2楼(江宁路康定路)"},{"poiid":"B2094655D26DA4F5499C","title":"时代中学北部","lon":"121.4509","lat":"31.2345","category":"55","category_name":"中学","address":"静安区武定路476号(陕西北路武定路)"},{"poiid":"B2094757D168A3FC4499","title":"Qbake原味坊","lon":"121.454039586","lat":"31.2325904772","category":"247","category_name":"餐饮美食","address":"上海市静安区新闸路1250号(近陕西北路)"},{"poiid":"B2094654DA6CA4FD429F","title":"阮玲玉故居","lon":"121.45402","lat":"31.23367","category":"243","category_name":"纪念馆","address":"静安区新闸路1124弄9号(江宁路新闸路)"},{"poiid":"B2094655D26CA5F54493","title":"江宁路街道众乐里里弄图书室","lon":"121.45064","lat":"31.23322","category":"181","category_name":"图书馆","address":"陕西北路653弄2"},{"poiid":"B2094654DA6CA4FD4193","title":"交通银行上海市西支行","lon":"121.45367","lat":"31.2331","category":"150","category_name":"银行","address":"江宁路350"},{"poiid":"B2094655D26CAAF8459E","title":"洪安大厦","lon":"121.45141","lat":"31.23438","category":"46","category_name":"楼宇","address":"武定路458号"},{"poiid":"B2094750D768A0F54198","title":"Ruby'sClub","lon":"121.453","lat":"31.2351","category":"269","category_name":"烧烤","address":"江宁路428号静安体育中心2楼(近武定路)"},{"poiid":"B2094752D56DA5FA4093","title":"SUMERIAN COFFEE","lon":"121.452949","lat":"31.230487","category":"247","category_name":"餐饮美食","address":"陕西北路415号"},{"poiid":"B2094655D26AA0FF479B","title":"方昭舞蹈工作室康定路店","lon":"121.45205","lat":"31.23528","category":"247","category_name":"餐饮美食","address":"上海静安区康定路211号艺海剧院1号门6419室(近江宁路)  "},{"poiid":"B2094753D265A2F8449C","title":"Coolzey酷芝(静安店)","lon":"121.45109","lat":"31.23361","category":"68","category_name":"快餐厅","address":"陕西北路670号"},{"poiid":"B2094752D16AA2F44893","title":"德克士","lon":"121.4508741913655","lat":"31.23173792178681","category":"247","category_name":"餐饮美食","address":"江宁路"},{"poiid":"B2094654DA6CA2FD4193","title":"大德公寓","lon":"121.45364","lat":"31.232195","category":"47","category_name":"住宅区","address":"大德公寓位于静安江宁路207号"},{"poiid":"B2094655D268ABFE4292","title":"武定大楼","lon":"121.45222","lat":"31.234085","category":"46","category_name":"楼宇","address":"江宁路401弄1～7号"},{"poiid":"B2094757D16BAAF8499F","title":"武定路","lon":"121.451461786","lat":"31.2349941242","category":"500","category_name":"未知分类","address":"上海武定路458号"},{"poiid":"B2094654DA6CA4FE499A","title":"静安区青少年业余体校分校","lon":"121.45392","lat":"31.235","category":"253","category_name":"校园生活","address":"昌化路165"},{"poiid":"B2094655D26FA5FC499E","title":"华商名邸","lon":"121.45509","lat":"31.233528","category":"47","category_name":"住宅区","address":"上海市静安区新闸路1088号"},{"poiid":"B2094654DA6CA4FD429C","title":"沁园邨(新闸路)","lon":"121.45417","lat":"31.23299","category":"47","category_name":"住宅区","address":"新闸路1124弄1-59号"},{"poiid":"B2094757D66FA7F4479D","title":"ISETAN","lon":"121.45368658","lat":"31.231953464","category":"500","category_name":"未知分类","address":"上海市静安区江宁路"},{"poiid":"B2094654DA6CA2FD4399","title":"中国农业银行静安区江宁支行","lon":"121.45269","lat":"31.23387","category":"150","category_name":"银行","address":"上海市静安区江宁路383号"},{"poiid":"B2094655D26FA2F94492","title":"上海大学高等技术学院(南门)","lon":"121.45317","lat":"31.23269","category":"52","category_name":"高等院校","address":"静安区新闸路1220"},{"poiid":"B2094654DB64A5FB4698","title":"上海山胜机械制造安装有限公司静安分公司","lon":"121.45204","lat":"31.23476","category":"46","category_name":"楼宇","address":"江宁路445号A座26层、D座26层"},{"poiid":"B2094655D268ABFE4193","title":"利通大厦","lon":"121.45214","lat":"31.23273","category":"46","category_name":"楼宇","address":"静安区陕西北路600号"},{"poiid":"B209475CD16DA1F5409F","title":"MM Cafe&Lounge","lon":"121.45349","lat":"31.23367","category":"65","category_name":"咖啡厅","address":"江宁路396号(近武定路)"},{"poiid":"B2094655D26EA2FC4199","title":"黑森林西饼屋(葡提新闸店)","lon":"121.45289","lat":"31.2329","category":"112","category_name":"糕饼店","address":"静安区新闸路1220号"},{"poiid":"B2094753D165AAF94893","title":"江边城外巫山烤全鱼","lon":"121.452471","lat":"31.232382","category":"247","category_name":"餐饮美食","address":"上海市 南京西路819号"},{"poiid":"B2094757D069A1FC449A","title":"全家便利(新闸店)","lon":"121.45311737","lat":"31.232580184","category":"117","category_name":"便民商店/便利店","address":"上海静安区新闸路1220号(近江宁路)"},{"poiid":"B2094654DA6CA4FD429B","title":"雷西天益国药房","lon":"121.45386","lat":"31.23301","category":"162","category_name":"医院","address":"江宁路332"},{"poiid":"B2094654DB6BA5FD429C","title":"上海市静安区公证处(静安区人口和计划生育委员会)","lon":"121.45365","lat":"31.23494","category":"250","category_name":"公园户外","address":"江宁路418-422号和一大厦801-804室"},{"poiid":"B2094757D16EA1F8459D","title":"豪宴楼","lon":"121.45238","lat":"31.23431","category":"247","category_name":"餐饮美食","address":"上海静安区江宁路445号时美大厦1楼(近武定路)  "},{"poiid":"B2094757D06AA5F44399","title":"快易名商","lon":"121.45085863","lat":"31.23325448","category":"500","category_name":"未知分类","address":"静安区武定路555号(近陕西北路)"},{"poiid":"B2094654DB6BA6FB4998","title":"时代中学南部","lon":"121.45146","lat":"31.23392","category":"55","category_name":"中学","address":"武定路431"},{"poiid":"B2094654DA6CA3FF419E","title":"上海静安科技贸易园区","lon":"121.45182","lat":"31.23272","category":"45","category_name":"产业园区","address":"陕西北路600号"},{"poiid":"B2094655D26DABFA479B","title":"好德No.014","lon":"121.45091","lat":"31.23412","category":"117","category_name":"便民商店/便利店","address":"陕西北路676号"},{"poiid":"B2094654DA6CA4FD419E","title":"上海市静安区疾病预防控制中心","lon":"121.45368","lat":"31.23482","category":"162","category_name":"医院","address":"江宁路422乙"},{"poiid":"B2094654DB6BA6F4419D","title":"永琪美容美发(江宁店)","lon":"121.45292","lat":"31.23231","category":"148","category_name":"美容美发店","address":"静安区新闸路1225、1277号"},{"poiid":"B2094654DA6CA4FD4592","title":"第一财经日报","lon":"121.45215","lat":"31.23531","category":"61","category_name":"报社","address":"康定路211号艺海大厦13-14层"},{"poiid":"B2094654DA6CA2FF4199","title":"可的(江宁路)","lon":"121.45247","lat":"31.23422","category":"117","category_name":"便民商店/便利店","address":"静安区江宁路212号(北京西路江宁路)"},{"poiid":"B2094654DA6CA2FD4293","title":"良友(江宁路)","lon":"121.45304","lat":"31.23336","category":"117","category_name":"便民商店/便利店","address":"江宁路347"},{"poiid":"B2094654DA6CA4FD4398","title":"可的(新闸路)","lon":"121.45496","lat":"31.23313","category":"117","category_name":"便民商店/便利店","address":"新闸路1108"},{"poiid":"B2094654DA6CA3F8439A","title":"西典齿科","lon":"121.45136","lat":"31.23492","category":"162","category_name":"医院","address":"康定路253号博鸿大厦706-708"},{"poiid":"B2094757D064ABFC429F","title":"赵记桂林米粉","lon":"121.452345","lat":"31.234292","category":"247","category_name":"餐饮美食","address":"上海武定路411号"},{"poiid":"B2094757D069A1F5489B","title":"武定路327号","lon":"121.45401763","lat":"31.234571456","category":"208","category_name":"休闲场所","address":"上海申银发展大厦"},{"poiid":"B2094751D56FA2FE419A","title":"中国东方航空营业部","lon":"121.45253983599855","lat":"31.234206816592994","category":"263","category_name":"公司","address":"静安区江宁路凯迪克大厦"},{"poiid":"B2094655D26AA1FB4698","title":"上海摄影家协会经营部","lon":"121.45308","lat":"31.23264","category":"247","category_name":"餐饮美食","address":"静安区新闸路1220号(近江宁路)"},{"poiid":"B2094654DB6BA6F4429C","title":"香樟花园(东门)","lon":"121.45404","lat":"31.23162","category":"47","category_name":"住宅区","address":"江宁路239"},{"poiid":"B209475CDB6EA6FC409B","title":"上海御品服务公寓—静安紫苑","lon":"121.4533639","lat":"31.23380258","category":"214","category_name":"四星级宾馆","address":"上海市静安区江宁路356弄5号"},{"poiid":"B2094750D664A7FC499C","title":"大上海咪道奶奶茶","lon":"121.451","lat":"31.2318","category":"113","category_name":"冷饮店","address":"静安区新闸路1321号(近西康路)"},{"poiid":"B2094655D26DAAFA419A","title":"怡心食府","lon":"121.45133","lat":"31.23303","category":"257","category_name":"中餐厅","address":"普陀区陕西北路(近新闸路)"},{"poiid":"B2094655D26FA7FB4899","title":"沁园邨(南门)","lon":"121.45469","lat":"31.23311","category":"47","category_name":"住宅区","address":"新闸路1124弄1-59号"},{"poiid":"B2094655D26FA6F84892","title":"南阳公寓","lon":"121.45183","lat":"31.231525","category":"47","category_name":"住宅区","address":"陕西北路525弄1-29号"},{"poiid":"B2094655D26DA5FB419C","title":"慈孝邨(新闸路)","lon":"121.45101","lat":"31.23217","category":"47","category_name":"住宅区","address":""},{"poiid":"B2094757D16EA5FB4098","title":"伟华饮食店","lon":"121.45475","lat":"31.23135","category":"247","category_name":"餐饮美食","address":"上海静安区江宁路254号(近新闸路口)  "},{"poiid":"B2094655D26DABFD489D","title":"自在里","lon":"121.45236","lat":"31.23134","category":"47","category_name":"住宅区","address":"陕西北路493弄2-10号"},{"poiid":"B2094654DA6CA3F94599","title":"众乐新村","lon":"121.45064","lat":"31.233221","category":"47","category_name":"住宅区","address":"陕西北路653弄"},{"poiid":"B2094757D66FA3FC489A","title":"静安区卫生局","lon":"121.453771586","lat":"31.2348915222","category":"500","category_name":"未知分类","address":"上海市静安区武定路422号乙座3楼"},{"poiid":"B2094655D26BA7F94193","title":"宝业静安紫苑","lon":"121.453435","lat":"31.233905","category":"48","category_name":"楼宇大门","address":"江宁路356弄5-7号"},{"poiid":"B2094655D26EA3F5419C","title":"大同里(陕西北路)","lon":"121.45193","lat":"31.2313","category":"47","category_name":"住宅区","address":""},{"poiid":"B2094655D26EA2FE409F","title":"忆梅村","lon":"121.45335","lat":"31.232103","category":"47","category_name":"住宅区","address":"新闸路1209弄2-60号"},{"poiid":"B2094654DA6CA3F94592","title":"众乐里居委里弄图书室","lon":"121.45063","lat":"31.23322","category":"181","category_name":"图书馆","address":"陕西北路653弄2-10号"},{"poiid":"B2094655D26DA7F84798","title":"众乐新邨(东门)","lon":"121.45099","lat":"31.23334","category":"47","category_name":"住宅区","address":"陕西北路653弄2-10号"},{"poiid":"B2094655D26EA6F4439E","title":"溢修瑜伽会馆","lon":"121.45286","lat":"31.23087","category":"221","category_name":"健身中心","address":"静安区陕西北路470弄12号"},{"poiid":"B2094654DA6CA3FF449B","title":"上海市邮政公司邮政速递局营业处","lon":"121.45145","lat":"31.23438","category":"248","category_name":"生活娱乐","address":"武定路458号"},{"poiid":"B2094752D36AA4FB439A","title":"MM,Cafe&Lounge","lon":"121.45349","lat":"31.23367","category":"247","category_name":"餐饮美食","address":"静安区江宁路396号(近武定路)"},{"poiid":"B2094654DA6CA3FF4093","title":"上海市教育委员会教学研究室","lon":"121.45272","lat":"31.23151","category":"191","category_name":"科研机构","address":"陕西北路500"},{"poiid":"B2094654DA6CA2FD419E","title":"上海教育国际交流协会","lon":"121.45394","lat":"31.2319","category":"250","category_name":"公园户外","address":"江宁路245"},{"poiid":"B2094655D26DAAF84498","title":"顺泰小区(东门)","lon":"121.45298","lat":"31.23352","category":"47","category_name":"住宅区","address":""},{"poiid":"B2094757D16CA0F8429D","title":"民生银行静安市中支行","lon":"121.453834534","lat":"31.2320823669","category":"150","category_name":"银行","address":"上海静安区江宁路261号"},{"poiid":"B2094654DA6CA3F9439D","title":"南阳公寓(边门)","lon":"121.45214","lat":"31.23174","category":"47","category_name":"住宅区","address":"陕西北路525弄1-29号"},{"poiid":"B2094655D265A5FF469B","title":"甄庆里(北门)","lon":"121.45487","lat":"31.23288","category":"47","category_name":"住宅区","address":"新闸路1121弄1-56号"},{"poiid":"B2094654DA6CA4FD4392","title":"星之体育广场","lon":"121.45285","lat":"31.2352","category":"224","category_name":"综合体育馆","address":"江宁路428号"},{"poiid":"B2094655D264A7FE449A","title":"甄庆里","lon":"121.45495","lat":"31.23263","category":"47","category_name":"住宅区","address":"新闸路1121弄1-56号"},{"poiid":"B2094654DA6CA2FD439B","title":"顺泰小区","lon":"121.45237","lat":"31.233488","category":"47","category_name":"住宅区","address":"江宁路301号"},{"poiid":"B2094655D26DA2FA4298","title":"憶梅邨(北门)","lon":"121.45327","lat":"31.23239","category":"47","category_name":"住宅区","address":"新闸路1209弄2-60号"},{"poiid":"B2094654DA6CA3F5469E","title":"旺旺宠物之家","lon":"121.45166","lat":"31.2322","category":"117","category_name":"便民商店/便利店","address":"新闸路1292"},{"poiid":"B2094757D168A1FD489B","title":"Dutch Designworks Space","lon":"121.451976086","lat":"31.2330057766","category":"500","category_name":"未知分类","address":"上海3F, Block 3, No.600 Shanxi N. Rd"},{"poiid":"B2094655D26BA0FE469A","title":"西摩会堂","lon":"121.4527","lat":"31.23152","category":"250","category_name":"公园户外","address":"陕西北路500"},{"poiid":"B2094654DA6CA4FD4593","title":"第一财经日报广告中心","lon":"121.45217","lat":"31.23532","category":"61","category_name":"报社","address":"康定路211号艺海大厦12层"},{"poiid":"B2094757D16EA0FD4398","title":"静安紫苑行政公馆","lon":"121.454107586","lat":"31.2322974715","category":"500","category_name":"未知分类","address":"上海武定路355号"},{"poiid":"B2094757D065A4FD439A","title":"中国上海国际艺术节中心","lon":"121.45215606","lat":"31.235311508","category":"500","category_name":"未知分类","address":"上海静安区康定路211号艺海大厦23-24楼"},{"poiid":"B2094655D265A5F4439B","title":"森南酒店陕北店","lon":"121.45149","lat":"31.23316","category":"250","category_name":"公园户外","address":"静安区陕西北路634号"},{"poiid":"B2094757D66CA4F9409D","title":"复旦大学光华楼吴文政报告厅","lon":"121.452157","lat":"31.235315","category":"500","category_name":"未知分类","address":"上海演出"},{"poiid":"B2094757D16BA1FD4099","title":"江宁路396号行政公馆","lon":"121.45362358","lat":"31.23426751","category":"500","category_name":"未知分类","address":"上海市静安区江宁路396号行政公馆"},{"poiid":"B2094757D168A4F5489A","title":"Will's 金鹰店","lon":"121.45222358","lat":"31.231669459","category":"500","category_name":"未知分类","address":"上海陕西北路278 金鹰8楼"},{"poiid":"B2094757D064ABF8439E","title":"永琪美容美发(江宁路店)","lon":"121.45318","lat":"31.23204","category":"148","category_name":"美容美发店","address":"上海静安区新闸路1225号(近江宁路)  "},{"poiid":"B2094654DA6CA3FA4899","title":"上海对外经济贸易企业协会(时美大厦)","lon":"121.45201","lat":"31.23463","category":"250","category_name":"公园户外","address":"江宁路445号时美大厦6层D"},{"poiid":"B2094654DA6CA3FA459C","title":"上海茶恬园国际旅行社有限公司","lon":"121.45201","lat":"31.23463","category":"248","category_name":"生活娱乐","address":"江宁路445号时美大厦5层A、C、9层C-D、13-14层、16层D"},{"poiid":"B2094654DA6CA2FD429D","title":"Great Style","lon":"121.45315","lat":"31.23315","category":"141","category_name":"服装鞋帽皮具店","address":""},{"poiid":"B2094757D66FA1FD4599","title":"space造型设计","lon":"121.45393358","lat":"31.232645478","category":"148","category_name":"美容美发店","address":"上海江宁路北京西路口"},{"poiid":"B2094757D06AA6FC4992","title":"沁园村","lon":"121.45403","lat":"31.233673","category":"500","category_name":"未知分类","address":"上海市靜安區新閘路1124弄"},{"poiid":"B2094655D26EA6FB4293","title":"静波康健俱乐部","lon":"121.45264","lat":"31.23504","category":"208","category_name":"休闲场所","address":"静安区康定路151号静安体育中心内(武定路口)"},{"poiid":"B2094757D164AAF94192","title":"德意志联邦共和国总领事馆上海领事签证处","lon":"121.451686286","lat":"31.2340467057","category":"500","category_name":"未知分类","address":"上海市静安区东海广场SOHO大厦"},{"poiid":"B2094757D66DABFF4492","title":"星际会所","lon":"121.45308358","lat":"31.235413532","category":"500","category_name":"未知分类","address":"静安区康定路151号静安体育中心内"},{"poiid":"B2094757D66EA7F84393","title":"申银万国","lon":"121.45428","lat":"31.23455","category":"500","category_name":"未知分类","address":"上海武定路331号"},{"poiid":"B2094757D16AA6FA449D","title":"甜爱路婚礼制造","lon":"121.45411658","lat":"31.234456513","category":"500","category_name":"未知分类","address":"上海市静安区和一大厦8楼CD座"},{"poiid":"B2094757D164A2FE459C","title":"19路江宁路康定路站","lon":"121.45339128","lat":"31.234483714","category":"500","category_name":"未知分类","address":"上海江宁路康定路全家门口"},{"poiid":"B2094757D16BA5FF4092","title":"陕西北路名人名街展示咨询中心","lon":"121.451936","lat":"31.232792","category":"500","category_name":"未知分类","address":"静安区陕西北路600号(新闸路口)"},{"poiid":"B2094654DA6CA4FD4192","title":"上海石油天然气有限公司","lon":"121.45376","lat":"31.23303","category":"263","category_name":"公司","address":"江宁路336号石油天然气大厦"},{"poiid":"B2094757D16CAAFB4493","title":"15路北京西路陕西北路站","lon":"121.452652","lat":"31.23053","category":"500","category_name":"未知分类","address":"上海静安区北京西路陕西北路西侧"},{"poiid":"B2094757D06BA3FE409E","title":"紫竹林禅院","lon":"121.45237086","lat":"31.233840741","category":"607","category_name":"一般景点","address":"舟山普陀山"},{"poiid":"B2094757D16EAAFF4899","title":"地铁一号线呼兰路站","lon":"121.45042388","lat":"31.233603997","category":"500","category_name":"未知分类","address":"上海共和新路呼兰路"},{"poiid":"B2094757D66EA0FA489A","title":"茭莉芙萃颜坊","lon":"121.45093558","lat":"31.231624458","category":"148","category_name":"美容美发店","address":"上海市静安区康定路"},{"poiid":"B2094654DA6CA4FD469A","title":"上海滑稽剧团","lon":"121.45216","lat":"31.23531","category":"189","category_name":"文艺团体","address":"康定路211号艺海大厦11层"},{"poiid":"B2094757D169A6FB459A","title":"上海市旅遊局","lon":"121.454456","lat":"31.232845735","category":"500","category_name":"未知分类","address":"上海中山西路2525號4樓"},{"poiid":"B2094654DB6BA5FD4292","title":"和中堂足道","lon":"121.45313","lat":"31.23539","category":"149","category_name":"洗浴推拿场所","address":"静安区江宁路428号静安体育中心4层"},{"poiid":"B2094757D168A3FE429B","title":"206路澳門路","lon":"121.452775086","lat":"31.2325877772","category":"500","category_name":"未知分类","address":"上海"},{"poiid":"B2094757D16FA6F5489D","title":"组合发型江宁路店","lon":"121.45271258","lat":"31.233891502","category":"500","category_name":"未知分类","address":"上海江宁路392号"},{"poiid":"B2094757D165A3FA449E","title":"天天新报","lon":"121.452131707","lat":"31.2352096439","category":"500","category_name":"未知分类","address":"上海康定路211号"},{"poiid":"B2094757D165A4F94992","title":"上海印刷集团","lon":"121.453114","lat":"31.232399","category":"500","category_name":"未知分类","address":"上海齐齐哈尔路928号"},{"poiid":"B2094757D66DA6FB4798","title":"上海市第四十九机动车安全检测站","lon":"121.45356558","lat":"31.231878463","category":"500","category_name":"未知分类","address":"上海迎宾二路69号"},{"poiid":"B2094757D66EA4FB419B","title":"田宅","lon":"121.45279458","lat":"31.232611677","category":"500","category_name":"未知分类","address":null},{"poiid":"B2094655D264A6F4419B","title":"明樱游艺城","lon":"121.45136","lat":"31.23492","category":"173","category_name":"游戏厅","address":"江宁路493号3层"},{"poiid":"B2094654DA6CA3F9429D","title":"辞海编辑委员会","lon":"121.45226","lat":"31.23059","category":"252","category_name":"楼宇机构","address":"陕西北路457"},{"poiid":"B2094654DA6CA4FD459E","title":"上海广播电视信息网络有限公司","lon":"121.45216","lat":"31.23531","category":"252","category_name":"楼宇机构","address":"康定路211号艺海大厦4层"},{"poiid":"B2094757D06AA1FC419D","title":"江宁路昌平路","lon":"121.453256","lat":"31.233003","category":"260","category_name":"其他","address":"上海江宁路昌平路"},{"poiid":"B2094654DA6CA5F4459F","title":"上航第一集团国际租赁有限责任公司","lon":"121.45472","lat":"31.23156","category":"263","category_name":"公司","address":"江宁路212号凯迪克大厦25层-B、23层-A"},{"poiid":"B2094757D16EA1FC449A","title":"经典咖啡","lon":"121.45195","lat":"31.2348","category":"260","category_name":"其他","address":"静安区江宁路495号博鸿大厦(近康定路)"},{"poiid":"B209475DDA6EABFE4093","title":"上海国际赛车场","lon":"121.454513","lat":"31.232475","category":"627","category_name":"一般地点标志","address":"上海市 上海嘉定区"},{"poiid":"B2094654DA6CA5F44898","title":"凯迪克大厦党员服务点","lon":"121.45472","lat":"31.23156","category":"248","category_name":"生活娱乐","address":"江宁路212号凯迪克大厦4楼(近北京路)"},{"poiid":"B2094752D365A4FE419F","title":"SEPHORA","lon":"121.454423","lat":"31.231197","category":"249","category_name":"购物服务","address":"南京西路933号"},{"poiid":"B2094655D26DA7F8439F","title":"大德公寓(北门)","lon":"121.45336","lat":"31.23246","category":"48","category_name":"楼宇大门","address":""},{"poiid":"B2094654DA6CA5F54598","title":"申银万国证券股份有限公司(昌化路)","lon":"121.4547","lat":"31.23427","category":"219","category_name":"其他","address":""},{"poiid":"B2094757D568A0F5469F","title":"上海爱泊满服务公寓静安紫苑","lon":"121.4535919","lat":"31.23289111","category":"251","category_name":"出行住宿","address":"江宁路356弄5号"},{"poiid":"B2094655D26CAAF8459D","title":"时美大厦(南门)","lon":"121.45169","lat":"31.23444","category":"656","category_name":"大门","address":"江宁路445号"},{"poiid":"B2094655D26BA5FA4393","title":"宝业静安紫苑(北门)","lon":"121.45339","lat":"31.23437","category":"656","category_name":"大门","address":"武定路355"}]