[{"poiid":"B2094757D06FA3FB4393","title":"上海世博展览馆 Shanghai World EXPO Exhibition & Convention Center","lon":"121.489975548","lat":"31.1822755304","category":"260","category_name":"其他","address":"上海浦东新区国展路1099号"},{"poiid":"B2094655D268A3FF4498","title":"世博园区中国馆","lon":"121.49475","lat":"31.18453","category":"183","category_name":"展览馆","address":""},{"poiid":"B2094655D36DA6FF499E","title":"上海影城--世博国际影城","lon":"121.48736","lat":"31.18564","category":"178","category_name":"电影院","address":"上海市浦东新区世博大道1200号世博文化中心6楼(梅赛德斯-奔驰文化中心)"},{"poiid":"B2094750D36BA7FC409B","title":"梅赛德斯-奔驰文化中心 Mercedes-Benz Arena","lon":"121.493168","lat":"31.190006","category":"646","category_name":"文化体育类公司","address":"浦东新区世博大道1200号(近上南路)"},{"poiid":"B2094750D365A4F5489C","title":"中华艺术宫","lon":"121.494338","lat":"31.183723","category":"248","category_name":"生活娱乐","address":"国展路云台路口（原中国国家馆）"},{"poiid":"B2094757D06EAAFD459C","title":"耀华路地铁站","lon":"121.4947024","lat":"31.178493202","category":"36","category_name":"地铁站","address":"上海轨道交通 七号线 八号线 轨交耀华路站 7 8"},{"poiid":"B2094757D06FA3FE4493","title":"上海世博中心","lon":"121.489342559","lat":"31.1860505323","category":"260","category_name":"其他","address":"上海浦东新区世博大道1500号"},{"poiid":"B2094757D06EABF54893","title":"星巴克 STARBUCKS (世博演艺中心店)","lon":"121.4896985","lat":"31.1858498","category":"260","category_name":"其他","address":"浦东新区世博大道1200号世博演艺中心L111商铺"},{"poiid":"B2094757D06EAAF9409C","title":"世博会中国国家馆","lon":"121.494923671","lat":"31.184639805","category":"260","category_name":"其他","address":"上海浦东新区国展路云台路口(原上海世博会A片区)"},{"poiid":"B2094757DA6EA6FE489C","title":"望湘园(世博店)","lon":"121.4943","lat":"31.18886","category":"77","category_name":"湖南菜","address":"浦东新区世博大道1200号梅赛德斯奔驰文化中心6楼603号(近上南路)"},{"poiid":"B2094750D26FA0FE4993","title":"上海世博展览馆","lon":"121.490014","lat":"31.182562","category":"183","category_name":"展览馆","address":"浦东新区国展路1099号(近世博轴西侧)"},{"poiid":"B2094757D06EABF4499A","title":"The Mixing Room&amp;MUSE","lon":"121.4909603","lat":"31.1862715","category":"179","category_name":"音乐厅","address":"上海浦东新区世博大道1200号(梅赛德斯-奔驰文化中心B1层)"},{"poiid":"B2094757D06FA6F54192","title":"上南花城","lon":"121.49073","lat":"31.179022","category":"47","category_name":"住宅区","address":"上海市浦东新区耀华路85-87弄"},{"poiid":"B2094752DB6AA3FB489A","title":"银乐迪","lon":"121.492111","lat":"31.187576","category":"500","category_name":"未知分类","address":"上海市 世博大道1368号1G13(近上南路)"},{"poiid":"B2094757D06BA1FA409A","title":"绍兴饭店(世博店)","lon":"121.48555","lat":"31.18079","category":"75","category_name":"浙江菜","address":"浦东新区国展路1099号上海世博展览馆2楼"},{"poiid":"B2094757D06FA6F44999","title":"上南路耀华路","lon":"121.49440002","lat":"31.177612304","category":"500","category_name":"未知分类","address":"上海上南路耀华路"},{"poiid":"B2094751DA68ABFA459D","title":"世博源王鼎日本料理","lon":"121.491779","lat":"31.187822","category":"247","category_name":"餐饮美食","address":"世博源"},{"poiid":"B2094757D06FA1F54292","title":"世博会世博轴","lon":"121.49265997","lat":"31.183181722","category":"260","category_name":"其他","address":"上海浦东新区上南路周家渡路间(原上海世博会A/B片区交汇处)"},{"poiid":"B2094757D66FA2F94798","title":"世博展览馆1馆","lon":"121.490898738","lat":"31.1825972857","category":"500","category_name":"未知分类","address":"上海国展路1099号"},{"poiid":"B2094757D069A0FF4298","title":"乐町Rakumachi 日本料理","lon":"121.49200542","lat":"31.187594186","category":"500","category_name":"未知分类","address":"上海浦东世博大道1200号世博文化中心6楼605"},{"poiid":"B209475DDB6DABF5439B","title":"世博源","lon":"121.492805","lat":"31.182491","category":"249","category_name":"购物服务","address":"上海市 博成路"},{"poiid":"B2094751DA6FA7F44093","title":"麝香猫咖啡世博店","lon":"121.49202","lat":"31.18782","category":"247","category_name":"餐饮美食","address":"浦东新区浦东南路3588号世博源购物中心LM楼1LM06室"},{"poiid":"B2094757D06FA5FC429D","title":"世博园六号门","lon":"121.49372438","lat":"31.179298936","category":"260","category_name":"其他","address":"上海世博园六号门上南路出入口"},{"poiid":"B2094752DB6DA3FC4393","title":"银乐迪（世博源店）","lon":"121.490905","lat":"31.187173","category":"500","category_name":"未知分类","address":"上海市 世博大道1368号1G11"},{"poiid":"B2094751D26FA2F54699","title":"上海地铁8号线中华艺术宫站","lon":"121.49370496826168","lat":"31.184915300620595","category":"36","category_name":"地铁站","address":"浦东新区上南路近博成路"},{"poiid":"B2094757D06FA5F44998","title":"世博会主题馆","lon":"121.4902454","lat":"31.182306354","category":"260","category_name":"其他","address":"上海世博会B片区 世博馆路"},{"poiid":"B2094757D069A7F9429B","title":"世博大道","lon":"121.49357258","lat":"31.183651909","category":"260","category_name":"其他","address":"上海世博园"},{"poiid":"B2094655D26EA6FD439F","title":"锦江之星(上海世博园区历城路店)","lon":"121.49232","lat":"31.1769","category":"216","category_name":"经济型连锁酒店","address":"上海市浦东新区历城路40号(近耀华路)"},{"poiid":"B2094750D06CA3FF419B","title":"仁济医院","lon":"121.489074","lat":"31.182588","category":"162","category_name":"医院","address":"浦建路"},{"poiid":"B2094655D264A1FC459A","title":"主题馆(南大门)","lon":"121.4905","lat":"31.1815","category":"183","category_name":"展览馆","address":"上海世博园区"},{"poiid":"B2094753D16EAAFD499D","title":"巴国布衣(世博店)","lon":"121.49274","lat":"31.18397","category":"71","category_name":"四川菜","address":"浦东新区世博大道1368号世博源1楼110号铺(近上南路)"},{"poiid":"B2094750DB6DA1F94098","title":"中华艺术馆","lon":"121.4924913","lat":"31.1825086","category":"183","category_name":"展览馆","address":"浦东新区上南路161号"},{"poiid":"B2094655D265A1FF4698","title":"主题馆室外展场(东南)","lon":"121.49111","lat":"31.18157","category":"183","category_name":"展览馆","address":"上海世博园区"},{"poiid":"B2094757D66BA3F54999","title":"伊诺咖啡 沙特馆店","lon":"121.486153","lat":"31.1839423","category":"260","category_name":"其他","address":"浦东新区博成路1221号沙特馆旁(近中国馆)"},{"poiid":"B2094757D469A3F94193","title":"心乐蝶舞灵性舞蹈养生餐厅","lon":"121.4909603","lat":"31.1862715","category":"76","category_name":"上海菜","address":"世博大道1515号梅赛德斯奔驰文化中心L601近雪野路"},{"poiid":"B2094655D265A1F8499C","title":"主题馆室外展场(西南)","lon":"121.48938","lat":"31.1813","category":"183","category_name":"展览馆","address":"上海世博园区"},{"poiid":"B2094655D264A1FC4493","title":"主题馆下沉广场","lon":"121.49061","lat":"31.18365","category":"183","category_name":"展览馆","address":"上海世博园区"},{"poiid":"B2094750D66CAAFD4792","title":"上海东方体育中心","lon":"121.494178","lat":"31.185503","category":"500","category_name":"未知分类","address":null},{"poiid":"B2094454D264A0F8459B","title":"世博源","lon":"121.493309","lat":"31.179927","category":"249","category_name":"购物服务","address":"上海市 上海市"},{"poiid":"B2094757D064A6F44799","title":"星巴克 STARBUCKS (浦东二店)","lon":"121.49099731","lat":"31.184299469","category":"247","category_name":"餐饮美食","address":"上海浦东新区世博园区世博轴01-307区域"},{"poiid":"B2094753D26CA4F84099","title":"BMW宝马体验中心","lon":"121.489786","lat":"31.18405","category":"500","category_name":"未知分类","address":"上海市 世博园上南路雪野路"},{"poiid":"B2094752D664A4F9449A","title":"广潮味","lon":"121.491635","lat":"31.187727","category":"247","category_name":"餐饮美食","address":"世博源"},{"poiid":"B2094757D568A0FE499C","title":"中国邮政(主题馆东)","lon":"121.49079","lat":"31.18258285","category":"621","category_name":"邮局","address":"上海世博园区"},{"poiid":"B2094751D26CAAFA4598","title":"上海世博展馆","lon":"121.491149","lat":"31.182983","category":"500","category_name":"未知分类","address":null},{"poiid":"B2094655D265A1F8499D","title":"主题馆室外展场(西北)","lon":"121.48898","lat":"31.18341","category":"183","category_name":"展览馆","address":"上海世博园区"},{"poiid":"B2094752D669A7FB4798","title":"首尔阳光","lon":"121.490535","lat":"31.179517","category":"247","category_name":"餐饮美食","address":"上南路昌里路"},{"poiid":"B209475CD668A6FB4392","title":"世博公园","lon":"121.492591","lat":"31.180448","category":"500","category_name":"未知分类","address":"上海市 世博大道1700号"},{"poiid":"B2094752D465A0F8449E","title":"鱻道","lon":"121.49171","lat":"31.187348","category":"247","category_name":"餐饮美食","address":"世博大道1368号世博源1G08号铺(近上南路)"},{"poiid":"B2094752D76FA2FF4398","title":"2013上海国际宠物犬博览会","lon":"121.492116","lat":"31.180275","category":"248","category_name":"生活娱乐","address":"浦东新区国展路1099号上海世博展览馆（原世博主题馆）"},{"poiid":"B2094757D569A7F84299","title":"上南花苑城-金玉良园","lon":"121.4907369","lat":"31.17900389","category":"47","category_name":"住宅区","address":"上南花苑城―金玉良园位于浦东上海浦东耀华路85号"},{"poiid":"B2094753D26DA6FC449E","title":"上海梅赛德斯奔驰文化中心","lon":"121.490146","lat":"31.176861","category":"500","category_name":"未知分类","address":"上海市 上海浦东世博大道1200号"},{"poiid":"B2094752D66FAAFB449D","title":"首尔阳光","lon":"121.494113","lat":"31.182496","category":"247","category_name":"餐饮美食","address":"上南路898号"},{"poiid":"B2094654DA68A1FE4792","title":"中国移动耀华路营业厅","lon":"121.4943","lat":"31.17808","category":"151","category_name":"电讯营业厅","address":"耀华路4"},{"poiid":"B2094752DB6BA5FB4898","title":"BMW全球体验中心","lon":"121.489582","lat":"31.183337","category":"500","category_name":"未知分类","address":"上海市 上海市浦东新区上南路"},{"poiid":"B209475CD76DA1FB4298","title":"徐汇滨江绿地","lon":"121.488403","lat":"31.180555","category":"500","category_name":"未知分类","address":"上海市 徐汇滨江绿地"},{"poiid":"B2094752D765A2F94693","title":"梅赛德斯奔驰文化中心","lon":"121.492378","lat":"31.17875","category":"500","category_name":"未知分类","address":null},{"poiid":"B2094753D76AA1FB499B","title":"BES,CLUB","lon":"121.491666","lat":"31.188207","category":"256","category_name":"外国餐厅","address":"上海市浦东新区世博大道1368号世博源LM02号商铺(上南路口)"},{"poiid":"B2094752D36DA4F4469B","title":"奔驰梅赛德斯文化中心","lon":"121.491959","lat":"31.187866","category":"500","category_name":"未知分类","address":"世博源公馆"},{"poiid":"B2094757D169AAF5479D","title":"上海国际动漫展","lon":"121.48798673","lat":"31.181368259","category":"500","category_name":"未知分类","address":"上海中国馆"},{"poiid":"B2094752D06DAAFB4098","title":"杨思医院","lon":"121.492991","lat":"31.183484","category":"162","category_name":"医院","address":null},{"poiid":"B2094655D268A5FF4592","title":"大富贵酒楼 历城路店","lon":"121.492525054","lat":"31.177554793","category":"76","category_name":"上海菜","address":"浦东新区历城路30号(近耀华路)"},{"poiid":"B2094654DA68A1FE4793","title":"中国工商银行上海市周家渡支行","lon":"121.49391","lat":"31.17806","category":"150","category_name":"银行","address":"浦东新区耀华路12号近上南路(浦东南路耀华路)"},{"poiid":"B2094757D56DA5FF429F","title":"世博会园区浦东B片区","lon":"121.48872613907","lat":"31.184572421514","category":"250","category_name":"公园户外","address":"浦东新区世博会园区浦东B片区"},{"poiid":"B2094752DA6AA5FE469B","title":"银乐迪浦东世博店","lon":"121.487487","lat":"31.185516","category":"500","category_name":"未知分类","address":"上海市 浦东新区世博大道1368号1G3(世博源)"},{"poiid":"B2094751D569A5F84693","title":"梅赛德斯奔驰演艺中心","lon":"121.487823","lat":"31.179671","category":"500","category_name":"未知分类","address":null},{"poiid":"B2094752D56AA3F5409E","title":"上海东方体育中心","lon":"121.48996","lat":"31.184158","category":"500","category_name":"未知分类","address":null},{"poiid":"B2094655D26EA5FB499C","title":"秋林茶坊","lon":"121.49074","lat":"31.179","category":"66","category_name":"茶艺馆","address":"浦东新区耀华路85弄1号"},{"poiid":"B2094757D065A4FA499B","title":"世博会新闻中心","lon":"121.488212585","lat":"31.1857433319","category":"46","category_name":"楼宇","address":"上海浦东新区世博会园区B片区世博中心西侧"},{"poiid":"B2094757D568A5F44499","title":"等候广场(主题馆东南)","lon":"121.4929279","lat":"31.18092543","category":"248","category_name":"生活娱乐","address":"上海世博园区"},{"poiid":"B2094655D265A1F9419C","title":"世界风味小吃区","lon":"121.48999","lat":"31.1853","category":"256","category_name":"外国餐厅","address":"上海世博园区"},{"poiid":"B2094751DA6DA0FB4898","title":"浦东新区东方路浦电路","lon":"121.492948","lat":"31.183518","category":"500","category_name":"未知分类","address":null},{"poiid":"B2094757D165A2FF459F","title":"范玮琪演唱会","lon":"121.48810273","lat":"31.181538263","category":"500","category_name":"未知分类","address":null},{"poiid":"B2094655D265A1FF469F","title":"中国国家馆下沉广场","lon":"121.49467","lat":"31.18577","category":"183","category_name":"展览馆","address":"上海世博园区"},{"poiid":"B2094757D168A6F4419E","title":"德克士（世博店）","lon":"121.49140167","lat":"31.184267044","category":"500","category_name":"未知分类","address":"上海世博轴A片区B2"},{"poiid":"B2094753D46FAAFA459D","title":"ibaby国际尖端婴童摄影浦东旗舰店","lon":"121.4914085180053","lat":"31.181341543702594","category":"633","category_name":"商务服务类公司","address":"浦东新区世博园区C片区墨西哥馆（国展路上钢路路口）"},{"poiid":"B2094753D564ABF8449F","title":"鼎味源融合菜","lon":"121.490716","lat":"31.187739","category":"76","category_name":"上海菜","address":"浦东新区世博大道1368号世博源1LM(奔驰文化中心,西门进入,左转直行))"},{"poiid":"B2094752D26BA5FD409F","title":"斗牛士","lon":"121.491699","lat":"31.187439","category":"247","category_name":"餐饮美食","address":"梅赛德斯"},{"poiid":"B2094757D16CA5F5459B","title":"中国馆60米贵宾层","lon":"121.49488973","lat":"31.178259193","category":"247","category_name":"餐饮美食","address":"上海市浦东新区上南路国展路"},{"poiid":"B2094750D56EAAF5489D","title":"虹桥路凯旋路","lon":"121.491882","lat":"31.18485","category":"500","category_name":"未知分类","address":null},{"poiid":"B2094655D26FA5FF409A","title":"耀高小区","lon":"121.495","lat":"31.1816","category":"47","category_name":"住宅区","address":"耀华路240弄"},{"poiid":"B2094757D064A7FD489F","title":"世博中心红厅","lon":"121.48905181","lat":"31.186658859","category":"500","category_name":"未知分类","address":"上海世博中心西侧"},{"poiid":"B209475CD06CA4FA459B","title":"王鼎铁板烧精致料理 世博源店","lon":"121.49183","lat":"31.18802","category":"268","category_name":"自助","address":"世博大道1368号世博源1LM03-04号铺(近梅赛德斯奔驰文化中心西门)"},{"poiid":"B2094753D76AA1FB489E","title":"太平洋咖啡(世博源店)","lon":"121.492","lat":"31.18764","category":"65","category_name":"咖啡厅","address":"上海市浦东新区世博大道1368号世博源L203号铺"},{"poiid":"B2094757D16BAAFC4992","title":"世博会上海合作组织馆(国际组织联合馆)","lon":"121.48768615","lat":"31.181570053","category":"500","category_name":"未知分类","address":"上海世博会B片区"},{"poiid":"B2094752D565A4FD479E","title":"Bes Club","lon":"121.487541","lat":"31.186709","category":"247","category_name":"餐饮美食","address":"世博大道1368号世博园LM02号商铺"},{"poiid":"B2094757D064A2F84698","title":"耀华路历城路","lon":"121.48994573","lat":"31.176459155","category":"500","category_name":"未知分类","address":"上海耀华路历城路"},{"poiid":"B2094757D66FA3F84799","title":"快客便利超市(上南花城店)","lon":"121.48885136","lat":"31.178923687","category":"117","category_name":"便民商店/便利店","address":"上海浦东新区耀华路85弄和87弄"},{"poiid":"B2094655D26AA0F94899","title":"地铁世博园站","lon":"121.48543","lat":"31.18239","category":"36","category_name":"地铁站","address":""},{"poiid":"B2094654DA68A2FB459D","title":"浦泾大楼","lon":"121.48839513202","lat":"31.177661004465","category":"46","category_name":"楼宇","address":"耀华路528号"},{"poiid":"B2094752D265A3FE459F","title":"世博源公馆","lon":"121.493027","lat":"31.186973","category":"247","category_name":"餐饮美食","address":"上海市浦东新区世博大道1368号"},{"poiid":"B2094753DA69A4FA4693","title":"中华艺术宫地铁站","lon":"121.495491","lat":"31.178569","category":"36","category_name":"地铁站","address":"上海市 中华艺术宫地铁站"},{"poiid":"B2094757D66EA0FD449F","title":"龙东大道金桥路","lon":"121.49391673","lat":"31.182631286","category":"500","category_name":"未知分类","address":"上海市浦东新区金桥路"},{"poiid":"B2094655D26BA2F54493","title":"浦东南路历城路","lon":"121.49095","lat":"31.17781","category":"38","category_name":"公交车站","address":""},{"poiid":"B209475CD26FA6F5429B","title":"日月光中心","lon":"121.492813","lat":"31.178243","category":"500","category_name":"未知分类","address":"上海市 打浦桥"},{"poiid":"B2094757D568A2FB4499","title":"集散广场(上钢二村北)","lon":"121.49364882","lat":"31.17906521","category":"201","category_name":"城市广场","address":"上海世博园区"},{"poiid":"B2094655D36CA2F5419B","title":"上南路浦东南路","lon":"121.4948","lat":"31.17748","category":"38","category_name":"公交车站","address":""},{"poiid":"B2094757D06FA2F4419C","title":"世博会尼泊尔馆","lon":"121.48887","lat":"31.18675","category":"260","category_name":"其他","address":"上海浦东新区博成路近云台路(原上海世博会A片区)"},{"poiid":"B2094753DA6BA0F4479C","title":"猛哥芒果冰","lon":"121.493026","lat":"31.188022","category":"247","category_name":"餐饮美食","address":"上海市 日月光台湾馆"},{"poiid":"B2094757D569A7FC4698","title":"罗森(国展路)","lon":"121.48645969","lat":"31.18062039","category":"117","category_name":"便民商店/便利店","address":"上海世博园区"},{"poiid":"B2094757D06AA7FA4899","title":"Ru's屋企","lon":"121.48767773","lat":"31.178688202","category":"247","category_name":"餐饮美食","address":null},{"poiid":"B2094757D06AA1F9499E","title":"信建大厦","lon":"121.489","lat":"31.1781","category":"500","category_name":"未知分类","address":"上海市浦东新区耀华路488号"},{"poiid":"B2094655D36CA2F4439C","title":"上钢新村","lon":"121.49033347835","lat":"31.177017152998","category":"38","category_name":"公交车站","address":"洪山路1080弄"},{"poiid":"B2094757D16BA3FE499F","title":"上钢二村","lon":"121.49367","lat":"31.177155","category":"252","category_name":"楼宇机构","address":"上海上南路800弄"},{"poiid":"B2094757D66DABF5429F","title":"英雄棋牌","lon":"121.48756973","lat":"31.181005251","category":"248","category_name":"生活娱乐","address":"上海云莲路齐河路"},{"poiid":"B2094752D06BABFF469E","title":"上海歌城","lon":"121.487548","lat":"31.180023","category":"170","category_name":"KTV","address":"昌里路"},{"poiid":"B2094654DB65A6FA469E","title":"清流中学(历城校区)","lon":"121.49093","lat":"31.17718","category":"55","category_name":"中学","address":"历城路10"},{"poiid":"B2094757D06AA4FD4099","title":"轩尼诗炫音之乐上海盛典","lon":"121.49232073","lat":"31.178379195","category":"500","category_name":"未知分类","address":"上海世博演艺中心"},{"poiid":"B2094757D16EA4FE4692","title":"锦江之星(历城路店)","lon":"121.49271","lat":"31.17644","category":"500","category_name":"未知分类","address":"浦东新区历城路40号(近耀华路)"},{"poiid":"B2094750D568A7FF479A","title":"九院","lon":"121.493621","lat":"31.17794","category":"627","category_name":"一般地点标志","address":"制造局路"},{"poiid":"B2094654DA68A1FF469B","title":"光明乳业上钢块配送奶站","lon":"121.49118","lat":"31.17752","category":"117","category_name":"便民商店/便利店","address":""},{"poiid":"B2094753D26EABF94098","title":"衡山路","lon":"121.492563","lat":"31.178734","category":"500","category_name":"未知分类","address":"上海市 衡山路"},{"poiid":"B209475DD76DA6FF499D","title":"比比客世博店","lon":"121.49246","lat":"31.187023","category":"247","category_name":"餐饮美食","address":"上海市浦东大道1368号"},{"poiid":"B2094757D168A1FB479B","title":"罗曼园高级婚礼会馆(世博中心馆)","lon":"121.488529438","lat":"31.1867324737","category":"500","category_name":"未知分类","address":"浦东新区世博大道1500号世博中心内(近世博馆路)查看地图"},{"poiid":"B2094757D165A2FB4792","title":"超人咖啡馆","lon":"121.48812273","lat":"31.17813019","category":"65","category_name":"咖啡厅","address":null},{"poiid":"B2094757D069A3FB409B","title":"世博会中国省区市联合馆","lon":"121.49562072","lat":"31.184608459","category":"183","category_name":"展览馆","address":"上海世博会A片区"},{"poiid":"B2094752DB6CA4FC4998","title":"银乐迪ktv","lon":"121.491618","lat":"31.187821","category":"170","category_name":"KTV","address":"上海市 世博源"},{"poiid":"B2094654DB64A4FC499E","title":"上海师范大学美术学院常青分部(教学区)","lon":"121.49093","lat":"31.17719","category":"52","category_name":"高等院校","address":"历城路10"},{"poiid":"B2094753D76AA1FB4792","title":"三米蓝南洋风味餐厅","lon":"121.492","lat":"31.187292","category":"256","category_name":"外国餐厅","address":"上海市浦东新区世博大道1368号世博源1G03号铺(近上南路)"},{"poiid":"B2094757D065A2FF4892","title":"耀华215商务广场","lon":"121.4884197","lat":"31.176869783","category":"500","category_name":"未知分类","address":"上海耀华路215号"},{"poiid":"B2094654DA68A1FE499A","title":"上海民办常青高级中学","lon":"121.49093","lat":"31.17718","category":"55","category_name":"中学","address":"浦东新区历城路10号"},{"poiid":"B2094757D66DAAF84192","title":"上钢新村幼儿园","lon":"121.492119738","lat":"31.1768741639","category":"57","category_name":"幼儿园","address":"浦东新区昌里路282号‎(昌里路历城路)"},{"poiid":"B2094654DB69A6FF419B","title":"恒大华城东林苑","lon":"121.49444","lat":"31.17878","category":"47","category_name":"住宅区","address":"浦东新区耀华路1号"},{"poiid":"B2094654DA68A1FE4893","title":"耀华专业美发设计中心","lon":"121.49237","lat":"31.17788","category":"148","category_name":"美容美发店","address":"耀华路46-1识别"},{"poiid":"B2094757D06FA2FB489C","title":"六一儿童节","lon":"121.48832002","lat":"31.17860088","category":"249","category_name":"购物服务","address":null},{"poiid":"B209475CD26CA2FB4492","title":"广潮味","lon":"121.493003","lat":"31.187994","category":"247","category_name":"餐饮美食","address":"上海市 上海浦东世博大道1368号世博源1层"},{"poiid":"B2094655D264A6FB449A","title":"喜士多便利(世博店)","lon":"121.49434","lat":"31.17804","category":"117","category_name":"便民商店/便利店","address":"耀华路4号"},{"poiid":"B2094655D26BA2F5449B","title":"浦东南路上南路","lon":"121.49588","lat":"31.1787","category":"38","category_name":"公交车站","address":""},{"poiid":"B2094757D068A4FB469C","title":"世博会菲律宾馆","lon":"121.48613739","lat":"31.181919097","category":"217","category_name":"旅馆招待所","address":"上海浦东新区国展路近世博馆路(原上海世博会B片区)"},{"poiid":"B2094753DA6FA6F4439F","title":"友丽拌饭（奔驰文化中心店）","lon":"121.492825","lat":"31.18806","category":"247","category_name":"餐饮美食","address":"上海市浦东新区世博大道1200号梅赛德斯-奔驰文化中心B1楼B130（溜冰场旁）"},{"poiid":"B2094655D26BA0FA459C","title":"耀清小区","lon":"121.49023","lat":"31.17652","category":"47","category_name":"住宅区","address":"耀华路200弄1-25号"},{"poiid":"B2094655D264A4F8449A","title":"赵金志金钥匙博物馆","lon":"121.49591","lat":"31.18534","category":"182","category_name":"博物馆","address":"Lázeňská3TepláValley"},{"poiid":"B2094757D168A3F54098","title":"蘑菇宝贝(新村店)","lon":"121.49463903","lat":"31.183609573","category":"249","category_name":"购物服务","address":"上海新村路423号1幢36号"},{"poiid":"B2094757D16DA3FD4092","title":"YEAH上海","lon":"121.49250793","lat":"31.176176071","category":"75","category_name":"浙江菜","address":"上海浦东新区上南路1156号三钢里3号楼(近昌里路)"},{"poiid":"B2094753D36CA1FD429B","title":"鱻道创作料理","lon":"121.490944","lat":"31.18779","category":"95","category_name":"日本料理","address":"世博大道1368号1G08B1"},{"poiid":"B2094757D06AA0FE4993","title":"五一劳动节","lon":"121.48818817","lat":"31.178798749","category":"500","category_name":"未知分类","address":"上海劳动人民放假喽(＾＿＾)☆"},{"poiid":"B2094757D068A0FA409C","title":"世博会香港馆","lon":"121.49410247","lat":"31.182994842","category":"260","category_name":"其他","address":"上海浦东新区国展路上南路口(原上海世博会A片区)"},{"poiid":"B2094757D06AA0FE439C","title":"☆怀挺鲤鱼打挺怀挺鲤鱼打挺怀挺鲤鱼打挺怀挺☆","lon":"121.488563","lat":"31.178620433","category":"500","category_name":"未知分类","address":null},{"poiid":"B2094757D568A6F84998","title":"特许店(联华超市股份有限公司运营)(国展路)","lon":"121.48625081","lat":"31.18060438","category":"255","category_name":"专卖店","address":"上海世博园区"},{"poiid":"B2094757D16CA3F84493","title":"谋杀寂寞","lon":"121.48786273","lat":"31.178722203","category":"500","category_name":"未知分类","address":"上海孤独是高贵的 寂寞是无奈的"},{"poiid":"B209475CD66EA2F5459D","title":"世博园","lon":"121.495018","lat":"31.178712","category":"500","category_name":"未知分类","address":"上海市 国展路"},{"poiid":"B2094654DB6BABFF469C","title":"光明便利(历城路)","lon":"121.49233","lat":"31.17681","category":"117","category_name":"便民商店/便利店","address":"浦东新区历城路30号(历城路耀华路)"},{"poiid":"B2094757D064A7FE469A","title":"桃花朵朵开","lon":"121.48811977","lat":"31.178524149","category":"500","category_name":"未知分类","address":"上海只要好桃花 烂桃花不要"},{"poiid":"B209475CD06CAAFF429E","title":"贝斯音乐餐厅  BES CLUB","lon":"121.49166","lat":"31.1882","category":"94","category_name":"西餐厅","address":"世博大道1368号世博源LM02号商铺近上南路口"},{"poiid":"B2094752DB6FA6FE439B","title":"新浪有约扇贝王","lon":"121.488184","lat":"31.176516","category":"247","category_name":"餐饮美食","address":"上海市 历城路"},{"poiid":"B2094757D06AA7F84892","title":"上海世博东座酒店公寓","lon":"121.496086","lat":"31.182186","category":"217","category_name":"旅馆招待所","address":"上海浦东新区浦建路727号"},{"poiid":"B2094753D664AAF44692","title":"巴国布衣世博店","lon":"121.491699","lat":"31.187456","category":"500","category_name":"未知分类","address":"上海市 世纪大道1368号111号"},{"poiid":"B2094757D164A2FB449D","title":"螃蟹吃西瓜","lon":"121.48846005","lat":"31.178613167","category":"249","category_name":"购物服务","address":null},{"poiid":"B2094655D265A6F9489F","title":"耀清小区(北门)","lon":"121.48981","lat":"31.17671","category":"47","category_name":"住宅区","address":"耀华路200弄1-25号"},{"poiid":"B2094654DB6BABFF469D","title":"上钢社区卫生服务中心(上钢新村派出所西)","lon":"121.49121","lat":"31.17632","category":"162","category_name":"医院","address":""},{"poiid":"B2094757D068A7F9409E","title":"世博园五号门","lon":"121.49645449","lat":"31.183726531","category":"500","category_name":"未知分类","address":"上海世博园五号门高科西路出入口"},{"poiid":"B2094750D36BA0F54993","title":"世纪星滑冰俱乐部-上海世博店","lon":"121.48736","lat":"31.18564","category":"646","category_name":"文化体育类公司","address":"世博大道1200号，梅赛德斯奔驰文化中心B1楼"},{"poiid":"B2094655D268A2F4499E","title":"上钢二村(西二号门)","lon":"121.49253","lat":"31.17706","category":"47","category_name":"住宅区","address":""},{"poiid":"B2094757DA6EAAFF4493","title":"上海国际宠物犬博览会","lon":"121.485558500001","lat":"31.1807903","category":"248","category_name":"生活娱乐","address":"浦东新区国展路1099号"},{"poiid":"B2094757D16CA5F9499D","title":"如果有一天。。。","lon":"121.489509738","lat":"31.1775181776","category":"500","category_name":"未知分类","address":"上海如果有一天。。。如果有那么一天。。。"},{"poiid":"B2094654DA68A6F9479E","title":"BaBy宠物天地","lon":"121.48876","lat":"31.17663","category":"162","category_name":"医院","address":"耀华215号"},{"poiid":"B2094654DA68A6F9479F","title":"重庆鸡公煲耀华店","lon":"121.48868","lat":"31.17661","category":"71","category_name":"四川菜","address":"浦东新区耀华路414弄5号(近昌里路)"},{"poiid":"B2094757D06AA7F5419A","title":"帛画世家","lon":"121.48814742","lat":"31.178185935","category":"500","category_name":"未知分类","address":"上海浦东"},{"poiid":"B2094757D16EABFF409F","title":"世博会世界贸易中心协会馆","lon":"121.4857254","lat":"31.184251785","category":"500","category_name":"未知分类","address":"上海世博会B片区"},{"poiid":"B2094757D069A0FA479D","title":"世博会澳门馆","lon":"121.49408721","lat":"31.183185577","category":"260","category_name":"其他","address":"上海浦东新区国展路近云台路(原上海世博会A片区)"},{"poiid":"B2094757D169A6F9479E","title":"爱传奇婚礼策划中心","lon":"121.49076473","lat":"31.177484076","category":"500","category_name":"未知分类","address":"上海耀华路215号215商务广场"},{"poiid":"B2094751D06CA2FF449B","title":"8号线中华艺术馆站","lon":"121.4894564","lat":"31.1872629","category":"500","category_name":"未知分类","address":null},{"poiid":"B2094752D764A5FF499D","title":"Musk Cat Coffee","lon":"121.491409","lat":"31.188141","category":"248","category_name":"生活娱乐","address":"世博大道1368号第LM层1LM06室"},{"poiid":"B2094750DB6DA3F5489E","title":"中华文化宫","lon":"121.487089","lat":"31.186785","category":"500","category_name":"未知分类","address":"上南路161号"},{"poiid":"B2094753D56CA7FA419F","title":"世博园喷泉景观","lon":"121.494926","lat":"31.177745","category":"500","category_name":"未知分类","address":"上海市 梅赛德斯奔驰中心码头"},{"poiid":"B2094757D16AA1F4449C","title":"浦东南路浦电路","lon":"121.48647073","lat":"31.186450527","category":"500","category_name":"未知分类","address":"上海992"},{"poiid":"B2094752D768A1FC409D","title":"斗牛士世博源店","lon":"121.489549","lat":"31.187525","category":"500","category_name":"未知分类","address":null},{"poiid":"B2094753D26DABFA409C","title":"巧克力开心乐园","lon":"121.486534","lat":"31.187006","category":"500","category_name":"未知分类","address":"上海市 浦东大道"},{"poiid":"B2094654DA68A1FF4092","title":"上钢新村派出所","lon":"121.49206","lat":"31.1763","category":"609","category_name":"警察局","address":"历城路50"},{"poiid":"B209475CD668A1F8499E","title":"世博公园","lon":"121.49031","lat":"31.188146","category":"500","category_name":"未知分类","address":"上海市 国展路"},{"poiid":"B2094757D06FAAFC4498","title":"世博会印度馆","lon":"121.48887","lat":"31.18675","category":"260","category_name":"其他","address":"上海浦东新区世博大道近高科西路(原上海世博会A片区)"},{"poiid":"B2094757D065A0FA479E","title":"世博会阿尔巴尼亚馆（欧洲联合馆二）","lon":"121.48542022","lat":"31.179397583","category":"500","category_name":"未知分类","address":"上海世博馆C区"},{"poiid":"B2094654DA68A6F94692","title":"上南花城(南门)","lon":"121.49173","lat":"31.17839","category":"656","category_name":"大门","address":"耀华路85弄1-10号、87弄1-63号"},{"poiid":"B2094757D06EAAFE4993","title":"2011上海国际嘉年华","lon":"121.49152473","lat":"31.186532369","category":"173","category_name":"游戏厅","address":"浦东新区上海世博区白莲泾路世博园4号入口(近浦东南路)"},{"poiid":"B2094757D068A0FF489B","title":"现实总是拖梦想的后腿","lon":"121.489494618","lat":"31.1778118538","category":"260","category_name":"其他","address":"上海每个地球人都是瘸腿的天使~~~"},{"poiid":"B2094752D06DABF84693","title":"裕泰東方","lon":"121.491675","lat":"31.188256","category":"247","category_name":"餐饮美食","address":"世博大道1368号1LM09"},{"poiid":"B2094757D068A2FE449C","title":"世博会俄罗斯馆","lon":"121.48887","lat":"31.18675","category":"260","category_name":"其他","address":"上海浦东新区上钢路近博成路(原上海世博会C片区)"},{"poiid":"B2094757D065A7F8429A","title":"世博会中国馆41米小火车","lon":"121.49461191","lat":"31.184457375","category":"260","category_name":"其他","address":"上海浦东"},{"poiid":"B2094757D66EA4FE419E","title":"snacko","lon":"121.49176432","lat":"31.188153145","category":"500","category_name":"未知分类","address":"上海世博会"},{"poiid":"B2094757D66EA2FB4598","title":"曹杨路(西宫后门)","lon":"121.492415048","lat":"31.1876424731","category":"500","category_name":"未知分类","address":"上海曹杨路520号"},{"poiid":"B2094654DA68A6F9489A","title":"上海市第四建筑有限公司","lon":"121.4878","lat":"31.177","category":"263","category_name":"公司","address":"浦东新区耀华路251"},{"poiid":"B2094757D16FABFD409B","title":"世博越江线","lon":"121.49236297","lat":"31.17672348","category":"500","category_name":"未知分类","address":"上海世博园区"},{"poiid":"B2094757D06BA2FE499D","title":"浦東新區上鋼二村6號","lon":"121.493664","lat":"31.177155","category":"500","category_name":"未知分类","address":"上海浦東新區上鋼二村6號"},{"poiid":"B2094757D66CAAF4409A","title":"鲜咯咯","lon":"121.488348738","lat":"31.1763471527","category":"500","category_name":"未知分类","address":"上海耀华路240号"},{"poiid":"B2094757D06EAAFA429B","title":"世博会美国馆","lon":"121.48887","lat":"31.18675","category":"260","category_name":"其他","address":"上海浦东新区国展路后滩路口(原上海世博会C片区)"},{"poiid":"B2094757D06FA4FA4299","title":"世博会加拿大馆","lon":"121.48887","lat":"31.18675","category":"260","category_name":"其他","address":"上海浦东新区上钢路国展路口(原上海世博会C片区)"},{"poiid":"B2094757D06FA2FB4292","title":"世博会澳大利亚馆","lon":"121.48511","lat":"31.18264","category":"260","category_name":"其他","address":"上海浦东新区长清北路近博成路(原上海世博会B片区)"},{"poiid":"B2094654DA68A6F94898","title":"上海市第四建筑有限公司市政部","lon":"121.48781","lat":"31.177","category":"263","category_name":"公司","address":"耀华路251"},{"poiid":"B2094757D068A3FD499C","title":"世博会新加坡馆","lon":"121.48887","lat":"31.18675","category":"260","category_name":"其他","address":"上海浦东新区博成路近长清北路(原上海世博会B片区)"},{"poiid":"B2094757D06FA4F8429A","title":"世博会新西兰馆","lon":"121.48887","lat":"31.18675","category":"260","category_name":"其他","address":"上海浦东新区世博馆路近博成路(原上海世博会B片区)"},{"poiid":"B2094655D265A1FA459E","title":"上南花城(西门)","lon":"121.48763","lat":"31.17742","category":"656","category_name":"大门","address":""},{"poiid":"B2094757D069A4F9409F","title":"世博会以色列馆","lon":"121.48887","lat":"31.18675","category":"260","category_name":"其他","address":"上海浦东新区云台路近国展路(原上海世博会A片区)"},{"poiid":"B2094757D068A5F4409C","title":"世博会马来西亚馆","lon":"121.48887","lat":"31.18675","category":"260","category_name":"其他","address":"上海浦东新区世博馆路近博成路(原上海世博会B片区)"},{"poiid":"B2094655D268A4FB4093","title":"上钢二村(北一门)","lon":"121.49285","lat":"31.17799","category":"656","category_name":"大门","address":""},{"poiid":"B2094757D56EA5F5429D","title":"世博大道站(浦东园区)4号口(地铁13号线)","lon":"121.48436","lat":"31.181859","category":"251","category_name":"出行住宿","address":"上海世博园区"},{"poiid":"B2094654DA68A1F94999","title":"上钢二村(北门)","lon":"121.49362","lat":"31.17799","category":"656","category_name":"大门","address":"耀华路30弄1-18号"},{"poiid":"B2094655D268A4FB409D","title":"上钢三村(北一门)","lon":"121.48979","lat":"31.17671","category":"656","category_name":"大门","address":"耀华路200弄"},{"poiid":"B2094655D264A6F9439E","title":"耀华215商务广场(南门)","lon":"121.48917","lat":"31.17694","category":"656","category_name":"大门","address":"耀华路215"},{"poiid":"B2094655D264A5FE489B","title":"上钢五村(北门)","lon":"121.48906","lat":"31.17618","category":"656","category_name":"大门","address":"耀华路220弄"}]