[{"poiid":"B2094655D269A4F54693","title":"瑞金医院总院","lon":"121.46733","lat":"31.21161","category":"162","category_name":"医院","address":"卢湾区瑞金二路197号(近瑞金医院)"},{"poiid":"B2094757D06EAAFE459D","title":"思南公馆","lon":"121.46813836607953","lat":"31.214518389031245","category":"172","category_name":"酒吧","address":"卢湾区思南路55号思南公馆63-95号楼(近复兴中路)"},{"poiid":"B2094757D06FA3F9439C","title":"拳击猫啤酒屋 Boxing Cat Brewery(思南路店)","lon":"121.46768783","lat":"31.215615828","category":"94","category_name":"西餐厅","address":"卢湾区复兴中路519号思南公馆26A栋(近思南路)"},{"poiid":"B2094753D76FAAFA449C","title":"上海滩国泰旗舰店","lon":"121.466011","lat":"31.216125","category":"249","category_name":"购物服务","address":"淮海中路868号"},{"poiid":"B209475CD564A7F84292","title":"上海滩新天地店","lon":"121.47463","lat":"31.22164","category":"119","category_name":"商场","address":"\"太仓路181弄新天地北里15号\r\n\""},{"poiid":"B209475CD564A7F8439E","title":"上海滩中信泰富店","lon":"121.45602","lat":"31.22851","category":"119","category_name":"商场","address":"\"南京西路1168号中信泰富广场，店铺号221.\r\n\""},{"poiid":"B2094757D06FA3F5469A","title":"瑞金医院急诊","lon":"121.46610563","lat":"31.212050682","category":"162","category_name":"医院","address":"上海卢湾区瑞金二路197号瑞金医院内"},{"poiid":"B2094757D06FA2FE4799","title":"上海瑞金洲际酒店","lon":"121.46510953447012","lat":"31.213619361647314","category":"217","category_name":"旅馆招待所","address":"卢湾区瑞金二路118号上海瑞金洲际酒店内(近复兴中路)"},{"poiid":"B2094654DA6EA4FB409C","title":"Club G Plus","lon":"121.465873","lat":"31.214857","category":"260","category_name":"其他","address":"卢湾区兴业路123弄新天地南里广场6号楼5楼(近马当路)"},{"poiid":"B2094757D068A3FB499C","title":"瑞金医院门诊","lon":"121.466480847","lat":"31.2107658139","category":"162","category_name":"医院","address":"上海瑞金二路197号瑞金医院1号楼"},{"poiid":"B2094757D06FA2F44698","title":"California Pizza Kitchen(思南公馆店)","lon":"121.46871509","lat":"31.215263676","category":"94","category_name":"西餐厅","address":"卢湾区复兴中路507弄思南公馆3号2楼(近重庆南路)"},{"poiid":"B2094757D06FA0FC4493","title":"Shanghai Slim's","lon":"121.46852999","lat":"31.215135828","category":"94","category_name":"西餐厅","address":"卢湾区复兴中路523弄思南公馆10-12号26D"},{"poiid":"B2094750D26CA2FE4699","title":"安薇塔英国茶体系 复兴中路店","lon":"121.4684398","lat":"31.2151914","category":"260","category_name":"其他","address":"卢湾区复兴中路529号思南公馆27幢(近思南路)"},{"poiid":"B2094757D069AAFD4193","title":"labrioche拉普利奥","lon":"121.46821816","lat":"31.215114399","category":"500","category_name":"未知分类","address":"上海思南路51号思南公馆"},{"poiid":"B2094757D469A5F9479C","title":"鱼藏 思南公馆店 UoKura","lon":"121.468","lat":"31.21458","category":"95","category_name":"日本料理","address":"卢湾区复兴中路507弄思南公馆(近思南路)"},{"poiid":"B2094757D168A4F9489B","title":"瑞金医院住院部","lon":"121.46528073","lat":"31.212016312","category":"162","category_name":"医院","address":"上海瑞金二路197号"},{"poiid":"B2094757D069ABFB4193","title":"瑞金医院6号楼","lon":"121.46789073","lat":"31.211752906","category":"162","category_name":"医院","address":"上海市卢湾区复兴中路"},{"poiid":"B2094757D06FA0FF489C","title":"Alchemist Cocktail Kitchen","lon":"121.46824419","lat":"31.215264793","category":"260","category_name":"其他","address":"卢湾区思南路45号思南公馆32号楼1-2楼(近复兴中路)"},{"poiid":"B2094757DA6EA7FA4898","title":"慧公馆(思南公馆店)","lon":"121.468108199999","lat":"31.2144047999999","category":"72","category_name":"广东菜","address":"卢湾区思南路59号(近复兴中路)"},{"poiid":"B2094757D068A5F54199","title":"park97","lon":"121.465627738","lat":"31.2151659791","category":"172","category_name":"酒吧","address":"上海市卢湾区茂名南路"},{"poiid":"B2094757D06FA3FC4399","title":"周公馆(周恩来故居)","lon":"121.4688193","lat":"31.213421744","category":"260","category_name":"其他","address":"上海卢湾区思南路73号"},{"poiid":"B2094757D068A1FE409B","title":"The Funky Chicken","lon":"121.468556271","lat":"31.2149832923","category":"94","category_name":"西餐厅","address":"卢湾区思南路55号思南公馆26号楼1楼(近复兴中路)"},{"poiid":"B2094757D06FAAFC4098","title":"永和大王(瑞金二路店)","lon":"121.46597","lat":"31.21133","category":"68","category_name":"快餐厅","address":"上海卢湾区瑞金二路120号(近永嘉路)  "},{"poiid":"B2094757D06AA1F84799","title":"瑞金医院科技楼","lon":"121.467339","lat":"31.211623","category":"162","category_name":"医院","address":"上海卢湾区瑞金二路197号瑞金医院内"},{"poiid":"B2094757D06FA4FD4098","title":"瑞金医院爱菊楼","lon":"121.46599873","lat":"31.210434878","category":"162","category_name":"医院","address":"上海市卢湾区瑞金二路197号瑞金医院内"},{"poiid":"B2094757D064A7FB499A","title":"瑞金医院9号楼","lon":"121.468106798","lat":"31.2120855135","category":"162","category_name":"医院","address":"上海瑞金二路197号"},{"poiid":"B2094757D06FABFE429A","title":"Chicha Lounge","lon":"121.46801629","lat":"31.214670398","category":"260","category_name":"其他","address":"卢湾区思南路55号思南公馆33号楼1-2楼(近复兴中路)"},{"poiid":"B2094757D069A6F9409D","title":"瑞金医院急诊补液室","lon":"121.46620633","lat":"31.2116813889","category":"162","category_name":"医院","address":"上海卢湾区瑞金二路197号瑞金医院内"},{"poiid":"B2094655D26EA0F44998","title":"扬州饭店(瑞金店)","lon":"121.46484","lat":"31.21428","category":"74","category_name":"江苏菜","address":"卢湾区瑞金二路108号民防大厦3楼(近复兴中路)"},{"poiid":"B2094757DA64AAFC419D","title":"Annvita Museum (思南公馆)","lon":"121.4684109","lat":"31.21263270999999","category":"247","category_name":"餐饮美食","address":"上海思南公馆"},{"poiid":"B2094750D26AA3FB479D","title":"Annvita tea time","lon":"121.468894","lat":"31.215209","category":"500","category_name":"未知分类","address":"思南公馆59号"},{"poiid":"B2094757D468A4FD419E","title":"X Bistro & Rumbar","lon":"121.4683461","lat":"31.2139728","category":"94","category_name":"西餐厅","address":"卢湾区思南路47号33号楼3楼(近复兴中路)"},{"poiid":"B2094757D469A3F84092","title":"拉普利奥 思南路店","lon":"121.46799","lat":"31.21458","category":"112","category_name":"糕饼店","address":"卢湾区复兴中路523弄思南公馆35号102单元(近复兴中路)"},{"poiid":"B2094654DA6DA5FE429B","title":"天主教上海教区圣伯多禄堂","lon":"121.46995","lat":"31.21339","category":"245","category_name":"教堂","address":"重庆南路270"},{"poiid":"B2094757D568ABFC4799","title":"交大医学院西校区","lon":"121.46739","lat":"31.21463","category":"52","category_name":"高等院校","address":"重庆南路280号"},{"poiid":"B2094757D06AA2F54593","title":"南蛮亭 思南公馆店","lon":"121.468088","lat":"31.214529","category":"95","category_name":"日本料理","address":"卢湾区思南路45号思南公馆32号楼3楼(近复兴中路)"},{"poiid":"B2094757D06BA0FE4198","title":"橘(思南公馆)","lon":"121.468265738","lat":"31.2155129865","category":"95","category_name":"日本料理","address":"卢湾区思南路55号思南公馆26E(近复兴公园)"},{"poiid":"B2094654DA6DA5FD419C","title":"中共代表团驻沪办事处纪念馆(周公馆)","lon":"121.46852","lat":"31.2142","category":"243","category_name":"纪念馆","address":"卢湾区思南路73号(近建国中路)"},{"poiid":"B2094654DA6DA6F5449D","title":"上海第二医科大学瑞金临床医学院","lon":"121.46653","lat":"31.2115","category":"52","category_name":"高等院校","address":"瑞金二路197号瑞金医院"},{"poiid":"B2094757D06FA7F9479D","title":"瑞金医院科教楼","lon":"121.466214895","lat":"31.2104579188","category":"162","category_name":"医院","address":"上海卢湾区瑞金二路197号"},{"poiid":"B2094757D068ABFE4998","title":"Yucca by David Laris","lon":"121.46803783","lat":"31.214799104","category":"94","category_name":"西餐厅","address":"卢湾区思南路55号思南公馆26号楼3楼(近复兴中路)"},{"poiid":"B2094655D26AA7FC479A","title":"瑞金宾馆宴会厅","lon":"121.46607","lat":"31.2139","category":"247","category_name":"餐饮美食","address":"卢湾区瑞金二路118号瑞金宾馆内(近复兴中路)查看地图"},{"poiid":"B2094654DA6EA1FA499D","title":"步高里","lon":"121.468","lat":"31.2135","category":"47","category_name":"住宅区","address":"卢湾区陕西南路287弄(近建国西路)"},{"poiid":"B2094753D46BA4F54599","title":"Las TapaS","lon":"121.467994","lat":"31.214294","category":"500","category_name":"未知分类","address":"上海市 思南路45号32幢"},{"poiid":"B2094655D26AA1FF4599","title":"瑞金医院食堂","lon":"121.46733","lat":"31.21161","category":"68","category_name":"快餐厅","address":"卢湾区瑞金二路197号(永嘉路口)"},{"poiid":"B2094654DA6DA6F5409B","title":"花园坊","lon":"121.46608","lat":"31.213909","category":"47","category_name":"住宅区","address":"卢湾区瑞金二路129弄(近复兴中路)"},{"poiid":"B2094757D16EA5F4499D","title":"瑞金医院消化内科","lon":"121.466053","lat":"31.211797","category":"162","category_name":"医院","address":"上海瑞金医院"},{"poiid":"B2094757D06BA3F8439C","title":"瑞金宾馆百合苑","lon":"121.464818","lat":"31.212616","category":"217","category_name":"旅馆招待所","address":"上海瑞金宾馆内"},{"poiid":"B2094757D069A5F94899","title":"新亚大包(瑞金二路店)","lon":"121.46603","lat":"31.21115","category":"68","category_name":"快餐厅","address":"卢湾区瑞金二路120号甲(瑞金医院对面)"},{"poiid":"B2094757D56EA5F5469B","title":"钱柜","lon":"121.465442","lat":"31.2117370000001","category":"248","category_name":"生活娱乐","address":"卢湾区瑞金二路120号"},{"poiid":"B2094655D26AA7FE439F","title":"瑞视眼科","lon":"121.46733","lat":"31.21161","category":"162","category_name":"医院","address":"卢湾区瑞金二路197号门诊大楼12楼(近永嘉路)"},{"poiid":"B2094757D064A3F4499B","title":"一豚","lon":"121.465683738","lat":"31.2149439744","category":"95","category_name":"日本料理","address":"卢湾区复兴中路581号(近瑞金二路)"},{"poiid":"B2094752D268AAF44892","title":"思南公馆","lon":"121.465452","lat":"31.212734","category":"500","category_name":"未知分类","address":"上海市思南路51号"},{"poiid":"B2094757D069A2FF4598","title":"瑞金医院内科急症","lon":"121.465460584","lat":"31.2126681714","category":"162","category_name":"医院","address":"上海卢湾区瑞金二路197号急诊三楼"},{"poiid":"B2094757D065A1F94493","title":"广慈医院","lon":"121.46654","lat":"31.21106","category":"162","category_name":"医院","address":"卢湾区瑞金二路197号(近瑞金医院)"},{"poiid":"B2094757D06AA5FA479D","title":"阿三烤鸭","lon":"121.46508","lat":"31.21477","category":"68","category_name":"快餐厅","address":"卢湾区复兴中路589号(近瑞金二路)"},{"poiid":"B2094750D36DA4FA429B","title":"上海市交大附属瑞金医院","lon":"121.466013","lat":"31.211691","category":"162","category_name":"医院","address":"卢湾区瑞金二路197号"},{"poiid":"B2094757D16DA2FD4899","title":"梦菲思饼屋","lon":"121.462689054","lat":"31.213735793","category":"67","category_name":"甜品店","address":"卢湾区瑞金二路118号瑞金宾馆1楼(近复兴中路)"},{"poiid":"B2094757DB6FA1F84099","title":"卢湾区","lon":"121.4666075","lat":"31.2131568","category":"627","category_name":"一般地点标志","address":"卢湾区"},{"poiid":"B2094751D26EA1FE4993","title":"和记小菜","lon":"121.4677","lat":"31.21152","category":"247","category_name":"餐饮美食","address":null},{"poiid":"B2094757D168A6F84893","title":"瑞金11号私房菜","lon":"121.46442473","lat":"31.213289939","category":"76","category_name":"上海菜","address":"卢湾区瑞金二路118号瑞金宾馆11号楼(近复兴中路)"},{"poiid":"B2094757D169A6FB479B","title":"思南公馆57号法餐厅","lon":"121.46886973","lat":"31.214605967","category":"500","category_name":"未知分类","address":"上海市卢湾区瑞金二路"},{"poiid":"B2094757D16FA7FB4593","title":"泰康路","lon":"121.46926023","lat":"31.211392148","category":"500","category_name":"未知分类","address":"上海泰康路思南路"},{"poiid":"B2094757D06AA6FC4493","title":"田仓米粉(瑞金店)","lon":"121.46599","lat":"31.21091","category":"68","category_name":"快餐厅","address":"卢湾区瑞金二路132弄31号(近绍兴路)"},{"poiid":"B2094654DA6DA6F54299","title":"新广商苑","lon":"121.46568","lat":"31.21269","category":"46","category_name":"楼宇","address":"瑞金二路181"},{"poiid":"B2094757D46BA4F9449A","title":"祥兴麻辣烫","lon":"121.465238","lat":"31.211814","category":"68","category_name":"快餐厅","address":"卢湾区永嘉路9号(瑞金路)"},{"poiid":"B2094757D068A4F44092","title":"避风塘茶楼(瑞金二路店)","lon":"121.46577","lat":"31.21111","category":"113","category_name":"冷饮店","address":"卢湾区瑞金二路120-4号(近永嘉路)"},{"poiid":"B2094752D164A7FF409B","title":"My Wine Club","lon":"121.466421","lat":"31.211566","category":"247","category_name":"餐饮美食","address":"思南路107号"},{"poiid":"B2094654DA6DA6F44992","title":"松林酒家","lon":"121.46534","lat":"31.21387","category":"68","category_name":"快餐厅","address":"卢湾区瑞金二路121号(近复兴中路)"},{"poiid":"B2094655D26FA4F5469E","title":"复兴中路553弄小区","lon":"121.46691","lat":"31.21464","category":"47","category_name":"住宅区","address":"复兴中路553弄1-97号"},{"poiid":"B2094757D169A4FE499F","title":"橘日本料理","lon":"121.46720773","lat":"31.21381395","category":"500","category_name":"未知分类","address":"上海市卢湾区茂名南路思南公馆26E"},{"poiid":"B209475CD764A1F8489D","title":"哈根达斯 思南公馆店 Haagen-Dazs","lon":"121.46799","lat":"31.21458","category":"67","category_name":"甜品店","address":"思南路55号思南公馆4-6号1楼近复兴中路"},{"poiid":"B2094655D26AA5FC469E","title":"瑞金医院广慈外卖","lon":"121.46733","lat":"31.21161","category":"247","category_name":"餐饮美食","address":"卢湾区瑞金二路197号(永嘉路口)"},{"poiid":"B2094757D16CA5FF459C","title":"瑞金医院6号楼移植病房","lon":"121.46684863","lat":"31.212071913","category":"500","category_name":"未知分类","address":"上海瑞金二路197号"},{"poiid":"B2094757D66DA6F84393","title":"五星足球公园","lon":"121.46920776","lat":"31.213211059","category":"196","category_name":"公园","address":"徐汇区漕溪北路1111号万体馆旁(漕溪北路慈云街)"},{"poiid":"B209475CD265A5F8449A","title":"思南公馆酒店法国餐厅,,Aux,Jardins,Massenet","lon":"121.46861","lat":"31.21465","category":"97","category_name":"法式菜品餐厅","address":"思南路51号思南公馆酒店57号楼(近复兴中路)"},{"poiid":"B2094654DA6EA1FA4098","title":"瑞金商务楼","lon":"121.46534","lat":"31.21311","category":"46","category_name":"楼宇","address":"瑞金二路118乙"},{"poiid":"B2094751D26BA2FE459F","title":"basyo柏诗悠cafe","lon":"121.466078","lat":"31.210776","category":"247","category_name":"餐饮美食","address":"思南路111号"},{"poiid":"B2094757D468A4FE4898","title":"尊邸 Johnnie Walker House","lon":"121.468088","lat":"31.214529","category":"260","category_name":"其他","address":"卢湾区思南路55号思南公馆25号楼(近复兴中路)"},{"poiid":"B2094752D565A5FA4299","title":"南京路步行街","lon":"121.465666","lat":"31.212839","category":"500","category_name":"未知分类","address":null},{"poiid":"B2094757D465A1F4419E","title":"清真顺和饮食店","lon":"121.466583054","lat":"31.215056793","category":"68","category_name":"快餐厅","address":"卢湾区复兴中路565号(近思南路)"},{"poiid":"B2094750D26FA4F4419A","title":"美丽田园SPA（恒隆广场）","lon":"121.467285","lat":"31.211385","category":"248","category_name":"生活娱乐","address":"静安区南京西路1266号恒隆广场办公楼一期3楼"},{"poiid":"B2094753D76AAAFA449F","title":"橘色涮涮屋","lon":"121.468849","lat":"31.21478","category":"247","category_name":"餐饮美食","address":"上海市 复兴中路523弄7-9号思南公馆26C"},{"poiid":"B209475CD36DA7F5429B","title":"橘色涮涮屋","lon":"121.468088","lat":"31.214529","category":"95","category_name":"日本料理","address":"思南路55号思南公馆7-9号近复兴中路"},{"poiid":"B2094654DA6EA1FA4193","title":"中国移动瑞金二路营业厅","lon":"121.46511","lat":"31.2136","category":"151","category_name":"电讯营业厅","address":"瑞金二路118乙"},{"poiid":"B2094757D16BA2F5499E","title":"上海交通大学医学院附属瑞金医院门诊手术室","lon":"121.46667773","lat":"31.210013869","category":"162","category_name":"医院","address":"上海瑞金二路197号新门诊大楼15楼"},{"poiid":"B2094751D46BA7FD4198","title":"瑞金医院体检中心","lon":"121.466278","lat":"31.21048","category":"162","category_name":"医院","address":"瑞金二路197号八楼"},{"poiid":"B209475CD06EA7FA4098","title":"琅庐","lon":"121.46518","lat":"31.2134","category":"97","category_name":"法式菜品餐厅","address":"瑞金二路118号瑞金洲际酒店主楼1楼"},{"poiid":"B2094750DA69A4F44899","title":"丽江","lon":"121.468818","lat":"31.212659","category":"500","category_name":"未知分类","address":"云南"},{"poiid":"B2094750D664A6FA449C","title":"瑞金宾馆百合厅","lon":"121.465","lat":"31.2131","category":"76","category_name":"上海菜","address":"徐汇区瑞金二路118号瑞金宾馆内(近瑞金医院)"},{"poiid":"B2094757D06FA5FF479C","title":"NYSTEAK","lon":"121.468356","lat":"31.214013","category":"172","category_name":"酒吧","address":"上海思南路思南公馆"},{"poiid":"B2094654DA6DA6F44993","title":"好德No.086","lon":"121.46535","lat":"31.21382","category":"117","category_name":"便民商店/便利店","address":"瑞金二路125"},{"poiid":"B2094654DB6BA4FE449C","title":"吉祥馄饨瑞金路店","lon":"121.46601","lat":"31.21045","category":"68","category_name":"快餐厅","address":"卢湾区绍兴路2号(近瑞金二路)"},{"poiid":"B2094751D56FA7F5429F","title":"Morceau cafe","lon":"121.46607","lat":"31.21499","category":"247","category_name":"餐饮美食","address":"卢湾区复兴中路571号(近思南公馆)"},{"poiid":"B2094757D16CA4F9459B","title":"瑞金医院门诊四楼烧伤科","lon":"121.46648273","lat":"31.210418878","category":"162","category_name":"医院","address":"上海市瑞金二路197号"},{"poiid":"B209475CD668A0F8419B","title":"瑞金宾馆","lon":"121.466003","lat":"31.2117","category":"217","category_name":"旅馆招待所","address":"上海市 瑞金南路复兴中路"},{"poiid":"B2094655D26FA5F84393","title":"全家便利店(瑞金店)","lon":"121.46586","lat":"31.21094","category":"117","category_name":"便民商店/便利店","address":"卢湾区瑞金二路388号"},{"poiid":"B2094655D26FAAF8489A","title":"野花园小区","lon":"121.46627","lat":"31.21455","category":"47","category_name":"住宅区","address":"复兴中路565弄1-25号"},{"poiid":"B2094750DB6BABFA4498","title":"THE PUBLIC Food&Drinks","lon":"121.469001","lat":"31.215293","category":"94","category_name":"西餐厅","address":"卢湾区复兴中路507弄1号楼4楼(近重庆南路)"},{"poiid":"B2094654DA6EA1FA409A","title":"瑞金宾馆上海梦菲思食品有限公司","lon":"121.46508","lat":"31.2137","category":"112","category_name":"糕饼店","address":"瑞金二路118号"},{"poiid":"B2094655D268A7FE499F","title":"中国共产党代表团驻沪办事处纪念馆(西门)","lon":"121.46833","lat":"31.21415","category":"680","category_name":"楼宇机构","address":"思南路73"},{"poiid":"B209475CD265A5FC479A","title":"拳击猫手工啤酒屋,思南店,Boxing,Cat,Brewery","lon":"121.46786928177","lat":"31.215003629715","category":"101","category_name":"美式风味","address":"复兴中路519-521号思南公馆26A近思南路"},{"poiid":"B2094750DB6CA1FB459C","title":"新天地广场","lon":"121.468069","lat":"31.214422","category":"500","category_name":"未知分类","address":null},{"poiid":"B2094750D664A6FA4499","title":"瑞金宾馆水仙厅","lon":"121.465","lat":"31.214","category":"217","category_name":"旅馆招待所","address":"卢湾区瑞金二路118号瑞金宾馆内(近复兴中路)"},{"poiid":"B2094655D26EA4FE4292","title":"Art Deco Garden Cafe Bar","lon":"121.46507","lat":"31.21369","category":"172","category_name":"酒吧","address":"卢湾区瑞金二路118号3号楼"},{"poiid":"B2094750DB6AA5FB499E","title":"上海市文化广场","lon":"121.46582","lat":"31.214744","category":"500","category_name":"未知分类","address":null},{"poiid":"B2094757D065ABFD489B","title":"瑞金医院门诊22F外七","lon":"121.46779828","lat":"31.210058187","category":"162","category_name":"医院","address":"上海瑞金二路197号瑞金医院门诊"},{"poiid":"B2094654DA6DA5FD419B","title":"快客(复兴中路)","lon":"121.46655","lat":"31.21497","category":"117","category_name":"便民商店/便利店","address":"复兴中路563"},{"poiid":"B2094654DA6DA6F4499D","title":"坂田发型制作","lon":"121.46533","lat":"31.21394","category":"148","category_name":"美容美发店","address":"瑞金二路119号"},{"poiid":"B2094757D16CAAFB489D","title":"hana's home","lon":"121.46561132","lat":"31.21369855","category":"500","category_name":"未知分类","address":null},{"poiid":"B2094757DA6EABFE419C","title":"葡萄酒吧pluswine","lon":"121.465891999998","lat":"31.2148339999999","category":"247","category_name":"餐饮美食","address":"卢湾区复兴中路579号"},{"poiid":"B2094757D16AA7FC409C","title":"龙门雅集","lon":"121.46828073","lat":"31.215103977","category":"247","category_name":"餐饮美食","address":"卢湾区复兴中路515号思南公馆23号楼(近重庆南路)"},{"poiid":"B2094753D56DA2F44492","title":"K11","lon":"121.469558","lat":"31.211338","category":"500","category_name":"未知分类","address":"上海市 淮海中路300号"},{"poiid":"B2094753D564A0FB459D","title":"Sherlock holmes","lon":"121.469161","lat":"31.214225","category":"500","category_name":"未知分类","address":"上海市 瑞金二路50号"},{"poiid":"B2094757D169A1FF409F","title":"Johnnie Walker House","lon":"121.469014738","lat":"31.2150889775","category":"500","category_name":"未知分类","address":"上海市卢湾区思南公馆"},{"poiid":"B2094655D268A1FF4492","title":"罗森","lon":"121.46478","lat":"31.21388","category":"117","category_name":"便民商店/便利店","address":"思南社区西南"},{"poiid":"B2094757D06BA4F44892","title":"Vue","lon":"121.46687873","lat":"31.214891973","category":"249","category_name":"购物服务","address":"上海32/F Hyatt on the Bund"},{"poiid":"B2094757D06AA0FC4292","title":"ID Hair","lon":"121.46608912","lat":"31.21476192","category":"500","category_name":"未知分类","address":"上海卢湾区南昌路350号"},{"poiid":"B2094757D568A0FD4299","title":"思南路小区","lon":"121.46850125","lat":"31.21491726","category":"47","category_name":"住宅区","address":"复兴中路529"},{"poiid":"B2094655D26CA4F9479C","title":"金谷邨","lon":"121.46588","lat":"31.2109","category":"47","category_name":"住宅区","address":"瑞金二路132弄1-83号"},{"poiid":"B2094757D464A7FB4293","title":"春秋火锅","lon":"121.46578","lat":"31.21485","category":"86","category_name":"火锅店","address":"卢湾区复兴中路581号(近瑞金二路)"},{"poiid":"B2094655D26FAAF84899","title":"思南社区","lon":"121.46537","lat":"31.21448","category":"47","category_name":"住宅区","address":"复兴中路587弄1-7号"},{"poiid":"B2094757D169ABF4449F","title":"quailegg's studio","lon":"121.46530151","lat":"31.213088989","category":"500","category_name":"未知分类","address":"上海瑞金二路129弄花园坊"},{"poiid":"B2094655D268A2FD4692","title":"野花园小区(北门)","lon":"121.46619","lat":"31.2149","category":"47","category_name":"住宅区","address":"复兴中路565弄1-25号"},{"poiid":"B2094757D164A4FB479F","title":"太仓路","lon":"121.466802","lat":"31.215426","category":"500","category_name":"未知分类","address":"上海市卢湾区"},{"poiid":"B2094757D16EAAFE4192","title":"西贡越南河粉世家","lon":"121.465492738","lat":"31.2147689707","category":"247","category_name":"餐饮美食","address":"上海复兴中路瑞金二路"},{"poiid":"B2094757D164A6F8489F","title":"总相宜","lon":"121.465449","lat":"31.213519","category":"249","category_name":"购物服务","address":"上海宝隆隔壁dhl对过"},{"poiid":"B2094655D26CA4F9409F","title":"瑞德公寓","lon":"121.46754","lat":"31.210028","category":"47","category_name":"住宅区","address":"瑞德公寓位于卢湾建德路9号"},{"poiid":"B209475CD764A1F84898","title":"哈根达斯 思南公馆店 Haagen-Dazs","lon":"121.46872","lat":"31.21514","category":"67","category_name":"甜品店","address":"复兴中路523弄思南公馆4-6号1楼(近重庆南路)"},{"poiid":"B2094654DA6DA6F54493","title":"上海血液学研究所","lon":"121.46653","lat":"31.2115","category":"191","category_name":"科研机构","address":"瑞金二路197号瑞金医院"},{"poiid":"B2094752D36BA7FE4392","title":"秘鲁咖啡厅","lon":"121.46665","lat":"31.21498","category":"247","category_name":"餐饮美食","address":"徐汇区复兴中路559号(近思南路)"},{"poiid":"B2094655D26AA7FB4199","title":"金仕健身俱乐部","lon":"121.46472","lat":"31.21399","category":"247","category_name":"餐饮美食","address":"卢湾区复兴中路593号(近瑞金二路)"},{"poiid":"B2094655D26EA2FD4399","title":"Art Deco咖啡厅","lon":"121.46507","lat":"31.21369","category":"260","category_name":"其他","address":"卢湾区瑞金二路118号瑞金宾馆3号楼1楼(近复兴中路)"},{"poiid":"B2094655D26EA0FF409F","title":"安宁邨","lon":"121.469","lat":"31.2147","category":"47","category_name":"住宅区","address":"绍兴路47弄1-3号"},{"poiid":"B2094655D268A3FB409F","title":"建德社区","lon":"121.46813","lat":"31.21019","category":"47","category_name":"住宅区","address":"建德路1"},{"poiid":"B2094654DA6DA6F54492","title":"上海市伤骨科研究所","lon":"121.46653","lat":"31.2115","category":"191","category_name":"科研机构","address":"瑞金二路197号瑞金医院"},{"poiid":"B2094757D66CA3F94998","title":"上海瑞金医院32号楼","lon":"121.466215","lat":"31.210458","category":"162","category_name":"医院","address":"上海市卢湾区瑞金二路197号"},{"poiid":"B2094757D66EABF9419F","title":"boutique-lafleur","lon":"121.46764773","lat":"31.214850972","category":"500","category_name":"未知分类","address":"上海市卢湾区思南公馆28单元"},{"poiid":"B2094654DB6BA5FB459B","title":"阳光四季公寓","lon":"121.465","lat":"31.2112","category":"47","category_name":"住宅区","address":"阳光四季公寓位于徐汇建国西路285-287号"},{"poiid":"B2094752D069A4F5489E","title":"上海高岛屋takashimaya","lon":"121.46646","lat":"31.211131","category":"500","category_name":"未知分类","address":null},{"poiid":"B2094757D16BA7FE469F","title":"皇家摄影(复兴路总店)","lon":"121.46812","lat":"31.21492","category":"500","category_name":"未知分类","address":"卢湾区复兴中路532号(近思南路)查看地图"},{"poiid":"B2094654DA6DA5FC4992","title":"良友金伴No.491","lon":"121.46511","lat":"31.21471","category":"117","category_name":"便民商店/便利店","address":"复兴中路591"},{"poiid":"B2094757DA6FA3FA4993","title":"瑞金医院工会俱乐部","lon":"121.465839999998","lat":"31.2116879999998","category":"248","category_name":"生活娱乐","address":"卢湾区瑞金二路197号"},{"poiid":"B2094757D168A3FC4298","title":"交大醫學院老紅樓","lon":"121.470034","lat":"31.212592","category":"500","category_name":"未知分类","address":"上海盧灣區重慶南路280號"},{"poiid":"B2094757D16FA4FE4698","title":"Cafe Amelie","lon":"121.465630838","lat":"31.2147480702","category":"500","category_name":"未知分类","address":"上海卢湾区复兴中路559号(近瑞金二路)"},{"poiid":"B2094655D268A1FF449D","title":"金谷邨(东一门)","lon":"121.46596","lat":"31.21068","category":"47","category_name":"住宅区","address":""},{"poiid":"B2094655D26FAAF84898","title":"思南社区(北门)","lon":"121.46527","lat":"31.21474","category":"47","category_name":"住宅区","address":"复兴中路587弄1-7号"},{"poiid":"B2094753D56DA2F9499C","title":"哈根达斯","lon":"121.468589","lat":"31.215156","category":"263","category_name":"公司","address":"上海市 复兴中路523弄思南公馆4-6号1楼(近重庆南路)"},{"poiid":"B2094757D169A7F9499B","title":"大宅院老北京涮羊肉(复兴店)","lon":"121.46476","lat":"31.21449","category":"247","category_name":"餐饮美食","address":"上海卢湾区复兴中路597号(近茂名南路)  "},{"poiid":"B2094655D26EA4FF409A","title":"巴山蜀国水煮鱼","lon":"121.4677","lat":"31.21564","category":"257","category_name":"中餐厅","address":"卢湾区思南路41号"},{"poiid":"B2094654DA6EA1FA4299","title":"中国工商银行瑞金二路支行24小时自助银行","lon":"121.46518","lat":"31.21331","category":"152","category_name":"ATM","address":"瑞金二路118丙"},{"poiid":"B2094757D16DA0FD489A","title":"罗森便利(复兴中路店)","lon":"121.4652693","lat":"31.2148778","category":"117","category_name":"便民商店/便利店","address":"上海复兴中路1319号"},{"poiid":"B2094757D069AAFC4498","title":"Subway淮海路百盛店","lon":"121.4653632","lat":"31.215134489","category":"500","category_name":"未知分类","address":"上海淮海路百盛负一楼"},{"poiid":"B2094757D168A6F94699","title":"96路复兴中路瑞金二路站","lon":"121.465832","lat":"31.215042","category":"500","category_name":"未知分类","address":"上海复兴中路瑞金二路"},{"poiid":"B2094757D064A3FE4992","title":"墨西哥餐厅","lon":"121.465162","lat":"31.21148","category":"500","category_name":"未知分类","address":"上海永嘉路13号"},{"poiid":"B2094654DA6DABF94093","title":"皇家摄影","lon":"121.46633","lat":"31.21514","category":"248","category_name":"生活娱乐","address":"复兴中路532"},{"poiid":"B2094757D569A1FF4593","title":"春秋TORO&KOBE BEEF专门店","lon":"121.4673142","lat":"31.21503306","category":"249","category_name":"购物服务","address":"复兴中路549号"},{"poiid":"B2094757D16CA5FB499C","title":"上海市安全生产监督管理局","lon":"121.46467827","lat":"31.214404529","category":"500","category_name":"未知分类","address":"上海复兴中路593号民防大厦18、19楼"},{"poiid":"B2094757D66FA0FC4799","title":"LIRIKOS POP-UP Store","lon":"121.46824573","lat":"31.215002975","category":"500","category_name":"未知分类","address":"上海思南公馆28号"},{"poiid":"B2094750D76EA2F4479F","title":"@街角","lon":"121.466","lat":"31.2104","category":"260","category_name":"其他","address":"卢湾区绍兴路4号(近瑞金二路)"},{"poiid":"B2094757D169AAFB469C","title":"复兴中路第二幼儿园","lon":"121.465540738","lat":"31.2148449723","category":"253","category_name":"校园生活","address":"上海复兴中路585号"},{"poiid":"B2094757D66DA2FD4293","title":"挖空心思","lon":"121.46896939","lat":"31.214769784","category":"500","category_name":"未知分类","address":"徐汇区长乐路649号(近襄阳路)"},{"poiid":"B2094757D16BA5F4469E","title":"PHO88","lon":"121.465479738","lat":"31.2148909733","category":"500","category_name":"未知分类","address":"上海复兴中路581号"},{"poiid":"B2094654DA6DABF94598","title":"世纪杂志社","lon":"121.46771","lat":"31.21565","category":"62","category_name":"杂志社","address":"思南路41"},{"poiid":"B2094757D06AABFA409F","title":"中国移动营业厅(瑞金二路店)","lon":"121.464808138","lat":"31.2146063672","category":"150","category_name":"银行","address":"上海瑞金二路118号"},{"poiid":"B2094757D16CA2FA419D","title":"甜蜜蜜成山店","lon":"121.4656536","lat":"31.215224513","category":"500","category_name":"未知分类","address":"上海巴黎春天B1"},{"poiid":"B2094757D16EA3F54198","title":"Dandy House","lon":"121.469278","lat":"31.214987","category":"500","category_name":"未知分类","address":"上海重庆南路258号思南公馆523-15商业街门牌22号3楼"},{"poiid":"B2094654DA6EA1F9499C","title":"中信证券(复兴中路)","lon":"121.46478","lat":"31.21389","category":"219","category_name":"其他","address":"复兴中路593号"},{"poiid":"B2094654DA6DABF9459B","title":"上海市文史研究馆","lon":"121.46772","lat":"31.21565","category":"191","category_name":"科研机构","address":"卢湾区思南路39号-41号(思南路香山路)"},{"poiid":"B2094654DA6DABF94198","title":"晴朗","lon":"121.46726","lat":"31.21561","category":"260","category_name":"其他","address":"卢湾区思南路48号(近复兴中路)"},{"poiid":"B2094750DA65A3FF4799","title":"duo酒吧","lon":"121.467369","lat":"31.215574","category":"260","category_name":"其他","address":"卢湾区思南路48号(近复兴中路)"},{"poiid":"B2094655D26CA1FD469C","title":"香山丽舍(南门)","lon":"121.46589","lat":"31.2152","category":"656","category_name":"大门","address":""}]