[{"poiid":"B2094757D16CA4F5409E","title":"八佰伴","lon":"121.51481173","lat":"31.229458283","category":"119","category_name":"商场","address":"上海浦东新区东昌路"},{"poiid":"B2094655D26AABF8479C","title":"钱柜(浦东旗舰店)","lon":"121.51532","lat":"31.22747","category":"170","category_name":"KTV","address":"浦东新区浦东南路1118号上海湾B1楼(张杨路口)"},{"poiid":"B2094757D06FA7F84593","title":"黔香阁(浦东店)","lon":"121.51129","lat":"31.22987","category":"83","category_name":"云贵菜","address":"浦东新区浦城路171号(近商城路)"},{"poiid":"B209475CD564A7F84392","title":"上海滩浦东香格里拉店","lon":"121.50058","lat":"31.23634","category":"119","category_name":"商场","address":"浦东富成路33号香格里拉酒店内大堂层"},{"poiid":"B2094654DA6EA4F9439D","title":"新源广场","lon":"121.51","lat":"31.2273","category":"46","category_name":"楼宇","address":"中山南路268号"},{"poiid":"B2094757D66EA0FC429D","title":"上海歌城","lon":"121.51483273","lat":"31.229608286","category":"170","category_name":"KTV","address":"上海市浦东新区浦东南路"},{"poiid":"B2094757D069ABF54993","title":"好乐迪 八百伴店","lon":"121.51498573","lat":"31.226918229","category":"170","category_name":"KTV","address":"上海市浦东新区商城路 八百伴10楼"},{"poiid":"B2094757D168A3F4489A","title":"johnny moo(上海湾店)","lon":"121.51497373","lat":"31.22697823","category":"94","category_name":"西餐厅","address":"浦东新区张杨路333号上海湾休闲广场1楼117室(近浦东南路)"},{"poiid":"B2094757D06FA1FD4698","title":"星巴克(浦城路店)","lon":"121.512253","lat":"31.227622","category":"260","category_name":"其他","address":"浦东新区浦城路367号(启新路口)"},{"poiid":"B2094757D06AA6FB479E","title":"子羽港式粤菜餐厅","lon":"121.514010738","lat":"31.2268292276","category":"72","category_name":"广东菜","address":"浦东新区浦东南路1138号上海湾广场133号铺(近张扬路)"},{"poiid":"B2094757D068A7F5469D","title":"鄂尔多斯国际大厦","lon":"121.515303","lat":"31.227643","category":"46","category_name":"楼宇","address":"上海市平凉路1398号"},{"poiid":"B2094757D068A5F8439A","title":"商城路","lon":"121.51235199","lat":"31.2294406891","category":"260","category_name":"其他","address":"上海商城路"},{"poiid":"B2094757D06FA5FA459B","title":"上海新东方学校(陆家嘴校区)","lon":"121.51188","lat":"31.22923","category":"253","category_name":"校园生活","address":"浦东新区浦城路190号(商城路路口)"},{"poiid":"B2094757D06FA6F8449F","title":"上海湾生活时尚中心","lon":"121.51491","lat":"31.22667","category":"119","category_name":"商场","address":"浦东新区浦东南路1138号上海湾广场内(近张杨路)"},{"poiid":"B2094757D06FA4F8459D","title":"一兆韦德(菊园店)","lon":"121.51270768","lat":"31.226597462","category":"148","category_name":"美容美发店","address":"浦东新区浦城路367号(近东昌路地铁站)"},{"poiid":"B2094757D169ABFD429A","title":"i.t ifc国金","lon":"121.513942538","lat":"31.2300293958","category":"500","category_name":"未知分类","address":"上海市浦东新区陆家嘴"},{"poiid":"B2094757D06AA3FE4492","title":"洋泾·菊园实验学校","lon":"121.512277683","lat":"31.2272614634","category":"55","category_name":"中学","address":"上海浦东新区浦城路333号"},{"poiid":"B2094654DA69A6FE4792","title":"菊园","lon":"121.51377","lat":"31.22844","category":"47","category_name":"住宅区","address":"菊园(汇豪天下)位于浦东浦民路233弄"},{"poiid":"B2094757D068A2FD449A","title":"卡玛生活瑜伽会馆","lon":"121.51181","lat":"31.22961","category":"148","category_name":"美容美发店","address":"浦东新区浦城路172号3-4楼(近商城路)"},{"poiid":"B2094751DB6CA4FD4493","title":"浦东机场T2航站楼","lon":"121.5129","lat":"31.2273","category":"500","category_name":"未知分类","address":null},{"poiid":"B2094757D568A5FE499B","title":"伊藤家上海湾店","lon":"121.5138769","lat":"31.22671306","category":"95","category_name":"日本料理","address":"浦东新区浦城路398号上海湾广场(近张杨路)"},{"poiid":"B2094751D56FA7FE449C","title":"Ashley Steak","lon":"121.512278","lat":"31.230046","category":"247","category_name":"餐饮美食","address":"上海八佰伴9F"},{"poiid":"B2094654DA69A6FF429B","title":"中融·国际商城(浦东南路)","lon":"121.5152","lat":"31.22828","category":"119","category_name":"商场","address":"浦东新区浦东南路1068号中融国际商城内(近张杨路)"},{"poiid":"B2094757D069A3F4439F","title":"凯德·江临天下(Summit Panorama)","lon":"121.51181768","lat":"31.2262234648","category":"47","category_name":"住宅区","address":"上海市浦东新区浦明路233弄"},{"poiid":"B2094654DB69A5FF429F","title":"莫泰168连锁旅店(商城路店)","lon":"121.51207","lat":"31.22941","category":"216","category_name":"经济型连锁酒店","address":"上海市浦东新区商城路365号（近浦东南路）"},{"poiid":"B2094757D065AAFB469C","title":"新世纪影城七号厅","lon":"121.51478473","lat":"31.227090233","category":"178","category_name":"电影院","address":"上海市浦东新区张杨路501号第一八佰伴10楼"},{"poiid":"B2094757D168A7F54592","title":"大唐盲人按摩中心","lon":"121.51137","lat":"31.22904","category":"149","category_name":"洗浴推拿场所","address":"上海浦东新区商城路339号(近浦城路)  "},{"poiid":"B2094655D26DA1F4449F","title":"楚炫堂生态炖鱼馆(上海湾店)","lon":"121.51387","lat":"31.22671","category":"86","category_name":"火锅店","address":"浦东新区浦东南路1138号上海湾休闲广场2楼(八佰伴对面)"},{"poiid":"B2094757D06BA6FA469D","title":"巴黎贝甜(商城路店)","lon":"121.511","lat":"31.22885","category":"67","category_name":"甜品店","address":"浦东新区商城路297号申金大厦1楼商铺C区(近浦城路)"},{"poiid":"B2094753D76AA2FE499E","title":"太平洋咖啡(浦城店)","lon":"121.512253","lat":"31.227622","category":"65","category_name":"咖啡厅","address":"上海市浦东新区浦城路367号1F-A号铺(近启新路)"},{"poiid":"B2094654DB6AA3F94792","title":"STARBUCKSCOFFEE浦城路店","lon":"121.51245","lat":"31.22729","category":"256","category_name":"外国餐厅","address":"浦东新区浦城路367号"},{"poiid":"B2094654DB6AA3FE409C","title":"卡西巴 浦城店 La Casbah","lon":"121.51176645063","lat":"31.230116732362","category":"247","category_name":"餐饮美食","address":"浦东新区浦城路172号(近商城路)"},{"poiid":"B2094654DA69A6FE4693","title":"任任家宴","lon":"121.51214323423","lat":"31.229210096035","category":"76","category_name":"上海菜","address":"浦东新区商城路369号(浦城路商城路)"},{"poiid":"B2094757D069A5F4459F","title":"东捷集团","lon":"121.511516","lat":"31.22885","category":"46","category_name":"楼宇","address":"上海商城路358号"},{"poiid":"B2094757DB6AA0FD4893","title":"钱柜（上海湾店）","lon":"121.514","lat":"31.2267","category":"172","category_name":"酒吧","address":"浦东新区浦东南路1138号上海湾广场内(近张杨路)"},{"poiid":"B2094757D068A1F84898","title":"凯德·菊园","lon":"121.51352913","lat":"31.227838618","category":"47","category_name":"住宅区","address":"上海浦东新区浦城路366弄"},{"poiid":"B2094750DA6BA4F84399","title":"太平洋咖啡","lon":"121.51225","lat":"31.22762","category":"260","category_name":"其他","address":"浦东新区浦城路367号1F-A号铺(近启新路)"},{"poiid":"B2094757D66CA1FE4799","title":"意方砂锅粥","lon":"121.51480273","lat":"31.227619244","category":"247","category_name":"餐饮美食","address":"上海浦东张扬路400号"},{"poiid":"B2094654DB6BAAF5429E","title":"陆家嘴图书馆","lon":"121.5111","lat":"31.23073","category":"181","category_name":"图书馆","address":"浦东新区浦城路150号(浦城路商城路)"},{"poiid":"B2094757D064AAF9469A","title":"浦城路","lon":"121.512456","lat":"31.227294","category":"500","category_name":"未知分类","address":"上海浦城路"},{"poiid":"B2094757D065AAFC4793","title":"陆家嘴派出所","lon":"121.51159668","lat":"31.2293395996","category":"609","category_name":"警察局","address":"上海商城路357号"},{"poiid":"B2094757D16EABFF469B","title":"NYSP-New York Pizza","lon":"121.514771238","lat":"31.2271942354","category":"500","category_name":"未知分类","address":"浦东南路上海湾"},{"poiid":"B2094757D16CAAFA4699","title":"好粥到","lon":"121.513969054","lat":"31.229688793","category":"68","category_name":"快餐厅","address":"浦东新区商城路423号(近浦东南路)"},{"poiid":"B2094757D46DABFB4199","title":"唐恩都乐 浦东南路店 Dunkin Donuts","lon":"121.515092","lat":"31.228073","category":"67","category_name":"甜品店","address":"浦东新区浦东南路1118号鄂尔多斯大厦1楼(近张杨路)"},{"poiid":"B2094757D069A1F54199","title":"浦东新区陆家嘴图书馆(第二分部)","lon":"121.51166","lat":"31.22988","category":"181","category_name":"图书馆","address":"上海浦东新区浦城路150号"},{"poiid":"B2094752DA6AA4FE4993","title":"100哆啦A梦秘密道具博览","lon":"121.513411229161","lat":"31.22739659386533","category":"500","category_name":"未知分类","address":"上海市 上海黄浦区马当路245号新天地时尚购物中心"},{"poiid":"B2094757DA65A7FA4699","title":"The Westin bind center Shanghai","lon":"121.5106414414889","lat":"31.22919482826353","category":"247","category_name":"餐饮美食","address":"上海市河南中路88号"},{"poiid":"B2094757D16BA6F5469D","title":"HOFBRAUHAUS  酒吧","lon":"121.51478873","lat":"31.227116233","category":"172","category_name":"酒吧","address":"上海湾"},{"poiid":"B2094757D168A2F54898","title":"冰厂田幼儿园小班部","lon":"121.512351","lat":"31.22944","category":"253","category_name":"校园生活","address":"上海商城路"},{"poiid":"B209475CD764A2FB459C","title":"星巴克 上海湾店","lon":"121.51367","lat":"31.22661","category":"65","category_name":"咖啡厅","address":"浦东南路1138号上海湾176-182号商铺(近张杨路)"},{"poiid":"B2094655D26DA1F54892","title":"喜扇","lon":"121.516066054","lat":"31.227388793","category":"95","category_name":"日本料理","address":"浦东南路1138号上海湾休闲广场215商铺近张杨路"},{"poiid":"B2094654DA69A1F5449D","title":"和中堂足道(商城路)","lon":"121.51052","lat":"31.2292","category":"149","category_name":"洗浴推拿场所","address":"浦东新区商城路333号(近浦城路)"},{"poiid":"B2094655D26DA5FC4193","title":"上海新东方学校(浦城路)","lon":"121.51211","lat":"31.22949","category":"190","category_name":"培训机构","address":"浦城路190临"},{"poiid":"B2094654DA69A6FE4793","title":"菊园(西门)","lon":"121.51274","lat":"31.228","category":"656","category_name":"大门","address":"浦城路366弄"},{"poiid":"B2094752DA6FA7FB459C","title":"朋朋烘焙屋","lon":"121.510622","lat":"31.228863","category":"247","category_name":"餐饮美食","address":"上海市 浦东南路1038号"},{"poiid":"B2094655D26EAAF5429D","title":"卡玛瑜伽馆总店","lon":"121.51174","lat":"31.22977","category":"65","category_name":"咖啡厅","address":"浦东新区浦城路172号3-4楼"},{"poiid":"B2094757D06FA6FE469D","title":"锦玉庭(上海湾店)","lon":"121.51521396","lat":"31.227426346","category":"71","category_name":"四川菜","address":"浦东新区浦东南路1138号上海湾3楼(近张杨路)"},{"poiid":"B2094757D66DA4FC409B","title":"克丽缇娜(菊园店)","lon":"121.51308","lat":"31.22726","category":"148","category_name":"美容美发店","address":"浦东新区浦城路366弄菊园会所(启新路口)"},{"poiid":"B2094757DB6FA4F44192","title":"明亚思造型沙龙","lon":"121.51517026458737","lat":"31.227109525433445","category":"148","category_name":"美容美发店","address":"浦东新区张杨路333号上海湾广场123号铺(近浦东南路)"},{"poiid":"B2094654DA69A6FE479B","title":"上海蓝博口腔门诊部","lon":"121.51175","lat":"31.22973","category":"162","category_name":"医院","address":"浦城路172-2识别2层"},{"poiid":"B2094757D66CA7F9419F","title":"潍坊西路","lon":"121.51281298","lat":"31.227022031","category":"500","category_name":"未知分类","address":"上海潍坊西路1弄"},{"poiid":"B2094655D26AA0FB4793","title":"新世界教育中融分校","lon":"121.5152","lat":"31.22828","category":"247","category_name":"餐饮美食","address":"浦东新区浦东南路1068号中融国际商城1105(近张杨路)"},{"poiid":"B2094757DB68A1FC4199","title":"新梅广场","lon":"121.513205","lat":"31.229742","category":"500","category_name":"未知分类","address":"浦东南路"},{"poiid":"B2094655D265A7FA469B","title":"东安大楼","lon":"121.5114","lat":"31.23031","category":"46","category_name":"楼宇","address":"东安大楼位于浦东上海浦东东园四村439号"},{"poiid":"B2094654DA69A6FE469A","title":"东园四村(南门)","lon":"121.51348","lat":"31.22971","category":"47","category_name":"住宅区","address":"东园四村401-439号"},{"poiid":"B2094757D065AAFA4098","title":"中国农业银行(滨江支行)","lon":"121.5113","lat":"31.22902","category":"150","category_name":"银行","address":"上海浦东新区商城路337号  "},{"poiid":"B2094655D26FA7F84299","title":"中融集团","lon":"121.5152","lat":"31.22828","category":"46","category_name":"楼宇","address":"浦东南路1068-1078、1088"},{"poiid":"B2094654DA69A6FE4593","title":"东园四村","lon":"121.51295","lat":"31.230103","category":"47","category_name":"住宅区","address":"东园四村401-439号"},{"poiid":"B2094752DB6CABFD459E","title":"上海浦东锦江汤臣洲际大酒店","lon":"121.514239","lat":"31.227898","category":"500","category_name":"未知分类","address":"上海市 张杨路777号"},{"poiid":"B2094655D264A5FC4398","title":"gohnnyMoo","lon":"121.51483","lat":"31.227","category":"94","category_name":"西餐厅","address":"张杨路333号"},{"poiid":"B2094654DA69A1F54093","title":"陆家嘴治安派出所","lon":"121.51145","lat":"31.22932","category":"609","category_name":"警察局","address":"商城路357号"},{"poiid":"B2094655D26FA7F94599","title":"汇豪天下(边门)","lon":"121.51074","lat":"31.22731","category":"47","category_name":"住宅区","address":"商城路108弄"},{"poiid":"B2094655D26DA7F94398","title":"洋泾菊园实验学校(南门)","lon":"121.51155","lat":"31.22767","category":"48","category_name":"楼宇大门","address":"启新路1号"},{"poiid":"B2094654DA69A1F5419E","title":"菊园幼儿园","lon":"121.51285","lat":"31.22635","category":"57","category_name":"幼儿园","address":"浦东新区浦城路379号‎(浦城路张杨路)"},{"poiid":"B2094655D26EA6FE409D","title":"金鼎公寓(启新路)","lon":"121.51459","lat":"31.22872","category":"47","category_name":"住宅区","address":"浦东南路1038弄"},{"poiid":"B2094752D46BA2F9439D","title":"上海国金中心","lon":"121.510575","lat":"31.227658","category":"500","category_name":"未知分类","address":null},{"poiid":"B2094654DA69A1F5459D","title":"龙设计美容美发","lon":"121.511","lat":"31.22932","category":"148","category_name":"美容美发店","address":"浦东新区商城路341号(近浦城路)"},{"poiid":"B2094654DB69A7F5449F","title":"东园小区","lon":"121.51341","lat":"31.22987","category":"47","category_name":"住宅区","address":"浦东新区梅园新村"},{"poiid":"B2094757DB6AA0FE4099","title":"名甲物语（上海湾店）","lon":"121.514","lat":"31.2267","category":"148","category_name":"美容美发店","address":"浦东新区浦东南路1138号上海湾广场260室(近张杨路)"},{"poiid":"B2094654DA69A1F5449C","title":"快客No.6830","lon":"121.51048","lat":"31.22918","category":"117","category_name":"便民商店/便利店","address":"商城路301号-5"},{"poiid":"B2094753DA65A1FC4498","title":"上海金茂大厦","lon":"121.510597","lat":"31.227638","category":"500","category_name":"未知分类","address":"上海市 浦东陆家嘴"},{"poiid":"B2094654DA69A6FE479C","title":"家得利超市No.106","lon":"121.51162","lat":"31.22995","category":"118","category_name":"超级市场","address":"浦城路160-1识别"},{"poiid":"B2094752D56DA2FE429B","title":"平安银行浦南支行","lon":"121.512985","lat":"31.226662","category":"150","category_name":"银行","address":null},{"poiid":"B2094654DA69A6FF449A","title":"文华学院环球友好小班外语(浦东南路)","lon":"121.515","lat":"31.229","category":"52","category_name":"高等院校","address":"浦东新区浦东南路1036号隆宇大厦8楼(近商城路)"},{"poiid":"B2094655D264A6FE449D","title":"伊美娜SPA","lon":"121.51384","lat":"31.22663","category":"148","category_name":"美容美发店","address":"浦城路398号上海湾3层"},{"poiid":"B2094757D56DA4F4449B","title":"新东方八佰伴校区","lon":"121.514010738","lat":"31.2268292276","category":"252","category_name":"楼宇机构","address":"南泉北路"},{"poiid":"B2094757D165A0FF499C","title":"la piazzetta","lon":"121.51441273","lat":"31.228034253","category":"500","category_name":"未知分类","address":"上海市浦東南路1138號"},{"poiid":"B2094655D26DA1FB419E","title":"东泰大楼南楼","lon":"121.51403","lat":"31.23037","category":"46","category_name":"楼宇","address":"东园三村331号"},{"poiid":"B2094757D568A6F8499F","title":"卡玛咖啡","lon":"121.5115211","lat":"31.23014194","category":"65","category_name":"咖啡厅","address":"浦城路160号"},{"poiid":"B2094757DB6FA4FF419F","title":"黄记煌","lon":"121.514514","lat":"31.230255","category":"500","category_name":"未知分类","address":"浦东张杨路"},{"poiid":"B2094655D26DA1FB459B","title":"金鼎公寓(南门)","lon":"121.5148","lat":"31.2287","category":"47","category_name":"住宅区","address":"浦东南路1038弄"},{"poiid":"B2094654DA69A1F54493","title":"丝爱(商城路)","lon":"121.51065","lat":"31.22923","category":"148","category_name":"美容美发店","address":"商城路329"},{"poiid":"B2094757D164A5FC489E","title":"好果多水果超市(商城路店)","lon":"121.513109","lat":"31.229625","category":"249","category_name":"购物服务","address":"浦东新区商城路377号1楼(近浦城路)"},{"poiid":"B2094757D66DA4F8489D","title":"印度飞饼","lon":"121.514335238","lat":"31.2283911609","category":"500","category_name":"未知分类","address":"上海长宁区娄山关路812号"},{"poiid":"B2094752D06EA2FE439A","title":"Ashely","lon":"121.512037","lat":"31.230089","category":"247","category_name":"餐饮美食","address":"张扬路501号八佰伴9楼"},{"poiid":"B2094750D26FA5F4449B","title":"梅赛德斯奔驰文化中心","lon":"121.51461","lat":"31.227005","category":"248","category_name":"生活娱乐","address":"上南路"},{"poiid":"B2094750D36BA5FC489C","title":"CityDance-上海浩斯文化","lon":"121.51501","lat":"31.22902","category":"250","category_name":"公园户外","address":"浦东南路1036号隆宇大厦1103-1104单元"},{"poiid":"B2094757D165A5FE4893","title":"Cold Stone","lon":"121.5132529","lat":"31.226515116","category":"500","category_name":"未知分类","address":"浦東上海灣1F"},{"poiid":"B2094757D16DA7FC499C","title":"有趣吧桌有","lon":"121.511190358","lat":"31.2290975059","category":"175","category_name":"棋牌室","address":"上海市浦东新区商城路"},{"poiid":"B2094654DB64A3FC409F","title":"康轩按摩","lon":"121.51499","lat":"31.229","category":"149","category_name":"洗浴推拿场所","address":"浦东南路1036号隆宇大厦8层"},{"poiid":"B2094655D26BA1F5499C","title":"飞利浦永乐上海浦东店","lon":"121.51526","lat":"31.22826","category":"138","category_name":"家电电子卖场","address":"浦东南路1078号"},{"poiid":"B2094757D66CABFE449B","title":"花样年华","lon":"121.51079573","lat":"31.228964273","category":"500","category_name":"未知分类","address":"上海市浦东新区商城路"},{"poiid":"B2094655D26DA1FA469F","title":"东园四村东安南、北楼","lon":"121.51164","lat":"31.23026","category":"47","category_name":"住宅区","address":"东园四村东安南、北楼436、439号"},{"poiid":"B2094757D164ABFE4592","title":"子羽","lon":"121.513953738","lat":"31.2266722243","category":"249","category_name":"购物服务","address":"上海市浦东新区商城路"},{"poiid":"B2094757D165AAFF4399","title":"荣大快印","lon":"121.512744488","lat":"31.2263906683","category":"263","category_name":"公司","address":"上海张杨路(浦明路)188号汤臣中心C栋306室"},{"poiid":"B2094655D264A4F54898","title":"多普达永乐中融店","lon":"121.51526","lat":"31.22826","category":"138","category_name":"家电电子卖场","address":"浦东南路1078号"},{"poiid":"B2094654DA69A6FE469B","title":"洋泾-菊园实验学校东园分部","lon":"121.51364","lat":"31.23025","category":"56","category_name":"小学","address":"东园三村312号"},{"poiid":"B2094752D265A6FE4992","title":"中山公园","lon":"121.5144862","lat":"31.2299448","category":"249","category_name":"购物服务","address":null},{"poiid":"B2094757D16BAAFA4592","title":"上海帕希贸易有限公司","lon":"121.5144668","lat":"31.228480973","category":"263","category_name":"公司","address":"上海市浦东南路1038弄1号201"},{"poiid":"B2094655D26EA3F5469C","title":"东园四村东安南、北楼(西门)","lon":"121.51137","lat":"31.23026","category":"47","category_name":"住宅区","address":"东园四村东安南、北楼436、439号"},{"poiid":"B2094654DB6BAAF5479E","title":"Disney","lon":"121.5152","lat":"31.22828","category":"141","category_name":"服装鞋帽皮具店","address":"浦东南路1068-1078、1088号中融国际商城"},{"poiid":"B2094757D16FABFD4799","title":"宏福轩","lon":"121.515152338","lat":"31.2272764371","category":"247","category_name":"餐饮美食","address":"上海水电路1015号(汶水东路口)"},{"poiid":"B2094654DA69A6FF4192","title":"组合发型顾问(浦东南路)","lon":"121.5152","lat":"31.22828","category":"148","category_name":"美容美发店","address":"浦东南路1068-1078、1088号中融国际商城2层"},{"poiid":"B2094757D164A0FB4998","title":"EMAX","lon":"121.51078968","lat":"31.227154734","category":"500","category_name":"未知分类","address":"上海湾"},{"poiid":"B2094757D16FA6F4479F","title":"永琪美容美发(商城路店)","lon":"121.51439","lat":"31.22958","category":"148","category_name":"美容美发店","address":"上海浦东新区张杨路(近浦东南路)  "},{"poiid":"B2094757D66EA6FF409E","title":"雪之堂陆家嘴店","lon":"121.51469724","lat":"31.228638656","category":"500","category_name":"未知分类","address":"上海向城路"},{"poiid":"B2094753D568A5F5479E","title":"ICI真人密室","lon":"121.515012","lat":"31.229023","category":"248","category_name":"生活娱乐","address":"浦东南路1036号隆宇大厦1501室"},{"poiid":"B2094655D26DA0FC489D","title":"鄂尔多斯国际大厦(东门)","lon":"121.51547","lat":"31.22785","category":"48","category_name":"楼宇大门","address":"浦东南路1118号"},{"poiid":"B2094655D26DA1FF499B","title":"东泰大楼南楼(南门)","lon":"121.51457","lat":"31.22998","category":"49","category_name":"无中心点楼宇大门","address":"东园三村331号"},{"poiid":"B2094751D26AABFF499C","title":"西贝莜面村","lon":"121.51432343","lat":"31.23053766","category":"247","category_name":"餐饮美食","address":null},{"poiid":"B2094655D264A6FD4992","title":"东安大楼北楼","lon":"121.51148","lat":"31.23047","category":"47","category_name":"住宅区","address":"东园四村439号"},{"poiid":"B2094654DA69A6FE4699","title":"菊园(北门)","lon":"121.51325","lat":"31.22924","category":"656","category_name":"大门","address":"商城路378识别"},{"poiid":"B2094757D16AA0F4439A","title":"名车一族","lon":"121.514272","lat":"31.229626","category":"500","category_name":"未知分类","address":"浦东新区商城路439号(浦东南路商城路)"},{"poiid":"B2094654DB6BAAF5479C","title":"新世界日语","lon":"121.51521","lat":"31.22828","category":"190","category_name":"培训机构","address":"浦东南路1068-1078、1088号中融国际商城11层"},{"poiid":"B2094757D568ABFE439B","title":"Movie Star(上海湾店)","lon":"121.5138769","lat":"31.22671306","category":"249","category_name":"购物服务","address":"张杨路333号上海湾2层228"},{"poiid":"B2094757D568A6FC419D","title":"靠边上海湾店","lon":"121.5138769","lat":"31.22671306","category":"249","category_name":"购物服务","address":"张杨路333号上海湾180号店铺"},{"poiid":"B2094757D164A4FD479D","title":"新概念美容养身","lon":"121.51497279","lat":"31.22855791","category":"148","category_name":"美容美发店","address":"上海浦东南路1038弄2号楼1001室(靠近商城路)"},{"poiid":"B2094654DA69A6FF4398","title":"长岛美语学校中西学院(浦东南路)","lon":"121.515","lat":"31.22901","category":"253","category_name":"校园生活","address":"浦东南路1036号隆宇大厦1201"},{"poiid":"B2094757D16FA6FA479A","title":"东安大楼南楼","lon":"121.511905","lat":"31.230207","category":"252","category_name":"楼宇机构","address":"上海市浦东新区浦城路158弄436号"},{"poiid":"B2094757D169A1FC479E","title":"白云山摩星岭","lon":"121.514938354","lat":"31.2286567688","category":"500","category_name":"未知分类","address":"广州白云山风景区摩星岭"},{"poiid":"B2094654DB6BAAF54893","title":"美丽妈妈产后恢复中心","lon":"121.51499","lat":"31.22901","category":"221","category_name":"健身中心","address":"浦东新区浦东南路1036号隆宇大厦1504室(近商城路)"},{"poiid":"B2094757D06AAAFA489B","title":"蓓然美SPA(八佰伴店)","lon":"121.51527","lat":"31.22873","category":"500","category_name":"未知分类","address":"上海浦东新区浦东南路1036号隆宇大厦1602室(近八佰伴)  "},{"poiid":"B2094655D26EA3FE4092","title":"张杨路370弄小区(北门)","lon":"121.51412","lat":"31.22603","category":"47","category_name":"住宅区","address":"张杨路370弄"},{"poiid":"B2094752DA6DAAFE439B","title":"晓|Zizan私人美甲沙龙","lon":"121.510291","lat":"31.229459","category":"500","category_name":"未知分类","address":"上海市 上海市浦东新区商城路297号申金大厦2204室"},{"poiid":"B2094654DA69A6FF429D","title":"华浦教育(浦东南路)","lon":"121.51499","lat":"31.229","category":"190","category_name":"培训机构","address":"浦东南路1036号隆宇大厦15层1501-1502、1505"},{"poiid":"B2094757D66EA4F4469F","title":"宁波银行","lon":"121.51479773","lat":"31.229616287","category":"150","category_name":"银行","address":"浦东新区浦东南路1036号隆宇大厦内(近商城路)"},{"poiid":"B2094654DA69A1F5459A","title":"中原地产(商城路)","lon":"121.51074","lat":"31.22926","category":"248","category_name":"生活娱乐","address":""},{"poiid":"B2094757D16AA6FC4899","title":"华夏银行(浦东南路)","lon":"121.515043","lat":"31.229014","category":"150","category_name":"银行","address":"浦东新区浦东南路1036号隆宇大厦1楼7楼701-702室"},{"poiid":"B2094757D064ABF9419D","title":"中国建设银行(浦东南路支行)","lon":"121.51451217","lat":"31.227063332","category":"260","category_name":"其他","address":"浦东新区浦东南路1138号上海湾广场内(近张杨路)"},{"poiid":"B2094654DA69A1F54198","title":"江临天下(东门)","lon":"121.51281","lat":"31.22666","category":"656","category_name":"大门","address":"浦城路377"},{"poiid":"B2094757D164A6FD4198","title":"莲专业肚皮舞工作室","lon":"121.51109","lat":"31.22913","category":"260","category_name":"其他","address":"浦东新区商城路341号1205(近浦城路)"},{"poiid":"B2094654DA69A6FF439C","title":"上海知亦行律师事务所(浦东南路)","lon":"121.51499","lat":"31.22901","category":"252","category_name":"楼宇机构","address":"浦东南路1036号隆宇大厦1001-05"},{"poiid":"B2094757D66EA7F84292","title":"环球雅思学校(浦东南路店)","lon":"121.51541","lat":"31.22871","category":"253","category_name":"校园生活","address":"上海浦东新区浦东南路1036号隆宇大厦9楼  "},{"poiid":"B2094757D06FA1FB4798","title":"HTC旗舰店(上海浦东第一店)","lon":"121.515474851","lat":"31.2283335147","category":"138","category_name":"家电电子卖场","address":"上海浦东南路1078号中融国际商场1楼"},{"poiid":"B2094655D26DAAF5419E","title":"隆宇大厦(南门)","lon":"121.51491","lat":"31.22873","category":"48","category_name":"楼宇大门","address":"浦东南路1036号"},{"poiid":"B2094654DA69A6FE4899","title":"上海中融国际商城有限公司(浦东南路)","lon":"121.5152","lat":"31.22828","category":"263","category_name":"公司","address":"浦东南路1068-1078、1088号中融大厦18层"},{"poiid":"B2094751D26FA1F8409D","title":"西贝西北菜","lon":"121.511154","lat":"31.230403","category":"500","category_name":"未知分类","address":null},{"poiid":"B2094654DB6BAAF54398","title":"东洋工程(上海)有限公司","lon":"121.5152","lat":"31.22828","category":"263","category_name":"公司","address":"浦东南路1068-1078、1088号中融大厦16层1608、17层1709"},{"poiid":"B2094757D16FA6FD4092","title":"AGNES.B(八百伴店)","lon":"121.51530521","lat":"31.228093674","category":"500","category_name":"未知分类","address":"上海八百伴二楼"},{"poiid":"B2094757D165A2FD4199","title":"Home's bed^Π^","lon":"121.5134386","lat":"31.2259701","category":"500","category_name":"未知分类","address":null},{"poiid":"B2094757DB69A1F5409F","title":"康骏养生","lon":"121.511187","lat":"31.230558","category":"248","category_name":"生活娱乐","address":"中融大厦"},{"poiid":"B2094654DA69A6FF449C","title":"上海睿光国际经贸有限公司(浦东南路)","lon":"121.51499","lat":"31.22901","category":"263","category_name":"公司","address":"浦东南路1036号隆宇大厦1603"},{"poiid":"B2094655D26DA4F9489E","title":"中国建设银行(张杨路)","lon":"121.51532","lat":"31.22747","category":"150","category_name":"银行","address":""},{"poiid":"B2094757D168A2FD499B","title":"宜芝多","lon":"121.5136549","lat":"31.2255352","category":"500","category_name":"未知分类","address":"上海浦城路"},{"poiid":"B2094757D66EA2FC419D","title":"yarose","lon":"121.515312","lat":"31.227427","category":"500","category_name":"未知分类","address":"上海黄金城道富贵东道109号"},{"poiid":"B2094654DB6BAAF5469C","title":"游艺城","lon":"121.51521","lat":"31.22828","category":"173","category_name":"游戏厅","address":"浦东南路1068-1078、1088号中融国际商城6层"},{"poiid":"B2094655D264A2FD439A","title":"东安大楼南楼(西门)","lon":"121.51144","lat":"31.23029","category":"48","category_name":"楼宇大门","address":"浦城路东园四村439号"},{"poiid":"B2094655D26BA4F44993","title":"东安大楼北楼(南门)","lon":"121.51143","lat":"31.23029","category":"48","category_name":"楼宇大门","address":"浦城路东园四村439号"},{"poiid":"B2094655D264A2F44592","title":"渣打银行(中国)ATM取款机","lon":"121.51538","lat":"31.22743","category":"152","category_name":"ATM","address":"浦东南路1118号鄂尔多斯国际大厦"},{"poiid":"B2094654DA69A6FE4492","title":"东园三村小区(南门)","lon":"121.51454","lat":"31.22999","category":"656","category_name":"大门","address":""},{"poiid":"B2094654DA69ABFB4292","title":"兰园小区(北门)","lon":"121.513","lat":"31.22546","category":"656","category_name":"大门","address":"张杨路310弄"}]