[{"poiid":"B2094654DA6CA6F84698","title":"上海市普陀区人民医院","lon":"121.44177","lat":"31.24562","category":"162","category_name":"医院","address":"普陀区江宁路1291号(近澳门路)"},{"poiid":"B2094750D56DAAFD4593","title":"浅水湾艺术创意中心","lon":"121.439895","lat":"31.248973","category":"252","category_name":"楼宇机构","address":"宜昌路179号"},{"poiid":"B2094757D06AABF4469C","title":"江宁路澳门路","lon":"121.44116074","lat":"31.246652676","category":"250","category_name":"公园户外","address":"上海市普陀区江宁路澳门路"},{"poiid":"B209475CD564A7F8439E","title":"上海滩中信泰富店","lon":"121.45602","lat":"31.22851","category":"119","category_name":"商场","address":"\"南京西路1168号中信泰富广场，店铺号221.\r\n\""},{"poiid":"B2094757D06FA6FE4593","title":"半岛花园","lon":"121.4397888","lat":"31.24708175","category":"47","category_name":"住宅区","address":"半岛花园位于普陀西康路1518弄"},{"poiid":"B2094757D064AAF5469D","title":"普陀区第一人民医院","lon":"121.439888086","lat":"31.2441547035","category":"162","category_name":"医院","address":"上海市江宁路1291号"},{"poiid":"B2094757D069A6F54099","title":"中华1912文化创意产业园","lon":"121.440299","lat":"31.246047","category":"260","category_name":"其他","address":"上海普陀区澳门路477号"},{"poiid":"B2094757D06FA4FE479B","title":"东方罗玛经典浴场","lon":"121.44088","lat":"31.24721","category":"149","category_name":"洗浴推拿场所","address":"普陀区江宁路1420号(澳门路口)"},{"poiid":"B2094757D068A5FF4093","title":"莫干山路涂鸦墙","lon":"121.44355495","lat":"31.249478668","category":"500","category_name":"未知分类","address":"上海市普陀区莫干山路"},{"poiid":"B2094757D06FAAFD4793","title":"古都日式料理","lon":"121.442442742","lat":"31.246909673","category":"247","category_name":"餐饮美食","address":"澳门路339号(近江宁路)"},{"poiid":"B2094757D068AAFC4798","title":"夏面馆(澳门路店)","lon":"121.44184","lat":"31.24639","category":"68","category_name":"快餐厅","address":"普陀区澳门路337号(近江宁路)"},{"poiid":"B2094757D068A6FC4792","title":"华生大厦","lon":"121.43988","lat":"31.244855","category":"46","category_name":"楼宇","address":"上海市普陀区陕西北路1622号"},{"poiid":"B2094654DA6CA6FE439E","title":"世纪之门","lon":"121.43903","lat":"31.247503","category":"47","category_name":"住宅区","address":"上海市江宁路1415弄"},{"poiid":"B2094757D069A0FF469D","title":"浅水湾恺悦名城","lon":"121.44122259","lat":"31.248589515","category":"47","category_name":"住宅区","address":"上海普陀区澳门路330弄"},{"poiid":"B2094757D56CA2F5469E","title":"一号码头 Mimosa Supperclub","lon":"121.44170211433","lat":"31.249054090883","category":"247","category_name":"餐饮美食","address":"宜昌路88号近江宁路和昌化路之间"},{"poiid":"B2094757D66DA7FD4398","title":"煲宫猪肚鸡","lon":"121.440037853","lat":"31.2455802647","category":"86","category_name":"火锅店","address":"普陀区陕西北路1622号(澳门路口)"},{"poiid":"B2094757D16CABF4409C","title":"段氏姐妹","lon":"121.441385586","lat":"31.2466607526","category":"500","category_name":"未知分类","address":"上海市陕西北路1306号"},{"poiid":"B2094757D469A5F84898","title":"煲宫","lon":"121.438156","lat":"31.245513","category":"76","category_name":"上海菜","address":"杨浦区控江路1734号(环球超市旁)"},{"poiid":"B2094750D464AAF94999","title":"红翼酒吧餐厅","lon":"121.440475","lat":"31.245855","category":"94","category_name":"西餐厅","address":"普陀区澳门路477弄中华1912创意园5栋1楼107室(近陕西北路)"},{"poiid":"B2094752D269A3F54693","title":"浅水湾文化艺术中心","lon":"121.439621","lat":"31.248962","category":"248","category_name":"生活娱乐","address":"上海市普陀区宜昌路179号"},{"poiid":"B2094757D66DA3F4439C","title":"东方罗马","lon":"121.441131586","lat":"31.2477197733","category":"500","category_name":"未知分类","address":"上海市普陀区光复西路"},{"poiid":"B2094654DA6CA6F9469E","title":"河滨围城","lon":"121.44302","lat":"31.247782","category":"47","category_name":"住宅区","address":"上海市普陀区澳门路249号"},{"poiid":"B2094757D068A7FF499A","title":"百嘉盛大酒店","lon":"121.44230813","lat":"31.245816833","category":"260","category_name":"其他","address":"上海普陀区江宁路1286号(普陀路口)"},{"poiid":"B2094757DB69A1FB4492","title":"朱雀门西安美食 澳门路店","lon":"121.440155","lat":"31.246061","category":"84","category_name":"西北菜","address":"普陀区澳门路477号中华1912创意园6号楼103室(近长寿公园)"},{"poiid":"B2094654DA6CA6FB4392","title":"中环商务大厦","lon":"121.443","lat":"31.2464","category":"46","category_name":"楼宇","address":"上海长寿路468号"},{"poiid":"B2094654DA6CA6FF4192","title":"普陀区妇婴保健院","lon":"121.44202","lat":"31.24382","category":"162","category_name":"医院","address":"上海普陀区长寿路170号"},{"poiid":"B2094655D26AABF8429C","title":"上海壹号码头精品酒店","lon":"121.44022","lat":"31.24956","category":"250","category_name":"公园户外","address":"上海普陀区宜昌路130号(近江宁路桥)。"},{"poiid":"B2094655D26CAAF8479C","title":"汉庭快捷酒店(上海澳门路店)","lon":"121.44014","lat":"31.24578","category":"216","category_name":"经济型连锁酒店","address":"上海市普陀区澳门路503号(陕西北路口)"},{"poiid":"B2094757D464AAF8489D","title":"吉祥馄饨 澳门店 Gll Wonton","lon":"121.44171316455","lat":"31.246816405461","category":"247","category_name":"餐饮美食","address":"普陀区澳门路432号(近江宁路)"},{"poiid":"B2094654DA6CA6F8459B","title":"新闻报商务楼","lon":"121.44117","lat":"31.24697","category":"46","category_name":"楼宇","address":"江宁路1376号"},{"poiid":"B2094757D06FA0F4489A","title":"酒总酒店设备","lon":"121.441762","lat":"31.245922","category":"249","category_name":"购物服务","address":"上海普陀区澳门路345号(近江宁路)"},{"poiid":"B2094757D068A5FD4793","title":"我爱我汤(陕西北路店)","lon":"121.44009","lat":"31.24442","category":"68","category_name":"快餐厅","address":"普陀区陕西北路1622号吉买盛1楼(近普陀路)"},{"poiid":"B2094654DB69A4FE4499","title":"曲美家具(月星家居店)","lon":"121.44094","lat":"31.24727","category":"123","category_name":"家具建材市场","address":"普陀区澳门路168号月星家居广场二楼"},{"poiid":"B2094757D465A1FB479F","title":"多多小吃","lon":"121.440651054","lat":"31.246505793","category":"68","category_name":"快餐厅","address":"普陀区澳门路436号(近江宁路)"},{"poiid":"B2094753D165A1FE4398","title":"小胖龙虾","lon":"121.43906797139","lat":"31.24542076315","category":"247","category_name":"餐饮美食","address":"上海市 长寿路140号"},{"poiid":"B2094654DA6CA6F8469A","title":"可颂坊 江宁店 Croissants de France","lon":"121.441511054","lat":"31.246222793","category":"112","category_name":"糕饼店","address":"普陀区江宁路1311号(近澳门路)"},{"poiid":"B2094655D269ABFD439A","title":"艺韵阁画廊","lon":"121.44147","lat":"31.24695","category":"247","category_name":"餐饮美食","address":"普陀区澳门路356号三维大厦1层01室(近江宁路)"},{"poiid":"B2094654DA6CA6FF4399","title":"国脉大厦","lon":"121.44273","lat":"31.24448","category":"46","category_name":"楼宇","address":"黄浦区外滩23号,中山东一路,南京东路"},{"poiid":"B2094750D768A4FB409B","title":"达美乐比萨(澳门路店)","lon":"121.44","lat":"31.246","category":"94","category_name":"西餐厅","address":"普陀区澳门路477号6幢1楼101室(近江宁路)"},{"poiid":"B2094751D56AA3FD429C","title":"派悦坊","lon":"121.44015","lat":"31.24606","category":"67","category_name":"甜品店","address":"普陀区澳门路477号5幢106室(近陕西北路)"},{"poiid":"B2094654DB65A4F5429A","title":"必胜宅急送 澳门路店 Pizza Hut","lon":"121.442173054","lat":"31.246578793","category":"68","category_name":"快餐厅","address":"普陀区澳门路289-345号17幢1楼(近昌化路)"},{"poiid":"B2094654DA6CA6F8459F","title":"罗森(江宁路)","lon":"121.4413","lat":"31.24629","category":"117","category_name":"便民商店/便利店","address":"江宁路"},{"poiid":"B2094654DA6CA5FC4292","title":"敏晓美容美发","lon":"121.44137","lat":"31.24694","category":"148","category_name":"美容美发店","address":"江宁路"},{"poiid":"B2094654DA6CA6F8409F","title":"好德No.104","lon":"121.44097","lat":"31.24656","category":"117","category_name":"便民商店/便利店","address":"江宁路1369"},{"poiid":"B2094757D469A2F54693","title":"来必堡 澳门路店 Reboo Short order","lon":"121.442477054","lat":"31.246682793","category":"68","category_name":"快餐厅","address":"普陀区澳门路341号(近江宁路)"},{"poiid":"B2094655D26BABFE489D","title":"纺鑫苑","lon":"121.442","lat":"31.2468","category":"47","category_name":"住宅区","address":"上海市普陀区长寿路518号"},{"poiid":"B2094655D26FA2F9469B","title":"7+7餐厅(江宁路店)","lon":"121.44172","lat":"31.24638","category":"68","category_name":"快餐厅","address":"普陀区江宁路1318号(近澳门路)"},{"poiid":"B2094757D464ABF94298","title":"棒约翰比萨 江宁店 Papa John's Pizza","lon":"121.44304819331","lat":"31.244447002906","category":"94","category_name":"西餐厅","address":"普陀区江宁路1226号(近长寿路)"},{"poiid":"B2094654DA6CA6F5449A","title":"顾正红纪念馆","lon":"121.44246","lat":"31.24722","category":"243","category_name":"纪念馆","address":"普陀区澳门路300号(陕西北路宜昌路)"},{"poiid":"B2094757D66AA4F8459C","title":"小章饭店 澳门路店","lon":"121.44305360079","lat":"31.246720066867","category":"76","category_name":"上海菜","address":"普陀区澳门路335号(近江宁路)"},{"poiid":"B2094757D66EA6FF469A","title":"百合福","lon":"121.44010001","lat":"31.247297065","category":"500","category_name":"未知分类","address":"上海日月光5楼"},{"poiid":"B2094654DA6CA6F8419B","title":"艺名源足浴推拿","lon":"121.44124","lat":"31.24695","category":"149","category_name":"洗浴推拿场所","address":"普陀区江宁路1376号(近澳门路)"},{"poiid":"B2094654DA6CA6F94799","title":"妙手湘湖南湘菜馆","lon":"121.44146416276","lat":"31.246605851753","category":"77","category_name":"湖南菜","address":"普陀区澳门路331号(近江宁路)"},{"poiid":"B2094655D26DA4FC4893","title":"泰来坊(东1门)","lon":"121.44116","lat":"31.24645","category":"47","category_name":"住宅区","address":""},{"poiid":"B2094757D16CA0F5499B","title":"上海大学东区环化楼","lon":"121.44094205","lat":"31.246841821","category":"500","category_name":"未知分类","address":"上海大学宝山校区东区"},{"poiid":"B2094655D26CABFB4692","title":"泰来坊","lon":"121.44111","lat":"31.24635","category":"47","category_name":"住宅区","address":""},{"poiid":"B2094655D26CAAFE449D","title":"泰来坊(东2门)","lon":"121.44126","lat":"31.24634","category":"47","category_name":"住宅区","address":"江宁路1353弄2-20号"},{"poiid":"B2094654DA6CA5FC4193","title":"新爱婴蒙台梭利早教中心","lon":"121.44144","lat":"31.24704","category":"190","category_name":"培训机构","address":"沃门路356号三维大厦20层"},{"poiid":"B2094654DB6AA3F44898","title":"银树酒家(澳门路店)","lon":"121.44211","lat":"31.24675","category":"247","category_name":"餐饮美食","address":"普陀区澳门路351号"},{"poiid":"B2094655D26CAAFE4492","title":"泰来坊(东3门)","lon":"121.44136","lat":"31.24623","category":"47","category_name":"住宅区","address":""},{"poiid":"B2094655D265A0F8419E","title":"乐活居","lon":"121.43847","lat":"31.245991","category":"47","category_name":"住宅区","address":"陕西北路1688弄"},{"poiid":"B2094757D164A0FD459D","title":"738路","lon":"121.439784","lat":"31.247081","category":"38","category_name":"公交车站","address":"上海738路长寿路江宁路站"},{"poiid":"B2094654DA6CA6FB4799","title":"兴运大厦","lon":"121.443","lat":"31.2474","category":"46","category_name":"楼宇","address":"常德路1261-1273"},{"poiid":"B2094757D06AA2F9449D","title":"东北四季饺子王","lon":"121.43985758","lat":"31.244264705","category":"82","category_name":"东北菜","address":"普陀区澳门路582号(近陕西北路)"},{"poiid":"B2094655D265A5F4449D","title":"体检中心","lon":"121.44152","lat":"31.24602","category":"162","category_name":"医院","address":"江宁路1311"},{"poiid":"B2094654DA6CA6F8469B","title":"上海市华山神经外科(集团)医院普陀分院","lon":"121.44174","lat":"31.24562","category":"162","category_name":"医院","address":"江宁路1291"},{"poiid":"B2094757D66DAAFD459E","title":"澳门路337号","lon":"121.44237958","lat":"31.246984758","category":"47","category_name":"住宅区","address":"上海古都日本料理"},{"poiid":"B2094757D66CA0FB4398","title":"新还珠格格","lon":"121.44120258","lat":"31.247657772","category":"500","category_name":"未知分类","address":"上海班杰明还不错哦！"},{"poiid":"B2094750D66EA4F4459B","title":"复兴公园","lon":"121.442131","lat":"31.246671","category":"196","category_name":"公园","address":null},{"poiid":"B2094751D564A0FB4393","title":"申达国际大厦","lon":"121.440283","lat":"31.247434","category":"263","category_name":"公司","address":"江宁路1500号"},{"poiid":"B2094654DA6CA5FC429D","title":"上海林德酒店设备用品配套有限公司","lon":"121.44163","lat":"31.24703","category":"263","category_name":"公司","address":"上海市普陀区江宁路1376号1楼"},{"poiid":"B2094757D065A3F84398","title":"陕西北路澳门路","lon":"121.43906073","lat":"31.245126998","category":"500","category_name":"未知分类","address":"上海陕西北路澳门路"},{"poiid":"B2094752DB65A3FB4592","title":"Evonne伊娃婚纱高级定制","lon":"121.440318","lat":"31.246315","category":"141","category_name":"服装鞋帽皮具店","address":"澳门路477号中华1912创意园6栋201-202"},{"poiid":"B2094757D169A0FA489A","title":"ISalon","lon":"121.440409803","lat":"31.247246314","category":"500","category_name":"未知分类","address":"卢湾区进贤路219号(近陕西南路)"},{"poiid":"B2094757D068A1FF4798","title":"华联吉买盛(长寿店)","lon":"121.44018","lat":"31.24437","category":"118","category_name":"超级市场","address":"普陀区陕西北路1622号华生大厦2-3楼(近普陀路)"},{"poiid":"B2094757D16BAAF94893","title":"常德大厦","lon":"121.443","lat":"31.2473","category":"252","category_name":"楼宇机构","address":"上海市普陀区常德路239号"},{"poiid":"B2094752DA6CA4F5429A","title":"复旦大学","lon":"121.443138","lat":"31.2465","category":"671","category_name":"高校中心点","address":null},{"poiid":"B2094654DA6CA6F9429B","title":"中国社会科学院研究生院考古系上海教学部","lon":"121.44237","lat":"31.24607","category":"52","category_name":"高等院校","address":"江宁路1306弄7号富丽大厦4层"},{"poiid":"B2094757D064A3FF469C","title":"甬悦外婆家","lon":"121.43879","lat":"31.2447","category":"247","category_name":"餐饮美食","address":"上海普陀区澳门路588号2楼(近陕西北路)  "},{"poiid":"B2094757D66DA0FC449E","title":"jerryan's home","lon":"121.442844","lat":"31.247064","category":"500","category_name":"未知分类","address":"普陀区江宁路1415弄56号(近澳门路)"},{"poiid":"B2094750D56BA1FE459B","title":"陕西北路1688","lon":"121.438676","lat":"31.246076","category":"47","category_name":"住宅区","address":"普陀区陕西北路1688号乐活居内(近澳门路)"},{"poiid":"B2094757D46BA5FD4399","title":"村夫烤鱼 澳门路店","lon":"121.44433","lat":"31.24693","category":"269","category_name":"烧烤","address":"普陀区昌化路1019号(近澳门路)"},{"poiid":"B2094757D16CA5FA4598","title":"海曼艺校","lon":"121.441253586","lat":"31.2461617428","category":"253","category_name":"校园生活","address":"上海江宁路世纪之门"},{"poiid":"B2094757D16DA2FC469E","title":"江宁路桥","lon":"121.438143747","lat":"31.2487116859","category":"500","category_name":"未知分类","address":"上海江宁路宜昌路"},{"poiid":"B2094757D06AA2F44198","title":"招商银行(江宁支行)","lon":"121.44205426","lat":"31.2459705921","category":"150","category_name":"银行","address":"普陀区江宁路1286号(江宁路普陀路)"},{"poiid":"B2094655D264A7F4459D","title":"银领公寓","lon":"121.44305146758","lat":"31.246448946938","category":"47","category_name":"住宅区","address":"上海市普陀区长寿路468号"},{"poiid":"B2094757D465A1FF489A","title":"普光饭店","lon":"121.44376006997","lat":"31.246784826925","category":"68","category_name":"快餐厅","address":"普陀区澳门路227号(近昌化路)"},{"poiid":"B2094655D26EA5F54599","title":"东田果味绿茶坊","lon":"121.44323","lat":"31.24686","category":"66","category_name":"茶艺馆","address":"普陀区澳门路333号104号"},{"poiid":"B2094757D66DA7FA499C","title":"Ferrari Racing Days 2011法拉利赛道日","lon":"121.440838786","lat":"31.2455485308","category":"500","category_name":"未知分类","address":"上海国际赛车场"},{"poiid":"B2094654DB69A0FB439E","title":"舒友(普陀店)","lon":"121.44236","lat":"31.24583","category":"216","category_name":"经济型连锁酒店","address":"普陀区江宁路1286号(近澳门路)"},{"poiid":"B2094757D569A7FF409B","title":"壹号码头PIERONE","lon":"121.4402211","lat":"31.24956944","category":"47","category_name":"住宅区","address":"普陀区宜昌路88号梦清园公园内"},{"poiid":"B2094757D16DA6F9429F","title":"普陀路江宁路站(公交19终站)","lon":"121.44166758","lat":"31.245221724","category":"38","category_name":"公交车站","address":"上海市普陀区普陀路190号"},{"poiid":"B2094753D768ABFB4193","title":"浅水湾文化艺术中心","lon":"121.438354","lat":"31.246471","category":"500","category_name":"未知分类","address":"上海市 普陀区宜昌路179号"},{"poiid":"B2094654DA6CA6F9429E","title":"富丽花苑·大厦","lon":"121.4429","lat":"31.24615","category":"47","category_name":"住宅区","address":"江宁路1286"},{"poiid":"B2094654DA6CA6F9459D","title":"佳佳大排档","lon":"121.440722054","lat":"31.246286793","category":"257","category_name":"中餐厅","address":"普陀区澳门路(月星家居对面)"},{"poiid":"B2094757D568A4FF429F","title":"日悦小海鲜","lon":"121.4403467","lat":"31.24632083","category":"260","category_name":"其他","address":"普陀区澳门路434号(近江宁路)"},{"poiid":"B2094654DA6CA6FF459E","title":"翠玺艺术展览中心","lon":"121.44181","lat":"31.24511","category":"183","category_name":"展览馆","address":"普陀区普陀路149号(近江宁路)"},{"poiid":"B2094750DB65A4F84793","title":"华东师范大学","lon":"121.439125","lat":"31.245508","category":"500","category_name":"未知分类","address":null},{"poiid":"B2094654DB6AA6FE489D","title":"中国移动干巷营业厅","lon":"121.44194","lat":"31.24521","category":"151","category_name":"电讯营业厅","address":"金山区干巷镇汇丰街367-371号"},{"poiid":"B2094753D66BA3FE4498","title":"派悦坊","lon":"121.438919","lat":"31.24492","category":"500","category_name":"未知分类","address":"上海市 上海市普陀区澳门路477号5幢106"},{"poiid":"B2094655D26BA1FC4292","title":"普陀路江宁路","lon":"121.44247","lat":"31.24513","category":"38","category_name":"公交车站","address":""},{"poiid":"B2094757D66AA4F84293","title":"广和酒家","lon":"121.44440925838","lat":"31.247162442618","category":"68","category_name":"快餐厅","address":"普陀区昌化路984号(昌化路普陀路)"},{"poiid":"B2094757D169ABFD439E","title":"影中彩","lon":"121.44007158","lat":"31.245892737","category":"249","category_name":"购物服务","address":"上海市普陀区澳门路356号"},{"poiid":"B2094655D265A0F84693","title":"浅水湾恺悦名城(北门)","lon":"121.44067","lat":"31.2494","category":"47","category_name":"住宅区","address":"宜昌路79号"},{"poiid":"B2094654DB6BA5FC459F","title":"上海东方投资监理有限公司(普陀路)","lon":"121.44237","lat":"31.24606","category":"263","category_name":"公司","address":"江宁路1306弄7号富丽大厦23层、26层"},{"poiid":"B2094654DA6CA6FF4598","title":"文峰美发美容直营连锁澳门店","lon":"121.44219","lat":"31.24511","category":"148","category_name":"美容美发店","address":"江宁路1251弄"},{"poiid":"B2094654D465A6FC4292","title":"梦清馆上海苏州河展示中心","lon":"121.43997","lat":"31.24964","category":"183","category_name":"展览馆","address":"普陀区宜昌路130号(江宁路口)"},{"poiid":"B2094655D36CA5FA4292","title":"昌化路澳门路","lon":"121.44422","lat":"31.2479","category":"38","category_name":"公交车站","address":""},{"poiid":"B2094757D568A7FC439C","title":"中华菁英公寓式酒店","lon":"121.44034315","lat":"31.24589328","category":"251","category_name":"出行住宿","address":"普陀区澳门路477号(近长寿路)"},{"poiid":"B2094655D26FA7FA439C","title":"河滨围城(南2门)","lon":"121.44276","lat":"31.24699","category":"48","category_name":"楼宇大门","address":"澳门路288弄"},{"poiid":"B2094654DA6CA6F8469C","title":"永琪美容美发(江宁路)","lon":"121.44284","lat":"31.24513","category":"148","category_name":"美容美发店","address":"普陀区江宁路1233号(长寿路口)"},{"poiid":"B2094751D56AA7FC419F","title":"源达大厦","lon":"121.439545","lat":"31.245132","category":"252","category_name":"楼宇机构","address":"普陀区长寿路360号"},{"poiid":"B2094654DA6CA6F9409B","title":"华信邮电咨询设计研究院有限公司上海办事处","lon":"121.44237","lat":"31.24606","category":"263","category_name":"公司","address":"江宁路1306弄7号富丽大厦21层"},{"poiid":"B2094654DA6CA6F94299","title":"中信银行上海富丽支行","lon":"121.44288","lat":"31.24596","category":"150","category_name":"银行","address":"普陀区江宁路1306弄11号(江宁路普陀路)"},{"poiid":"B2094757D16AA0FD489D","title":"上厕所","lon":"121.43934553","lat":"31.246651562","category":"500","category_name":"未知分类","address":"上海卫生间"},{"poiid":"B2094655D26CAAFE4493","title":"红苹果水果大卖场(江宁路)","lon":"121.44261","lat":"31.24539","category":"117","category_name":"便民商店/便利店","address":""},{"poiid":"B2094757D168A3FF4092","title":"乐乐龙虾","lon":"121.4388","lat":"31.24512","category":"247","category_name":"餐饮美食","address":"上海普陀区陕西北路1739号(近澳门路)  "},{"poiid":"B2094654DA6CA6FF4099","title":"森木造型","lon":"121.43991","lat":"31.2446","category":"148","category_name":"美容美发店","address":"普陀区陕西北路1622号华生大厦内(近普陀路)"},{"poiid":"B2094753DA6BABF5499A","title":"上海东方明珠","lon":"121.439178","lat":"31.244667","category":"500","category_name":"未知分类","address":"上海市 上海市"},{"poiid":"B2094654DA6CA6FF419B","title":"千路公寓","lon":"121.4407","lat":"31.24407","category":"47","category_name":"住宅区","address":"上海市普陀区长寿路198号"},{"poiid":"B2094757D56CABFE479A","title":"九龙塘雨凌新概念海鲜楼","lon":"121.43952","lat":"31.24487","category":"247","category_name":"餐饮美食","address":"陕西北路1622号近长寿路"},{"poiid":"B2094757D06AA3FE439F","title":"Morning","lon":"121.44193658","lat":"31.245327726","category":"500","category_name":"未知分类","address":"上海市普陀区江寧路"},{"poiid":"B2094654DA6CA6F8409D","title":"世纪之门(东门)","lon":"121.44002","lat":"31.24745","category":"656","category_name":"大门","address":"江宁路1415"},{"poiid":"B2094654DA6CA6FF409B","title":"物华广场","lon":"121.43982","lat":"31.24469","category":"119","category_name":"商场","address":"陕西北路1622号"},{"poiid":"B2094654DA6CA6FF459D","title":"上海中旅国际旅行社有限公司","lon":"121.44041","lat":"31.24524","category":"248","category_name":"生活娱乐","address":"普陀区230华生大厦7-8层"},{"poiid":"B2094654DA6CA6F9479B","title":"新富丽酒店用品","lon":"121.44348","lat":"31.24687","category":"255","category_name":"专卖店","address":"澳门路289号"},{"poiid":"B2094757D16AABFF4398","title":"避风塘(五角场店)","lon":"121.438279586","lat":"31.247602771","category":"500","category_name":"未知分类","address":"上海淞沪路77号万达商业广场首层"},{"poiid":"B2094654DB6BA5FC459A","title":"上岛咖啡 普陀店","lon":"121.44003831068","lat":"31.244561849669","category":"260","category_name":"其他","address":"普陀区普陀路321号(近陕西北路)"},{"poiid":"B2094654DA6CA6F8479A","title":"快客(江宁路)","lon":"121.44304","lat":"31.24491","category":"117","category_name":"便民商店/便利店","address":"江宁路1224"},{"poiid":"B2094757D06BA4FC499F","title":"福州路(上海文具一条街)","lon":"121.44385528","lat":"31.246913909","category":"500","category_name":"未知分类","address":"上海市黄浦区福州路"},{"poiid":"B2094655D26AA7FB499C","title":"五洲博爱游艇俱乐部","lon":"121.4415","lat":"31.24979","category":"247","category_name":"餐饮美食","address":"普陀区宜昌路66号梦清园水天居(近苏州河)"},{"poiid":"B2094654DB69A7FB4293","title":"纪北小区","lon":"121.43863","lat":"31.24842","category":"47","category_name":"住宅区","address":"闵行区纪翟路"},{"poiid":"B2094757D568A5FE4692","title":"紫尚造型","lon":"121.4395109","lat":"31.24501546","category":"148","category_name":"美容美发店","address":"中国上海市普陀区陕西北路"},{"poiid":"B2094753D26AABFE489B","title":"上海米娜视觉婚纱摄影","lon":"121.439513","lat":"31.245691","category":"263","category_name":"公司","address":"普陀区澳门路519弄 华生大厦二号楼十楼1005-1006室"},{"poiid":"B2094757D069AAF9419E","title":"食其家(太平洋站前店)","lon":"121.44334345","lat":"31.245183023","category":"500","category_name":"未知分类","address":"上海天目西路218号B1层"},{"poiid":"B2094654DB6BA5FC459C","title":"富丽大厦(西门)","lon":"121.44186","lat":"31.2462","category":"656","category_name":"大门","address":""},{"poiid":"B2094757D568A0FA4592","title":"复星大药房陕西北路店","lon":"121.4398339","lat":"31.244695","category":"162","category_name":"医院","address":"陕西北路1622号华联吉买盛1层"},{"poiid":"B2094757D06AABF5469E","title":"M50涂鸦墙","lon":"121.44417878","lat":"31.247331665","category":"260","category_name":"其他","address":"上海宝山区大场镇汶水路、沪太路"},{"poiid":"B2094757D065A1FC4499","title":"昆仑商务中心","lon":"121.443524","lat":"31.245933","category":"500","category_name":"未知分类","address":"上海长寿路393号"},{"poiid":"B2094757D16DA6FE459E","title":"普陀区人民医院手术室","lon":"121.43954358","lat":"31.244148703","category":"162","category_name":"医院","address":"上海市江宁路1291号三号楼五楼"},{"poiid":"B2094654DA6CA6F9469B","title":"上海健生酒店设备配套有限公司","lon":"121.44373","lat":"31.2469","category":"255","category_name":"专卖店","address":"澳门路249"},{"poiid":"B2094757D16FA0FF449D","title":"调频壹广场地下车库","lon":"121.444026886","lat":"31.2473697996","category":"500","category_name":"未知分类","address":"上海普陀区长寿路155号(近陕西北路)"},{"poiid":"B2094757D06BA1F54998","title":"it's cafe(coffee house)","lon":"121.443861981","lat":"31.2479814634","category":"500","category_name":"未知分类","address":"上海市徐汇区永康路184号"},{"poiid":"B2094655D26AA5FB409B","title":"普陀区妇女儿童保健所长寿总院","lon":"121.44216","lat":"31.24391","category":"247","category_name":"餐饮美食","address":"普陀区长寿路170号(近陕西北路)"},{"poiid":"B2094757D064A2FE469C","title":"艾维庭美容身心会馆(长寿路店)","lon":"121.443309","lat":"31.244643","category":"148","category_name":"美容美发店","address":"上海普陀区江宁路1214号4楼(近长寿路)"},{"poiid":"B2094757D168A3FD429E","title":"Mecool上海明酷市场营销有限公司","lon":"121.439663586","lat":"31.245148723","category":"500","category_name":"未知分类","address":"上海澳门路519弄2号楼602"},{"poiid":"B2094655D26DA0F9469B","title":"中国工商银行昌化路分理处","lon":"121.44416","lat":"31.24743","category":"150","category_name":"银行","address":"澳门路280"},{"poiid":"B2094757D169A5FA4293","title":"昌化路澳门路站(公交76,105,801)","lon":"121.44406898","lat":"31.247664772","category":"500","category_name":"未知分类","address":"上海市普陀区昌化路澳门路(近月星家居)"},{"poiid":"B2094655D26FA7F9409B","title":"富丽花苑·大厦(南门)","lon":"121.44312","lat":"31.24598","category":"48","category_name":"楼宇大门","address":"江宁路1286"},{"poiid":"B2094655D26DABFF489C","title":"河滨围城(北门)","lon":"121.44248","lat":"31.24884","category":"48","category_name":"楼宇大门","address":""},{"poiid":"B2094655D26DA7FC4098","title":"河滨围城(南1门)","lon":"121.44354","lat":"31.24711","category":"48","category_name":"楼宇大门","address":""},{"poiid":"B2094655D265A5FC489F","title":"凤凰城商务娱乐会所","lon":"121.44231","lat":"31.24489","category":"208","category_name":"休闲场所","address":"普陀区江宁路1251号星海大厦内(近长寿路)"},{"poiid":"B2094655D26FA0FA4499","title":"梦清园(南门)","lon":"121.44128","lat":"31.24973","category":"680","category_name":"楼宇机构","address":"宜昌路66"},{"poiid":"B2094757D065A4F44898","title":"玉城大厦","lon":"121.441141","lat":"31.243818","category":"252","category_name":"楼宇机构","address":"上海普陀区陕西北路长寿路"},{"poiid":"B2094757D568A6FC419F","title":"玛萨专业美容会所","lon":"121.44080729","lat":"31.2439974","category":"148","category_name":"美容美发店","address":"陕西北路1582-1"},{"poiid":"B2094655D26DA7FF4193","title":"星海大厦(东门)","lon":"121.44231","lat":"31.24488","category":"48","category_name":"楼宇大门","address":"江宁路1251弄"},{"poiid":"B2094654D465A6FC4293","title":"壹号码头会所","lon":"121.44023","lat":"31.24956","category":"248","category_name":"生活娱乐","address":"宜昌路88号"},{"poiid":"B2094757DA6EAAFA4192","title":"波林丝(江宁路店)","lon":"121.442399024966","lat":"31.2449480675645","category":"248","category_name":"生活娱乐","address":"普陀区江宁路1277号(近长寿路)"},{"poiid":"B2094655D26DA7FF4298","title":"华生大厦(南门)","lon":"121.44055","lat":"31.24475","category":"48","category_name":"楼宇大门","address":"普陀路230"},{"poiid":"B2094757D169A6F8479C","title":"天黑等日出","lon":"121.4435191","lat":"31.2491847125","category":"500","category_name":"未知分类","address":"上海恩。"},{"poiid":"B2094757D16CA1F84798","title":"玛萨SPA专业美容香熏生活馆(陕西北路店)","lon":"121.44079","lat":"31.24393","category":"500","category_name":"未知分类","address":"上海普陀区陕西北路1582号(近长寿路)  "},{"poiid":"B2094757D164AAFD429E","title":"一指堂","lon":"121.44167327","lat":"31.249910354","category":"500","category_name":"未知分类","address":"上海中远两湾城"},{"poiid":"B2094757D06BA2F8499F","title":"民生银行普陀支行","lon":"121.441049386","lat":"31.2441765039","category":"150","category_name":"银行","address":"上海长寿路陕西北路"},{"poiid":"B2094757D66EA6FE409B","title":"上海农商银行长寿支行","lon":"121.440433","lat":"31.244288","category":"150","category_name":"银行","address":"上海普陀路249号"},{"poiid":"B2094654DA6CA6FF439B","title":"上海浦东发展银行国脉大厦支行","lon":"121.44273","lat":"31.24448","category":"150","category_name":"银行","address":"江宁路1207号国脉大厦"},{"poiid":"B2094757D165A0FD409C","title":"紫尚形象设计","lon":"121.440143","lat":"31.244398","category":"148","category_name":"美容美发店","address":"上海陕西北路1622号"},{"poiid":"B2094654DA6CA6FF469E","title":"依恋宠物生活馆","lon":"121.43814","lat":"31.24555","category":"129","category_name":"宠物用品店","address":"普陀区陕西北路1763号(近澳门路)"},{"poiid":"B2094757D168A5F5479B","title":"都华名苑5号楼","lon":"121.43804825","lat":"31.246053074","category":"252","category_name":"楼宇机构","address":"上海陕西北路1789弄5号"},{"poiid":"B2094655D26DA7FC4292","title":"千路公寓(北门)","lon":"121.44063","lat":"31.24446","category":"48","category_name":"楼宇大门","address":""},{"poiid":"B2094757D16FA3FA4199","title":"63路长寿路江宁路站","lon":"121.440817","lat":"31.243954","category":"500","category_name":"未知分类","address":"上海长寿路陕西北路"},{"poiid":"B2094654D565ABFD4099","title":"半岛休闲广场","lon":"121.441","lat":"31.2439","category":"248","category_name":"生活娱乐","address":"长寿路587号"},{"poiid":"B2094654DA6CA6F84798","title":"音乐广场(西门)","lon":"121.44319","lat":"31.24477","category":"48","category_name":"楼宇大门","address":"江宁路1220弄"},{"poiid":"B2094655D26DA7FD409A","title":"世纪之门(北门)","lon":"121.43827","lat":"31.24792","category":"656","category_name":"大门","address":""},{"poiid":"B2094757D568A7FF419D","title":"中国电信上海分公司","lon":"121.4426077","lat":"31.24464003","category":"636","category_name":"通讯及服务类公司","address":"江宁路1221"},{"poiid":"B2094654DA6CA6FF419E","title":"中国银行上海市长寿路支行24小时自助银行","lon":"121.4408","lat":"31.24397","category":"152","category_name":"ATM","address":"陕西北路1576"},{"poiid":"B2094654DA6CA6FE4993","title":"光明城市(东门)","lon":"121.43939","lat":"31.24454","category":"656","category_name":"大门","address":"长寿路"},{"poiid":"B2094655D26CABF9429E","title":"长寿公园(东门)","lon":"121.44027","lat":"31.24392","category":"656","category_name":"大门","address":""}]