[{"poiid":"B2094757D06EAAFA449F","title":"翠华餐厅（西藏南路店）Tsui Wah Restaurant","lon":"121.48138752034185","lat":"31.224226870443808","category":"257","category_name":"中餐厅","address":"黄浦区西藏南路251号宏基西门厅106室(近桃源路)"},{"poiid":"B2094757D06EAAF44898","title":"寿宁路小龙虾","lon":"121.48185","lat":"31.22348","category":"68","category_name":"快餐厅","address":"黄浦区寿宁路58号(柳林路寿宁路)"},{"poiid":"B2094757D66FA6FB429F","title":"长寿面馆乡吧岛香辣小龙虾(寿宁路分店)","lon":"121.48253","lat":"31.22377","category":"257","category_name":"中餐厅","address":"卢湾区寿宁路23号、35号(近西藏南路)"},{"poiid":"B2094753D76FAAFA449C","title":"上海滩国泰旗舰店","lon":"121.466011","lat":"31.216125","category":"249","category_name":"购物服务","address":"淮海中路868号"},{"poiid":"B209475CD564A7F84292","title":"上海滩新天地店","lon":"121.47463","lat":"31.22164","category":"119","category_name":"商场","address":"\"太仓路181弄新天地北里15号\r\n\""},{"poiid":"B209475CD564A7F8439E","title":"上海滩中信泰富店","lon":"121.45602","lat":"31.22851","category":"119","category_name":"商场","address":"\"南京西路1168号中信泰富广场，店铺号221.\r\n\""},{"poiid":"B209475CD564A7F84392","title":"上海滩浦东香格里拉店","lon":"121.50058","lat":"31.23634","category":"119","category_name":"商场","address":"浦东富成路33号香格里拉酒店内大堂层"},{"poiid":"B2094757D06FA3F84792","title":"上海第一家香吧岛龙虾(寿宁路总店)","lon":"121.48265","lat":"31.22375","category":"68","category_name":"快餐厅","address":"卢湾区寿宁路20-24号(近西藏南路)"},{"poiid":"B2094655D36CA1FE409C","title":"寿宁路","lon":"121.48061","lat":"31.22345","category":"38","category_name":"公交车站","address":""},{"poiid":"B2094757D06FA1F5439E","title":"一锅鲜","lon":"121.48108643","lat":"31.223254051","category":"76","category_name":"上海菜","address":"黄浦区淮海东路99号新尚数码广场5楼(西藏路淮海东路交叉口)"},{"poiid":"B2094757D16DA1FB499B","title":"华美国际酒店","lon":"121.481757","lat":"31.22221","category":"217","category_name":"旅馆招待所","address":"黄浦区西藏南路381号(近淮海中路)"},{"poiid":"B2094757D06FA2F8489F","title":"韩记烧烤","lon":"121.48191","lat":"31.22352","category":"68","category_name":"快餐厅","address":"卢湾区寿宁路26号(近西藏南路)"},{"poiid":"B2094753D26EA4FD4392","title":"饭小馆","lon":"121.480981","lat":"31.224193","category":"247","category_name":"餐饮美食","address":"上海市 上海市西藏南路279号108室"},{"poiid":"B2094757D068A2FB409F","title":"寿宁路烧烤摊","lon":"121.48309","lat":"31.22394","category":"68","category_name":"快餐厅","address":"黄浦区寿宁路(人民路口)"},{"poiid":"B2094757D068ABFF4592","title":"白云观","lon":"121.4838714","lat":"31.2246919829","category":"246","category_name":"回教寺","address":"黄浦区大境路239号(近青莲街)"},{"poiid":"B2094757D06FA1FA419E","title":"YOBA酸奶冰淇淋(西藏南路店)","lon":"121.481198","lat":"31.2241349","category":"113","category_name":"冷饮店","address":"黄浦区西藏南路279号109铺(近寿宁路)"},{"poiid":"B2094757D664A7FF4692","title":"翠萃餐厅","lon":"121.48078","lat":"31.22447","category":"76","category_name":"上海菜","address":"西藏南路251号2楼近桃源路"},{"poiid":"B2094757D06FA6F8429E","title":"万商花鸟市场","lon":"121.48199","lat":"31.22132","category":"249","category_name":"购物服务","address":"黄浦区西藏南路417号(近东台路)"},{"poiid":"B2094757D06FA6F84999","title":"黄浦中心","lon":"121.48331828","lat":"31.220969198","category":"46","category_name":"楼宇","address":"上海市黄浦区中华路1600号"},{"poiid":"B2094757D068A0FC429F","title":"金天地国际大厦","lon":"121.482581","lat":"31.223014","category":"46","category_name":"楼宇","address":"黄浦区人民路998号"},{"poiid":"B2094753D46AA1FD459D","title":"环球港","lon":"121.480438","lat":"31.22241","category":"500","category_name":"未知分类","address":"上海市 中山北路"},{"poiid":"B2094757D16CA2FF4393","title":"红梅龙虾","lon":"121.48202073","lat":"31.223744161","category":"500","category_name":"未知分类","address":"上海市寿宁路27号"},{"poiid":"B2094757D465A4F44798","title":"华哥龙虾烤鱼坊","lon":"121.482833054","lat":"31.224111793","category":"247","category_name":"餐饮美食","address":"寿宁路12号近人民路"},{"poiid":"B2094655D26EABF8489A","title":"杰杰龙虾店","lon":"121.48205","lat":"31.22392","category":"68","category_name":"快餐厅","address":"黄浦区寿宁路36号(近西藏南路)"},{"poiid":"B2094654DA6EA6F54499","title":"二子烧烤","lon":"121.4821","lat":"31.22394","category":"68","category_name":"快餐厅","address":"卢湾区寿宁路34号(近西藏南路)"},{"poiid":"B2094757D064A1FC4392","title":"淮海279","lon":"121.48077473","lat":"31.224404175","category":"76","category_name":"上海菜","address":"黄浦区西藏南路279号弘基西门町(近淮海东路)"},{"poiid":"B2094654DA6EA6F54498","title":"魏氏烧烤","lon":"121.482","lat":"31.22392","category":"87","category_name":"特色／地方风味餐厅","address":"黄浦区寿宁路38号(近西藏南路)"},{"poiid":"B2094753D665A6F4409A","title":"星怡會","lon":"121.48281","lat":"31.223274","category":"500","category_name":"未知分类","address":"上海市 上海無限度廣場2樓"},{"poiid":"B2094654DA6EA5FC479B","title":"老广东菜馆 寿宁店","lon":"121.48290379018","lat":"31.223858586579","category":"76","category_name":"上海菜","address":"黄浦区人民路924号(寿宁路口)"},{"poiid":"B2094757D66BA3F5439C","title":"十番烧肉","lon":"121.481204","lat":"31.224029","category":"269","category_name":"烧烤","address":"西藏南路279号近淮海东路"},{"poiid":"B2094757D064A4F9409C","title":"华哥龙虾","lon":"121.48217769","lat":"31.224411491","category":"247","category_name":"餐饮美食","address":"上海寿宁路2号"},{"poiid":"B2094757D064A3F44293","title":"Fraser Residence 上海辉盛庭国际公寓","lon":"121.481061948","lat":"31.2234862464","category":"500","category_name":"未知分类","address":"卢湾区寿宁路98号(近淮海中路)"},{"poiid":"B2094750D76EA3F5429C","title":"寿宁路美食街","lon":"121.481","lat":"31.2236","category":"68","category_name":"快餐厅","address":"黄浦区寿宁路(西藏路人民路之间)"},{"poiid":"B2094757D16EA6FD439E","title":"17号香吧岛龙虾","lon":"121.48212773","lat":"31.223932165","category":"247","category_name":"餐饮美食","address":"上海寿宁路"},{"poiid":"B2094654DA6EA6F54393","title":"阿军特色烧烤","lon":"121.48183","lat":"31.22385","category":"68","category_name":"快餐厅","address":"黄浦区寿宁路48号(近西藏南路)"},{"poiid":"B2094757D06FA2FF449B","title":"元利香辣蟹(亚龙广场店)","lon":"121.47998","lat":"31.22672","category":"71","category_name":"四川菜","address":"黄浦区金陵东路500号亚龙国际广场3楼301号商铺(近西藏南路)"},{"poiid":"B2094757D468A6FC4999","title":"西北郎烧烤 寿宁路店","lon":"121.482659054","lat":"31.223880793","category":"68","category_name":"快餐厅","address":"卢湾区寿宁路5号(近云南路)"},{"poiid":"B2094757D46EA5F54293","title":"笑鱼寿司","lon":"121.482329","lat":"31.2250204","category":"95","category_name":"日本料理","address":"黄浦区云南南路295号(近淮海东路)"},{"poiid":"B2094757D068AAFD429C","title":"华府天地","lon":"121.481","lat":"31.2249","category":"47","category_name":"住宅区","address":"卢湾区马当路222号(近新天地)"},{"poiid":"B2094757D06BABFC419F","title":"西北狼烧烤","lon":"121.48115173","lat":"31.223499156","category":"247","category_name":"餐饮美食","address":"上海寿宁路60号"},{"poiid":"B2094757D66BA2F54892","title":"53号香巴岛","lon":"121.481501","lat":"31.223604","category":"47","category_name":"住宅区","address":"寿宁路53号近云南南路"},{"poiid":"B209475CD56EA1F4499F","title":"连卡佛LaneCrawford","lon":"121.482719","lat":"31.223199","category":"249","category_name":"购物服务","address":"上海市 淮海中路93号"},{"poiid":"B2094750DA6BA4F5459E","title":"老西门","lon":"121.483703","lat":"31.224035","category":"627","category_name":"一般地点标志","address":"地铁老西门站"},{"poiid":"B2094757D064A3F44798","title":"甜乐甜品 总店","lon":"121.48191","lat":"31.22389","category":"67","category_name":"甜品店","address":"卢湾区寿宁路42号(大境路人民路)"},{"poiid":"B2094654DA6EABFB4198","title":"巴辣子","lon":"121.48039970258","lat":"31.223424021383","category":"71","category_name":"四川菜","address":"卢湾区寿宁路71弄7号(柳林路西藏南路间)"},{"poiid":"B2094753D764A4F8449F","title":"彩日本料理","lon":"121.481727","lat":"31.224248","category":"500","category_name":"未知分类","address":"上海市 淮海中路138号无限度广场4楼405(近普安路)"},{"poiid":"B2094757D66CA3FE4198","title":"虎跳峽(下虎跳)","lon":"121.48102943","lat":"31.222836642","category":"234","category_name":"海滨浴场","address":"迪庆州香格里拉县(近大具乡) 下虎跳峡"},{"poiid":"B2094753D768A1F4419C","title":"上海外滩","lon":"121.480438","lat":"31.222406","category":"500","category_name":"未知分类","address":"上海市 外滩"},{"poiid":"B2094757D56CA2FF419C","title":"Love Break","lon":"121.4813558","lat":"31.2231263","category":"260","category_name":"其他","address":"黄浦区西藏南路327号(近寿宁路)"},{"poiid":"B209475DD76EA1F84799","title":"Blue Car Coffee","lon":"121.480636","lat":"31.222131","category":"247","category_name":"餐饮美食","address":"上海市 淮海中路193-8号"},{"poiid":"B2094757D06AA0F44293","title":"原味坊(西藏路店)","lon":"121.48109149","lat":"31.222519552","category":"67","category_name":"甜品店","address":"黄浦区西藏南路251号宏基西门町(寿宁路口)"},{"poiid":"B2094654DB6BA4F8489E","title":"同康里","lon":"121.48205","lat":"31.222942","category":"47","category_name":"住宅区","address":"会稽路38弄1-65号"},{"poiid":"B2094655D264A1FE489F","title":"佰草集汉方SPA(卢湾永银店)","lon":"121.48039","lat":"31.22424","category":"148","category_name":"美容美发店","address":"桃源路85号永银大厦6层"},{"poiid":"B2094757D16DAAF5479A","title":"老王汤圆","lon":"121.48316","lat":"31.2231","category":"68","category_name":"快餐厅","address":"黄浦区人民路958弄(近寿宁路)"},{"poiid":"B2094654DB64AAF9499C","title":"阿里狼烤肉(寿宁路)","lon":"121.48177","lat":"31.22365","category":"87","category_name":"特色／地方风味餐厅","address":"卢湾区寿宁路41号(近西藏南路)"},{"poiid":"B2094655D264A1F84993","title":"香八岛小龙虾","lon":"121.48241","lat":"31.22402","category":"247","category_name":"餐饮美食","address":"卢湾区寿宁路18号(近西藏南路)"},{"poiid":"B2094757D664A7F84493","title":"苏州羊肉面馆 寿宁路店","lon":"121.48171","lat":"31.22376","category":"68","category_name":"快餐厅","address":"卢湾区寿宁路54号(近西藏南路)"},{"poiid":"B2094655D26AA3F9429B","title":"矮子馅饼 寿宁路店","lon":"121.48047460777","lat":"31.223408049919","category":"68","category_name":"快餐厅","address":"黄浦区寿宁路33号(近西藏南路)"},{"poiid":"B2094655D265ABFC469B","title":"方中排档","lon":"121.48421","lat":"31.22172","category":"257","category_name":"中餐厅","address":"方浜中路776-780"},{"poiid":"B2094654DA6EAAFF409D","title":"吉祥馄饨柳林店","lon":"121.48049","lat":"31.22322","category":"68","category_name":"快餐厅","address":"卢湾区柳林路109号(寿宁路口)"},{"poiid":"B2094757D169A0FA499B","title":"地铁十号线","lon":"121.48119213","lat":"31.22463108","category":"500","category_name":"未知分类","address":"上海五角场"},{"poiid":"B2094654DA6EA5FE4393","title":"大境阁","lon":"121.48332","lat":"31.22463","category":"250","category_name":"公园户外","address":"大境路259、269"},{"poiid":"B2094757D169ABFB479F","title":"剪约","lon":"121.481085438","lat":"31.2232150506","category":"500","category_name":"未知分类","address":"上海西藏南路322-324号"},{"poiid":"B2094757D068ABF9429A","title":"丝芙兰(无限度店)","lon":"121.48222351","lat":"31.222764968","category":"122","category_name":"个人用品/化妆品店","address":"上海淮海中路138号无限度广场一楼"},{"poiid":"B2094757D16AA0FE419A","title":"海派餐厅","lon":"121.481301738","lat":"31.223984167","category":"500","category_name":"未知分类","address":"上海嵩山路88号"},{"poiid":"B2094654DB6BA4F8489B","title":"小黄苏州羊肉馆","lon":"121.482431054","lat":"31.224176793","category":"76","category_name":"上海菜","address":"卢湾区寿宁路14号(近西藏南路预计十月一开业)"},{"poiid":"B2094757D165A6F5489A","title":"谨和五味","lon":"121.480788738","lat":"31.2236301594","category":"68","category_name":"快餐厅","address":"卢湾区寿宁路69号(近西藏南路)"},{"poiid":"B2094757D569A2F94492","title":"吴越人家(西藏南路)","lon":"121.48123671","lat":"31.22393826","category":"68","category_name":"快餐厅","address":"黄浦区西藏南路279号(柳林路寿宁路)"},{"poiid":"B2094757D06AA2F5459D","title":"豫园派出所","lon":"121.48399825","lat":"31.222190165","category":"609","category_name":"警察局","address":"上海方浜中路718号"},{"poiid":"B2094654DA6EA6F54792","title":"华美国际酒店商务楼","lon":"121.48176","lat":"31.22185","category":"46","category_name":"楼宇","address":"西藏南路381号"},{"poiid":"B209475DD46EA1FB4392","title":"滩悦","lon":"121.483413","lat":"31.223274","category":"247","category_name":"餐饮美食","address":"上海市 连卡佛大上海时代广场5F"},{"poiid":"B2094750D26AA3FB429E","title":"96广场","lon":"121.481437","lat":"31.223215","category":"500","category_name":"未知分类","address":null},{"poiid":"B2094753D768A3FA4592","title":"浦东新区","lon":"121.480422","lat":"31.222393","category":"500","category_name":"未知分类","address":"上海市 陆家嘴"},{"poiid":"B2094757D465A1F8439B","title":"华美国际酒店餐厅","lon":"121.481435054","lat":"31.222032793","category":"268","category_name":"自助","address":"黄浦区西藏南路381号(浏河口路西藏南路)"},{"poiid":"B2094757D16DA2FF4299","title":"洪记瓦罐汤 卢湾店","lon":"121.4804307247","lat":"31.223406635024","category":"68","category_name":"快餐厅","address":"卢湾区寿宁路73弄7号(近柳林路)"},{"poiid":"B2094655D269AAFA4692","title":"糖工坊 寿宁路店","lon":"121.481453054","lat":"31.223805793","category":"67","category_name":"甜品店","address":"卢湾区寿宁路33号(近西藏南路)"},{"poiid":"B2094654DA6EA5FE449A","title":"上海老城厢史迹展","lon":"121.48322","lat":"31.22463","category":"183","category_name":"展览馆","address":"黄浦区大境路269号"},{"poiid":"B2094654DA6EA6F5469B","title":"678酒家","lon":"121.48139","lat":"31.22356","category":"76","category_name":"上海菜","address":"黄浦区寿宁路61号(近西藏南路)"},{"poiid":"B209475CD76BA6FB449A","title":"老友螺蛳粉","lon":"121.481895","lat":"31.220659","category":"247","category_name":"餐饮美食","address":"上海市 西藏南路390号"},{"poiid":"B2094654DB65A0FC419F","title":"赵记好再来正宗河南拉面馆","lon":"121.48237","lat":"31.22485","category":"68","category_name":"快餐厅","address":"黄浦区云南南路322号(振鼎鸡对面)"},{"poiid":"B209475CD46CA5F8409B","title":"野兽派花店the beast shop","lon":"121.482589","lat":"31.22298","category":"249","category_name":"购物服务","address":"上海市 淮海中路99号连卡佛Lane Crawford一楼"},{"poiid":"B2094655D269ABF9469C","title":"西藏路花鸟市场","lon":"121.48183","lat":"31.22172","category":"247","category_name":"餐饮美食","address":"黄浦区西藏南路405号(近东台路)"},{"poiid":"B2094753D26AA4FA459E","title":"饭小馆","lon":"121.480988","lat":"31.224131","category":"247","category_name":"餐饮美食","address":"上海市 西藏南路279号"},{"poiid":"B2094757D16AA1FB449F","title":"味千拉面淮海东路店","lon":"121.48451995","lat":"31.223451614","category":"500","category_name":"未知分类","address":"上海淮海东路99号"},{"poiid":"B2094654DA6EAAFE4399","title":"曙光医院(2号门)","lon":"121.48008","lat":"31.2224","category":"162","category_name":"医院","address":"崇德路2号"},{"poiid":"B2094655D36CA1F8499D","title":"柳林路","lon":"121.4804","lat":"31.2232","category":"38","category_name":"公交车站","address":""},{"poiid":"B2094655D26EABFB4093","title":"凰庭","lon":"121.48098881187","lat":"31.223576103453","category":"247","category_name":"餐饮美食","address":"寿宁路98号6楼近西藏南路"},{"poiid":"B209475DD268A7F4489B","title":"港丽餐厅（iapm）","lon":"121.482498","lat":"31.223314","category":"500","category_name":"未知分类","address":"上海市 iapm"},{"poiid":"B2094753DB6AA5FA439D","title":"上海影城","lon":"121.48043","lat":"31.222402","category":"178","category_name":"电影院","address":"上海市 上海市长宁区新华路"},{"poiid":"B2094654DA6EAAFE4398","title":"曙光医院发热门诊","lon":"121.4802","lat":"31.22248","category":"162","category_name":"医院","address":"淮海中路"},{"poiid":"B2094757D06BA6FA429C","title":"苏州羊肉馆","lon":"121.481222088","lat":"31.2227507807","category":"257","category_name":"中餐厅","address":"上海黄浦区寿宁路14号"},{"poiid":"B2094757D06BA4FD409F","title":"方浜中路排挡(近中华路)","lon":"121.48286498","lat":"31.223141362","category":"500","category_name":"未知分类","address":"上海方浜中路中华路"},{"poiid":"B2094757D66FA3FA449D","title":"中国馆班车3线西藏南路淮海东路站","lon":"121.480742116","lat":"31.2246314811","category":"38","category_name":"公交车站","address":"上海西藏南路(近淮海东路)"},{"poiid":"B2094757D664A1F9429F","title":"红梅餐厅","lon":"121.48080979908","lat":"31.223507701725","category":"269","category_name":"烧烤","address":"寿宁路27号近柳林路"},{"poiid":"B2094753DB6EA3F84793","title":"上海辉盛庭国际公寓","lon":"121.480728","lat":"31.223463","category":"214","category_name":"四星级宾馆","address":"上海黄浦区寿宁路98号"},{"poiid":"B2094757D06AA4FC479E","title":"梅兰竹菊棋牌室","lon":"121.482820059","lat":"31.2227007989","category":"175","category_name":"棋牌室","address":"黄浦区会稽路17号(人民路口)"},{"poiid":"B2094655D265ABFD4792","title":"人民路馄饨摊","lon":"121.4831","lat":"31.22364","category":"87","category_name":"特色／地方风味餐厅","address":"人民路948弄"},{"poiid":"B209475CD069A5F9469D","title":"饭小馆","lon":"121.48118","lat":"31.22416","category":"111","category_name":"休闲餐饮场所","address":"西藏南路279号-108室"},{"poiid":"B2094757D06BA5F94492","title":"Qbaker原味坊","lon":"121.481040138","lat":"31.2234625892","category":"247","category_name":"餐饮美食","address":"上海西藏南路西门町10室"},{"poiid":"B2094757D065A0FD449A","title":"桃源新村","lon":"121.481292738","lat":"31.2232491513","category":"47","category_name":"住宅区","address":"上海淮海东路89弄"},{"poiid":"B209475DD36BABFD449F","title":"赵小姐不等位","lon":"121.482887","lat":"31.221059","category":"500","category_name":"未知分类","address":"上海市 上海市卢湾区太仓路79号"},{"poiid":"B2094757D168A5F4499F","title":"上海文汇工程咨询有限公司","lon":"121.484296038","lat":"31.2222114292","category":"46","category_name":"楼宇","address":"上海市黄浦区人民路998号金天地国际大厦3A"},{"poiid":"B2094757D66EAAFA4698","title":"虹梅小龙虾","lon":"121.482094","lat":"31.223783","category":"247","category_name":"餐饮美食","address":"上海寿宁路27号"},{"poiid":"B2094757D06BA6FA4799","title":"肯德基常熟店","lon":"121.48379748","lat":"31.221551265","category":"500","category_name":"未知分类","address":"上海常熟路地铁站"},{"poiid":"B2094757D169AAFC4792","title":"广记粤菜小厨","lon":"121.481139915","lat":"31.2249773137","category":"72","category_name":"广东菜","address":"卢湾区桃源路43号(近西藏南路)"},{"poiid":"B2094753D564A3FE4398","title":"上海财经大学","lon":"121.480422","lat":"31.222396","category":"500","category_name":"未知分类","address":"上海市 国定路777号"},{"poiid":"B2094753D36EA7FF4999","title":"无限度龙虾","lon":"121.481654","lat":"31.223658","category":"68","category_name":"快餐厅","address":"寿宁路47号"},{"poiid":"B2094654DB6BA4F84899","title":"快客No.1195","lon":"121.48303","lat":"31.22151","category":"117","category_name":"便民商店/便利店","address":""},{"poiid":"B2094654DA6EABFB449E","title":"好德No.220","lon":"121.48164","lat":"31.22072","category":"117","category_name":"便民商店/便利店","address":"自忠路2-4"},{"poiid":"B2094655D26FA1F8489E","title":"王家小吃","lon":"121.48241","lat":"31.22402","category":"68","category_name":"快餐厅","address":"上海寿宁路18号"},{"poiid":"B2094454D168A5F5479E","title":"上海城市草坪音乐广场","lon":"121.48175","lat":"31.22472","category":"250","category_name":"公园户外","address":"上海市 黄浦区延安东路523号"},{"poiid":"B2094750D565A2F9439A","title":"長樂路","lon":"121.481567","lat":"31.224779","category":"500","category_name":"未知分类","address":"長樂路，都市風情"},{"poiid":"B2094757D064A6FF439B","title":"豫园方浜中路","lon":"121.48439403","lat":"31.22228863","category":"500","category_name":"未知分类","address":"上海松雪街"},{"poiid":"B209475DD665A6FE4093","title":"The 7th Floor","lon":"121.484153","lat":"31.224304","category":"248","category_name":"生活娱乐","address":"上海市 淮海中路8号兰生大厦7楼"},{"poiid":"B2094757D165AAFF4193","title":"刘氏烧烤","lon":"121.48102163","lat":"31.222894843","category":"247","category_name":"餐饮美食","address":"上海寿宁路62号"},{"poiid":"B2094655D26CA7F4419E","title":"慎余里(会稽路)","lon":"121.48225","lat":"31.22225","category":"47","category_name":"住宅区","address":"会稽路45弄1-35号"},{"poiid":"B2094757D164A2FA479E","title":"寿宁路6号","lon":"121.48107333","lat":"31.220904101","category":"500","category_name":"未知分类","address":"上海香巴岛。。从好位子换到了坏位子。。坑爹。。。"},{"poiid":"B2094757D16CA7F8489D","title":"浦发银行(永银大厦支行)","lon":"121.48082","lat":"31.22393","category":"500","category_name":"未知分类","address":"黄浦区西藏南路218号(桃源路西藏南路)"},{"poiid":"B2094753D769A0FA499F","title":"宝山万达","lon":"121.480422","lat":"31.222398","category":"500","category_name":"未知分类","address":"上海市 128纪念路"},{"poiid":"B2094654DA6EA5FC469D","title":"童涵春堂上海西门药房","lon":"121.4829","lat":"31.22357","category":"162","category_name":"医院","address":"人民路950"},{"poiid":"B2094654DA6EABFB419D","title":"上海药房香山堂国药号","lon":"121.48105","lat":"31.22326","category":"162","category_name":"医院","address":"黄浦区西藏南路280号(柳林路寿宁路)"},{"poiid":"B2094655D26EABFC409E","title":"海国酒家","lon":"121.48520333007","lat":"31.219041314901","category":"257","category_name":"中餐厅","address":"中华路1616号"},{"poiid":"B209475CD56AAAFA4892","title":"辛香汇","lon":"121.483184","lat":"31.224903","category":"500","category_name":"未知分类","address":"上海市 亚龙国际广场4楼"},{"poiid":"B2094654DA6EABFB469F","title":"如意坊","lon":"121.48108","lat":"31.22177","category":"47","category_name":"住宅区","address":"浏河口路4弄1-2号"},{"poiid":"B209475CD46CA3FC499F","title":"Lane Crawford","lon":"121.483367","lat":"31.222442","category":"500","category_name":"未知分类","address":"上海市 上海市淮海中路99号"},{"poiid":"B2094655D265ABF8489C","title":"恒安坊","lon":"121.48259","lat":"31.22101","category":"47","category_name":"住宅区","address":"方浜西路61弄3-5号、63弄1-59号"},{"poiid":"B2094655D268A3FF4598","title":"永华","lon":"121.48284","lat":"31.22167","category":"47","category_name":"住宅区","address":"方浜西路38弄1-34号"},{"poiid":"B2094654DA6EA6F54899","title":"新乐里南街(西门)","lon":"121.48225","lat":"31.22161","category":"47","category_name":"住宅区","address":"西藏南路439弄4-17号"},{"poiid":"B2094654DA6EA6F5499B","title":"明月坊(南门)","lon":"121.48265","lat":"31.22168","category":"47","category_name":"住宅区","address":"方浜西路48弄1-5号"},{"poiid":"B2094655D268A3FF4599","title":"永华(南门)","lon":"121.48292","lat":"31.22148","category":"47","category_name":"住宅区","address":"方浜西路38弄1-34号"},{"poiid":"B2094655D268A7F54292","title":"人民路958弄小区(东门)","lon":"121.48294","lat":"31.22337","category":"47","category_name":"住宅区","address":"人民路958弄1-34"},{"poiid":"B2094655D26CA7F44292","title":"树新里","lon":"121.48239","lat":"31.22385","category":"47","category_name":"住宅区","address":"寿宁路15弄1-6号"},{"poiid":"B2094655D26FA5FF439E","title":"明月坊","lon":"121.48269","lat":"31.221506","category":"47","category_name":"住宅区","address":"方浜西路48弄1-5号"},{"poiid":"B2094757D065ABF9479A","title":"柳林电信局","lon":"121.48031616","lat":"31.223016738","category":"500","category_name":"未知分类","address":"上海市卢湾区柳林路158号"},{"poiid":"B2094655D26CA7F4439B","title":"银河里(会稽路)","lon":"121.48284","lat":"31.22234","category":"47","category_name":"住宅区","address":"会稽路19弄"},{"poiid":"B2094752D16EABFF489A","title":"衡山电影院","lon":"121.4829791","lat":"31.2227313","category":"178","category_name":"电影院","address":null},{"poiid":"B2094655D268ABFD439F","title":"华宝坊(南门)","lon":"121.48002","lat":"31.22237","category":"47","category_name":"住宅区","address":"崇德路2弄1-15号"},{"poiid":"B2094655D26CA7F4409B","title":"元声里","lon":"121.48073","lat":"31.22325","category":"47","category_name":"住宅区","address":"寿宁路71弄7-12号"},{"poiid":"B2094655D268A6F84093","title":"崇德坊(东门)","lon":"121.48288","lat":"31.2236","category":"47","category_name":"住宅区","address":"人民路948弄1-10号"},{"poiid":"B2094654DA6EA6F5459D","title":"余康里(北门)","lon":"121.48214","lat":"31.22346","category":"47","category_name":"住宅区","address":"寿宁路39弄1-19号"},{"poiid":"B2094655D264A5F94299","title":"银河里(北门)","lon":"121.48274","lat":"31.22266","category":"47","category_name":"住宅区","address":"会稽路19弄1-39号"},{"poiid":"B2094757D16FA2FA469F","title":"长生源养生粥","lon":"121.482647738","lat":"31.2243181741","category":"500","category_name":"未知分类","address":"上海市黄浦区寿宁路7号"},{"poiid":"B2094655D26FAAF5479A","title":"肇方弄15弄小区(西门)","lon":"121.48426","lat":"31.22151","category":"47","category_name":"住宅区","address":"肇方弄15弄1-12号"},{"poiid":"B2094655D268A7F5439A","title":"崇德坊","lon":"121.48271","lat":"31.22349","category":"47","category_name":"住宅区","address":"人民路948弄1-10号"},{"poiid":"B2094655D268A7F54293","title":"人民路958弄小区","lon":"121.48273","lat":"31.22332","category":"47","category_name":"住宅区","address":"人民路958弄1-34"},{"poiid":"B2094654DA6EA5FC4698","title":"万有全大境菜市场","lon":"121.48329","lat":"31.22227","category":"117","category_name":"便民商店/便利店","address":"人民路1018号"},{"poiid":"B2094753D46AAAF54993","title":"加州健身","lon":"121.482879","lat":"31.223312","category":"220","category_name":"运动场所","address":"上海市 淮海中路138号"},{"poiid":"B2094753D56DA3FC489F","title":"上海音乐学院","lon":"121.480415","lat":"31.222398","category":"500","category_name":"未知分类","address":"上海市 汾阳路20号"},{"poiid":"B2094654DA6EA6F5449B","title":"叶子造型(寿宁路)","lon":"121.48196","lat":"31.2239","category":"148","category_name":"美容美发店","address":""},{"poiid":"B209475CD16EAAFB429D","title":"上海师范大学奉贤校区","lon":"121.480438","lat":"31.222406","category":"500","category_name":"未知分类","address":"上海市 奉炮路"},{"poiid":"B2094654DA6EA6F5479F","title":"百帮社区理发店","lon":"121.48246","lat":"31.2226","category":"148","category_name":"美容美发店","address":"会稽路35"},{"poiid":"B2094757D16EA1F54593","title":"上海凡德宝马汽车展示厅","lon":"121.48430633","lat":"31.223512649","category":"500","category_name":"未知分类","address":"卢湾区淮海中路2号兰生大厦内(近西藏南路)"},{"poiid":"B209475CD26BA4F5489B","title":"上海人民公园","lon":"121.48043","lat":"31.222412","category":"500","category_name":"未知分类","address":"上海市 人民大道10000号"},{"poiid":"B2094753D769A7FF439E","title":"星怡会","lon":"121.48175","lat":"31.223285","category":"500","category_name":"未知分类","address":"上海市 淮海中路138号 无限度广场"},{"poiid":"B209475CD265A3FF449F","title":"松江大学城","lon":"121.480415","lat":"31.222398","category":"500","category_name":"未知分类","address":"上海市 松江大学城"},{"poiid":"B2094753D76AAAFA499F","title":"佘山","lon":"121.480438","lat":"31.222412","category":"500","category_name":"未知分类","address":"上海市 佘山"},{"poiid":"B209475CD26DA5FB4998","title":"上海奉贤","lon":"121.48043","lat":"31.222408","category":"500","category_name":"未知分类","address":"上海市 上海市奉贤区金钱公路3469晨光文具"},{"poiid":"B209475CD66AAAF5459B","title":"上海","lon":"121.480438","lat":"31.222414","category":"500","category_name":"未知分类","address":"上海市 浦东新区"},{"poiid":"B2094654DA6EAAFF409C","title":"快印先生","lon":"121.48051","lat":"31.22311","category":"138","category_name":"家电电子卖场","address":"卢湾区柳林路109-2号(崇德路柳林路)"},{"poiid":"B2094753D56EA3FE429F","title":"上海陆家嘴","lon":"121.48043","lat":"31.22241","category":"500","category_name":"未知分类","address":"上海市 汇豪天下"},{"poiid":"B2094757D16CA5F54499","title":"麦德龙淮海中路城中店","lon":"121.480323738","lat":"31.2237320116","category":"500","category_name":"未知分类","address":"上海西藏南路228号永银大厦2楼"},{"poiid":"B209475CD76CA5FB439C","title":"上海大舞台","lon":"121.480438","lat":"31.222412","category":"500","category_name":"未知分类","address":"上海市 上海"},{"poiid":"B2094750D66CA0F44792","title":"汶水路","lon":"121.481437","lat":"31.221202","category":"500","category_name":"未知分类","address":null},{"poiid":"B2094752D364A7FE469C","title":"星尚龙虾馆","lon":"121.48183","lat":"31.2239","category":"68","category_name":"快餐厅","address":"卢湾区寿宁路45号(近淮海路)"},{"poiid":"B2094757D66DA0FF479A","title":"11路小北门站","lon":"121.481205","lat":"31.224895","category":"500","category_name":"未知分类","address":"上海人民路淮海东路"},{"poiid":"B2094753D569A6FC4098","title":"新元素","lon":"121.48056","lat":"31.224348","category":"500","category_name":"未知分类","address":"上海市 西藏南路"},{"poiid":"B2094750D165A5F84393","title":"中国银行(人民路支行)","lon":"121.482963","lat":"31.223007","category":"150","category_name":"银行","address":"黄浦区人民路998号"},{"poiid":"B2094654DA6EA6F54798","title":"梅兰竹菊","lon":"121.48281","lat":"31.22269","category":"175","category_name":"棋牌室","address":"会稽路17"},{"poiid":"B2094757D66EA7F9439B","title":"法国大使官邸","lon":"121.48423021","lat":"31.22407148","category":"500","category_name":"未知分类","address":"上海淮海中路1430号"},{"poiid":"B2094757D064A0FD4392","title":"泰和保健按摩","lon":"121.48326","lat":"31.22289","category":"149","category_name":"洗浴推拿场所","address":"上海黄浦区人民路998号金天地国际大厦1楼(近老西门)"},{"poiid":"B2094757D169ABFA4393","title":"无限度新概念造型","lon":"121.481659","lat":"31.223731","category":"148","category_name":"美容美发店","address":"上海寿宁路47号"},{"poiid":"B209475CDA65A5FD4993","title":"淮海公园","lon":"121.481681","lat":"31.222011","category":"196","category_name":"公园","address":"上海市 上海市黄浦区淮海公园"},{"poiid":"B209475CD76BA5F5489A","title":"徐汇区","lon":"121.480438","lat":"31.222415","category":"500","category_name":"未知分类","address":"上海市 梅陇路130号"},{"poiid":"B209475CD665ABFE4492","title":"Shanghai LaneCrawford","lon":"121.483016","lat":"31.224313","category":"500","category_name":"未知分类","address":"上海市 上海市淮海中路93號"},{"poiid":"B2094753D665A7F94698","title":"上海杉达学院","lon":"121.48043","lat":"31.222406","category":"253","category_name":"校园生活","address":"上海市 金海路2727号"},{"poiid":"B2094752D56DA7FE4093","title":"哈根达斯","lon":"121.48153","lat":"31.224184","category":"263","category_name":"公司","address":null},{"poiid":"B2094757D169A0FB439C","title":"中国工商银行(云南南路支行)","lon":"121.48297","lat":"31.225","category":"150","category_name":"银行","address":"黄浦区人民路864号近云南南路(青莲街人民路)"},{"poiid":"B2094757D165A7F54392","title":"万商二手货交易市场","lon":"121.483425961","lat":"31.2228265711","category":"249","category_name":"购物服务","address":"上海人民路1028号"},{"poiid":"B2094757D16DA7FD4592","title":"民生银行卢湾支行","lon":"121.481844071","lat":"31.224674856","category":"500","category_name":"未知分类","address":"上海西藏南路218号"},{"poiid":"B2094757D16BA7FD419B","title":"Pioneer DJ","lon":"121.48252105","lat":"31.223079681","category":"500","category_name":"未知分类","address":"上海無限度廣場"},{"poiid":"B2094757D66CA6FE4692","title":"极乐净土","lon":"121.48153273","lat":"31.222808141","category":"500","category_name":"未知分类","address":"阿格龙河尽头"},{"poiid":"B2094757D66EA4F8469E","title":"香吧岛","lon":"121.48234","lat":"31.224005","category":"500","category_name":"未知分类","address":"上海灵岩南路336号(近海阳路口)"},{"poiid":"B2094757D66DAAFE479C","title":"良渚文化村","lon":"121.48286573","lat":"31.220787098","category":"500","category_name":"未知分类","address":"上海杭州市余杭区良渚"},{"poiid":"B2094757D16FA5F9419A","title":"德瑞姆","lon":"121.484256276","lat":"31.2243330251","category":"500","category_name":"未知分类","address":"上海淮海中路99号恒积大厦7楼"},{"poiid":"B2094757D168A7FA479B","title":"罗森便利 西门厅","lon":"121.48105073","lat":"31.222899143","category":"500","category_name":"未知分类","address":"上海市西藏南路251号"},{"poiid":"B2094757D16EA7FB429D","title":"781(西藏南路淮海东路)","lon":"121.481041538","lat":"31.2228724433","category":"500","category_name":"未知分类","address":"上海西藏南路淮海东路"},{"poiid":"B2094757D568ABF9449D","title":"自然派","lon":"121.48100233","lat":"31.2244892","category":"249","category_name":"购物服务","address":"黄浦区西藏南路251号(桃源路西藏南路)"},{"poiid":"B2094757D168A1F9419A","title":"金家坊99号","lon":"121.484690638","lat":"31.2228027418","category":"500","category_name":"未知分类","address":null},{"poiid":"B2094757D66EA5FF439F","title":"studio rgb","lon":"121.48251073","lat":"31.22510619","category":"500","category_name":"未知分类","address":"上海市黄浦区人民路885号淮海中华大厦"},{"poiid":"B2094654DA6EAAFF419F","title":"中国民生银行财富管理中心(上海)","lon":"121.48038","lat":"31.22423","category":"150","category_name":"银行","address":"桃源路85号永银大厦1101"},{"poiid":"B2094757D16AA4FF4398","title":"平平","lon":"121.48063873","lat":"31.223585158","category":"500","category_name":"未知分类","address":"上海寿宁路21号"},{"poiid":"B2094757D069A2F4429B","title":"莲池餐厅","lon":"121.48237609","lat":"31.222545623","category":"500","category_name":"未知分类","address":"上海淮海中路99号时代广场地下一层"},{"poiid":"B2094757D16CA3F94398","title":"谋生地","lon":"121.481783738","lat":"31.2236991609","category":"500","category_name":"未知分类","address":"上海市老卢湾区"},{"poiid":"B2094757D66FA3F9449F","title":"桃园新村","lon":"121.481030738","lat":"31.2233231529","category":"252","category_name":"楼宇机构","address":"上海淮海东路89弄"},{"poiid":"B2094757D66CAAFC489B","title":"日本制品安全协会 中国联络所","lon":"121.480084838","lat":"31.2222635303","category":"252","category_name":"楼宇机构","address":"上海新华路200号"},{"poiid":"B2094655D264A4FD409B","title":"FandiStyle","lon":"121.48117","lat":"31.22203","category":"248","category_name":"生活娱乐","address":"西藏南路312-314号"},{"poiid":"B2094757D66CA3FF489C","title":"北京诺瑞广告有限公司上海分公司","lon":"121.48222265","lat":"31.222946194","category":"263","category_name":"公司","address":"上海人民路998号金天地国际大厦507室"},{"poiid":"B2094750D364A6FD499B","title":"零点研究咨询集团金融研究部","lon":"121.48321837042","lat":"31.220919124886","category":"633","category_name":"商务服务类公司","address":"中华路1600号黄埔中心"},{"poiid":"B2094757D06EAAF9499D","title":"周老师的店","lon":"121.48105167","lat":"31.224713557","category":"260","category_name":"其他","address":"黄浦区淮海东路99号新尚数码广场2楼A3商铺(近西藏南路)"},{"poiid":"B2094757D16CAAF94392","title":"腊八er","lon":"121.483812","lat":"31.224748","category":"260","category_name":"其他","address":"北京每年的十二月初八"},{"poiid":"B2094655D268A6FB4393","title":"桃源新村(东门)","lon":"121.48212","lat":"31.22506","category":"656","category_name":"大门","address":""},{"poiid":"B2094654DA6EA5FC409D","title":"恒安坊(北门)","lon":"121.48271","lat":"31.2207","category":"656","category_name":"大门","address":"方浜西路63弄1-59号"},{"poiid":"B2094655D26FABFD479A","title":"恒安坊(西门)","lon":"121.48206","lat":"31.22066","category":"656","category_name":"大门","address":""}]