[{"poiid":"B2094655D26DA3FF4098","title":"海底捞火锅(长寿路)","lon":"121.43672","lat":"31.24008","category":"86","category_name":"火锅店","address":"普陀区长寿路468号中环大厦4楼(近常德路)"},{"poiid":"B2094654DA6CA6F44798","title":"上海市经济管理学校","lon":"121.43595","lat":"31.24326","category":"52","category_name":"高等院校","address":"普陀区澳门路726号(澳门路西康路)"},{"poiid":"B2094750D26DA1F84793","title":"巴黎春天陕西路店","lon":"121.433885","lat":"31.240546","category":"249","category_name":"购物服务","address":"普陀区长寿路155号(近陕西北路)"},{"poiid":"B209475CD564A7F8439E","title":"上海滩中信泰富店","lon":"121.45602","lat":"31.22851","category":"119","category_name":"商场","address":"\"南京西路1168号中信泰富广场，店铺号221.\r\n\""},{"poiid":"B2094655D36CA4FD459A","title":"澳门路","lon":"121.4364","lat":"31.24344","category":"38","category_name":"公交车站","address":""},{"poiid":"B2094757D069A0F84592","title":"上海第二工业大学普陀分校","lon":"121.43386241","lat":"31.243561991","category":"52","category_name":"高等院校","address":"普陀区宜昌路575号(近常德路)"},{"poiid":"B2094757D068A4F5419D","title":"长寿新村","lon":"121.435475","lat":"31.24206","category":"47","category_name":"住宅区","address":"上海普陀区常德路常德路1298弄"},{"poiid":"B2094655D36CA4FD459B","title":"澳门路常德路","lon":"121.43599","lat":"31.24244","category":"38","category_name":"公交车站","address":""},{"poiid":"B2094757D06BA6F84098","title":"上青佳园","lon":"121.43655","lat":"31.241903","category":"47","category_name":"住宅区","address":"上海市普陀区常德路1258弄"},{"poiid":"B2094757D068A1FC4598","title":"碧真大饭店","lon":"121.436756","lat":"31.24007","category":"90","category_name":"清真餐馆","address":"普陀区长寿路468号中环大厦3楼(近常德路)"},{"poiid":"B2094654DA6CA6FB4092","title":"同济大学第二附属中学","lon":"121.43592","lat":"31.23948","category":"55","category_name":"中学","address":"上海普陀区胶州路1006号(亚新生活广场对面)"},{"poiid":"B2094757D068A3FD4593","title":"绿洲城市花园","lon":"121.43385","lat":"31.24065","category":"47","category_name":"住宅区","address":"上海市普陀区延长西路781弄"},{"poiid":"B2094750D66DA1FF4393","title":"中山公园龙之梦","lon":"121.433601","lat":"31.239887","category":"249","category_name":"购物服务","address":"G-STAR店"},{"poiid":"B2094654DA6CA6F9479F","title":"大众河滨大厦","lon":"121.436","lat":"31.2409","category":"47","category_name":"住宅区","address":"上海市普陀区宁夏路335号"},{"poiid":"B2094757D568A5FA479E","title":"金昌商务中心","lon":"121.4347917","lat":"31.24172092","category":"46","category_name":"楼宇","address":"常德路1339号"},{"poiid":"B2094751D568A5FF4593","title":"COSTA COFFEE","lon":"121.43713","lat":"31.24069","category":"65","category_name":"咖啡厅","address":"普陀区长寿路155号巴黎春天1楼(近长寿公园)"},{"poiid":"B2094654DA6CA6FB499B","title":"德怡苑","lon":"121.43269","lat":"31.242489","category":"47","category_name":"住宅区","address":"上海常德路1393弄"},{"poiid":"B2094654DB69A4FB419C","title":"重庆鸡公煲(长寿路店)","lon":"121.43553","lat":"31.24166","category":"71","category_name":"四川菜","address":"普陀区西康路1099号(近长寿路)"},{"poiid":"B2094750DA64A5F8489D","title":"金穗园砂锅粥","lon":"121.43692","lat":"31.240306","category":"72","category_name":"广东菜","address":"普陀区长寿路432号V6美食城2楼(近常德路)"},{"poiid":"B2094757D569A6FE419E","title":"村夫烤鱼吉祥店","lon":"121.436111","lat":"31.242195","category":"71","category_name":"四川菜","address":"普陀区澳门路739号(近常德路)"},{"poiid":"B2094757D06AA7FD469D","title":"京世美容美发连锁机构(澳门店)","lon":"121.43608","lat":"31.24184","category":"148","category_name":"美容美发店","address":"上海普陀区澳门路729号(近常德路)  "},{"poiid":"B2094655D26DABF4469A","title":"上海沪西清真寺(南门)","lon":"121.43454","lat":"31.24232","category":"680","category_name":"楼宇机构","address":"常德路1328弄3"},{"poiid":"B2094757DA6EABFD4693","title":"芋贵人甜品店(长寿路店)","lon":"121.437135999998","lat":"31.2406980000001","category":"67","category_name":"甜品店","address":"普陀区长寿路432号纬陆时尚广场1楼108商铺(亚新生活广场对面)"},{"poiid":"B2094750D76EA2F9439F","title":"小东北兄弟烧烤","lon":"121.436","lat":"31.2423","category":"68","category_name":"快餐厅","address":"普陀区澳门路733号(近常德路)"},{"poiid":"B2094757D66DA0F44499","title":"常澳馨苑","lon":"121.435844286","lat":"31.2415291521","category":"47","category_name":"住宅区","address":"上海普陀区常德路1309弄"},{"poiid":"B2094757D66DA3F5499E","title":"上海新格格美甲接发馆","lon":"121.434359286","lat":"31.2417001555","category":"148","category_name":"美容美发店","address":"上海市普陀区长寿路468号后门"},{"poiid":"B2094750D664A7F9489B","title":"大佛串串香","lon":"121.436","lat":"31.2436","category":"68","category_name":"快餐厅","address":"普陀区澳门路701号(近西康路华厦银行)"},{"poiid":"B2094757DA6BA6FA429A","title":"双子杰座","lon":"121.434494","lat":"31.24304","category":"47","category_name":"住宅区","address":"嘉定区金沙江路3131号(近新郁路)"},{"poiid":"B2094750D76CA4F8469D","title":"东方既白(长寿路店)","lon":"121.437","lat":"31.2407","category":"68","category_name":"快餐厅","address":"普陀区长寿路432号1楼B座(近常德路)"},{"poiid":"B2094654DA6CA6FB499A","title":"银座花苑","lon":"121.4338","lat":"31.24201","category":"47","category_name":"住宅区","address":"常德路1349、1359、1369"},{"poiid":"B2094655D26CABF94892","title":"雅仙阁","lon":"121.43421","lat":"31.24081","category":"66","category_name":"茶艺馆","address":"普陀区澳门路872弄10号乙栋(近胶州路)"},{"poiid":"B2094655D26DA0F9469C","title":"长寿新村(东门)","lon":"121.43583","lat":"31.24231","category":"47","category_name":"住宅区","address":"常德路1298弄"},{"poiid":"B2094757D169A1FF4893","title":"北京西路胶州路","lon":"121.43416993","lat":"31.24194716","category":"500","category_name":"未知分类","address":"上海静安区北京西路胶州路"},{"poiid":"B2094654DA6CA6F4489E","title":"澳门公寓","lon":"121.43563","lat":"31.24267","category":"47","category_name":"住宅区","address":"澳门路759弄1-6号"},{"poiid":"B2094757D16CABFE4993","title":"莫泰168(澳门路店)","lon":"121.436391","lat":"31.242958","category":"500","category_name":"未知分类","address":"普陀区澳门路715号(近常德路)"},{"poiid":"B2094757D569A6FD429B","title":"麦莎SPA会所","lon":"121.43619249","lat":"31.24245416","category":"148","category_name":"美容美发店","address":"中国上海市普陀区澳门路703"},{"poiid":"B2094757D569A1F94892","title":"回民幼儿园(常德路)","lon":"121.43427789","lat":"31.24296956","category":"57","category_name":"幼儿园","address":"普陀区常德路1328弄4号(近长寿路)"},{"poiid":"B2094655D26CABF9489F","title":"常澳馨苑(南门)","lon":"121.43537","lat":"31.24085","category":"47","category_name":"住宅区","address":""},{"poiid":"B2094757D168A5FA4999","title":"常德路糍饭早点摊","lon":"121.435992","lat":"31.242444","category":"247","category_name":"餐饮美食","address":"上海常德路近澳门路"},{"poiid":"B2094757D16BA3FF429C","title":"康怡苑","lon":"121.43366","lat":"31.243172","category":"47","category_name":"住宅区","address":"常德路1344弄1-3号"},{"poiid":"B2094655D264A7F5439C","title":"京世美容养生会馆","lon":"121.43622","lat":"31.24249","category":"148","category_name":"美容美发店","address":"澳门路729"},{"poiid":"B2094654DA6CA6F4489F","title":"澳门公寓(南门)","lon":"121.43596","lat":"31.24285","category":"47","category_name":"住宅区","address":"澳门路756弄1-6号"},{"poiid":"B2094753D56CA4FA449E","title":"上海师范大学徐汇校区","lon":"121.435951","lat":"31.241973","category":"500","category_name":"未知分类","address":"上海市 桂林路"},{"poiid":"B2094654DB6BA5FC479A","title":"益丰大药房常德路店","lon":"121.43611","lat":"31.24106","category":"162","category_name":"医院","address":"普陀区常德路1261号(近长寿路)"},{"poiid":"B2094757D16BA5FA4693","title":"瑞丽美甲","lon":"121.436161586","lat":"31.2429476799","category":"122","category_name":"个人用品/化妆品店","address":"普陀区长寿路432号V6时尚服饰城1楼(亚新生活广场对面)"},{"poiid":"B2094654DB69A6FC459A","title":"邮政储蓄普陀支所","lon":"121.43588","lat":"31.24138","category":"150","category_name":"银行","address":"普陀区常德路1269号"},{"poiid":"B2094654DA6CA6F4479B","title":"上海第二工业大学普陀校区","lon":"121.43595","lat":"31.24326","category":"52","category_name":"高等院校","address":"普陀区澳门路726号"},{"poiid":"B2094655D26BA5FA439F","title":"纺欣小区(西门)","lon":"121.43555","lat":"31.24076","category":"47","category_name":"住宅区","address":"长寿路518弄17-21号"},{"poiid":"B2094654DB6BA5FC4692","title":"常德大厦C座","lon":"121.43643","lat":"31.24082","category":"46","category_name":"楼宇","address":"常德路1239"},{"poiid":"B2094757D66EA6F8479C","title":"沪西清真寺(常德路近澳门路口)","lon":"121.43514758","lat":"31.242847677","category":"500","category_name":"未知分类","address":"上海市普陀区常德路1328弄3号"},{"poiid":"B2094654DB6BA5FC4798","title":"银座花苑(北门)","lon":"121.43364","lat":"31.24242","category":"47","category_name":"住宅区","address":"常德路1349、1359、1369"},{"poiid":"B209475DD16BA1FA4499","title":"小芳廷","lon":"121.434608","lat":"31.239797","category":"500","category_name":"未知分类","address":"上海市 长寿路652号上海国际时尚教育园区K栋(近胶州路)"},{"poiid":"B2094655D26DA3FC479F","title":"嘉年华(澳门路)","lon":"121.43624","lat":"31.24258","category":"47","category_name":"住宅区","address":""},{"poiid":"B2094757D06BABFF459B","title":"紫云养生足道馆","lon":"121.43660758","lat":"31.242075662","category":"149","category_name":"洗浴推拿场所","address":"上海市普陀区长寿路432号3楼"},{"poiid":"B2094655D26FA5FE429F","title":"上海市经济管理学校(南门)","lon":"121.43606","lat":"31.24311","category":"52","category_name":"高等院校","address":"澳门路726号"},{"poiid":"B2094752D268ABF94098","title":"Exit真人密室逃脱（亚新广场店）","lon":"121.432611","lat":"31.241022","category":"248","category_name":"生活娱乐","address":"上海市普陀区长寿路393号昆仑大厦1107室"},{"poiid":"B2094757D169AAFB429E","title":"皇朝酒店","lon":"121.436777","lat":"31.240123","category":"217","category_name":"旅馆招待所","address":"上海长寿路"},{"poiid":"B2094654DB69A6F94192","title":"星光名门","lon":"121.436458","lat":"31.240823","category":"47","category_name":"住宅区","address":"星光名门位于普陀长寿路892号"},{"poiid":"B2094757D568A6FC499E","title":"澳门路小区(东门)","lon":"121.43589762","lat":"31.24319255","category":"47","category_name":"住宅区","address":"澳门路736弄1-12号"},{"poiid":"B2094757D16AAAFE499B","title":"Carr髮屋","lon":"121.43595858","lat":"31.242429669","category":"148","category_name":"美容美发店","address":"上海普陀區江寧路1115號(近新會路)"},{"poiid":"B2094757D06BAAF9489B","title":"大众河滨酒店式公寓","lon":"121.437","lat":"31.2409","category":"217","category_name":"旅馆招待所","address":"普陀区长寿路888号(近武宁南路)"},{"poiid":"B2094655D264A5FE419F","title":"纺欣小区","lon":"121.43599","lat":"31.24055","category":"47","category_name":"住宅区","address":"长寿路518弄17-21号"},{"poiid":"B2094655D26AA5FB4893","title":"淘淘俐俐婴幼儿成长苑","lon":"121.43677","lat":"31.24117","category":"247","category_name":"餐饮美食","address":"普陀区常德路1256号5楼(近长寿路)"},{"poiid":"B2094654DA6CA6FB4792","title":"光明便利No.367","lon":"121.43685","lat":"31.24115","category":"117","category_name":"便民商店/便利店","address":"常德路1256"},{"poiid":"B2094654DA6CA6FB479B","title":"上海山隆实业有限公司(常德路)","lon":"121.43605","lat":"31.24095","category":"263","category_name":"公司","address":"静安区常德路1267号兴运大厦6楼(近长寿路)"},{"poiid":"B2094757D06AA5FC409C","title":"海底撈火鍋","lon":"121.4367218","lat":"31.240156173","category":"247","category_name":"餐饮美食","address":"中国上海市普陀區長壽路468号"},{"poiid":"B2094757D164A1F9419E","title":"苏堤春晓","lon":"121.437","lat":"31.2426","category":"47","category_name":"住宅区","address":"上海市普陀区武宁支路"},{"poiid":"B209475CD464A2F8409F","title":"上海K歌","lon":"121.435791","lat":"31.240329","category":"500","category_name":"未知分类","address":"上海市 胶州路954号"},{"poiid":"B2094757D168A2F44899","title":"E仓","lon":"121.43498213","lat":"31.240462933","category":"500","category_name":"未知分类","address":"上海普陀区宜昌路751号"},{"poiid":"B2094757D065A1F54093","title":"云都苑","lon":"121.43714","lat":"31.242903","category":"252","category_name":"楼宇机构","address":"上海市普陀区西康路1285号"},{"poiid":"B2094654DA6CA6FB469D","title":"上海同策房产咨询有限公司","lon":"121.43605","lat":"31.24096","category":"263","category_name":"公司","address":"常德路1261-1273号兴运大厦4层"},{"poiid":"B2094757D16BA4F54298","title":"磊磊家","lon":"121.43339258","lat":"31.24195466","category":"500","category_name":"未知分类","address":"上海市普陀区常德路"},{"poiid":"B209475DD36AA2FF469A","title":"辣嘴","lon":"121.436671","lat":"31.242694","category":"500","category_name":"未知分类","address":"上海市 西康路1048号"},{"poiid":"B2094757D064A5F4449B","title":"绿洲幼儿园","lon":"121.433878","lat":"31.239625","category":"57","category_name":"幼儿园","address":"普陀区胶州路1107号(近古井假日酒店)"},{"poiid":"B2094757D16CA5F94598","title":"长寿路街道办事处","lon":"121.434544","lat":"31.239523","category":"500","category_name":"未知分类","address":"上海胶州路1095号"},{"poiid":"B2094757D66DA7FE479E","title":"24路终点站","lon":"121.43316948","lat":"31.242339518","category":"500","category_name":"未知分类","address":"上海长寿新村"},{"poiid":"B2094655D26CABF9489D","title":"绿洲尧舜公寓(南门)","lon":"121.43467","lat":"31.24068","category":"48","category_name":"楼宇大门","address":""},{"poiid":"B2094750D66AA6FA499D","title":"全聚德","lon":"121.436882","lat":"31.243341","category":"247","category_name":"餐饮美食","address":"香港中路12号丰合广场A区1-2楼(近邮电宾馆)"},{"poiid":"B2094654DB65A6FB489D","title":"上海第二工业大学普陀分校(西门)","lon":"121.43373","lat":"31.24399","category":"52","category_name":"高等院校","address":"宜昌路575"},{"poiid":"B2094655D26BA0FE4399","title":"苏堤春晓一期","lon":"121.437373","lat":"31.242407","category":"47","category_name":"住宅区","address":"上海市普陀区长寿路800弄"},{"poiid":"B2094655D26DA3FF4498","title":"上青佳园西门(澳门路)","lon":"121.43628","lat":"31.24272","category":"48","category_name":"楼宇大门","address":""},{"poiid":"B2094655D26AA3FF4998","title":"大公馆桌球俱乐部","lon":"121.43687","lat":"31.24025","category":"247","category_name":"餐饮美食","address":"普陀区长寿路432号麦迪森旁(近常德路)"},{"poiid":"B2094654DA6CA6F44693","title":"澳门家园","lon":"121.43555","lat":"31.24375","category":"47","category_name":"住宅区","address":"澳门路698弄1-12"},{"poiid":"B209475CD16CA4F8469B","title":"海底捞火锅店 长寿路店","lon":"121.43672","lat":"31.24015","category":"86","category_name":"火锅店","address":"长寿路468号中环大厦4楼(近常德路)"},{"poiid":"B2094752D56DA3FE4793","title":"吉吉靓甲美睫-常德路店","lon":"121.43641410346","lat":"31.240875685021","category":"248","category_name":"生活娱乐","address":"常德路1239号1102室"},{"poiid":"B2094757D164ABFD4293","title":"上海银行长寿支行","lon":"121.436988","lat":"31.241056","category":"150","category_name":"银行","address":"上海常德路1252号"},{"poiid":"B2094757D569A2FA439D","title":"西唯造型美容","lon":"121.43396837","lat":"31.24003689","category":"148","category_name":"美容美发店","address":"胶州路1118弄18-2"},{"poiid":"B2094757D16DA4F8469E","title":"Sega Vision(世嘉摄影)","lon":"121.43728138","lat":"31.241776657","category":"500","category_name":"未知分类","address":"上海市普陀区西康路1249弄泰极大厦39号202(近长寿路)"},{"poiid":"B2094757DA6BA6FE4298","title":"上海A座","lon":"121.433292","lat":"31.243334","category":"252","category_name":"楼宇机构","address":"嘉定区金沙江路3131号(近新郁路)"},{"poiid":"B2094654DA6CA6FB4898","title":"上青佳园(西门)","lon":"121.43663","lat":"31.24134","category":"48","category_name":"楼宇大门","address":"常德路1258弄"},{"poiid":"B2094757D16EABFF429A","title":"footmark龙之梦店","lon":"121.433858886","lat":"31.2402704275","category":"500","category_name":"未知分类","address":"上海龙之梦一楼"},{"poiid":"B2094757D569A1FC499D","title":"可的便利店(胶州路)","lon":"121.43335938","lat":"31.24026367","category":"117","category_name":"便民商店/便利店","address":"胶州路1118弄3之1-3"},{"poiid":"B2094654DA6CA6FB459F","title":"长寿社区党员服务中心(兴运大厦东南)","lon":"121.43646","lat":"31.24081","category":"248","category_name":"生活娱乐","address":"常德大厦(C座)6层"},{"poiid":"B2094654DA6CA6F4469B","title":"快客No.6489","lon":"121.43629","lat":"31.24379","category":"117","category_name":"便民商店/便利店","address":"西康路1367"},{"poiid":"B2094654DA6CA6FB449B","title":"麦迪森","lon":"121.43693","lat":"31.2404","category":"170","category_name":"KTV","address":"普陀区长寿路432号(常德路口)"},{"poiid":"B2094654DB6BA5FC479B","title":"康怡苑(南门)","lon":"121.43389","lat":"31.24264","category":"656","category_name":"大门","address":"常德路1344弄1-3号"},{"poiid":"B2094655D26AABFC4099","title":"帮帮车业服务有限公司","lon":"121.43667","lat":"31.24357","category":"247","category_name":"餐饮美食","address":"普陀区西康路1333号(近澳门路)"},{"poiid":"B2094752D568A1FB4698","title":"普陀区牙防诊所","lon":"121.435367","lat":"31.243751","category":"668","category_name":"诊所","address":"长寿路247号"},{"poiid":"B2094654DA6CA6FB4498","title":"锅品面吧No.009","lon":"121.43695","lat":"31.24045","category":"250","category_name":"公园户外","address":"普陀区长寿路652号(近古井假日酒店)"},{"poiid":"B2094750DA68A0FF4398","title":"上海滩国际会所","lon":"121.435859","lat":"31.239624","category":"500","category_name":"未知分类","address":"普陀区长寿路285号沙田大厦1-3楼(近叶家宅南路)"},{"poiid":"B2094757D06AA0FF4698","title":"星舞藝術工作室","lon":"121.436648","lat":"31.240143","category":"500","category_name":"未知分类","address":"上海普陀区长寿路468号中環商務大廈2001室"},{"poiid":"B2094654DA6CA6FB4499","title":"留园","lon":"121.43698","lat":"31.24051","category":"149","category_name":"洗浴推拿场所","address":"长寿路432号"},{"poiid":"B2094757DA6EA7F44999","title":"M.M.C声乐培训机构","lon":"121.436756000001","lat":"31.2401860000002","category":"253","category_name":"校园生活","address":"普陀区长寿路468号中环商务大厦2002室(近亚新生活广场)"},{"poiid":"B209475DD064A0FB419F","title":"La Petite Fontaine","lon":"121.434165","lat":"31.239618","category":"500","category_name":"未知分类","address":"上海市 上海市长寿路652号K栋"},{"poiid":"B2094654DA6CA6FB419C","title":"久方假日旅馆","lon":"121.43627","lat":"31.24004","category":"217","category_name":"旅馆招待所","address":"普陀区长寿路522号(近胶州路)"},{"poiid":"B2094654DA6CA6FB439D","title":"上海荟艺职业技能培训学校","lon":"121.43672","lat":"31.24016","category":"190","category_name":"培训机构","address":"普陀区长寿路468号中环商务大厦11楼(近常德路)"},{"poiid":"B2094757D16DABFC4798","title":"荣联公寓","lon":"121.43509","lat":"31.244143","category":"252","category_name":"楼宇机构","address":"浦东南桥路1152弄1-29号"},{"poiid":"B2094655D36CA3FA4793","title":"雅缘会所","lon":"121.43691","lat":"31.24322","category":"208","category_name":"休闲场所","address":"澳门路699号"},{"poiid":"B2094654DA6CA6F44998","title":"华夏银行上海普陀支行","lon":"121.43701","lat":"31.24324","category":"150","category_name":"银行","address":"静安区西康路1329号"},{"poiid":"B2094655D26EA6FE489C","title":"明仕瑜伽会所","lon":"121.43677","lat":"31.24012","category":"221","category_name":"健身中心","address":"普陀区长寿路468号5楼"},{"poiid":"B2094654DA6CA6FB4998","title":"德怡苑(南门)","lon":"121.43333","lat":"31.24279","category":"656","category_name":"大门","address":"常德路1393弄1-9号"},{"poiid":"B2094757D66DA3F54392","title":"武宁南路长寿路站","lon":"121.436996","lat":"31.24041","category":"500","category_name":"未知分类","address":"上海武宁南路460号门口"},{"poiid":"B2094654DB6BA5FC479D","title":"足浴(西康路)","lon":"121.43697","lat":"31.24323","category":"149","category_name":"洗浴推拿场所","address":""},{"poiid":"B2094750D76CA0FB499A","title":"研磨时光","lon":"121.437","lat":"31.2404","category":"260","category_name":"其他","address":"普陀区长寿路432号V6美食城2楼电梯口(近常德路)"},{"poiid":"B2094757D569A1FD4193","title":"长寿路街道社区事务受理服务中心","lon":"121.43452881","lat":"31.2394043","category":"248","category_name":"生活娱乐","address":"胶州路1087"},{"poiid":"B2094654DA6CA6FA479F","title":"宝华雅苑(东门)","lon":"121.43482","lat":"31.23929","category":"48","category_name":"楼宇大门","address":"胶州路1077弄"},{"poiid":"B2094654DA6CA6F44892","title":"云都苑(北门)","lon":"121.43672","lat":"31.24304","category":"656","category_name":"大门","address":"西康路1277弄8"},{"poiid":"B2094655D265A6FE459E","title":"康怡苑(西门)","lon":"121.43352","lat":"31.24378","category":"656","category_name":"大门","address":"常德路1344弄1-6号"}]