[{"poiid":"B2094655D269ABFD469B","title":"静安寺","lon":"121.44552","lat":"31.22324","category":"244","category_name":"寺庙道观","address":"静安区南京西路1686号(近静安寺)"},{"poiid":"B2094654DB6AA7FA449C","title":"久光百货","lon":"121.44649172139168","lat":"31.223597415059018","category":"119","category_name":"商场","address":"静安区南京西路1618号(近静安寺)"},{"poiid":"B2094655D26EA2FD4592","title":"巴厘岛","lon":"121.44594","lat":"31.22133","category":"110","category_name":"其他亚洲菜","address":"静安区华山路189号静安公园3号门(近延安路高架)"},{"poiid":"B2094753D76FAAFA449C","title":"上海滩国泰旗舰店","lon":"121.466011","lat":"31.216125","category":"249","category_name":"购物服务","address":"淮海中路868号"},{"poiid":"B209475CD564A7F84292","title":"上海滩新天地店","lon":"121.47463","lat":"31.22164","category":"119","category_name":"商场","address":"\"太仓路181弄新天地北里15号\r\n\""},{"poiid":"B209475CD564A7F8439E","title":"上海滩中信泰富店","lon":"121.45602","lat":"31.22851","category":"119","category_name":"商场","address":"\"南京西路1168号中信泰富广场，店铺号221.\r\n\""},{"poiid":"B2094655D26FA2FA429D","title":"越洋廣場","lon":"121.44767667724614","lat":"31.223172433526056","category":"249","category_name":"购物服务","address":"上海市静安区常德路"},{"poiid":"B2094757D06EAAFE429B","title":"会德丰国际广场(Wheelock Square)","lon":"121.44492732","lat":"31.221689318","category":"46","category_name":"楼宇","address":"上海静安区南京西路1717号"},{"poiid":"B2094757D06FA2FE479F","title":"哈根达斯(久光二店)","lon":"121.447189586","lat":"31.2235192998","category":"113","category_name":"冷饮店","address":"静安区南京西路1618号久光百货2楼S223号商铺(近静安寺)"},{"poiid":"B2094654DB69A7FD419B","title":"金桂皇朝","lon":"121.446597054","lat":"31.223581793","category":"72","category_name":"广东菜","address":"静安区南京西路1618号久光百货8楼806-7号(近静安寺)"},{"poiid":"B2094757D06EAAFF469B","title":"静安寺地铁站","lon":"121.446432","lat":"31.223208","category":"36","category_name":"地铁站","address":"上海轨道交通 二号线 七号线 轨交静安寺站 2 7"},{"poiid":"B2094757D069A5FF4299","title":"1788国际大厦(Eco City)","lon":"121.445082286","lat":"31.2224787794","category":"252","category_name":"楼宇机构","address":"上海南京西路1788号"},{"poiid":"B2094655D268A2FA409B","title":"多乐星 旗舰店 Donut King","lon":"121.445782054","lat":"31.222489793","category":"65","category_name":"咖啡厅","address":"静安区南京西路1649号静安公园内(久光百货对面)"},{"poiid":"B2094757D069A5FF469B","title":"蓝亭日本料理","lon":"121.445683586","lat":"31.223171293","category":"95","category_name":"日本料理","address":"静安区南京西路1618号久光百货B1层SB01号(近华山路)"},{"poiid":"B2094757D06FA7FA4899","title":"苏浙汇(静安店)","lon":"121.4476","lat":"31.22033","category":"76","category_name":"上海菜","address":"静安区延安中路1121号(近华山路)"},{"poiid":"B2094757D06BA4FC4493","title":"Windows久光店","lon":"121.446855586","lat":"31.2232922953","category":"500","category_name":"未知分类","address":"上海市静安区万航渡路"},{"poiid":"B2094757D06FA6F8499C","title":"小南国烧烤(久光店)","lon":"121.44737","lat":"31.22351","category":"95","category_name":"日本料理","address":"静安区南京西路1618号久光百货8楼(近静安寺)"},{"poiid":"B2094654D564ABFF489D","title":"我家餐厅 MY HOME","lon":"121.44573848552","lat":"31.219784895865","category":"76","category_name":"上海菜","address":"静安区华山路229弄7号(近延安西路)"},{"poiid":"B2094757D068A7FD4199","title":"釜山料理(越洋广场店)","lon":"121.447444586","lat":"31.2233062956","category":"247","category_name":"餐饮美食","address":"上海静安区南京西路1601号越洋广场B2楼"},{"poiid":"B2094757D06FA1F54799","title":"上海人家精作坊(航站店)","lon":"121.44726","lat":"31.22342","category":"76","category_name":"上海菜","address":"静安区南京西路1600号机场航站楼4楼(近常德路)"},{"poiid":"B2094750D76EA3FA4899","title":"寿司名人","lon":"121.446","lat":"31.2235","category":"95","category_name":"日本料理","address":"静安区南京西路1618号久光百货B1楼(近静安寺)"},{"poiid":"B2094757D065AAFD439C","title":"巴厘岛印尼东南亚餐厅","lon":"121.445717586","lat":"31.2222982759","category":"500","category_name":"未知分类","address":"上海市静安区华山路189号"},{"poiid":"B2094750DB64A1FE469A","title":"HENKES","lon":"121.44633","lat":"31.2229","category":"94","category_name":"西餐厅","address":"静安区南京西路1601号1楼E铺(近常德路)"},{"poiid":"B2094654DA6CA0F4439E","title":"静安寺(南门)","lon":"121.44562","lat":"31.22304","category":"656","category_name":"大门","address":"南京西路1686"},{"poiid":"B2094654DB6AA3F4489F","title":"潮楼","lon":"121.44588","lat":"31.22337","category":"72","category_name":"广东菜","address":"静安区南京西路1618号久光百货8楼(近静安寺)"},{"poiid":"B2094757D064A5F9439C","title":"Sabatini意大利餐厅","lon":"121.446666586","lat":"31.2211182528","category":"500","category_name":"未知分类","address":"南京西路1717号会德丰国际广场南苑1楼"},{"poiid":"B2094757D06FABFC459B","title":"鹤舞","lon":"121.44711","lat":"31.22347","category":"95","category_name":"日本料理","address":"静安区南京西路1618号久光百货8楼(近静安寺)"},{"poiid":"B2094757D46AA4F8469D","title":"COCO壱番屋 久光店","lon":"121.446597054","lat":"31.223581793","category":"95","category_name":"日本料理","address":"静安区南京西路1618号久光百货B1楼(近静安寺)"},{"poiid":"B2094757D068A3FD489E","title":"越洋广场美食街","lon":"121.446637586","lat":"31.2233442963","category":"260","category_name":"其他","address":"上海静安区南京西路1601号越洋广场B2"},{"poiid":"B2094757D06FA2F84799","title":"伊美时尚广场","lon":"121.44570962","lat":"31.222571385","category":"249","category_name":"购物服务","address":"静安区南京西路1699号伊美时尚广场内(近静安寺)"},{"poiid":"B209475CDA6CABF4429E","title":"myst","lon":"121.447692","lat":"31.220817","category":"500","category_name":"未知分类","address":"上海市 静安区延安中路"},{"poiid":"B2094757D568ABFA4998","title":"JACafe","lon":"121.44664","lat":"31.222799","category":"65","category_name":"咖啡厅","address":"中国上海市静安区南京西路"},{"poiid":"B2094750D76FAAFF429C","title":"PANKOO釜山料理(芮欧百货店)","lon":"121.446","lat":"31.2229","category":"96","category_name":"韩国料理","address":"静安区南京西路1601号芮欧百货B214室"},{"poiid":"B2094752D068A5FF479F","title":"RAT TAR ART BAR","lon":"121.446869","lat":"31.223206","category":"248","category_name":"生活娱乐","address":"南京西路1601号芮欧百货109室"},{"poiid":"B2094752D664A7F94498","title":"Henkes","lon":"121.44739","lat":"31.222622","category":"247","category_name":"餐饮美食","address":"芮欧百货"},{"poiid":"B2094757D465A5F44898","title":"泰湖 久光店","lon":"121.446597054","lat":"31.223581793","category":"68","category_name":"快餐厅","address":"静安区南京西路1618号久光百货B1楼(近静安寺)"},{"poiid":"B209475CD26FA2FC4392","title":"La Creperie","lon":"121.447349","lat":"31.223041","category":"500","category_name":"未知分类","address":"上海市 南京西路1601号芮欧百货1楼D座"},{"poiid":"B2094757D069A5FA4598","title":"纽约客匹萨 静安寺店 NEW YORK STYLE PIZZA","lon":"121.447439054","lat":"31.223316793","category":"94","category_name":"西餐厅","address":"静安区南京西路1699号伊美时尚广场J16号铺(近静安寺)"},{"poiid":"B2094757D06FA7F8449B","title":"静安寺下沉式广场","lon":"121.44625","lat":"31.22236","category":"119","category_name":"商场","address":"静安区南京西路(近华山路)"},{"poiid":"B2094757D068AAFA469B","title":"上海外事服务中心","lon":"121.44552897","lat":"31.220250877","category":"260","category_name":"其他","address":"静安区华山路228号上海国际贵都大饭店办公楼2-3楼"},{"poiid":"B2094757D068A0F5419C","title":"coffee bean","lon":"121.445521","lat":"31.223238","category":"65","category_name":"咖啡厅","address":"上海静安寺"},{"poiid":"B2094757D068A2FE419A","title":"檬舒舒 久光百货店","lon":"121.44637","lat":"31.223679","category":"67","category_name":"甜品店","address":"静安区南京西路1618号久光百货B1楼(近静安寺)"},{"poiid":"B209475CD16AA1FC459C","title":"艾米1895电影街","lon":"121.447013","lat":"31.222036","category":"178","category_name":"电影院","address":"上海市 上海市北京西路1829号4楼 靠近愚园路"},{"poiid":"B209475CD26DA4FE419A","title":"10·corso·como","lon":"121.445999","lat":"31.220499","category":"500","category_name":"未知分类","address":"上海市 南京西路1717号会德丰广场北院"},{"poiid":"B2094750D66CABFA429C","title":"筑地银章鱼烧Gindaco","lon":"121.447265","lat":"31.22351","category":"68","category_name":"快餐厅","address":"静安区南京西路1601号芮欧百货B2楼ReelKitchen内(近静安寺)"},{"poiid":"B2094750D664A7FF4992","title":"琥家拉面(芮欧百货店)","lon":"121.446","lat":"31.2229","category":"95","category_name":"日本料理","address":"静安区南京西路1601号芮欧百货B2楼"},{"poiid":"B2094757D065A0FA449D","title":"和洋膳房","lon":"121.445712336","lat":"31.2234012975","category":"247","category_name":"餐饮美食","address":"上海久光b1"},{"poiid":"B2094757D069A2F5479E","title":"和兴汤馆","lon":"121.44792946","lat":"31.221589774","category":"72","category_name":"广东菜","address":"静安区延安中路1123号(近富民路)"},{"poiid":"B2094757D069A6F84999","title":"复茂小龙虾(万航店)","lon":"121.44610058","lat":"31.222838286","category":"68","category_name":"快餐厅","address":"静安区万航渡路450号(近镇宁路)"},{"poiid":"B209475DD56FA6F44798","title":"晶采轩（芮欧百货店）","lon":"121.447303","lat":"31.222906","category":"247","category_name":"餐饮美食","address":"上海市 南京西路1601号芮欧百货3-4楼(近常德路)"},{"poiid":"B2094757D16EA0FA4492","title":"上海轨道交通7号线静安寺站","lon":"121.446467138","lat":"31.2231696015","category":"500","category_name":"未知分类","address":"上海南京西路靜安寺"},{"poiid":"B2094757D16DA4FD4699","title":"HOUSE.1","lon":"121.446165196","lat":"31.2228992376","category":"148","category_name":"美容美发店","address":"静安区南京西路1699号伊美时尚广场外z17号楼梯旁(近地铁2号线静安寺5号出口)"},{"poiid":"B2094757D068A1FF459D","title":"花园咖啡 Le Jardin Cafe","lon":"121.445855054","lat":"31.222117793","category":"260","category_name":"其他","address":"静安区南京西路1649号静安公园内(近静安寺)"},{"poiid":"B2094757D069A0F84593","title":"台北东一排骨","lon":"121.44672058","lat":"31.223368296","category":"68","category_name":"快餐厅","address":"静安区南京西路1601号芮欧百货B2楼(近静安寺)"},{"poiid":"B2094757D06AA5F8459B","title":"凯文厨房 Kaveen's Kitchen","lon":"121.44590921556","lat":"31.219920302393","category":"102","category_name":"印度风味","address":"静安区华山路231号2楼(近延安西路)"},{"poiid":"B2094757D06BA1FC489D","title":"Brats/Soup","lon":"121.445498086","lat":"31.2222802755","category":"68","category_name":"快餐厅","address":"静安区南京西路1618号久光百货B1楼"},{"poiid":"B2094751DB65A2FE4492","title":"元道日料","lon":"121.44631","lat":"31.22277","category":"95","category_name":"日本料理","address":"静安区南京西路555号三五大厦B1楼(近成都北路)"},{"poiid":"B2094654DB64A7FA419E","title":"山崎面包 久光店 Yamazaki","lon":"121.446597054","lat":"31.223581793","category":"112","category_name":"糕饼店","address":"静安区南京西路1618号久光百货B1楼(近静安寺)"},{"poiid":"B2094655D26AA0F94698","title":"地铁静安寺站","lon":"121.44643","lat":"31.22321","category":"36","category_name":"地铁站","address":""},{"poiid":"B2094750D768ABF9449C","title":"布歌东京(芮欧百货店)","lon":"121.446","lat":"31.2229","category":"67","category_name":"甜品店","address":"静安区南京西路1601号芮欧百货B2楼"},{"poiid":"B2094757D068A1FC4198","title":"赛百味(静安寺店)","lon":"121.448063","lat":"31.221935","category":"94","category_name":"西餐厅","address":"静安区南京西路1699号伊美时尚广场内(近静安寺)"},{"poiid":"B209475DD669A4FD4098","title":"Seesaw coffee","lon":"121.447776","lat":"31.223237","category":"247","category_name":"餐饮美食","address":"上海市 南京西路1601号越洋广场5楼(近常德路)"},{"poiid":"B2094757D06FA6FE4693","title":"薯我生活(越洋国际店)","lon":"121.44655158","lat":"31.223313295","category":"257","category_name":"中餐厅","address":"静安区南京西路1601号芮欧百货B2楼41号"},{"poiid":"B209475CD56FA1F9469D","title":"静安公园","lon":"121.446395","lat":"31.222377","category":"196","category_name":"公园","address":"上海市 静安公园"},{"poiid":"B2094757D064A5FB4799","title":"上海人家(久光店)","lon":"121.44659938","lat":"31.221167253","category":"247","category_name":"餐饮美食","address":"上海南京西路1640号4楼"},{"poiid":"B2094751D56EA3FB4399","title":"酷圣石(芮欧百货店)","lon":"121.44633","lat":"31.2229","category":"113","category_name":"冷饮店","address":"静安区南京西路1601号芮欧百货B207号(近静安寺站10号口)"},{"poiid":"B209475DD16AA0F9499B","title":"一风堂IPPUDO","lon":"121.448036","lat":"31.22286","category":"247","category_name":"餐饮美食","address":"上海市 静安嘉里城B1"},{"poiid":"B2094757D064A3FE409D","title":"越旺PHO26(越洋广场店)","lon":"121.44671458","lat":"31.223364296","category":"99","category_name":"泰国／越南菜品餐厅","address":"静安区南京西路1601号芮欧百货B223号(近地铁二号线静安寺站10号口)"},{"poiid":"B209475DD46AA6FC449C","title":"祥兴记生煎","lon":"121.448509","lat":"31.222238","category":"247","category_name":"餐饮美食","address":"上海市 万航渡路7号(近愚园路)"},{"poiid":"B209475DD264A0FC4298","title":"10 Corso Como","lon":"121.445007","lat":"31.222303","category":"500","category_name":"未知分类","address":"上海市 南京西路1717号"},{"poiid":"B2094654DA6CA0F44398","title":"静安寺广场","lon":"121.44599","lat":"31.2225","category":"201","category_name":"城市广场","address":"静安寺"},{"poiid":"B2094757D068A5F5479E","title":"延安路高架","lon":"121.44808356","lat":"31.221350291","category":"260","category_name":"其他","address":"上海静安"},{"poiid":"B2094751DA6CA1F44498","title":"莹七人间","lon":"121.445874","lat":"31.221591","category":"247","category_name":"餐饮美食","address":"上海"},{"poiid":"B2094750D665A2F44998","title":"大阪味锦(南京西路店)","lon":"121.446","lat":"31.2231","category":"68","category_name":"快餐厅","address":"静安区南京西路1618号久光百货B1楼(近静安寺)"},{"poiid":"B2094757D169A0FF479F","title":"蕉叶咖喱屋(久光店)","lon":"121.445603586","lat":"31.2230392904","category":"99","category_name":"泰国／越南菜品餐厅","address":"静安区南京西路1618号久光百货B1楼(近静安寺)"},{"poiid":"B2094757D064A0FD409D","title":"Long Bar","lon":"121.4484198","lat":"31.222239284","category":"500","category_name":"未知分类","address":"上海静安区常德路1号璞丽酒店1楼"},{"poiid":"B2094654DB64A7F9499D","title":"宜芝多(久光店)","lon":"121.44588","lat":"31.22337","category":"112","category_name":"糕饼店","address":"静安区南京西路1618号久光百货B1楼(近静安寺)"},{"poiid":"B2094750D76FA1FC469A","title":"尚保罗(芮欧百货店)","lon":"121.446","lat":"31.2229","category":"111","category_name":"休闲餐饮场所","address":"静安区南京西路1601号芮欧百货B218号"},{"poiid":"B2094753D66BA0F4459F","title":"静安香格里拉大酒店","lon":"121.446098","lat":"31.221811","category":"500","category_name":"未知分类","address":"上海市 上海延安中路1218号 南京西路静安嘉里中心"},{"poiid":"B209475DD564A4FB4293","title":"七條日式炸猪排","lon":"121.447273","lat":"31.223535","category":"247","category_name":"餐饮美食","address":"上海市 静安区南京西路1601号芮欧百货B2美食广场"},{"poiid":"B2094655D26AA4FC459A","title":"街客 静安公园店 Jack Hut","lon":"121.446417054","lat":"31.223230793","category":"113","category_name":"冷饮店","address":"静安区南京西路1649号静安公园门口(近静安寺)"},{"poiid":"B2094750D568A3FC499B","title":"美仕唐纳滋(芮欧百货店)","lon":"121.446","lat":"31.2229","category":"67","category_name":"甜品店","address":"静安区南京西路1601号芮欧百货B2楼B239号铺(近地铁二号线七号线10号口)"},{"poiid":"B2094750D665A3FB4393","title":"每日新鲜水果吧(芮欧百货店)","lon":"121.446","lat":"31.2229","category":"113","category_name":"冷饮店","address":"静安区南京西路1601号芮欧百货B2-35号(近二号线七号线10号出口)"},{"poiid":"B2094757D66BA2F5499A","title":"溢阳食府","lon":"121.4468165","lat":"31.220961","category":"76","category_name":"上海菜","address":"静安区延安中路1127号延安饭店旁(近华山路)"},{"poiid":"B209475DD76CA0F94298","title":"静安公园","lon":"121.446006","lat":"31.223011","category":"250","category_name":"公园户外","address":"上海市 华山路189号"},{"poiid":"B2094654DA6CA7FC409E","title":"静安寺步行街","lon":"121.44587","lat":"31.22337","category":"116","category_name":"特色商业街","address":"南京西路1618"},{"poiid":"B2094757D164A7FD4199","title":"伊比力铁板牛排","lon":"121.44795867","lat":"31.2229926564","category":"94","category_name":"西餐厅","address":"静安区南京西路1601号芮欧百货B2楼(近二号线七号线10号口)"},{"poiid":"B2094655D26EA5FF499A","title":"外文书店久光百货店","lon":"121.44588","lat":"31.22337","category":"119","category_name":"商场","address":"静安区南京西路1618号5楼"},{"poiid":"B2094752D765A0F4499B","title":"DOZO IZAKAYA","lon":"121.446768","lat":"31.22191","category":"247","category_name":"餐饮美食","address":null},{"poiid":"B209475DD36EA7FF499C","title":"Seesaw Reel","lon":"121.446754","lat":"31.223289","category":"500","category_name":"未知分类","address":"上海市 南京西路"},{"poiid":"B2094753D268A6FE499D","title":"椰香天堂","lon":"121.445275","lat":"31.222799","category":"500","category_name":"未知分类","address":"上海市 富民路38号"},{"poiid":"B2094757D16AA7F84192","title":"雷允上药房(南京西路店)","lon":"121.44585","lat":"31.22345","category":"162","category_name":"医院","address":"静安区南京西路948号(胶州路愚园路)"},{"poiid":"B2094655D26DAAFD449B","title":"Star星造型专业美发沙龙","lon":"121.44619","lat":"31.2225","category":"148","category_name":"美容美发店","address":"南京西路1699号伊美时尚广场B-141室"},{"poiid":"B2094753D76FA6FB409A","title":"上海一号私藏菜","lon":"121.445831","lat":"31.222518","category":"247","category_name":"餐饮美食","address":"上海市 上海市南京西路1856号3楼"},{"poiid":"B2094753D164A1F54892","title":"乐寿司","lon":"121.447328","lat":"31.22267","category":"247","category_name":"餐饮美食","address":"上海市 南京西路1601号芮欧百货1楼(近Henkes)"},{"poiid":"B2094757D06FA0FD4892","title":"Cargo JJ","lon":"121.44849358","lat":"31.221225254","category":"172","category_name":"酒吧","address":"上海市静安区延安中路1123号"},{"poiid":"B209475CD669A4FD4198","title":"艾米1895电影街","lon":"121.447303","lat":"31.222009","category":"178","category_name":"电影院","address":"上海市 北京西路1829号"},{"poiid":"B2094655D268A5F5459D","title":"延安饭店(北门)","lon":"121.44802","lat":"31.22099","category":"214","category_name":"四星级宾馆","address":"延安中路1111"},{"poiid":"B2094757D168A0FA499A","title":"越洋广场39层","lon":"121.447747586","lat":"31.2227842854","category":"46","category_name":"楼宇","address":"上海静安区南京西路1601号越洋广场(近常德路)"},{"poiid":"B2094753D66AAAFC459B","title":"静安公园","lon":"121.445007","lat":"31.220905","category":"196","category_name":"公园","address":"上海市 南京西路"},{"poiid":"B2094655D26EA4F5419A","title":"正宗印度菜","lon":"121.44606","lat":"31.22003","category":"102","category_name":"印度风味","address":"静安区华山路231号二楼"},{"poiid":"B209475CD064A4F9449A","title":"Windows TOO 久光店 WINDOWS","lon":"121.44617","lat":"31.22311","category":"172","category_name":"酒吧","address":"南京西路1618号久光百货2楼(近静安寺)"},{"poiid":"B209475DD069A4FF4093","title":"晶采轩（芮欧百货店）","lon":"121.447792","lat":"31.22289","category":"500","category_name":"未知分类","address":"上海市 上海市静安区南京西路1601号芮欧百货3-4楼"},{"poiid":"B2094757D16CA6FA4892","title":"静安寺派出所","lon":"121.44509828","lat":"31.220669344","category":"609","category_name":"警察局","address":"上海万航渡路55弄5号"},{"poiid":"B2094750DB64A5FA459E","title":"继光香香鸡","lon":"121.448287","lat":"31.222597","category":"68","category_name":"快餐厅","address":"静安区南京西路1601号越洋广场芮欧百货B2楼(近久光百货)"},{"poiid":"B2094655D26AAAFB4393","title":"DonutKing旗舰店","lon":"121.44682","lat":"31.22211","category":"67","category_name":"甜品店","address":"静安区南京西路1649号静安公园内久光百货对面;;"},{"poiid":"B2094655D36CA5FF449D","title":"城市航站楼","lon":"121.44692","lat":"31.22348","category":"38","category_name":"公交车站","address":"静安区南京西路1600号(常德路南京西路)"},{"poiid":"B2094757D065A2FC499C","title":"听音寻路","lon":"121.44693698","lat":"31.220899129","category":"46","category_name":"楼宇","address":"上海延安中路1157弄25号"},{"poiid":"B2094757D16EA4F84893","title":"蜜果蜜制鲜饮","lon":"121.44556458","lat":"31.222983289","category":"247","category_name":"餐饮美食","address":"上海市静安区伊美时尚2楼"},{"poiid":"B2094757D16CA1FB479F","title":"古镇汤团","lon":"121.44673858","lat":"31.223172293","category":"257","category_name":"中餐厅","address":"上海静安寺越洋广场B2"},{"poiid":"B209475CD16CA4FA4092","title":"King 静安公园店 Donut King","lon":"121.44649589","lat":"31.22270017","category":"67","category_name":"甜品店","address":"南京西路1649号静安公园内(久光百货对面)"},{"poiid":"B2094757D16DA0FE4399","title":"罗森便利(华山路店)","lon":"121.44607","lat":"31.22023","category":"117","category_name":"便民商店/便利店","address":"上海静安区华山路211号  "},{"poiid":"B2094654DB69A7FF409B","title":"阳阳迪斯科广场","lon":"121.44766","lat":"31.22047","category":"174","category_name":"迪厅","address":"延安中路1127号"},{"poiid":"B2094750D665A0F5479D","title":"百乐门联艺精品酒店","lon":"121.446","lat":"31.2226","category":"76","category_name":"上海菜","address":"静安区南京西路1728号(近静安寺)"},{"poiid":"B2094655D26AA6FD419E","title":"火神の肉 久光店","lon":"121.446597054","lat":"31.223581793","category":"247","category_name":"餐饮美食","address":"静安区南京西路1618号久光百货B1楼(近静安寺)"},{"poiid":"B2094751D26AA2FE469B","title":"良佳会馆","lon":"121.447441","lat":"31.22101","category":"248","category_name":"生活娱乐","address":"静安区愚园支路18号2楼(近静安寺)"},{"poiid":"B2094750D76EA4F9479B","title":"露天花园","lon":"121.448","lat":"31.2223","category":"94","category_name":"西餐厅","address":"静安区常德路1号璞丽酒店"},{"poiid":"B2094757D065A4FA459B","title":"Pola The Beauty(久光店)","lon":"121.44741","lat":"31.22329","category":"500","category_name":"未知分类","address":"上海静安区南京西路1618号静安寺久光百货9楼(近静安寺)  "},{"poiid":"B2094655D26EA5FB4098","title":"Lee(久光店)","lon":"121.44588","lat":"31.22337","category":"247","category_name":"餐饮美食","address":"静安区南京西路1618号久光百货4楼(近静安寺)"},{"poiid":"B2094757D66CA6FE4492","title":"延安饭店行政酒廊","lon":"121.44833858","lat":"31.221558261","category":"247","category_name":"餐饮美食","address":"上海延安中路"},{"poiid":"B2094757D16BA1F44699","title":"因私出入境服务中心总部","lon":"121.44553008","lat":"31.222205274","category":"500","category_name":"未知分类","address":"上海延安西路129号华侨大厦201室"},{"poiid":"B209475CD76AA4F5499B","title":"北京大董上海越洋店","lon":"121.446403","lat":"31.223098","category":"500","category_name":"未知分类","address":"上海市 上海市南京西路1601号Reel广场5"},{"poiid":"B2094757D165A3FF439E","title":"大王锅贴","lon":"121.44656758","lat":"31.223190293","category":"247","category_name":"餐饮美食","address":"上海市浦东区历城路124号"},{"poiid":"B2094655D26FA3FA449C","title":"MAKE UP FOR EVER(久光店)","lon":"121.44588","lat":"31.22337","category":"247","category_name":"餐饮美食","address":"静安区南京西路1618号久光百货1楼"},{"poiid":"B2094655D26AA4FC429E","title":"大阪味藏","lon":"121.4462","lat":"31.22346","category":"95","category_name":"日本料理","address":"静安区南京西路1618号久光百货B1楼(近静安寺)"},{"poiid":"B2094757D66CA7FC469A","title":"Reel Kitchen","lon":"121.44675558","lat":"31.223388297","category":"500","category_name":"未知分类","address":"上海市静安区万航渡路"},{"poiid":"B2094757D065A7FB499A","title":"延安饭店食堂","lon":"121.4483509","lat":"31.220876638","category":"247","category_name":"餐饮美食","address":"上海延安饭店"},{"poiid":"B2094655D26FAAF9449F","title":"Club JJ2","lon":"121.44776","lat":"31.22081","category":"172","category_name":"酒吧","address":"延安中路1123号"},{"poiid":"B2094757D065A5F84798","title":"延安饭店十二楼","lon":"121.44693633","lat":"31.221437614","category":"500","category_name":"未知分类","address":"上海延安中路1111号"},{"poiid":"B2094751D569A6F4499D","title":"Pata Negra","lon":"121.444875","lat":"31.221103","category":"500","category_name":"未知分类","address":"巨鹿路913号"},{"poiid":"B2094757D16FA1FA4598","title":"灵灵美甲美睫(伊美店)","lon":"121.44668","lat":"31.2228","category":"122","category_name":"个人用品/化妆品店","address":"静安区南京西路1699号伊美时尚广场2楼A-127号商铺(近静安寺)"},{"poiid":"B2094753D368A0F54893","title":"美白银座SONOKO(久光店)","lon":"121.44617","lat":"31.22311","category":"122","category_name":"个人用品/化妆品店","address":"静安区南京西路1618号久光百货1楼(近静安寺)"},{"poiid":"B209475CD165A4FB459D","title":"10CorsoComo","lon":"121.445594","lat":"31.222278","category":"500","category_name":"未知分类","address":"上海市 南京西路会德丰北院"},{"poiid":"B2094757D16DABFF439D","title":"歌舞伎","lon":"121.44498058","lat":"31.222393277","category":"500","category_name":"未知分类","address":"上海市静安区南京西路百乐门五楼"},{"poiid":"B2094753D564AAFD4099","title":"上海希尔顿酒店","lon":"121.447662","lat":"31.222185","category":"500","category_name":"未知分类","address":"上海市 上海静安区"},{"poiid":"B2094655D26EA6F44499","title":"缤琪美发","lon":"121.44588","lat":"31.22337","category":"148","category_name":"美容美发店","address":"静安区南京西路1618号久光百货4楼"},{"poiid":"B2094654DB6AA0FF479C","title":"王磊形象设计公社","lon":"121.44588","lat":"31.22337","category":"148","category_name":"美容美发店","address":"南京西路1618号S505-S506座"},{"poiid":"B209475DD465A1F8409C","title":"Myst酒吧","lon":"121.44799","lat":"31.222665","category":"248","category_name":"生活娱乐","address":"上海市 延安饭店"},{"poiid":"B2094757D16AAAFA479E","title":"爱俪榭专业造型沙龙","lon":"121.446092586","lat":"31.2221872737","category":"148","category_name":"美容美发店","address":"上海愚园路272号"},{"poiid":"B209475CD76FA1FF4298","title":"La CaRePeRiE","lon":"121.448005","lat":"31.223112","category":"500","category_name":"未知分类","address":"上海市 芮欧百货"},{"poiid":"B209475CDA65AAFF409F","title":"静安公园","lon":"121.446405","lat":"31.221914","category":"196","category_name":"公园","address":"上海市 静安寺站"},{"poiid":"B2094757D06EAAF5419E","title":"PUMA(久光店)","lon":"121.44620227","lat":"31.223527568","category":"141","category_name":"服装鞋帽皮具店","address":"上海南京西路1618号6楼"},{"poiid":"B2094757D66EA1F8439B","title":"艳嫣美甲","lon":"121.44627","lat":"31.22224","category":"122","category_name":"个人用品/化妆品店","address":"静安区南京西路1699号伊美时尚广场B2-206-1(近静安寺)"},{"poiid":"B2094757D068A1FD489A","title":"Levi's(久光店)","lon":"121.44628016","lat":"31.223631215","category":"141","category_name":"服装鞋帽皮具店","address":"静安区南京西路1618号久光百货4楼(近静安寺)"},{"poiid":"B2094750DB6CABF8409D","title":"巨鹿路832号冠希哥的店","lon":"121.44625","lat":"31.221587","category":"500","category_name":"未知分类","address":null},{"poiid":"B2094757D069A4FA4093","title":"Coco咖喱屋","lon":"121.445931366","lat":"31.2228120359","category":"260","category_name":"其他","address":"上海静安久光店"},{"poiid":"B2094757D06AAAFD4898","title":"季风书园(静安店)","lon":"121.446077055","lat":"31.2225747691","category":"125","category_name":"书店","address":"上海静安区地铁二号线静安寺站站厅内(近南京西路)"},{"poiid":"B2094655D26AA4FF499E","title":"八景园茶室","lon":"121.44682","lat":"31.22211","category":"260","category_name":"其他","address":"静安区南京西路1649号静安公园内(近静安寺)"},{"poiid":"B209475CD46BA1FD409E","title":"MEISTER CAFE","lon":"121.445884","lat":"31.223182","category":"500","category_name":"未知分类","address":"上海市 久光百货"},{"poiid":"B2094757D164A6F4499E","title":"伊美廣場","lon":"121.44605058","lat":"31.222798285","category":"500","category_name":"未知分类","address":"上海市静安区万航渡路"},{"poiid":"B2094757D16EABF44998","title":"LEMON HEAD造型沙龙","lon":"121.447188086","lat":"31.2214221302","category":"148","category_name":"美容美发店","address":"上海黄浦区地铁人民广场站6号出口地铁生活馆2-134号"},{"poiid":"B2094757D06BA1F84099","title":"House.1","lon":"121.444851586","lat":"31.2222482749","category":"500","category_name":"未知分类","address":"上海南京西路1661号伊美广场外面楼梯旁边(地铁2号线静安寺站5号出口)"},{"poiid":"B2094757D16FA4FD489E","title":"House No.1","lon":"121.446487586","lat":"31.2232042936","category":"500","category_name":"未知分类","address":"上海静安区南京西路1661号"},{"poiid":"B2094753D769A1FC449D","title":"Uncle Tetsu's Cheese Cake","lon":"121.446006","lat":"31.22311","category":"500","category_name":"未知分类","address":"上海市 久光百货"},{"poiid":"B2094757D06BA1FC489E","title":"94路静安寺站","lon":"121.44692993","lat":"31.223463058","category":"500","category_name":"未知分类","address":"上海静安寺"},{"poiid":"B2094757D16DA0F4459C","title":"Newyork Pizza","lon":"121.447009074","lat":"31.2228762872","category":"500","category_name":"未知分类","address":"上海南京西路1669号静安广场J16"},{"poiid":"B2094655D26EA0F94093","title":"周大福珠宝金行(久光店)","lon":"121.44588","lat":"31.22337","category":"131","category_name":"珠宝首饰工艺品","address":"静安区南京西路1618号久光百货1楼(近静安寺)查看地图"},{"poiid":"B2094654DB64A6F8459E","title":"一兆韦德健身(石门一路店)","lon":"121.44639","lat":"31.22311","category":"221","category_name":"健身中心","address":"静安区石门一路333弄(近南京西路)"},{"poiid":"B2094757DB6FAAF4489E","title":"汉源书屋","lon":"121.447576153499","lat":"31.22233711658376","category":"249","category_name":"购物服务","address":"绍兴路27号"},{"poiid":"B2094753D46BA3FF4392","title":"榴小莲","lon":"121.447006","lat":"31.223602","category":"249","category_name":"购物服务","address":"上海市 芮欧美食街"},{"poiid":"B2094757D169A5F8409B","title":"依美","lon":"121.44543814","lat":"31.223211633","category":"500","category_name":"未知分类","address":"上海静安寺"},{"poiid":"B2094757D06AA1F44493","title":"越洋广场43F","lon":"121.447878467","lat":"31.2231421898","category":"500","category_name":"未知分类","address":"上海静安区南京西路1601号(近常德路)"},{"poiid":"B2094655D26EA0F9409A","title":"Burberry(久光店)","lon":"121.44588","lat":"31.22337","category":"248","category_name":"生活娱乐","address":"静安区南京西路1618号久光百货1楼(近静安寺)"},{"poiid":"B2094757D169A6FE459C","title":"东亚银行","lon":"121.44645353","lat":"31.223275885","category":"150","category_name":"银行","address":"上海南京西路1576号1层"},{"poiid":"B2094655D26EA6FA4593","title":"Celine (久光百货店)","lon":"121.44588","lat":"31.22337","category":"248","category_name":"生活娱乐","address":"静安区南京西路1618号久光百货1楼(近静安寺)"},{"poiid":"B2094757D16CA4FB419D","title":"西安翻译学院东四餐厅","lon":"121.447564586","lat":"31.2215272608","category":"500","category_name":"未知分类","address":"陕西省西安市长安区太乙宫西安翻译学院"},{"poiid":"B2094757D06BABFB439D","title":"米格美国际音乐会所","lon":"121.444945806","lat":"31.2222878057","category":"500","category_name":"未知分类","address":"上海南京西路"},{"poiid":"B2094757D169A2FB489C","title":"Jing'an temple","lon":"121.445996","lat":"31.222508","category":"500","category_name":"未知分类","address":"上海No. 1686 west nanjing road, Jing'an"},{"poiid":"B2094757D66DA6F5409B","title":"Leonidas 久光店","lon":"121.446604586","lat":"31.2233302961","category":"500","category_name":"未知分类","address":"上海市静安区久光百貨B1"},{"poiid":"B2094757D16FAAFB4599","title":"Spin旋","lon":"121.44814058","lat":"31.22168793","category":"260","category_name":"其他","address":"上海静安区康定路360号"},{"poiid":"B2094757D16AABF94198","title":"兴创驾校(车站南路)","lon":"121.446773586","lat":"31.2227502847","category":"253","category_name":"校园生活","address":"上海车站南路119号"},{"poiid":"B2094654DB65A7F94892","title":"知音琴行(静安久光店)","lon":"121.4462","lat":"31.22346","category":"255","category_name":"专卖店","address":"静安区南京西路1618号久光百货5楼"},{"poiid":"B2094757D16FA0FE449A","title":"01路华山路站","lon":"121.44770883","lat":"31.221452189","category":"500","category_name":"未知分类","address":"上海延安西路华山路"},{"poiid":"B2094655D26EA1F4429D","title":"OSH KOSH","lon":"121.44588","lat":"31.22337","category":"255","category_name":"专卖店","address":"静安区南京西路1618号久光百货6楼"},{"poiid":"B2094757D165A2FD499A","title":"淫魂","lon":"121.44810458","lat":"31.220683244","category":"500","category_name":"未知分类","address":"上海沸騰"},{"poiid":"B2094753D76BA2F5489B","title":"上海BENSON标准造型","lon":"121.446261","lat":"31.223335","category":"248","category_name":"生活娱乐","address":"南京西路1618号，久光百货4楼YES馆440商铺"},{"poiid":"B2094757D568A7FA479D","title":"家隆名妆伊美店","lon":"121.4461969","lat":"31.22251306","category":"249","category_name":"购物服务","address":"静安区南京西路1699号伊美时尚广场B147室(近静安寺)"},{"poiid":"B2094757D569A3FF439E","title":"Bora Vora(伊美店)","lon":"121.4461969","lat":"31.22251306","category":"249","category_name":"购物服务","address":"南京西路1699号伊美时尚广场"},{"poiid":"B2094655D26BA6FB489F","title":"萨凡纳咖啡馆","lon":"121.44606","lat":"31.22004","category":"260","category_name":"其他","address":"静安区华山路231号(近延安西路)"},{"poiid":"B2094655D26BA6F44592","title":"零缺点首饰","lon":"121.4462","lat":"31.22251","category":"130","category_name":"礼品饰品店","address":"静安区南京西路1699号伊美时尚广场B198室(近静安寺)"},{"poiid":"B2094757D569A2F44492","title":"乐气分生活创意馆","lon":"121.4461969","lat":"31.22251306","category":"249","category_name":"购物服务","address":"南京西路1699号伊美时尚广场B54铺"},{"poiid":"B2094757D568A4FA459C","title":"水晶E族","lon":"121.4461969","lat":"31.22251306","category":"249","category_name":"购物服务","address":"静安区南京西路1699号伊美时尚广场B-081(近静安寺)"},{"poiid":"B2094757D164A0FA449D","title":"MGM","lon":"121.44515558","lat":"31.222410278","category":"249","category_name":"购物服务","address":"上海ShanghaiJing'anWulumuqi North Rd"},{"poiid":"B2094757D568A6F9429A","title":"火热","lon":"121.4461969","lat":"31.22251306","category":"249","category_name":"购物服务","address":"南京西路1699号伊美时尚广场"},{"poiid":"B2094757D568A5F84392","title":"INVERNESS","lon":"121.4461969","lat":"31.22251306","category":"249","category_name":"购物服务","address":"南京西路1699号伊美时尚广场"},{"poiid":"B2094757D568A5FB4799","title":"valmont","lon":"121.4468889","lat":"31.22344389","category":"249","category_name":"购物服务","address":"南京西路1612号久光百货1层"},{"poiid":"B2094654DA6CA7FC4893","title":"上海阿波罗大厦有限公司管理部","lon":"121.44731","lat":"31.22155","category":"263","category_name":"公司","address":"延安中路1440号阿波罗大厦7层713"},{"poiid":"B2094757D56EA6FF429E","title":"日比谷花坛（久光店）","lon":"121.446231","lat":"31.223495","category":"248","category_name":"生活娱乐","address":"静安区南京西路1618号久光百货B1楼(近静安寺)"},{"poiid":"B2094655D26EA2FF419B","title":"贝佳斯(久光店)","lon":"121.44588","lat":"31.22337","category":"248","category_name":"生活娱乐","address":"静安区南京西路1618号久光百货9楼(近静安寺)"},{"poiid":"B2094655D26DA4FD419B","title":"Intergrated Industrial Systems，Usa (I2s) Shanghai Office","lon":"121.44731","lat":"31.22156","category":"263","category_name":"公司","address":"延安中路1440号阿波罗大厦5层511"},{"poiid":"B2094655D26EA2FB419B","title":"TOMMY HILFIGER(久光店)","lon":"121.44588","lat":"31.22337","category":"248","category_name":"生活娱乐","address":"静安区南京西路1618号久光百货5楼"},{"poiid":"B2094654DB69AAFC449C","title":"一针一线(久光百货店)","lon":"121.44588","lat":"31.22337","category":"248","category_name":"生活娱乐","address":"静安区南京西路1618号久光百货四楼"},{"poiid":"B2094655D26EA2F8459D","title":"Fornarina(久光店)","lon":"121.44588","lat":"31.22337","category":"248","category_name":"生活娱乐","address":"静安区南京西路1618号久光百货4楼(近静安寺)"},{"poiid":"B2094655D26EA4F9429F","title":"JORYA(久光店)","lon":"121.44588","lat":"31.22337","category":"248","category_name":"生活娱乐","address":"静安区南京西路1618号久光百货3楼(近静安寺)"},{"poiid":"B2094655D26EAAFC469B","title":"Guess(久光店)","lon":"121.44588","lat":"31.22337","category":"248","category_name":"生活娱乐","address":"静安区南京西路1618号久光百货4楼"},{"poiid":"B2094655D26EA3FB499D","title":"春秋国旅","lon":"121.4458","lat":"31.22267","category":"248","category_name":"生活娱乐","address":""},{"poiid":"B2094752D36FA4FA429C","title":"芮欧百货","lon":"121.446075","lat":"31.222763","category":"248","category_name":"生活娱乐","address":"南京西路1601号109"},{"poiid":"B2094757D568A1FC499D","title":"香格里拉大酒店(延安中路店)","lon":"121.447686","lat":"31.22164","category":"251","category_name":"出行住宿","address":"静安区延安中路1238号(近静安寺)"},{"poiid":"B2094655D26DA2FD459B","title":"静安寺广场(西二门)","lon":"121.44558","lat":"31.2224","category":"656","category_name":"大门","address":""},{"poiid":"B2094757D06BABFE4398","title":"汇丰银行","lon":"121.44538116","lat":"31.220327377","category":"260","category_name":"其他","address":"上海延安西路33号"},{"poiid":"B2094655D26DA6FE429A","title":"静安寺(南二门)","lon":"121.44551","lat":"31.22297","category":"656","category_name":"大门","address":"南京西路1688"},{"poiid":"B2094655D26DA7FE4193","title":"静安寺广场(西一门)","lon":"121.4457","lat":"31.22258","category":"656","category_name":"大门","address":""},{"poiid":"B2094655D26EA3F4489A","title":"静安寺广场(东门)","lon":"121.44631","lat":"31.22277","category":"656","category_name":"大门","address":""}]