[{"poiid":"B2094757D16EA1FC489E","title":"淮海东路","lon":"121.48358873","lat":"31.227366239","category":"500","category_name":"未知分类","address":"上海淮海东路"},{"poiid":"B2094757D46DABF54399","title":"甜心皇后 淮海东路店 Sweet Queen","lon":"121.482449","lat":"31.226318","category":"67","category_name":"甜品店","address":"黄浦区淮海东路49号东淮海国际大厦内(近云南南路)"},{"poiid":"B2094750DA6CA6FC4198","title":"台北纯k","lon":"121.483436","lat":"31.22928","category":"500","category_name":"未知分类","address":"浙江南路68号"},{"poiid":"B2094753D76FAAFA449C","title":"上海滩国泰旗舰店","lon":"121.466011","lat":"31.216125","category":"249","category_name":"购物服务","address":"淮海中路868号"},{"poiid":"B209475CD564A7F84292","title":"上海滩新天地店","lon":"121.47463","lat":"31.22164","category":"119","category_name":"商场","address":"\"太仓路181弄新天地北里15号\r\n\""},{"poiid":"B209475CD564A7F8439E","title":"上海滩中信泰富店","lon":"121.45602","lat":"31.22851","category":"119","category_name":"商场","address":"\"南京西路1168号中信泰富广场，店铺号221.\r\n\""},{"poiid":"B209475CD564A7F84392","title":"上海滩浦东香格里拉店","lon":"121.50058","lat":"31.23634","category":"119","category_name":"商场","address":"浦东富成路33号香格里拉酒店内大堂层"},{"poiid":"B2094757D068A4FD469A","title":"金陵东路浙江南路","lon":"121.482636","lat":"31.22811","category":"38","category_name":"公交车站","address":"上海金陵东路浙江南路"},{"poiid":"B2094757D16CA0FC4398","title":"海上旧梦西餐厅","lon":"121.486337638","lat":"31.2285204637","category":"94","category_name":"西餐厅","address":"黄浦区金陵东路229号新上海城市广场2楼(河南南路口)"},{"poiid":"B2094654DA6EA6FA409B","title":"金陵东路营业厅","lon":"121.48404","lat":"31.2287","category":"151","category_name":"电讯营业厅","address":"黄浦区金陵东路391号"},{"poiid":"B2094757D069A3F9429D","title":"人民路","lon":"121.483271","lat":"31.225704","category":"500","category_name":"未知分类","address":"上海人民路"},{"poiid":"B2094757DB6EA7FA439F","title":"上海中星君亭酒店（原上海中星大酒店）","lon":"121.4833999","lat":"31.22669372","category":"75","category_name":"浙江菜","address":"黄浦区人民路839号(近浙江南路)"},{"poiid":"B2094757D06FAAF9439A","title":"GUCCI(时代广场店)","lon":"121.484517","lat":"31.225729","category":"141","category_name":"服装鞋帽皮具店","address":"卢湾区淮海中路99号大上海时代广场大上海时代广场"},{"poiid":"B2094757D064A7FA449D","title":"群力中医门诊部","lon":"121.48233","lat":"31.22767","category":"162","category_name":"医院","address":"上海黄浦区金陵东路396号  "},{"poiid":"B2094757D068A3FE489A","title":"东淮海公寓","lon":"121.48508","lat":"31.227438","category":"47","category_name":"住宅区","address":"上海市黄浦区人民路777弄"},{"poiid":"B2094757D169A5FF489C","title":"重庆小天鹅火锅","lon":"121.48479673","lat":"31.22649922","category":"500","category_name":"未知分类","address":"上海市黄浦区云南南路"},{"poiid":"B2094654DB6AA6FF479D","title":"上海中星大酒店","lon":"121.48469","lat":"31.22758","category":"214","category_name":"四星级宾馆","address":"人民路839号"},{"poiid":"B2094750DA6DA7F4489D","title":"寿宁路23号长寿面馆","lon":"121.483512","lat":"31.227197","category":"247","category_name":"餐饮美食","address":null},{"poiid":"B2094757D068A3FD469A","title":"埃洛美甲","lon":"121.482538","lat":"31.229008","category":"149","category_name":"洗浴推拿场所","address":"上海浙江南路69号"},{"poiid":"B2094655D26AAAFA4492","title":"上游社会桌游俱乐部","lon":"121.48243","lat":"31.22873","category":"248","category_name":"生活娱乐","address":"黄浦区浙江南路88号东新大厦216商铺(近宁海东路)"},{"poiid":"B2094750D26FA5FC449E","title":"寿宁路龙虾街","lon":"121.483604","lat":"31.225391","category":"247","category_name":"餐饮美食","address":"黄浦区寿宁路9号"},{"poiid":"B2094757D16EA0F4429C","title":"彭浦第一炸(寿宁路店)","lon":"121.483581738","lat":"31.2253271956","category":"68","category_name":"快餐厅","address":"黄浦区寿宁路13号(近西藏南路)"},{"poiid":"B2094753D668A4FE499E","title":"CLUB S2","lon":"121.483741","lat":"31.225388","category":"500","category_name":"未知分类","address":"上海市 淮海路1号柳林大厦6楼"},{"poiid":"B2094654DA6EA6FA449F","title":"福星大厦","lon":"121.48196","lat":"31.22746","category":"46","category_name":"楼宇","address":"黄浦区外滩23号,中山东一路,南京东路"},{"poiid":"B2094757D065A4FC489B","title":"杏满楼","lon":"121.484336799","lat":"31.2300896628","category":"76","category_name":"上海菜","address":"黄浦区宁海东路48号1楼(近福建南路)"},{"poiid":"B2094655D36CA0F5429D","title":"淮海东路云南南路","lon":"121.48279","lat":"31.22667","category":"38","category_name":"公交车站","address":""},{"poiid":"B2094757D465A4FC469D","title":"吉昌桂林米粉 广西南路店","lon":"121.482224054","lat":"31.226701793","category":"68","category_name":"快餐厅","address":"黄浦区广西南路48号(宁海路口)"},{"poiid":"B2094757D16FA3FA4693","title":"旺比面馆","lon":"121.48369723","lat":"31.227581243","category":"68","category_name":"快餐厅","address":"黄浦区浙江南路(金陵东路口)"},{"poiid":"B2094753DB6CA5F9489B","title":"稻香","lon":"121.484268","lat":"31.227146","category":"247","category_name":"餐饮美食","address":"上海市 环贸广场iapm3楼301"},{"poiid":"B2094654DA6EA6FF4499","title":"台园圆圆香云吞(浙江南路)","lon":"121.48259","lat":"31.22893","category":"68","category_name":"快餐厅","address":"黄浦区浙江南路75号(近延安东路)"},{"poiid":"B2094655D26AA0FC439B","title":"天意婚礼购物广场","lon":"121.48555","lat":"31.22773","category":"247","category_name":"餐饮美食","address":"上海黄浦区人民路757号(近福建南路)  "},{"poiid":"B2094654DA6EA6F84793","title":"中国移动金陵东路营业厅","lon":"121.48207","lat":"31.22794","category":"151","category_name":"电讯营业厅","address":"黄浦区金陵东路396号"},{"poiid":"B2094757D664A7F8449C","title":"台湾原汁原味牛肉面","lon":"121.48246","lat":"31.22653","category":"68","category_name":"快餐厅","address":"黄浦区淮海东路30号(近广西南路)"},{"poiid":"B2094757D16DA7FC459A","title":"壽寧路18號自家小龍蝦店","lon":"121.48472573","lat":"31.225216193","category":"500","category_name":"未知分类","address":"上海黄浦区壽寧路18號"},{"poiid":"B2094757D464AAFB429A","title":"新亚大包 福建南路店","lon":"121.483850054","lat":"31.230013793","category":"68","category_name":"快餐厅","address":"黄浦区福建南路33号(近宁海东路)"},{"poiid":"B2094655D36CA0FF4098","title":"金陵东路福建南路","lon":"121.48475","lat":"31.22921","category":"38","category_name":"公交车站","address":""},{"poiid":"B2094757D065A0FF4992","title":"寿宁路魏式烧烤","lon":"121.48398445","lat":"31.229025034","category":"247","category_name":"餐饮美食","address":"上海寿宁路西藏路"},{"poiid":"B2094757D064A1F94293","title":"云南刘园过桥米线馆","lon":"121.48404","lat":"31.22937","category":"68","category_name":"快餐厅","address":"黄浦区福建南路64号(近宁海东路)"},{"poiid":"B2094750D665A0F84592","title":"必胜宅急送(人民路店)","lon":"121.483","lat":"31.2264","category":"94","category_name":"西餐厅","address":"黄浦区人民路818号(人民路永寿路)"},{"poiid":"B2094752D46DA7FA449C","title":"酒吞","lon":"121.48416","lat":"31.227901","category":"247","category_name":"餐饮美食","address":"虹井路280弄"},{"poiid":"B2094750D664AAFF449E","title":"黄鱼面","lon":"121.483","lat":"31.2294","category":"68","category_name":"快餐厅","address":"黄浦区宁海东路143号(近浙江中路)"},{"poiid":"B2094751D36AA3FC429F","title":"酩宴海鲜宵夜","lon":"121.4825","lat":"31.22627","category":"76","category_name":"上海菜","address":"黄浦区淮海东路45号1楼(近云南南路)"},{"poiid":"B2094757D569A7FC469E","title":"七号会所","lon":"121.48195557","lat":"31.22745443","category":"72","category_name":"广东菜","address":"黄浦区金陵东路507号(广西南路口)"},{"poiid":"B2094757D465A1F8429C","title":"新黄浦酒家","lon":"121.482281054","lat":"31.227978793","category":"76","category_name":"上海菜","address":"永寿路88号新黄浦公寓2楼近金陵东路"},{"poiid":"B2094757DB68A1F94798","title":"星巴克","lon":"121.4852086151499","lat":"31.22648474454025","category":"500","category_name":"未知分类","address":"江苏路"},{"poiid":"B2094655D26BAAFD479E","title":"济南路8号","lon":"121.485","lat":"31.2277","category":"47","category_name":"住宅区","address":"上海市卢湾区济南路8号"},{"poiid":"B2094757D069A4FB499A","title":"知音琴行(金陵东路店)","lon":"121.484688023","lat":"31.229039867","category":"260","category_name":"其他","address":"黄浦区金陵东路363号2楼(金陵东路永寿路)"},{"poiid":"B2094655D36DA7FE459A","title":"浙江南路","lon":"121.48255","lat":"31.22887","category":"38","category_name":"公交车站","address":""},{"poiid":"B2094750DB69A4F5419E","title":"淮海路","lon":"121.485076","lat":"31.225799","category":"500","category_name":"未知分类","address":"淮海路中段"},{"poiid":"B2094655D36CA6FF479A","title":"福建路金陵东路","lon":"121.48475","lat":"31.22866","category":"38","category_name":"公交车站","address":""},{"poiid":"B2094757D069A7F9479D","title":"黑泽(金陵东路旗舰店)","lon":"121.482999","lat":"31.228002","category":"113","category_name":"冷饮店","address":"上海黄浦区金陵东路465号"},{"poiid":"B2094752DA6AA6FF409C","title":"饭小馆","lon":"121.483603","lat":"31.225321","category":"247","category_name":"餐饮美食","address":"上海市 西藏南路279"},{"poiid":"B2094655D36CA1F44499","title":"老北门(人民路河南南路)","lon":"121.48654","lat":"31.22862","category":"38","category_name":"公交车站","address":""},{"poiid":"B2094654DA6EA6F8429E","title":"金陵商厦","lon":"121.48239","lat":"31.22827","category":"46","category_name":"楼宇","address":"上海市黄浦区金陵东路368号"},{"poiid":"B2094751DB65ABFC409F","title":"海上第一茶楼","lon":"121.48662","lat":"31.22766","category":"247","category_name":"餐饮美食","address":"黄浦区城隍庙湖心亭(近城隍庙九曲桥)"},{"poiid":"B209475DD665A4FB4999","title":"K11 购物艺术中心","lon":"121.484909","lat":"31.227991","category":"249","category_name":"购物服务","address":"上海市 上海"},{"poiid":"B209475CD565A6FD439D","title":"K歌之王","lon":"121.483726","lat":"31.225387","category":"247","category_name":"餐饮美食","address":"上海市 西藏中路"},{"poiid":"B2094757D169AAFC489A","title":"新亞大包","lon":"121.482778","lat":"31.226676","category":"247","category_name":"餐饮美食","address":"上海雲南南路淮海東路口"},{"poiid":"B2094757DA65A5F44399","title":"上海海之星假日酒店","lon":"121.482352","lat":"31.227392","category":"216","category_name":"经济型连锁酒店","address":"黄浦区金陵东路491号(近永寿路)"},{"poiid":"B2094655D264A7F4439B","title":"勤Surprise专业造型","lon":"121.48243","lat":"31.22679","category":"148","category_name":"美容美发店","address":"广西南路85"},{"poiid":"B2094752D56EA3FC429B","title":"上海外灘","lon":"121.483994","lat":"31.227915","category":"500","category_name":"未知分类","address":null},{"poiid":"B2094753D569A2F44292","title":"上海姥姥shanghai grandmother","lon":"121.483596","lat":"31.229869","category":"247","category_name":"餐饮美食","address":"上海市 上海黄浦区福州路70号"},{"poiid":"B2094654DB6BA4F8439C","title":"林林餐厅(浙江南路)","lon":"121.48255","lat":"31.22897","category":"76","category_name":"上海菜","address":"黄浦区浙江南路71号(近延安东路)"},{"poiid":"B2094654DA6EA6FE499F","title":"New York City Deli","lon":"121.48435","lat":"31.22932","category":"257","category_name":"中餐厅","address":"黄浦区福建南路103号(近金陵东路)"},{"poiid":"B209475CD76BA6FF419A","title":"ET剧场","lon":"121.483695","lat":"31.227186","category":"500","category_name":"未知分类","address":"上海市 延安东路云南路"},{"poiid":"B2094655D26CA7F4439A","title":"开明里(大境路)","lon":"121.4859","lat":"31.22569","category":"47","category_name":"住宅区","address":"大境路97弄1-64号"},{"poiid":"B2094757D16EA1FA4799","title":"926路淮海东路云南南路站","lon":"121.48297568","lat":"31.2261755514","category":"38","category_name":"公交车站","address":"上海市黄浦区淮海东路16号"},{"poiid":"B2094757DB68A3F9469D","title":"舒友海鲜大酒店","lon":"121.484345470297","lat":"31.22915698259776","category":"247","category_name":"餐饮美食","address":"成都北路"},{"poiid":"B2094753D76EA2FE4999","title":"曙光医院","lon":"121.486045","lat":"31.229448","category":"162","category_name":"医院","address":"上海市 淮海路普安路"},{"poiid":"B2094752D36CA6FA4992","title":"新南华大酒店","lon":"121.483963","lat":"31.22772","category":"247","category_name":"餐饮美食","address":"普陀区西康路长寿路"},{"poiid":"B2094655D268A0F94293","title":"中华商厦","lon":"121.48291","lat":"31.22809","category":"119","category_name":"商场","address":""},{"poiid":"B2094654DA6EA6FA439E","title":"金陵东路街道云南居委会图书室","lon":"121.48274","lat":"31.22739","category":"181","category_name":"图书馆","address":"永寿路119"},{"poiid":"B2094750D268A5FA4698","title":"风云再起电玩","lon":"121.484329","lat":"31.225963","category":"248","category_name":"生活娱乐","address":"迪美购物中心"},{"poiid":"B2094655D36CA0F54292","title":"淮海东路浙江南路","lon":"121.48347","lat":"31.22695","category":"38","category_name":"公交车站","address":""},{"poiid":"B2094654DA6EA6FF4893","title":"农工商超市No.0060","lon":"121.48213","lat":"31.22819","category":"117","category_name":"便民商店/便利店","address":""},{"poiid":"B2094654DB6BA4F8479C","title":"好德No.714","lon":"121.483","lat":"31.22685","category":"117","category_name":"便民商店/便利店","address":""},{"poiid":"B2094654DB6BA4F84993","title":"良友(青莲街)","lon":"121.48356","lat":"31.22574","category":"117","category_name":"便民商店/便利店","address":""},{"poiid":"B2094654DB65A0FD4299","title":"良友浙江南店","lon":"121.4832","lat":"31.22808","category":"117","category_name":"便民商店/便利店","address":""},{"poiid":"B2094750D268A1FD429A","title":"Boom Juice","lon":"121.484407","lat":"31.229224","category":"113","category_name":"冷饮店","address":"黄浦区福建南路107号(近金陵东路)"},{"poiid":"B2094757D66CA0F5429B","title":"太郎拉面","lon":"121.48310273","lat":"31.229640287","category":"247","category_name":"餐饮美食","address":"上海市黄浦区浙江中路"},{"poiid":"B2094655D26CA4F9409B","title":"立贤里(广西南路)","lon":"121.48236","lat":"31.22726","category":"47","category_name":"住宅区","address":"广西南路59弄1-32号"},{"poiid":"B2094757D164A5FC4198","title":"寶興小區","lon":"121.483506738","lat":"31.2296372875","category":"47","category_name":"住宅区","address":"上海浙江路寧海東路"},{"poiid":"B2094655D26CA7F4409D","title":"东新里","lon":"121.48629","lat":"31.22905","category":"47","category_name":"住宅区","address":"山东南路111弄8-43号"},{"poiid":"B2094757D16FA6F94993","title":"延安東路河南南路","lon":"121.486452638","lat":"31.2289527729","category":"500","category_name":"未知分类","address":"上海延安東路河南南路口"},{"poiid":"B2094655D265A7FF449C","title":"藏宝海湾桌面游戏","lon":"121.48264","lat":"31.22735","category":"173","category_name":"游戏厅","address":"永寿路158号近金陵东路"},{"poiid":"B2094757D664AAFA4993","title":"珍后小吃店","lon":"121.485674054","lat":"31.229706793","category":"247","category_name":"餐饮美食","address":"黄浦区山东南路61号(近金陵东路)"},{"poiid":"B2094655D26FA4FB489F","title":"上海大中华电器商店","lon":"121.4828","lat":"31.22808","category":"138","category_name":"家电电子卖场","address":"金陵东路467号"},{"poiid":"B2094757D66EA3F9439D","title":"南京汤包老鸭粉丝汤","lon":"121.482934","lat":"31.229355","category":"247","category_name":"餐饮美食","address":"上海宁海东路139号"},{"poiid":"B2094757D16BA4FF4999","title":"HOLIDAY PUB","lon":"121.482576","lat":"31.226288","category":"172","category_name":"酒吧","address":"上海淮海东路45号东淮海国际大厦二楼"},{"poiid":"B2094654DB65A4FC4692","title":"云南小区(旁门)","lon":"121.48265","lat":"31.22753","category":"47","category_name":"住宅区","address":"永寿路109弄1-13号"},{"poiid":"B2094655D26CA7F4429F","title":"宝兴里","lon":"121.483235","lat":"31.229025","category":"47","category_name":"住宅区","address":"宁海东路129弄"},{"poiid":"B2094654DA6EA5FE479C","title":"春源里小区(东门)","lon":"121.4861","lat":"31.22641","category":"47","category_name":"住宅区","address":"旧仓街128弄17-43号"},{"poiid":"B2094655D268A1FD4098","title":"新康里(盛泽路)","lon":"121.48522","lat":"31.22853","category":"47","category_name":"住宅区","address":"盛泽路130弄"},{"poiid":"B2094655D26CA4F94098","title":"执中里(东门)","lon":"121.48217","lat":"31.22686","category":"47","category_name":"住宅区","address":"广西南路86弄"},{"poiid":"B2094655D265AAF5409C","title":"明德里(东一门)","lon":"121.48586","lat":"31.22896","category":"47","category_name":"住宅区","address":"山东南路106弄1-3号"},{"poiid":"B2094655D26FA6FF419C","title":"盛泽小区","lon":"121.48463","lat":"31.229467","category":"47","category_name":"住宅区","address":"宁海东路43号"},{"poiid":"B2094655D26CA4F94799","title":"精益里","lon":"121.48477","lat":"31.22887","category":"47","category_name":"住宅区","address":"福建南路129弄1-12号"},{"poiid":"B2094655D26CA4F9479E","title":"精益里(东门)","lon":"121.48522","lat":"31.22896","category":"47","category_name":"住宅区","address":"盛泽路106弄"},{"poiid":"B2094655D26EA3F9449C","title":"福南小区(北1门)","lon":"121.48411","lat":"31.22873","category":"47","category_name":"住宅区","address":"金陵东路389弄1-23号"},{"poiid":"B2094654DA6EA6F9449D","title":"金陵小区","lon":"121.48558","lat":"31.229078","category":"47","category_name":"住宅区","address":"山东南路106弄1-3号"},{"poiid":"B2094655D268A1FD409A","title":"人民路746弄和平里","lon":"121.48435","lat":"31.22815","category":"47","category_name":"住宅区","address":""},{"poiid":"B2094655D264A7F8439D","title":"原上里","lon":"121.48284","lat":"31.2276","category":"47","category_name":"住宅区","address":"永寿路109弄1-13号"},{"poiid":"B2094654DA6EA6FA409A","title":"福南小区","lon":"121.48425","lat":"31.228472","category":"47","category_name":"住宅区","address":"金陵东路423弄1-25号"},{"poiid":"B2094655D26CA6FA439F","title":"锦福里","lon":"121.48376","lat":"31.22949","category":"47","category_name":"住宅区","address":"宁海东路89弄1-10号"},{"poiid":"B2094654DA6EA6FF489D","title":"诗缇专业美容美体中心","lon":"121.4822","lat":"31.22865","category":"148","category_name":"美容美发店","address":"浙江南路78号东新大厦201-202"},{"poiid":"B2094654DA6EA6F9439E","title":"视觉造型","lon":"121.48589","lat":"31.22914","category":"148","category_name":"美容美发店","address":"闵行区七莘路3655号嘉贸广场2楼"},{"poiid":"B2094655D26CA4F94592","title":"立贤里(东门)","lon":"121.48278","lat":"31.22715","category":"47","category_name":"住宅区","address":"永寿路176弄"},{"poiid":"B2094654DB65A6FA439F","title":"云南小区(东侧门)","lon":"121.4832","lat":"31.22778","category":"47","category_name":"住宅区","address":"浙江南路128弄1-25号"},{"poiid":"B2094654DA6EA6FA4092","title":"福南小区(北门)","lon":"121.48367","lat":"31.2285","category":"47","category_name":"住宅区","address":"金陵东路423弄1-25号"},{"poiid":"B2094757D164A5F9459F","title":"金陵东路盛泽路口","lon":"121.485054748","lat":"31.2293285948","category":"500","category_name":"未知分类","address":"上海金陵东路盛泽路"},{"poiid":"B2094655D268A1FD409B","title":"人民路746弄和平里(南门)","lon":"121.48456","lat":"31.22788","category":"47","category_name":"住宅区","address":""},{"poiid":"B2094655D264A7F8439C","title":"原上里(西门)","lon":"121.48268","lat":"31.2275","category":"47","category_name":"住宅区","address":"永寿路109弄1-13号"},{"poiid":"B2094655D26CA7F4419B","title":"裕庆坊","lon":"121.48584","lat":"31.22943","category":"47","category_name":"住宅区","address":"山东南路79弄1-7号"},{"poiid":"B2094655D26CA7F4419F","title":"惟祥里(金陵东路)","lon":"121.4852","lat":"31.22971","category":"47","category_name":"住宅区","address":"金陵东路196弄1-6号"},{"poiid":"B2094654DA6EA6FA449C","title":"云南小区","lon":"121.48317","lat":"31.22743","category":"47","category_name":"住宅区","address":"浙江南路148弄"},{"poiid":"B2094655D26BA5FD489E","title":"中华里","lon":"121.48436","lat":"31.2296","category":"47","category_name":"住宅区","address":""},{"poiid":"B2094655D26FA5FF439F","title":"明德里(东2号门)","lon":"121.48577","lat":"31.22912","category":"47","category_name":"住宅区","address":"山东南路96弄1-3号"},{"poiid":"B2094655D265AAFB4899","title":"中华里(西门)","lon":"121.48421","lat":"31.22952","category":"47","category_name":"住宅区","address":""},{"poiid":"B2094655D264A4FD489B","title":"惟祥里(南门)","lon":"121.48535","lat":"31.2296","category":"47","category_name":"住宅区","address":"金陵东路196弄1-6号"},{"poiid":"B2094654DA6EA6FE4893","title":"宠物坊","lon":"121.48423","lat":"31.22949","category":"117","category_name":"便民商店/便利店","address":"黄浦区福建南路87号(近宁海东路)"},{"poiid":"B2094757D16CA0FA429C","title":"黄浦区人才发展服务中心","lon":"121.48343473","lat":"31.227052565","category":"500","category_name":"未知分类","address":"上海淮海东路6号"},{"poiid":"B209475CD76DA4FB419B","title":"上海浦东陆家嘴","lon":"121.483352","lat":"31.225444","category":"500","category_name":"未知分类","address":"上海市 上海"},{"poiid":"B2094750DB6EA1FB4099","title":"上海市华东师大闵行区","lon":"121.482727","lat":"31.226615","category":"500","category_name":"未知分类","address":null},{"poiid":"B2094654DA6EA6FA429F","title":"精工网吧","lon":"121.48273","lat":"31.22804","category":"176","category_name":"网吧","address":"黄浦区浙江南路118号2楼(金陵东路浙江南路)"},{"poiid":"B2094654DA6EA6FF439B","title":"小王子申鑫美容美发","lon":"121.48278","lat":"31.22928","category":"148","category_name":"美容美发店","address":"宁海东路149"},{"poiid":"B2094654DA6EA6FF419F","title":"名发轩","lon":"121.48348","lat":"31.22957","category":"148","category_name":"美容美发店","address":"黄浦区宁海东路111号(近福建南路)"},{"poiid":"B2094757D16EA0F44599","title":"大境路","lon":"121.483513826","lat":"31.227107296","category":"500","category_name":"未知分类","address":"上海大境路"},{"poiid":"B2094757D069A1FA449C","title":"世音琴行","lon":"121.483374519","lat":"31.2283902018","category":"260","category_name":"其他","address":"黄浦区金陵东路433号(近云南南路)"},{"poiid":"B2094655D264A6F8429D","title":"好来屋网络俱乐部","lon":"121.4829","lat":"31.22812","category":"176","category_name":"网吧","address":"金陵东路465号2层"},{"poiid":"B2094757D064AAFC439B","title":"迪亚天天(金陵东路店)","lon":"121.48578","lat":"31.22927","category":"117","category_name":"便民商店/便利店","address":"黄浦区金陵东路317号(金陵东路山东南路)"},{"poiid":"B2094654DB65A0FC449E","title":"上海市无线电监测站定检检测受理点","lon":"121.48365","lat":"31.22636","category":"250","category_name":"公园户外","address":""},{"poiid":"B2094654DA6EA6FF459D","title":"恒源祥(集团)有限公司","lon":"121.48258","lat":"31.22836","category":"263","category_name":"公司","address":""},{"poiid":"B209475CD76AA4FC4199","title":"半咖啡","lon":"121.4832","lat":"31.225833","category":"500","category_name":"未知分类","address":"上海市 延安東路433號et劇場二樓"},{"poiid":"B2094757D16EAAFF479F","title":"smile nail美甲沙龍","lon":"121.48219273","lat":"31.226711225","category":"122","category_name":"个人用品/化妆品店","address":"上海市黄浦区廣西南路98號"},{"poiid":"B2094753D66BA6F54799","title":"浦东新区","lon":"121.483032","lat":"31.226024","category":"500","category_name":"未知分类","address":"上海市 陆家嘴"},{"poiid":"B2094757D06BA7FF409D","title":"鼎茶南京东路","lon":"121.483266691","lat":"31.2287588354","category":"500","category_name":"未知分类","address":"上海南京东路地铁站旁"},{"poiid":"B2094751D464A7FB459A","title":"SUPERMAN TOY","lon":"121.486547","lat":"31.228568","category":"249","category_name":"购物服务","address":"旧校场路69号"},{"poiid":"B2094757DB6FAAF94098","title":"新世界商场","lon":"121.484258","lat":"31.229319","category":"249","category_name":"购物服务","address":"南京西路"},{"poiid":"B2094757D16DA2FF499A","title":"河南中路人民路","lon":"121.48466","lat":"31.228719","category":"500","category_name":"未知分类","address":"上海河南中路人民路公交车站"},{"poiid":"B2094654DB64A4FA4592","title":"薇琪婚纱礼服精品屋","lon":"121.48569","lat":"31.22787","category":"141","category_name":"服装鞋帽皮具店","address":"人民路757号天意婚庆广场1层"},{"poiid":"B2094750DB6EA1FB409D","title":"上海市华东师范大学闵行校区","lon":"121.482727","lat":"31.226619","category":"500","category_name":"未知分类","address":null},{"poiid":"B2094757D16EA5FD459B","title":"联通金陵东路营业厅","lon":"121.483026738","lat":"31.2280992547","category":"150","category_name":"银行","address":"上海市黄浦区金陵东路391号"},{"poiid":"B2094753D56CA0F5479B","title":"茉莉花劇場","lon":"121.482887","lat":"31.228433","category":"500","category_name":"未知分类","address":"上海市 北海路251號"},{"poiid":"B2094757D065A7FF4093","title":"陆家浜路88号","lon":"121.484906","lat":"31.229284","category":"500","category_name":"未知分类","address":"上海黄浦区出入境管理局"},{"poiid":"B2094757D16CA1F84298","title":"海音琴行(金陵店)","lon":"121.48561","lat":"31.2291","category":"249","category_name":"购物服务","address":"上海黄浦区金陵东路333号  "},{"poiid":"B2094752D06EA3F4419E","title":"上海体育馆","lon":"121.484836","lat":"31.228244","category":"500","category_name":"未知分类","address":null},{"poiid":"B2094655D26BA5F9469E","title":"Geek桌面游戏体验中心","lon":"121.48238","lat":"31.22882","category":"173","category_name":"游戏厅","address":"浙江南路88号东新大厦315室"},{"poiid":"B2094750D66AA7FA4699","title":"意希芭世乐器","lon":"121.482032","lat":"31.22771","category":"249","category_name":"购物服务","address":"黄浦区金陵东路503号"},{"poiid":"B2094757D16AAAFF4393","title":"天之元婚纱礼服馆","lon":"121.484018938","lat":"31.2281273553","category":"500","category_name":"未知分类","address":"上海黄浦区永寿路85号金陵大厦507室"},{"poiid":"B2094752DA65A5FA4099","title":"城隍庙","lon":"121.48654","lat":"31.228599","category":"500","category_name":"未知分类","address":"上海市 城隍庙"},{"poiid":"B2094757D169AAF9429E","title":"中国联通九江路营业厅","lon":"121.485340671","lat":"31.2270024913","category":"500","category_name":"未知分类","address":"上海四川中路324号"},{"poiid":"B2094757D56EA6FF499E","title":"秀域古方减肥(人民广场店)","lon":"121.482201","lat":"31.228653","category":"249","category_name":"购物服务","address":"黄浦区浙江南路88号东新大厦216室"},{"poiid":"B2094757D16EA0FF499D","title":"大润发总部","lon":"121.483085632","lat":"31.2259845734","category":"500","category_name":"未知分类","address":"上海江场西路"},{"poiid":"B2094654DA6EA6F84992","title":"大音琴行(金陵东路)","lon":"121.48379","lat":"31.22879","category":"255","category_name":"专卖店","address":"金陵东路294"},{"poiid":"B2094757D66DA1FB4699","title":"欧施德","lon":"121.48288773","lat":"31.226351217","category":"500","category_name":"未知分类","address":"上海东淮海国际大厦"},{"poiid":"B2094654DA6EA6F9409A","title":"巴黎三城(金陵东路)","lon":"121.48394","lat":"31.22887","category":"132","category_name":"眼镜店","address":"黄浦区金陵东路280号(近福建南路)"},{"poiid":"B2094654DA6EA6F94098","title":"上海韵音琴行","lon":"121.4841","lat":"31.22895","category":"255","category_name":"专卖店","address":"黄浦区金陵东路260-266号(福建南路金陵东路)"},{"poiid":"B2094757D66EA4F54693","title":"三晋春秋百老汇店","lon":"121.48478573","lat":"31.228038253","category":"500","category_name":"未知分类","address":"上海浦东新区张杨路南泉北路588号百老汇5层"},{"poiid":"B2094757D16BA7F44498","title":"大圆美容保健养生馆","lon":"121.48229128","lat":"31.22696158","category":"148","category_name":"美容美发店","address":"黄浦区淮海东路49号东淮海国际大厦5楼506-508室(近云南南路)"},{"poiid":"B2094757D66EA2F8449D","title":"盛泽居委会","lon":"121.484829","lat":"31.229952","category":"500","category_name":"未知分类","address":"上海黄浦区盛泽路31号"},{"poiid":"B2094757D069A1FB479C","title":"三运物流(上海)有限公司","lon":"121.485391738","lat":"31.2283329263","category":"500","category_name":"未知分类","address":"上海市延安东路618号10F"},{"poiid":"B2094757D66EA2FA499F","title":"上海市中药行业职业技能培训中心","lon":"121.48304773","lat":"31.229110276","category":"500","category_name":"未知分类","address":"黄浦区金陵东路417号3楼(近浙江南路)"},{"poiid":"B2094757D16AA7FA419E","title":"五度琴行","lon":"121.48315429","lat":"31.228332519","category":"249","category_name":"购物服务","address":"上海金陵路445号"},{"poiid":"B2094654DA6EA6F8429B","title":"上海南京路步行街旅游品有限公司","lon":"121.48239","lat":"31.22826","category":"263","category_name":"公司","address":"金陵东路368号金陵商厦401A"},{"poiid":"B2094654DA6EA6F8499A","title":"达民乐器旗舰店","lon":"121.48336","lat":"31.22857","category":"255","category_name":"专卖店","address":"金陵东路318号"},{"poiid":"B2094654DA6EA6F8489A","title":"寰宇模型(金陵东路)","lon":"121.48233","lat":"31.22808","category":"255","category_name":"专卖店","address":"金陵东路378"},{"poiid":"B2094757D16EA0F54198","title":"隧道三线老北门站","lon":"121.48643953","lat":"31.228945972","category":"500","category_name":"未知分类","address":"上海老北门公交站"},{"poiid":"B2094757D16AA4FE4292","title":"青莲街","lon":"121.483559","lat":"31.225737","category":"500","category_name":"未知分类","address":"上海大境路青莲街"},{"poiid":"B2094757D66CA3FC499F","title":"11路老北门站","lon":"121.486412","lat":"31.228788","category":"500","category_name":"未知分类","address":"上海人民路河南南路"},{"poiid":"B2094757D16BA1F5469B","title":"福建南路118号","lon":"121.48375123","lat":"31.227169334","category":"500","category_name":"未知分类","address":"上海福建南路118号"},{"poiid":"B2094654DA6EA6F9419C","title":"上海重德琴行","lon":"121.48545","lat":"31.22965","category":"255","category_name":"专卖店","address":"黄浦区金陵东路186号(近山东南路)"},{"poiid":"B2094654DA6EA6F9419F","title":"施特劳斯钢琴海音专卖店","lon":"121.48538","lat":"31.22961","category":"255","category_name":"专卖店","address":"金陵东路190"},{"poiid":"B2094757D568A1FC4299","title":"知音琴行售后服务部","lon":"121.48469157","lat":"31.22904188","category":"255","category_name":"专卖店","address":"中国上海市黄浦区金陵东路357"},{"poiid":"B2094654DA6EA6FA439C","title":"格致中学金陵街道云南分校","lon":"121.48274","lat":"31.22739","category":"253","category_name":"校园生活","address":"永寿路119"},{"poiid":"B2094757D065A6F84492","title":"小乖巧宠物店","lon":"121.48236227","lat":"31.226478957","category":"249","category_name":"购物服务","address":"上海广西南路96号"},{"poiid":"B2094757D06AAAF4499C","title":"比安奇家里","lon":"121.483394058","lat":"31.2270974933","category":"500","category_name":"未知分类","address":"上海南京东路120号"},{"poiid":"B2094757D16DA2F9449B","title":"哞宅","lon":"121.48598773","lat":"31.22932628","category":"500","category_name":"未知分类","address":null},{"poiid":"B2094654DA6EA6FE489E","title":"扬州第一刀(福建南路)","lon":"121.4841","lat":"31.22966","category":"149","category_name":"洗浴推拿场所","address":"福建南路77"},{"poiid":"B2094757D66FA1FF4699","title":"燕窩","lon":"121.484794738","lat":"31.2292372789","category":"500","category_name":"未知分类","address":null},{"poiid":"B2094757D16BAAF84892","title":"通用培训中心","lon":"121.48308563","lat":"31.225984573","category":"253","category_name":"校园生活","address":"上海宁桥路669号"},{"poiid":"B2094454D169A1F94998","title":"美咖专业沙龙","lon":"121.485781","lat":"31.228211","category":"248","category_name":"生活娱乐","address":"上海市 上海黄浦区人民路757号"},{"poiid":"B2094757DA65A1FA429D","title":"淮海1号酒吧","lon":"121.4843610541232","lat":"31.22915582676624","category":"248","category_name":"生活娱乐","address":"淮海路"},{"poiid":"B2094654DA6EA6FF4992","title":"天之元礼仪","lon":"121.48239","lat":"31.22826","category":"263","category_name":"公司","address":"金陵东路368号金陵商厦605C"},{"poiid":"B2094654DA6EA5FE429C","title":"丹麦唯听助听器(上海)有限公司","lon":"121.48343","lat":"31.22562","category":"263","category_name":"公司","address":"人民路885号淮海中华大厦1907-1910"},{"poiid":"B2094655D269AAF44799","title":"唯美婚礼企划","lon":"121.4822","lat":"31.22865","category":"263","category_name":"公司","address":"黄浦区浙江南路88号东新大厦403室(近金陵东路)查看地图"},{"poiid":"B2094654DA6EA6F9419B","title":"上海市公安局黄浦分局出入境办公室","lon":"121.48487","lat":"31.22935","category":"248","category_name":"生活娱乐","address":"金陵东路216"},{"poiid":"B2094654DA6EA5FE4598","title":"东淮海公寓(北门)","lon":"121.48496","lat":"31.22775","category":"656","category_name":"大门","address":"人民路777弄1-10号"},{"poiid":"B2094654DA6EA6FF4699","title":"上海鸿洋电子商务有限公司","lon":"121.4822","lat":"31.22865","category":"263","category_name":"公司","address":"浙江南路78号东新大厦317、407"},{"poiid":"B2094654DB6BA4F8469A","title":"老北门邮政所(山东南路)","lon":"121.48513","lat":"31.22778","category":"248","category_name":"生活娱乐","address":"山东南路121"},{"poiid":"B2094654DA6EA5FE459D","title":"海达婚庆礼仪(人民路)","lon":"121.48555","lat":"31.22772","category":"248","category_name":"生活娱乐","address":"人民路757号天意婚庆广场3层"},{"poiid":"B2094654DA6EA5FE479E","title":"东淮海公寓(东门)","lon":"121.48602","lat":"31.22724","category":"656","category_name":"大门","address":"豫园"},{"poiid":"B2094654DA6EA5FD439A","title":"马秀华私立口腔诊所","lon":"121.48342","lat":"31.22562","category":"668","category_name":"诊所","address":"黄浦区人民路885号淮海中华大厦501"},{"poiid":"B2094751D06EA1FE4898","title":"上海艾瑞精品酒店","lon":"121.482192","lat":"31.227659","category":"251","category_name":"出行住宿","address":"金陵东路507号"},{"poiid":"B2094654DA6EA6F84299","title":"兴业证券公司上海金陵东路营业部","lon":"121.48239","lat":"31.22826","category":"219","category_name":"其他","address":"金陵东路368号金陵商厦2-3层"},{"poiid":"B2094757D66DAAF5479C","title":"银河证券","lon":"121.485478","lat":"31.227849","category":"260","category_name":"其他","address":"上海人民路757号天意广场3楼"},{"poiid":"B2094654DA6EA6FA4398","title":"云南小区(西门)","lon":"121.48251","lat":"31.22773","category":"656","category_name":"大门","address":"永寿路99弄1-2号"},{"poiid":"B2094654DA6EA6F9409F","title":"盛泽小区(南门)","lon":"121.48455","lat":"31.22917","category":"656","category_name":"大门","address":"金陵东路246弄1-24号"},{"poiid":"B2094654DA6EA6F9469A","title":"金陵小区(西门)","lon":"121.48536","lat":"31.22905","category":"656","category_name":"大门","address":"盛泽路75弄"},{"poiid":"B2094655D26CA7F44299","title":"宝兴里(东门)","lon":"121.48266","lat":"31.22881","category":"656","category_name":"大门","address":"浙江南路89弄"},{"poiid":"B2094655D26FA6FF419D","title":"宝兴里(南门)(金陵东路)","lon":"121.48374","lat":"31.22876","category":"656","category_name":"大门","address":"金陵东路300弄1-40号"},{"poiid":"B2094654DA6EA6FA439D","title":"云南小区(东南门)","lon":"121.48284","lat":"31.22731","category":"656","category_name":"大门","address":""},{"poiid":"B2094654DA6EA6FE4793","title":"盛泽小区(北门)","lon":"121.48416","lat":"31.22994","category":"656","category_name":"大门","address":"宁海东路69弄"},{"poiid":"B2094654DA6EA6FA429A","title":"云南小区(东门)","lon":"121.48338","lat":"31.22753","category":"656","category_name":"大门","address":"浙江南路148"},{"poiid":"B2094654DA6EA6FE4892","title":"盛泽小区(西门)","lon":"121.48421","lat":"31.22952","category":"656","category_name":"大门","address":""}]