[{"poiid":"B2094757D164A7FC469E","title":"虹口龍之夢","lon":"121.472817403","lat":"31.2643187947","category":"119","category_name":"商场","address":"上海東江灣路444號龍之夢5樓"},{"poiid":"B2094757D068A1FE4498","title":"尚一汤(虹口龙之梦店)","lon":"121.476666388","lat":"31.263169685","category":"72","category_name":"广东菜","address":"虹口区西江湾路388号虹口凯德龙之梦购物中心620室(近虹口足球场)"},{"poiid":"B2094757D068A1F54499","title":"德克士(东宝兴路店)","lon":"121.47531","lat":"31.26272","category":"68","category_name":"快餐厅","address":"闸北区东宝兴路777号世纪联华1楼(近芷江中路)"},{"poiid":"B2094757D06FA4FB449B","title":"上海市国家税务局闸北分局","lon":"121.470622","lat":"31.264536","category":"500","category_name":"未知分类","address":"上海中山北路198号"},{"poiid":"B2094750D665A3F9469C","title":"鼎中鼎澳门豆捞(东宝兴路店)","lon":"121.475","lat":"31.263","category":"86","category_name":"火锅店","address":"虹口区东宝兴路777号世纪联华1楼(近芷江中路)"},{"poiid":"B2094757D06FA7F8439B","title":"世纪联华(东宝店)","lon":"121.47573","lat":"31.26202","category":"118","category_name":"超级市场","address":"上海闸北区东宝兴路777号(近芷江中路)"},{"poiid":"B2094757D068A5F94799","title":"健康煮(虹口凯德龙之梦店)","lon":"121.475750003","lat":"31.2635136779","category":"86","category_name":"火锅店","address":"上海东江湾路444号凯德龙之梦B栋2楼"},{"poiid":"B2094757D068A1FE449C","title":"开泰眼镜批发市场","lon":"121.47137","lat":"31.2622","category":"132","category_name":"眼镜店","address":"闸北区青云路452号(宝昌路口)"},{"poiid":"B2094654D56EA1FF4592","title":"上海市第六十中学","lon":"121.47238","lat":"31.26368","category":"55","category_name":"中学","address":"闸北区青云路323号(宝昌路青云路)"},{"poiid":"B2094757D16DA0F9499B","title":"东宝兴路芷江中路","lon":"121.4746851","lat":"31.262402254","category":"500","category_name":"未知分类","address":"上海市闸北区"},{"poiid":"B2094654D56CA6F4459A","title":"胖子大排档","lon":"121.47555","lat":"31.2627","category":"68","category_name":"快餐厅","address":"闸北区芷江支路(东宝兴路芷江中路)"},{"poiid":"B2094757D465A3FA4199","title":"董大师金牌稻香蛙 中山北路店","lon":"121.471295054","lat":"31.265756793","category":"71","category_name":"四川菜","address":"虹口区中山北路146号(东宝兴路口)"},{"poiid":"B2094757D068ABFD429A","title":"再回首烧烤","lon":"121.47187","lat":"31.26296","category":"269","category_name":"烧烤","address":"闸北区青云路381号(近宝昌路)"},{"poiid":"B2094757D06FA1FB4799","title":"天通庵路客服中心","lon":"121.475173","lat":"31.260955","category":"253","category_name":"校园生活","address":"上海天通庵路423号"},{"poiid":"B2094757D068AAFA499E","title":"绿洲雅宾利二期","lon":"121.47327287","lat":"31.259555091","category":"47","category_name":"住宅区","address":"上海市闸北区宝昌路399弄"},{"poiid":"B2094655D26FA6F8419A","title":"恒业公寓","lon":"121.47356","lat":"31.265381","category":"47","category_name":"住宅区","address":"上海恒业路388弄"},{"poiid":"B2094752D665A2F54098","title":"食之秘（嘉杰国际店）","lon":"121.475081","lat":"31.25984","category":"247","category_name":"餐饮美食","address":"嘉杰国际广场"},{"poiid":"B2094757D16BAAFB439B","title":"南京鸭血粉丝汤","lon":"121.47139","lat":"31.26599","category":"68","category_name":"快餐厅","address":"闸北区东宝兴路753弄1号(近世纪联华)"},{"poiid":"B2094654D56EA1F44399","title":"和颐苑","lon":"121.472375","lat":"31.262044","category":"47","category_name":"住宅区","address":"闸北区宝昌路659弄"},{"poiid":"B2094757D069A6F54498","title":"小东北烧烤","lon":"121.47581","lat":"31.26189","category":"257","category_name":"中餐厅","address":"闸北区东宝兴路714号(近天通庵路)"},{"poiid":"B2094655D36DA7FB479C","title":"芷江中路","lon":"121.4739","lat":"31.26367","category":"38","category_name":"公交车站","address":""},{"poiid":"B209475CD169A3F9449B","title":"东方明珠","lon":"121.474914","lat":"31.261812","category":"500","category_name":"未知分类","address":"上海市 上海外滩"},{"poiid":"B2094654D56CA5FC4592","title":"广中路街道社区卫生服务中心口腔科","lon":"121.47419","lat":"31.26358","category":"162","category_name":"医院","address":"东宝兴路831"},{"poiid":"B2094757D464A6F8439C","title":"洛鼎鸡 青云路店","lon":"121.473596054","lat":"31.264185793","category":"68","category_name":"快餐厅","address":"闸北区青云路321号六十中学旁(东宝兴路青云路)"},{"poiid":"B2094757D169AAFB4792","title":"好友大排档","lon":"121.4758901","lat":"31.26315927","category":"68","category_name":"快餐厅","address":"闸北区东宝兴路681号(近世纪联华)"},{"poiid":"B2094757D16EA0F5469D","title":"天通庵路","lon":"121.476906103","lat":"31.2635822793","category":"500","category_name":"未知分类","address":"上海天通庵路"},{"poiid":"B2094757D16DABF44993","title":"福佑中医门诊部","lon":"121.47332","lat":"31.26448","category":"162","category_name":"医院","address":"闸北区东宝兴路905号(恒业路青云路间)"},{"poiid":"B2094752D565A1FB4993","title":"虹口足球场","lon":"121.473479","lat":"31.261634","category":"220","category_name":"运动场所","address":null},{"poiid":"B2094752D565A3F5499A","title":"和平影都","lon":"121.474892","lat":"31.262791","category":"178","category_name":"电影院","address":"西藏南路209号"},{"poiid":"B2094757D068A5FF429B","title":"华清名苑","lon":"121.47456","lat":"31.263969","category":"47","category_name":"住宅区","address":"上海虹口区华昌路183弄"},{"poiid":"B2094654D56CA5FC469D","title":"永琪美容美发(东宝兴路)","lon":"121.47473","lat":"31.26323","category":"148","category_name":"美容美发店","address":"闸北区东宝兴路801号(近芷江中路)"},{"poiid":"B2094757D16DA0FE4292","title":"天天大排档","lon":"121.47586","lat":"31.26252","category":"68","category_name":"快餐厅","address":"闸北区芷江支路(东宝兴路芷江中路)"},{"poiid":"B2094757D16AABFD449D","title":"西北民间菜","lon":"121.470684453","lat":"31.2633926254","category":"82","category_name":"东北菜","address":"上海虹口龙之梦"},{"poiid":"B2094757D66BA1F8419A","title":"凯司令西点房 芷江店","lon":"121.472313054","lat":"31.260348793","category":"67","category_name":"甜品店","address":"闸北区芷江中路270号(近通阁路)"},{"poiid":"B2094757D065A1F54292","title":"LOFT运动创意园区缤纷桌球俱乐部","lon":"121.473384103","lat":"31.2637212822","category":"500","category_name":"未知分类","address":"虹口区同心路723号T街区2楼(近中山北一路)"},{"poiid":"B2094757D064A3FC4199","title":"上海基督教 闸北堂","lon":"121.474071","lat":"31.260398","category":"500","category_name":"未知分类","address":"上海宝通路340号(近中兴路)"},{"poiid":"B2094654D56CA6F4429D","title":"恒业公寓(南门)","lon":"121.47406","lat":"31.26447","category":"656","category_name":"大门","address":"恒业路387弄1-10号"},{"poiid":"B2094757D065A2F5439B","title":"鲜鲜大排档","lon":"121.47588","lat":"31.26252","category":"257","category_name":"中餐厅","address":"闸北区芷江支路(东宝兴路芷江中路)"},{"poiid":"B2094757D66BA4FC429E","title":"忠忠饮食店","lon":"121.475731054","lat":"31.262285793","category":"68","category_name":"快餐厅","address":"闸北区东宝兴路709号(近天通庵路)"},{"poiid":"B2094757D164A3FF479C","title":"新记茶餐厅","lon":"121.474059103","lat":"31.2634022756","category":"500","category_name":"未知分类","address":"上海市闸北区东宝新路849号"},{"poiid":"B2094655D36DA1FB409A","title":"西宝兴路","lon":"121.4709","lat":"31.2658","category":"38","category_name":"公交车站","address":""},{"poiid":"B2094757D06BA5F9409E","title":"止园路小学","lon":"121.4710733","lat":"31.2628274","category":"56","category_name":"小学","address":"闸北区止园路377号(止园路芷江中路)"},{"poiid":"B2094751DB6CA3FD459A","title":"海底捞火锅店(逸仙路店)","lon":"121.475008","lat":"31.262","category":"247","category_name":"餐饮美食","address":null},{"poiid":"B2094654DB69A4FB489E","title":"重庆鸡公煲 天通庵路店","lon":"121.47672","lat":"31.26331","category":"71","category_name":"四川菜","address":"虹口区天通庵路746号(横浜路天通庵路)"},{"poiid":"B2094655D26DA4FE419D","title":"南顺公寓","lon":"121.472","lat":"31.2621","category":"47","category_name":"住宅区","address":"南山路88弄1"},{"poiid":"B2094757D169A7FE409C","title":"辉之家","lon":"121.4737498","lat":"31.26364568","category":"500","category_name":"未知分类","address":"上海虹口"},{"poiid":"B2094654D56EA1F9439A","title":"志业公寓(东门)","lon":"121.47286","lat":"31.26427","category":"47","category_name":"住宅区","address":"东宝兴路922"},{"poiid":"B2094654D56EA1F9429C","title":"志业公寓","lon":"121.47253","lat":"31.264357","category":"47","category_name":"住宅区","address":"青云路315弄"},{"poiid":"B2094757D16CA6FE4198","title":"虹口青云别墅","lon":"121.47436475","lat":"31.262608975","category":"500","category_name":"未知分类","address":"上海青云路东宝兴路"},{"poiid":"B2094655D26AA7F44899","title":"雅发桌球","lon":"121.47289","lat":"31.26489","category":"247","category_name":"餐饮美食","address":"闸北区东宝兴路909号(近恒业路)"},{"poiid":"B2094757D16EABF9469B","title":"路边烧烤摊","lon":"121.47628","lat":"31.26301","category":"68","category_name":"快餐厅","address":"虹口区天通庵路华昌路口(世纪联华对面)"},{"poiid":"B2094752DB6AA3F5419A","title":"虹口足球场","lon":"121.474982","lat":"31.265231","category":"220","category_name":"运动场所","address":"上海市 虹口足球场"},{"poiid":"B2094757D06BA7F44798","title":"因为想念而寂寞","lon":"121.472943886","lat":"31.263839168","category":"500","category_name":"未知分类","address":"上海因为寂寞更想念"},{"poiid":"B2094752D265A5FB499B","title":"谜4真人密室逃脱馆","lon":"121.475196","lat":"31.263198","category":"500","category_name":"未知分类","address":"上海市虹口区四川北路1851号荣欣大厦1608室"},{"poiid":"B2094752D36DA5FB409B","title":"觅糖记meetdessert","lon":"121.4766484607424","lat":"31.2635149841269","category":"247","category_name":"餐饮美食","address":"甜爱路11号"},{"poiid":"B2094753D66CA6F5499D","title":"上海市中医院","lon":"121.474791","lat":"31.261484","category":"162","category_name":"医院","address":"上海市 通阁路芷江中路"},{"poiid":"B2094655D265A4F8439C","title":"上海云晨综合商场","lon":"121.47148","lat":"31.26232","category":"119","category_name":"商场","address":""},{"poiid":"B2094654DB6AAAFA4193","title":"城建大厦","lon":"121.47508","lat":"31.26476","category":"46","category_name":"楼宇","address":"青云路158号"},{"poiid":"B2094654D56EA1FE469E","title":"克莉丝汀饼屋No.282","lon":"121.47055","lat":"31.26231","category":"112","category_name":"糕饼店","address":"闸北区青云路472号"},{"poiid":"B2094654D56CA6F44499","title":"广中路街道社区卫生服务中心同心分中心","lon":"121.47473","lat":"31.26439","category":"162","category_name":"医院","address":"青云路256号"},{"poiid":"B2094654D56EA1FE4892","title":"上海市闸北区国家税务局","lon":"121.47062","lat":"31.26453","category":"250","category_name":"公园户外","address":"闸北区中山北路198号申航大厦"},{"poiid":"B2094757DB6EA4FE419D","title":"青云中学","lon":"121.476058","lat":"31.264176","category":"55","category_name":"中学","address":"青云路宝昌路"},{"poiid":"B2094654DB6BA3FB439E","title":"芷江中路678弄","lon":"121.475","lat":"31.264","category":"47","category_name":"住宅区","address":"芷江中路678弄"},{"poiid":"B2094655D264AAF4429C","title":"brother缝纫机编织机","lon":"121.47306","lat":"31.26413","category":"255","category_name":"专卖店","address":"东宝兴路908"},{"poiid":"B2094757D06FA1F9499D","title":"日月眼镜城","lon":"121.47474","lat":"31.26423","category":"132","category_name":"眼镜店","address":"上海闸北区青云路555号"},{"poiid":"B2094654D56EA1F84698","title":"通阁小区","lon":"121.4707","lat":"31.26119","category":"47","category_name":"住宅区","address":"通阁路203弄"},{"poiid":"B2094757D065A1FD469D","title":"恒通公寓","lon":"121.47247","lat":"31.265839","category":"47","category_name":"住宅区","address":"上海市虹口区恒业路417号(东宝兴路口)"},{"poiid":"B209475CD36DA1FA4492","title":"小东烧烤 东宝兴路店","lon":"121.47561","lat":"31.26218","category":"87","category_name":"特色／地方风味餐厅","address":"东宝兴路714号(近天通庵路)"},{"poiid":"B2094654D56EA1F4439E","title":"和颐苑(西门)","lon":"121.47192","lat":"31.26173","category":"47","category_name":"住宅区","address":"宝昌路659弄"},{"poiid":"B2094655D26CA0FD459B","title":"上海移动通信公司(天通庵路)","lon":"121.47517","lat":"31.26095","category":"263","category_name":"公司","address":"天通庵路423号"},{"poiid":"B2094757D164AAFB449D","title":"山东烧烤","lon":"121.4763101","lat":"31.263507277","category":"247","category_name":"餐饮美食","address":"上海市虹口区天通庵路645号"},{"poiid":"B2094655D26CA1FD4093","title":"世纪联华东宝店(二号门)","lon":"121.47573","lat":"31.26334","category":"118","category_name":"超级市场","address":""},{"poiid":"B2094655D26FA1F44593","title":"天好花苑(南门)","lon":"121.4712","lat":"31.26301","category":"47","category_name":"住宅区","address":"宝昌路728号"},{"poiid":"B2094654D56CA5FC4493","title":"金钥匙网吧","lon":"121.47338","lat":"31.26442","category":"176","category_name":"网吧","address":"闸北区东宝兴路887号(近青云路)"},{"poiid":"B2094757D06AA3F8489F","title":"宝山社区文化活动中心","lon":"121.472676","lat":"31.259981","category":"500","category_name":"未知分类","address":"上海宝昌路533号。"},{"poiid":"B2094757D064A5F4429A","title":"味之都东宝店","lon":"121.474958","lat":"31.263046","category":"500","category_name":"未知分类","address":"上海东宝兴路781号"},{"poiid":"B2094654D56EA1FE4699","title":"青云公寓","lon":"121.47034","lat":"31.261881","category":"47","category_name":"住宅区","address":"上海青云路480弄"},{"poiid":"B2094654D56EA1FE489F","title":"天好花苑","lon":"121.47113","lat":"31.26308","category":"47","category_name":"住宅区","address":"宝昌路728号"},{"poiid":"B2094757DB6CAAF44492","title":"麦当劳","lon":"121.476024","lat":"31.264175","category":"247","category_name":"餐饮美食","address":"淮海路"},{"poiid":"B2094757D66EABFC4298","title":"路边摊","lon":"121.476013","lat":"31.263288","category":"247","category_name":"餐饮美食","address":"西安路边烧烤"},{"poiid":"B2094655D264AAF94793","title":"上海市民办成才中学","lon":"121.47111","lat":"31.26427","category":"55","category_name":"中学","address":"申航大厦南小楼"},{"poiid":"B2094757D168A2FD419F","title":"秦记汤包馆","lon":"121.47134","lat":"31.259986","category":"68","category_name":"快餐厅","address":"闸北区芷江中路369号(近宝昌路)"},{"poiid":"B2094757D06AA3FF4992","title":"五木亭拉面 虹口足球场店","lon":"121.47333666","lat":"31.260626575","category":"247","category_name":"餐饮美食","address":"上海东江湾路444号5号门106室"},{"poiid":"B2094751D464A7F9439E","title":"有家川菜","lon":"121.4762681462534","lat":"31.2636860660519","category":"247","category_name":"餐饮美食","address":null},{"poiid":"B2094757D16BA6F9459C","title":"半夜","lon":"121.47328186","lat":"31.260614395","category":"247","category_name":"餐饮美食","address":"上海未知"},{"poiid":"B2094654DB6BA3FB4092","title":"良友(青云路)","lon":"121.47058","lat":"31.26267","category":"117","category_name":"便民商店/便利店","address":"青云路465"},{"poiid":"B2094654D56EA1F9499E","title":"吉祥咸肉菜饭骨头汤(东宝兴路)","lon":"121.47659","lat":"31.26146","category":"68","category_name":"快餐厅","address":"闸北区东宝兴路618号(近中兴路)"},{"poiid":"B2094654DB6BA3FB429E","title":"中国移动营业厅(天通庵路)","lon":"121.47527","lat":"31.2611","category":"151","category_name":"电讯营业厅","address":"天通庵路439号"},{"poiid":"B2094757D169A0FA489E","title":"宝昌路627号","lon":"121.4719449","lat":"31.2614556","category":"500","category_name":"未知分类","address":"上海宝昌路627号"},{"poiid":"B2094654D56EA1F9469F","title":"严家阁菜市场(天通庵路)","lon":"121.47543","lat":"31.26146","category":"117","category_name":"便民商店/便利店","address":""},{"poiid":"B2094654D56EA1F4439A","title":"上海眼镜博物馆","lon":"121.47267","lat":"31.26018","category":"182","category_name":"博物馆","address":"闸北区宝昌路533号(近芷江中路)"},{"poiid":"B2094654D56CA6FB4899","title":"良友(天通庵路)","lon":"121.47647","lat":"31.26395","category":"117","category_name":"便民商店/便利店","address":"天通庵路660-662"},{"poiid":"B2094655D265A3F8429B","title":"恒日楼","lon":"121.47334","lat":"31.2656","category":"47","category_name":"住宅区","address":"恒业路388弄1-13号"},{"poiid":"B2094654DB69A6FC469A","title":"青云路167弄","lon":"121.47542","lat":"31.2653","category":"47","category_name":"住宅区","address":"虹口区青云路"},{"poiid":"B2094654D56EA1FA449D","title":"紫光苑","lon":"121.47391","lat":"31.260046","category":"47","category_name":"住宅区","address":"上海市闸北区宝通路486号"},{"poiid":"B2094654D56EA1F94599","title":"天伟数码通讯","lon":"121.47574","lat":"31.26206","category":"138","category_name":"家电电子卖场","address":"东宝兴路708号"},{"poiid":"B2094757D16CA2FD4892","title":"下雨天","lon":"121.47164963","lat":"31.264209025","category":"500","category_name":"未知分类","address":"北京下雨天总是会让人变得安静"},{"poiid":"B2094655D26BA4FF4199","title":"恒日楼(北门)","lon":"121.47307","lat":"31.26554","category":"47","category_name":"住宅区","address":"恒业路388弄1-13号"},{"poiid":"B2094750DB64A2F84698","title":"南京东路地铁","lon":"121.474571","lat":"31.265222","category":"500","category_name":"未知分类","address":null},{"poiid":"B2094654D56CA6F44393","title":"中国人寿保险股份有限公司(青云路)","lon":"121.47425","lat":"31.26421","category":"219","category_name":"其他","address":"青云路266号2层"},{"poiid":"B2094655D26FA1F54392","title":"青云公寓(北门)","lon":"121.47047","lat":"31.26227","category":"47","category_name":"住宅区","address":"青云路480弄"},{"poiid":"B2094655D26CA7FE489B","title":"青云宿舍(南门)","lon":"121.47524","lat":"31.26523","category":"47","category_name":"住宅区","address":"青云路167弄1-99号"},{"poiid":"B2094654D56CA6F44693","title":"快客(天通庵路)","lon":"121.47678","lat":"31.26363","category":"117","category_name":"便民商店/便利店","address":"天通庵路649号"},{"poiid":"B2094655D26CA0F5499D","title":"安业公寓","lon":"121.47276","lat":"31.266218","category":"47","category_name":"住宅区","address":"浦东新区惠南镇听潮南路2号"},{"poiid":"B2094750D26CA4F4499B","title":"台北纯K","lon":"121.470243","lat":"31.263395","category":"500","category_name":"未知分类","address":"长宁区天山路341号"},{"poiid":"B2094654DB6AA3FF459A","title":"上海市地方税务局闸北总局","lon":"121.47092","lat":"31.26493","category":"250","category_name":"公园户外","address":"中山北路198号申航大厦3-7楼"},{"poiid":"B2094654D56CA5FC439E","title":"虹口区青云路小学","lon":"121.47379","lat":"31.26589","category":"56","category_name":"小学","address":"恒业路360号"},{"poiid":"B2094655D26EA2FF499A","title":"青云宿舍","lon":"121.47509","lat":"31.26563","category":"47","category_name":"住宅区","address":"青云路167弄1-99号"},{"poiid":"B2094757D66CA2F5439C","title":"唐人眼镜(青云路店)","lon":"121.47555","lat":"31.26446","category":"132","category_name":"眼镜店","address":"闸北区青云路490号(近宝昌路)"},{"poiid":"B2094655D26CA7FE449E","title":"天通庵路657弄小区(西门)","lon":"121.47681","lat":"31.26369","category":"47","category_name":"住宅区","address":"天通庵路657弄1-15号"},{"poiid":"B2094655D26AA3FD449F","title":"大成文化艺术进修学校闸北校区","lon":"121.47266","lat":"31.26018","category":"247","category_name":"餐饮美食","address":"闸北区宝昌路533号5楼(近芷江中路)"},{"poiid":"B2094757D064A3FD459F","title":"乔家栅 西宝兴路店","lon":"121.470575054","lat":"31.265549793","category":"257","category_name":"中餐厅","address":"闸北区中山北路195号(近西宝兴路)"},{"poiid":"B2094654D56EA1F8429A","title":"久欣公寓(北门)","lon":"121.47278","lat":"31.26027","category":"47","category_name":"住宅区","address":"芷江中路258弄"},{"poiid":"B2094655D264A7FF4999","title":"都市光学","lon":"121.47115","lat":"31.26249","category":"248","category_name":"生活娱乐","address":"闸北区宝昌路706号开泰市场1号(宝昌路青云路)"},{"poiid":"B2094654D56EA1F94099","title":"益丰大药房中山北路店","lon":"121.47138","lat":"31.26555","category":"162","category_name":"医院","address":"宝山路"},{"poiid":"B2094654DB69ABFF459B","title":"农工商超市(青云店)","lon":"121.47017","lat":"31.26213","category":"118","category_name":"超级市场","address":"闸北区青云路502号(宝昌路青云路)"},{"poiid":"B2094752D068A4FC4299","title":"上上谦串串香火锅","lon":"121.47344","lat":"31.265634","category":"247","category_name":"餐饮美食","address":"浦东南路999号新梅广场401B室(近八佰伴)"},{"poiid":"B2094654D56EA1F4459E","title":"富邑华庭","lon":"121.47217","lat":"31.259846","category":"47","category_name":"住宅区","address":"闸北宝昌路550弄,芷江中路口"},{"poiid":"B2094654DB6BA3FB429B","title":"好家快捷酒店上海西藏北路店","lon":"121.47146","lat":"31.26556","category":"216","category_name":"经济型连锁酒店","address":"中山北路146号(东宝兴路路口)"},{"poiid":"B2094655D26BA7FB459B","title":"凯乐宾馆","lon":"121.47027","lat":"31.26219","category":"250","category_name":"公园户外","address":"青云路496"},{"poiid":"B2094655D26CA0FD4093","title":"上海市地方税务局闸北区分局","lon":"121.47061","lat":"31.26453","category":"250","category_name":"公园户外","address":"中山北路198"},{"poiid":"B2094753D765A0F4429D","title":"体能训练工作室（ONEFIT TRAINING STUDIO）","lon":"121.471694","lat":"31.265228","category":"148","category_name":"美容美发店","address":"上海市 平型关路138号108号创意广场银座1910室"},{"poiid":"B2094654DB69AAFF4198","title":"闸北区第一税务所","lon":"121.47092","lat":"31.26493","category":"250","category_name":"公园户外","address":"闸北区中山北路198号"},{"poiid":"B2094655D269AAF5459A","title":"心连心宠物诊所","lon":"121.47224","lat":"31.26491","category":"668","category_name":"诊所","address":"闸北区东宝兴路960号(近恒业路)"},{"poiid":"B2094655D36CA3FC429D","title":"朝顺商务园区","lon":"121.47316","lat":"31.2595","category":"46","category_name":"楼宇","address":"天通庵路301号"},{"poiid":"B2094655D265A3F54192","title":"上海市名老中医诊疗所","lon":"121.4716","lat":"31.25979","category":"162","category_name":"医院","address":""},{"poiid":"B2094655D26BA7FA499F","title":"青云路铁路宿舍","lon":"121.46982","lat":"31.26276","category":"47","category_name":"住宅区","address":"青云路483弄1-4"},{"poiid":"B2094655D26BAAF94592","title":"闸北区中山北路幼儿园","lon":"121.47104","lat":"31.26052","category":"57","category_name":"幼儿园","address":"芷江中路345弄11号"},{"poiid":"B2094654D56EA1F44299","title":"宝昌都市型工业楼宇","lon":"121.47329","lat":"31.25946","category":"46","category_name":"楼宇","address":"天通庵路301号"},{"poiid":"B2094750D165A6F5459B","title":"衡山路","lon":"121.475532","lat":"31.265014","category":"500","category_name":"未知分类","address":null},{"poiid":"B2094757D06BA3F84798","title":"弘丰新苑","lon":"121.47701","lat":"31.261816","category":"47","category_name":"住宅区","address":"上海中兴路110弄"},{"poiid":"B2094655D264ABFA499E","title":"青云路铁路宿舍(南门)","lon":"121.46985","lat":"31.26259","category":"47","category_name":"住宅区","address":"青云路483弄1-4"},{"poiid":"B2094757D169ABFD409A","title":"飘鹰公寓","lon":"121.47328","lat":"31.266411","category":"500","category_name":"未知分类","address":"上海市虹口区恒业路365号"},{"poiid":"B2094654D56CA6F44498","title":"华清名苑(北门)","lon":"121.47441","lat":"31.26428","category":"656","category_name":"大门","address":"青云路260"},{"poiid":"B2094654D56CA6F4449E","title":"华清名苑(东门)","lon":"121.47518","lat":"31.26407","category":"656","category_name":"大门","address":"华昌路183弄"},{"poiid":"B2094757D165ABF9439A","title":"久欣公寓","lon":"121.47313","lat":"31.260344","category":"252","category_name":"楼宇机构","address":"上海市闸北区芷江中路"},{"poiid":"B2094655D26CA7FD4192","title":"好德便利No.691","lon":"121.47195","lat":"31.25979","category":"117","category_name":"便民商店/便利店","address":"芷江中路268甲"},{"poiid":"B2094757D065A6F44792","title":"漱芳齋","lon":"121.47459099","lat":"31.265570942","category":"500","category_name":"未知分类","address":"上海恆業路332號"},{"poiid":"B2094655D26DA4FF449C","title":"芷江中路363弄小区","lon":"121.47135","lat":"31.2602","category":"47","category_name":"住宅区","address":"芷江中路363弄"},{"poiid":"B2094654DB6AAAFA449C","title":"恒业公寓(西门)","lon":"121.47304","lat":"31.26476","category":"656","category_name":"大门","address":"东宝兴路905"},{"poiid":"B2094757D165A7FA4793","title":"汽宝美容与装饰","lon":"121.476386103","lat":"31.2635952796","category":"500","category_name":"未知分类","address":"上海天通庵路657"},{"poiid":"B2094654D56EA1F8419C","title":"上海银行宝通支行","lon":"121.47294","lat":"31.26031","category":"150","category_name":"银行","address":"芷江中路258弄1号"},{"poiid":"B2094757D16CA3F94093","title":"Joni小巢","lon":"121.472548603","lat":"31.2604752144","category":"500","category_name":"未知分类","address":"上海宝通路陆丰路"},{"poiid":"B2094654D56CA6F4479A","title":"扬子美发厅","lon":"121.47702","lat":"31.26393","category":"148","category_name":"美容美发店","address":"虹口区天通庵路681号101室"},{"poiid":"B2094654D56EA1F8439E","title":"华氏大药房芷江分店","lon":"121.47144","lat":"31.26001","category":"162","category_name":"医院","address":"闸北区芷江中路365号(通阁路芷江中路)"},{"poiid":"B2094654D56CA6F44199","title":"自由港休闲中心","lon":"121.47571","lat":"31.26507","category":"149","category_name":"洗浴推拿场所","address":""},{"poiid":"B2094655D26CA7FE4898","title":"恒业路313弄小区(南门)","lon":"121.47399","lat":"31.26655","category":"47","category_name":"住宅区","address":"恒业路313弄1-4号"},{"poiid":"B2094757D065A1F84892","title":"虹口花苑","lon":"121.476495103","lat":"31.2652543143","category":"252","category_name":"楼宇机构","address":"上海天通庵路666弄"},{"poiid":"B209475CD46AA3FE4792","title":"OneFit体能训练工作室","lon":"121.471527","lat":"31.265846","category":"148","category_name":"美容美发店","address":"上海市 平型关路138号108创意广场"},{"poiid":"B2094655D26CA7FF419F","title":"伊家快捷酒店","lon":"121.47155","lat":"31.26005","category":"216","category_name":"经济型连锁酒店","address":"闸北区芷江中路361号(近宝昌路)"},{"poiid":"B2094751D26DA4F54799","title":"小南国花园酒店","lon":"121.4763","lat":"31.2651","category":"500","category_name":"未知分类","address":null},{"poiid":"B2094655D26DABF8439A","title":"芷江中路363弄(南门)","lon":"121.47146","lat":"31.26003","category":"47","category_name":"住宅区","address":"芷江中路363弄"},{"poiid":"B2094654D56CA5FC4498","title":"辉煌时代游艺城","lon":"121.47269","lat":"31.26511","category":"173","category_name":"游戏厅","address":"广中路"},{"poiid":"B2094654D56EA1F94092","title":"倪氏燃气车服务中心(东宝兴路)","lon":"121.47177","lat":"31.26546","category":"159","category_name":"汽车维修","address":"东宝兴路1018"},{"poiid":"B2094654D56EA1FA4698","title":"上海青苹果俱乐部","lon":"121.47386","lat":"31.26051","category":"248","category_name":"生活娱乐","address":"宝通路539"},{"poiid":"B2094757D065A1FC489C","title":"上海電影技術廠","lon":"121.4751948","lat":"31.259848801","category":"500","category_name":"未知分类","address":"上海閘北區寶通路449號"},{"poiid":"B2094757D66CABF44399","title":"Marienbad Cafe&amp;Bar","lon":"121.471314653","lat":"31.2599070859","category":"172","category_name":"酒吧","address":"上海安福路"},{"poiid":"B2094655D264A0FC4393","title":"乐眸(上海)眼镜有限公司","lon":"121.47014","lat":"31.26213","category":"132","category_name":"眼镜店","address":"青云路496之1-2临"},{"poiid":"B2094654D56EA1F8499C","title":"广盛公寓(东门)","lon":"121.47037","lat":"31.26401","category":"48","category_name":"楼宇大门","address":"宝昌路738弄"},{"poiid":"B2094757D16CA0F54598","title":"工商银行(中山北路支行)","lon":"121.470474","lat":"31.265456","category":"150","category_name":"银行","address":"上海中山北路177号"},{"poiid":"B2094654D56CA5FC499C","title":"上海电气人力资源有限公司","lon":"121.47669","lat":"31.26243","category":"263","category_name":"公司","address":"天通庵路569"},{"poiid":"B2094757D165A3FC4592","title":"小王子造型设计美容美体(小王子理发)","lon":"121.472512103","lat":"31.2601642079","category":"148","category_name":"美容美发店","address":"上海市闸北区芷江中路262号"},{"poiid":"B2094757DA65A6F54093","title":"虹口区","lon":"121.470349","lat":"31.263539","category":"251","category_name":"出行住宿","address":"花园路"},{"poiid":"B2094757D164A2FE469B","title":"云之北","lon":"121.470403887","lat":"31.2615291832","category":"500","category_name":"未知分类","address":null},{"poiid":"B2094655D36CA3F8429B","title":"朝顺宾馆","lon":"121.47293","lat":"31.25953","category":"250","category_name":"公园户外","address":"宝昌路517临"},{"poiid":"B2094752D76CA3FB439F","title":"上海动物园","lon":"121.473921","lat":"31.25954","category":"500","category_name":"未知分类","address":null},{"poiid":"B2094757D065A4F9409D","title":"933中山北一路西宝兴路站","lon":"121.471138","lat":"31.265745163","category":"500","category_name":"未知分类","address":"上海中山北一路西宝兴路"},{"poiid":"B2094757D66FA0F44793","title":"驰加TYREPLUS中山北路店","lon":"121.4715041","lat":"31.266303336","category":"500","category_name":"未知分类","address":"上海中山北路123号"},{"poiid":"B2094757D164AAFC4993","title":"上海市闸北区宝山路街道社区事务受理中心","lon":"121.473641103","lat":"31.2592811895","category":"500","category_name":"未知分类","address":"上海市闸北区宝昌路519号"},{"poiid":"B2094757D66EA6F84899","title":"中华新路鸿兴路","lon":"121.4700861","lat":"31.261674239","category":"500","category_name":"未知分类","address":"上海市闸北区中华新路鸿兴路"},{"poiid":"B2094654D56EA1F94098","title":"上海永协汽车销售有限公司","lon":"121.4713","lat":"31.26543","category":"158","category_name":"汽车销售","address":"中山北路158"},{"poiid":"B2094654DB6AAAFA419D","title":"虹口花苑(西门)","lon":"121.47581","lat":"31.26397","category":"656","category_name":"大门","address":""},{"poiid":"B2094654D56CA5FC4393","title":"恒业公寓(北门)","lon":"121.47312","lat":"31.26549","category":"656","category_name":"大门","address":"恒业路388弄1-12号"},{"poiid":"B2094654D56EA1FE4493","title":"上海电器陶瓷厂有限公司","lon":"121.46971","lat":"31.26222","category":"263","category_name":"公司","address":"青云路517号"},{"poiid":"B2094655D26FA0F5469A","title":"飘鹰公寓(南门)","lon":"121.47344","lat":"31.26615","category":"48","category_name":"楼宇大门","address":"恒业路365弄1-18号"},{"poiid":"B2094654DB6AAAFA429B","title":"虹口花苑(北门)","lon":"121.47541","lat":"31.26494","category":"656","category_name":"大门","address":"青云路150"},{"poiid":"B2094654D56EA1FA449C","title":"紫光苑(东门)","lon":"121.47402","lat":"31.25995","category":"48","category_name":"楼宇大门","address":"宝通路518弄"},{"poiid":"B2094654D56EA1FA459A","title":"上海康达影像制作有限公司","lon":"121.47551","lat":"31.25993","category":"263","category_name":"公司","address":"闸北区宝通路447"},{"poiid":"B2094655D26CA0F54992","title":"安业公寓(南门)","lon":"121.47306","lat":"31.2659","category":"656","category_name":"大门","address":"恒业路367弄"},{"poiid":"B2094655D26FA7F5409D","title":"虹口花苑(南门)","lon":"121.47653","lat":"31.26397","category":"656","category_name":"大门","address":"天通庵路666弄1-40号"},{"poiid":"B2094655D26CA0F54993","title":"安业公寓(南二门)","lon":"121.47292","lat":"31.26579","category":"656","category_name":"大门","address":""},{"poiid":"B2094654D56EA1F4459F","title":"富邑华庭(东门)","lon":"121.47248","lat":"31.2596","category":"48","category_name":"楼宇大门","address":"宝昌路550弄"},{"poiid":"B2094655D26FA7F8459B","title":"虹口花苑(北二门)","lon":"121.47604","lat":"31.26528","category":"656","category_name":"大门","address":"青云路108弄"},{"poiid":"B2094654D56EA1FE4592","title":"通阁小区(北门)","lon":"121.46985","lat":"31.26181","category":"656","category_name":"大门","address":""}]