[{"poiid":"B2094654DA68A7FE4398","title":"上海交通大学医学院附属第九人民医院","lon":"121.48547","lat":"31.20242","category":"162","category_name":"医院","address":"上海市黄浦区制造局路639号"},{"poiid":"B2094757D06EAAFB489A","title":"西藏南路地铁站","lon":"121.48955049","lat":"31.201815904","category":"36","category_name":"地铁站","address":"黄浦区西藏南路"},{"poiid":"B2094757D068A3FF4999","title":"上海第九人民医院一号楼(牙科)","lon":"121.4861226","lat":"31.201654541","category":"162","category_name":"医院","address":"上海市黄浦区制造局路639号"},{"poiid":"B2094753D76FAAFA449C","title":"上海滩国泰旗舰店","lon":"121.466011","lat":"31.216125","category":"249","category_name":"购物服务","address":"淮海中路868号"},{"poiid":"B209475CD564A7F84292","title":"上海滩新天地店","lon":"121.47463","lat":"31.22164","category":"119","category_name":"商场","address":"\"太仓路181弄新天地北里15号\r\n\""},{"poiid":"B2094655D36DA1FB4193","title":"西藏南路","lon":"121.48925","lat":"31.20238","category":"38","category_name":"公交车站","address":"上海八号线西藏南路站"},{"poiid":"B2094655D268A5FB499B","title":"上海交通大学口腔医学院九院临床医学院","lon":"121.4868","lat":"31.1995","category":"52","category_name":"高等院校","address":""},{"poiid":"B2094757D06FA4FB409F","title":"世博园二号门","lon":"121.49101012","lat":"31.200848717","category":"260","category_name":"其他","address":"上海世博园二号门西藏南路出入口"},{"poiid":"B2094654DA68A7F4499B","title":"卢湾都市花园","lon":"121.4851008675","lat":"31.200123503758","category":"47","category_name":"住宅区","address":"上海市卢湾区鲁班路509号"},{"poiid":"B2094757D068A0F84293","title":"上海交通大学医学院附属第九人民医院（总院）7号楼","lon":"121.485483","lat":"31.202928","category":"162","category_name":"医院","address":"上海黄浦区制造局路639号(近瞿溪路)"},{"poiid":"B2094750D56DA6FF439B","title":"x先生密室","lon":"121.486541","lat":"31.200435","category":"500","category_name":"未知分类","address":"卢湾区局门路550号八号桥三期1号楼"},{"poiid":"B2094757D569A3FF459F","title":"天水雅居(瞿溪店)","lon":"121.48796","lat":"31.20321611","category":"74","category_name":"江苏菜","address":"黄浦区瞿溪路479号(近西藏南路)"},{"poiid":"B2094654DA68A7FE429A","title":"五爱高级中学","lon":"121.48476","lat":"31.20134","category":"55","category_name":"中学","address":"卢湾区制造局路666号(近瞿溪路)"},{"poiid":"B2094757D06AA4F94292","title":"coffee bean","lon":"121.48605346","lat":"31.199184417","category":"65","category_name":"咖啡厅","address":"上海8号桥三期"},{"poiid":"B2094654DA68A7F94699","title":"黄金岛大酒店","lon":"121.48628","lat":"31.19932","category":"250","category_name":"公园户外","address":"卢湾区制造局路833弄口(近市第九人民医院)"},{"poiid":"B2094757D068A4FE4799","title":"蔡先生苏州汤包馆(制造局路店)","lon":"121.48496","lat":"31.20279","category":"68","category_name":"快餐厅","address":"卢湾区制造局路592号(近第九人民医院)"},{"poiid":"B2094757D06FABFF4399","title":"上海市第九人民医院2号楼","lon":"121.485595653","lat":"31.2028247612","category":"162","category_name":"医院","address":"上海市黄浦区制造局路639号"},{"poiid":"B2094655D269AAFA4892","title":"世和酒店","lon":"121.48844","lat":"31.20322","category":"247","category_name":"餐饮美食","address":"黄浦区西藏南路1528号(瞿溪路口)"},{"poiid":"B2094751DA6BA0FA419D","title":"世博源巴国布衣","lon":"121.486386","lat":"31.198458","category":"247","category_name":"餐饮美食","address":"世博大道1368号世博源"},{"poiid":"B2094655D36DA7F84792","title":"中山南一路西藏南路","lon":"121.48866","lat":"31.20129","category":"38","category_name":"公交车站","address":""},{"poiid":"B2094757D06AA4FE449B","title":"九院口腔颌面外科","lon":"121.485124","lat":"31.203228","category":"162","category_name":"医院","address":"上海制造局639号"},{"poiid":"B2094655D268A4F84098","title":"上海交通大学口腔医学院九院临床医学院(南门)","lon":"121.48694","lat":"31.19947","category":"52","category_name":"高等院校","address":""},{"poiid":"B2094757D06FABFD4999","title":"全家便利店(西藏南路店)","lon":"121.48975","lat":"31.20234","category":"117","category_name":"便民商店/便利店","address":"黄浦区西藏南路1521号(近中山南一路)"},{"poiid":"B2094654DA68A7FE459B","title":"瞿四小区(瞿溪路)","lon":"121.48677","lat":"31.20107","category":"47","category_name":"住宅区","address":"中山南一路247弄1-24号"},{"poiid":"B2094655D26BA6FB4192","title":"上海交通大学口腔医学院(西门)","lon":"121.48699","lat":"31.1995","category":"52","category_name":"高等院校","address":"制造局路833弄12"},{"poiid":"B2094654DA68A7F9469E","title":"黄金岛食府","lon":"121.4861","lat":"31.19926","category":"76","category_name":"上海菜","address":"黄浦区制造局路789号(近中山南一路口)"},{"poiid":"B2094757D06BA3F4449B","title":"上海市第九人民医院临床医学院宿舍楼","lon":"121.486989","lat":"31.199509","category":"253","category_name":"校园生活","address":"上海制造局路833弄12号"},{"poiid":"B2094757D068ABFE4499","title":"上海卢工邮币卡交易市场","lon":"121.482825715","lat":"31.2002586785","category":"134","category_name":"古玩字画店","address":"卢湾区局门路600号(局门路中山南一路)"},{"poiid":"B2094655D268A4F8409C","title":"惠祥公寓","lon":"121.48793","lat":"31.199553","category":"47","category_name":"住宅区","address":"制造局路833弄19号"},{"poiid":"B2094655D268A5FB489D","title":"嘉登公寓","lon":"121.48667","lat":"31.19915","category":"47","category_name":"住宅区","address":"制造局路833弄8号-11号"},{"poiid":"B2094757D16CA0F5439A","title":"香港新世界花园一期","lon":"121.48666023","lat":"31.197706047","category":"47","category_name":"住宅区","address":"上海市卢湾区中山南一路500弄"},{"poiid":"B2094757D069ABFB409F","title":"吴越人家面馆(制造局路店)","lon":"121.4855","lat":"31.20157","category":"68","category_name":"快餐厅","address":"卢湾区制造局路640号(近中山南一路)"},{"poiid":"B2094654DB64AAF54999","title":"上海市黄浦区科技工业大楼","lon":"121.48626","lat":"31.19946","category":"46","category_name":"楼宇","address":"制造局路787号"},{"poiid":"B2094654DA68A7F9419F","title":"黄浦科技孵化大楼","lon":"121.48626","lat":"31.19945","category":"46","category_name":"楼宇","address":"制造局路787号"},{"poiid":"B2094655D268A4FB409F","title":"惠祥公寓(西门)","lon":"121.48741","lat":"31.19955","category":"47","category_name":"住宅区","address":"制造局路833弄19号"},{"poiid":"B2094655D268A5FB4893","title":"嘉登公寓(北门)","lon":"121.48651","lat":"31.19924","category":"47","category_name":"住宅区","address":"制造局路833弄8号-11号"},{"poiid":"B2094654DB6BABF9409E","title":"悦悦旺","lon":"121.4858","lat":"31.20039","category":"86","category_name":"火锅店","address":"卢湾区中山南一路299号](制造局路口)"},{"poiid":"B2094655D26EA0FD4199","title":"丽华快餐","lon":"121.48635","lat":"31.19905","category":"257","category_name":"中餐厅","address":"黄浦区制造局路833号"},{"poiid":"B2094753DA69A4FC429B","title":"华东理工大学","lon":"121.485984","lat":"31.199546","category":"500","category_name":"未知分类","address":"上海市 上海市徐汇区梅陇路130号"},{"poiid":"B2094757DB6DABFA4793","title":"莫泰168（上海西藏南路店）—原千岛湖酒店","lon":"121.4901403","lat":"31.19946134","category":"215","category_name":"三星级宾馆","address":"上海市黄浦区西藏南路1735号（近中山南路路口）"},{"poiid":"B2094654DA68A7FA409E","title":"晟光商务","lon":"121.48671","lat":"31.19829","category":"46","category_name":"楼宇","address":"制造局路893"},{"poiid":"B2094654DA68A7F9489B","title":"南康公寓","lon":"121.48646","lat":"31.19877","category":"47","category_name":"住宅区","address":"制造局路859弄"},{"poiid":"B2094655D26FA5FC4799","title":"望江苑","lon":"121.4892","lat":"31.198946","category":"47","category_name":"住宅区","address":"高雄路185,189"},{"poiid":"B2094753D164A4F5479A","title":"上海儿童艺术剧场","lon":"121.488466","lat":"31.199832","category":"500","category_name":"未知分类","address":"上海市 苗江路800号"},{"poiid":"B2094655D268A5FB489C","title":"南康公寓(西门)","lon":"121.48632","lat":"31.19869","category":"47","category_name":"住宅区","address":"制造局路859弄"},{"poiid":"B2094757D66CA6FA4298","title":"胖子烧烤","lon":"121.48614","lat":"31.19889","category":"68","category_name":"快餐厅","address":"卢湾区制造局路833弄内(近中山南一路)"},{"poiid":"B2094654DA68A7F94198","title":"华联超市No.2685","lon":"121.48607","lat":"31.19944","category":"118","category_name":"超级市场","address":"半淞园路"},{"poiid":"B2094753D36EA4F44699","title":"上汽荣威儿童艺术中心","lon":"121.489086","lat":"31.199906","category":"500","category_name":"未知分类","address":"上海市 上海市苗江路800号"},{"poiid":"B2094654DB65A3FD469F","title":"上海第二医科大学附属第九人民医院门诊部","lon":"121.48548","lat":"31.20292","category":"162","category_name":"医院","address":"制造局路639号"},{"poiid":"B2094654DA68A7F8419E","title":"良友金伴便利No.196","lon":"121.4864","lat":"31.20054","category":"117","category_name":"便民商店/便利店","address":"中山南一路291"},{"poiid":"B2094757D069ABF5489C","title":"上海市荷花池幼儿园","lon":"121.488098145","lat":"31.2027244568","category":"500","category_name":"未知分类","address":"黄浦区瞿溪路468号(瞿溪路西藏南路)"},{"poiid":"B2094654DB65A5F84298","title":"银锚大厦","lon":"121.48531","lat":"31.19899","category":"46","category_name":"楼宇","address":"江边路181号"},{"poiid":"B2094753DA69A3FD4593","title":"绿城•盛世滨江","lon":"121.485595","lat":"31.199218","category":"500","category_name":"未知分类","address":"上海市 蒙自路"},{"poiid":"B2094757D16CA6F5449D","title":"卢湾公安分局","lon":"121.485741738","lat":"31.1988945326","category":"500","category_name":"未知分类","address":"上海中山南一路599号"},{"poiid":"B2094654DA68A7FD4898","title":"东怡花苑","lon":"121.48348","lat":"31.200453","category":"47","category_name":"住宅区","address":"上海市卢湾区局门路599弄"},{"poiid":"B2094654DA68A7FE4698","title":"明珠家园","lon":"121.48727","lat":"31.202999","category":"47","category_name":"住宅区","address":"上海市黄浦区瞿溪路548号"},{"poiid":"B2094757D06BA1FA4098","title":"700啤酒屋","lon":"121.48716847","lat":"31.201254408","category":"247","category_name":"餐饮美食","address":"上海汝南路"},{"poiid":"B2094757DA6EABF4459D","title":"制造局路833弄","lon":"121.486151200002","lat":"31.1988697999997","category":"252","category_name":"楼宇机构","address":"卢湾区制造局路833弄"},{"poiid":"B2094757D068A7F94292","title":"7-ELEVEN(局门店)","lon":"121.485566","lat":"31.200914","category":"117","category_name":"便民商店/便利店","address":"卢湾区局门路525号(近瞿溪路)"},{"poiid":"B2094757D66CA6FA4692","title":"西藏南路隧道北入口","lon":"121.489557138","lat":"31.2012451826","category":"500","category_name":"未知分类","address":"上海西藏南路中山南路"},{"poiid":"B2094757D468A7FA4099","title":"九院食堂","lon":"121.485805","lat":"31.202255","category":"68","category_name":"快餐厅","address":"卢湾区制造局路639号第九人民医院(近瞿溪路)"},{"poiid":"B2094654DA68A7F84098","title":"半淞都市型工业园区","lon":"121.48732","lat":"31.20145","category":"45","category_name":"产业园区","address":""},{"poiid":"B2094654DB64ABFC4393","title":"中南小区","lon":"121.48417","lat":"31.200089","category":"47","category_name":"住宅区","address":"中山南路447.449.451.453号"},{"poiid":"B2094750DA68A6F94398","title":"Mr X 密室逃脱","lon":"121.483734","lat":"31.198822","category":"248","category_name":"生活娱乐","address":null},{"poiid":"B2094753D165A3FE4298","title":"上海儿童艺术剧场","lon":"121.490011","lat":"31.198779","category":"500","category_name":"未知分类","address":"上海市 上海市黄浦区苗江路"},{"poiid":"B2094654DA68A7FA419E","title":"望江苑(南门)","lon":"121.48947","lat":"31.1987","category":"47","category_name":"住宅区","address":""},{"poiid":"B2094757D065A1F8459A","title":"瞿四小区","lon":"121.48619173","lat":"31.200997677","category":"252","category_name":"楼宇机构","address":"上海市黄浦区制造局路瞿溪路"},{"poiid":"B2094654DA68A7FA459F","title":"阿毛餐馆","lon":"121.48593","lat":"31.19995","category":"260","category_name":"其他","address":"黄浦区中山南一路302号(近制造局路)"},{"poiid":"B2094750D768A0F4449E","title":"六二和牛肉面(汝南街店)","lon":"121.485","lat":"31.2028","category":"68","category_name":"快餐厅","address":"卢湾区汝南街130号(近局门路)"},{"poiid":"B2094655D268A7F5459A","title":"丽都大厦1号楼(东门)","lon":"121.48579","lat":"31.19936","category":"48","category_name":"楼宇大门","address":""},{"poiid":"B2094757D069A3F4489A","title":"世博会可口可乐馆","lon":"121.48672","lat":"31.19594","category":"183","category_name":"展览馆","address":"上海世博会D片区"},{"poiid":"B2094654DB6BABF9409F","title":"快客(制造局路邮政所东南)","lon":"121.48562","lat":"31.20154","category":"117","category_name":"便民商店/便利店","address":"制造局路679-681"},{"poiid":"B2094654DB64ABF8479A","title":"中国船舶工业集团公司第七〇八研究所","lon":"121.49001","lat":"31.20003","category":"191","category_name":"科研机构","address":"西藏南路1688"},{"poiid":"B2094752D565ABFB429C","title":"IKEA宜家","lon":"121.490448","lat":"31.199768","category":"249","category_name":"购物服务","address":"徐家匯"},{"poiid":"B2094654DA68A7FB489E","title":"重矿大厦(局门路)","lon":"121.48281","lat":"31.19965","category":"46","category_name":"楼宇","address":"局门路620"},{"poiid":"B2094655D268A5FE419F","title":"瞿四小区(北门)","lon":"121.48625","lat":"31.20155","category":"47","category_name":"住宅区","address":""},{"poiid":"B2094757D16BA2FA489D","title":"X!a0 H0m€","lon":"121.48590973","lat":"31.20064967","category":"500","category_name":"未知分类","address":"上海市黄浦区制造局路721弄"},{"poiid":"B2094654DB6BABF84399","title":"千岛湖鱼味馆(西藏南路)","lon":"121.49118","lat":"31.19951","category":"260","category_name":"其他","address":"黄浦区西藏南路1735号千岛湖酒店副楼2楼(近高雄路)"},{"poiid":"B2094654DA68A7FE4693","title":"上海市大境初级中学","lon":"121.48815","lat":"31.20354","category":"55","category_name":"中学","address":"黄浦区瞿溪路437号(近西藏南路)"},{"poiid":"B2094757D16AABFF479E","title":"BBPHOTO","lon":"121.4855134","lat":"31.198104563","category":"500","category_name":"未知分类","address":"上海西藏南路773号"},{"poiid":"B2094757D168A0F84498","title":"上海永利工业制带有限公司","lon":"121.488741738","lat":"31.1983056201","category":"263","category_name":"公司","address":"上海制造局路861号"},{"poiid":"B2094753D46AA7F4439E","title":"外婆家（虹口龙之梦店）","lon":"121.487358","lat":"31.201837","category":"500","category_name":"未知分类","address":"上海市 西江湾路388号虹口凯德龙之梦购物中心B楼2楼(近虹口足球场)"},{"poiid":"B209475DD76FA4FC4299","title":"上海外滩","lon":"121.489639","lat":"31.200765","category":"627","category_name":"一般地点标志","address":"上海市 外滩"},{"poiid":"B2094757D069A4F54198","title":"第二医科大学第九医院整形口腔门诊","lon":"121.4854","lat":"31.20253","category":"162","category_name":"医院","address":"上海卢湾区制造局路639号(近瞿溪路)"},{"poiid":"B2094757D165A6FB429D","title":"四川北路社区文化活动中心","lon":"121.488570838","lat":"31.2011066797","category":"500","category_name":"未知分类","address":"上海海伦路"},{"poiid":"B2094757D169A6FE489F","title":"世博高雄路出入口","lon":"121.48752594","lat":"31.1971988678","category":"500","category_name":"未知分类","address":"上海高雄路製造局路"},{"poiid":"B2094751D269A4FC4192","title":"邦德造型","lon":"121.484352","lat":"31.19894","category":"249","category_name":"购物服务","address":"蒙自路258号"},{"poiid":"B2094751D569ABF44498","title":"面旺","lon":"121.48364","lat":"31.201698","category":"247","category_name":"餐饮美食","address":"卢湾区瞿溪路691号(近局门路)"},{"poiid":"B2094750D76EAAFA4298","title":"映水涵","lon":"121.485","lat":"31.2028","category":"76","category_name":"上海菜","address":"卢湾区汝南街124-2号(近局门路)"},{"poiid":"B2094655D26EA7F8499C","title":"西藏南路1566弄","lon":"121.48838","lat":"31.20213","category":"47","category_name":"住宅区","address":"西藏南路1566弄"},{"poiid":"B2094654DA68A7FD4599","title":"洪兴餐馆","lon":"121.485","lat":"31.20266","category":"76","category_name":"上海菜","address":"卢湾区制造局路598号(近第九人民医院)"},{"poiid":"B2094753D668A2FB4398","title":"上海市出入境管理（黄埔分局）","lon":"121.48374","lat":"31.19834","category":"500","category_name":"未知分类","address":"上海市 上海市蒙自路701号"},{"poiid":"B2094654DB6BABF84398","title":"上海千岛湖酒店(黄浦店)","lon":"121.49118","lat":"31.19951","category":"215","category_name":"三星级宾馆","address":"黄浦区西藏南路1735号(清流北街西藏南路)"},{"poiid":"B2094757D164A2FA479F","title":"我们的纪念日","lon":"121.485523738","lat":"31.2011066797","category":"500","category_name":"未知分类","address":"北京纪念我们那重要的回忆"},{"poiid":"B2094654DB65A1F54693","title":"制造局路646弄","lon":"121.48494","lat":"31.20178","category":"47","category_name":"住宅区","address":""},{"poiid":"B2094751D56EABFC499F","title":"上海交通大学附属第九人民医院","lon":"121.48516","lat":"31.20207","category":"162","category_name":"医院","address":"制造局路"},{"poiid":"B2094751D465A1F8469E","title":"大光明电影院","lon":"121.484431","lat":"31.202898","category":"178","category_name":"电影院","address":null},{"poiid":"B2094752DB6DA2FC4192","title":"正大星美国际影城","lon":"121.483816","lat":"31.199694","category":"500","category_name":"未知分类","address":"上海市 陆家嘴"},{"poiid":"B2094654DA68A7FE439B","title":"第九人民医院发热门诊","lon":"121.48539","lat":"31.20263","category":"162","category_name":"医院","address":"制造局路651"},{"poiid":"B2094757D164A2FE439A","title":"西藏南路唐家宅小区","lon":"121.485061538","lat":"31.2008715747","category":"500","category_name":"未知分类","address":"上海家里～"},{"poiid":"B2094757D66DA4FB429E","title":"九院5号楼5楼","lon":"121.486545738","lat":"31.2021117011","category":"500","category_name":"未知分类","address":"上海制造局路"},{"poiid":"B2094654DA68A7FC4492","title":"汇典商务楼","lon":"121.48342","lat":"31.20141","category":"46","category_name":"楼宇","address":"瞿溪路694号"},{"poiid":"B2094654DB65A2FD419E","title":"局三小区","lon":"121.48516","lat":"31.20171","category":"47","category_name":"住宅区","address":"制造局路646弄1-10号"},{"poiid":"B2094654DA68A0FC489A","title":"越纪公寓","lon":"121.49081","lat":"31.201597","category":"47","category_name":"住宅区","address":"中山南路1891号-1893号"},{"poiid":"B2094655D26FABFC479E","title":"西藏南路1566弄小区(东门)","lon":"121.48923","lat":"31.20203","category":"47","category_name":"住宅区","address":"西藏南路1566弄"},{"poiid":"B2094757D069A7FB429A","title":"23路西藏南路瞿溪路站","lon":"121.489104124","lat":"31.2012954409","category":"500","category_name":"未知分类","address":"上海黄浦区西藏南路1427号(对面)"},{"poiid":"B2094654DA6DA4FA439E","title":"雪龙新村","lon":"121.48371112891","lat":"31.200633817744","category":"47","category_name":"住宅区","address":"龙华东路565弄"},{"poiid":"B2094655D265A4FD489C","title":"丰盛皇朝","lon":"121.486673","lat":"31.20328","category":"47","category_name":"住宅区","address":"卢湾中山南一路500号(近蒙自路)"},{"poiid":"B2094454D06DA6FA499E","title":"梅赛德斯-奔驰文化中心","lon":"121.48645","lat":"31.203289","category":"627","category_name":"一般地点标志","address":"上海市 上海浦东世博大道1200号"},{"poiid":"B2094757D164A4F8449E","title":"上海市第九人民医院整形外科一病区","lon":"121.486047138","lat":"31.2024534084","category":"500","category_name":"未知分类","address":null},{"poiid":"B2094655D268A5FE4192","title":"制造局路646弄小区(北门)","lon":"121.48489","lat":"31.20205","category":"47","category_name":"住宅区","address":"制造局路646弄"},{"poiid":"B2094654DB6BABF94598","title":"上海市总工会卢湾区工人体育场(局门路)","lon":"121.48295","lat":"31.20004","category":"224","category_name":"综合体育馆","address":"局门路600号"},{"poiid":"B2094752D26AAAFC489D","title":"上海政法学院","lon":"121.486179","lat":"31.196277","category":"253","category_name":"校园生活","address":null},{"poiid":"B2094753D56FA2F8429D","title":"秀寿司","lon":"121.483596","lat":"31.201917","category":"247","category_name":"餐饮美食","address":"上海市 瞿溪路"},{"poiid":"B2094655D268A5FF4999","title":"永厦大楼","lon":"121.48849","lat":"31.20298","category":"47","category_name":"住宅区","address":"永厦大楼―上海人家位于卢湾西藏南路1558弄"},{"poiid":"B2094757D06BA0FA4092","title":"DOS HOP潮尚运动","lon":"121.48951","lat":"31.20226","category":"249","category_name":"购物服务","address":"上海黄浦区西藏南路1501号  "},{"poiid":"B2094654DB6BABF9409A","title":"原水小区","lon":"121.48381","lat":"31.20153","category":"47","category_name":"住宅区","address":"瞿溪路680弄1-4号"},{"poiid":"B2094655D36DA1FB429A","title":"西藏南路高雄路(临时站)","lon":"121.4891","lat":"31.20278","category":"38","category_name":"公交车站","address":""},{"poiid":"B2094654DA68A7FD459B","title":"好德便利No.224","lon":"121.48497","lat":"31.20272","category":"117","category_name":"便民商店/便利店","address":"制造局路594"},{"poiid":"B2094654DA68A7FE439F","title":"第九人民医院肠道门急诊","lon":"121.48509","lat":"31.20326","category":"162","category_name":"医院","address":""},{"poiid":"B2094655D268A3F9489E","title":"弘辉名苑(西一门)","lon":"121.48924","lat":"31.20311","category":"47","category_name":"住宅区","address":"西藏南路1501弄1-8号"},{"poiid":"B2094757D16CA0F9439F","title":"上海人家小区","lon":"121.48891544","lat":"31.202581064","category":"47","category_name":"住宅区","address":"上海黄浦区西藏南路1558号（近中山南二路）"},{"poiid":"B2094655D26EA4F54998","title":"斐翔咖啡","lon":"121.48342","lat":"31.20141","category":"65","category_name":"咖啡厅","address":"卢湾区瞿溪路694号"},{"poiid":"B2094654DB6BABFE499D","title":"罗森","lon":"121.4891","lat":"31.20328","category":"117","category_name":"便民商店/便利店","address":"黄浦区西藏南路1491号(近瞿溪路)"},{"poiid":"B2094757D06BABFD4499","title":"卢湾职业介绍所","lon":"121.482768","lat":"31.199484","category":"500","category_name":"未知分类","address":"上海中山南一路555号"},{"poiid":"B2094753D569A3FC4099","title":"上海新天地","lon":"121.489013","lat":"31.202907","category":"500","category_name":"未知分类","address":"上海市 馬當路"},{"poiid":"B2094757DA64ABF5489C","title":"上海柏悦酒店","lon":"121.4899331002678","lat":"31.20067163892427","category":"251","category_name":"出行住宿","address":"世纪大道100号"},{"poiid":"B2094655D268A3FF469F","title":"汝南街70弄小区","lon":"121.48455","lat":"31.2025","category":"47","category_name":"住宅区","address":"汝南街70弄1-5号"},{"poiid":"B2094654DA68A7FE4292","title":"制造局路邮政所","lon":"121.48536","lat":"31.2016","category":"248","category_name":"生活娱乐","address":"卢湾区制造局路648"},{"poiid":"B2094654DA68A7FE439E","title":"童涵春堂九院店","lon":"121.48512","lat":"31.20322","category":"162","category_name":"医院","address":"卢湾区制造局路581号"},{"poiid":"B2094757D064A5FB469D","title":"A4高速","lon":"121.48548889","lat":"31.202327728","category":"500","category_name":"未知分类","address":"上海A4"},{"poiid":"B2094757D66EABF5409D","title":"唐家宅","lon":"121.488746","lat":"31.20237","category":"500","category_name":"未知分类","address":"上海嘉定区娄塘镇赵厅村唐家宅"},{"poiid":"B2094654DA68A6FD469F","title":"卢工弹子房","lon":"121.48285","lat":"31.20034","category":"220","category_name":"运动场所","address":"局门路580号2层"},{"poiid":"B2094757D465A1FC4593","title":"兰州牛肉拉面","lon":"121.489173","lat":"31.203193","category":"68","category_name":"快餐厅","address":"黄浦区西藏南路1493号(近瞿溪路)"},{"poiid":"B2094654DA68A7FC4493","title":"原水小区(北门)","lon":"121.48367","lat":"31.20187","category":"47","category_name":"住宅区","address":""},{"poiid":"B2094753D56BA4F5419C","title":"老蟹沪味干挑面","lon":"121.489013","lat":"31.203205","category":"500","category_name":"未知分类","address":"上海市 西藏南路1497号"},{"poiid":"B209475CD269A6F54793","title":"4号线鲁班路站","lon":"121.483123","lat":"31.199737","category":"500","category_name":"未知分类","address":"上海市 鲁班路"},{"poiid":"B2094655D268A7F54492","title":"局门路573弄小区(西门)","lon":"121.48295","lat":"31.20105","category":"47","category_name":"住宅区","address":"局门路573弄7-12号"},{"poiid":"B2094654DA68A7FD4492","title":"蓝月亮花店","lon":"121.48495","lat":"31.20283","category":"117","category_name":"便民商店/便利店","address":"卢湾区制造局路590号"},{"poiid":"B2094757D069A3FD409E","title":"世博会上海企业联合馆","lon":"121.48818","lat":"31.19584","category":"500","category_name":"未知分类","address":"上海世博会D片区"},{"poiid":"B2094757D164A0FC419E","title":"延音艺术学院","lon":"121.48816373","lat":"31.202822716","category":"253","category_name":"校园生活","address":"上海市卢湾区制造局路"},{"poiid":"B2094655D268A5FF499F","title":"瞿溪路463弄小区","lon":"121.48782","lat":"31.20353","category":"47","category_name":"住宅区","address":"瞿溪路463弄37-39号"},{"poiid":"B2094655D268A5FF499C","title":"瞿溪路463弄小区(东门)","lon":"121.48809","lat":"31.2034","category":"47","category_name":"住宅区","address":"瞿溪路463弄37-39号"},{"poiid":"B2094654DA68A7FE4399","title":"九院花店","lon":"121.48523","lat":"31.2031","category":"117","category_name":"便民商店/便利店","address":""},{"poiid":"B2094757D06AA5FE4498","title":"工人体育场","lon":"121.482731751","lat":"31.2003469073","category":"220","category_name":"运动场所","address":"卢湾区局门路600号(近中山南一路)"},{"poiid":"B2094757D168A2F8499A","title":"瞿溪路463弄","lon":"121.48857493","lat":"31.202756814","category":"500","category_name":"未知分类","address":"上海西藏南路 瞿溪路"},{"poiid":"B2094757D66CA2FF409B","title":"可口可乐博物馆","lon":"121.486735","lat":"31.195781","category":"500","category_name":"未知分类","address":"北京荣京东街9号"},{"poiid":"B2094757D165A5FB429E","title":"永琪","lon":"121.48829173","lat":"31.203235725","category":"500","category_name":"未知分类","address":"上海 市黄浦区西藏南路"},{"poiid":"B2094757D165A6F54792","title":"一势企业","lon":"121.483195738","lat":"31.1993316419","category":"263","category_name":"公司","address":"上海黄浦区瞿溪路691号516室"},{"poiid":"B2094757D068A0F54993","title":"世博会国家电网馆","lon":"121.48542","lat":"31.19565","category":"500","category_name":"未知分类","address":"上海世博会D片区"},{"poiid":"B2094757D069A5FF4999","title":"世博会太空家园馆","lon":"121.4861","lat":"31.19577","category":"500","category_name":"未知分类","address":"上海世博会D片区"},{"poiid":"B2094750D76EABF54593","title":"红翻天湖北菜风味店(汝南街店)","lon":"121.485","lat":"31.2028","category":"260","category_name":"其他","address":"卢湾区汝南街124号(近局门路)"},{"poiid":"B2094757D169ABF5449F","title":"中国工商银行(西藏南路支行)","lon":"121.48892","lat":"31.20347","category":"150","category_name":"银行","address":"黄浦区西藏南路1523号(近瞿溪路)"},{"poiid":"B2094757D169A2FE439C","title":"144路中山南路西藏南路站","lon":"121.490495016","lat":"31.2020189005","category":"500","category_name":"未知分类","address":"上海市黄浦区中山南路近西藏南路东侧"},{"poiid":"B2094654DA68A7FF499B","title":"中国建设银行上海市瞿溪路支行","lon":"121.48865","lat":"31.20328","category":"150","category_name":"银行","address":"西藏南路1558弄1-6号"},{"poiid":"B2094757D568AAF4479D","title":"中国民间艺术馆绣博坊","lon":"121.49154324","lat":"31.1991824","category":"255","category_name":"专卖店","address":"西藏南路1737-2"},{"poiid":"B2094750DA6DAAFD439D","title":"艺海剧院","lon":"121.488372","lat":"31.202924","category":"248","category_name":"生活娱乐","address":null},{"poiid":"B2094757D06AA6F9419C","title":"世博会中国铁路馆","lon":"121.488929749","lat":"31.1957511902","category":"500","category_name":"未知分类","address":"上海世博会D片区"},{"poiid":"B2094757D065ABFE4298","title":"普陀山码头","lon":"121.48393141","lat":"31.200227611","category":"251","category_name":"出行住宿","address":"上海码头"},{"poiid":"B2094655D26BA0FE449C","title":"民光家纺","lon":"121.48473","lat":"31.20303","category":"123","category_name":"家具建材市场","address":"卢湾区汝南街51号"},{"poiid":"B2094654DA68A7FE469B","title":"明珠家园(南门)","lon":"121.48722","lat":"31.20212","category":"656","category_name":"大门","address":""},{"poiid":"B2094757D068A2F9459A","title":"世博会石油馆","lon":"121.48542","lat":"31.19565","category":"500","category_name":"未知分类","address":"上海世博会D片区"},{"poiid":"B2094757D66FA3FC449E","title":"eleven7便利店","lon":"121.483220651","lat":"31.2015995619","category":"249","category_name":"购物服务","address":"上海局门店500号"},{"poiid":"B2094757D164A5FF479E","title":"普外科","lon":"121.48533073","lat":"31.203044721","category":"902","category_name":"楼宇机构","address":"上海市卢湾区斜土路"},{"poiid":"B2094654DA68A7FD4692","title":"五里桥街道中二综合活动中心","lon":"121.48423","lat":"31.20224","category":"248","category_name":"生活娱乐","address":""},{"poiid":"B2094757D66FA6F84499","title":"百事建设(集团)有限公司","lon":"121.48884873","lat":"31.203064721","category":"263","category_name":"公司","address":"上海市黄浦区西藏南路1528号2楼(近瞿西路)"},{"poiid":"B2094750DB64A3F5449E","title":"上海市，卢湾区，斜土路","lon":"121.483093","lat":"31.200647","category":"627","category_name":"一般地点标志","address":"斜土路近制造局路"},{"poiid":"B2094757D16CA4FE429A","title":"罗森","lon":"121.489106","lat":"31.203283","category":"249","category_name":"购物服务","address":"上海罗森（西藏南路店）"},{"poiid":"B2094654DA68A7FD4899","title":"东怡花苑(西门)","lon":"121.4831","lat":"31.20062","category":"48","category_name":"楼宇大门","address":""},{"poiid":"B2094655D268A2F9419E","title":"白玉兰家园(西一门)","lon":"121.49108","lat":"31.19973","category":"656","category_name":"大门","address":"西藏南路1717弄1-10号"},{"poiid":"B2094655D268A0FB459F","title":"白玉兰家园(西二门)","lon":"121.4909","lat":"31.19995","category":"656","category_name":"大门","address":""},{"poiid":"B2094655D268A5FF499E","title":"永厦大楼(东门)","lon":"121.4888","lat":"31.20299","category":"48","category_name":"楼宇大门","address":"西藏南路1558弄1-6号"},{"poiid":"B2094655D26FABFC479F","title":"明珠家园(东门)","lon":"121.48777","lat":"31.20286","category":"656","category_name":"大门","address":"瞿溪路501弄"},{"poiid":"B2094655D268A0F9409B","title":"越纪公寓(北一门)","lon":"121.49053","lat":"31.2016","category":"656","category_name":"大门","address":"中山南路1891-1893号"},{"poiid":"B2094655D268A3FF469D","title":"汝南街70弄小区(南门)","lon":"121.48461","lat":"31.20218","category":"656","category_name":"大门","address":"汝南街70弄1-5号"},{"poiid":"B2094655D268A0F94098","title":"越纪公寓(北二门)","lon":"121.49086","lat":"31.20181","category":"656","category_name":"大门","address":"中山南路1891-1893号"},{"poiid":"B2094655D268A3FF469C","title":"汝南街70弄小区(北门)","lon":"121.48444","lat":"31.20273","category":"656","category_name":"大门","address":"汝南街70弄1-5号"}]