[{"poiid":"B2094655D36CA1F8439D","title":"龙华医院","lon":"121.44931","lat":"31.18777","category":"162","category_name":"医院","address":""},{"poiid":"B2094757D06FA3FB439A","title":"上海市精神卫生中心","lon":"121.44868469","lat":"31.188173294","category":"162","category_name":"医院","address":"徐汇区宛平南路600号(零陵路宛平南路)"},{"poiid":"B2094655D36DA7F84693","title":"中山南二路宛平南路","lon":"121.44991","lat":"31.18488","category":"38","category_name":"公交车站","address":""},{"poiid":"B2094750DA69ABF94299","title":"宛平剧院","lon":"121.448257","lat":"31.187332","category":"248","category_name":"生活娱乐","address":"徐汇区中山南二路859号(近宛平南路)"},{"poiid":"B2094757D06FA6F8439B","title":"龙山新村","lon":"121.44658451","lat":"31.18313221","category":"252","category_name":"楼宇机构","address":"上海八万人体育场"},{"poiid":"B2094655D36CA1FE4393","title":"双峰路中山南二路","lon":"121.44847","lat":"31.18264","category":"38","category_name":"公交车站","address":""},{"poiid":"B2094757D16EA5FE4592","title":"内环高架","lon":"121.446675586","lat":"31.182659501","category":"500","category_name":"未知分类","address":"上海市徐汇区零陵路"},{"poiid":"B2094757D568A6F5479B","title":"上海市宛平艺苑","lon":"121.451514","lat":"31.185034","category":"178","category_name":"电影院","address":"中山南二路859号"},{"poiid":"B2094757D16CA1FF4999","title":"龙华医院急诊","lon":"121.446744536","lat":"31.1877531506","category":"162","category_name":"医院","address":"上海徐汇区宛平南路725号"},{"poiid":"B2094654DA6DA1FC4198","title":"天钥新村(中山南二路)","lon":"121.44714","lat":"31.18537","category":"47","category_name":"住宅区","address":"中山南二路918弄1-5号"},{"poiid":"B2094757D06AA3FC4793","title":"华富大厦","lon":"121.448","lat":"31.1834","category":"252","category_name":"楼宇机构","address":"北一环与亳州路交叉口(庐阳区政府对面)"},{"poiid":"B2094655D268A1F4419F","title":"上海中医药大学学生公寓","lon":"121.44953","lat":"31.18661","category":"47","category_name":"住宅区","address":""},{"poiid":"B2094654DB64A5F54198","title":"苏州福东鑫","lon":"121.450175054","lat":"31.186587793","category":"68","category_name":"快餐厅","address":"徐汇区宛平南路735号(近中山南二路)"},{"poiid":"B2094753D669A1F94893","title":"掌上韩品（星游城店）","lon":"121.447349","lat":"31.18342","category":"247","category_name":"餐饮美食","address":"上海市 上海体育场"},{"poiid":"B2094654DA6DA2F54793","title":"锦江之星万体店","lon":"121.44479","lat":"31.18283","category":"216","category_name":"经济型连锁酒店","address":"上海市徐汇区天钥桥路873号近中山南二路"},{"poiid":"B2094757D169A0FF4393","title":"天钥新村","lon":"121.446525304","lat":"31.1853354701","category":"252","category_name":"楼宇机构","address":"上海天钥新村66号"},{"poiid":"B2094655D26CA4FB4799","title":"上海交通大学医学院附属精神卫生中心","lon":"121.44866","lat":"31.18754","category":"52","category_name":"高等院校","address":"宛平南路600"},{"poiid":"B2094654DB65A3FA499D","title":"龙山公寓","lon":"121.44788","lat":"31.183867","category":"47","category_name":"住宅区","address":"中山南二路932弄6号"},{"poiid":"B2094655D26FAAFE4699","title":"天四小区(西门)","lon":"121.44821","lat":"31.18441","category":"47","category_name":"住宅区","address":""},{"poiid":"B2094654DB65A1FC429D","title":"天四小区","lon":"121.44845","lat":"31.18462","category":"47","category_name":"住宅区","address":""},{"poiid":"B2094655D26FAAF84893","title":"喜士多(中山南二路)","lon":"121.44833","lat":"31.18396","category":"117","category_name":"便民商店/便利店","address":""},{"poiid":"B2094654DA6DA1FC419E","title":"快客(中山南二路)","lon":"121.44853","lat":"31.18411","category":"117","category_name":"便民商店/便利店","address":"中山南二路928"},{"poiid":"B2094757D06BABFF479B","title":"小阁楼酒家","lon":"121.4504","lat":"31.18523","category":"76","category_name":"上海菜","address":"徐汇区宛平南路750号(近中山南二路)"},{"poiid":"B2094654DA6DA7F84892","title":"宛南小区","lon":"121.44946","lat":"31.183348","category":"47","category_name":"住宅区","address":"中山南二路925弄"},{"poiid":"B2094654DA6DA0F54293","title":"东亚大厦","lon":"121.44641755121","lat":"31.186094978075","category":"46","category_name":"楼宇","address":"上海中山南二路1500号"},{"poiid":"B2094757D064A7F54293","title":"夏朵精品烘培","lon":"121.45131266","lat":"31.186186702","category":"67","category_name":"甜品店","address":"上海徐汇区天钥桥路214号哈尼美食广场3楼夏朵内(近南丹东路)"},{"poiid":"B2094655D26FAAFE469B","title":"龙山公寓(东门)","lon":"121.44821","lat":"31.18405","category":"47","category_name":"住宅区","address":"中山南二路932弄6号"},{"poiid":"B2094757D16DA7FA469B","title":"红辣椒湘菜馆(天钥桥路店)","lon":"121.44784","lat":"31.18208","category":"77","category_name":"湖南菜","address":"徐汇区中山南二路969号(近天钥桥路)"},{"poiid":"B2094757D464A7FF489E","title":"星期五 しゃぶしゃぶ食放題 Friday","lon":"121.44661382236","lat":"31.187398429974","category":"95","category_name":"日本料理","address":"零陵路627号近双峰北路"},{"poiid":"B2094757D065A4FB499B","title":"吴越人家","lon":"121.45047","lat":"31.18522","category":"76","category_name":"上海菜","address":"徐汇区宛平南路740号(近中山南二路)"},{"poiid":"B2094757D469A0FE4693","title":"SHABUSHABU","lon":"121.446388","lat":"31.187724","category":"95","category_name":"日本料理","address":"徐汇区零陵路631号"},{"poiid":"B2094655D36DA7F84692","title":"中山南二路宛平路","lon":"121.44929","lat":"31.18444","category":"38","category_name":"公交车站","address":""},{"poiid":"B2094757D16FA0FB409E","title":"湖滨人家","lon":"121.45091","lat":"31.18471","category":"257","category_name":"中餐厅","address":"徐汇区宛平南路810号(近中山南二路)"},{"poiid":"B2094757D16AA7FA4298","title":"甜言蜜语","lon":"121.447433178","lat":"31.1836018036","category":"247","category_name":"餐饮美食","address":"上海天钥桥路580号星游城1F-16"},{"poiid":"B2094654DA6DA1FC449D","title":"上海市针灸经络研究所门诊部","lon":"121.44977","lat":"31.1865","category":"162","category_name":"医院","address":"徐汇区宛平南路650号"},{"poiid":"B2094654DA6DA1FC4193","title":"伍缘折扣No.0322","lon":"121.44902","lat":"31.18452","category":"117","category_name":"便民商店/便利店","address":"中山南二路916"},{"poiid":"B2094757D068A4F5499A","title":"上海针灸研究所","lon":"121.44957295","lat":"31.186136422","category":"260","category_name":"其他","address":"上海宛平南路650号"},{"poiid":"B2094655D26EA7FE4092","title":"翔云楼宾馆","lon":"121.44765","lat":"31.18256","category":"250","category_name":"公园户外","address":"徐汇区中山南二路969号"},{"poiid":"B2094655D268A5FF479F","title":"天龙小区","lon":"121.44718","lat":"31.18354","category":"47","category_name":"住宅区","address":"中山南二路950-960弄"},{"poiid":"B2094655D36DA7F84698","title":"中山南二路","lon":"121.44845","lat":"31.1827","category":"38","category_name":"公交车站","address":""},{"poiid":"B2094655D26FABFE4799","title":"宛南小区(北门)","lon":"121.44903","lat":"31.18365","category":"47","category_name":"住宅区","address":""},{"poiid":"B2094654DA6DA1FC4093","title":"晨一网吧","lon":"121.44827","lat":"31.18389","category":"176","category_name":"网吧","address":"徐汇区中山南二路930号"},{"poiid":"B2094654DA6DA1FC449E","title":"爱中爱华公寓","lon":"121.44948","lat":"31.186041","category":"47","category_name":"住宅区","address":"宛平南路656-658"},{"poiid":"B209475CDB6AA2F9459F","title":"上海体育场","lon":"121.450096","lat":"31.18581","category":"500","category_name":"未知分类","address":"上海市 上海体育场"},{"poiid":"B2094757D06BA4FF439C","title":"卡布的窝窝","lon":"121.449197586","lat":"31.183474517","category":"247","category_name":"餐饮美食","address":"上海市徐汇区"},{"poiid":"B2094757D568AAFF419E","title":"阿杜饭店","lon":"121.448715","lat":"31.18238194","category":"76","category_name":"上海菜","address":"徐汇区双峰路107号双峰街市斜对面(近中山南二路)"},{"poiid":"B2094655D268A5FF479E","title":"天龙小区(南门)","lon":"121.4475","lat":"31.18321","category":"47","category_name":"住宅区","address":"中山南二路950-960弄"},{"poiid":"B2094655D26FA6FF409A","title":"东安四村","lon":"121.45087","lat":"31.186504","category":"47","category_name":"住宅区","address":"宛平南路727号"},{"poiid":"B2094654DB69A7FC429F","title":"Friday火锅","lon":"121.44673","lat":"31.18781","category":"86","category_name":"火锅店","address":"徐汇区零陵路631号爱建城1楼(近双峰北路)"},{"poiid":"B2094654DA6DA7F9429E","title":"上海市徐汇区东二小学","lon":"121.45093","lat":"31.18307","category":"56","category_name":"小学","address":"徐汇区宛平南路908弄2号(近中山南二路)"},{"poiid":"B2094757D66EA7FB469C","title":"上海船舶工艺研究所","lon":"121.448253886","lat":"31.183324714","category":"253","category_name":"校园生活","address":"上海中山南路851号"},{"poiid":"B2094750D26AA4FA469B","title":"人道素食","lon":"121.450233","lat":"31.183059","category":"247","category_name":"餐饮美食","address":"龙华路2787号"},{"poiid":"B2094757D064ABFA4498","title":"龙华医院远志楼","lon":"121.44994","lat":"31.186949","category":"162","category_name":"医院","address":"上海宛平南路725号"},{"poiid":"B2094655D26EA1FD4893","title":"上海市精神卫生中心老年期痴呆诊疗中心","lon":"121.44867","lat":"31.18754","category":"162","category_name":"医院","address":"宛平南路600号"},{"poiid":"B2094757D569A0F94898","title":"冰冰便当(宛平南路店)","lon":"121.450831","lat":"31.18478","category":"68","category_name":"快餐厅","address":"徐汇区宛平南路801号"},{"poiid":"B2094757D065A4FB4798","title":"Kk小靜靜•蝸居","lon":"121.44867658","lat":"31.18366852","category":"500","category_name":"未知分类","address":"上海Kk•Chen's Home"},{"poiid":"B2094655D36CA1F94699","title":"零陵路双峰北路","lon":"121.44557","lat":"31.18717","category":"38","category_name":"公交车站","address":"上海零陵路双峰北路"},{"poiid":"B2094654DA6DA7F9409A","title":"新华书店(中山南二路)","lon":"121.44995","lat":"31.18445","category":"125","category_name":"书店","address":"中山南二路909"},{"poiid":"B2094655D26BA3FA4292","title":"金脚盆养生足道","lon":"121.44722","lat":"31.18226","category":"149","category_name":"洗浴推拿场所","address":"徐汇区中山南二路969号近双峰路;;"},{"poiid":"B2094654DA6DA1FC4292","title":"莎蔓莉莎美容院(中山南二路)","lon":"121.44993","lat":"31.1852","category":"148","category_name":"美容美发店","address":"徐汇区中山南二路896号(近宛平南路)"},{"poiid":"B2094757D169A3FE429A","title":"全家Family Mart(四号线上海体育场店)","lon":"121.445426586","lat":"31.184092529","category":"117","category_name":"便民商店/便利店","address":"上海市徐汇区四号线上海体育场站内"},{"poiid":"B2094757D66FA0FF409B","title":"喜士多(宛平南路店)","lon":"121.44981068","lat":"31.185108148","category":"117","category_name":"便民商店/便利店","address":"徐汇区宛平南路727号"},{"poiid":"B2094655D26BA7FB469C","title":"上海朋友单车俱乐部","lon":"121.44916","lat":"31.18375","category":"133","category_name":"自行车专卖店","address":"中山南二路929"},{"poiid":"B2094654DA6DA7F8489C","title":"东方网点双峰店(中山南二路)","lon":"121.44889","lat":"31.18352","category":"176","category_name":"网吧","address":"中山南二路933"},{"poiid":"B2094655D268A2FD449E","title":"龙吴路13弄小区","lon":"121.44917420025","lat":"31.182850773192","category":"47","category_name":"住宅区","address":"龙吴路13弄1-12号"},{"poiid":"B2094654DA6DA2F54992","title":"龙山小区","lon":"121.44579","lat":"31.182888","category":"47","category_name":"住宅区","address":"中山南二路960弄"},{"poiid":"B2094757D168A7F8489A","title":"龙山菜场","lon":"121.44857025","lat":"31.184972763","category":"260","category_name":"其他","address":"上海天钥新村小区内"},{"poiid":"B2094757D16AA4FD499A","title":"中山南二路925弄","lon":"121.44950018","lat":"31.184004737","category":"500","category_name":"未知分类","address":"上海中山南二路925弄"},{"poiid":"B2094654DA6DA1FC4398","title":"申达利宏大楼","lon":"121.44961","lat":"31.185862","category":"47","category_name":"住宅区","address":"宛平南路734号"},{"poiid":"B2094654DB64A6F94999","title":"锦江之星(体育场店)","lon":"121.44504","lat":"31.18366","category":"216","category_name":"经济型连锁酒店","address":"徐汇区中山南二路988弄21号(近天钥桥路)"},{"poiid":"B2094757D06FAAF4409F","title":"国泰广告","lon":"121.44706726","lat":"31.186986923","category":"46","category_name":"楼宇","address":"上海天钥桥路333号腾飞大厦25楼"},{"poiid":"B209475CD465A2F5429E","title":"亚力克斯私人健身会馆","lon":"121.446777","lat":"31.184154","category":"248","category_name":"生活娱乐","address":"徐汇区天钥桥路斜土路2669号2603室"},{"poiid":"B2094655D26FA3FB429D","title":"池上便当 双峰路","lon":"121.44920258634","lat":"31.180113698497","category":"247","category_name":"餐饮美食","address":"双峰路945弄8号"},{"poiid":"B2094757D66FA0F9489A","title":"朋友单车","lon":"121.448338486","lat":"31.1833821152","category":"249","category_name":"购物服务","address":null},{"poiid":"B2094654DA6DA7F8499E","title":"鼎足坊专业足疗","lon":"121.44958","lat":"31.18408","category":"149","category_name":"洗浴推拿场所","address":""},{"poiid":"B2094655D26EA4F94893","title":"克莉丝汀饼屋(宛平南路店)","lon":"121.45087","lat":"31.18561","category":"112","category_name":"糕饼店","address":"徐汇区宛平南路759号-1(近龙华路)"},{"poiid":"B209475CD765AAF8449C","title":"万体馆","lon":"121.450317","lat":"31.184352","category":"500","category_name":"未知分类","address":"上海市 徐汇区"},{"poiid":"B2094752D46AA7FA4092","title":"MoMo牧场","lon":"121.449615","lat":"31.182404","category":"500","category_name":"未知分类","address":null},{"poiid":"B2094654DA6DA7F8479F","title":"宛南二村","lon":"121.44914","lat":"31.182501","category":"47","category_name":"住宅区","address":"中山南二路双峰路"},{"poiid":"B2094654DA6DA7F84398","title":"快客便利连锁No.169","lon":"121.4473","lat":"31.18235","category":"117","category_name":"便民商店/便利店","address":"枫林路"},{"poiid":"B2094753D464AAFC499B","title":"徐家汇","lon":"121.446022","lat":"31.183513","category":"500","category_name":"未知分类","address":"上海市 上海市徐汇区"},{"poiid":"B2094757D464A0F8489D","title":"金氏回头客小海鲜港","lon":"121.448426054","lat":"31.182766793","category":"260","category_name":"其他","address":"徐汇区双峰路188号(近中山南二路)"},{"poiid":"B2094757D66EABF94199","title":"小哲家","lon":"121.448502586","lat":"31.1830715091","category":"500","category_name":"未知分类","address":null},{"poiid":"B2094654DA6DA2F5489A","title":"美晶佳园","lon":"121.44481","lat":"31.182938","category":"47","category_name":"住宅区","address":"上海市徐汇区天鈅桥路867号"},{"poiid":"B2094654DA6DA1FC4499","title":"罗森(爱中爱华公寓南)","lon":"121.44983","lat":"31.18641","category":"117","category_name":"便民商店/便利店","address":""},{"poiid":"B2094655D268A1F4419A","title":"上海中医药大学学生公寓(南门)","lon":"121.4496","lat":"31.18649","category":"47","category_name":"住宅区","address":""},{"poiid":"B2094654DA6DA2FB429F","title":"家常饭(零陵路)","lon":"121.4461","lat":"31.18763","category":"76","category_name":"上海菜","address":"徐汇区零陵路637号(近双峰北路)"},{"poiid":"B2094750D768A0FF4198","title":"老五烧烤","lon":"121.446","lat":"31.1874","category":"68","category_name":"快餐厅","address":"徐汇区零陵路(双峰北路口)"},{"poiid":"B2094757D069A4FE499E","title":"克拉米蘇鳩舍-徐家匯分舍","lon":"121.4460144","lat":"31.184410095","category":"500","category_name":"未知分类","address":"上海市天钥桥路斜土路"},{"poiid":"B2094757D169AAFA479D","title":"金朝好梦商务酒店","lon":"121.450658","lat":"31.185637","category":"217","category_name":"旅馆招待所","address":"上海市徐汇区宛平南路737号(近中山南二路)"},{"poiid":"B2094655D26FA3FF419E","title":"古奇面包","lon":"121.44868","lat":"31.18817","category":"112","category_name":"糕饼店","address":""},{"poiid":"B2094654DA6DA7F8449A","title":"国银发型烫染专业店","lon":"121.4485","lat":"31.18228","category":"148","category_name":"美容美发店","address":"徐汇区双峰路282号(近中山南二路)"},{"poiid":"B2094757D065A6F8469F","title":"大胡子烧烤","lon":"121.45105322","lat":"31.185858786","category":"247","category_name":"餐饮美食","address":"上海零陵路双峰北路"},{"poiid":"B2094654DA6DA7F8489D","title":"电玩游艺(中山南二路)","lon":"121.44895","lat":"31.18357","category":"173","category_name":"游戏厅","address":"中山南二路933号甲"},{"poiid":"B2094757D66DABFA4692","title":"上海 肇嘉浜路","lon":"121.44858551","lat":"31.182590484","category":"500","category_name":"未知分类","address":"上海中山南二路"},{"poiid":"B2094757D06AABF4489F","title":"2381弄","lon":"121.44830958","lat":"31.182863505","category":"252","category_name":"楼宇机构","address":"上海徐汇区龙华路2381弄"},{"poiid":"B2094654DB6BA5FA449C","title":"快客","lon":"121.45077","lat":"31.18482","category":"117","category_name":"便民商店/便利店","address":"宛平南路725-3识别"},{"poiid":"B2094654DA6DA7F84799","title":"宛龙小区","lon":"121.44925","lat":"31.182306","category":"47","category_name":"住宅区","address":"中山南二路937弄"},{"poiid":"B2094757D165A6FC469C","title":"双峰路葱油饼摊","lon":"121.44901","lat":"31.1813","category":"68","category_name":"快餐厅","address":"徐汇区双峰路300号菜场"},{"poiid":"B2094654DA6DA7F9419D","title":"宛南一村","lon":"121.45103","lat":"31.183723","category":"47","category_name":"住宅区","address":"宛平南路850号"},{"poiid":"B2094757D169A2FF449E","title":"41路车站","lon":"121.448776586","lat":"31.182861505","category":"500","category_name":"未知分类","address":"上海中山南二路双峰路"},{"poiid":"B2094654DA6DA7F8439A","title":"宝来富宠物世界","lon":"121.44722","lat":"31.18228","category":"117","category_name":"便民商店/便利店","address":"中山南二路969号4-5识别"},{"poiid":"B2094654DB6BA5FA449D","title":"良友(宛平南路)","lon":"121.45114","lat":"31.18435","category":"117","category_name":"便民商店/便利店","address":"宛平南路842"},{"poiid":"B2094655D26FABFE469D","title":"宛南二村(南门)","lon":"121.44916","lat":"31.18223","category":"47","category_name":"住宅区","address":""},{"poiid":"B2094757D065A0FE419D","title":"上海市心理咨询与治疗中心","lon":"121.447723","lat":"31.187773","category":"162","category_name":"医院","address":"上海徐汇区零陵路604号"},{"poiid":"B2094757D164A3FA4492","title":"赵记食为天","lon":"121.44465","lat":"31.18664","category":"68","category_name":"快餐厅","address":"徐汇区零陵路663号(近天钥桥路)"},{"poiid":"B2094757D065A5F44393","title":"枫林路街道办事处","lon":"121.451122","lat":"31.18505","category":"500","category_name":"未知分类","address":"上海中山南二路857号"},{"poiid":"B2094757D16AA2F9499F","title":"中山中信大楼","lon":"121.446212167","lat":"31.1819130135","category":"500","category_name":"未知分类","address":"普陀大渡河路168弄"},{"poiid":"B2094655D265AAFE459F","title":"徐汇苑三期","lon":"121.450257","lat":"31.182808","category":"47","category_name":"住宅区","address":"天钥桥路968号"},{"poiid":"B2094654DB65A1FC489A","title":"上海第二工业大学成人与继续教育学院徐汇校区","lon":"121.44502","lat":"31.18339","category":"52","category_name":"高等院校","address":""},{"poiid":"B2094655D26EABFF4093","title":"双峰路熏鱼店","lon":"121.44827","lat":"31.18191","category":"257","category_name":"中餐厅","address":""},{"poiid":"B2094757D169A7FB489A","title":"弘兴餐厅","lon":"121.448476","lat":"31.182643","category":"500","category_name":"未知分类","address":"上海中山南二路双峰路"},{"poiid":"B2094757D568AAF8449E","title":"古奇咖啡","lon":"121.4486769","lat":"31.187545","category":"65","category_name":"咖啡厅","address":"宛平南路600号"},{"poiid":"B2094654DA6DA1FC439D","title":"点藏休闲保健会所","lon":"121.45","lat":"31.18611","category":"149","category_name":"洗浴推拿场所","address":"徐汇区宛平南路672号(近中山南二路)"},{"poiid":"B2094654DA6DA7F84299","title":"中信中山大楼","lon":"121.44656","lat":"31.18141","category":"46","category_name":"楼宇","address":"中山南二路999弄1-19号"},{"poiid":"B2094654DA6DA2F5459C","title":"上海世纪昂立幼儿园","lon":"121.44468","lat":"31.18442","category":"57","category_name":"幼儿园","address":"徐汇区龙山新村115号(近中山南二路)"},{"poiid":"B2094655D268A0F84893","title":"金贝壳西饼屋天钥店","lon":"121.4448","lat":"31.18476","category":"112","category_name":"糕饼店","address":"徐汇区零陵路龙山新村86号(近天钥桥路)"},{"poiid":"B2094654DA6EA2F4489B","title":"东安四村(西门)","lon":"121.45026","lat":"31.18636","category":"47","category_name":"住宅区","address":"宛平南路727号"},{"poiid":"B209475CD26FA5FF4493","title":"镰仓PASTA（星游城店）","lon":"121.449806","lat":"31.186798","category":"500","category_name":"未知分类","address":"上海市 天钥桥路576号"},{"poiid":"B2094757D16CABF4489C","title":"纪勋初等职业技术学校","lon":"121.451174","lat":"31.185739","category":"52","category_name":"高等院校","address":"徐汇区中山南二路878号"},{"poiid":"B2094655D26FA7FB4698","title":"天钥新村(北门)","lon":"121.44499","lat":"31.18662","category":"47","category_name":"住宅区","address":""},{"poiid":"B2094655D268A1F4419C","title":"上海交通大学医学院精神卫生学系","lon":"121.44867","lat":"31.18754","category":"52","category_name":"高等院校","address":"宛平南路600"},{"poiid":"B2094752D468AAFB439F","title":"锦江乐园","lon":"121.446345","lat":"31.182532","category":"500","category_name":"未知分类","address":null},{"poiid":"B2094757D66CA0FD4093","title":"春草堂","lon":"121.4499836","lat":"31.1865153","category":"500","category_name":"未知分类","address":"上海宛平南路"},{"poiid":"B2094757D16AAAFB479D","title":"顺风车","lon":"121.45032758","lat":"31.184979546","category":"249","category_name":"购物服务","address":"上海市普桑外牌"},{"poiid":"B2094655D268A0F8499A","title":"良友(永鑫塑钢不锈钢玻璃有限公司西南)","lon":"121.44514","lat":"31.18621","category":"117","category_name":"便民商店/便利店","address":""},{"poiid":"B2094654DA6DA7F8429E","title":"中山苑","lon":"121.44663","lat":"31.181137","category":"47","category_name":"住宅区","address":"中山南二路999弄"},{"poiid":"B2094757D065AAFC409B","title":"宛平南路申达利宏","lon":"121.45010358","lat":"31.185899564","category":"500","category_name":"未知分类","address":"上海市徐汇区零陵路"},{"poiid":"B2094757D569A6FB4492","title":"喜士多便利店","lon":"121.45022732","lat":"31.18648763","category":"117","category_name":"便民商店/便利店","address":"零陵路520号"},{"poiid":"B2094757D16FA5FF4892","title":"联华快客便利(宛南店)","lon":"121.45112","lat":"31.18452","category":"117","category_name":"便民商店/便利店","address":"徐汇区宛平南路802号"},{"poiid":"B2094655D26CA7F4409E","title":"宛南一村(8号门)","lon":"121.45127","lat":"31.18415","category":"47","category_name":"住宅区","address":""},{"poiid":"B2094757D465A7FD409B","title":"古奇面包咖啡 宛平南路店","lon":"121.448615054","lat":"31.188129793","category":"260","category_name":"其他","address":"徐汇区零陵路598号(近宛平南路)"},{"poiid":"B2094654DA6DA2FB499D","title":"上海市疾病预防控制精神卫生分中心","lon":"121.44773","lat":"31.18777","category":"162","category_name":"医院","address":"零陵路604"},{"poiid":"B2094655D26AA1F9429F","title":"星星美容美发店","lon":"121.45157","lat":"31.18425","category":"247","category_name":"餐饮美食","address":"宛平南路909号(近中山南二路)"},{"poiid":"B2094750DB6DA7FD449D","title":"海澜米粉","lon":"121.44547","lat":"31.18724","category":"68","category_name":"快餐厅","address":"徐汇区零陵路649号-4临(近天钥桥路)"},{"poiid":"B2094654DB65A2FE409C","title":"上海市精神卫生临床质量控制中心","lon":"121.44866","lat":"31.18753","category":"162","category_name":"医院","address":"宛平南路600号"},{"poiid":"B2094757D065ABFB489A","title":"Nika's HOME","lon":"121.44542258","lat":"31.184132529","category":"500","category_name":"未知分类","address":null},{"poiid":"B2094654DA6DA7F8459E","title":"徐汇区双峰菜市场","lon":"121.44845","lat":"31.18171","category":"117","category_name":"便民商店/便利店","address":""},{"poiid":"B2094655D268A5F5499D","title":"纪勋初等职业技术学校(南门)","lon":"121.4513","lat":"31.18579","category":"678","category_name":"学校大门","address":"中山南二路878"},{"poiid":"B209475DD56DA4FA419A","title":"ICON by Angel","lon":"121.446075","lat":"31.181941","category":"248","category_name":"生活娱乐","address":"上海市 万体馆7号门"},{"poiid":"B2094655D268A5FE4099","title":"宛南华侨新邨(北门)","lon":"121.4505","lat":"31.18252","category":"47","category_name":"住宅区","address":""},{"poiid":"B2094654DB6AA7F5469D","title":"东安二村小学","lon":"121.4516","lat":"31.18367","category":"56","category_name":"小学","address":"徐汇区宛平南路900号"},{"poiid":"B2094655D268A1FF4598","title":"精文公寓(南门)","lon":"121.44962","lat":"31.18493","category":"656","category_name":"大门","address":"中山南二路900号"},{"poiid":"B2094757D66DA5F5489A","title":"南极大陆","lon":"121.444669786","lat":"31.1846117392","category":"250","category_name":"公园户外","address":"南极洲"},{"poiid":"B2094654DA6DA2FB499F","title":"注意力缺陷多动障碍健康教育中心(零陵路)","lon":"121.44773","lat":"31.18777","category":"162","category_name":"医院","address":"零陵路604"},{"poiid":"B2094753D569AAF9479E","title":"八万人体育馆","lon":"121.446525","lat":"31.181686","category":"500","category_name":"未知分类","address":"上海市 上海"},{"poiid":"B2094654DB65A2F5499F","title":"宛南五村小区(一号门)","lon":"121.4478","lat":"31.18146","category":"47","category_name":"住宅区","address":"枫林路"},{"poiid":"B2094757D569A0FF459F","title":"兰馨商务会所","lon":"121.44845106","lat":"31.18236247","category":"248","category_name":"生活娱乐","address":"双峰路278"},{"poiid":"B2094654DA6DA7F84798","title":"双峰小区","lon":"121.44969","lat":"31.181465","category":"47","category_name":"住宅区","address":"双峰路321-441号"},{"poiid":"B2094757D66CA6FB499D","title":"天德堂中医门诊","lon":"121.44598693","lat":"31.181469436","category":"162","category_name":"医院","address":"上海中山南二路"},{"poiid":"B2094757D66DA7F5489C","title":"爱华造型","lon":"121.451221046","lat":"31.1846618102","category":"148","category_name":"美容美发店","address":"徐汇区宛平南路400号爱华大厦内(近中山南二路)"},{"poiid":"B2094757D169A1FE4592","title":"真鑫香香辣小火锅","lon":"121.44998558","lat":"31.181520478","category":"247","category_name":"餐饮美食","address":"上海徐汇区双峰路105号"},{"poiid":"B2094757D064A1FC479A","title":"宛南四村","lon":"121.44958","lat":"31.18194","category":"252","category_name":"楼宇机构","address":"上海市徐汇区双峰路"},{"poiid":"B2094757D16FA2FA4699","title":"斯坦福桥球场","lon":"121.444678086","lat":"31.1846065391","category":"220","category_name":"运动场所","address":"伦敦富勒姆区"},{"poiid":"B2094654DA6DA7F8429D","title":"鲁浦幼儿园分园","lon":"121.44771","lat":"31.18108","category":"57","category_name":"幼儿园","address":"徐汇区宛南五村1号"},{"poiid":"B2094757D064AAF84698","title":"宛南五村","lon":"121.44834","lat":"31.180851","category":"252","category_name":"楼宇机构","address":"上海中山南二路双峰路"},{"poiid":"B2094757D06AA3F4459C","title":"双峰路菜场","lon":"121.44888","lat":"31.18158","category":"249","category_name":"购物服务","address":"上海徐汇区双峰路300号(近中山南二路)"},{"poiid":"B209475CD568A4F84899","title":"新韩1洞乐城店","lon":"121.44989","lat":"31.187555","category":"500","category_name":"未知分类","address":"上海市 中山南二路699号3-201"},{"poiid":"B2094655D268A1F44199","title":"爱中爱华公寓(东门)","lon":"121.44977","lat":"31.18647","category":"48","category_name":"楼宇大门","address":"宛平南路656-658"},{"poiid":"B2094655D268A1FF4599","title":"精文公寓(南一门)","lon":"121.45021","lat":"31.18537","category":"656","category_name":"大门","address":"宛平南路788弄1-2号"},{"poiid":"B2094654DA6DA7F84592","title":"上海风域网吧","lon":"121.44874","lat":"31.18157","category":"176","category_name":"网吧","address":""},{"poiid":"B2094654DA6DA7F8469A","title":"足疗(双峰路)","lon":"121.44874","lat":"31.18157","category":"149","category_name":"洗浴推拿场所","address":"双峰路300号"},{"poiid":"B2094654DA6DA2FA4792","title":"宜山路站派出所","lon":"121.44478","lat":"31.18624","category":"609","category_name":"警察局","address":"零陵路668"},{"poiid":"B2094654DA6DA2FB489F","title":"中国银行上海市零陵路支行","lon":"121.44694","lat":"31.18804","category":"150","category_name":"银行","address":"零陵路621"},{"poiid":"B2094654DA6EA2F44792","title":"徐汇区“阳光之家”教研指导中心","lon":"121.45117","lat":"31.18573","category":"248","category_name":"生活娱乐","address":"中山南二路878"},{"poiid":"B2094757D164A5FF4292","title":"黑傻小屋","lon":"121.450104586","lat":"31.1819014862","category":"500","category_name":"未知分类","address":null},{"poiid":"B2094654DA6DA7F8479A","title":"枫林派出所","lon":"121.44868","lat":"31.18092","category":"609","category_name":"警察局","address":"双峰路396"},{"poiid":"B2094757D068ABFA499B","title":"上海新路达商业(集团)有限公司","lon":"121.444526","lat":"31.185353","category":"263","category_name":"公司","address":"上海徐汇区天钥新村28号"},{"poiid":"B2094757D165ABFC409D","title":"有闲杂志(松江二店)","lon":"121.446629","lat":"31.181138","category":"500","category_name":"未知分类","address":"上海中山二路82号"},{"poiid":"B2094750D76FA7FE4192","title":"MeLibrary","lon":"121.445","lat":"31.1835","category":"260","category_name":"其他","address":"徐汇区中山南二路988弄21号龙山新村122号101室(天钥桥路口)"},{"poiid":"B2094757D568A0FA489A","title":"北京名炉烤鸭零陵路店","lon":"121.4482581","lat":"31.18822528","category":"249","category_name":"购物服务","address":"零陵路580号近天钥桥路"},{"poiid":"B2094655D264A0FF4898","title":"爱建房产","lon":"121.44639","lat":"31.18772","category":"248","category_name":"生活娱乐","address":"零陵路631-3临"},{"poiid":"B2094757D16DA7F4489A","title":"兰雀棋牌","lon":"121.44733429","lat":"31.1881904602","category":"248","category_name":"生活娱乐","address":"上海斜土路2356号二楼（近宛平南路口）"},{"poiid":"B2094655D26FABFD489D","title":"宛龙小区(西门)","lon":"121.4488","lat":"31.18208","category":"656","category_name":"大门","address":""},{"poiid":"B2094655D26FABFE479B","title":"宛南四村(北门)","lon":"121.44969","lat":"31.18224","category":"656","category_name":"大门","address":""},{"poiid":"B2094654DA6DA2FB489E","title":"爱建证券有限责任公司零陵路证券营业部","lon":"121.44688","lat":"31.18803","category":"219","category_name":"其他","address":"零陵路621"},{"poiid":"B2094757D16CA3FB409D","title":"公交车(166路)","lon":"121.44892055","lat":"31.181575233","category":"260","category_name":"其他","address":"上海莘松新村—双峰路华容路"},{"poiid":"B2094655D268A5FE409C","title":"宛龙小区(东门)","lon":"121.45139","lat":"31.18309","category":"656","category_name":"大门","address":""},{"poiid":"B2094654DA6DA4F84199","title":"东安五村(西门)","lon":"121.45161","lat":"31.18419","category":"656","category_name":"大门","address":"宛平南路909号"},{"poiid":"B2094655D268A4FB459B","title":"中山苑(北门)","lon":"121.44654","lat":"31.18164","category":"656","category_name":"大门","address":"中山南二路999弄"},{"poiid":"B2094655D268A5FE4092","title":"中山苑(南门)","lon":"121.4475","lat":"31.18137","category":"656","category_name":"大门","address":""}]