[{"poiid":"B2094654DA6AA1FB429E","title":"浦东妇幼保健医院","lon":"121.59606","lat":"31.23841","category":"162","category_name":"医院","address":"浦东新区红枫路599号(近锦绣东路)"},{"poiid":"B2094757D06FA7F94193","title":"中欧国际工商学院","lon":"121.59654","lat":"31.23702","category":"671","category_name":"高校中心点","address":"上海浦东新区红枫路699号  "},{"poiid":"B2094757D06FA1F9409F","title":"华美达大酒店(新金桥路店)","lon":"121.59237","lat":"31.24504","category":"214","category_name":"四星级宾馆","address":"上海浦东新区新金桥路18号(近新金桥大厦)  "},{"poiid":"B2094757D06FA6F8409C","title":"Las Tapas(金桥店)","lon":"121.59028","lat":"31.24276","category":"94","category_name":"西餐厅","address":"浦东新区金桥红枫路259号(近碧云路)"},{"poiid":"B2094757D66AAAFA449B","title":"新元素 金桥店 Element Fresh","lon":"121.59175019852","lat":"31.242573521999","category":"94","category_name":"西餐厅","address":"浦东新区红枫路331号(近碧云路)"},{"poiid":"B2094757D068A7F8499C","title":"佳友维景大酒店","lon":"121.59724729","lat":"31.247203359","category":"217","category_name":"旅馆招待所","address":"上海市浦东新区新金桥路159号(近金桥路)"},{"poiid":"B2094757D06FA7F4419A","title":"新金桥路金藏路","lon":"121.5987091","lat":"31.248832702","category":"38","category_name":"公交车站","address":"上海新金桥路金藏路"},{"poiid":"B2094757D06FA5F44398","title":"COSTA COFFEE (红枫路店)","lon":"121.5930128","lat":"31.2414766","category":"65","category_name":"咖啡厅","address":"浦东新区红枫路399号B区(近碧云国际社区)"},{"poiid":"B2094757D06FA5FF409E","title":"苔圣园(金桥店)","lon":"121.58834","lat":"31.24144","category":"76","category_name":"上海菜","address":"浦东新区碧云路1112号(华美达酒店斜对面)"},{"poiid":"B2094757D068A0FA439D","title":"飞狐(The Flying Fox)","lon":"121.59048","lat":"31.24245","category":"94","category_name":"西餐厅","address":"浦东新区红枫路225号(近新金桥路)"},{"poiid":"B2094757D06FA5FF419E","title":"华山医院(浦东分院)","lon":"121.59548897","lat":"31.240324381","category":"162","category_name":"医院","address":"上海浦东新区红枫路525号(近明月路)"},{"poiid":"B2094757D06FA0FD4698","title":"Office Park","lon":"121.59123","lat":"31.24407","category":"196","category_name":"公园","address":"上海浦东新区新金桥路(华美达大酒店对面)  "},{"poiid":"B2094757D068AAF5439C","title":"御璟轩(红枫路店)","lon":"121.59152","lat":"31.24242","category":"72","category_name":"广东菜","address":"浦东新区红枫路293号(近碧云路)"},{"poiid":"B2094757D068A1F54492","title":"Big Bamboo (金桥店)","lon":"121.59329","lat":"31.24155","category":"260","category_name":"其他","address":"浦东新区红枫路381号(近碧云路)"},{"poiid":"B2094757D068A3FF4298","title":"新金桥大厦","lon":"121.591656208","lat":"31.2455679412","category":"46","category_name":"楼宇","address":"上海市浦东新区新金桥路28号"},{"poiid":"B2094655D26EA6FD409D","title":"Johnny Moo 红枫店","lon":"121.59057274914","lat":"31.243509593747","category":"94","category_name":"西餐厅","address":"浦东新区红枫路228号(近碧云路)"},{"poiid":"B2094753D66DA2F8479F","title":"上海金桥红枫万豪酒店","lon":"121.591152995825","lat":"31.2440606046672","category":"213","category_name":"五星级宾馆","address":"新金桥路15号"},{"poiid":"B2094757D069A0FD489B","title":"平和双语学校","lon":"121.5895","lat":"31.23944","category":"253","category_name":"校园生活","address":"浦东新区黄杨路261号"},{"poiid":"B2094757D06AAAFE449C","title":"CANTINA  AGAVE","lon":"121.591676","lat":"31.242395","category":"94","category_name":"西餐厅","address":"浦东新区红枫路357号(近碧云路)"},{"poiid":"B2094757D468A4FA409E","title":"宝莱坞印度餐厅 bollywood","lon":"121.59133","lat":"31.2422","category":"102","category_name":"印度风味","address":"浦东新区红枫路326号(近碧云路)"},{"poiid":"B2094757D06BA3FC4492","title":"韩瑞韩国料理","lon":"121.58961","lat":"31.24264","category":"96","category_name":"韩国料理","address":"浦东新区碧云路1198号2楼(近红枫路)"},{"poiid":"B2094757D06FAAFD499E","title":"佳友维景大酒店宴会厅","lon":"121.5967","lat":"31.24755","category":"217","category_name":"旅馆招待所","address":"浦东新区新金桥路159号(近金藏路)查看地图"},{"poiid":"B2094655D36CA5F44398","title":"碧云路红枫路","lon":"121.58817","lat":"31.24221","category":"38","category_name":"公交车站","address":""},{"poiid":"B2094757D168A0FA4793","title":"纽约客匹萨(红枫路店)","lon":"121.5923","lat":"31.24154","category":"94","category_name":"西餐厅","address":"浦东新区红枫路336号(近碧云路)"},{"poiid":"B2094654DA6AA7FB4593","title":"碧云国际社区·晓园","lon":"121.59255","lat":"31.24144","category":"47","category_name":"住宅区","address":"红枫路366"},{"poiid":"B2094757D569A1FF4399","title":"碧云社区","lon":"121.5927881","lat":"31.24458806","category":"47","category_name":"住宅区","address":"新金桥路27号"},{"poiid":"B2094757D068ABFE4992","title":"银东大厦","lon":"121.59239363","lat":"31.246649735","category":"46","category_name":"楼宇","address":"融程花园酒店位于雨花红星会展中心西北侧"},{"poiid":"B2094757D66BA5F5409A","title":"香啡缤 碧云店 Coffee Bean&Tea Leaf","lon":"121.59029016157","lat":"31.24344483425","category":"65","category_name":"咖啡厅","address":"红枫路376号近碧云路"},{"poiid":"B2094757D069A4FB4499","title":"中国电信天翼视讯传媒有限公司","lon":"121.59391161","lat":"31.242911702","category":"263","category_name":"公司","address":"上海浦东新区新金桥路27号5号楼"},{"poiid":"B2094757D168A7F5479B","title":"BOLLYWOOD Indian Restaurant","lon":"121.59326138","lat":"31.242487597","category":"500","category_name":"未知分类","address":"上海浦东金桥红枫路326号"},{"poiid":"B2094757D06AAAF94598","title":"Office park 湖和3个小岛","lon":"121.59400391","lat":"31.244913414","category":"234","category_name":"海滨浴场","address":"上海浦东新区明月路1257号"},{"poiid":"B2094757D169ABFC4898","title":"汉庭全季金桥碧云店","lon":"121.590470723","lat":"31.2405832289","category":"500","category_name":"未知分类","address":"浦东新区黄杨路221号(近碧云路)"},{"poiid":"B2094757D06BA2FB4792","title":"金桥软件园","lon":"121.59910211","lat":"31.2423372779","category":"46","category_name":"楼宇","address":"上海浦东新区明月路1257号"},{"poiid":"B2094654DA6AA7FA449C","title":"上海浦东国际培训中心教学楼","lon":"121.5969","lat":"31.24516","category":"46","category_name":"楼宇","address":""},{"poiid":"B2094654DA6AA1FB4093","title":"金桥现代产业服务园区","lon":"121.59279","lat":"31.24458","category":"45","category_name":"产业园区","address":"新金桥路27号"},{"poiid":"B2094655D26BA1F8489C","title":"明月路红枫路","lon":"121.59497","lat":"31.24034","category":"38","category_name":"公交车站","address":""},{"poiid":"B2094757D06BABF54393","title":"蒲舍日式料理","lon":"121.59213387","lat":"31.242119949","category":"95","category_name":"日本料理","address":"浦东新区红枫路348号(近碧云路)"},{"poiid":"B2094757D068A0F94298","title":"联芯科技","lon":"121.59718417","lat":"31.241866598","category":"249","category_name":"购物服务","address":"上海浦东新区明月路1258号"},{"poiid":"B2094654DA6AA1FB4193","title":"鸿恩堂","lon":"121.59435","lat":"31.24062","category":"248","category_name":"生活娱乐","address":"红枫路455"},{"poiid":"B2094757D469A3FA4398","title":"台湾爱百汇","lon":"121.5923575","lat":"31.2418144","category":"91","category_name":"台湾菜","address":"浦东新区红枫路348号(近碧云路)"},{"poiid":"B2094654DA6AA1FA479B","title":"碧云东方公寓","lon":"121.59032","lat":"31.24214","category":"47","category_name":"住宅区","address":"上海市松江区北翠路158弄"},{"poiid":"B2094757D16DA1FD449D","title":"多美滋Dumex","lon":"121.59564997","lat":"31.24259135","category":"247","category_name":"餐饮美食","address":"上海新金桥路27号12＃"},{"poiid":"B2094655D26EABFD459D","title":"华美达中餐厅","lon":"121.59052007463","lat":"31.244308684054","category":"247","category_name":"餐饮美食","address":"新金桥路18号华美达大酒店近红枫路"},{"poiid":"B2094757D16AA0FA459B","title":"new york style pizza","lon":"121.596046448","lat":"31.2400093079","category":"500","category_name":"未知分类","address":"上海浦东红枫路336号"},{"poiid":"B2094757D168A5FA439C","title":"馔珍","lon":"121.59223295266","lat":"31.24213197834","category":"72","category_name":"广东菜","address":"浦东新区红枫路398号(近明月路)"},{"poiid":"B2094757D464A7FF489C","title":"一龙烧肉","lon":"121.59366","lat":"31.24673","category":"269","category_name":"烧烤","address":"浦东新区碧云路1168号(近红枫路)"},{"poiid":"B2094757D06BA7FA459F","title":"水上餐厅","lon":"121.59305","lat":"31.24437","category":"76","category_name":"上海菜","address":"浦东新区新金桥路27号金桥软件园内(近明月路)"},{"poiid":"B2094757D16FA7FA479D","title":"blue frog","lon":"121.588220975","lat":"31.2395112779","category":"500","category_name":"未知分类","address":"上海市浦东新区碧云路633号碧云休闲广场1楼"},{"poiid":"B2094655D26BA7F94992","title":"惠普综合大楼","lon":"121.59994","lat":"31.2463","category":"46","category_name":"楼宇","address":"金藏路351号"},{"poiid":"B2094750D76CA4FE429E","title":"BigBamboo(金桥店)","lon":"121.593","lat":"31.2416","category":"269","category_name":"烧烤","address":"红枫路381号(近碧云路)"},{"poiid":"B2094757D16CA4FD4093","title":"浦东华美达大酒店宴会厅","lon":"121.59128","lat":"31.24418","category":"217","category_name":"旅馆招待所","address":"浦东新区新金桥路18号华美达大酒店内(近红枫路)查看地图"},{"poiid":"B2094654DA6AA1FB4298","title":"上海市浦东新区医疗急救中心","lon":"121.59523","lat":"31.23966","category":"162","category_name":"医院","address":"红枫路515号"},{"poiid":"B2094655D26BA1F8489D","title":"明月路金桥路","lon":"121.5974","lat":"31.24277","category":"38","category_name":"公交车站","address":""},{"poiid":"B2094757D16FA7F8439D","title":"HDN","lon":"121.5934","lat":"31.24107","category":"249","category_name":"购物服务","address":"上海碧云"},{"poiid":"B2094757D06BA6FB459B","title":"福特汽车福银4S店","lon":"121.60238097","lat":"31.243333367","category":"500","category_name":"未知分类","address":"上海市浦东新区川桥路200号"},{"poiid":"B2094654DA6AA7FB4698","title":"Kodak","lon":"121.59568","lat":"31.24164","category":"263","category_name":"公司","address":"金桥软件园,新金桥路27号8号楼"},{"poiid":"B2094757D16DA6F4459F","title":"凯德·馨乐庭碧云服务公寓(Ascott)","lon":"121.593663722","lat":"31.2403302193","category":"217","category_name":"旅馆招待所","address":"上海浦东新区金桥出口加工区红枫路450弄(近明月路)"},{"poiid":"B2094654DB69A5FF4399","title":"莫泰168连锁旅店(新金桥路店)","lon":"121.59775","lat":"31.24797","category":"216","category_name":"经济型连锁酒店","address":"上海市浦东新区新金桥路179号（近金藏路）"},{"poiid":"B2094757D16DA5FB4493","title":"中欧国际工商学院食堂","lon":"121.59655","lat":"31.23702","category":"68","category_name":"快餐厅","address":"浦东新区红枫路699号"},{"poiid":"B2094757D06BA3F84799","title":"棒约翰比萨(碧云店)","lon":"121.58868","lat":"31.24183","category":"94","category_name":"西餐厅","address":"浦东新区碧云路1168号碧云钻石酒店公寓1楼(碧云路黄杨路)"},{"poiid":"B2094757D069A1F4469B","title":"金桥股份office park","lon":"121.59278869","lat":"31.244588851","category":"263","category_name":"公司","address":"上海新金桥路27号"},{"poiid":"B2094757D068A7FC4398","title":"金桥现代科技园12号楼","lon":"121.593557567","lat":"31.2449755814","category":"46","category_name":"楼宇","address":"上海浦东新区新金桥路27号"},{"poiid":"B2094757D06BA2F9469E","title":"康骏保健中心(碧云路店)","lon":"121.59018","lat":"31.24291","category":"149","category_name":"洗浴推拿场所","address":"上海浦东新区碧云路1218号2楼(红枫路)"},{"poiid":"B2094757D16CA4FC4899","title":"胡姬园 金桥店 Corss Road Cofe","lon":"121.59408287165","lat":"31.246897585595","category":"110","category_name":"其他亚洲菜","address":"浦东新区金桥路1775号(近新金桥路)"},{"poiid":"B2094757D66FA6FA439A","title":"悠庭保健会所","lon":"121.59307797","lat":"31.241448323","category":"148","category_name":"美容美发店","address":"上海红枫路368号"},{"poiid":"B2094655D26AA1F4499D","title":"汉庭快捷酒店新金桥店","lon":"121.59763","lat":"31.24899","category":"247","category_name":"餐饮美食","address":"上海浦东新区新金桥路230号17-6(近金藏路)"},{"poiid":"B2094654DA6AA7FB469A","title":"梦加园","lon":"121.59403","lat":"31.24205","category":"248","category_name":"生活娱乐","address":"红枫路425"},{"poiid":"B2094757D568A5F44693","title":"碧云别墅·银杏苑(北门)","lon":"121.5932742","lat":"31.2389152","category":"47","category_name":"住宅区","address":"中国上海市浦东新区明月路"},{"poiid":"B2094757D568A7F54192","title":"Gohnny Moo (红枫店)","lon":"121.59040989","lat":"31.24290826","category":"94","category_name":"西餐厅","address":"红枫路228"},{"poiid":"B2094757D16DA0F44298","title":"Benson salon(碧云路店)","lon":"121.58963","lat":"31.24275","category":"500","category_name":"未知分类","address":"上海"},{"poiid":"B2094757D16FA2F9409F","title":"樂馥居","lon":"121.59370178","lat":"31.240400342","category":"500","category_name":"未知分类","address":"上海紅楓路450號新加坡風味餐廳"},{"poiid":"B2094757D16FA0F54198","title":"上海华为通信有限公司","lon":"121.59410095","lat":"31.242176055","category":"263","category_name":"公司","address":"上海浦东新区新金桥路27号…"},{"poiid":"B2094655D36CA7FF469C","title":"红枫路新金桥路","lon":"121.59077","lat":"31.24299","category":"38","category_name":"公交车站","address":""},{"poiid":"B2094757D169A1FE4793","title":"DIY FOOD SHOP","lon":"121.59402797","lat":"31.242722353","category":"500","category_name":"未知分类","address":"上海市浦东新区红枫路232号"},{"poiid":"B2094654DA6AA1FA4699","title":"信和花园","lon":"121.58953","lat":"31.241188","category":"47","category_name":"住宅区","address":"信和花园位于浦东黄杨路69弄"},{"poiid":"B2094757D168A7F44193","title":"崇明传菜馆","lon":"121.590684975","lat":"31.2410153131","category":"247","category_name":"餐饮美食","address":"上海市浦东新区黄杨路221号―261号"},{"poiid":"B2094757D06BA1F5499F","title":"姗娜娜(金桥碧云店)","lon":"121.59058","lat":"31.24315","category":"149","category_name":"洗浴推拿场所","address":"浦东新区碧云路1234号(红枫路口)"},{"poiid":"B2094753D165A1FA409A","title":"上海金桥红枫万豪酒店","lon":"121.591682","lat":"31.243661","category":"500","category_name":"未知分类","address":"上海市 新金桥路15号"},{"poiid":"B2094654DA6AA1FA4899","title":"张家楼耶稣圣心天主堂迁建奠基","lon":"121.58956","lat":"31.24424","category":"245","category_name":"教堂","address":"浦东新区红枫路151"},{"poiid":"B2094654DA6AA1FA479A","title":"一龙碳烧","lon":"121.58907","lat":"31.24253","category":"87","category_name":"特色／地方风味餐厅","address":"浦东新区碧云路1168号(近红枫路)"},{"poiid":"B2094757D66CA3F8429D","title":"珍好甲台湾小吃","lon":"121.59367397","lat":"31.244581396","category":"247","category_name":"餐饮美食","address":"上海浦东新区红枫路350号"},{"poiid":"B2094655D36CA7FF479A","title":"红枫路蓝天路","lon":"121.58844","lat":"31.24485","category":"38","category_name":"公交车站","address":""},{"poiid":"B2094654DA6AA7FA449E","title":"花园5号酒楼","lon":"121.59534","lat":"31.24637","category":"70","category_name":"综合酒楼","address":"金桥路1775号"},{"poiid":"B2094757D064A1F9409F","title":"电讯盈科","lon":"121.59867233","lat":"31.248694767","category":"249","category_name":"购物服务","address":"新金桥路金藏路222号"},{"poiid":"B2094750D26EA5FA479E","title":"Green Massage青籁养身(红枫路店）","lon":"121.593161","lat":"31.241137","category":"208","category_name":"休闲场所","address":"浦东新区红枫路376号"},{"poiid":"B2094654DA6AA1F9429C","title":"御景花园","lon":"121.59162","lat":"31.24068","category":"47","category_name":"住宅区","address":"红枫路"},{"poiid":"B2094757DB68A3F5479E","title":"格里芬汽车影院","lon":"121.589643","lat":"31.237144","category":"500","category_name":"未知分类","address":"浦东新区金桥镇社庄村停车场内(近锦绣东路)"},{"poiid":"B2094757D06AA7FC489A","title":"耶稣圣心堂","lon":"121.591003","lat":"31.243117","category":"500","category_name":"未知分类","address":"上海红枫路近新金桥路"},{"poiid":"B2094654DB65A7FF429C","title":"全家便利店(碧云店)","lon":"121.58963","lat":"31.243","category":"117","category_name":"便民商店/便利店","address":"浦东新区碧云路1146号(碧云路黄杨路)"},{"poiid":"B2094757D16AA2F44399","title":"金桥路川桥路","lon":"121.596808","lat":"31.244701","category":"500","category_name":"未知分类","address":"上海每天和倪猪在这里交错两次……要是时间卡的准的话……"},{"poiid":"B2094757D66CAAFE409E","title":"杨高中路金桥立交桥","lon":"121.590676873","lat":"31.2483536596","category":"500","category_name":"未知分类","address":"上海杨高中路金桥立交桥"},{"poiid":"B2094757D66DA1F8449C","title":"金桥现代科技园","lon":"121.594085975","lat":"31.2450494075","category":"500","category_name":"未知分类","address":"上海新金桥路27号"},{"poiid":"B2094654DA6AA1FB429B","title":"百富丽山荘","lon":"121.59285","lat":"31.23871","category":"47","category_name":"住宅区","address":"明月路1118弄1-20号"},{"poiid":"B2094654DA6AA7FA4498","title":"上海浦东国际培训中心","lon":"121.59636","lat":"31.2451","category":"190","category_name":"培训机构","address":"上海新金桥路1851号"},{"poiid":"B2094654DA6AA7FB4493","title":"信和花园商务中心","lon":"121.58976","lat":"31.24161","category":"46","category_name":"楼宇","address":"信和花园服务中心1层D座"},{"poiid":"B2094757D66DA1FF439C","title":"复旦医学院枫林校区","lon":"121.59694897","lat":"31.239894286","category":"500","category_name":"未知分类","address":"上海东安路144号"},{"poiid":"B2094757D16CABFA449A","title":"中华料理","lon":"121.58799963","lat":"31.24132454","category":"247","category_name":"餐饮美食","address":"上海碧云路"},{"poiid":"B2094757D464A6F9499C","title":"维诺维拉葡萄酒吧 Vino Villa","lon":"121.591293054","lat":"31.242871793","category":"172","category_name":"酒吧","address":"红枫路350号近碧云路"},{"poiid":"B2094757D16AA5FA499E","title":"浦东新区税务局23所","lon":"121.59268116","lat":"31.246208234","category":"46","category_name":"楼宇","address":"上海新金桥路201号"},{"poiid":"B2094757D16BA1FC4993","title":"East west","lon":"121.589812975","lat":"31.2420933383","category":"500","category_name":"未知分类","address":"上海碧云路777号黄杨路口"},{"poiid":"B2094654DA6AA1FA489D","title":"金桥大厦客户服务处","lon":"121.59159","lat":"31.24567","category":"46","category_name":"楼宇","address":""},{"poiid":"B2094654DA6AA1F94298","title":"信和大厦","lon":"121.58908","lat":"31.24174","category":"46","category_name":"楼宇","address":"碧云路"},{"poiid":"B2094757D66BA6F44898","title":"巴罗莎西餐厅","lon":"121.59707263301","lat":"31.247717926271","category":"268","category_name":"自助","address":"浦东新区新金桥路159号佳友维景大酒店1楼(近金藏路)"},{"poiid":"B2094655D36CA7FF4798","title":"红枫路锦绣东路","lon":"121.59628","lat":"31.23646","category":"38","category_name":"公交车站","address":""},{"poiid":"B2094757D064A6F8419B","title":"康友四季保健会所(碧云店)","lon":"121.58977","lat":"31.24255","category":"149","category_name":"洗浴推拿场所","address":"浦东新区碧云路1198号(近红枫路)"},{"poiid":"B2094655D26EA5F4409B","title":"贝拉园意大利餐厅","lon":"121.58949","lat":"31.24282","category":"98","category_name":"意式菜品餐厅","address":"碧云路1198号2楼近红枫路"},{"poiid":"B2094654DA6AA1FA4893","title":"上海华联罗森有限公司便利店","lon":"121.59159","lat":"31.24567","category":"117","category_name":"便民商店/便利店","address":""},{"poiid":"B2094757D66CA6FE479D","title":"中国银行上海市浦东开发区支行","lon":"121.593072975","lat":"31.2459984298","category":"500","category_name":"未知分类","address":"浦东新区新金桥路58号(金桥路新金桥路)"},{"poiid":"B2094654DA6AA7FB449C","title":"上海协和国际学校","lon":"121.58996","lat":"31.23904","category":"253","category_name":"校园生活","address":"浦东新区黄杨路345号"},{"poiid":"B209475CD665A1FE4393","title":"星巴克碧云路店","lon":"121.59066","lat":"31.239221","category":"500","category_name":"未知分类","address":"上海市 碧云路1156-1160号"},{"poiid":"B2094757D76DA0FD4392","title":"美林阁 金桥店","lon":"121.59800399575","lat":"31.248306650962","category":"76","category_name":"上海菜","address":"浦东新区新金桥路179号(近金藏路)"},{"poiid":"B2094757D06AA0FA419B","title":"长安马自达4S店","lon":"121.60129951","lat":"31.244495104","category":"500","category_name":"未知分类","address":"上海川桥路350号"},{"poiid":"B2094654DA6AA7F8469E","title":"金桥出口加工区21号","lon":"121.59998","lat":"31.24527","category":"45","category_name":"产业园区","address":"金藏路366"},{"poiid":"B2094757D16CA5F9459F","title":"元子韩国料理","lon":"121.593214","lat":"31.246556","category":"247","category_name":"餐饮美食","address":"上海浦东金桥乐林路135号(近巨峰路卜蜂莲花)"},{"poiid":"B2094757D168A3FC4193","title":"上海东昌奥迪","lon":"121.59862493","lat":"31.243612453","category":"158","category_name":"汽车销售","address":"上海锦绣路金滇路口"},{"poiid":"B209475CDB6BA3FE499E","title":"桃花源","lon":"121.589241","lat":"31.242738","category":"500","category_name":"未知分类","address":"上海市 上海浦东碧云路1177号"},{"poiid":"B2094654DA6AA7FB4592","title":"珊娜娜足道","lon":"121.59012","lat":"31.24315","category":"149","category_name":"洗浴推拿场所","address":"碧云路1234"},{"poiid":"B2094757D464A4FE449A","title":"十二果芬 中欧店 Brix 12","lon":"121.596574","lat":"31.23627","category":"68","category_name":"快餐厅","address":"红枫路699号中欧国际工商学院内近锦绣东路"},{"poiid":"B2094757D065A5FB4393","title":"Offiec Park No.14 Building","lon":"121.59531153","lat":"31.245715367","category":"500","category_name":"未知分类","address":"上海No.1257 Mingyue Read, Pudong"},{"poiid":"B2094654DA6AA1FB419A","title":"金桥集团","lon":"121.59279","lat":"31.24458","category":"263","category_name":"公司","address":"新金桥路27号"},{"poiid":"B2094757D66EABFC4799","title":"佰味知客","lon":"121.598408339","lat":"31.2481155541","category":"68","category_name":"快餐厅","address":"浦东新区浙桥路19号"},{"poiid":"B2094654DA6AA1F9499B","title":"金桥科技工业城","lon":"121.59988","lat":"31.2452","category":"45","category_name":"产业园区","address":"金藏路366"},{"poiid":"B2094655D265A5F84693","title":"莱卡大厦","lon":"121.59831","lat":"31.24735","category":"46","category_name":"楼宇","address":"金藏路258号"},{"poiid":"B2094654DB64A3F9419A","title":"罗森","lon":"121.58851","lat":"31.24217","category":"117","category_name":"便民商店/便利店","address":"碧云路1166"},{"poiid":"B2094757DA65AAF5469A","title":"格林联盟（上海锦绣东路酒店）","lon":"121.601422","lat":"31.237809","category":"216","category_name":"经济型连锁酒店","address":"浦东新区金桥路2346号(近锦绣东路)"},{"poiid":"B2094752D16DAAFC469E","title":"极乐汤碧云温泉","lon":"121.592955","lat":"31.248058","category":"247","category_name":"餐饮美食","address":"新金桥路600号"},{"poiid":"B2094655D36CA5FE419F","title":"川桥路","lon":"121.60179","lat":"31.24305","category":"68","category_name":"快餐厅","address":"浦东新区川桥路182号(近金沪路)"},{"poiid":"B2094757D069A3FF4599","title":"中国建设银行（金桥支行）","lon":"121.596949739","lat":"31.2486174657","category":"150","category_name":"银行","address":"浦东新区新金桥路196号(金藏路新金桥路)"},{"poiid":"B2094654DA6AA1F9499F","title":"金桥出口加工区20号","lon":"121.59831","lat":"31.24735","category":"45","category_name":"产业园区","address":"金藏路258(1-5)"},{"poiid":"B209475CD26EAAFA479A","title":"上海来福士广场","lon":"121.594558","lat":"31.237098","category":"500","category_name":"未知分类","address":"上海市 南京西路"},{"poiid":"B2094757D069A1FA4292","title":"全家便利新金桥店","lon":"121.59805552","lat":"31.248482675","category":"117","category_name":"便民商店/便利店","address":"上海新金桥路230号T17-7底层D区"},{"poiid":"B2094757D16FA4FD459B","title":"Parkway Health(瑞浦门诊部)","lon":"121.58847","lat":"31.24493","category":"162","category_name":"医院","address":"上海浦东新区红枫路51号(近蓝天路)  "},{"poiid":"B2094654DA6AA1F9499A","title":"金桥出口加工区22号(云桥路)","lon":"121.60066","lat":"31.24586","category":"45","category_name":"产业园区","address":"云桥路25号"},{"poiid":"B2094757D16EA7FF409A","title":"PAPA JOHNS PIZZA","lon":"121.59092712","lat":"31.239091873","category":"500","category_name":"未知分类","address":"上海浦东金桥碧云路"},{"poiid":"B2094757D16DA0FC4898","title":"上海惠普有限公司","lon":"121.60010267","lat":"31.246317927","category":"263","category_name":"公司","address":"上海市浦东新区云桥路25号"},{"poiid":"B2094654D568ABFA4099","title":"浦东新区国家税务局第二十二税务所","lon":"121.59857","lat":"31.24799","category":"250","category_name":"公园户外","address":"新金桥路201"},{"poiid":"B2094654DA6AA7F8459D","title":"金金公寓职工宿舍","lon":"121.60277","lat":"31.24122","category":"47","category_name":"住宅区","address":"金沪路1218弄1-4号"},{"poiid":"B2094757D16AA7F9429E","title":"黑面蔡(张江店)","lon":"121.59970567","lat":"31.239115768","category":"500","category_name":"未知分类","address":"上海浦东张江高科 传奇广场1楼"},{"poiid":"B2094654D568AAFC4499","title":"上海粼凌商场","lon":"121.59688","lat":"31.24829","category":"119","category_name":"商场","address":"新金桥路188"},{"poiid":"B2094654DB69A6FC4698","title":"上海市金桥出口加工区","lon":"121.59426","lat":"31.24956","category":"45","category_name":"产业园区","address":"浦东新区中部"},{"poiid":"B2094757D165ABFF4992","title":"金沪路1118","lon":"121.60016097","lat":"31.239129169","category":"500","category_name":"未知分类","address":"上海金沪路川桥路"},{"poiid":"B2094757D66EA5FD479F","title":"彭村梅专业美容碧云店","lon":"121.5893216","lat":"31.2425903","category":"500","category_name":"未知分类","address":"上海碧云路1186号"},{"poiid":"B2094654DB65A4FE4399","title":"上海贝尔阿尔卡特股份有限公司","lon":"121.59319","lat":"31.24657","category":"263","category_name":"公司","address":"新金桥路58"},{"poiid":"B2094757D16EA7FE489F","title":"中欧国际工商学院 石化演讲厅","lon":"121.596286","lat":"31.237296","category":"260","category_name":"其他","address":"上海浦东新区红枫路699号"},{"poiid":"B2094757D16EA7F84292","title":"中国银行 金桥支行","lon":"121.59755706","lat":"31.244344711","category":"260","category_name":"其他","address":"上海银东大厦"},{"poiid":"B2094654DA6AA1FB439E","title":"阿尔卡特企业方案事业部亚太研发中心","lon":"121.59387","lat":"31.24635","category":"191","category_name":"科研机构","address":"新金桥路58"},{"poiid":"B2094757D069A1FD479F","title":"上海市浦东新区税务局第五税务所","lon":"121.59530693","lat":"31.248696749","category":"250","category_name":"公园户外","address":"上海新金桥路201号"},{"poiid":"B2094654DB65A5FB499E","title":"上海美亚金桥能源有限公司","lon":"121.60047","lat":"31.24368","category":"263","category_name":"公司","address":"川桥路125"},{"poiid":"B2094757D168AAFC449A","title":"川桥路500号","lon":"121.60132727","lat":"31.243569672","category":"500","category_name":"未知分类","address":"上海川桥路500号"},{"poiid":"B2094757D16AA0FC4998","title":"赫比(上海)家用电器产品有限公司","lon":"121.599982","lat":"31.245278","category":"500","category_name":"未知分类","address":"上海市浦东新区金藏路366号"},{"poiid":"B2094654DA6AA1F84792","title":"柯达电子(上海)有限公司","lon":"121.59745","lat":"31.24678","category":"263","category_name":"公司","address":""},{"poiid":"B2094654D568ABFA4299","title":"中国农业银行上海市金桥支行","lon":"121.59717","lat":"31.24859","category":"150","category_name":"银行","address":"浦东新区新金桥路188号(金藏路新金桥路)"},{"poiid":"B2094655D269ABFD4898","title":"圣雪绒工厂折扣店","lon":"121.59763","lat":"31.24899","category":"247","category_name":"餐饮美食","address":"浦东新区新金桥路230号(近金藏路)"},{"poiid":"B2094757D568AAFF439B","title":"华美达多功能厅","lon":"121.5918833","lat":"31.24485806","category":"251","category_name":"出行住宿","address":"新金桥路18号华美达大酒店B1层"},{"poiid":"B2094654D568ABFA4098","title":"浦东新区地方税务局第五税务所","lon":"121.59857","lat":"31.24799","category":"250","category_name":"公园户外","address":"新金桥路201"},{"poiid":"B2094654D568ABFA409C","title":"浦东新区地方税务局第二十三税务所","lon":"121.59857","lat":"31.24799","category":"250","category_name":"公园户外","address":"新金桥路201"},{"poiid":"B2094654D568ABFA409F","title":"浦东新区国家税务局第二十三税务所","lon":"121.59857","lat":"31.248","category":"250","category_name":"公园户外","address":"新金桥路201"},{"poiid":"B2094757D16EA5FD449D","title":"上海贝尔股份有限公司三号楼","lon":"121.58800577","lat":"31.243430369","category":"500","category_name":"未知分类","address":"上海宁桥路388号"},{"poiid":"B2094654D568ABFA409B","title":"浦东新区国家税务局第五税务所","lon":"121.59857","lat":"31.24799","category":"250","category_name":"公园户外","address":"新金桥路201"},{"poiid":"B2094752D16CA1FF469E","title":"极乐汤","lon":"121.59297","lat":"31.248079","category":"247","category_name":"餐饮美食","address":"新心金桥路600号"},{"poiid":"B2094757D168A2F84892","title":"赫比国际 新金桥大厦","lon":"121.599968875","lat":"31.2465965438","category":"252","category_name":"楼宇机构","address":"上海新金桥路28号"},{"poiid":"B209475DD26CA5F44592","title":"红星美凯龙金桥商场","lon":"121.59114","lat":"31.247659","category":"500","category_name":"未知分类","address":"上海市 金藏路58号"},{"poiid":"B2094757D06AA0FA429A","title":"二工大5号楼","lon":"121.594459239","lat":"31.2495902213","category":"500","category_name":"未知分类","address":"上海第二工业大学5号教学楼"},{"poiid":"B2094757D164A1FC4893","title":"闪电自行车","lon":"121.58951","lat":"31.24288","category":"260","category_name":"其他","address":"上海浦东新区碧云路1192号(近红枫路)  "},{"poiid":"B2094654DA6AA1F94999","title":"硕科图像(上海)有限公司","lon":"121.59993","lat":"31.24629","category":"263","category_name":"公司","address":"金藏路351号"},{"poiid":"B2094757D16AAAF54099","title":"中芯国际集成电路制造(上海)有限公司","lon":"121.59506547","lat":"31.235281778","category":"500","category_name":"未知分类","address":"上海张江高科技园区张江路18号"},{"poiid":"B2094757D169A5FD489B","title":"新金桥路27号","lon":"121.598706","lat":"31.248832","category":"500","category_name":"未知分类","address":"上海新金桥路金桥路"},{"poiid":"B2094757D16BA6FC4099","title":"杨高中路平度路金藏路路口","lon":"121.59597563","lat":"31.249668589","category":"500","category_name":"未知分类","address":"上海浦东新区杨高中路平度路金藏路路口"},{"poiid":"B2094750D56EA6FB409C","title":"科勒电子科技有限公司","lon":"121.602523","lat":"31.244007","category":"263","category_name":"公司","address":"金滇路18号E幢"},{"poiid":"B2094757D16AA5F5419C","title":"瑤家湘域","lon":"121.598626975","lat":"31.2476775691","category":"500","category_name":"未知分类","address":"上海妙境路168号近新德路"},{"poiid":"B2094752D16DA0FB4598","title":"极乐汤","lon":"121.596367","lat":"31.249642","category":"247","category_name":"餐饮美食","address":null},{"poiid":"B2094757D065A4FE429D","title":"协和国际学校","lon":"121.59059475","lat":"31.235592611","category":"260","category_name":"其他","address":"浦东新区明月路999号(近黄杨路)"},{"poiid":"B2094750D56DA6F4439B","title":"上海佳友维景大酒店","lon":"121.596656","lat":"31.24727","category":"251","category_name":"出行住宿","address":"新金桥路159号"},{"poiid":"B2094757D064A7F84398","title":"上海市浦东新区税务局第二十一税务所","lon":"121.59843338","lat":"31.248638336","category":"500","category_name":"未知分类","address":"上海居家桥路913号"},{"poiid":"B2094757D069A2FC439D","title":"百思买大楼","lon":"121.5927124","lat":"31.235210418","category":"252","category_name":"楼宇机构","address":"上海明月路1257"},{"poiid":"B2094757D66FA2FC409B","title":"DEVIL NUT(宏伊店)","lon":"121.59844224","lat":"31.248644441","category":"500","category_name":"未知分类","address":"上海宏伊广场1楼"},{"poiid":"B2094654DA6AA7F84898","title":"上海鑫桥汽车维修有限公司","lon":"121.60269","lat":"31.24325","category":"263","category_name":"公司","address":"浦东新区川桥路218"},{"poiid":"B2094757D66EA5F9499F","title":"龙门路邮局","lon":"121.59842563","lat":"31.248668889","category":"621","category_name":"邮局","address":"上海柳林路"},{"poiid":"B2094750D36BA4FA4298","title":"121speak","lon":"121.59763","lat":"31.24899","category":"634","category_name":"IT类公司","address":"上海市浦东新区三林世博软件园19201"}]