[{"poiid":"B2094757D06FA3FD4598","title":"衡山路","lon":"121.44432","lat":"31.20163","category":"260","category_name":"其他","address":"徐汇区衡山路(衡山路吴兴路)"},{"poiid":"B2094654DA6DA7F9479B","title":"基督教国际礼拜堂","lon":"121.44808","lat":"31.20635","category":"245","category_name":"教堂","address":"徐汇区衡山路53号(近乌鲁木齐路)"},{"poiid":"B2094757D66DA4FD4499","title":"菲芘酒吧","lon":"121.447201886","lat":"31.2057479523","category":"174","category_name":"迪厅","address":"上海衡山路10号甲一层"},{"poiid":"B2094753D76FAAFA449C","title":"上海滩国泰旗舰店","lon":"121.466011","lat":"31.216125","category":"249","category_name":"购物服务","address":"淮海中路868号"},{"poiid":"B209475CD564A7F8439E","title":"上海滩中信泰富店","lon":"121.45602","lat":"31.22851","category":"119","category_name":"商场","address":"\"南京西路1168号中信泰富广场，店铺号221.\r\n\""},{"poiid":"B2094655D26AABFE469C","title":"SOHOCLUB","lon":"121.44773","lat":"31.20662","category":"247","category_name":"餐饮美食","address":"徐汇区衡山路10号"},{"poiid":"B2094757D06EAAFF4899","title":"星巴克 衡山路店 Starbucks Cafe","lon":"121.446764054","lat":"31.206216793","category":"260","category_name":"其他","address":"徐汇区衡山路4号领馆广场内(近乌鲁木齐南路)"},{"poiid":"B2094757DB6FA2FB499A","title":"衡山路十二号豪华精选酒店","lon":"121.44645321431","lat":"31.20471978314","category":"215","category_name":"三星级宾馆","address":"徐汇区衡山路12号"},{"poiid":"B2094757D06EAAFC4292","title":"菲比","lon":"121.44647479","lat":"31.204945495","category":"172","category_name":"酒吧","address":"徐汇区衡山路10号欧登大厦1楼(近乌鲁木齐南路)"},{"poiid":"B2094757D568AAF94199","title":"Shari","lon":"121.44823703","lat":"31.20476101","category":"95","category_name":"日本料理","address":"徐汇区永嘉路630号(近乌鲁木齐南路)"},{"poiid":"B2094757D665AAF8409F","title":"西界酒吧 West Side","lon":"121.447479054","lat":"31.205316793","category":"260","category_name":"其他","address":"徐汇区衡山路237号(近高安路)"},{"poiid":"B2094757D06AA2FB4299","title":"MT3","lon":"121.44685058","lat":"31.205462946","category":"500","category_name":"未知分类","address":"上海衡山路10号"},{"poiid":"B2094757D06FAAF9499C","title":"一哥海鲜火锅","lon":"121.446774586","lat":"31.2056789509","category":"86","category_name":"火锅店","address":"徐汇区衡山路10号(近高安路)"},{"poiid":"B2094654DA6DA7F94592","title":"欧登","lon":"121.44657","lat":"31.20556","category":"46","category_name":"楼宇","address":"上海衡山路10号甲"},{"poiid":"B2094757D06EAAF54392","title":"衡山路地铁站","lon":"121.44659716","lat":"31.204602285","category":"36","category_name":"地铁站","address":"上海轨道交通 一号线 轨交衡山路站 1"},{"poiid":"B2094757DA65A4F9449A","title":"Pizza Marzano","lon":"121.4464178961901","lat":"31.20727251752392","category":"247","category_name":"餐饮美食","address":"永嘉庭"},{"poiid":"B2094757D068A3FA409D","title":"衡山路乌鲁木齐南路","lon":"121.4482784","lat":"31.2070633","category":"500","category_name":"未知分类","address":"上海衡山路乌鲁木齐南路"},{"poiid":"B2094757D068A1F94798","title":"图安蟹味馆","lon":"121.445137232","lat":"31.2068752777","category":"257","category_name":"中餐厅","address":"徐汇区高安路1号上海图书馆后花园(近淮海中路)"},{"poiid":"B2094757D069A4F44493","title":"Club Phebe","lon":"121.44689243","lat":"31.205410175","category":"500","category_name":"未知分类","address":"上海衡山路乌鲁木齐路"},{"poiid":"B2094757D469A1F44492","title":"苏荷CD3 SOHO CLUB","lon":"121.448456054","lat":"31.206970793","category":"172","category_name":"酒吧","address":"徐汇区衡山路4号(乌鲁木齐路口)"},{"poiid":"B2094654DB64A6F9499A","title":"美国领事馆","lon":"121.44721","lat":"31.2088","category":"252","category_name":"楼宇机构","address":"乌鲁木齐中路"},{"poiid":"B2094757D068AAFD4199","title":"GOD HANDS日系发型设计","lon":"121.44647658","lat":"31.204292923","category":"148","category_name":"美容美发店","address":"上海市徐汇区衡山路235号"},{"poiid":"B2094757D068A4FF459E","title":"巴犀烧烤屋","lon":"121.44698","lat":"31.20507","category":"94","category_name":"西餐厅","address":"徐汇区衡山路4号领馆广场内(近乌鲁木齐南路)"},{"poiid":"B2094757D064A0FC4799","title":"拉妃酒吧","lon":"121.448665586","lat":"31.2074949864","category":"179","category_name":"音乐厅","address":"上海衡山路10号"},{"poiid":"B2094750DA65A7F5429B","title":"彭于晏妈妈的小城故事店里面","lon":"121.447845","lat":"31.208089","category":"247","category_name":"餐饮美食","address":null},{"poiid":"B2094655D26EA1FD429D","title":"一千零一夜 1001 Nights Restaurant","lon":"121.446904988","lat":"31.207006173934","category":"247","category_name":"餐饮美食","address":"徐汇区衡山路4号领馆广场内(近乌鲁木齐南路)"},{"poiid":"B2094655D26EAAF84199","title":"唐韵茶坊 徐汇店","lon":"121.44775275124","lat":"31.205628558528","category":"66","category_name":"茶艺馆","address":"徐汇区衡山路199号(高安路乌鲁木齐路间)"},{"poiid":"B2094757DA69A2FB4893","title":"上海真爱酒吧Truelove","lon":"121.44662487568","lat":"31.205536497467","category":"172","category_name":"酒吧","address":"徐汇区衡山路10号(近高安路)"},{"poiid":"B2094654DA6DA7F9459C","title":"MT Club(衡山路店)","lon":"121.44657","lat":"31.20556","category":"248","category_name":"生活娱乐","address":"上海徐汇区衡山路10号欧登保龄球甲2楼"},{"poiid":"B2094654DA6DA7F9469E","title":"Starbucks Coffee(衡山路)","lon":"121.44757","lat":"31.20641","category":"65","category_name":"咖啡厅","address":"天平路"},{"poiid":"B2094654DB6AA7FB4498","title":"市图书馆","lon":"121.44555","lat":"31.2068","category":"181","category_name":"图书馆","address":"徐汇区淮海中路1555号"},{"poiid":"B2094757D464ABF9439C","title":"棒约翰比萨 衡山店 Papa John's Pizza","lon":"121.44805620007","lat":"31.207111525182","category":"94","category_name":"西餐厅","address":"徐汇区衡山路4号(近乌鲁木齐南路)"},{"poiid":"B2094750D06CA7FD409A","title":"SomeWhere秘境咖啡馆","lon":"121.44684","lat":"31.20488","category":"260","category_name":"其他","address":"徐汇区衡山路235号1楼(近高安路)"},{"poiid":"B2094750DA6EA6FC429D","title":"欧登保龄球","lon":"121.4468","lat":"31.205379","category":"220","category_name":"运动场所","address":"衡山路10号"},{"poiid":"B2094757D065A7FF4293","title":"高安公馆","lon":"121.44793176","lat":"31.205789923","category":"500","category_name":"未知分类","address":"徐汇区衡山路237号(近永嘉路)"},{"poiid":"B2094655D265AAF54993","title":"柳屋","lon":"121.446764054","lat":"31.206216793","category":"95","category_name":"日本料理","address":"徐汇区衡山路4号领馆广场1楼(近乌鲁木齐南路)"},{"poiid":"B2094654DB65A6FA4993","title":"沙华多利(徐汇店)","lon":"121.44752","lat":"31.20634","category":"94","category_name":"西餐厅","address":"徐汇区衡山路4号领馆广场内(近乌鲁木齐南路)"},{"poiid":"B2094751D46BA2FE499F","title":"植藤","lon":"121.44738","lat":"31.20612","category":"95","category_name":"日本料理","address":"徐汇区衡山路6号(近衡山路地铁站)"},{"poiid":"B2094757D568A6FC409C","title":"MT3酒吧衡山路店","lon":"121.4479519","lat":"31.20690889","category":"172","category_name":"酒吧","address":"衡山路10号甲"},{"poiid":"B2094751D36DA6FF4099","title":"悦海壹号","lon":"121.44688","lat":"31.20476","category":"76","category_name":"上海菜","address":"徐汇区衡山路237号高安公馆2楼(近永嘉路)"},{"poiid":"B2094757D069A1FC499F","title":"乐加尔松音","lon":"121.44813362","lat":"31.207068655","category":"76","category_name":"上海菜","address":"徐汇区衡山路4号领馆广场2楼(近乌鲁木齐南路)"},{"poiid":"B2094757D069A0F44998","title":"Bulldog Shanghai(英国斗牛犬)","lon":"121.44805362","lat":"31.208418656","category":"172","category_name":"酒吧","address":"徐汇区乌鲁木齐南路1号(衡山路美领馆对面)"},{"poiid":"B2094654DA6DA7F94693","title":"领馆广场","lon":"121.44779","lat":"31.20668","category":"46","category_name":"楼宇","address":"徐汇区衡山路4号"},{"poiid":"B2094752D465A7F44498","title":"K11","lon":"121.445876","lat":"31.205712","category":"247","category_name":"餐饮美食","address":"淮海中路"},{"poiid":"B2094750D16BA0FB419F","title":"sonik fly","lon":"121.446815","lat":"31.205413","category":"260","category_name":"其他","address":"徐汇区衡山路191号"},{"poiid":"B2094655D26EAAFE499C","title":"Anadolu","lon":"121.44787","lat":"31.20679","category":"94","category_name":"西餐厅","address":"徐汇区衡山路4号(近乌鲁木齐南路)"},{"poiid":"B2094655D268A2FA449C","title":"谈日本料理","lon":"121.44737","lat":"31.20613","category":"95","category_name":"日本料理","address":"衡山路6号"},{"poiid":"B2094750D76EA1FC4098","title":"衡山小厨","lon":"121.448","lat":"31.2061","category":"72","category_name":"广东菜","address":"徐汇区衡山路"},{"poiid":"B2094757D16EA2FD409B","title":"阿纳多卢土耳其餐厅","lon":"121.447934566","lat":"31.2063967149","category":"500","category_name":"未知分类","address":"上海徐汇区衡山路4号"},{"poiid":"B2094757D66FA1F84799","title":"PHEBE","lon":"121.44690658","lat":"31.205374945","category":"500","category_name":"未知分类","address":"上海市徐汇区淮海中路"},{"poiid":"B2094757D068A1FA459A","title":"高安路","lon":"121.44740295","lat":"31.204931259","category":"260","category_name":"其他","address":"上海徐汇区高安路"},{"poiid":"B2094757D06BA7FA4098","title":"皇悦餐厅","lon":"121.44820737","lat":"31.206803302","category":"94","category_name":"西餐厅","address":"徐汇区衡山路4号领馆广场底楼(近乌鲁木齐南路)"},{"poiid":"B2094654DA6DA7FA4992","title":"上海乌南幼儿园(乌鲁木齐南路)","lon":"121.44795","lat":"31.20781","category":"57","category_name":"幼儿园","address":"徐汇区乌鲁木齐南路14号(衡山路乌鲁木齐南路)"},{"poiid":"B209475DD66FA0FA4692","title":"Macasa","lon":"121.446838","lat":"31.205265","category":"247","category_name":"餐饮美食","address":"上海市 淮海中路1690号"},{"poiid":"B2094757D064A1F4479A","title":"Westside","lon":"121.44829658","lat":"31.20565395","category":"172","category_name":"酒吧","address":"上海市徐汇区衡山路237号"},{"poiid":"B2094752DA6AA7F4479C","title":"iDarts Shanghai","lon":"121.44711971","lat":"31.2052311","category":"248","category_name":"生活娱乐","address":"上海徐汇区衡山路191号"},{"poiid":"B2094757D66EA0FA459C","title":"yin restaraunt","lon":"121.44787058","lat":"31.206494966","category":"500","category_name":"未知分类","address":"上海衡山路4号"},{"poiid":"B2094655D26CA1FE4392","title":"Grace Hair & Aesthetics","lon":"121.44763","lat":"31.20665","category":"148","category_name":"美容美发店","address":"徐汇区衡山路4号领馆广场2楼24(近乌鲁木齐南路)"},{"poiid":"B209475CD06BA4F54599","title":"一哥肥牛火锅海鲜酒家 衡山路店","lon":"121.4468","lat":"31.20544","category":"86","category_name":"火锅店","address":"衡山路10号(近高安路)"},{"poiid":"B2094655D26AA7FE499F","title":"DEEPKISSCLUB","lon":"121.44657","lat":"31.20555","category":"247","category_name":"餐饮美食","address":"徐汇区衡山路10号欧登大楼2楼"},{"poiid":"B2094757D66BA5FA489B","title":"1919咖啡","lon":"121.44818748544","lat":"31.207219850516","category":"65","category_name":"咖啡厅","address":"乌鲁木齐中路1号近华山路"},{"poiid":"B2094757D569A0FB4892","title":"伊丽包子点心","lon":"121.4450831","lat":"31.20685111","category":"68","category_name":"快餐厅","address":"徐汇区高安路1弄11号侧(近淮海中路)"},{"poiid":"B2094750D76FAAF54298","title":"PHEBE3DCLUB","lon":"121.447","lat":"31.2054","category":"269","category_name":"烧烤","address":"衡山路10号欧登大厦1楼(近乌鲁木齐南路)"},{"poiid":"B2094757D16FA6F44599","title":"爸爸妈妈家","lon":"121.44730358","lat":"31.205691951","category":"247","category_name":"餐饮美食","address":"上海虹口区四川路外滩"},{"poiid":"B2094757D56DA2F9449B","title":"乐加尔松 Le garcon Chinoi","lon":"121.44644738079","lat":"31.205194593538","category":"247","category_name":"餐饮美食","address":"衡山路9弄3号美国领事馆附近"},{"poiid":"B2094753D768A2FF449A","title":"ASC 藏酒轩 The Wine Gallery","lon":"121.448669","lat":"31.206657","category":"247","category_name":"餐饮美食","address":"上海市 上海市徐汇区乌鲁木齐南路55号"},{"poiid":"B2094757D16DA3FF4498","title":"288酒吧(衡山店)","lon":"121.446572","lat":"31.205557","category":"172","category_name":"酒吧","address":"上海徐汇区衡山路10号(近高安路)"},{"poiid":"B2094655D268A4F9469F","title":"基督教国际礼拜堂(西门)","lon":"121.44794","lat":"31.20644","category":"680","category_name":"楼宇机构","address":"衡山路53"},{"poiid":"B209475CD16FA4F44393","title":"上海国金IFC","lon":"121.448135","lat":"31.207277","category":"500","category_name":"未知分类","address":"上海市 上海浦东陆家嘴"},{"poiid":"B2094757D569A2FB429A","title":"衡山路41号芝大厦","lon":"121.4488601","lat":"31.2068901","category":"46","category_name":"楼宇","address":"衡山路41号芝大厦位于徐汇衡山路41号"},{"poiid":"B2094757D66CA3FB489A","title":"panic room","lon":"121.446868586","lat":"31.2057889531","category":"500","category_name":"未知分类","address":"上海衡山路10 basement"},{"poiid":"B2094654DB65ABFE4399","title":"绿阴休闲饮品屋","lon":"121.44804","lat":"31.20703","category":"111","category_name":"休闲餐饮场所","address":"衡山路4号"},{"poiid":"B2094654DA6DA7FB4099","title":"巴黎欧莱雅专业美发","lon":"121.4479","lat":"31.20705","category":"148","category_name":"美容美发店","address":""},{"poiid":"B2094757D169AAF84999","title":"公交15路","lon":"121.44644398","lat":"31.2056554","category":"500","category_name":"未知分类","address":"上海衡山路-复兴中路"},{"poiid":"B2094751DA69A7FC469D","title":"Arkham俱乐部","lon":"121.448096","lat":"31.207791","category":"172","category_name":"酒吧","address":"上海市 乌鲁木齐南路1号（近衡山路）"},{"poiid":"B2094757D568A6F9409A","title":"上海图书馆读者餐厅","lon":"121.4447469","lat":"31.20753194","category":"68","category_name":"快餐厅","address":"徐汇区淮海中路1555号上海图书馆1楼(高安路口)"},{"poiid":"B2094750DB68A5F94998","title":"大蒜土耳其餐厅","lon":"121.447509","lat":"31.204093","category":"94","category_name":"西餐厅","address":"徐汇区永嘉路698号(近安亭路)"},{"poiid":"B2094752DB68A1F4479B","title":"i darts shanghai","lon":"121.447038","lat":"31.205139","category":"500","category_name":"未知分类","address":"上海市 衡山路"},{"poiid":"B2094757D164A6F9459C","title":"咪咪小羊自助火锅","lon":"121.44795218","lat":"31.206835773","category":"247","category_name":"餐饮美食","address":"上海杨浦区国定路"},{"poiid":"B2094753D164A5FE4398","title":"Avenue Joffre Bar","lon":"121.4464","lat":"31.207486","category":"500","category_name":"未知分类","address":"上海市 永嘉路570号5号501室"},{"poiid":"B2094751DB6BA4F54999","title":"云尚","lon":"121.44643","lat":"31.20485","category":"94","category_name":"西餐厅","address":"徐汇区衡山路12号"},{"poiid":"B2094655D265A1FC4599","title":"DeepKiss","lon":"121.44795","lat":"31.20691","category":"65","category_name":"咖啡厅","address":"衡山路10号2楼"},{"poiid":"B2094750DA68A0FF419B","title":"garlic","lon":"121.447525","lat":"31.204221","category":"247","category_name":"餐饮美食","address":"徐匯區永嘉路698號"},{"poiid":"B2094655D26BA2FD429A","title":"乌鲁木齐南路衡山路","lon":"121.44839","lat":"31.20672","category":"38","category_name":"公交车站","address":""},{"poiid":"B209475DD06CAAF4409B","title":"play house","lon":"121.446487","lat":"31.205343","category":"500","category_name":"未知分类","address":"上海市 衡山路10号"},{"poiid":"B2094655D26AA0FA479F","title":"地铁衡山路站","lon":"121.44655","lat":"31.20471","category":"36","category_name":"地铁站","address":""},{"poiid":"B2094753D06FA7FC4899","title":"至尊衡山豪华精选酒店","lon":"121.44645","lat":"31.20495","category":"213","category_name":"五星级宾馆","address":"徐汇区衡山路12号"},{"poiid":"B2094757D164A1FD4299","title":"UM优盟","lon":"121.447448586","lat":"31.2059189556","category":"500","category_name":"未知分类","address":"上海淮海中路1045号21楼"},{"poiid":"B2094655D265A1FF429E","title":"Agogo酒吧","lon":"121.44795","lat":"31.20691","category":"172","category_name":"酒吧","address":"衡山路10号甲欧登1层"},{"poiid":"B2094751DB6BA4F44993","title":"衡山12","lon":"121.44643","lat":"31.20485","category":"47","category_name":"住宅区","address":"徐汇区衡山路12号"},{"poiid":"B2094757D16EA5FF4199","title":"Gibson China","lon":"121.447645","lat":"31.206102514","category":"500","category_name":"未知分类","address":"上海衡山路10号"},{"poiid":"B2094753D56AABF5489D","title":"上海衡山路十二号豪华酒店","lon":"121.447647","lat":"31.207139","category":"500","category_name":"未知分类","address":"上海市 上海市衡山路12号"},{"poiid":"B2094757D76CA3F8479C","title":"马尔廷吧 The Melting Pot","lon":"121.44721","lat":"31.20561","category":"260","category_name":"其他","address":"徐汇区衡山路4号领馆广场内(近乌鲁木齐南路)"},{"poiid":"B2094654DA6DA7F94799","title":"思丹复商务酒店","lon":"121.44805","lat":"31.20736","category":"214","category_name":"四星级宾馆","address":"徐汇区乌鲁木齐南路16号(近衡山路)"},{"poiid":"B2094757D069A5FA429E","title":"CD","lon":"121.448253","lat":"31.207021","category":"260","category_name":"其他","address":"徐汇区衡山路4号领馆广场内"},{"poiid":"B2094751D26CABFE4598","title":"益力保健按摩（长乐店）","lon":"121.447158","lat":"31.205198","category":"248","category_name":"生活娱乐","address":"静安区富民路291号悟锦世纪大厦2楼(近长乐路)"},{"poiid":"B2094655D26EA4FB469C","title":"多利川菜馆(衡山店)","lon":"121.44806","lat":"31.20725","category":"71","category_name":"四川菜","address":"徐汇区乌鲁木齐南路16号"},{"poiid":"B2094752D164A1F5459F","title":"上海图书馆","lon":"121.447642","lat":"31.207512","category":"500","category_name":"未知分类","address":null},{"poiid":"B2094757D16FA4F9419E","title":"中智会议中心","lon":"121.44566425","lat":"31.206996876","category":"500","category_name":"未知分类","address":"上海淮海中路"},{"poiid":"B2094757D168A7FA499C","title":"藤木公馆","lon":"121.447355086","lat":"31.2055570485","category":"500","category_name":"未知分类","address":"上海乌鲁木齐南路衡山路"},{"poiid":"B2094654DB65A1FD4999","title":"衡山路41号公寓","lon":"121.44866","lat":"31.20699","category":"47","category_name":"住宅区","address":"衡山路41号"},{"poiid":"B2094757D569A2FB4398","title":"Old Times","lon":"121.4474731","lat":"31.20563056","category":"260","category_name":"其他","address":"徐汇区衡山路85号(近乌鲁木齐南路)"},{"poiid":"B2094654DB6AA7FA4798","title":"中国船舶重工集团公司第七零四研究所","lon":"121.44678","lat":"31.20541","category":"191","category_name":"科研机构","address":"衡山路10"},{"poiid":"B2094757D065ABFF4893","title":"Truelove club","lon":"121.448225586","lat":"31.2060309578","category":"500","category_name":"未知分类","address":"上海市徐汇区衡山路欧登保龄球二楼"},{"poiid":"B2094753D76EA0F4419B","title":"藏酒轩","lon":"121.448013","lat":"31.207105","category":"500","category_name":"未知分类","address":"上海市 乌鲁木齐南路55号"},{"poiid":"B2094757D169A3FF469F","title":"环球资源上海分公司","lon":"121.44731908","lat":"31.205548848","category":"263","category_name":"公司","address":"上海延安东路618号东海商业中心(二期)11楼"},{"poiid":"B2094757D169A6F54192","title":"ARTDECO","lon":"121.447943586","lat":"31.2068337735","category":"500","category_name":"未知分类","address":"上海永嘉路590号"},{"poiid":"B2094757D66CA2FE459C","title":"大树夏艺术花园","lon":"121.446695586","lat":"31.2077009904","category":"500","category_name":"未知分类","address":"徐汇区淮海中路1487弄51号1楼(近上海图书馆)"},{"poiid":"B2094757D16CA3F94698","title":"Qube","lon":"121.44694035","lat":"31.20512401","category":"260","category_name":"其他","address":"徐汇区衡山路191号(近高安路)"},{"poiid":"B2094752D26DA5FA429E","title":"鲔本家","lon":"121.44661","lat":"31.20461","category":"95","category_name":"日本料理","address":"徐汇区衡山路237号(近衡山路地铁站)"},{"poiid":"B2094757D66DA7F54898","title":"诗碧阁","lon":"121.444984586","lat":"31.2065889687","category":"500","category_name":"未知分类","address":"上海思南公馆"},{"poiid":"B2094750D565A1FC489A","title":"秘境咖啡社","lon":"121.446777","lat":"31.20499","category":"500","category_name":"未知分类","address":"衡山路235号"},{"poiid":"B2094757D66DAAF9499B","title":"Film Office","lon":"121.448040586","lat":"31.2060119574","category":"500","category_name":"未知分类","address":null},{"poiid":"B2094655D26FAAF5469B","title":"天平2号小区(高安路)","lon":"121.44468","lat":"31.20649","category":"47","category_name":"住宅区","address":"高安路1弄1-11号"},{"poiid":"B2094654DA6DA7F9479F","title":"徐汇区第一少年业余体育学校","lon":"121.44853","lat":"31.20572","category":"253","category_name":"校园生活","address":"乌鲁木齐南路64-3"},{"poiid":"B2094654DA6DA7FB409F","title":"天平路派出所值勤室","lon":"121.44671","lat":"31.20534","category":"248","category_name":"生活娱乐","address":""},{"poiid":"B2094654DB69A6FD469C","title":"外高桥徐汇俱乐部游泳馆","lon":"121.44862","lat":"31.20535","category":"231","category_name":"游泳馆","address":"徐汇区乌鲁木齐南路72号"},{"poiid":"B2094757D16AA4FE479A","title":"FOOTMARK","lon":"121.44668495","lat":"31.204998187","category":"500","category_name":"未知分类","address":"上海地铁一号线徐家汇站上层"},{"poiid":"B2094654DA6DA7F9459B","title":"高安大酒店","lon":"121.4468","lat":"31.2047","category":"250","category_name":"公园户外","address":"衡山路237"},{"poiid":"B2094655D268A2FA449D","title":"SBS191","lon":"121.44709","lat":"31.2051","category":"260","category_name":"其他","address":"徐汇区衡山路191号(近高安路)"},{"poiid":"B2094757D66EABFD479B","title":"北孔家弄33弄","lon":"121.448160586","lat":"31.206807973","category":"500","category_name":"未知分类","address":null},{"poiid":"B2094757D06AAAF4439D","title":"新华通讯社上海分社","lon":"121.44595336","lat":"31.204044342","category":"500","category_name":"未知分类","address":"上海衡山路62号"},{"poiid":"B2094757D66CA4F94592","title":"百度酒吧","lon":"121.44714","lat":"31.20518","category":"260","category_name":"其他","address":"徐汇区衡山路4号领馆广场甲1楼(近乌鲁木齐南路)"},{"poiid":"B2094753D26EA6F9489D","title":"季风书店","lon":"121.447899","lat":"31.20743","category":"249","category_name":"购物服务","address":"上海市 乌鲁木齐南路／淮海中路 近上海图书馆"},{"poiid":"B209475CD165A2F84599","title":"上海虹桥机场到达大厅","lon":"121.446655","lat":"31.208089","category":"500","category_name":"未知分类","address":"上海市 上海虹桥机场"},{"poiid":"B2094757D06FA5FF469D","title":"上行线(衡山路店)","lon":"121.44651133","lat":"31.204675698","category":"125","category_name":"书店","address":"上海徐汇区地铁一号线衡山路站"},{"poiid":"B2094757D068A2FA439A","title":"Angel","lon":"121.44844158","lat":"31.207469985","category":"172","category_name":"酒吧","address":"普陀区东新路347号新西宫3A09铺(近武宁路)"},{"poiid":"B2094655D265A1FF4393","title":"M-FACTORY","lon":"121.44811","lat":"31.20805","category":"247","category_name":"餐饮美食","address":"乌鲁木齐南路1号"},{"poiid":"B2094752D16DA2FA419A","title":"大蒜土耳其餐厅garlic","lon":"121.445577","lat":"31.208273","category":"247","category_name":"餐饮美食","address":"永嘉路698号"},{"poiid":"B2094655D269ABFF439B","title":"MAX巨库","lon":"121.44799","lat":"31.20735","category":"260","category_name":"其他","address":"徐汇区乌鲁木齐南路16号(衡山路口)"},{"poiid":"B2094654DB6BA5F44693","title":"永嘉花园北门(衡山路)","lon":"121.44879","lat":"31.20741","category":"47","category_name":"住宅区","address":"衡山路17弄"},{"poiid":"B2094752D16BA3F5469E","title":"上海国际礼拜堂","lon":"121.444733","lat":"31.205726","category":"500","category_name":"未知分类","address":null},{"poiid":"B209475CD66DA2FE429D","title":"品川（桃江路店）","lon":"121.448303","lat":"31.208179","category":"247","category_name":"餐饮美食","address":"上海市 徐汇区桃江路47号"},{"poiid":"B2094757D66CA3FD4698","title":"中共上海市委组织部","lon":"121.44475558","lat":"31.204808933","category":"500","category_name":"未知分类","address":"上海市徐汇区高安路19号"},{"poiid":"B2094655D268A2FA459A","title":"衡山路58弄小区(南门)","lon":"121.44604","lat":"31.20434","category":"47","category_name":"住宅区","address":"衡山路58弄1-3号"},{"poiid":"B2094757D16EA5F84792","title":"塘桥悦风寿司","lon":"121.445377253","lat":"31.2045167282","category":"247","category_name":"餐饮美食","address":"上海塘桥地铁四号线地铁商场A03号"},{"poiid":"B2094757D065A0FB489F","title":"徐汇区青少年活动中心(高安分中心)","lon":"121.44450158","lat":"31.206793972","category":"500","category_name":"未知分类","address":"上海市徐汇区高安路18弄"},{"poiid":"B2094757D568A5F4419B","title":"中国电信上海衡山路营业厅","lon":"121.445928","lat":"31.20424588","category":"151","category_name":"电讯营业厅","address":"衡山路60号"},{"poiid":"B2094655D26AA5F9459F","title":"欧洲名品中心","lon":"121.44824","lat":"31.20453","category":"247","category_name":"餐饮美食","address":"徐汇区永嘉路632号(近衡山路)"},{"poiid":"B2094655D268A6FB439A","title":"衡山路259号小区","lon":"121.44639","lat":"31.20395","category":"47","category_name":"住宅区","address":""},{"poiid":"B2094655D268A2FA459B","title":"衡山路58弄小区","lon":"121.44576","lat":"31.2043","category":"47","category_name":"住宅区","address":"衡山路58弄1-3号"},{"poiid":"B2094655D26FABFC4692","title":"衡山路259号小区(北门)","lon":"121.44625","lat":"31.20412","category":"47","category_name":"住宅区","address":""},{"poiid":"B2094757D16DA2FC4399","title":"noah cafe","lon":"121.44414758","lat":"31.206275962","category":"500","category_name":"未知分类","address":"上海市徐汇区高安路3号"},{"poiid":"B2094757D569A0FE429F","title":"V·V Loutique","lon":"121.448806","lat":"31.207538","category":"141","category_name":"服装鞋帽皮具店","address":"衡山路27号"},{"poiid":"B2094757D16FA6F5499A","title":"快乐计划DIY","lon":"121.44858958","lat":"31.205297943","category":"500","category_name":"未知分类","address":"上海市杨浦区控江路1500弄77号"},{"poiid":"B2094757D568ABF5469D","title":"泉服装店","lon":"121.44626818","lat":"31.20402262","category":"141","category_name":"服装鞋帽皮具店","address":"衡山路261"},{"poiid":"B2094757D165A6FC4193","title":"frangipani","lon":"121.44798278","lat":"31.208349227","category":"500","category_name":"未知分类","address":"上海复兴西路76号"},{"poiid":"B2094655D26FAAFE409B","title":"衡山路41号公寓(西门)","lon":"121.44856","lat":"31.20656","category":"656","category_name":"大门","address":"衡山路41号"},{"poiid":"B2094655D26FAAFE489E","title":"衡山路41号公寓(西一门)","lon":"121.44866","lat":"31.20613","category":"656","category_name":"大门","address":"衡山路41号"},{"poiid":"B2094655D26FAAFE409A","title":"衡山路41号公寓(北门)","lon":"121.44878","lat":"31.20728","category":"656","category_name":"大门","address":"衡山路41号"}]