[{"poiid":"B2094655D26DA5FF489D","title":"华东理工大学","lon":"121.425","lat":"31.14313","category":"671","category_name":"高校中心点","address":"徐汇区梅陇路130号"},{"poiid":"B2094655D269ABFC419D","title":"华东理工大学徐汇校区","lon":"121.42857","lat":"31.14331","category":"247","category_name":"餐饮美食","address":"徐汇区梅陇路130号华东理工大学内(近天等路)"},{"poiid":"B2094757D06FA2F44192","title":"华东理工大学七教","lon":"121.42448527","lat":"31.141593448","category":"253","category_name":"校园生活","address":"上海徐汇区梅陇路130号"},{"poiid":"B2094654DA65AAFC449A","title":"嘉登道大饭店","lon":"121.42839","lat":"31.14289","category":"213","category_name":"五星级宾馆","address":"老沪闵路689号嘉登道大饭店1楼、3楼、4楼近梅陇路西南角"},{"poiid":"B2094757D06FAAF84398","title":"华东理工大学图书馆","lon":"121.42208612","lat":"31.142591023","category":"253","category_name":"校园生活","address":"徐汇区梅陇路130号华东理工大学内(近天等路)"},{"poiid":"B2094757D06FA7FF449C","title":"九头鸟烧烤","lon":"121.42878","lat":"31.14408","category":"68","category_name":"快餐厅","address":"徐汇区老沪闵路712号对面(近华东理工大学)"},{"poiid":"B2094757D068A5F84998","title":"上海市卫生学校","lon":"121.427007","lat":"31.140889","category":"55","category_name":"中学","address":"上海徐汇区梅陇路21号"},{"poiid":"B2094654DA65ABF44893","title":"上海市经济管理干部学院","lon":"121.42602","lat":"31.14","category":"671","category_name":"高校中心点","address":"徐汇区梅陇路161号(近天等路)"},{"poiid":"B2094757D06FA7FA489D","title":"上海职工医学院","lon":"121.42727","lat":"31.14061","category":"671","category_name":"高校中心点","address":"上海徐汇区梅陇路21号(近天等路)  "},{"poiid":"B2094757D068ABF4459B","title":"华东理工大学大操场","lon":"121.424847","lat":"31.143529","category":"253","category_name":"校园生活","address":"上海徐汇区梅陇路130号华东理工大学内"},{"poiid":"B2094757D069A0FF459A","title":"华东理工大学研究生楼","lon":"121.42620086","lat":"31.141109466","category":"500","category_name":"未知分类","address":"上海徐汇区梅陇路130号华东理工大学徐汇校区"},{"poiid":"B2094757D069A5F4409C","title":"上海健康职业技术学院","lon":"121.42435945","lat":"31.139170946","category":"253","category_name":"校园生活","address":"徐汇区梅陇路21号(近天等路)"},{"poiid":"B2094757D06FA5FA409D","title":"华东理工大学四教","lon":"121.42423009","lat":"31.142512028","category":"253","category_name":"校园生活","address":"上海徐汇区梅陇路130号"},{"poiid":"B2094757D068A3FB4793","title":"华东理工大学八教","lon":"121.426987","lat":"31.142914","category":"253","category_name":"校园生活","address":"上海徐汇区梅陇路130号"},{"poiid":"B2094654DB64A2FB4892","title":"上海体育职业学院西部校区","lon":"121.42909","lat":"31.14099","category":"52","category_name":"高等院校","address":"徐汇区老沪闵路775"},{"poiid":"B2094757D06AA1FD469C","title":"市国资委党校","lon":"121.42493438","lat":"31.140525817","category":"500","category_name":"未知分类","address":"上海徐汇区天等路501号"},{"poiid":"B2094757D068AAF94293","title":"华东理工大学五教","lon":"121.425336","lat":"31.140846","category":"253","category_name":"校园生活","address":"上海徐汇区梅陇路130号"},{"poiid":"B2094757D169A6F44198","title":"百乐迪量贩KTV","lon":"121.425118857","lat":"31.1414194918","category":"170","category_name":"KTV","address":"徐汇区龙州路995号华轻轻纺市场4楼(近梅陇路)"},{"poiid":"B2094757D069A2F54898","title":"音乐之声大酒店(梅陇路店)","lon":"121.42882","lat":"31.14306","category":"76","category_name":"上海菜","address":"徐汇区老沪闵路689号嘉登道2楼(近梅陇路)"},{"poiid":"B2094757D069A3F94398","title":"华东理工大学六教","lon":"121.42585661","lat":"31.142796184","category":"253","category_name":"校园生活","address":"上海徐汇区梅陇路130号"},{"poiid":"B2094757D06AA5F5449B","title":"梅陇六村","lon":"121.42579480056","lat":"31.139487689707","category":"252","category_name":"楼宇机构","address":"上海上中西路凌云路"},{"poiid":"B2094757D068A0FB4493","title":"华东理工大学第三食堂","lon":"121.422156618","lat":"31.1459460993","category":"253","category_name":"校园生活","address":"徐汇区梅陇路130号华东理工大学内(近天等路)"},{"poiid":"B2094757D16FA1FB499A","title":"华东理工大学大草坪","lon":"121.424604447","lat":"31.1439000415","category":"500","category_name":"未知分类","address":"上海市徐汇区梅陇路130号"},{"poiid":"B2094757D568ABFC4093","title":"华东理工大学商学院MBA教育中心","lon":"121.423591","lat":"31.143171","category":"52","category_name":"高等院校","address":"中国上海市徐汇区"},{"poiid":"B2094655D265A2FF4193","title":"华东理工大学外国语学院","lon":"121.42576","lat":"31.14301","category":"52","category_name":"高等院校","address":""},{"poiid":"B2094655D264ABFB409D","title":"华东理工大学商学院","lon":"121.42257","lat":"31.14301","category":"52","category_name":"高等院校","address":"上海市徐汇区梅陇路130号"},{"poiid":"B2094655D36CA3F5449C","title":"如家快捷酒店","lon":"121.42963","lat":"31.14365","category":"216","category_name":"经济型连锁酒店","address":"徐汇区老沪闵路714号(近梅陇路)"},{"poiid":"B2094757D664AAFB4393","title":"华东理工教工食堂","lon":"121.42533","lat":"31.14084","category":"68","category_name":"快餐厅","address":"徐汇区梅陇路130号华东理工大学西门(近天等路)"},{"poiid":"B2094655D26BA2F9419F","title":"天等路华东理工大学","lon":"121.42597","lat":"31.14047","category":"38","category_name":"公交车站","address":""},{"poiid":"B2094751DA6AA4F4479A","title":"顺风大酒店","lon":"121.425076","lat":"31.144158","category":"247","category_name":"餐饮美食","address":"瑞金二路打浦路"},{"poiid":"B2094757D064A7F94899","title":"重庆鸡公煲 梅陇路店","lon":"121.421974054","lat":"31.139343793","category":"247","category_name":"餐饮美食","address":"徐汇区梅陇路257号华东理工大学附近(近凌云路)"},{"poiid":"B2094752D46FA1F4489B","title":"上海植物园","lon":"121.425077","lat":"31.144158","category":"250","category_name":"公园户外","address":"龙吴路"},{"poiid":"B2094655D264A0FF4798","title":"华东理工大学理工优秀生部","lon":"121.42448","lat":"31.14262","category":"52","category_name":"高等院校","address":""},{"poiid":"B2094757D16AAAFB429C","title":"华东理工大学健身房","lon":"121.421625","lat":"31.142972","category":"148","category_name":"美容美发店","address":"上海徐汇校区大操场旁"},{"poiid":"B2094655D264ABF5409E","title":"华东理工大学数学系","lon":"121.42403","lat":"31.14385","category":"52","category_name":"高等院校","address":""},{"poiid":"B2094655D264AAFD429C","title":"华东理工大学物理系","lon":"121.42403","lat":"31.14386","category":"52","category_name":"高等院校","address":""},{"poiid":"B2094757D168A5FA459D","title":"吉龙豆捞","lon":"121.42448","lat":"31.13532","category":"86","category_name":"火锅店","address":"徐汇区龙州路925号(梅陇七村对面)"},{"poiid":"B2094757D568ABFE429F","title":"华东理工大学信息科学与工程学院","lon":"121.427268","lat":"31.143457","category":"52","category_name":"高等院校","address":"中国上海市徐汇区"},{"poiid":"B2094655D265A0FB4798","title":"华东理工大学数学实验教学中心","lon":"121.4269","lat":"31.14289","category":"52","category_name":"高等院校","address":""},{"poiid":"B2094655D268A2F84092","title":"上海市经济管理干部学院(东门)","lon":"121.4261","lat":"31.14001","category":"52","category_name":"高等院校","address":"天等路501号"},{"poiid":"B2094655D264ABF54293","title":"鲁华生态园","lon":"121.42709","lat":"31.14387","category":"196","category_name":"公园","address":""},{"poiid":"B2094654DB69A0F44398","title":"华东理工大学材料科学与工程学院","lon":"121.42485","lat":"31.14116","category":"52","category_name":"高等院校","address":""},{"poiid":"B2094655D264ABF5429F","title":"华东理工大学资源与环境专业实验教学中心","lon":"121.42497","lat":"31.14507","category":"52","category_name":"高等院校","address":""},{"poiid":"B2094751D26DA7F44899","title":"华东理工大学实验八楼","lon":"121.424568","lat":"31.143911","category":"500","category_name":"未知分类","address":null},{"poiid":"B2094655D265AAF9459E","title":"华东理工大学发酵工程实验教学中心","lon":"121.42497","lat":"31.14507","category":"52","category_name":"高等院校","address":""},{"poiid":"B2094757D464AAF4499D","title":"新疆雪莲花餐厅","lon":"121.428941054","lat":"31.142851793","category":"90","category_name":"清真餐馆","address":"徐汇区老沪闵路748号(梅陇路口)"},{"poiid":"B2094655D264A1FA4098","title":"华东理工大学化学与分子工程学院","lon":"121.42345","lat":"31.14424","category":"52","category_name":"高等院校","address":""},{"poiid":"B2094655D26BA6F94399","title":"华东理工大学化学实验教学中心","lon":"121.42345","lat":"31.14424","category":"52","category_name":"高等院校","address":""},{"poiid":"B2094655D26AA6FB429C","title":"晨园","lon":"121.425241054","lat":"31.142398793","category":"76","category_name":"上海菜","address":"徐汇区梅陇路130号华东理工大学内(近天等路)"},{"poiid":"B209475CD165ABFA479C","title":"东方明珠","lon":"121.427108","lat":"31.143968","category":"500","category_name":"未知分类","address":"上海市 陆家嘴"},{"poiid":"B2094757D168AAFB4499","title":"华东理工大学 校医院","lon":"121.425788","lat":"31.141424","category":"162","category_name":"医院","address":"徐汇区梅陇路130号华东理工大学内"},{"poiid":"B2094757D66FA2F54898","title":"梅龙平价小海鲜店","lon":"121.42473585","lat":"31.144212247","category":"500","category_name":"未知分类","address":"上海市徐汇区320 National Rd"},{"poiid":"B2094654DA65ABF5489C","title":"游子老鸭粉丝 天等路店","lon":"121.426038","lat":"31.140721","category":"68","category_name":"快餐厅","address":"徐汇区天等路482号(华东理工大学正门对面)"},{"poiid":"B2094757D16EA5F9489F","title":"华东理工大学二舍王曦寝室","lon":"121.42606371","lat":"31.143870519","category":"500","category_name":"未知分类","address":null},{"poiid":"B2094655D26AA6F5409D","title":"华理正门口的麻辣烫","lon":"121.42622","lat":"31.1405","category":"68","category_name":"快餐厅","address":"徐汇区梅陇路130号华东理工大学对面(近天等路)"},{"poiid":"B2094752D46AA2F8479D","title":"中国农业银行凌云路支行","lon":"121.424165","lat":"31.144104","category":"150","category_name":"银行","address":"上海市徐汇区梅陇路300号"},{"poiid":"B2094750D26CA1F5439D","title":"中国邮政学院","lon":"121.4240969790441","lat":"31.14266865729536","category":"253","category_name":"校园生活","address":"老沪闵路777号"},{"poiid":"B2094655D264AAF84899","title":"华东理工大学国家大学科技园","lon":"121.42814","lat":"31.14552","category":"45","category_name":"产业园区","address":""},{"poiid":"B2094757D069A6F8439A","title":"coco都可茶饮(锦江乐园店)","lon":"121.42376891","lat":"31.144187647","category":"500","category_name":"未知分类","address":"上海1号线锦江乐园站旁边"},{"poiid":"B2094757D065A3F94898","title":"华东理工大学网球场","lon":"121.42306","lat":"31.13967","category":"500","category_name":"未知分类","address":"徐汇区梅陇路130号华东理工大学内(近天等路)"},{"poiid":"B2094757D065A1FA4692","title":"华东理工华林餐厅","lon":"121.42533","lat":"31.14084","category":"68","category_name":"快餐厅","address":"徐汇区梅陇路130号华东理工大学内(近天等路)"},{"poiid":"B2094757D068A4FD419A","title":"全家便利(梅陇店)","lon":"121.42665","lat":"31.14069","category":"117","category_name":"便民商店/便利店","address":"上海徐汇区梅陇路97号(近天等路)"},{"poiid":"B2094654DA65AAFC4693","title":"华东理工大学(南门)","lon":"121.42565","lat":"31.14117","category":"656","category_name":"大门","address":"徐汇区梅陇路130"},{"poiid":"B2094654DA65ABF4499A","title":"上海应用技术学院梅陇校区","lon":"121.42514","lat":"31.14013","category":"52","category_name":"高等院校","address":"徐汇区梅陇路161号(近天等路)"},{"poiid":"B2094757D06AA3FB429B","title":"沪闵路莲花路","lon":"121.426200867","lat":"31.1411094666","category":"500","category_name":"未知分类","address":"上海沪闵路"},{"poiid":"B2094757D06AA6FC459A","title":"华东理工大学八角亭","lon":"121.422180349","lat":"31.1411939693","category":"260","category_name":"其他","address":"上海华东理工大学内(徐汇区梅陇路130号)"},{"poiid":"B2094654DA65ABF54893","title":"世好吉祥馄饨天等店","lon":"121.42628","lat":"31.14012","category":"68","category_name":"快餐厅","address":"徐汇区天等路150号23室(近梅陇路)"},{"poiid":"B2094654DB64A1FC4693","title":"体育花苑","lon":"121.42974","lat":"31.142881","category":"47","category_name":"住宅区","address":"上海百色路老沪闵路728弄1-52号"},{"poiid":"B2094654DB64A2FB469E","title":"上海新侨学院(天等路)","lon":"121.42682","lat":"31.13916","category":"68","category_name":"快餐厅","address":"徐汇区天等路465号(近梅陇路)"},{"poiid":"B2094752D465A5FB429A","title":"上海市浦东新区","lon":"121.423364","lat":"31.142634","category":"500","category_name":"未知分类","address":null},{"poiid":"B2094655D265A1F4439B","title":"华东理工大学第二学生食堂","lon":"121.42208","lat":"31.14438","category":"257","category_name":"中餐厅","address":""},{"poiid":"B2094655D265A2F4449D","title":"重庆鸡公煲 老沪闵路店","lon":"121.429107054","lat":"31.146973793","category":"247","category_name":"餐饮美食","address":"徐汇区老沪闵路744号(近百色路)"},{"poiid":"B2094654DA65AAFC4799","title":"华东理工大学公共管理硕士(MPA)教育中心","lon":"121.42486","lat":"31.14083","category":"52","category_name":"高等院校","address":"梅陇路138"},{"poiid":"B2094757D065ABFE479A","title":"华东理工大学三教","lon":"121.42303576","lat":"31.143036109","category":"253","category_name":"校园生活","address":"上海徐汇区梅陇路130号"},{"poiid":"B2094655D26FA4F4469E","title":"上海职工医学院(北门)","lon":"121.4269","lat":"31.14108","category":"52","category_name":"高等院校","address":"梅陇路21"},{"poiid":"B2094655D26EABFB4698","title":"华东理工大学体育馆","lon":"121.42857","lat":"31.14331","category":"224","category_name":"综合体育馆","address":"徐汇区梅陇路130号理工大学内"},{"poiid":"B2094757D16FABF44993","title":"华东理工大学徐汇校区21舍","lon":"121.425744939","lat":"31.1469531584","category":"500","category_name":"未知分类","address":"上海徐汇区梅陇路130号华东理工大学徐汇校区"},{"poiid":"B2094757D16FA5FB4593","title":"华东理工大学男浴室","lon":"121.425399","lat":"31.141497","category":"500","category_name":"未知分类","address":"上海徐汇区梅陇路130号华东理工大学内(一食堂旁)"},{"poiid":"B2094654DB64AAF4459B","title":"好德便利No.709","lon":"121.42604","lat":"31.14075","category":"117","category_name":"便民商店/便利店","address":"天等路498识别"},{"poiid":"B2094655D26FABFB459F","title":"上海应用技术学院梅陇校区(北门)","lon":"121.42517","lat":"31.14064","category":"52","category_name":"高等院校","address":"梅陇路161"},{"poiid":"B2094655D26BA7FA4998","title":"华东理工大学国有资产办公室","lon":"121.42831","lat":"31.14343","category":"52","category_name":"高等院校","address":""},{"poiid":"B2094655D36CA1F44498","title":"老沪闵路(华东理工大学)","lon":"121.42916","lat":"31.14256","category":"38","category_name":"公交车站","address":""},{"poiid":"B2094757D165A5FE4992","title":"华东理工大学19舍","lon":"121.425747116","lat":"31.1410414118","category":"500","category_name":"未知分类","address":"上海徐汇区梅陇路130号华东理工大学徐汇校区"},{"poiid":"B2094654DA65AAFC479D","title":"华东理工大学网络教育学院","lon":"121.42413","lat":"31.14062","category":"671","category_name":"高校中心点","address":"徐汇区梅陇路166号(近嘉川路)"},{"poiid":"B2094757D168A3F9499D","title":"华东理工大学八舍","lon":"121.423198798","lat":"31.1457553742","category":"500","category_name":"未知分类","address":"上海梅陇路130号"},{"poiid":"B2094654DA65AAFC439F","title":"上海中医药大学教学分部(梅陇路)","lon":"121.427","lat":"31.14089","category":"52","category_name":"高等院校","address":"徐汇区梅陇路21"},{"poiid":"B2094655D26FA1F84093","title":"逸品铭流","lon":"121.42481","lat":"31.14049","category":"66","category_name":"茶艺馆","address":"梅陇路161"},{"poiid":"B2094757D169A1FC479C","title":"华东理工大学实验十楼","lon":"121.426690986","lat":"31.1451587926","category":"500","category_name":"未知分类","address":"上海市徐汇区老沪闵路"},{"poiid":"B2094655D26FAAFB4092","title":"梅陇路3号小区(北门)","lon":"121.42737","lat":"31.14129","category":"47","category_name":"住宅区","address":"梅陇路3"},{"poiid":"B2094655D265A6FF4799","title":"光明便利","lon":"121.42475","lat":"31.14048","category":"117","category_name":"便民商店/便利店","address":"徐汇区梅陇路161号"},{"poiid":"B2094753D36FABFD4698","title":"TAMATI","lon":"121.424369","lat":"31.145587","category":"500","category_name":"未知分类","address":"上海市 沪闵路7388号南方商城1楼"},{"poiid":"B2094757D66AA0FF4198","title":"老根东北菜","lon":"121.425765054","lat":"31.140305793","category":"82","category_name":"东北菜","address":"徐汇区天等路476号(近罗秀路)"},{"poiid":"B2094757D568A4FE4798","title":"华东理工大学居住形态与城市文化研究所","lon":"121.426895","lat":"31.142894","category":"191","category_name":"科研机构","address":"中国上海市徐汇区"},{"poiid":"B2094655D26AA1F4469A","title":"柯达冲印店华东理工店","lon":"121.42857","lat":"31.14331","category":"247","category_name":"餐饮美食","address":"徐汇区梅陇路130号华东理工大学内(近天等路)"},{"poiid":"B2094655D264A1FA4099","title":"华东理工大学分析测试中心","lon":"121.42436","lat":"31.1445","category":"191","category_name":"科研机构","address":""},{"poiid":"B2094654DA65AAFC479E","title":"华东理工大学继续教育学院(梅陇路)","lon":"121.42486","lat":"31.14083","category":"53","category_name":"成人教育","address":"梅陇路138"},{"poiid":"B2094654DB65A3F4479C","title":"华东理工大学华理苑一四村","lon":"121.42194","lat":"31.14085","category":"47","category_name":"住宅区","address":"梅陇路130号"},{"poiid":"B2094655D268A0FE449E","title":"协合紫薇园","lon":"121.42946","lat":"31.14489","category":"47","category_name":"住宅区","address":"徐汇区老沪闵路700号"},{"poiid":"B2094655D26BA4FF4798","title":"华东理工大学超细粉末国家工程研究中心","lon":"121.42715","lat":"31.14344","category":"191","category_name":"科研机构","address":""},{"poiid":"B2094757D06AA3F4439C","title":"华东理工大学14舍","lon":"121.42232985","lat":"31.145487273","category":"500","category_name":"未知分类","address":"上海徐汇区梅陇路130号华东理工大学徐汇校区"},{"poiid":"B2094654DA65AAFC449D","title":"华东理工大学科技产业大楼","lon":"121.4281","lat":"31.14549","category":"46","category_name":"楼宇","address":"上海徐汇区梅陇路130号华东理工大学徐汇校区"},{"poiid":"B2094757D16BA5FC479F","title":"豪大大香鸡排(老沪闵路店)","lon":"121.42913005","lat":"31.143145126","category":"247","category_name":"餐饮美食","address":"上海老沪闵路789号(近百色路)"},{"poiid":"B2094655D26FAAFB409D","title":"梅陇路3号小区","lon":"121.42747","lat":"31.14109","category":"47","category_name":"住宅区","address":"梅陇路3"},{"poiid":"B2094757D168A0FD4893","title":"华东理工大学三舍","lon":"121.424509857","lat":"31.1460582847","category":"253","category_name":"校园生活","address":"上海徐汇区梅陇路130号"},{"poiid":"B2094757D16BA3F54192","title":"中环顾戴路","lon":"121.42345685","lat":"31.144721257","category":"500","category_name":"未知分类","address":"上海市徐汇区320 National Rd"},{"poiid":"B2094654DB6CA1F4469A","title":"冠军大楼","lon":"121.42957","lat":"31.14233","category":"46","category_name":"楼宇","address":"百色路1398"},{"poiid":"B2094757D469A0FE4098","title":"郁金香中餐厅","lon":"121.426338054","lat":"31.139419793","category":"76","category_name":"上海菜","address":"徐汇区天等路469号尚苑宾馆2楼(近梅陇路)"},{"poiid":"B2094655D26FAAFB409C","title":"上海商务科技园区","lon":"121.42824","lat":"31.14125","category":"45","category_name":"产业园区","address":"梅陇路1"},{"poiid":"B2094655D36CA1F4429B","title":"老泸闵路梅陇路","lon":"121.42923","lat":"31.14239","category":"38","category_name":"公交车站","address":""},{"poiid":"B2094753D769A1FA419E","title":"星巴克上海南站店","lon":"121.42852","lat":"31.14261","category":"500","category_name":"未知分类","address":"上海市 上海南站地下广场"},{"poiid":"B2094757D064AAF44593","title":"邮政局梅陇支局","lon":"121.425042","lat":"31.140831","category":"500","category_name":"未知分类","address":"上海徐汇区梅陇路132号"},{"poiid":"B2094655D26AA2F9469F","title":"仙霞栗子","lon":"121.42252","lat":"31.13995","category":"68","category_name":"快餐厅","address":"徐汇区梅陇路200号水果批发市场内(龙州路梅陇路)"},{"poiid":"B2094751DA6BA5FC419C","title":"光启城时尚购物中心","lon":"121.425765","lat":"31.147734","category":"500","category_name":"未知分类","address":"中山西路宜山路"},{"poiid":"B2094757D06AA1FA449C","title":"全家便利(老沪闵店)","lon":"121.42929","lat":"31.14319","category":"117","category_name":"便民商店/便利店","address":"上海徐汇区老沪闵路714号"},{"poiid":"B2094757D16CA0F84092","title":"华东理工大学七舍323","lon":"121.4252406","lat":"31.1408323","category":"500","category_name":"未知分类","address":null},{"poiid":"B2094750D56DA0FC4793","title":"华东理工大学大礼堂","lon":"121.423393","lat":"31.145109","category":"248","category_name":"生活娱乐","address":null},{"poiid":"B2094757D064A3FE479C","title":"梅陇七村","lon":"121.4236","lat":"31.139256","category":"252","category_name":"楼宇机构","address":"上海徐汇区龙州路"},{"poiid":"B2094757D16CA4FE4092","title":"华东理工大学梅陇校区4舍","lon":"121.424336183","lat":"31.1462741678","category":"500","category_name":"未知分类","address":"上海徐汇区梅陇路130号华东理工大学徐汇校区"},{"poiid":"B2094757D069ABFB4593","title":"华东理工大学五舍","lon":"121.42383985","lat":"31.145724278","category":"500","category_name":"未知分类","address":"上海市徐汇区320 National Rd"},{"poiid":"B2094654DB65A0FF449B","title":"南站阳光小区","lon":"121.42763","lat":"31.146996","category":"47","category_name":"住宅区","address":"老沪闵路605弄1-20号"},{"poiid":"B2094654DB6CA1F4479B","title":"快客No.6653","lon":"121.42947","lat":"31.14257","category":"117","category_name":"便民商店/便利店","address":"老沪闵路742"},{"poiid":"B2094655D264ABF5429E","title":"留学生公寓2","lon":"121.42149","lat":"31.14342","category":"47","category_name":"住宅区","address":""},{"poiid":"B2094751D365A2F94799","title":"徐汇区邮政局","lon":"121.427777","lat":"31.144908","category":"263","category_name":"公司","address":"百色路1218号"},{"poiid":"B2094655D26FAAFE479E","title":"华东理工大学科技产业大楼(东门)","lon":"121.42844","lat":"31.14543","category":"49","category_name":"无中心点楼宇大门","address":"老沪闵路633"},{"poiid":"B2094750D464ABF44392","title":"华东理工大学18舍","lon":"121.425094","lat":"31.146301","category":"253","category_name":"校园生活","address":"上海徐汇区梅陇路130号华东理工大学徐汇校区"},{"poiid":"B2094757D16DA5FF4998","title":"大食代来福士店","lon":"121.422727232","lat":"31.1401228741","category":"247","category_name":"餐饮美食","address":"上海来福士六楼"},{"poiid":"B2094757D064A4FC479A","title":"中国石化加油站","lon":"121.42340185","lat":"31.145581275","category":"154","category_name":"加油加气站","address":"上海虹漕南路777号"},{"poiid":"B2094750D769A3F44298","title":"桃李园","lon":"121.426","lat":"31.1412","category":"260","category_name":"其他","address":"徐汇区梅陇路130号华东理工大学内(近行知路)"},{"poiid":"B2094757D16DA1FE4293","title":"家里舒坦快活中","lon":"121.42428385","lat":"31.139500153","category":"247","category_name":"餐饮美食","address":null},{"poiid":"B2094757D16DA2FA489C","title":"上海轨道交通梅陇基地信号楼","lon":"121.42378345","lat":"31.147411711","category":"36","category_name":"地铁站","address":"上海市徐汇区老沪闵路1号(沪闵路口)"},{"poiid":"B2094757D165A4F54992","title":"上海千达汽车销售修理有限公司","lon":"121.42919921","lat":"31.143375396","category":"500","category_name":"未知分类","address":"上海老沪闵路718号"},{"poiid":"B2094655D264AAFD4492","title":"上海教育超市华东理工店","lon":"121.42138","lat":"31.14171","category":"118","category_name":"超级市场","address":""},{"poiid":"B2094757D16AA2F8409E","title":"粥吧","lon":"121.424528857","lat":"31.1393722507","category":"247","category_name":"餐饮美食","address":"上海徐汇区天等路478号"},{"poiid":"B2094750DB64A2FE499B","title":"华东理工大学20舍","lon":"121.423202","lat":"31.145935","category":"500","category_name":"未知分类","address":"上海徐汇区梅陇路130号华东理工大学徐汇校区"},{"poiid":"B2094655D26FA4F4469A","title":"老沪闵路709弄小区","lon":"121.42911","lat":"31.14127","category":"47","category_name":"住宅区","address":"老沪闵路709弄"},{"poiid":"B2094753D468ABFF4492","title":"城隍庙","lon":"121.429695","lat":"31.142267","category":"500","category_name":"未知分类","address":"上海市 薛弄底街"},{"poiid":"B2094750DA6BA0FB4899","title":"华东理工大学学生宿舍15舍","lon":"121.421913","lat":"31.145402","category":"500","category_name":"未知分类","address":null},{"poiid":"B2094655D26FA4F44698","title":"老沪闵路709弄小区(东门)","lon":"121.42934","lat":"31.14137","category":"47","category_name":"住宅区","address":"老沪闵路709弄"},{"poiid":"B2094655D268A3F5459B","title":"老沪闵路439弄院","lon":"121.42709","lat":"31.14737","category":"47","category_name":"住宅区","address":"老沪闵路439弄"},{"poiid":"B2094757D169A4F5419C","title":"Wolf Park","lon":"121.427615","lat":"31.140461","category":"500","category_name":"未知分类","address":"上海徐汇区凌云街道梅陇五村38号"},{"poiid":"B2094753D564A2FA459B","title":"港汇广场","lon":"121.42649","lat":"31.139133","category":"500","category_name":"未知分类","address":"上海市 虹桥路1号"},{"poiid":"B2094757D16AA1F54898","title":"华东理工大学艺术学院摄影棚","lon":"121.42953785","lat":"31.141751198","category":"500","category_name":"未知分类","address":"上海梅陇路130号"},{"poiid":"B2094757D66DA7F54598","title":"光华园北区","lon":"121.42929925","lat":"31.141384691","category":"500","category_name":"未知分类","address":"上海嘉川路28弄"},{"poiid":"B209475CD165A6F8469F","title":"华东理工大学徐汇校区七舍","lon":"121.422943","lat":"31.146829","category":"500","category_name":"未知分类","address":"上海市 梅陇路130号"},{"poiid":"B2094757D568ABF4469F","title":"景园宾馆","lon":"121.422451","lat":"31.14205","category":"251","category_name":"出行住宿","address":"中国上海市徐汇区"},{"poiid":"B2094757D06BA2F84899","title":"柳州路石龙路","lon":"121.42438846","lat":"31.147375741","category":"500","category_name":"未知分类","address":"上海柳州路石龙路"},{"poiid":"B2094757D165ABF4499F","title":"华东理工邮政所","lon":"121.424015557","lat":"31.1394689527","category":"252","category_name":"楼宇机构","address":"上海徐汇区梅陇路132号"},{"poiid":"B2094757D66EA3F8489F","title":"安桥美发","lon":"121.42273","lat":"31.13966","category":"148","category_name":"美容美发店","address":"徐汇区梅陇路279号(近华东理工大学)"},{"poiid":"B2094757D66CAAF94292","title":"上海健康职业技术学院多媒体教室","lon":"121.424604357","lat":"31.1394076514","category":"500","category_name":"未知分类","address":null},{"poiid":"B2094757D16FA3FB439A","title":"全家便利店","lon":"121.42443185","lat":"31.13937965","category":"500","category_name":"未知分类","address":"广州多家连锁店  "},{"poiid":"B2094757D66EA4FD439B","title":"东方数娱","lon":"121.42906785","lat":"31.145484273","category":"500","category_name":"未知分类","address":"上海市徐汇区石龙路971号"},{"poiid":"B2094655D268A0FE449F","title":"协合紫薇园(西门)","lon":"121.42906","lat":"31.14476","category":"48","category_name":"楼宇大门","address":"老沪闵路680弄"},{"poiid":"B2094655D26FABFA459E","title":"上海新侨学院(东门)","lon":"121.42636","lat":"31.13913","category":"656","category_name":"大门","address":"天等路465"}]