[{"poiid":"B2094757D168A7F5429B","title":"江边城外巫山烤全鱼(南京西路店)","lon":"121.460719078","lat":"31.2302828712","category":"71","category_name":"四川菜","address":"静安区南京西路819号中创大厦5楼(近地铁2号线南京西路站)"},{"poiid":"B2094757DA6EA6F5469B","title":"外婆家(818广场店)","lon":"121.460788249969","lat":"31.230931141954","category":"75","category_name":"浙江菜","address":"静安区南京西路818号818广场701室(近石门一路)"},{"poiid":"B2094757D06EAAF9449E","title":"掌上韩品 吴江路店","lon":"121.4598384","lat":"31.2297555","category":"96","category_name":"韩国料理","address":"静安区吴江路200号(近南京西路)"},{"poiid":"B2094753D76FAAFA449C","title":"上海滩国泰旗舰店","lon":"121.466011","lat":"31.216125","category":"249","category_name":"购物服务","address":"淮海中路868号"},{"poiid":"B209475CD564A7F84292","title":"上海滩新天地店","lon":"121.47463","lat":"31.22164","category":"119","category_name":"商场","address":"\"太仓路181弄新天地北里15号\r\n\""},{"poiid":"B209475CD564A7F8439E","title":"上海滩中信泰富店","lon":"121.45602","lat":"31.22851","category":"119","category_name":"商场","address":"\"南京西路1168号中信泰富广场，店铺号221.\r\n\""},{"poiid":"B2094655D268ABFC4792","title":"吴江路休闲街","lon":"121.46067","lat":"31.22994","category":"116","category_name":"特色商业街","address":"上海吴江路休闲街"},{"poiid":"B2094655D26AAAFE4992","title":"818广场","lon":"121.46094","lat":"31.23094","category":"119","category_name":"商场","address":"静安区南京西路818号(近石门一路)"},{"poiid":"B2094757D06FA1F9489A","title":"藏珑泰厨","lon":"121.46120173","lat":"31.230886314","category":"99","category_name":"泰国／越南菜品餐厅","address":"静安区南京西路818号818广场6楼(近石门一路)"},{"poiid":"B2094750D66CABF94899","title":"幸福131","lon":"121.4608","lat":"31.230554","category":"71","category_name":"四川菜","address":"静安区南京西路819号中创大厦4楼(近吴江路)"},{"poiid":"B2094654DA6CA1F84292","title":"王家沙(南京西路)","lon":"121.46122","lat":"31.23063","category":"257","category_name":"中餐厅","address":"静安区南京西路805号(近石门一路)"},{"poiid":"B2094655D26AAAF8449C","title":"香港狮子山下","lon":"121.46094","lat":"31.23094","category":"72","category_name":"广东菜","address":"静安区南京西路818号818广场5楼(近石门二路)"},{"poiid":"B2094757D465A4FA489B","title":"牛阵日式火锅 四季坊店","lon":"121.46003","lat":"31.22982","category":"95","category_name":"日本料理","address":"静安区吴江路169号四季坊242单元(近石门一路)"},{"poiid":"B2094757D06FA0FB4998","title":"半山小馆","lon":"121.46059521","lat":"31.230252198","category":"91","category_name":"台湾菜","address":"静安区南京西路818号818广场6楼(石门一路口)"},{"poiid":"B2094750DA6BA1F54598","title":"斯利美SLM","lon":"121.45935","lat":"31.229806","category":"112","category_name":"糕饼店","address":"静安区吴江路169号四季坊149单元(近地铁2号线南京西路站)"},{"poiid":"B2094757D06EAAFF4298","title":"南京西路地铁站","lon":"121.459723","lat":"31.229734","category":"36","category_name":"地铁站","address":"上海轨道交通 二号线 轨交南京西路站 2"},{"poiid":"B2094757D06EAAF44799","title":"马莎百货(南京西路店)","lon":"121.46058","lat":"31.23005","category":"119","category_name":"商场","address":"静安区南京西路863号(近石门一路)"},{"poiid":"B2094757DB68A5F5449E","title":"古丽仙西域情餐厅 GULIXIAN RESTAURANT","lon":"121.460917","lat":"31.231043","category":"90","category_name":"清真餐馆","address":"静安区南京西路818号818广场5楼(近石门一路)"},{"poiid":"B2094757D06FA6FC4093","title":"藏珑云海","lon":"121.46067198","lat":"31.230039417","category":"260","category_name":"其他","address":"静安区南京西路818号818广场6楼(石门一路口)"},{"poiid":"B2094757D06AA5FE429E","title":"滋滋星","lon":"121.46021973","lat":"31.229662288","category":"99","category_name":"泰国／越南菜品餐厅","address":"静安区吴江路200号2楼(近南京西路)"},{"poiid":"B2094757D06FAAF94793","title":"乡音书苑","lon":"121.460323154","lat":"31.2307423837","category":"260","category_name":"其他","address":"静安区南京西路860弄1号(近石门一路)"},{"poiid":"B2094757D06FA6FF429B","title":"泰意Lapis Cafe","lon":"121.460911738","lat":"31.2306823097","category":"94","category_name":"西餐厅","address":"静安区南京西路818号818广场6楼(近石门一路)"},{"poiid":"B2094655D26AABFD4592","title":"佰家仟味","lon":"121.46094","lat":"31.23094","category":"260","category_name":"其他","address":"静安区南京西路818号818广场5楼(近石门一路)"},{"poiid":"B2094757D06FA0F9409A","title":"悦蓉香锅牛蛙馆","lon":"121.461138","lat":"31.230666","category":"247","category_name":"餐饮美食","address":"上海南京西路818号(818广场)B1"},{"poiid":"B2094757D469A2F9449D","title":"锅品面吧 吴江路店 Noodle Bar","lon":"121.460099","lat":"31.229882","category":"68","category_name":"快餐厅","address":"静安区吴江路202号(近泰兴路)"},{"poiid":"B2094752D56DAAF9469B","title":"点点心茶餐厅","lon":"121.459487","lat":"31.230247","category":"247","category_name":"餐饮美食","address":"南京西路889号2楼"},{"poiid":"B2094757D065AAFC419E","title":"力士相撲焼肉","lon":"121.459747738","lat":"31.2295532857","category":"500","category_name":"未知分类","address":"上海静安区江宁路四季坊"},{"poiid":"B2094757D065A7F94698","title":"大渔铁板烧","lon":"121.460854738","lat":"31.2307773117","category":"247","category_name":"餐饮美食","address":"上海静安区南京西路818号6楼"},{"poiid":"B2094750DA68A2F54792","title":"LA PASTA 義面屋","lon":"121.460853","lat":"31.230667","category":"247","category_name":"餐饮美食","address":null},{"poiid":"B2094757D46EA5F54798","title":"金必多茶餐厅","lon":"121.4609876","lat":"31.2307105","category":"72","category_name":"广东菜","address":"静安区南京西路819号开欣商厦410室(近石门一路)"},{"poiid":"B2094757D66FA6FA469F","title":"GAP(南京西路店)","lon":"121.46075169","lat":"31.230473985","category":"141","category_name":"服装鞋帽皮具店","address":"静安区南京西路819号中创大厦1-2楼(石门一路口)"},{"poiid":"B2094757D06AA4FB499C","title":"Noz Michio Nozawa Hair Produce","lon":"121.46091669","lat":"31.230796314","category":"500","category_name":"未知分类","address":"上海静安区南京西路832号"},{"poiid":"B2094757D06BA3FA489A","title":"HM","lon":"121.461163338","lat":"31.2305978079","category":"141","category_name":"服装鞋帽皮具店","address":"上海南京西路865号"},{"poiid":"B2094757D06FA6FE489C","title":"北泰电信大楼","lon":"121.459558","lat":"31.231557","category":"500","category_name":"未知分类","address":"上海北京西路819号"},{"poiid":"B2094752D16BA6F94192","title":"许留山（吴江路店）","lon":"121.460549","lat":"31.230808","category":"247","category_name":"餐饮美食","address":"静安区吴江路269号湟普汇商场1楼C单元"},{"poiid":"B2094757D56CABFB409A","title":"芋贵人甜品店 南京西路店","lon":"121.4609876","lat":"31.2307105","category":"67","category_name":"甜品店","address":"静安区南京西路819号开欣商场412室"},{"poiid":"B2094750D565A1FA489A","title":"花の舞","lon":"121.460815","lat":"31.230707","category":"95","category_name":"日本料理","address":"静安区南京西路819号中创大厦5楼(近吴江路)"},{"poiid":"B2094757D06FA2FD4392","title":"卡卡圈坊","lon":"121.46009198","lat":"31.229713623","category":"67","category_name":"甜品店","address":"上海吴江路169号四季坊142单元"},{"poiid":"B2094654DA6CA1F8429B","title":"沈家鱼头王","lon":"121.45962","lat":"31.22982","category":"76","category_name":"上海菜","address":"静安区泰兴路178号瑞泰大酒店2-3楼(近吴江路)"},{"poiid":"B2094757D06FA2FD449E","title":"85度C(吴江路店)","lon":"121.45957964","lat":"31.229537246","category":"112","category_name":"糕饼店","address":"静安区吴江路269号(近茂名北路)"},{"poiid":"B2094655D36CA5F54093","title":"北京西路泰兴路","lon":"121.45873","lat":"31.23168","category":"38","category_name":"公交车站","address":"上海市静安区昌平路"},{"poiid":"B2094750DB68A2F44098","title":"品欢相声会馆","lon":"121.460662","lat":"31.231037","category":"500","category_name":"未知分类","address":"南京西路860号"},{"poiid":"B2094752D26FA4F9489B","title":"点点心 港式茶餐厅","lon":"121.45932","lat":"31.230103","category":"500","category_name":"未知分类","address":null},{"poiid":"B2094757D16CAAF9419C","title":"虹橋國際機場t2航站樓b5-m3-b16","lon":"121.46053223","lat":"31.231014816","category":"500","category_name":"未知分类","address":"上海虹橋國際機場t2航站樓b5-m3-b16"},{"poiid":"B2094757D76DA0F4429F","title":"越旺法式越南菜 PHO 26","lon":"121.460315054","lat":"31.230335793","category":"99","category_name":"泰国／越南菜品餐厅","address":"静安区吴江路178号2楼(玛莎商场对面)"},{"poiid":"B2094655D26CAAFD469F","title":"Issimo","lon":"121.45899194611","lat":"31.229678177388","category":"94","category_name":"西餐厅","address":"静安区南京西路931号家合酒店2楼(近泰兴路)"},{"poiid":"B2094454D26BA2FB439D","title":"乐伯部队锅","lon":"121.459518","lat":"31.229896","category":"247","category_name":"餐饮美食","address":"上海市 吴江路四季坊"},{"poiid":"B2094757DA6FA2FD449B","title":"神户明味家七轮烧肉","lon":"121.460747999999","lat":"31.2304259999998","category":"269","category_name":"烧烤","address":"静安区南京西路819号中创大厦5楼(近吴江路)"},{"poiid":"B2094655D26DA3FE469B","title":"MARKS & SPENCER","lon":"121.46036","lat":"31.23035","category":"141","category_name":"服装鞋帽皮具店","address":"卢湾区淮海中路112号(近龙门路)"},{"poiid":"B2094757D069A6FB4292","title":"中国移动南京西路营业厅","lon":"121.458921","lat":"31.230025","category":"151","category_name":"电讯营业厅","address":"南京西路936-938"},{"poiid":"B2094757D06FA2FF409A","title":"无印良品MUJI(南京西路)","lon":"121.46100542","lat":"31.231078614","category":"123","category_name":"家具建材市场","address":"上海静安区南京西路818号818广场308-311(近石门一路)"},{"poiid":"B2094757DA69A3FA499F","title":"南京西路818广场","lon":"121.46079514133","lat":"31.230917642069","category":"119","category_name":"商场","address":"南京西路818号"},{"poiid":"B2094757D16CABFD479E","title":"普京茶餐厅","lon":"121.46033973","lat":"31.229866292","category":"500","category_name":"未知分类","address":"上海人民广场"},{"poiid":"B2094655D265A6FA449F","title":"乡音剧场","lon":"121.46014","lat":"31.23084","category":"180","category_name":"剧场","address":"南京西路860弄1号"},{"poiid":"B2094752D26EA2FC479F","title":"意麵屋","lon":"121.45948","lat":"31.23007","category":"94","category_name":"西餐厅","address":"静安区南京西路819号507室"},{"poiid":"B2094757D064A6FA419F","title":"JIA Shanghai","lon":"121.45959","lat":"31.22981","category":"500","category_name":"未知分类","address":"上海静安区南京西路931号  "},{"poiid":"B2094757D06FABF94593","title":"American Eagle Outfitters","lon":"121.46106763","lat":"31.230666157","category":"141","category_name":"服装鞋帽皮具店","address":"上海静安区南京西路819号(近石门一路)"},{"poiid":"B2094757D06FA6FA4092","title":"三叶草(南京西路店)","lon":"121.459247925","lat":"31.2300268154","category":"140","category_name":"体育用品店","address":"静安区南京西路939号(江宁路南京西路)"},{"poiid":"B2094757D068ABF44392","title":"佰草集汉方SPA(北京西路旗舰店)","lon":"121.46092","lat":"31.23218","category":"149","category_name":"洗浴推拿场所","address":"静安区北京西路718号(近石门二路)"},{"poiid":"B2094750D564AAFB4292","title":"藏龙云海","lon":"121.461257","lat":"31.230861","category":"247","category_name":"餐饮美食","address":"南京西路818广场6楼"},{"poiid":"B2094757D469A7F4429B","title":"爱乐鱼","lon":"121.4609876","lat":"31.2307105","category":"71","category_name":"四川菜","address":"静安区南京西路819号开欣商厦4楼401-402室(近吴江路)"},{"poiid":"B2094750D768A5FE469E","title":"马莎百货咖啡厅","lon":"121.46","lat":"31.2304","category":"260","category_name":"其他","address":"静安区南京西路863号玛莎百货4楼(近石门一路)"},{"poiid":"B2094757D06FA4FC419B","title":"贝儿多爸爸的泡芙工房(吴江路店)","lon":"121.45991073","lat":"31.229563285","category":"67","category_name":"甜品店","address":"上海市静安区吴江路198-2"},{"poiid":"B209475DD66BA6FB449C","title":"一風堂拉面","lon":"121.460937","lat":"31.230806","category":"247","category_name":"餐饮美食","address":"上海市 吳江路169號142單元"},{"poiid":"B2094655D26AA1FA479C","title":"强生国际旅行社南京西路分部","lon":"121.45914","lat":"31.23055","category":"247","category_name":"餐饮美食","address":"静安区南京西路920号南泰大厦内(近泰兴路)"},{"poiid":"B2094654DA6CA1F8429F","title":"帕多瓦多媒体KTV","lon":"121.45986","lat":"31.23016","category":"170","category_name":"KTV","address":"南京西路889"},{"poiid":"B2094654DA6CA2FF4193","title":"南泰大厦(边门)","lon":"121.4592","lat":"31.23046","category":"49","category_name":"无中心点楼宇大门","address":"南京西路920"},{"poiid":"B2094751D465ABFD459A","title":"莉莲蛋挞(吴江路店)","lon":"121.46034","lat":"31.22968","category":"67","category_name":"甜品店","address":"静安区吴江路169号四季坊121号商铺(近石门一路)"},{"poiid":"B2094757D06AA5F44998","title":"ASOBIO(南京西路旗舰店)","lon":"121.458842065","lat":"31.2299083507","category":"141","category_name":"服装鞋帽皮具店","address":"上海南京西路942-952号"},{"poiid":"B2094751DA6FA7F5429E","title":"外婆家","lon":"121.459449","lat":"31.23152","category":"500","category_name":"未知分类","address":null},{"poiid":"B2094750DA69AAF4479E","title":"2号线南京西路地铁站","lon":"121.460792","lat":"31.230045","category":"36","category_name":"地铁站","address":null},{"poiid":"B2094757D16DA7F5439C","title":"益普索","lon":"121.461008738","lat":"31.2315363279","category":"46","category_name":"楼宇","address":"上海南京西路1038号梅龙镇广场9楼"},{"poiid":"B2094751DA6DA3F9499B","title":"德大西餐","lon":"121.459242","lat":"31.231329","category":"247","category_name":"餐饮美食","address":"上海南京西路473号"},{"poiid":"B209475DD268A6FF4293","title":"韵色","lon":"121.460517","lat":"31.231161","category":"249","category_name":"购物服务","address":"上海市 南京西路819号中创大厦6楼"},{"poiid":"B2094655D26AAAF94892","title":"戴西女子养生堂818广场旗舰店","lon":"121.46094","lat":"31.23094","category":"148","category_name":"美容美发店","address":"静安区南京西路818号818广场410411商铺(近石门一路)"},{"poiid":"B2094655D26AA1F5469F","title":"瑞泰酒店泰兴路店","lon":"121.45962","lat":"31.22982","category":"247","category_name":"餐饮美食","address":"静安区泰兴路178号(近南京西路)"},{"poiid":"B2094750D66FA4FB4892","title":"la pasta","lon":"121.460449","lat":"31.23047","category":"500","category_name":"未知分类","address":"南京西路818广场5楼"},{"poiid":"B2094757D168A0FB4798","title":"上海评剧团(乐透相声)","lon":"121.460600038","lat":"31.2308290129","category":"500","category_name":"未知分类","address":"上海静安区南京西路860弄乡音书苑"},{"poiid":"B2094753D16BAAFC429A","title":"开欣商厦","lon":"121.46074","lat":"31.23042","category":"119","category_name":"商场","address":"静安区南京西路819号中创大厦4-6楼"},{"poiid":"B2094757D06AA6F84692","title":"麻辣捞汤","lon":"121.46032273","lat":"31.231270322","category":"500","category_name":"未知分类","address":"上海市静安区吴江路"},{"poiid":"B2094757D165A2FE4592","title":"上海农商银行静安支行营业部","lon":"121.45961669","lat":"31.231827621","category":"46","category_name":"楼宇","address":"上海市静安区北京西路770号"},{"poiid":"B2094750D66FA0FD439A","title":"Bon Matin. 早安 巴黎.","lon":"121.460876","lat":"31.230028","category":"247","category_name":"餐饮美食","address":null},{"poiid":"B209475CD36DA7FD4093","title":"藏蜜坊","lon":"121.460917","lat":"31.231043","category":"67","category_name":"甜品店","address":"南京西路818号818广场6F楼近石门一路"},{"poiid":"B2094655D26AA0FB409A","title":"强生票务中心","lon":"121.45914","lat":"31.23055","category":"247","category_name":"餐饮美食","address":"静安区南京西路920号(近泰兴路)"},{"poiid":"B2094751D06EA4FA469A","title":"饺子王将","lon":"121.4584905","lat":"31.2320305","category":"247","category_name":"餐饮美食","address":"南京西路石门一路"},{"poiid":"B209475CD568A6FB4493","title":"MrHarry海瑞先生","lon":"121.460831","lat":"31.230601","category":"103","category_name":"英国式菜品餐厅","address":"南京西路819号开欣商厦5楼508"},{"poiid":"B2094751DA6DA3FB459B","title":"蜀公馆老成都火锅","lon":"121.4604941","lat":"31.2301445","category":"247","category_name":"餐饮美食","address":"淮海中路瑞金一路"},{"poiid":"B2094757D06AA3F54392","title":"宾利上海","lon":"121.458645","lat":"31.231363","category":"158","category_name":"汽车销售","address":"上海静安区北京西路833号"},{"poiid":"B2094757DB6BA3FC409E","title":"诗泥SPA（818广场店）","lon":"121.461","lat":"31.231","category":"148","category_name":"美容美发店","address":"静安区南京西路818号408室(南京西路石门二路)"},{"poiid":"B2094655D26EA5FA409E","title":"洋葱餐厅 南京西路店 onion","lon":"121.45623782946","lat":"31.232399039008","category":"257","category_name":"中餐厅","address":"南京西路881号3楼近泰兴路"},{"poiid":"B2094655D264A4FE429F","title":"长春藤大厦","lon":"121.46127","lat":"31.23099","category":"46","category_name":"楼宇","address":"南京西路804号"},{"poiid":"B209475CDA6CA4FA429C","title":"老北京羊蝎子","lon":"121.460861","lat":"31.230648","category":"247","category_name":"餐饮美食","address":"上海市 静安区南京西路"},{"poiid":"B2094757D165A4FA459B","title":"太阳星辰KTV","lon":"121.45979","lat":"31.22992","category":"170","category_name":"KTV","address":"静安区南京西路920号南泰大厦6楼(近泰兴路)"},{"poiid":"B2094750D16BABFC479C","title":"南京西路地铁站","lon":"121.460815","lat":"31.23014","category":"36","category_name":"地铁站","address":null},{"poiid":"B2094757D06AA1F84399","title":"G2000(南京西路店)","lon":"121.45981","lat":"31.22996","category":"141","category_name":"服装鞋帽皮具店","address":"上海静安区南京西路858号(近石门一路)"},{"poiid":"B2094757D16AA0F5479B","title":"常州火车站北广场候车室","lon":"121.459438938","lat":"31.2295986866","category":"22","category_name":"火车站","address":"常州不详"},{"poiid":"B2094654DA6CA1FF489B","title":"鸿禧摩士达商厦","lon":"121.45953","lat":"31.22997","category":"46","category_name":"楼宇","address":"静安区南京西路889号(近石门一路)"},{"poiid":"B2094751DB6CA4F8429A","title":"长安客(818广场店)","lon":"121.46104","lat":"31.23094","category":"68","category_name":"快餐厅","address":"静安区南京西路818号818广场内(近南京西路地铁站)"},{"poiid":"B2094757D16EA2F94092","title":"贝尔多爸爸泡芙","lon":"121.460012738","lat":"31.2295812863","category":"247","category_name":"餐饮美食","address":"上海市吴江路"},{"poiid":"B2094757D66EA6FF4998","title":"上海评弹团","lon":"121.460566638","lat":"31.2308233127","category":"260","category_name":"其他","address":"上海南京西路860弄1号"},{"poiid":"B2094757D068A4FC459F","title":"全家便利(泰兴店)","lon":"121.45876312","lat":"31.2306494892","category":"117","category_name":"便民商店/便利店","address":"上海静安区泰兴路217号(近奉贤路)"},{"poiid":"B2094750D664A0F9469F","title":"W&WFineWine&SingleMaltWhisky","lon":"121.46","lat":"31.2318","category":"269","category_name":"烧烤","address":"北京西路779号(近石门二路泰兴路之间)"},{"poiid":"B2094757D66AA6FE429F","title":"杂家辣味馆 奉贤路店","lon":"121.461198054","lat":"31.231352793","category":"71","category_name":"四川菜","address":"上海静安区奉贤路61号(近石门二路)  "},{"poiid":"B209475CD764A5FE4698","title":"爱茜茜里意大利手工冰淇淋 吴江路店 ICEASON","lon":"121.46085","lat":"31.23002","category":"67","category_name":"甜品店","address":"吴江路166号1楼(近石门一路)"},{"poiid":"B2094757D16AA4F9479B","title":"上海电信","lon":"121.45875746","lat":"31.230340657","category":"500","category_name":"未知分类","address":"上海泰兴路北京西路"},{"poiid":"B2094750D164A2F5469F","title":"上海JIA酒店","lon":"121.459243297577","lat":"31.2299311639933","category":"214","category_name":"四星级宾馆","address":"上海静安区南京西路931号"},{"poiid":"B2094655D265A5FE449B","title":"精英会","lon":"121.46014","lat":"31.23026","category":"47","category_name":"住宅区","address":"攀枝花市仁和区前进镇南山宾馆旁"},{"poiid":"B2094757D468A4FC489E","title":"Tivoli","lon":"121.459725","lat":"31.230119","category":"98","category_name":"意式菜品餐厅","address":"南京西路889号2楼近泰兴路"},{"poiid":"B209475CD764A2FB4792","title":"悦蓉香锅牛蛙 818广场店","lon":"121.46117","lat":"31.2306","category":"71","category_name":"四川菜","address":"南京西路818号818广场B1楼(近石门一路)"},{"poiid":"B2094757D164A2F5449D","title":"马可波罗 (淮海路店)","lon":"121.46091573","lat":"31.230614308","category":"247","category_name":"餐饮美食","address":"上海淮海路思南路"},{"poiid":"B2094757D068ABFA499D","title":"移动泰兴路营业厅","lon":"121.45892334","lat":"31.230024337","category":"150","category_name":"银行","address":"上海静安区南京西路938号"},{"poiid":"B2094655D26EA4FB439A","title":"风波庄武侠主题餐厅","lon":"121.46118","lat":"31.23155","category":"68","category_name":"快餐厅","address":"静安区奉贤路61号"},{"poiid":"B2094757D068A1FD409C","title":"我爱番薯","lon":"121.460046738","lat":"31.2296322873","category":"247","category_name":"餐饮美食","address":"上海静安区吴江路198-2"},{"poiid":"B2094655D26AA1FD4593","title":"京泰社会停车场","lon":"121.4589","lat":"31.23141","category":"247","category_name":"餐饮美食","address":"静安区北京西路833号(近泰兴路)"},{"poiid":"B2094750D664A0FB469A","title":"开心丽果鲜榨果汁吧(南京西路店)","lon":"121.461","lat":"31.2305","category":"113","category_name":"冷饮店","address":"静安区南京西路819号开欣商厦503铺(近吴江路美食街)"},{"poiid":"B2094757D06AA2FA419B","title":"M&amp;S","lon":"121.46031951","lat":"31.230325698","category":"500","category_name":"未知分类","address":"上海南京西路863号"},{"poiid":"B2094654DB69A5FA499A","title":"中国电信(信息服务台店)","lon":"121.45914","lat":"31.23052","category":"151","category_name":"电讯营业厅","address":"静安区南京西路920号20楼"},{"poiid":"B2094655D26BA6F44393","title":"大华公寓","lon":"121.45988","lat":"31.23048","category":"47","category_name":"住宅区","address":"上海南京西路886弄"},{"poiid":"B2094655D26FA4F5469C","title":"南京西路860弄小区(南门)","lon":"121.46014","lat":"31.23061","category":"47","category_name":"住宅区","address":"南京西路860弄"},{"poiid":"B209475DD26FA6F9429F","title":"Naia gelato冰淇淋","lon":"121.460166","lat":"31.229825","category":"500","category_name":"未知分类","address":"上海市 吴江路四季坊商场1层111单元"},{"poiid":"B2094750D76FA6FA439C","title":"食为天品味小厨","lon":"121.459","lat":"31.2308","category":"68","category_name":"快餐厅","address":"静安区泰兴路223号(近南京西路)"},{"poiid":"B2094753D46BA3FC4092","title":"重庆小天鹅","lon":"121.461227","lat":"31.230819","category":"500","category_name":"未知分类","address":"上海市 南京西路818号818广场负一楼B101单元"},{"poiid":"B2094655D268A3FE4392","title":"南京西路886弄小区","lon":"121.45969","lat":"31.23062","category":"47","category_name":"住宅区","address":"南京西路886弄"},{"poiid":"B2094757D569A3F44993","title":"明门KTV","lon":"121.46067","lat":"31.23043806","category":"170","category_name":"KTV","address":"南京西路819号"},{"poiid":"B2094757D169ABF8409D","title":"南京西路860号","lon":"121.460539738","lat":"31.2311012187","category":"500","category_name":"未知分类","address":"上海乐透社相声 乡音860"},{"poiid":"B2094655D264A6F5439E","title":"皇家世尊KTV私人会所","lon":"121.45987","lat":"31.23012","category":"170","category_name":"KTV","address":""},{"poiid":"B2094757D06FA4F5439B","title":"全家便利(南京西路站店)","lon":"121.459681","lat":"31.229765","category":"117","category_name":"便民商店/便利店","address":"上海静安区南京西路地铁二号线2-120室(茂名北路吴江路)"},{"poiid":"B2094757D064A7FC429F","title":"麻辣烫捞~","lon":"121.4598999","lat":"31.229562759","category":"500","category_name":"未知分类","address":"上海吴江路202号"},{"poiid":"B2094757D16AA0FD419F","title":"咖莲","lon":"121.460542138","lat":"31.2299855949","category":"249","category_name":"购物服务","address":"吴江路169号四季坊B1楼近泰兴路"},{"poiid":"B2094757D16EA5F5459C","title":"指上花专业美甲护理沙龙","lon":"121.45909","lat":"31.23148","category":"122","category_name":"个人用品/化妆品店","address":"静安区北京西路820号(近泰兴路)"},{"poiid":"B2094757D06BAAFA4699","title":"Sebraner丝柏娜美甲中心","lon":"121.45995573","lat":"31.229629287","category":"148","category_name":"美容美发店","address":"上海吴江路169号四季坊146单元"},{"poiid":"B2094654DA6CA1F5469F","title":"龙凤旗袍","lon":"121.45888","lat":"31.22999","category":"141","category_name":"服装鞋帽皮具店","address":"静安区南京西路942号"},{"poiid":"B2094757D16DA4F8499A","title":"AEO南京西路店","lon":"121.4610042","lat":"31.230715","category":"141","category_name":"服装鞋帽皮具店","address":"上海南京西路819号American Eagle Outfitters"},{"poiid":"B2094757D065A6F9479E","title":"艾手艾脚(吴江路店)","lon":"121.46014","lat":"31.22971","category":"122","category_name":"个人用品/化妆品店","address":"上海静安区吴江路步行街(近石门一路)"},{"poiid":"B2094757D064A6F8449A","title":"热风(吴江路店)","lon":"121.46066426","lat":"31.229943052","category":"141","category_name":"服装鞋帽皮具店","address":"静安区吴江路四季坊商场2楼(近石门一路)"},{"poiid":"B2094655D26DA6FF459C","title":"佰草集丽都店","lon":"121.46047","lat":"31.23262","category":"149","category_name":"洗浴推拿场所","address":"北京西路718号"},{"poiid":"B2094757D16FA6F9429B","title":"天一生水养生馆","lon":"121.459993662","lat":"31.2302877799","category":"500","category_name":"未知分类","address":"上海吴江路静安时代大厦"},{"poiid":"B2094757D06AA7FB459B","title":"emoi基本生活(818广场店)","lon":"121.46114975","lat":"31.230848771","category":"123","category_name":"家具建材市场","address":"静安区南京西路818号818广场314号(近石门一路)"},{"poiid":"B2094655D26EA6FA459D","title":"艾维庭美容身心会馆(南京鸿翔店)","lon":"121.46031","lat":"31.23032","category":"221","category_name":"健身中心","address":"静安区南京西路869，号鸿翔百货4楼"},{"poiid":"B2094753DA65ABF9479C","title":"恒隆广场","lon":"121.459686","lat":"31.231966","category":"500","category_name":"未知分类","address":"上海市 静安区"},{"poiid":"B2094655D26EA2F94499","title":"史努比","lon":"121.4595","lat":"31.23002","category":"141","category_name":"服装鞋帽皮具店","address":"南京西路893-1"},{"poiid":"B2094757D064A2FB4099","title":"BR","lon":"121.4606091","lat":"31.2299645","category":"500","category_name":"未知分类","address":"上海吴江路baskin robbins"},{"poiid":"B2094757D169AAFA439C","title":"min舞","lon":"121.460453","lat":"31.230393","category":"500","category_name":"未知分类","address":"静安区江宁路81号5楼(美琪大戏院对面)"},{"poiid":"B2094757D068ABFD479E","title":"爱知书店(南京西路店)","lon":"121.460421738","lat":"31.2298172913","category":"125","category_name":"书店","address":"静安区地铁2号线南京西路站内(近3号出口)"},{"poiid":"B2094655D265AAFB4798","title":"俪晶上门保健会所","lon":"121.45984","lat":"31.2303","category":"208","category_name":"休闲场所","address":"南京西路888号"},{"poiid":"B2094654DA6CA2F8469C","title":"第一西比利亚","lon":"121.45993","lat":"31.23048","category":"141","category_name":"服装鞋帽皮具店","address":"静安区南京西路878号(近泰兴路)"},{"poiid":"B2094751DA6BA1FA469B","title":"Windows bar","lon":"121.46115795","lat":"31.23053815","category":"500","category_name":"未知分类","address":null},{"poiid":"B2094757D16EA2FB4393","title":"上海市爱国学校","lon":"121.458399","lat":"31.231202","category":"500","category_name":"未知分类","address":"静安区泰兴路275号(近北京西路)"},{"poiid":"B2094757D16DA1F8409B","title":"188 Trade Center (188商务广场)","lon":"121.46007148","lat":"31.229930543","category":"500","category_name":"未知分类","address":"上海市静安区南京西路881号静安新时代大厦13楼"},{"poiid":"B2094752D165A6FF4498","title":"韩国","lon":"121.460445","lat":"31.2312","category":"249","category_name":"购物服务","address":"首尔"},{"poiid":"B209475CD56CAAFA4792","title":"etude house","lon":"121.458862","lat":"31.2303","category":"500","category_name":"未知分类","address":"上海市 四季坊104号"},{"poiid":"B2094655D264A6FB439F","title":"交通银行","lon":"121.4604","lat":"31.23258","category":"150","category_name":"银行","address":"北京西路722"},{"poiid":"B209475CD469A4F4419B","title":"Nike Employee Store","lon":"121.458534","lat":"31.230304","category":"500","category_name":"未知分类","address":"上海市 江宁路293号201室"},{"poiid":"B2094757D16FABFA4793","title":"华扬联众","lon":"121.460609308","lat":"31.2317686829","category":"500","category_name":"未知分类","address":"上海南京西路818号长春藤运通大厦17楼"},{"poiid":"B2094757D16EAAFE4098","title":"i-D偶像摄影原创空间","lon":"121.46101973","lat":"31.230556307","category":"500","category_name":"未知分类","address":"上海市杨浦区军工路1436号A2幢"},{"poiid":"B2094757D065ABF5489E","title":"鼓浪屿娜娜海岸度假旅馆","lon":"121.46044973","lat":"31.232249093","category":"500","category_name":"未知分类","address":"厦门鼓浪屿"},{"poiid":"B2094757D66EA3F5469A","title":"天一生水养生护肤中心","lon":"121.4599915","lat":"31.230297843","category":"500","category_name":"未知分类","address":"上海吴江路静安新时代大厦"},{"poiid":"B2094757D16AA1F84893","title":"索菲密思","lon":"121.45921573","lat":"31.229620287","category":"500","category_name":"未知分类","address":"上海市静安区吳江路四季坊"},{"poiid":"B2094757D168AAF4409F","title":"瑞泰大酒店3楼会议中心","lon":"121.459765","lat":"31.229702","category":"217","category_name":"旅馆招待所","address":"上海泰兴路178号"},{"poiid":"B2094752D16DA1F9469F","title":"纽斯桑拿会所（天山路店）","lon":"121.460815","lat":"31.231232","category":"248","category_name":"生活娱乐","address":"天山路1900号(近延安西路)"},{"poiid":"B2094757D06BABFD499E","title":"品尚造型","lon":"121.460723877","lat":"31.230091095","category":"148","category_name":"美容美发店","address":"上海静安区吴江路15号(近南京西路电视台)"},{"poiid":"B2094654DA6CA2FF429A","title":"深圳发展银行上海南京西路支行","lon":"121.45935","lat":"31.23035","category":"150","category_name":"银行","address":"南京西路920"},{"poiid":"B2094757D16EA5F44198","title":"大众交通集团票务中心","lon":"121.45898354","lat":"31.230722474","category":"500","category_name":"未知分类","address":"静安区泰兴路218号(奉贤路口)"},{"poiid":"B2094757D064A4FB429F","title":"名线","lon":"121.45977","lat":"31.22988","category":"500","category_name":"未知分类","address":"静安区南京西路891号(近泰兴路)"},{"poiid":"B2094757D168A5FD4292","title":"46HOWTEL","lon":"121.46053573","lat":"31.231995837","category":"500","category_name":"未知分类","address":"厦门鼓浪屿岛福建路46号"},{"poiid":"B2094757D16DA2F5429D","title":"雁荡山","lon":"121.45943893","lat":"31.229598686","category":"500","category_name":"未知分类","address":"温州乐清境内  "},{"poiid":"B2094757D165A1F84592","title":"聚福莊圜","lon":"121.460832138","lat":"31.2315566284","category":"500","category_name":"未知分类","address":"南宁市五象新区金象大道112号"},{"poiid":"B2094654DA6CA2F8479E","title":"巴黎三城(南京西路)","lon":"121.46065","lat":"31.23075","category":"132","category_name":"眼镜店","address":"静安区南京西路838号(近石门一路)"},{"poiid":"B2094654DB6AA3F8419A","title":"上海宾利汽车销售有限公司","lon":"121.4589","lat":"31.23141","category":"263","category_name":"公司","address":"静安区北京西路833号(近泰兴路)"},{"poiid":"B2094757D66EA4FF409A","title":"中國金幣","lon":"121.46114251","lat":"31.2306517182","category":"500","category_name":"未知分类","address":"上海市南京西路801號"},{"poiid":"B2094757D568A0F54093","title":"中国2010年上海世博会特许商品零售店(南京西路)","lon":"121.45971246","lat":"31.23038818","category":"255","category_name":"专卖店","address":"中国上海市静安区南京西路896"},{"poiid":"B2094751DA6EA7F5419C","title":"南京理发店","lon":"121.461075","lat":"31.230743","category":"248","category_name":"生活娱乐","address":"南京西路784"},{"poiid":"B2094757D169A3FB429A","title":"Gex","lon":"121.460778738","lat":"31.2299392939","category":"249","category_name":"购物服务","address":"上海市静安区吴江路128号(近石门一路)"},{"poiid":"B2094655D26AAAFC459A","title":"强生汽车租赁南京西路店","lon":"121.45914","lat":"31.23055","category":"161","category_name":"汽车租赁","address":"静安区南京西路920号南泰大厦8楼;;"},{"poiid":"B2094655D26FA7FC439A","title":"京泰楼(边门)","lon":"121.45907","lat":"31.23143","category":"48","category_name":"楼宇大门","address":"北京西路833"},{"poiid":"B2094757D568A0F5479F","title":"M-D Hair Salon","lon":"121.4596861","lat":"31.23077","category":"249","category_name":"购物服务","address":"南京西路920号"},{"poiid":"B2094654DA6CA2FF429D","title":"中国电信西区电信局维护中心","lon":"121.45926","lat":"31.23095","category":"263","category_name":"公司","address":""},{"poiid":"B2094757D569A6FE4698","title":"COBO南京西路店","lon":"121.4598689","lat":"31.23015889","category":"249","category_name":"购物服务","address":"静安区南京西路889号A4商铺(近石门一路)"},{"poiid":"B2094655D26CAAF44398","title":"上外国际教育交流信息中心","lon":"121.46086","lat":"31.23031","category":"252","category_name":"楼宇机构","address":"南京西路819号中创大厦1009-1012"},{"poiid":"B2094757D568ABFD4992","title":"塞拉维","lon":"121.4596631","lat":"31.23008889","category":"249","category_name":"购物服务","address":"静安区南京西路891号(近泰兴路)"},{"poiid":"B2094757D568AAF8439B","title":"恶人谷","lon":"121.4606619","lat":"31.23007194","category":"249","category_name":"购物服务","address":"静安区吴江路168号时尚平台3楼(近石门一路)"},{"poiid":"B2094654DA6CA2FF4292","title":"上海市电信公司查号中心南泰台","lon":"121.45968","lat":"31.23077","category":"263","category_name":"公司","address":"南京西路920"},{"poiid":"B2094757D568A7FF489D","title":"艾·希尔","lon":"121.4596631","lat":"31.23008889","category":"249","category_name":"购物服务","address":"南京西路891号"},{"poiid":"B2094654DA6CA1F84093","title":"普罗旺斯欧舒丹贸易(上海)有限公司","lon":"121.46086","lat":"31.23032","category":"263","category_name":"公司","address":"南京西路819号中创大厦2209"},{"poiid":"B2094654DA6CA2FF4293","title":"中国电信静安分局南泰电话站","lon":"121.45968","lat":"31.23076","category":"263","category_name":"公司","address":"南京西路920"},{"poiid":"B2094757DA69A3FB479A","title":"上海外国语大学移民部","lon":"121.46065566669","lat":"31.231082775042","category":"632","category_name":"教育出国类公司","address":"南京西路818号长春藤运通大厦901-907"},{"poiid":"B2094654DA6CA1F8419F","title":"香港源汇德国际有限公司上海代表处","lon":"121.46086","lat":"31.23031","category":"263","category_name":"公司","address":"南京西路819号中创大厦20层"},{"poiid":"B2094654DA6CA1FF489C","title":"上海开开实业股份有限公司","lon":"121.46086","lat":"31.23031","category":"263","category_name":"公司","address":"南京西路819号中创大厦7层"},{"poiid":"B2094654DA6CA1FF4892","title":"阿特拉斯·科普柯(中国)投资有限公司","lon":"121.46086","lat":"31.23032","category":"263","category_name":"公司","address":"南京西路819号中创大厦8层"},{"poiid":"B2094757D164A2FB479F","title":"上海天维广告有限公司","lon":"121.46097873","lat":"31.230560307","category":"263","category_name":"公司","address":"上海静安区南京西路818号长春藤运通大厦11楼"},{"poiid":"B2094757D66CA6F94293","title":"优映传媒","lon":"121.46085769","lat":"31.230595617","category":"263","category_name":"公司","address":"上海南京西路818号长春藤运通大厦1112-5室"},{"poiid":"B2094654DA6CA2FF4393","title":"鸿金图文","lon":"121.46118","lat":"31.23149","category":"248","category_name":"生活娱乐","address":"奉贤路63号2层"},{"poiid":"B2094655D26EA7FA449E","title":"J&A","lon":"121.45984","lat":"31.2318","category":"248","category_name":"生活娱乐","address":"静安区北京西路789号"},{"poiid":"B2094654DA6CA2FF4298","title":"强生国际旅行社","lon":"121.45922","lat":"31.2304","category":"248","category_name":"生活娱乐","address":""},{"poiid":"B2094655D26EA4FC489C","title":"Sasa(南京西路店)","lon":"121.46031","lat":"31.23032","category":"248","category_name":"生活娱乐","address":"静安区南京西路869号"},{"poiid":"B2094655D26DA2FD409C","title":"皇家壹号No.1","lon":"121.45986","lat":"31.23015","category":"248","category_name":"生活娱乐","address":"南京西路889号"},{"poiid":"B2094654DA6CA2F8469B","title":"大众交通票务中心","lon":"121.45899","lat":"31.23073","category":"254","category_name":"售票处","address":"泰兴路218"},{"poiid":"B2094757D16BABF5449D","title":"海天网联","lon":"121.460082738","lat":"31.2299552942","category":"248","category_name":"生活娱乐","address":"上海市静安区吴江路188号8楼"},{"poiid":"B2094752D06EAAF4489C","title":"德大西餐馆","lon":"121.459242","lat":"31.231335","category":"500","category_name":"未知分类","address":null},{"poiid":"B2094757D16CA2FE499E","title":"128路车站","lon":"121.460823173","lat":"31.2321594062","category":"251","category_name":"出行住宿","address":"上海石门二路北京西路"},{"poiid":"B2094757D16EA3FF429C","title":"强生票务中心(南西店)","lon":"121.45962","lat":"31.23008","category":"260","category_name":"其他","address":"静安区南京西路920号南泰大厦内(近泰兴路)"},{"poiid":"B2094655D268A3FE449A","title":"南京西路886弄小区(北门)","lon":"121.45958","lat":"31.23073","category":"656","category_name":"大门","address":"奉贤路147"},{"poiid":"B2094655D26FABF84899","title":"南京西路886弄小区(南门)","lon":"121.45981","lat":"31.23044","category":"656","category_name":"大门","address":"南京西路886弄"}]