[{"poiid":"B2094757DA68A1F9429C","title":"蜀地香天下火锅","lon":"121.446033","lat":"31.188724","category":"86","category_name":"火锅店","address":"徐汇区双峰北路1号2楼(近斜土路)"},{"poiid":"B2094757D06FA3FD4593","title":"三人行骨头王火锅(南丹东路店)","lon":"121.44566357","lat":"31.190540663","category":"86","category_name":"火锅店","address":"徐汇区南丹东路8号(斜土路口)"},{"poiid":"B2094757D068A2FE4098","title":"复茂小龙虾 宛平南路店","lon":"121.44731483072","lat":"31.190466090829","category":"68","category_name":"快餐厅","address":"徐汇区宛平南路400号(近斜土路)"},{"poiid":"B2094757D06FA2F5439B","title":"徐汇区图书馆","lon":"121.444171458","lat":"31.1899963694","category":"181","category_name":"图书馆","address":"徐汇区南丹东路80号(近宛平南路/天钥桥路)"},{"poiid":"B2094757D068ABF94398","title":"Blue Frog","lon":"121.44707489","lat":"31.1903934479","category":"500","category_name":"未知分类","address":"上海致真汇  徐汇区辛耕路109号永新坊1-2楼(近天钥桥路)  "},{"poiid":"B2094757D06FABFE419A","title":"红宝石(南丹东路店)","lon":"121.44537","lat":"31.19082","category":"67","category_name":"甜品店","address":"徐汇区南丹东路55号(近宛平南路)"},{"poiid":"B2094655D26EA2F4449B","title":"衡山小馆斜土路店","lon":"121.44648","lat":"31.1911","category":"72","category_name":"广东菜","address":"徐汇区斜土路2428号海螺花园(近宛平南路)"},{"poiid":"B2094654DB69A5FD4299","title":"锦江之星(宛平南路店)","lon":"121.44693","lat":"31.19016","category":"216","category_name":"经济型连锁酒店","address":"徐汇区宛平南路404号(近零陵路)"},{"poiid":"B2094757D06FA4FD489E","title":"苏武牧羊(徐汇店)","lon":"121.44805","lat":"31.19126","category":"86","category_name":"火锅店","address":"徐汇区斜土路2422号(近宛平南路)"},{"poiid":"B2094655D26BA3FC4392","title":"福地大酒店","lon":"121.4476610206","lat":"31.189998994849","category":"76","category_name":"上海菜","address":"徐汇区宛平南路465号(零陵路斜土路间)"},{"poiid":"B2094757D068A1F4449D","title":"花乐·神田川","lon":"121.446604928","lat":"31.1918430256","category":"95","category_name":"日本料理","address":"徐汇区斜土路2421号4号楼(近宛平南路)"},{"poiid":"B2094655D268A7F8459E","title":"电影华苑","lon":"121.446","lat":"31.1901","category":"47","category_name":"住宅区","address":"上海市徐汇区零陵路751号"},{"poiid":"B2094654DB6BA5F8429E","title":"莫泰168连锁旅店(宛平南路店)","lon":"121.44722","lat":"31.19062","category":"216","category_name":"经济型连锁酒店","address":"上海市宛平南路400号（近斜土路）"},{"poiid":"B2094750DB64A0FE469E","title":"牛New壽喜燒","lon":"121.447868","lat":"31.190422","category":"247","category_name":"餐饮美食","address":"天鈅橋路131號 永新坊"},{"poiid":"B2094757DA6FA1FE4399","title":"梅赛德斯-奔驰文化中心","lon":"121.448848","lat":"31.191104","category":"248","category_name":"生活娱乐","address":"浦东世博大道1200号"},{"poiid":"B2094751D269A6F44599","title":"上海南站","lon":"121.4478","lat":"31.1901","category":"500","category_name":"未知分类","address":null},{"poiid":"B2094757D06FA6F4439B","title":"85度C(南丹店)","lon":"121.445687517","lat":"31.1907925339","category":"112","category_name":"糕饼店","address":"徐汇区南丹东路8号(近斜土路)"},{"poiid":"B2094654DA6DA1FC469F","title":"海螺花园(宛平南路)","lon":"121.44661","lat":"31.19069","category":"47","category_name":"住宅区","address":"宛平南路388弄1-6号"},{"poiid":"B2094757D068A0FD489E","title":"老娘舅 天钥桥路店","lon":"121.441437","lat":"31.192859","category":"68","category_name":"快餐厅","address":"徐汇区天钥桥路123号2楼(近辛耕路)"},{"poiid":"B2094757D769A7F54193","title":"东北四季饺子王 宛平南路店","lon":"121.44769328637","lat":"31.189409271872","category":"82","category_name":"东北菜","address":"徐汇区宛平南路520号(近零陵路)"},{"poiid":"B2094654DB69AAF9419F","title":"湘轩土菜馆(徐家汇店)","lon":"121.44734","lat":"31.19093","category":"247","category_name":"餐饮美食","address":"徐汇区宛平南路368号(近斜土路)"},{"poiid":"B2094655D26AA6FE429D","title":"圆苑酒家宛平南路店","lon":"121.44832","lat":"31.18921","category":"76","category_name":"上海菜","address":"徐汇区宛平南路550号(近零陵路)"},{"poiid":"B2094655D26BA2FE489A","title":"宛平南路","lon":"121.44806","lat":"31.19217","category":"38","category_name":"公交车站","address":""},{"poiid":"B2094757D068A2FD489A","title":"京世造型(宛平店)","lon":"121.446784","lat":"31.192901","category":"148","category_name":"美容美发店","address":"上海徐汇区宛平南路271号"},{"poiid":"B2094757D16FA5F9419E","title":"一茶一座星游城店","lon":"121.445595786","lat":"31.1884724146","category":"86","category_name":"火锅店","address":"上海徐汇区星游城2楼"},{"poiid":"B2094757D469A6FE439B","title":"凯司令西点房 南丹东路店","lon":"121.44516","lat":"31.19114","category":"67","category_name":"甜品店","address":"徐汇区南丹东路65号(近天钥桥路)"},{"poiid":"B2094757D064AAF8489F","title":"海螺花园","lon":"121.446619","lat":"31.190685","category":"47","category_name":"住宅区","address":"上海宛平南路388弄"},{"poiid":"B2094757D468A0FB4198","title":"重庆酸菜鱼","lon":"121.447260054","lat":"31.190825793","category":"71","category_name":"四川菜","address":"徐汇区宛平南路400号(近斜土路)"},{"poiid":"B2094757D06FA6F4439D","title":"徐汇区科技馆","lon":"121.44429","lat":"31.19017","category":"179","category_name":"音乐厅","address":"徐汇区南丹东路60号(近宛平南路)"},{"poiid":"B209475DDA6FA5FA4992","title":"上海八万人体育馆","lon":"121.447906","lat":"31.189407","category":"250","category_name":"公园户外","address":"上海市 天钥桥路666号"},{"poiid":"B2094654DA6DA1FC469A","title":"佳安公寓","lon":"121.44669","lat":"31.189707","category":"47","category_name":"住宅区","address":"宛平南路420弄1-14号"},{"poiid":"B2094757DA6EA4FD409C","title":"韩元庄","lon":"121.447621","lat":"31.190539","category":"247","category_name":"餐饮美食","address":"徐汇区宛平南路404号(近零陵路)"},{"poiid":"B2094654DA6DA1FC469B","title":"偶巴尔坛宛平南路店","lon":"121.44765","lat":"31.19048","category":"96","category_name":"韩国料理","address":"徐汇区宛平南路404"},{"poiid":"B2094654DA6DA2FB499A","title":"海洋石油大厦","lon":"121.44766","lat":"31.18876","category":"46","category_name":"楼宇","address":"北一环与亳州路交叉口(庐阳区政府对面)"},{"poiid":"B2094757D06BA0FA4798","title":"趣奇网KUUKIE.com","lon":"121.44636324","lat":"31.191153547","category":"46","category_name":"楼宇","address":"上海斜土路2430号海螺花园"},{"poiid":"B2094655D26FA5FF469D","title":"天际花园","lon":"121.44474","lat":"31.19184","category":"47","category_name":"住宅区","address":"南丹东路99弄1-22号"},{"poiid":"B2094655D265A2FE4592","title":"东方网","lon":"121.44479","lat":"31.18876","category":"263","category_name":"公司","address":"上海斜土路2567号"},{"poiid":"B2094655D26CA4FA4099","title":"海螺花园(东门)","lon":"121.44741","lat":"31.19081","category":"47","category_name":"住宅区","address":"宛平南路388弄1-6号"},{"poiid":"B209475CD16AABFF489A","title":"星巴克(永新店)","lon":"121.447288","lat":"31.190412","category":"500","category_name":"未知分类","address":"徐汇区辛耕路129号永新坊内(近天钥桥路)"},{"poiid":"B2094757D165AAF84598","title":"畜牧研究所猫狗宠物医院","lon":"121.44621","lat":"31.18995","category":"162","category_name":"医院","address":"上海徐汇区斜土路2451号(近宛平南路)  "},{"poiid":"B2094757D568ABFD419D","title":"Friday日本料理","lon":"121.4460736","lat":"31.18858472","category":"95","category_name":"日本料理","address":"徐汇区双峰北路1号(近斜土路)"},{"poiid":"B2094757D66EABFC4893","title":"复茂","lon":"121.447226","lat":"31.190625","category":"500","category_name":"未知分类","address":"上海宛平南路400号"},{"poiid":"B2094655D268A4F84198","title":"佳安公寓(北门)","lon":"121.44687","lat":"31.18995","category":"47","category_name":"住宅区","address":"宛平南路420弄"},{"poiid":"B2094757D164A2FB4592","title":"優派（徐匯店）","lon":"121.44673156","lat":"31.19039154","category":"500","category_name":"未知分类","address":"上海新耕路"},{"poiid":"B2094654DA6DA1FC4692","title":"好德No.064","lon":"121.44735","lat":"31.19091","category":"117","category_name":"便民商店/便利店","address":"徐家汇"},{"poiid":"B2094654DA6DA1FC469E","title":"桌球游艺","lon":"121.44721","lat":"31.19062","category":"171","category_name":"台球厅","address":"宛平南路400号3层"},{"poiid":"B2094655D264A0FF439D","title":"惠风堂茶馆","lon":"121.44657","lat":"31.19136","category":"66","category_name":"茶艺馆","address":"斜土路2420号(近宛平南路)"},{"poiid":"B2094655D26BA1F8429C","title":"南丹东路宛平南路","lon":"121.44658","lat":"31.19133","category":"38","category_name":"公交车站","address":""},{"poiid":"B209475CDB65A7F9459B","title":"花开藤蔓","lon":"121.445983","lat":"31.191127","category":"500","category_name":"未知分类","address":"上海市 上海市徐汇区天钥桥路93弄"},{"poiid":"B2094752D565ABFB469A","title":"美罗城","lon":"121.446167","lat":"31.190475","category":"500","category_name":"未知分类","address":null},{"poiid":"B2094655D26BA1F84299","title":"南丹路","lon":"121.44587","lat":"31.18956","category":"38","category_name":"公交车站","address":""},{"poiid":"B2094654DA6EA2F54893","title":"宛轻商务楼","lon":"121.44778","lat":"31.19141","category":"46","category_name":"楼宇","address":"宛平南路381"},{"poiid":"B2094654DB69A5F84999","title":"文峰美容美发(宛平南路店)","lon":"121.44764","lat":"31.19048","category":"148","category_name":"美容美发店","address":"徐汇区宛平南路404号(近斜土路)"},{"poiid":"B2094654DA6DA2F44692","title":"新亚徐汇公寓","lon":"121.44638","lat":"31.189569","category":"47","category_name":"住宅区","address":"新亚徐汇公寓位于徐汇斜土路2526号"},{"poiid":"B2094654DA6DA2F44992","title":"澳门豆捞(斜土路)","lon":"121.4457","lat":"31.19075","category":"86","category_name":"火锅店","address":"徐汇区南丹东路8号"},{"poiid":"B2094655D265A0FB4599","title":"徐汇尚座","lon":"121.44759","lat":"31.18979","category":"47","category_name":"住宅区","address":"徐汇尚座位于徐汇宛平南路470号"},{"poiid":"B2094757D16FA2FE459E","title":"秦淮坊一品灌汤包(宛平南路店)","lon":"121.44599","lat":"31.19395","category":"68","category_name":"快餐厅","address":"徐汇区宛平南路160号(近辛耕路)"},{"poiid":"B2094757D16CA1FC4499","title":"交通银行(斜土路支行)","lon":"121.44694","lat":"31.1909","category":"150","category_name":"银行","address":"徐汇区斜土路2426号海螺花园(宛平南路斜土路)"},{"poiid":"B2094654DA6DA2F5409A","title":"永琪美容美发(南丹东路)","lon":"121.44563","lat":"31.19079","category":"148","category_name":"美容美发店","address":"南丹东路18号102"},{"poiid":"B2094757D165A5FA479C","title":"徐家汇街道办事处","lon":"121.445613586","lat":"31.1912206683","category":"500","category_name":"未知分类","address":"上海斜土路2431号"},{"poiid":"B2094757D568A6FF449D","title":"乐购(南丹东路)","lon":"121.44560601","lat":"31.1908252","category":"118","category_name":"超级市场","address":"南丹东路18-1"},{"poiid":"B2094654DA6DA1FC459D","title":"恒安阁","lon":"121.44758","lat":"31.189789","category":"47","category_name":"住宅区","address":"恒安阁位于徐汇宛平南路470号"},{"poiid":"B2094655D26EA5FF4298","title":"日本一宝料理","lon":"121.44641","lat":"31.19147","category":"95","category_name":"日本料理","address":"徐汇区斜土路2421号"},{"poiid":"B2094752D569A0F8459F","title":"王品牛排","lon":"121.446143","lat":"31.188735","category":"247","category_name":"餐饮美食","address":"漕溪北路"},{"poiid":"B2094757D16DA3F9479A","title":"上海银行","lon":"121.4475","lat":"31.190588","category":"150","category_name":"银行","address":"上海徐汇区辛耕路102号"},{"poiid":"B2094654DA6EA2F5489F","title":"宛一物业小区(西门)","lon":"121.44787","lat":"31.19072","category":"47","category_name":"住宅区","address":"宛平南路431弄1-12号"},{"poiid":"B2094757D168A0FE459B","title":"自然美","lon":"121.447243","lat":"31.190781","category":"500","category_name":"未知分类","address":"上海大吉路190号"},{"poiid":"B2094655D26CA7FB4892","title":"同汇苑","lon":"121.44534","lat":"31.190248","category":"47","category_name":"住宅区","address":"斜土路2463弄"},{"poiid":"B2094757D064ABFC499D","title":"优派时尚派对","lon":"121.44619917","lat":"31.190983603","category":"500","category_name":"未知分类","address":"上海天钥桥路123号（近辛耕路）"},{"poiid":"B2094757D065A7FB419B","title":"572天钥桥路辛耕路站","lon":"121.44620513","lat":"31.191003799","category":"500","category_name":"未知分类","address":"上海天钥桥路辛耕路"},{"poiid":"B2094654DA6DA2F4469D","title":"快客(斜土路)","lon":"121.44606","lat":"31.1893","category":"117","category_name":"便民商店/便利店","address":"斜土路2526"},{"poiid":"B2094752DA6CAAFF4792","title":"日月光广场","lon":"121.447923","lat":"31.189563","category":"247","category_name":"餐饮美食","address":"宝燕海鲜自助火锅"},{"poiid":"B2094750D56AA2F5459C","title":"同济杰座―同汇苑","lon":"121.4455718","lat":"31.1892414","category":"47","category_name":"住宅区","address":"同济杰座―同汇苑位于徐汇斜土路2465号"},{"poiid":"B2094757D16EA3FA449B","title":"徐汇科技进修学院","lon":"121.44489158","lat":"31.191186667","category":"500","category_name":"未知分类","address":"徐汇区南丹东路58号(斜土路口)"},{"poiid":"B2094654DA6EA2F5489D","title":"辉煌公寓(西门)","lon":"121.44777","lat":"31.19102","category":"47","category_name":"住宅区","address":"宛平南路389弄1-2号"},{"poiid":"B2094654DA6DA2FB4899","title":"爱乐大厦","lon":"121.44646","lat":"31.18799","category":"46","category_name":"楼宇","address":"零陵路631"},{"poiid":"B2094655D26EA6F44699","title":"天际花园游泳健身俱乐部","lon":"121.44462","lat":"31.19097","category":"231","category_name":"游泳馆","address":"徐汇区南丹东路99弄天际花园(近天钥桥路)"},{"poiid":"B209475CD36EA6FE4299","title":"蜀地四川香天下火锅","lon":"121.44597","lat":"31.18891","category":"86","category_name":"火锅店","address":"双峰北路1号2楼(近斜土路)"},{"poiid":"B2094757D169ABFE4099","title":"上海农科院畜牧兽医研究所动物门诊部","lon":"121.445591","lat":"31.190448","category":"500","category_name":"未知分类","address":"上海斜土路2451号"},{"poiid":"B2094757D66DA1F94492","title":"泰勒瓦","lon":"121.448184586","lat":"31.1923228899","category":"172","category_name":"酒吧","address":"上海斜土路2129号"},{"poiid":"B2094655D264ABFE459F","title":"爱谦大厦","lon":"121.44646","lat":"31.1889","category":"46","category_name":"楼宇","address":"双峰北路1"},{"poiid":"B2094757D164A6FF499C","title":"pinky 双色婚纱","lon":"121.447162","lat":"31.191116","category":"249","category_name":"购物服务","address":"上海天钥桥路380弄"},{"poiid":"B2094655D26FA5FC499F","title":"宛一物业小区","lon":"121.44816","lat":"31.19065","category":"47","category_name":"住宅区","address":"宛平南路431弄1-12号"},{"poiid":"B2094655D268A4F44698","title":"宛平南路500弄小区","lon":"121.44766","lat":"31.18943","category":"47","category_name":"住宅区","address":"宛平南路500弄"},{"poiid":"B2094757D164A2FE4292","title":"乐再乐","lon":"121.447039","lat":"31.1913","category":"500","category_name":"未知分类","address":"上海斜土路"},{"poiid":"B2094757D16CA0FE4398","title":"东影大厦","lon":"121.44555658","lat":"31.188468614","category":"46","category_name":"楼宇","address":"上海斜土路2570号"},{"poiid":"B2094750D56FA5FC459A","title":"国泰电影院","lon":"121.445716","lat":"31.192508","category":"178","category_name":"电影院","address":null},{"poiid":"B2094757D165A4FA439E","title":"柯达冲印店(斜土路店)","lon":"121.44773","lat":"31.19017","category":"611","category_name":"照相馆","address":"徐汇区天钥桥路133号(近永新坊)"},{"poiid":"B2094654DA6DA0F84392","title":"天际花园(南门)","lon":"121.44464","lat":"31.19083","category":"47","category_name":"住宅区","address":"南丹东路99弄1-22号"},{"poiid":"B2094655D26EA5F84192","title":"兴鸿咖啡","lon":"121.44684","lat":"31.19193","category":"65","category_name":"咖啡厅","address":"徐汇区宛平南路318号"},{"poiid":"B2094655D26FA6FB4592","title":"爱建城","lon":"121.44681","lat":"31.1884","category":"47","category_name":"住宅区","address":"爱建城位于徐汇上海市零陵路585号"},{"poiid":"B2094654DB64AAFC4692","title":"畅安阁养生会所","lon":"121.44603","lat":"31.18922","category":"149","category_name":"洗浴推拿场所","address":"斜土路2526"},{"poiid":"B2094654DB64AAFD4693","title":"上海市城市规划进修学院","lon":"121.44573","lat":"31.19191","category":"53","category_name":"成人教育","address":"南丹东路25"},{"poiid":"B2094654DA6DA2F4459C","title":"上海广电影视制作有限公司","lon":"121.44518","lat":"31.18856","category":"252","category_name":"楼宇机构","address":"斜土路2570"},{"poiid":"B209475DD06DAAFE439C","title":"上海环球金融中心","lon":"121.447898","lat":"31.189393","category":"500","category_name":"未知分类","address":"上海市 上海市浦东新区世纪大道100号"},{"poiid":"B2094654DB69A7F5449A","title":"爱达大厦","lon":"121.44848","lat":"31.1888","category":"46","category_name":"楼宇","address":"浦东区崂山东路410号"},{"poiid":"B2094757D66EA1F9419E","title":"南丹东路58号","lon":"121.445426286","lat":"31.1910053641","category":"500","category_name":"未知分类","address":"上海南丹东路58号"},{"poiid":"B2094654DB65A7FF489B","title":"全家便利店(宛平店)","lon":"121.4485","lat":"31.18954","category":"117","category_name":"便民商店/便利店","address":"徐汇区宛平南路487号(近辛耕路)"},{"poiid":"B2094654DA6DA0F84393","title":"快客(南丹东路)","lon":"121.44476","lat":"31.191","category":"117","category_name":"便民商店/便利店","address":"南丹东路89"},{"poiid":"B2094757D065A0F9469B","title":"7／11便利店","lon":"121.44765472","lat":"31.189409256","category":"500","category_name":"未知分类","address":"上海辛耕路"},{"poiid":"B2094655D268A4FB499F","title":"宛平南路500弄小区(东门)","lon":"121.44815","lat":"31.18953","category":"47","category_name":"住宅区","address":"宛平南路500弄"},{"poiid":"B2094655D268A4FF429A","title":"辉煌公寓","lon":"121.44817","lat":"31.191328","category":"47","category_name":"住宅区","address":"宛平南路389弄"},{"poiid":"B2094757D069AAF44798","title":"上海广电影视制作有限公司","lon":"121.44594258","lat":"31.189608636","category":"646","category_name":"文化体育类公司","address":"上海市斜土路2568号"},{"poiid":"B2094757D16EAAFB479B","title":"day day holiday(徐汇店)","lon":"121.448528386","lat":"31.1911657672","category":"500","category_name":"未知分类","address":"上海市徐汇区斜土路2200弄8号"},{"poiid":"B2094654DB64AAFD429E","title":"上海市城市规划管理干部学校","lon":"121.44573","lat":"31.19191","category":"53","category_name":"成人教育","address":"南丹东路25"},{"poiid":"B2094654DA6DA2F4469B","title":"同汇苑(后门)","lon":"121.44533","lat":"31.18913","category":"47","category_name":"住宅区","address":"斜土路2455弄"},{"poiid":"B2094654DA6DA2F44092","title":"雅舍宾馆","lon":"121.44844","lat":"31.18868","category":"250","category_name":"公园户外","address":"徐汇区宛平南路590号(近零陵路)"},{"poiid":"B2094654DB6BA5F84093","title":"王家堂小区","lon":"121.44483","lat":"31.189226","category":"47","category_name":"住宅区","address":"斜土路2561弄1-17号"},{"poiid":"B2094757D66FA7FA479D","title":"弘汇商务中心","lon":"121.44623658","lat":"31.189151627","category":"500","category_name":"未知分类","address":"上海市徐汇区斜土路2526号"},{"poiid":"B2094757D66DA1F8459D","title":"上海第一福利院","lon":"121.448525886","lat":"31.1911695673","category":"500","category_name":"未知分类","address":"徐汇区宛平南路465号(近福地大酒店)"},{"poiid":"B2094757D569A7FB4693","title":"天际花园三期-星云名座","lon":"121.444995","lat":"31.191936","category":"47","category_name":"住宅区","address":"南丹东路81号"},{"poiid":"B2094655D268A4FA4198","title":"新亚徐汇公寓(西门)","lon":"121.44605","lat":"31.18951","category":"48","category_name":"楼宇大门","address":"斜土路2526"},{"poiid":"B2094654DA6DA2FB439D","title":"地下停车库","lon":"121.44593","lat":"31.18891","category":"250","category_name":"公园户外","address":"徐家汇"},{"poiid":"B2094757D06BA6FA4592","title":"永琪美容美发(斜土路店)","lon":"121.44837","lat":"31.19091","category":"148","category_name":"美容美发店","address":"徐汇区斜土路2200弄1号(近东安路)"},{"poiid":"B2094757D165A5FE409E","title":"焦点文化","lon":"121.445085586","lat":"31.1908526611","category":"500","category_name":"未知分类","address":"上海市徐汇区宛平南路"},{"poiid":"B2094654DA6EA2F5499F","title":"中汇商务楼","lon":"121.44833","lat":"31.19196","category":"46","category_name":"楼宇","address":"斜土路2356"},{"poiid":"B2094750D56FA0F5499B","title":"上海市精神卫生中心脑残诊疗室（近2号太平间）","lon":"121.44783","lat":"31.188796","category":"500","category_name":"未知分类","address":null},{"poiid":"B2094757D16CA1FE469D","title":"高安路第一小学(宛平校区)","lon":"121.44695","lat":"31.19254","category":"56","category_name":"小学","address":"徐汇区宛平路231号(宛平南路斜土路)"},{"poiid":"B2094757D66FA3FC4192","title":"上钢街道社区服务中心","lon":"121.44521358","lat":"31.191177667","category":"500","category_name":"未知分类","address":"上海浦东昌里路"},{"poiid":"B2094757D66CABF94792","title":"姚利专利美容连锁机构","lon":"121.44739","lat":"31.19184","category":"148","category_name":"美容美发店","address":"徐汇区宛平南路295号(斜土路南丹东路间)"},{"poiid":"B2094757D16AA2FC409B","title":"葫芦娃主题桌游","lon":"121.445369386","lat":"31.1884976151","category":"248","category_name":"生活娱乐","address":"徐汇区零陵路631号爱乐大厦10楼H座(近上海体育场)"},{"poiid":"B209475DD26CA0FC469A","title":"美羅城歐風街","lon":"121.445075","lat":"31.192211","category":"47","category_name":"住宅区","address":"徐家匯美羅城"},{"poiid":"B2094655D265A0FA489A","title":"座生之道","lon":"121.44668","lat":"31.1922","category":"149","category_name":"洗浴推拿场所","address":"宛平南路308"},{"poiid":"B2094654DA6EA2F5499A","title":"上海京荣船舶设计有限公司","lon":"121.44777","lat":"31.1914","category":"263","category_name":"公司","address":"宛平南路381号宛轻商务楼"},{"poiid":"B2094654DA6DAAFA409C","title":"BoBo Kent造型设计","lon":"121.44703","lat":"31.19229","category":"148","category_name":"美容美发店","address":""},{"poiid":"B2094654DA6DA2F44593","title":"玉石公寓","lon":"121.4451","lat":"31.189096","category":"47","category_name":"住宅区","address":"斜土路2471号"},{"poiid":"B2094654DA6DA0F8439E","title":"艺流美容美发(南丹东路)","lon":"121.44417","lat":"31.19078","category":"148","category_name":"美容美发店","address":"徐汇区南丹东路105号(近天钥桥路)"},{"poiid":"B2094757D065A2FC4498","title":"苹果维修中心（飞雕国际大厦）","lon":"121.44494858","lat":"31.191973683","category":"163","category_name":"4S店","address":"上海徐汇区肇嘉浜路1065号飞雕国际大厦1001室"},{"poiid":"B2094655D268A4FA409A","title":"玉石公寓(南门)","lon":"121.44528","lat":"31.18893","category":"47","category_name":"住宅区","address":"斜土路2471"},{"poiid":"B2094757D66DA7FE409A","title":"生生之道","lon":"121.44704","lat":"31.19197","category":"149","category_name":"洗浴推拿场所","address":"徐汇区宛平南路308号(近斜土路)"},{"poiid":"B2094654DB69A5F4499F","title":"避风塘(宛平店)","lon":"121.4471","lat":"31.19285","category":"66","category_name":"茶艺馆","address":"徐汇区宛平南路275号"},{"poiid":"B2094654DA6DAAF9499B","title":"徐家汇花园(南门)","lon":"121.44761","lat":"31.192","category":"656","category_name":"大门","address":"宛平南路255弄26-28"},{"poiid":"B2094654DA6DAAF94993","title":"京世造型·美容(宛平南路)","lon":"121.44683","lat":"31.1928","category":"148","category_name":"美容美发店","address":"枫林路"},{"poiid":"B2094654DA6EA1FC4198","title":"克丽缇娜No.14202","lon":"121.44838","lat":"31.19204","category":"148","category_name":"美容美发店","address":"斜土路2356号"},{"poiid":"B2094654DB6BA5F8409C","title":"喜士多便利连锁","lon":"121.44602","lat":"31.18806","category":"117","category_name":"便民商店/便利店","address":"双峰北路4-1识别"},{"poiid":"B2094654DA6DA2FB439C","title":"上海爱建信托投资有限责任公司","lon":"121.44589","lat":"31.189","category":"263","category_name":"公司","address":""},{"poiid":"B2094654DA6EA1FC419C","title":"上海市农药研究所检测中心","lon":"121.44857","lat":"31.19201","category":"250","category_name":"公园户外","address":"斜土路2354"},{"poiid":"B2094655D26FA1F84092","title":"C多多 宛平南路店","lon":"121.446844054","lat":"31.192792793","category":"113","category_name":"冷饮店","address":"宛平南路271-1号近斜土路"},{"poiid":"B2094750DB6AA5FC479B","title":"圆圆烩面","lon":"121.446792","lat":"31.192752","category":"68","category_name":"快餐厅","address":"徐汇区宛平南路160号(近辛耕路)"},{"poiid":"B2094753D56DA5F44793","title":"徐家汇","lon":"121.444389","lat":"31.190626","category":"500","category_name":"未知分类","address":"上海市 徐家汇"},{"poiid":"B2094655D26BA3FC4492","title":"新岸录音棚","lon":"121.44746","lat":"31.18828","category":"170","category_name":"KTV","address":"徐汇区零陵路585号爱邦大厦23-D(近宛平南路)"},{"poiid":"B2094757D16AA0FD489E","title":"中国工商银行(东安路支行)","lon":"121.448692","lat":"31.188917","category":"150","category_name":"银行","address":"上海徐汇区宛平南路521号近零陵路"},{"poiid":"B2094654DA6DA2F44592","title":"洪源保健按摩厅","lon":"121.44523","lat":"31.18887","category":"149","category_name":"洗浴推拿场所","address":"徐汇区斜土路2471号(双峰北路口)"},{"poiid":"B2094757D168A2F54293","title":"jeans nail salon","lon":"121.44731","lat":"31.19255","category":"122","category_name":"个人用品/化妆品店","address":"上海徐汇区宛平南路271号(近辛耕路)  "},{"poiid":"B2094654DA6DA2F4409F","title":"小伊顿双语幼稚园","lon":"121.44846","lat":"31.18864","category":"57","category_name":"幼儿园","address":"宛平南路592"},{"poiid":"B2094757DA6EABFD459B","title":"东方网新闻中心","lon":"121.444867","lat":"31.189162","category":"263","category_name":"公司","address":"徐汇区斜土路2567号"},{"poiid":"B2094655D268A4F44798","title":"恒安阁(东门)","lon":"121.44786","lat":"31.18999","category":"656","category_name":"大门","address":"宛平南路470"},{"poiid":"B2094757D165A0FD469E","title":"佳思多食品料理店(宛平南路店)","lon":"121.44703","lat":"31.19286","category":"247","category_name":"餐饮美食","address":"上海宛平南路徐家汇花园(近斜土路)  "},{"poiid":"B2094654DA6DA2F4409C","title":"爱建设","lon":"121.44844","lat":"31.18867","category":"47","category_name":"住宅区","address":"宛平南路590"},{"poiid":"B2094654DA6DAAFA409A","title":"莎蔓莉莎美容院(宛平南路)","lon":"121.44683","lat":"31.19277","category":"148","category_name":"美容美发店","address":"徐汇区宛平南路273号(近斜土路)"},{"poiid":"B2094757D164A5FA4293","title":"广电影视制作","lon":"121.445358","lat":"31.188681","category":"500","category_name":"未知分类","address":"上海斜土路2568"},{"poiid":"B2094655D268A4F44693","title":"恒安阁(东二门)","lon":"121.44789","lat":"31.18984","category":"656","category_name":"大门","address":"宛平南路470"},{"poiid":"B2094654DA6DA0FE409F","title":"宛平南苑(东门)","lon":"121.44658","lat":"31.19234","category":"48","category_name":"楼宇大门","address":"宛平南路300弄"},{"poiid":"B2094757D464A7F44898","title":"燕之屋 徐汇店","lon":"121.446768054","lat":"31.192472793","category":"260","category_name":"其他","address":"徐汇区宛平南路291号徐家汇花园店面(近斜土路)"},{"poiid":"B2094654DA6EA1FC409E","title":"东益洋酒商行","lon":"121.44779","lat":"31.1917","category":"136","category_name":"烟酒专卖店","address":"徐汇区斜土路(近宛平南路)"},{"poiid":"B2094654DA6DA2F4459D","title":"上海科学教育电影制片厂(西部)","lon":"121.44519","lat":"31.18855","category":"63","category_name":"出版社","address":"斜土路2570"},{"poiid":"B2094757D66EA2FB429C","title":"建设银行斜土路","lon":"121.44882158","lat":"31.189588636","category":"500","category_name":"未知分类","address":"上海市徐汇区斜土路"},{"poiid":"B2094655D268A4F4469E","title":"恒安阁(东一门)","lon":"121.44805","lat":"31.18967","category":"656","category_name":"大门","address":""},{"poiid":"B2094757D66EA7FB4093","title":"四川省阿坝州九寨沟","lon":"121.44780349","lat":"31.188445764","category":"500","category_name":"未知分类","address":"苏州九寨沟口"},{"poiid":"B2094757DA69A2F5489A","title":"AIVA亚洲祛痘中心上海","lon":"121.44444","lat":"31.19025","category":"641","category_name":"化妆卫浴用品类公司","address":"南丹东路300弄"},{"poiid":"B2094654DA6DA2FB489F","title":"中国银行上海市零陵路支行","lon":"121.44694","lat":"31.18804","category":"150","category_name":"银行","address":"零陵路621"},{"poiid":"B2094757D66EAAF5449D","title":"纠结","lon":"121.448445786","lat":"31.1886426179","category":"500","category_name":"未知分类","address":"上海同上"},{"poiid":"B2094654DA6DA0FE419B","title":"上海煤气第一管线工程有限公司一分公司","lon":"121.4465","lat":"31.1928","category":"263","category_name":"公司","address":"宛平南路280"},{"poiid":"B2094654DA6EA1FC4199","title":"上海市农药研究所","lon":"121.44857","lat":"31.19202","category":"191","category_name":"科研机构","address":"斜土路2354"},{"poiid":"B2094654DA6DA2FB4392","title":"爱诺婚礼企划","lon":"121.44647","lat":"31.188","category":"248","category_name":"生活娱乐","address":"徐汇区零陵路631号爱乐大厦24层"},{"poiid":"B2094757D16DA7F4489A","title":"兰雀棋牌","lon":"121.44733429","lat":"31.1881904602","category":"248","category_name":"生活娱乐","address":"上海斜土路2356号二楼（近宛平南路口）"},{"poiid":"B2094654DB6AA3FA419B","title":"上海爱建建筑设计研究院","lon":"121.44845","lat":"31.18868","category":"191","category_name":"科研机构","address":"徐汇区宛平南路590号"},{"poiid":"B2094654DA6DA2FB489E","title":"爱建证券有限责任公司零陵路证券营业部","lon":"121.44688","lat":"31.18803","category":"219","category_name":"其他","address":"零陵路621"}]