[{"poiid":"B2094757D06FA2FF4199","title":"辛香汇(百联虹口店)","lon":"121.46732","lat":"31.27265","category":"71","category_name":"四川菜","address":"虹口区同丰路699号百联虹口购物中心4楼(近北宝兴路)"},{"poiid":"B2094757D06FA3F5439E","title":"慧芝湖花园","lon":"121.459801","lat":"31.281513","category":"47","category_name":"住宅区","address":"上海市闸北区平型关路"},{"poiid":"B2094757D06FA6FE4299","title":"广粤路","lon":"121.465333","lat":"31.281548","category":"500","category_name":"未知分类","address":"上海市广粤路广中路"},{"poiid":"B2094654D56CA3FF439A","title":"上海大学(北门)","lon":"121.45778","lat":"31.27851","category":"656","category_name":"大门","address":"广中路788"},{"poiid":"B2094757D068A1F84192","title":"普陀山海鲜酒店(广粤店)","lon":"121.46547","lat":"31.28176","category":"76","category_name":"上海菜","address":"虹口区广粤路97-99号(近广中路)"},{"poiid":"B2094757D064A0F5469C","title":"盱眙倪氏龙虾","lon":"121.46307659","lat":"31.275142231","category":"68","category_name":"快餐厅","address":"闸北区北宝兴路276号(近延长路)"},{"poiid":"B2094757D06EAAF94992","title":"巴麦隆烤肉(延长路店)","lon":"121.4633","lat":"31.27423","category":"68","category_name":"快餐厅","address":"闸北区延长路22号(北宝兴路延长路)"},{"poiid":"B2094757D06FABF44199","title":"一兆韦德(平型关路店)","lon":"121.45887","lat":"31.27952","category":"221","category_name":"健身中心","address":"闸北区平型关路1087号(近广中路)"},{"poiid":"B2094757D06AABFD449A","title":"上海大学科技楼","lon":"121.458487103","lat":"31.2776115725","category":"500","category_name":"未知分类","address":"上海市闸北区广中路"},{"poiid":"B2094757D068A7F84893","title":"餐匠韩国料理自助烤肉","lon":"121.461091","lat":"31.273771","category":"96","category_name":"韩国料理","address":"闸北区延长路123号(近平型关路)"},{"poiid":"B2094654D56DA5F4469D","title":"珊瑚苑","lon":"121.46266","lat":"31.279222","category":"47","category_name":"住宅区","address":"广中路680弄1-28号"},{"poiid":"B2094750DB64ABF84399","title":"上海梅赛德斯-奔驰文化中心","lon":"121.460708","lat":"31.278104","category":"500","category_name":"未知分类","address":"世博大道1200号"},{"poiid":"B2094654D56DA5FA4198","title":"意和家园","lon":"121.4642","lat":"31.276701","category":"47","category_name":"住宅区","address":"上海市虹口区株洲路290号"},{"poiid":"B2094757D568A1FC4892","title":"平易近水虹口珊瑚苑","lon":"121.4626611","lat":"31.27922611","category":"47","category_name":"住宅区","address":"上海市浦东新区居家桥路688弄"},{"poiid":"B2094750D76FA7FB4299","title":"绿廷苑酒店","lon":"121.465","lat":"31.2793","category":"76","category_name":"上海菜","address":"虹口区株洲路357号(近广中路)"},{"poiid":"B2094757D06AA1FF4399","title":"万峰梦湖苑","lon":"121.46288","lat":"31.282618","category":"47","category_name":"住宅区","address":"上海广灵四路881弄"},{"poiid":"B2094655D265AAF54192","title":"木房子特色烤鱼 北宝兴路店","lon":"121.464176054","lat":"31.274371793","category":"71","category_name":"四川菜","address":"闸北区北宝兴路252号(近延长路)"},{"poiid":"B2094655D36CA7F4479C","title":"广中路广粤路","lon":"121.4664","lat":"31.28015","category":"38","category_name":"公交车站","address":""},{"poiid":"B2094655D36CA5F5459D","title":"北宝兴路","lon":"121.46257","lat":"31.27997","category":"38","category_name":"公交车站","address":""},{"poiid":"B2094750D56FA5F9479E","title":"上海市虹口区人民法院","lon":"121.462226","lat":"31.276756","category":"608","category_name":"法院","address":"北宝兴路"},{"poiid":"B2094654D56DA5F4479E","title":"今生有缘美容美体旗舰店","lon":"121.46205","lat":"31.27951","category":"148","category_name":"美容美发店","address":"广中路680弄6-7号"},{"poiid":"B2094654D56CA3FD4299","title":"上海市大宁国际小学","lon":"121.46085","lat":"31.28373","category":"56","category_name":"小学","address":"闸北区北宝兴路900号(北宝兴路彭江路)"},{"poiid":"B2094757D66CA0FC409A","title":"东北大菜馆(旺秀餐饮)","lon":"121.46347","lat":"31.27503","category":"82","category_name":"东北菜","address":"闸北区延长路2号(近上海大学)"},{"poiid":"B2094757D06AA5F94298","title":"琪琪面馆","lon":"121.46451","lat":"31.27442","category":"68","category_name":"快餐厅","address":"闸北区北宝兴路296-298号(近延长路)"},{"poiid":"B2094757D06AA1FE439A","title":"川川川川菜馆 平型关路店","lon":"121.4610364434","lat":"31.274981176498","category":"71","category_name":"四川菜","address":"闸北区平型关路603号(近民晏路)"},{"poiid":"B2094654D56DA5F4469C","title":"永琪美容美发(广中路)","lon":"121.46308","lat":"31.27966","category":"148","category_name":"美容美发店","address":"广中路642"},{"poiid":"B2094654D56DA5F44692","title":"珊瑚苑(北门)","lon":"121.46286","lat":"31.27961","category":"47","category_name":"住宅区","address":"广中路680弄1-28号"},{"poiid":"B2094757D06BA0FB419D","title":"花花公主","lon":"121.463307","lat":"31.278404","category":"67","category_name":"甜品店","address":"杨浦区政民路488号(近国定路)"},{"poiid":"B2094757D069A3FF449D","title":"上海大学G3宿舍","lon":"121.4632488","lat":"31.279812318","category":"47","category_name":"住宅区","address":"上海广中路805号"},{"poiid":"B2094757D16CA6FD449B","title":"乾弘佳园","lon":"121.46376","lat":"31.278784","category":"47","category_name":"住宅区","address":"上海广中路620弄"},{"poiid":"B2094654D56DA5F44592","title":"永巍公寓","lon":"121.46414","lat":"31.279554","category":"47","category_name":"住宅区","address":"上海市虹口区广中路672号"},{"poiid":"B2094757D16CA3FC449B","title":"今生有缘SPA生活馆","lon":"121.46265","lat":"31.2794","category":"500","category_name":"未知分类","address":"闸北区广中路680弄6号(近平型关路)"},{"poiid":"B2094654D56DA5F9479D","title":"建明花苑","lon":"121.46442","lat":"31.27908","category":"47","category_name":"住宅区","address":"建明花苑位于虹口广中路666号"},{"poiid":"B2094757D06AA4FD4098","title":"大宁国际小学羽毛球馆","lon":"121.46189","lat":"31.2806","category":"253","category_name":"校园生活","address":"上海闸北区北宝兴路900号(近广中路)"},{"poiid":"B2094757D164A4FB419C","title":"如家快捷酒店 上海马戏城店","lon":"121.4572359","lat":"31.2795308","category":"217","category_name":"旅馆招待所","address":"上海市闸北区广中路809号(近平型关路)"},{"poiid":"B2094654D56DA5F4489A","title":"上大东村","lon":"121.46081","lat":"31.277655","category":"47","category_name":"住宅区","address":"平型关路801,669弄"},{"poiid":"B2094752DB6AAAFB4398","title":"阿木龙虾","lon":"121.461442","lat":"31.274998","category":"247","category_name":"餐饮美食","address":"上海市 闸北区北宝兴路167号"},{"poiid":"B2094654D56DA5FA4098","title":"三湘花苑","lon":"121.46474","lat":"31.277779","category":"47","category_name":"住宅区","address":"株洲路300弄1-12号,17-26号"},{"poiid":"B2094654D56DA5FA4999","title":"600创意工坊","lon":"121.46228","lat":"31.27607","category":"46","category_name":"楼宇","address":"闸北区北宝兴路600号(近民晏路)"},{"poiid":"B2094757D16FA5FC409D","title":"格林蓝天","lon":"121.4626681","lat":"31.279804618","category":"500","category_name":"未知分类","address":"上海广中路586弄"},{"poiid":"B2094757D16CA7FA4298","title":"Neverain Land","lon":"121.4615801","lat":"31.279356609","category":"500","category_name":"未知分类","address":"上海市中环线"},{"poiid":"B2094655D36DA7FA449F","title":"株洲路新同心路","lon":"121.46556","lat":"31.27693","category":"38","category_name":"公交车站","address":""},{"poiid":"B2094750D56EA1F9439F","title":"上海大学延长校区图书馆","lon":"121.458351","lat":"31.276903","category":"500","category_name":"未知分类","address":null},{"poiid":"B2094655D26BA1FC469E","title":"平型关路广中路","lon":"121.45822","lat":"31.28089","category":"38","category_name":"公交车站","address":""},{"poiid":"B2094654D56DA5FA4893","title":"旭阳苑","lon":"121.46098","lat":"31.276703","category":"47","category_name":"住宅区","address":"上海北宝兴路618弄"},{"poiid":"B2094654D464A5F4489E","title":"延长中路451弄小区","lon":"121.458","lat":"31.2771","category":"47","category_name":"住宅区","address":"上海延长中路451弄"},{"poiid":"B2094757D66CAAFF469D","title":"伊晨餐厅","lon":"121.46723","lat":"31.28","category":"76","category_name":"上海菜","address":"虹口区广中路551号(近广粤路)"},{"poiid":"B2094753D26CABF44992","title":"宝华城市花园","lon":"121.46569","lat":"31.278719","category":"47","category_name":"住宅区","address":"上海市 虹口区株洲路399弄"},{"poiid":"B2094655D26AA3FB479E","title":"利普职业培训学校","lon":"121.45985","lat":"31.27868","category":"247","category_name":"餐饮美食","address":"闸北区广中路698号4楼(平型关路口)"},{"poiid":"B2094757D06AA6F54799","title":"108同心路终点站","lon":"121.4650741","lat":"31.278200584","category":"500","category_name":"未知分类","address":"上海市虹口区株洲路新同心路"},{"poiid":"B2094757D76EA3FB459A","title":"王记烧烤","lon":"121.461826054","lat":"31.273692793","category":"68","category_name":"快餐厅","address":"闸北区延长路48号(近平型关路)"},{"poiid":"B2094757D66CABF8459A","title":"丸奈虚宅宅宅","lon":"121.4634221","lat":"31.279873619","category":"500","category_name":"未知分类","address":null},{"poiid":"B2094654D56DA5FC4493","title":"鑫艺琴行虹口加盟店","lon":"121.46353","lat":"31.28034","category":"255","category_name":"专卖店","address":"广中路635"},{"poiid":"B2094654D56DA5FA499A","title":"旭阳苑(东门)","lon":"121.46207","lat":"31.27647","category":"47","category_name":"住宅区","address":"北宝兴路618弄"},{"poiid":"B2094757D069A4F84799","title":"三湘明珠花苑","lon":"121.464743","lat":"31.277779","category":"47","category_name":"住宅区","address":"上海市虹口区"},{"poiid":"B2094654D56DA5FA4793","title":"上海联华生鲜食品加工配送中心有限公司","lon":"121.46116","lat":"31.27786","category":"263","category_name":"公司","address":"北宝兴路624号"},{"poiid":"B2094655D26BA4FE4592","title":"花鸟市场","lon":"121.46319","lat":"31.28122","category":"117","category_name":"便民商店/便利店","address":""},{"poiid":"B2094757D068A6F4429E","title":"乾虹佳苑","lon":"121.46552708","lat":"31.277394646","category":"47","category_name":"住宅区","address":"上海广中路620弄"},{"poiid":"B2094655D36CA5F5459C","title":"北宝兴路广中路","lon":"121.46127","lat":"31.28164","category":"38","category_name":"公交车站","address":""},{"poiid":"B2094654D56DA5F4489B","title":"上大东村(西门)","lon":"121.4596","lat":"31.27733","category":"47","category_name":"住宅区","address":"平型关路801弄、669弄"},{"poiid":"B2094654D56CA3F84592","title":"上工新邨","lon":"121.462","lat":"31.2819","category":"47","category_name":"住宅区","address":"共和新路1895弄"},{"poiid":"B2094655D26CA0FE449B","title":"吴记私房菜","lon":"121.46363","lat":"31.27469","category":"76","category_name":"上海菜","address":"闸北区延长路10号(近北宝兴路)"},{"poiid":"B2094757D065AAFC499D","title":"虹口宜家-海叶新苑","lon":"121.463729","lat":"31.281259","category":"500","category_name":"未知分类","address":"上海广中路633弄"},{"poiid":"B209475DD26DA4F54298","title":"大宁国际商业广场","lon":"121.465049","lat":"31.278583","category":"500","category_name":"未知分类","address":"上海市 闸北区共和新路"},{"poiid":"B2094654D56DA5FB469E","title":"满陆港式茶餐厅","lon":"121.4619621241","lat":"31.273795392152","category":"72","category_name":"广东菜","address":"上海闸北区延长路36号(近北宝兴路)  "},{"poiid":"B2094654D56DA5FC469C","title":"环城公寓","lon":"121.46604","lat":"31.281115","category":"47","category_name":"住宅区","address":"广中路581弄1-17号"},{"poiid":"B2094750D664A2F5459D","title":"老李羊羯子(北宝兴路店)","lon":"121.464","lat":"31.2747","category":"86","category_name":"火锅店","address":"虹口区北宝兴路182号(近凉城路)"},{"poiid":"B2094654D56DA5FA4099","title":"三湘花苑(东门)","lon":"121.46514","lat":"31.27783","category":"47","category_name":"住宅区","address":"株洲路300弄1-12号、17-26号"},{"poiid":"B2094654D56DA5F44792","title":"平广大楼","lon":"121.45937","lat":"31.27874","category":"47","category_name":"住宅区","address":"平型关路801弄14号"},{"poiid":"B2094654D56DA5FC4698","title":"可的(广中路)","lon":"121.46574","lat":"31.28041","category":"117","category_name":"便民商店/便利店","address":"虹口区广中路589号(近广粤路)"},{"poiid":"B2094655D265A2FA459C","title":"文会图书馆","lon":"121.45869","lat":"31.27705","category":"181","category_name":"图书馆","address":"大宁路"},{"poiid":"B2094757D568ABFC4898","title":"1来康茶餐厅","lon":"121.46537923","lat":"31.2761008","category":"72","category_name":"广东菜","address":"虹口区株洲路230号"},{"poiid":"B2094757D06BA4F84292","title":"国家税务局（闸北区分局）","lon":"121.46042633","lat":"31.278320312","category":"500","category_name":"未知分类","address":"上海市闸北区中山北路198号"},{"poiid":"B2094757D164ABFE459E","title":"源日本涮锅铁板烧","lon":"121.464347103","lat":"31.2750735195","category":"247","category_name":"餐饮美食","address":"上海北宝兴路280号"},{"poiid":"B2094757D165A7FB4693","title":"66路北宝兴路民晏路站","lon":"121.46300648","lat":"31.275271806","category":"38","category_name":"公交车站","address":"上海北宝兴路(近民晏路)"},{"poiid":"B2094655D265AAFA409F","title":"彩虹雨创意园","lon":"121.46382","lat":"31.27556","category":"45","category_name":"产业园区","address":"闸北区北宝兴路355号(近延长路)"},{"poiid":"B2094654D56DA5FB4392","title":"峥宸苑","lon":"121.46225","lat":"31.2749","category":"47","category_name":"住宅区","address":"上海延长路99弄"},{"poiid":"B2094655D265A3FB4192","title":"同茂兴面菜馆","lon":"121.46502","lat":"31.28217","category":"68","category_name":"快餐厅","address":"虹口区广粤路51号A18(近广中路)"},{"poiid":"B2094757D064A6FB4192","title":"城隍庙经典小吃","lon":"121.45905","lat":"31.27829","category":"68","category_name":"快餐厅","address":"闸北区平型关路(近延长路)"},{"poiid":"B2094757D06AA3FF4298","title":"广视大厦","lon":"121.46","lat":"31.2744","category":"46","category_name":"楼宇","address":"闸北区老沪太路201弄"},{"poiid":"B2094654D56DA5F44498","title":"他佳她造型","lon":"121.46669","lat":"31.27979","category":"148","category_name":"美容美发店","address":"虹口区广中路576号(近广粤路)"},{"poiid":"B2094757D16CABFA429B","title":"老北京羊羯子王","lon":"121.46442","lat":"31.27408","category":"86","category_name":"火锅店","address":"闸北区北宝兴路280号(近延长路)"},{"poiid":"B2094654D56DA5F44793","title":"平广大楼(西门)","lon":"121.45909","lat":"31.27864","category":"47","category_name":"住宅区","address":"平型关路801弄14号"},{"poiid":"B2094654DB6BA3FF449A","title":"海叶新苑虹口宜家(南门)","lon":"121.46362","lat":"31.28037","category":"656","category_name":"大门","address":"广中路633弄1-21号"},{"poiid":"B2094757D569A0FE4499","title":"磊盛足道","lon":"121.4649508","lat":"31.27887389","category":"149","category_name":"洗浴推拿场所","address":"虹口区株洲路360号(近广中路)"},{"poiid":"B2094654D56DA5F9499C","title":"上海市园林工程有限公司","lon":"121.46492","lat":"31.27827","category":"263","category_name":"公司","address":"广中路668号"},{"poiid":"B2094655D26FA0F9459E","title":"乾弘佳园(北一门)","lon":"121.46377","lat":"31.27976","category":"656","category_name":"大门","address":"广中路620弄"},{"poiid":"B2094655D264ABFD499D","title":"龙泰公寓","lon":"121.46666","lat":"31.275637","category":"46","category_name":"楼宇","address":"虹口区新同心路108弄"},{"poiid":"B2094654D56DA5F44593","title":"永巍公寓(北门)","lon":"121.4639","lat":"31.27979","category":"48","category_name":"楼宇大门","address":"广中路618"},{"poiid":"B2094757D66FA6FF469C","title":"新同心路广中路","lon":"121.467005403","lat":"31.280026023","category":"500","category_name":"未知分类","address":"上海767新同心路广中路"},{"poiid":"B2094757D66EA7F9449B","title":"上海大学延长校区行健楼","lon":"121.457138677","lat":"31.2783247504","category":"253","category_name":"校园生活","address":"上海市闸门区延长路149号上海大学行健楼"},{"poiid":"B2094655D26DABF84198","title":"乾弘佳园(北二门)","lon":"121.46299","lat":"31.27966","category":"656","category_name":"大门","address":""},{"poiid":"B2094655D26CA0FF499D","title":"慧芝湖花园(南门)","lon":"121.45963","lat":"31.27982","category":"656","category_name":"大门","address":""},{"poiid":"B2094655D36CA7F44799","title":"广中路新同心路","lon":"121.46658","lat":"31.28009","category":"38","category_name":"公交车站","address":""},{"poiid":"B2094655D265ABFF4093","title":"昌国商务楼","lon":"121.46334","lat":"31.2826","category":"46","category_name":"楼宇","address":"广粤路95-4临"},{"poiid":"B2094750D76BA0FE449C","title":"华山医院","lon":"121.466186","lat":"31.280603","category":"162","category_name":"医院","address":null},{"poiid":"B2094757D16DA4F5499D","title":"天一生水护肤养生会所","lon":"121.46511","lat":"31.27828","category":"148","category_name":"美容美发店","address":"上海静安区吴江路188号静安新时代大厦6A座(近南京西路)  "},{"poiid":"B2094655D26FA1F44499","title":"广粤路53弄小区(东门)","lon":"121.46496","lat":"31.28155","category":"47","category_name":"住宅区","address":"广粤路53弄1-43号"},{"poiid":"B2094654D56DA5F9479C","title":"三湘花苑东苑(西门)","lon":"121.46582","lat":"31.27722","category":"47","category_name":"住宅区","address":""},{"poiid":"B2094654D56DA5F94792","title":"建明花苑(东门)","lon":"121.46485","lat":"31.27933","category":"48","category_name":"楼宇大门","address":"株洲路388弄1-19号"},{"poiid":"B2094757D16CA4F8429E","title":"广中绿地","lon":"121.4590975","lat":"31.27940841","category":"500","category_name":"未知分类","address":"闸北区广延路418号(近广中路)"},{"poiid":"B2094654D56CA3FE4899","title":"欧闻美容美发沙龙延长店","lon":"121.46095","lat":"31.27379","category":"148","category_name":"美容美发店","address":""},{"poiid":"B2094757D168A3FF429F","title":"喜德棒","lon":"121.464461","lat":"31.274155","category":"247","category_name":"餐饮美食","address":"上海北宝兴路268号"},{"poiid":"B2094655D26FA0F4439B","title":"欣武大厦(北门)","lon":"121.45996","lat":"31.27931","category":"48","category_name":"楼宇大门","address":"广中路698"},{"poiid":"B2094654D56DA5FC469D","title":"环城公寓(南门)","lon":"121.46593","lat":"31.28042","category":"47","category_name":"住宅区","address":"广中路581弄1-17号"},{"poiid":"B2094757D168A2FE4698","title":"创智天地小剧场","lon":"121.4653176","lat":"31.275547029","category":"180","category_name":"剧场","address":"上海杨浦区淞沪路388号创智天地7号楼"},{"poiid":"B2094757D16EAAFC409D","title":"全家便利(马戏城店)","lon":"121.4617101","lat":"31.281945663","category":"249","category_name":"购物服务","address":"上海市闸北区广中路共和新路"},{"poiid":"B2094655D265A2FA459B","title":"夏天广场","lon":"121.4582","lat":"31.27896","category":"201","category_name":"城市广场","address":""},{"poiid":"B2094757D068A7FD4792","title":"崇文园","lon":"121.460538","lat":"31.275141","category":"500","category_name":"未知分类","address":"上海闸北区平型关路680弄"},{"poiid":"B2094654D56DA5F4449E","title":"克丽缇娜No.08025","lon":"121.46657","lat":"31.2798","category":"148","category_name":"美容美发店","address":"虹口区广中路580号"},{"poiid":"B2094757D16BABFE4598","title":"547车站","lon":"121.460980103","lat":"31.2793786095","category":"251","category_name":"出行住宿","address":"上海市虹口区广中路"},{"poiid":"B2094750D669A5F4429A","title":"慧芝湖三期","lon":"121.458213","lat":"31.279575","category":"47","category_name":"住宅区","address":"平型关路广中路"},{"poiid":"B2094757D164AAFA449C","title":"Marc's House","lon":"121.4614531","lat":"31.276429547","category":"500","category_name":"未知分类","address":"上海闸北区北宝兴路618弄3号602"},{"poiid":"B2094655D26CA0FC469B","title":"万峰梦湖苑(南门)","lon":"121.46202","lat":"31.2806","category":"656","category_name":"大门","address":""},{"poiid":"B2094655D36CA5F5459F","title":"北宝兴路民晏路","lon":"121.46324","lat":"31.27519","category":"38","category_name":"公交车站","address":""},{"poiid":"B2094655D26CA0F84698","title":"喜士多广粤门市","lon":"121.46675","lat":"31.27979","category":"117","category_name":"便民商店/便利店","address":"广中路574"},{"poiid":"B2094757D16CA2FA4498","title":"嘉悦天地","lon":"121.4579294","lat":"31.279319874","category":"500","category_name":"未知分类","address":"上海平型关路1088弄"},{"poiid":"B2094752DA6EA2F9489C","title":"段式龙虾","lon":"121.461081","lat":"31.274817","category":"247","category_name":"餐饮美食","address":"上海市 北宝兴路170号"},{"poiid":"B2094654D56DA5F4459D","title":"诹访棋牌馆","lon":"121.46421","lat":"31.27986","category":"175","category_name":"棋牌室","address":"广中路616"},{"poiid":"B2094654D56CA3FE499B","title":"香吧岛龙虾延长店","lon":"121.46126","lat":"31.27386","category":"257","category_name":"中餐厅","address":""},{"poiid":"B2094654D56DA5F44393","title":"春满园公寓南方·格林蓝天","lon":"121.46707","lat":"31.27923","category":"47","category_name":"住宅区","address":"广中路586弄"},{"poiid":"B2094753D16DA4F9499F","title":"老九龙虾","lon":"121.461219","lat":"31.274976","category":"247","category_name":"餐饮美食","address":"上海市 北宝兴路174号"},{"poiid":"B2094654D56DA5F9439B","title":"上海市虹口区第六中心小学","lon":"121.46704","lat":"31.27694","category":"56","category_name":"小学","address":"虹口区新同心路189号(同心路新同心路)"},{"poiid":"B2094750DB64A2FA499A","title":"虹口法院","lon":"121.45732169988","lat":"31.279439177906","category":"608","category_name":"法院","address":"北宝兴路531号"},{"poiid":"B2094757D16AA1F5439E","title":"久久丫鸭颈王(广中路店)","lon":"121.46673","lat":"31.27954","category":"247","category_name":"餐饮美食","address":"上海虹口区广中路590号(近广粤路)  "},{"poiid":"B2094757D66DA7FC4692","title":"杰克造型","lon":"121.4638911","lat":"31.276171542","category":"148","category_name":"美容美发店","address":"上海株洲路246號"},{"poiid":"B2094757D169A3F9479E","title":"东方浮庭","lon":"121.46097968","lat":"31.27798058","category":"260","category_name":"其他","address":"上海陆家嘴轨交站"},{"poiid":"B2094757D66FA2F44098","title":"韩林烧烤","lon":"121.463685803","lat":"31.2752634234","category":"247","category_name":"餐饮美食","address":"上海同丰路"},{"poiid":"B2094757D064A1F4409A","title":"平型关路","lon":"121.462512","lat":"31.275173","category":"500","category_name":"未知分类","address":"上海民晏路"},{"poiid":"B2094757D16EA0FE4592","title":"彭江医院","lon":"121.461797103","lat":"31.284377714","category":"162","category_name":"医院","address":"上海市闸北区彭江路51号"},{"poiid":"B2094757D06BA2FB4498","title":"新招鲜","lon":"121.46321052","lat":"31.274461966","category":"500","category_name":"未知分类","address":"上海延长路北宝兴路"},{"poiid":"B2094757D16FA2FA4193","title":"腾欢车饰","lon":"121.459807","lat":"31.276306","category":"163","category_name":"4S店","address":"上海平型关路746号"},{"poiid":"B2094757DB6DA1FC4198","title":"宝华城市花园","lon":"121.459467","lat":"31.277916","category":"251","category_name":"出行住宿","address":"株州路399弄"},{"poiid":"B209475CDB6FA1F4469F","title":"上海大学秋实楼","lon":"121.457565","lat":"31.278762","category":"500","category_name":"未知分类","address":"上海市 广中路788号"},{"poiid":"B2094753D265AAFE489A","title":"炭路者串烤(延长路店)","lon":"121.461941","lat":"31.273737","category":"96","category_name":"韩国料理","address":"闸北区延长路50号"},{"poiid":"B2094654D56DA5F4499F","title":"可的(平型关路)","lon":"121.46102","lat":"31.27494","category":"117","category_name":"便民商店/便利店","address":"闸北区平型关路605号(民晏路平型关路)"},{"poiid":"B2094654D56DA5FB4693","title":"文峰美发美容延长店","lon":"121.46363","lat":"31.27452","category":"148","category_name":"美容美发店","address":"共和新路"},{"poiid":"B2094757D06AA0F9459E","title":"延铁小区","lon":"121.458","lat":"31.2762","category":"47","category_name":"住宅区","address":"上海延长中路500弄"},{"poiid":"B2094654D56DA5F44893","title":"平型关路615弄小区(西门)","lon":"121.46094","lat":"31.2751","category":"47","category_name":"住宅区","address":"平型关路615弄"},{"poiid":"B2094654DB69A7F54798","title":"中兴影剧场","lon":"121.457544","lat":"31.278196","category":"178","category_name":"电影院","address":"中兴路1577号"},{"poiid":"B2094757D16EA5FC459B","title":"延长路平型关路路口烧烤","lon":"121.4603481","lat":"31.276214543","category":"500","category_name":"未知分类","address":"上海市闸北区延长路123号(苏武牧羊斜对面)"},{"poiid":"B2094655D26CA7FE439E","title":"中国移动延长路营业厅","lon":"121.46334","lat":"31.27451","category":"151","category_name":"电讯营业厅","address":""},{"poiid":"B2094757D569A2FB459E","title":"土阿毛桌游","lon":"121.460159","lat":"31.275775","category":"248","category_name":"生活娱乐","address":"平型关路718"},{"poiid":"B2094655D265AAFA499B","title":"图书馆","lon":"121.45876","lat":"31.27628","category":"181","category_name":"图书馆","address":"大宁路"},{"poiid":"B2094750D26DA4FE449E","title":"伊诺咖啡 株洲路店 Y.N.C COFFEE","lon":"121.465515","lat":"31.278875","category":"260","category_name":"其他","address":"虹口区株洲路379号(近广中路)"},{"poiid":"B2094757D56DA2F8469B","title":"韩林炭烤 北宝兴路店","lon":"121.4643048","lat":"31.2746797","category":"247","category_name":"餐饮美食","address":"北宝兴路288号近延长路"},{"poiid":"B2094757D165AAFD4592","title":"上海理工大学图书馆(南汇校区)","lon":"121.457719903","lat":"31.2786357939","category":"181","category_name":"图书馆","address":"上海拱极路3800号"},{"poiid":"B2094655D26FA1F5479E","title":"崇文园(东门)","lon":"121.46053","lat":"31.27514","category":"47","category_name":"住宅区","address":"平型关路680弄"},{"poiid":"B2094654D56DA5FB449A","title":"快客No.6729","lon":"121.46254","lat":"31.27453","category":"117","category_name":"便民商店/便利店","address":"延长路101"},{"poiid":"B2094655D26FA0F94599","title":"东广大厦(北门)","lon":"121.46736","lat":"31.27973","category":"49","category_name":"无中心点楼宇大门","address":"广中路568"},{"poiid":"B2094757D168A1FD4093","title":"梦湖苑","lon":"121.4618361","lat":"31.283070686","category":"500","category_name":"未知分类","address":"上海市广灵四路881弄广粤路口"},{"poiid":"B2094655D26DA4FF459D","title":"好德便利No.685","lon":"121.46347","lat":"31.2746","category":"117","category_name":"便民商店/便利店","address":"延长路20"},{"poiid":"B2094655D265A2FA449E","title":"CD宠物","lon":"121.46532","lat":"31.27644","category":"129","category_name":"宠物用品店","address":"株洲路248"},{"poiid":"B2094655D265A5FE409C","title":"湘阁里辣","lon":"121.46459","lat":"31.27412","category":"77","category_name":"湖南菜","address":"上海闸北区北宝兴路258号(近延长路)  "},{"poiid":"B2094655D265A7FA4892","title":"上海第五季","lon":"121.4653","lat":"31.28294","category":"47","category_name":"住宅区","address":"上海第五季位于虹口广粤路108号"},{"poiid":"B2094757D16FA2FE4998","title":"上海银都会Sliver City Club","lon":"121.4593871","lat":"31.281205647","category":"500","category_name":"未知分类","address":"上海市闵行区银都路银都名墅内"},{"poiid":"B2094757D064AAF5409E","title":"株洲路","lon":"121.465009703","lat":"31.2758472356","category":"500","category_name":"未知分类","address":"上海株洲路.城城金岛苑"},{"poiid":"B2094655D26EA2F94292","title":"慧芝湖花园(北门)","lon":"121.45817","lat":"31.28172","category":"656","category_name":"大门","address":"平型关路1083弄"},{"poiid":"B2094654D56CA3FF419E","title":"金切大楼","lon":"121.46088","lat":"31.27432","category":"46","category_name":"楼宇","address":"民晏路122"},{"poiid":"B2094655D264AAFB499B","title":"上海市建智建设工程咨询人才培训中心","lon":"121.46381","lat":"31.27556","category":"190","category_name":"培训机构","address":"北宝兴路355号"},{"poiid":"B2094654D56DA5FC4893","title":"广中小区(南门)","lon":"121.46742","lat":"31.28027","category":"47","category_name":"住宅区","address":"广中路547-561弄"},{"poiid":"B2094654D56DA5FC4892","title":"广中小区","lon":"121.46733","lat":"31.28098","category":"47","category_name":"住宅区","address":"广中路547弄-561弄"},{"poiid":"B2094757D568A7FA469D","title":"联华超市平型关路店","lon":"121.4607461","lat":"31.2749","category":"117","category_name":"便民商店/便利店","address":"闸北区平型关路662号(近民晏路)"},{"poiid":"B2094654D56DA5FA4199","title":"意和家园(东门)","lon":"121.46531","lat":"31.27667","category":"48","category_name":"楼宇大门","address":"株洲路258弄"},{"poiid":"B2094655D36DA0F84399","title":"延长路北宝兴路","lon":"121.46191","lat":"31.27401","category":"38","category_name":"公交车站","address":""},{"poiid":"B2094654D56CA3FD4298","title":"罗森(平型关路)","lon":"121.45816","lat":"31.28207","category":"117","category_name":"便民商店/便利店","address":"闸北区平型关路1105号"},{"poiid":"B2094654D56DA5FA4798","title":"上海市第一市政工程有限公司","lon":"121.4628","lat":"31.27571","category":"263","category_name":"公司","address":"北宝兴路511"},{"poiid":"B2094750D565A0F4499D","title":"杭州","lon":"121.459213","lat":"31.280603","category":"627","category_name":"一般地点标志","address":"西湖大道"},{"poiid":"B2094757DA6EAAF8439A","title":"上海腾欢汽车美容有限公司","lon":"121.459705999999","lat":"31.2764509999998","category":"263","category_name":"公司","address":"闸北区平型关路760号"},{"poiid":"B2094757D06BA4FE4292","title":"上海银行广中路支行","lon":"121.467596","lat":"31.279756","category":"500","category_name":"未知分类","address":"闸北区广中路879号(近共和新路)"},{"poiid":"B2094757D164A1F8499C","title":"彭浦新村场中路2471弄","lon":"121.4606614","lat":"31.275446827","category":"500","category_name":"未知分类","address":"上海彭浦新村场中路2471弄"},{"poiid":"B2094757D66CAAF54898","title":"好德便利(店广中路店)","lon":"121.46757","lat":"31.27996","category":"117","category_name":"便民商店/便利店","address":"虹口区广中路549号(近新同心路)"},{"poiid":"B2094757D16EA6FB4593","title":"慧芝湖三期售楼处","lon":"121.4582491","lat":"31.281187647","category":"500","category_name":"未知分类","address":"上海市闸北区共和新路"},{"poiid":"B2094654D56DA5F54093","title":"浣纱理发店","lon":"121.46157","lat":"31.27418","category":"148","category_name":"美容美发店","address":"平型关路559"},{"poiid":"B2094757D66FA2FB4792","title":"上海健桥医院","lon":"121.4619321","lat":"31.273807493","category":"162","category_name":"医院","address":"闸北区平型关路453号健桥医院1楼(近闸北公园)"},{"poiid":"B2094757D169A4FE459E","title":"城城金岛苑","lon":"121.4651","lat":"31.27499","category":"500","category_name":"未知分类","address":"上海市徐汇区漕溪北路737号"},{"poiid":"B2094757D164A0F94592","title":"海王星辰药房(平型关路店)","lon":"121.46197","lat":"31.27383","category":"162","category_name":"医院","address":"闸北区平型关路551号(平型关路延长路)"},{"poiid":"B2094757D16EA5FA449F","title":"108车站","lon":"121.459073","lat":"31.278556","category":"251","category_name":"出行住宿","address":"上海平型关路广中路"},{"poiid":"B2094757D164A6F4499A","title":"大瀚足疗","lon":"121.463556","lat":"31.274553","category":"148","category_name":"美容美发店","address":"上海真华路1110号-1"},{"poiid":"B2094757D068A7FA429B","title":"公交66路民晏路终点站","lon":"121.464469","lat":"31.274002","category":"500","category_name":"未知分类","address":"上海民晏路 北宝兴路 路口"},{"poiid":"B2094655D26CA0FC4698","title":"万峰梦湖苑(西门)","lon":"121.46155","lat":"31.28177","category":"656","category_name":"大门","address":""},{"poiid":"B2094654D56CA3FF409C","title":"平延菜市场","lon":"121.4609","lat":"31.27405","category":"117","category_name":"便民商店/便利店","address":"闸北区平型关路610号(近上海大学)"},{"poiid":"B2094750DA6EABFD4598","title":"上海大学机械楼","lon":"121.458419","lat":"31.276077","category":"500","category_name":"未知分类","address":null},{"poiid":"B2094654D56DA5F4449A","title":"春满园公寓南方·格林蓝天(北门)","lon":"121.46714","lat":"31.27973","category":"48","category_name":"楼宇大门","address":"广中路586弄"},{"poiid":"B2094654D56DA5F4439F","title":"上海银行上财支行营业部","lon":"121.46755","lat":"31.27976","category":"150","category_name":"银行","address":"广中路566号"},{"poiid":"B2094655D26DA6F84193","title":"海叶新苑虹口宜家(东门)","lon":"121.46491","lat":"31.28096","category":"656","category_name":"大门","address":""},{"poiid":"B2094757D16CA6F4429F","title":"上海移动通信(延长路营业厅)","lon":"121.4634","lat":"31.27431","category":"249","category_name":"购物服务","address":"上海闸北区延长路24-26号(近平型关路)  "},{"poiid":"B2094757D66CA0F8459A","title":"广中路581弄环城公寓","lon":"121.467574103","lat":"31.2796506151","category":"500","category_name":"未知分类","address":"上海环城公寓"},{"poiid":"B2094757D66DA3F5469B","title":"垚森商务楼","lon":"121.462724683","lat":"31.2834194439","category":"252","category_name":"楼宇机构","address":"上海广粤路95号10栋"},{"poiid":"B2094757D064A2F44192","title":"星诗梦莹's home","lon":"121.466878103","lat":"31.2762645444","category":"500","category_name":"未知分类","address":null},{"poiid":"B2094655D26CA1FF409C","title":"A车美饰汽车装潢美容","lon":"121.46714","lat":"31.27635","category":"159","category_name":"汽车维修","address":"新同心路186号"},{"poiid":"B2094757D16BA3FC4092","title":"龙之捷桌球俱乐部","lon":"121.461285","lat":"31.273905","category":"500","category_name":"未知分类","address":"上海平型关路 近延长路"},{"poiid":"B2094757D165ABFE4699","title":"回力球鞋","lon":"121.4615556","lat":"31.273790492","category":"500","category_name":"未知分类","address":"闸北区延长路156号(近上海大学)"},{"poiid":"B2094757D164A6FB419B","title":"恒毅室内攀岩馆金桥馆","lon":"121.462667203","lat":"31.2735794882","category":"500","category_name":"未知分类","address":"上海金高路1777号金桥文体中心二楼"},{"poiid":"B2094757D16BA7FB499F","title":"车美饰","lon":"121.461957603","lat":"31.2736985907","category":"249","category_name":"购物服务","address":"上海新同心路186号"},{"poiid":"B2094757D164ABF8469A","title":"鸿飞模型","lon":"121.46695","lat":"31.27969","category":"260","category_name":"其他","address":"虹口区广中路633弄3号601室(近广粤路)"},{"poiid":"B2094654D56DA5FA429D","title":"城城金岛苑(东门)","lon":"121.4654","lat":"31.275","category":"48","category_name":"楼宇大门","address":""},{"poiid":"B2094654D56DA5FB4393","title":"峥宸苑(南门)","lon":"121.4626","lat":"31.27456","category":"656","category_name":"大门","address":"延长路99弄"},{"poiid":"B2094654D56DA5FB4292","title":"峥宸苑(北门)","lon":"121.46181","lat":"31.27472","category":"656","category_name":"大门","address":""},{"poiid":"B2094654D56DA5FB4699","title":"嘉利明珠城(北门)","lon":"121.46286","lat":"31.27408","category":"656","category_name":"大门","address":"延长路38号"}]