[{"poiid":"B2094654DB69A4F4479D","title":"纯k（浙江路店）","lon":"121.48193","lat":"31.22918","category":"170","category_name":"KTV","address":"黄浦区浙江南路68号(近宁海东路)"},{"poiid":"B2094750DA68ABFE4898","title":"台北纯K(浙江路店)","lon":"121.482363726181","lat":"31.2290736899797","category":"170","category_name":"KTV","address":"黄浦区浙江南路68号(宁海东路口)"},{"poiid":"B2094757D06FA0FE429E","title":"云南路美食街","lon":"121.481732","lat":"31.226457","category":"68","category_name":"快餐厅","address":"黄浦区云南南路(近延安东路)"},{"poiid":"B2094753D76FAAFA449C","title":"上海滩国泰旗舰店","lon":"121.466011","lat":"31.216125","category":"249","category_name":"购物服务","address":"淮海中路868号"},{"poiid":"B209475CD564A7F84292","title":"上海滩新天地店","lon":"121.47463","lat":"31.22164","category":"119","category_name":"商场","address":"\"太仓路181弄新天地北里15号\r\n\""},{"poiid":"B209475CD564A7F8439E","title":"上海滩中信泰富店","lon":"121.45602","lat":"31.22851","category":"119","category_name":"商场","address":"\"南京西路1168号中信泰富广场，店铺号221.\r\n\""},{"poiid":"B209475CD564A7F84392","title":"上海滩浦东香格里拉店","lon":"121.50058","lat":"31.23634","category":"119","category_name":"商场","address":"浦东富成路33号香格里拉酒店内大堂层"},{"poiid":"B2094757D06FA2F5469D","title":"大壶春(云南南路店)","lon":"121.48114","lat":"31.2273","category":"68","category_name":"快餐厅","address":"黄浦区云南南路71号(近金陵东路)"},{"poiid":"B209475DD265A2FD469C","title":"很久以前只是家串店","lon":"121.481468","lat":"31.22673","category":"257","category_name":"中餐厅","address":"上海市 云南南路180号"},{"poiid":"B2094757D16EA1FC489E","title":"淮海东路","lon":"121.48358873","lat":"31.227366239","category":"500","category_name":"未知分类","address":"上海淮海东路"},{"poiid":"B2094757D46DABF54399","title":"甜心皇后 淮海东路店 Sweet Queen","lon":"121.482449","lat":"31.226318","category":"67","category_name":"甜品店","address":"黄浦区淮海东路49号东淮海国际大厦内(近云南南路)"},{"poiid":"B2094750DA6CA6FC4198","title":"台北纯k","lon":"121.483436","lat":"31.22928","category":"500","category_name":"未知分类","address":"浙江南路68号"},{"poiid":"B2094757D06FA1F54598","title":"德兴馆(金陵路店)","lon":"121.48173","lat":"31.2273","category":"76","category_name":"上海菜","address":"黄浦区金陵东路416号1楼(广西南路金陵东路)"},{"poiid":"B2094757D068A4FD469A","title":"金陵东路浙江南路","lon":"121.482636","lat":"31.22811","category":"38","category_name":"公交车站","address":"上海金陵东路浙江南路"},{"poiid":"B2094757D068A6FF4598","title":"延福绿地篮球场","lon":"121.48202","lat":"31.22915","category":"220","category_name":"运动场所","address":"黄浦区延安东路(近福建南路)"},{"poiid":"B2094750D76FA4FD4598","title":"朵巴创意西域料理","lon":"121.482","lat":"31.2264","category":"90","category_name":"清真餐馆","address":"卢湾区淮海东路49号东淮海国际大厦104室(近地铁8号线大世界站)"},{"poiid":"B2094654DA6EA6FA409B","title":"金陵东路营业厅","lon":"121.48404","lat":"31.2287","category":"151","category_name":"电讯营业厅","address":"黄浦区金陵东路391号"},{"poiid":"B2094757D069A3F9429D","title":"人民路","lon":"121.483271","lat":"31.225704","category":"500","category_name":"未知分类","address":"上海人民路"},{"poiid":"B2094757DB6EA7FA439F","title":"上海中星君亭酒店（原上海中星大酒店）","lon":"121.4833999","lat":"31.22669372","category":"75","category_name":"浙江菜","address":"黄浦区人民路839号(近浙江南路)"},{"poiid":"B2094750D76DA7FD429C","title":"宝寿司(广西南路店)","lon":"121.482","lat":"31.2267","category":"95","category_name":"日本料理","address":"黄浦区广西南路98号(近淮海东路)"},{"poiid":"B2094757D06FA6FB409C","title":"自力教育(淮海东路总校)","lon":"121.48167","lat":"31.22623","category":"260","category_name":"其他","address":"黄浦区云南南路180号淮云大厦14楼(淮海东路口)"},{"poiid":"B2094757D064A7FA449D","title":"群力中医门诊部","lon":"121.48233","lat":"31.22767","category":"162","category_name":"医院","address":"上海黄浦区金陵东路396号  "},{"poiid":"B2094757D06FA7FF4199","title":"85度C(淮海店)","lon":"121.481985209","lat":"31.2262435593","category":"112","category_name":"糕饼店","address":"上海黄浦区淮海东路60号(近云南南路)"},{"poiid":"B2094655D268A5FF499A","title":"东淮海国际大厦","lon":"121.4824","lat":"31.22617","category":"46","category_name":"楼宇","address":"淮海东路45-49"},{"poiid":"B2094654DB6AA6FF4492","title":"上海新黄浦酒店公寓","lon":"121.48145","lat":"31.22835","category":"214","category_name":"四星级宾馆","address":"浦发绿城位于浦东浦发绿城永泰路2079弄"},{"poiid":"B2094654DA6EA6FA4998","title":"重庆鸡公煲(云南南路)","lon":"121.48172","lat":"31.22646","category":"71","category_name":"四川菜","address":"黄浦区云南南路3号(近延安东路)"},{"poiid":"B2094654DB6AA6FF479D","title":"上海中星大酒店","lon":"121.48469","lat":"31.22758","category":"214","category_name":"四星级宾馆","address":"人民路839号"},{"poiid":"B2094757DB68A5FB4593","title":"东北人家","lon":"121.482361","lat":"31.225854","category":"82","category_name":"东北菜","address":"黄浦区云南南路295号(近淮海路)"},{"poiid":"B2094750DA6DA7F4489D","title":"寿宁路23号长寿面馆","lon":"121.483512","lat":"31.227197","category":"247","category_name":"餐饮美食","address":null},{"poiid":"B2094757D068A1F44693","title":"中国人寿保险股份有限公司上海市分公司 中国人寿大厦","lon":"121.482635","lat":"31.225897","category":"46","category_name":"楼宇","address":"上海黄浦区人民路858号"},{"poiid":"B2094757D56EA6F8409E","title":"大麦售票处（宁海路申鑫大厦）","lon":"121.48169875145","lat":"31.2291054861415","category":"248","category_name":"生活娱乐","address":"上海市黄浦区宁海东路200号8楼"},{"poiid":"B2094654DB64ABFC4592","title":"新世界假日豪都酒店","lon":"121.48165","lat":"31.22786","category":"250","category_name":"公园户外","address":"黄浦区广西南路41号(近金陵东路)"},{"poiid":"B2094757D068A3FD469A","title":"埃洛美甲","lon":"121.482538","lat":"31.229008","category":"149","category_name":"洗浴推拿场所","address":"上海浙江南路69号"},{"poiid":"B2094654DA6EA5FC479D","title":"中国人寿大厦","lon":"121.48263","lat":"31.22589","category":"46","category_name":"楼宇","address":"人民路858"},{"poiid":"B2094655D26AAAFA4492","title":"上游社会桌游俱乐部","lon":"121.48243","lat":"31.22873","category":"248","category_name":"生活娱乐","address":"黄浦区浙江南路88号东新大厦216商铺(近宁海东路)"},{"poiid":"B2094757D06BA7FA489B","title":"成昌园子店","lon":"121.481348","lat":"31.227146","category":"68","category_name":"快餐厅","address":"黄浦区云南南路87号(近金陵中路)"},{"poiid":"B2094654DA6EA6FD449D","title":"钱柜(浪达包装(上海)有限公司东)","lon":"121.48193","lat":"31.22918","category":"170","category_name":"KTV","address":"浙江南路68"},{"poiid":"B2094757D468A0FE4598","title":"晓贤生煎 云南南路店","lon":"121.48174","lat":"31.22643","category":"68","category_name":"快餐厅","address":"黄浦区云南南路147号(近淮海东路)"},{"poiid":"B2094654DA6EA6F54093","title":"新亚大包 云南南路","lon":"121.48190516493","lat":"31.22635464802","category":"68","category_name":"快餐厅","address":"黄浦区云南南路261号(近淮海东路)"},{"poiid":"B2094654DB6AA3F5409D","title":"图门郎特色烧烤(云南南路店)","lon":"121.4816","lat":"31.22662","category":"247","category_name":"餐饮美食","address":"黄浦区云南南路127号(近金陵东路)"},{"poiid":"B2094757D06AA2FB469E","title":"沁园 金陵东路店","lon":"121.480513054","lat":"31.226986793","category":"67","category_name":"甜品店","address":"黄浦区金陵东路452号(近云南南路)"},{"poiid":"B2094654DA6EA6FA449F","title":"福星大厦","lon":"121.48196","lat":"31.22746","category":"46","category_name":"楼宇","address":"黄浦区外滩23号,中山东一路,南京东路"},{"poiid":"B2094655D36CA0F5429D","title":"淮海东路云南南路","lon":"121.48279","lat":"31.22667","category":"38","category_name":"公交车站","address":""},{"poiid":"B2094757D465A4FC469D","title":"吉昌桂林米粉 广西南路店","lon":"121.482224054","lat":"31.226701793","category":"68","category_name":"快餐厅","address":"黄浦区广西南路48号(宁海路口)"},{"poiid":"B2094757D16FA3FA4693","title":"旺比面馆","lon":"121.48369723","lat":"31.227581243","category":"68","category_name":"快餐厅","address":"黄浦区浙江南路(金陵东路口)"},{"poiid":"B2094753DB6CA5F9489B","title":"稻香","lon":"121.484268","lat":"31.227146","category":"247","category_name":"餐饮美食","address":"上海市 环贸广场iapm3楼301"},{"poiid":"B2094757D069A7FD4998","title":"Kevin造型(云南南路店)","lon":"121.4818","lat":"31.22611","category":"148","category_name":"美容美发店","address":"黄浦区云南南路188号(近淮海东路)"},{"poiid":"B2094654DA6EA6FF4499","title":"台园圆圆香云吞(浙江南路)","lon":"121.48259","lat":"31.22893","category":"68","category_name":"快餐厅","address":"黄浦区浙江南路75号(近延安东路)"},{"poiid":"B2094654DA6EA6F84793","title":"中国移动金陵东路营业厅","lon":"121.48207","lat":"31.22794","category":"151","category_name":"电讯营业厅","address":"黄浦区金陵东路396号"},{"poiid":"B2094757D664A7F8449C","title":"台湾原汁原味牛肉面","lon":"121.48246","lat":"31.22653","category":"68","category_name":"快餐厅","address":"黄浦区淮海东路30号(近广西南路)"},{"poiid":"B2094757D065A0FF4992","title":"寿宁路魏式烧烤","lon":"121.48398445","lat":"31.229025034","category":"247","category_name":"餐饮美食","address":"上海寿宁路西藏路"},{"poiid":"B2094757D064A1F94293","title":"云南刘园过桥米线馆","lon":"121.48404","lat":"31.22937","category":"68","category_name":"快餐厅","address":"黄浦区福建南路64号(近宁海东路)"},{"poiid":"B2094757D069A5F94099","title":"翔鹰栗子(淮海路总店)","lon":"121.48227","lat":"31.22607","category":"68","category_name":"快餐厅","address":"卢湾区淮海东路52号(云南南路口)"},{"poiid":"B2094750D665A0F84592","title":"必胜宅急送(人民路店)","lon":"121.483","lat":"31.2264","category":"94","category_name":"西餐厅","address":"黄浦区人民路818号(人民路永寿路)"},{"poiid":"B2094752D46DA7FA449C","title":"酒吞","lon":"121.48416","lat":"31.227901","category":"247","category_name":"餐饮美食","address":"虹井路280弄"},{"poiid":"B2094751D36AA3FC429F","title":"酩宴海鲜宵夜","lon":"121.4825","lat":"31.22627","category":"76","category_name":"上海菜","address":"黄浦区淮海东路45号1楼(近云南南路)"},{"poiid":"B2094750D664AAFF449E","title":"黄鱼面","lon":"121.483","lat":"31.2294","category":"68","category_name":"快餐厅","address":"黄浦区宁海东路143号(近浙江中路)"},{"poiid":"B2094757D569A7FC469E","title":"七号会所","lon":"121.48195557","lat":"31.22745443","category":"72","category_name":"广东菜","address":"黄浦区金陵东路507号(广西南路口)"},{"poiid":"B2094757D465A1F8429C","title":"新黄浦酒家","lon":"121.482281054","lat":"31.227978793","category":"76","category_name":"上海菜","address":"永寿路88号新黄浦公寓2楼近金陵东路"},{"poiid":"B2094757D16FA1F8499C","title":"吉乐香吧岛","lon":"121.48295073","lat":"31.225625202","category":"247","category_name":"餐饮美食","address":"上海市黄浦区云南南路370号"},{"poiid":"B2094655D26BAAFD479E","title":"济南路8号","lon":"121.485","lat":"31.2277","category":"47","category_name":"住宅区","address":"上海市卢湾区济南路8号"},{"poiid":"B2094654DA6EA6FA4693","title":"柏斯琴行(金陵东路)","lon":"121.4812","lat":"31.22723","category":"255","category_name":"专卖店","address":"黄浦区金陵东路547-553号1楼(近西藏南路)"},{"poiid":"B2094655D36DA7FE459A","title":"浙江南路","lon":"121.48255","lat":"31.22887","category":"38","category_name":"公交车站","address":""},{"poiid":"B2094757D069AAFA439F","title":"建设银行黄浦支行公积金(南市)","lon":"121.4819262","lat":"31.2263009","category":"46","category_name":"楼宇","address":"上海淮海东路85号2F"},{"poiid":"B2094655D36CA6FF479A","title":"福建路金陵东路","lon":"121.48475","lat":"31.22866","category":"38","category_name":"公交车站","address":""},{"poiid":"B2094655D26FA1FD4699","title":"上海展中商业大厦","lon":"121.4823","lat":"31.22636","category":"46","category_name":"楼宇","address":"黄浦区淮海东路49号"},{"poiid":"B2094757D069A7F9479D","title":"黑泽(金陵东路旗舰店)","lon":"121.482999","lat":"31.228002","category":"113","category_name":"冷饮店","address":"上海黄浦区金陵东路465号"},{"poiid":"B2094654DA6EA6F8429E","title":"金陵商厦","lon":"121.48239","lat":"31.22827","category":"46","category_name":"楼宇","address":"上海市黄浦区金陵东路368号"},{"poiid":"B209475DD665A4FB4999","title":"K11 购物艺术中心","lon":"121.484909","lat":"31.227991","category":"249","category_name":"购物服务","address":"上海市 上海"},{"poiid":"B2094654DA6EA6F4439D","title":"百联房产云南南路大楼","lon":"121.482","lat":"31.22599","category":"46","category_name":"楼宇","address":"云南南路261"},{"poiid":"B2094757D169AAFC489A","title":"新亞大包","lon":"121.482778","lat":"31.226676","category":"247","category_name":"餐饮美食","address":"上海雲南南路淮海東路口"},{"poiid":"B2094757DA65A5F44399","title":"上海海之星假日酒店","lon":"121.482352","lat":"31.227392","category":"216","category_name":"经济型连锁酒店","address":"黄浦区金陵东路491号(近永寿路)"},{"poiid":"B2094655D264A7F4439B","title":"勤Surprise专业造型","lon":"121.48243","lat":"31.22679","category":"148","category_name":"美容美发店","address":"广西南路85"},{"poiid":"B2094757D065A4FB4592","title":"可园SPA","lon":"121.48139181","lat":"31.227375134","category":"500","category_name":"未知分类","address":"上海金陵东路418号"},{"poiid":"B2094752D56EA3FC429B","title":"上海外灘","lon":"121.483994","lat":"31.227915","category":"500","category_name":"未知分类","address":null},{"poiid":"B2094654DB6BA4F8439C","title":"林林餐厅(浙江南路)","lon":"121.48255","lat":"31.22897","category":"76","category_name":"上海菜","address":"黄浦区浙江南路71号(近延安东路)"},{"poiid":"B209475CD464AAF44293","title":"几分甜淮海店","lon":"121.481801","lat":"31.226376","category":"67","category_name":"甜品店","address":"黄浦区淮海东路60号"},{"poiid":"B2094757D66BA6F9479A","title":"豪都大酒店","lon":"121.4816639125","lat":"31.227365656961","category":"76","category_name":"上海菜","address":"广西南路41号(近云南路小吃街)"},{"poiid":"B2094752DB69A6F5429E","title":"慧缘素食坊","lon":"121.482122","lat":"31.226302","category":"247","category_name":"餐饮美食","address":"上海市 淮海东路49号"},{"poiid":"B209475CD76BA6FF419A","title":"ET剧场","lon":"121.483695","lat":"31.227186","category":"500","category_name":"未知分类","address":"上海市 延安东路云南路"},{"poiid":"B2094757D66CAAFB4699","title":"扬州大学","lon":"121.481796265","lat":"31.2266807556","category":"671","category_name":"高校中心点","address":"扬州市大学南路80号"},{"poiid":"B2094654DA6EA6FA479D","title":"上海冠生园商厦","lon":"121.48136","lat":"31.22718","category":"46","category_name":"楼宇","address":"云南南路101号冠生园商厦6层"},{"poiid":"B209475CD16DA4FF479F","title":"德兴面馆 金陵东路店","lon":"121.48146","lat":"31.22757","category":"87","category_name":"特色／地方风味餐厅","address":"金陵东路416号1楼(广西南路金陵东路)"},{"poiid":"B2094757D06AA4F8499C","title":"中国工商银行(金陵东路支行)","lon":"121.481083703","lat":"31.2274185348","category":"150","category_name":"银行","address":"黄浦区金陵东路428号近云南南路(金陵东路云南南路)"},{"poiid":"B2094757D16EA1FA4799","title":"926路淮海东路云南南路站","lon":"121.48297568","lat":"31.2261755514","category":"38","category_name":"公交车站","address":"上海市黄浦区淮海东路16号"},{"poiid":"B2094757D164A6F5409F","title":"亚龙国际广场7楼奥银地产","lon":"121.481093638","lat":"31.2275931439","category":"46","category_name":"楼宇","address":"上海金陵东路500号7楼"},{"poiid":"B2094757DB68A3F9469D","title":"舒友海鲜大酒店","lon":"121.484345470297","lat":"31.22915698259776","category":"247","category_name":"餐饮美食","address":"成都北路"},{"poiid":"B2094752D36CA6FA4992","title":"新南华大酒店","lon":"121.483963","lat":"31.22772","category":"247","category_name":"餐饮美食","address":"普陀区西康路长寿路"},{"poiid":"B2094655D268A0F94293","title":"中华商厦","lon":"121.48291","lat":"31.22809","category":"119","category_name":"商场","address":""},{"poiid":"B2094654DA6EA6FA439E","title":"金陵东路街道云南居委会图书室","lon":"121.48274","lat":"31.22739","category":"181","category_name":"图书馆","address":"永寿路119"},{"poiid":"B2094655D36CA0F54292","title":"淮海东路浙江南路","lon":"121.48347","lat":"31.22695","category":"38","category_name":"公交车站","address":""},{"poiid":"B2094654DB6BA4F8479C","title":"好德No.714","lon":"121.483","lat":"31.22685","category":"117","category_name":"便民商店/便利店","address":""},{"poiid":"B2094757D168A7F54392","title":"百分百.味","lon":"121.48269073","lat":"31.229549585","category":"500","category_name":"未知分类","address":"黄浦区浙江南路42号(近延安东路)"},{"poiid":"B2094654DA6EA6FA4798","title":"可的(汇通大厦东)","lon":"121.48123","lat":"31.22714","category":"117","category_name":"便民商店/便利店","address":"金陵东路553"},{"poiid":"B2094654DA6EA6FF4893","title":"农工商超市No.0060","lon":"121.48213","lat":"31.22819","category":"117","category_name":"便民商店/便利店","address":""},{"poiid":"B2094654DA6EA6F4479F","title":"快客(淮海东路)","lon":"121.48196","lat":"31.22643","category":"117","category_name":"便民商店/便利店","address":"淮海东路50"},{"poiid":"B2094654DA6EA6FA489C","title":"罗森(云南南路)","lon":"121.48164","lat":"31.22657","category":"117","category_name":"便民商店/便利店","address":"云南南路135"},{"poiid":"B2094654DB6BA4F84993","title":"良友(青莲街)","lon":"121.48356","lat":"31.22574","category":"117","category_name":"便民商店/便利店","address":""},{"poiid":"B2094654DB65A0FD4299","title":"良友浙江南店","lon":"121.4832","lat":"31.22808","category":"117","category_name":"便民商店/便利店","address":""},{"poiid":"B2094655D26FA7F9459D","title":"巨龙网吧(宁海东路)","lon":"121.48194","lat":"31.22864","category":"176","category_name":"网吧","address":""},{"poiid":"B2094757D16BA1FD489C","title":"小酌私房面-吧","lon":"121.48209973","lat":"31.226219214","category":"247","category_name":"餐饮美食","address":"上海卢湾区淮海东路49号"},{"poiid":"B2094757D66CA0F5429B","title":"太郎拉面","lon":"121.48310273","lat":"31.229640287","category":"247","category_name":"餐饮美食","address":"上海市黄浦区浙江中路"},{"poiid":"B2094655D26CA4F9409B","title":"立贤里(广西南路)","lon":"121.48236","lat":"31.22726","category":"47","category_name":"住宅区","address":"广西南路59弄1-32号"},{"poiid":"B2094655D265A7FF449C","title":"藏宝海湾桌面游戏","lon":"121.48264","lat":"31.22735","category":"173","category_name":"游戏厅","address":"永寿路158号近金陵东路"},{"poiid":"B2094757D66CA0FB419B","title":"元祖(金陵东路店)","lon":"121.481728738","lat":"31.2267822266","category":"247","category_name":"餐饮美食","address":"上海黄浦区金陵东路627号(近西藏南路)"},{"poiid":"B2094655D264A7F5459C","title":"余庆里","lon":"121.48109","lat":"31.22774","category":"47","category_name":"住宅区","address":"云南南路85弄"},{"poiid":"B2094655D26AA3F9469D","title":"玫瑰佳人云南南路店","lon":"121.48201","lat":"31.22598","category":"247","category_name":"餐饮美食","address":"黄浦区云南南路261号312室(近淮海东路口)查看地图"},{"poiid":"B2094655D26FA4FB489F","title":"上海大中华电器商店","lon":"121.4828","lat":"31.22808","category":"138","category_name":"家电电子卖场","address":"金陵东路467号"},{"poiid":"B2094757D66EA3F9439D","title":"南京汤包老鸭粉丝汤","lon":"121.482934","lat":"31.229355","category":"247","category_name":"餐饮美食","address":"上海宁海东路139号"},{"poiid":"B2094757D16BA4FF4999","title":"HOLIDAY PUB","lon":"121.482576","lat":"31.226288","category":"172","category_name":"酒吧","address":"上海淮海东路45号东淮海国际大厦二楼"},{"poiid":"B2094654DB65A4FC4692","title":"云南小区(旁门)","lon":"121.48265","lat":"31.22753","category":"47","category_name":"住宅区","address":"永寿路109弄1-13号"},{"poiid":"B2094655D26CA4F84999","title":"执中里","lon":"121.48174","lat":"31.2265","category":"47","category_name":"住宅区","address":"云南南路141弄1-38号"},{"poiid":"B2094655D26CA4F94098","title":"执中里(东门)","lon":"121.48217","lat":"31.22686","category":"47","category_name":"住宅区","address":"广西南路86弄"},{"poiid":"B2094655D26CA7F4429F","title":"宝兴里","lon":"121.483235","lat":"31.229025","category":"47","category_name":"住宅区","address":"宁海东路129弄"},{"poiid":"B2094655D26EA3F9449C","title":"福南小区(北1门)","lon":"121.48411","lat":"31.22873","category":"47","category_name":"住宅区","address":"金陵东路389弄1-23号"},{"poiid":"B2094655D264A7F8439D","title":"原上里","lon":"121.48284","lat":"31.2276","category":"47","category_name":"住宅区","address":"永寿路109弄1-13号"},{"poiid":"B2094654DA6EA6FA409A","title":"福南小区","lon":"121.48425","lat":"31.228472","category":"47","category_name":"住宅区","address":"金陵东路423弄1-25号"},{"poiid":"B2094655D26CA6FA439F","title":"锦福里","lon":"121.48376","lat":"31.22949","category":"47","category_name":"住宅区","address":"宁海东路89弄1-10号"},{"poiid":"B2094655D268A1FD409A","title":"人民路746弄和平里","lon":"121.48435","lat":"31.22815","category":"47","category_name":"住宅区","address":""},{"poiid":"B2094654DA6EA6FF489D","title":"诗缇专业美容美体中心","lon":"121.4822","lat":"31.22865","category":"148","category_name":"美容美发店","address":"浙江南路78号东新大厦201-202"},{"poiid":"B2094655D26CA4F9409E","title":"余庆里三街","lon":"121.48104","lat":"31.2279","category":"47","category_name":"住宅区","address":"广西南路46弄"},{"poiid":"B2094655D26CA4F94592","title":"立贤里(东门)","lon":"121.48278","lat":"31.22715","category":"47","category_name":"住宅区","address":"永寿路176弄"},{"poiid":"B2094654DA6EA6FA4092","title":"福南小区(北门)","lon":"121.48367","lat":"31.2285","category":"47","category_name":"住宅区","address":"金陵东路423弄1-25号"},{"poiid":"B2094655D268A1FD409B","title":"人民路746弄和平里(南门)","lon":"121.48456","lat":"31.22788","category":"47","category_name":"住宅区","address":""},{"poiid":"B2094654DA6EA6FA449C","title":"云南小区","lon":"121.48317","lat":"31.22743","category":"47","category_name":"住宅区","address":"浙江南路148弄"},{"poiid":"B2094654DB64ABFB4698","title":"余庆里四街","lon":"121.48115","lat":"31.22815","category":"47","category_name":"住宅区","address":"广西南路44弄"},{"poiid":"B2094654DB6BA4F84493","title":"余庆里二街","lon":"121.48133","lat":"31.22792","category":"47","category_name":"住宅区","address":"广西南路48弄"},{"poiid":"B2094655D264A7F8439C","title":"原上里(西门)","lon":"121.48268","lat":"31.2275","category":"47","category_name":"住宅区","address":"永寿路109弄1-13号"},{"poiid":"B2094654DB65A6FA439F","title":"云南小区(东侧门)","lon":"121.4832","lat":"31.22778","category":"47","category_name":"住宅区","address":"浙江南路128弄1-25号"},{"poiid":"B2094654DA6EA6FA429F","title":"精工网吧","lon":"121.48273","lat":"31.22804","category":"176","category_name":"网吧","address":"黄浦区浙江南路118号2楼(金陵东路浙江南路)"},{"poiid":"B2094750DB6EA1FB4099","title":"上海市华东师大闵行区","lon":"121.482727","lat":"31.226615","category":"500","category_name":"未知分类","address":null},{"poiid":"B2094757D16CA0FA429C","title":"黄浦区人才发展服务中心","lon":"121.48343473","lat":"31.227052565","category":"500","category_name":"未知分类","address":"上海淮海东路6号"},{"poiid":"B2094654DA6EA6FF439B","title":"小王子申鑫美容美发","lon":"121.48278","lat":"31.22928","category":"148","category_name":"美容美发店","address":"宁海东路149"},{"poiid":"B2094654DA6EA6F8439D","title":"雨伶花坊","lon":"121.48142","lat":"31.22782","category":"117","category_name":"便民商店/便利店","address":"黄浦区广西南路48号乙"},{"poiid":"B2094654DA6EA6FF419F","title":"名发轩","lon":"121.48348","lat":"31.22957","category":"148","category_name":"美容美发店","address":"黄浦区宁海东路111号(近福建南路)"},{"poiid":"B209475DD16BA7FC4893","title":"很久以前","lon":"121.481369","lat":"31.226696","category":"500","category_name":"未知分类","address":"上海市 云南南路180号"},{"poiid":"B2094757D069A1FA449C","title":"世音琴行","lon":"121.483374519","lat":"31.2283902018","category":"260","category_name":"其他","address":"黄浦区金陵东路433号(近云南南路)"},{"poiid":"B2094655D264A6F8429D","title":"好来屋网络俱乐部","lon":"121.4829","lat":"31.22812","category":"176","category_name":"网吧","address":"金陵东路465号2层"},{"poiid":"B2094757D16EA0F44599","title":"大境路","lon":"121.483513826","lat":"31.227107296","category":"500","category_name":"未知分类","address":"上海大境路"},{"poiid":"B2094654DB65A0FC449E","title":"上海市无线电监测站定检检测受理点","lon":"121.48365","lat":"31.22636","category":"250","category_name":"公园户外","address":""},{"poiid":"B2094654DA6EA6FF459D","title":"恒源祥(集团)有限公司","lon":"121.48258","lat":"31.22836","category":"263","category_name":"公司","address":""},{"poiid":"B209475CD16FA4F54492","title":"Craft","lon":"121.481895","lat":"31.228216","category":"500","category_name":"未知分类","address":"上海市 云南中路9号"},{"poiid":"B209475CD76AA4FC4199","title":"半咖啡","lon":"121.4832","lat":"31.225833","category":"500","category_name":"未知分类","address":"上海市 延安東路433號et劇場二樓"},{"poiid":"B2094757D16EAAFF479F","title":"smile nail美甲沙龍","lon":"121.48219273","lat":"31.226711225","category":"122","category_name":"个人用品/化妆品店","address":"上海市黄浦区廣西南路98號"},{"poiid":"B2094753D66BA6F54799","title":"浦东新区","lon":"121.483032","lat":"31.226024","category":"500","category_name":"未知分类","address":"上海市 陆家嘴"},{"poiid":"B2094757D06BA7FF409D","title":"鼎茶南京东路","lon":"121.483266691","lat":"31.2287588354","category":"500","category_name":"未知分类","address":"上海南京东路地铁站旁"},{"poiid":"B2094750DB6EA1FB409D","title":"上海市华东师范大学闵行校区","lon":"121.482727","lat":"31.226619","category":"500","category_name":"未知分类","address":null},{"poiid":"B2094757D16DA2FF499A","title":"河南中路人民路","lon":"121.48466","lat":"31.228719","category":"500","category_name":"未知分类","address":"上海河南中路人民路公交车站"},{"poiid":"B2094757D16EA5FD459B","title":"联通金陵东路营业厅","lon":"121.483026738","lat":"31.2280992547","category":"150","category_name":"银行","address":"上海市黄浦区金陵东路391号"},{"poiid":"B2094753D56CA0F5479B","title":"茉莉花劇場","lon":"121.482887","lat":"31.228433","category":"500","category_name":"未知分类","address":"上海市 北海路251號"},{"poiid":"B2094752D06EA3F4419E","title":"上海体育馆","lon":"121.484836","lat":"31.228244","category":"500","category_name":"未知分类","address":null},{"poiid":"B2094757D66DA4FA469C","title":"格致中学乒乓球馆","lon":"121.481621738","lat":"31.2280842544","category":"220","category_name":"运动场所","address":"上海北海路150号4楼"},{"poiid":"B2094655D26BA5F9469E","title":"Geek桌面游戏体验中心","lon":"121.48238","lat":"31.22882","category":"173","category_name":"游戏厅","address":"浙江南路88号东新大厦315室"},{"poiid":"B2094750D66AA7FA4699","title":"意希芭世乐器","lon":"121.482032","lat":"31.22771","category":"249","category_name":"购物服务","address":"黄浦区金陵东路503号"},{"poiid":"B2094757D16AAAFF4393","title":"天之元婚纱礼服馆","lon":"121.484018938","lat":"31.2281273553","category":"500","category_name":"未知分类","address":"上海黄浦区永寿路85号金陵大厦507室"},{"poiid":"B2094757D56EA6FF499E","title":"秀域古方减肥(人民广场店)","lon":"121.482201","lat":"31.228653","category":"249","category_name":"购物服务","address":"黄浦区浙江南路88号东新大厦216室"},{"poiid":"B2094757D16EA0FF499D","title":"大润发总部","lon":"121.483085632","lat":"31.2259845734","category":"500","category_name":"未知分类","address":"上海江场西路"},{"poiid":"B2094757D064A7FB469A","title":"文广国际标准舞培训中心(云南南路校区)","lon":"121.48224","lat":"31.2258","category":"500","category_name":"未知分类","address":"上海黄浦区云南南路261号4楼(近淮海东路)  "},{"poiid":"B2094757D66CA7FA419D","title":"普陀区轻纺市场麦当劳","lon":"121.481363538","lat":"31.226707325","category":"500","category_name":"未知分类","address":"上海丰庄路587号"},{"poiid":"B2094757D064A1F8489C","title":"H2 pub","lon":"121.48198343","lat":"31.226735125","category":"500","category_name":"未知分类","address":"上海淮海東路45號2樓"},{"poiid":"B2094750D36BABFD4899","title":"环球雅思上海分校","lon":"121.4823","lat":"31.22636","category":"632","category_name":"教育出国类公司","address":"淮海东路49号东淮海国际大厦"},{"poiid":"B2094654DA6EA6F84992","title":"大音琴行(金陵东路)","lon":"121.48379","lat":"31.22879","category":"255","category_name":"专卖店","address":"金陵东路294"},{"poiid":"B2094654DA6EA6F4429E","title":"上海文广国际标准舞培训中心","lon":"121.482","lat":"31.22598","category":"190","category_name":"培训机构","address":"黄浦区云南南路261号4楼(近淮海东路)"},{"poiid":"B2094757D66DA1FB4699","title":"欧施德","lon":"121.48288773","lat":"31.226351217","category":"500","category_name":"未知分类","address":"上海东淮海国际大厦"},{"poiid":"B2094654DA6EA6F9409A","title":"巴黎三城(金陵东路)","lon":"121.48394","lat":"31.22887","category":"132","category_name":"眼镜店","address":"黄浦区金陵东路280号(近福建南路)"},{"poiid":"B2094757D16EA4FA469E","title":"莪の窩","lon":"121.482348","lat":"31.2291628","category":"500","category_name":"未知分类","address":null},{"poiid":"B2094757D66EA2FA499F","title":"上海市中药行业职业技能培训中心","lon":"121.48304773","lat":"31.229110276","category":"500","category_name":"未知分类","address":"黄浦区金陵东路417号3楼(近浙江南路)"},{"poiid":"B2094757D66EA4F54693","title":"三晋春秋百老汇店","lon":"121.48478573","lat":"31.228038253","category":"500","category_name":"未知分类","address":"上海浦东新区张杨路南泉北路588号百老汇5层"},{"poiid":"B2094654DA6EA6F94098","title":"上海韵音琴行","lon":"121.4841","lat":"31.22895","category":"255","category_name":"专卖店","address":"黄浦区金陵东路260-266号(福建南路金陵东路)"},{"poiid":"B2094757D16BA7F44498","title":"大圆美容保健养生馆","lon":"121.48229128","lat":"31.22696158","category":"148","category_name":"美容美发店","address":"黄浦区淮海东路49号东淮海国际大厦5楼506-508室(近云南南路)"},{"poiid":"B2094757D16AA7FA419E","title":"五度琴行","lon":"121.48315429","lat":"31.228332519","category":"249","category_name":"购物服务","address":"上海金陵路445号"},{"poiid":"B2094654DA6EA6F8429B","title":"上海南京路步行街旅游品有限公司","lon":"121.48239","lat":"31.22826","category":"263","category_name":"公司","address":"金陵东路368号金陵商厦401A"},{"poiid":"B2094757D16AA4FE4292","title":"青莲街","lon":"121.483559","lat":"31.225737","category":"500","category_name":"未知分类","address":"上海大境路青莲街"},{"poiid":"B2094654DA6EA6F8489A","title":"寰宇模型(金陵东路)","lon":"121.48233","lat":"31.22808","category":"255","category_name":"专卖店","address":"金陵东路378"},{"poiid":"B2094757D16BA1F5469B","title":"福建南路118号","lon":"121.48375123","lat":"31.227169334","category":"500","category_name":"未知分类","address":"上海福建南路118号"},{"poiid":"B2094654DA6EA6FA439C","title":"格致中学金陵街道云南分校","lon":"121.48274","lat":"31.22739","category":"253","category_name":"校园生活","address":"永寿路119"},{"poiid":"B2094654DA6EA6FA479E","title":"e部落网络沙龙","lon":"121.48135","lat":"31.22718","category":"176","category_name":"网吧","address":"云南南路101号冠生园商厦4层"},{"poiid":"B2094654DA6EA6F8499A","title":"达民乐器旗舰店","lon":"121.48336","lat":"31.22857","category":"255","category_name":"专卖店","address":"金陵东路318号"},{"poiid":"B2094757D065A7FD4992","title":"喜越东南亚时尚餐厅","lon":"121.48125373","lat":"31.227116233","category":"500","category_name":"未知分类","address":"上海市金陵东路500号亚龙国际广场B2"},{"poiid":"B2094757D065A6F84492","title":"小乖巧宠物店","lon":"121.48236227","lat":"31.226478957","category":"249","category_name":"购物服务","address":"上海广西南路96号"},{"poiid":"B2094654DA6EA6FD439A","title":"中国票务在线","lon":"121.48183","lat":"31.2292","category":"28","category_name":"飞机票代售点","address":"黄浦区宁海东路200号申鑫大厦1楼(近浙江南路)"},{"poiid":"B2094757DA69A3F94499","title":"锦江之星淮海东路店","lon":"121.4821143501","lat":"31.226001356212","category":"251","category_name":"出行住宿","address":"黄浦区云南南路293号(近淮海东路)"},{"poiid":"B2094757D06AAAF4499C","title":"比安奇家里","lon":"121.483394058","lat":"31.2270974933","category":"500","category_name":"未知分类","address":"上海南京东路120号"},{"poiid":"B2094757D16BAAF84892","title":"通用培训中心","lon":"121.48308563","lat":"31.225984573","category":"253","category_name":"校园生活","address":"上海宁桥路669号"},{"poiid":"B2094757DA65A1FA429D","title":"淮海1号酒吧","lon":"121.4843610541232","lat":"31.22915582676624","category":"248","category_name":"生活娱乐","address":"淮海路"},{"poiid":"B2094655D268A0F94292","title":"申鑫大厦(东门)","lon":"121.48207","lat":"31.22931","category":"48","category_name":"楼宇大门","address":"浙江南路68"},{"poiid":"B2094654DA6EA6FF4992","title":"天之元礼仪","lon":"121.48239","lat":"31.22826","category":"263","category_name":"公司","address":"金陵东路368号金陵商厦605C"},{"poiid":"B2094454D769A2F4449F","title":"上海 辣府火锅 淮海东路云南路路口","lon":"121.48203","lat":"31.22638","category":"627","category_name":"一般地点标志","address":"上海市 上海 辣府火锅 淮海东路云南路路口"},{"poiid":"B2094654DB6BA4F8449F","title":"新黄浦酒店公寓(西门)","lon":"121.48142","lat":"31.2281","category":"48","category_name":"楼宇大门","address":"永寿路88号"},{"poiid":"B2094654DA6EA6FD4098","title":"台湾蒂雅克股份有限公司上海代表处","lon":"121.48182","lat":"31.2292","category":"263","category_name":"公司","address":"宁海东路200号申鑫大厦20层"},{"poiid":"B2094654DA6EA6F84399","title":"蔡同德药业有限公司","lon":"121.48179","lat":"31.22798","category":"263","category_name":"公司","address":"金陵东路396号4层"},{"poiid":"B2094655D269AAF44799","title":"唯美婚礼企划","lon":"121.4822","lat":"31.22865","category":"263","category_name":"公司","address":"黄浦区浙江南路88号东新大厦403室(近金陵东路)查看地图"},{"poiid":"B2094654DA6EA6FC499D","title":"上海八莲正阳综合物品有限公司","lon":"121.48182","lat":"31.2292","category":"263","category_name":"公司","address":"宁海东路200号申鑫大厦19层"},{"poiid":"B2094654DA6EA6FF4699","title":"上海鸿洋电子商务有限公司","lon":"121.4822","lat":"31.22865","category":"263","category_name":"公司","address":"浙江南路78号东新大厦317、407"},{"poiid":"B2094757DA69A3F9449C","title":"百时快捷淮海东路店","lon":"121.48206070631","lat":"31.226074752487","category":"251","category_name":"出行住宿","address":"云南南路293号"},{"poiid":"B2094654DA6EA5FE4598","title":"东淮海公寓(北门)","lon":"121.48496","lat":"31.22775","category":"656","category_name":"大门","address":"人民路777弄1-10号"},{"poiid":"B2094654DA6EA5FC479F","title":"中国人寿保险股份有限公司(人民路)","lon":"121.48263","lat":"31.22589","category":"219","category_name":"其他","address":"人民路858号中国人寿大厦"},{"poiid":"B2094751D06EA1FE4898","title":"上海艾瑞精品酒店","lon":"121.482192","lat":"31.227659","category":"251","category_name":"出行住宿","address":"金陵东路507号"},{"poiid":"B2094654DA6EA6F84299","title":"兴业证券公司上海金陵东路营业部","lon":"121.48239","lat":"31.22826","category":"219","category_name":"其他","address":"金陵东路368号金陵商厦2-3层"},{"poiid":"B2094654DA6EA6FA4398","title":"云南小区(西门)","lon":"121.48251","lat":"31.22773","category":"656","category_name":"大门","address":"永寿路99弄1-2号"},{"poiid":"B2094654DA6EA6FA439D","title":"云南小区(东南门)","lon":"121.48284","lat":"31.22731","category":"656","category_name":"大门","address":""},{"poiid":"B2094654DA6EA6FA429A","title":"云南小区(东门)","lon":"121.48338","lat":"31.22753","category":"656","category_name":"大门","address":"浙江南路148"},{"poiid":"B2094655D26FA6FF419D","title":"宝兴里(南门)(金陵东路)","lon":"121.48374","lat":"31.22876","category":"656","category_name":"大门","address":"金陵东路300弄1-40号"},{"poiid":"B2094655D26CA7F44299","title":"宝兴里(东门)","lon":"121.48266","lat":"31.22881","category":"656","category_name":"大门","address":"浙江南路89弄"}]