[{"poiid":"B2094655D36CA0F94198","title":"江苏路长宁路","lon":"121.42582","lat":"31.22565","category":"38","category_name":"公交车站","address":""},{"poiid":"B2094757D06FA0FA449A","title":"长宁路江苏路","lon":"121.428071","lat":"31.225633","category":"500","category_name":"未知分类","address":"上海市长宁区长宁路江苏路"},{"poiid":"B2094757D06FA7F44898","title":"峥峥饮食","lon":"121.425010054","lat":"31.221689793","category":"257","category_name":"中餐厅","address":"长宁区长宁路478-2号(近华阳路)"},{"poiid":"B209475CD564A7F8439E","title":"上海滩中信泰富店","lon":"121.45602","lat":"31.22851","category":"119","category_name":"商场","address":"\"南京西路1168号中信泰富广场，店铺号221.\r\n\""},{"poiid":"B2094757D06FA5F54399","title":"吴记老锅底麻辣火锅(长宁路店)","lon":"121.42708","lat":"31.22361","category":"86","category_name":"火锅店","address":"长宁区长宁路345号(近江苏路)"},{"poiid":"B2094655D264A2F8489D","title":"小杨生煎馆","lon":"121.42765","lat":"31.22386","category":"257","category_name":"中餐厅","address":"长宁区长宁路341号(近江苏路)"},{"poiid":"B2094757D06FABFE4493","title":"岳阳飘湘楼(江苏路店)","lon":"121.42742","lat":"31.22433","category":"77","category_name":"湖南菜","address":"长宁区江苏北路30-6号(长宁路江苏北路)"},{"poiid":"B2094757D069A0F5459C","title":"上海爱乐乐团","lon":"121.429227","lat":"31.223856","category":"179","category_name":"音乐厅","address":"静安区武定西路1498号"},{"poiid":"B2094654D565A5FE469F","title":"亨通国际大厦","lon":"121.427","lat":"31.2248","category":"46","category_name":"楼宇","address":"长宁路1158号贝多芬广场618室"},{"poiid":"B2094757D068A5F94498","title":"长宁支路江苏北路","lon":"121.42757558","lat":"31.224833325","category":"500","category_name":"未知分类","address":"上海市长宁区长宁支路"},{"poiid":"B2094655D26DAAF94999","title":"思巴洛克咖啡中山公园店","lon":"121.42617","lat":"31.22281","category":"65","category_name":"咖啡厅","address":"长宁区长宁路434号(近中山公园或江苏北路)"},{"poiid":"B2094757D46DABF94299","title":"我和你","lon":"121.42715","lat":"31.22473","category":"76","category_name":"上海菜","address":"长宁区江苏北路30号-5(近长宁路)"},{"poiid":"B2094654DB6BA6F94492","title":"锦江之星(中山公园店)","lon":"121.42503","lat":"31.22184","category":"216","category_name":"经济型连锁酒店","address":"上海市长宁区长宁路546号(邮编200051)"},{"poiid":"B2094750DA6BA4FC4692","title":"敦煌楼兰州拉面","lon":"121.429443","lat":"31.225271","category":"247","category_name":"餐饮美食","address":"长宁区长宁路436号(近江苏路)"},{"poiid":"B2094757D068A3FA4298","title":"兆丰大厦","lon":"121.42636763","lat":"31.223258673","category":"46","category_name":"楼宇","address":"上海长宁区长宁路398号"},{"poiid":"B2094757D068A4FF4298","title":"长峰大厦","lon":"121.42821704422","lat":"31.221813972967","category":"46","category_name":"楼宇","address":"上海定西路1277号"},{"poiid":"B2094757D16EA1FE4993","title":"尤品鲜","lon":"121.427138586","lat":"31.2236533024","category":"96","category_name":"韩国料理","address":"长宁区长宁路357号(近江苏路)"},{"poiid":"B2094655D36CA0F9419D","title":"江苏北路长宁路","lon":"121.42566","lat":"31.2258","category":"38","category_name":"公交车站","address":""},{"poiid":"B2094757D068AAFE499E","title":"珊珊小笼馆(长宁路店)","lon":"121.42666","lat":"31.22335","category":"68","category_name":"快餐厅","address":"长宁区长宁路396弄18号(长宁路江苏北路)"},{"poiid":"B2094654DB6BA6F84799","title":"煲煲仔","lon":"121.42695599843","lat":"31.223134620432","category":"257","category_name":"中餐厅","address":"长宁区长宁路436号(江苏路口)"},{"poiid":"B2094654D565A6F4479D","title":"兆仪大厦","lon":"121.429","lat":"31.222","category":"46","category_name":"楼宇","address":"定西路1281号"},{"poiid":"B2094757D764A5FF4899","title":"胖阿姨正宗朝鲜冷面 长宁路店","lon":"121.42613","lat":"31.22277","category":"96","category_name":"韩国料理","address":"长宁区长宁路436号"},{"poiid":"B2094757D06AA6FC4598","title":"重庆鸡公煲","lon":"121.42688557","lat":"31.224049839","category":"71","category_name":"四川菜","address":"长宁区长宁路476号(近江苏路)"},{"poiid":"B2094757D06AA3FC4892","title":"南西幼儿园","lon":"121.42988","lat":"31.22349","category":"57","category_name":"幼儿园","address":"静安区武定西路1488号(近江苏路)"},{"poiid":"B2094757D064A6F54698","title":"民心小区","lon":"121.42525","lat":"31.223598","category":"47","category_name":"住宅区","address":"上海长宁区长宁路396弄"},{"poiid":"B2094750D76CA4FE429B","title":"妙寿司(江苏路店)","lon":"121.428","lat":"31.2241","category":"95","category_name":"日本料理","address":"长宁区江苏路585号(近延安西路)"},{"poiid":"B2094757D16DA3F5469D","title":"正圆烩面","lon":"121.427369586","lat":"31.2245989209","category":"68","category_name":"快餐厅","address":"长宁区长宁路367号(近江苏路)"},{"poiid":"B2094654D565A5F44293","title":"长宁大厦","lon":"121.42699","lat":"31.224062","category":"47","category_name":"住宅区","address":"上海市长宁区长宁路378号"},{"poiid":"B2094654D565A6F8469D","title":"三和办公(长宁路)","lon":"121.42755","lat":"31.22374","category":"139","category_name":"文化用品店","address":"长宁路353临"},{"poiid":"B2094757D06FABFD449A","title":"有家川菜(江苏路店)","lon":"121.42983","lat":"31.22287","category":"71","category_name":"四川菜","address":"长宁区江苏路121号中西大厦2楼(武定西路口)"},{"poiid":"B2094654D565A5F44193","title":"日旭商务中心","lon":"121.42719","lat":"31.22388","category":"46","category_name":"楼宇","address":"长宁路350"},{"poiid":"B2094654D565A5F4449C","title":"长江小区","lon":"121.42545","lat":"31.225136","category":"47","category_name":"住宅区","address":"江苏北路111弄1-68号"},{"poiid":"B2094654D565A6F8459D","title":"顶峰美容美发长宁店","lon":"121.4272","lat":"31.22327","category":"148","category_name":"美容美发店","address":"长宁区长宁路373号(江苏北路江苏路)"},{"poiid":"B2094654D565A6F84499","title":"长新小区","lon":"121.42639","lat":"31.22221","category":"47","category_name":"住宅区","address":"新村路349弄2-62号(双号)"},{"poiid":"B2094655D265A1FA4792","title":"长宁88金廷","lon":"121.428012","lat":"31.224482","category":"47","category_name":"住宅区","address":"上海市青浦区赵巷置发路138号"},{"poiid":"B2094757D06AA4FD499E","title":"长宁路麻辣烫","lon":"121.42768","lat":"31.22388","category":"247","category_name":"餐饮美食","address":"上海长宁区长宁路478号(近江苏路)  "},{"poiid":"B2094654D565A6F8479F","title":"永琪美容美发(长宁大厦东北)","lon":"121.4278","lat":"31.22396","category":"148","category_name":"美容美发店","address":"江苏路8"},{"poiid":"B2094750DB6CA4FB4693","title":"峥峥牛肉拉面","lon":"121.425941","lat":"31.222293","category":"247","category_name":"餐饮美食","address":"长宁路478号"},{"poiid":"B2094655D26AA4FC439B","title":"盱眙虾趣龙虾城 长宁路店","lon":"121.426612054","lat":"31.223067793","category":"247","category_name":"餐饮美食","address":"长宁路320号2楼近江苏路"},{"poiid":"B2094654DB64A6FB4399","title":"汉庭快捷(江苏路店)","lon":"121.42717","lat":"31.22474","category":"216","category_name":"经济型连锁酒店","address":"长宁区江苏北路30号(近长宁路路口)"},{"poiid":"B2094757D569A1FD4098","title":"十一月","lon":"121.429161","lat":"31.222702","category":"95","category_name":"日本料理","address":"长宁区江苏路98号-5号(近武定西路)"},{"poiid":"B2094655D26DA4F8439C","title":"兆丰大厦北楼","lon":"121.42613","lat":"31.2235","category":"46","category_name":"楼宇","address":"长宁路396弄9号"},{"poiid":"B209475DD164A4FA4099","title":"DAM一K","lon":"121.42704","lat":"31.223497","category":"500","category_name":"未知分类","address":"上海市 长宁路373号3F"},{"poiid":"B2094655D264A2F9489A","title":"为波客栈","lon":"121.42719","lat":"31.2231","category":"250","category_name":"公园户外","address":""},{"poiid":"B2094654D565A1FE479C","title":"文峰美发美容江苏一店","lon":"121.42835","lat":"31.22392","category":"148","category_name":"美容美发店","address":"江苏路51"},{"poiid":"B2094654D565A5F4429A","title":"上海少年儿童业余新闻学校","lon":"121.42719","lat":"31.22389","category":"253","category_name":"校园生活","address":"长宁区长宁路350号3楼(江苏路口)"},{"poiid":"B2094753DA6FA7FF4899","title":"敦煌楼兰州牛肉拉面","lon":"121.426107","lat":"31.222482","category":"247","category_name":"餐饮美食","address":"上海市 长宁区长宁路436号"},{"poiid":"B2094757D065A7FF409D","title":"静安风华苑","lon":"121.42861","lat":"31.224697","category":"47","category_name":"住宅区","address":"上海市静安区江苏路1号(长宁路口)"},{"poiid":"B2094757D66CA3F9439B","title":"假日之星酒店","lon":"121.42781","lat":"31.22478","category":"217","category_name":"旅馆招待所","address":"长宁区长宁路250号(江苏路口)"},{"poiid":"B2094757D568A0FA4099","title":"雅量(勃逊)LeBouchon","lon":"121.4296869","lat":"31.22351194","category":"247","category_name":"餐饮美食","address":"静安区武定西路1455号(近江苏路)"},{"poiid":"B2094655D36CA0F94198","title":"江苏路长宁路","lon":"121.42582","lat":"31.22565","category":"38","category_name":"公交车站","address":""},{"poiid":"B2094757D06FA0FA449A","title":"长宁路江苏路","lon":"121.428071","lat":"31.225633","category":"500","category_name":"未知分类","address":"上海市长宁区长宁路江苏路"},{"poiid":"B2094757D06FA7F44898","title":"峥峥饮食","lon":"121.425010054","lat":"31.221689793","category":"257","category_name":"中餐厅","address":"长宁区长宁路478-2号(近华阳路)"},{"poiid":"B209475CD564A7F8439E","title":"上海滩中信泰富店","lon":"121.45602","lat":"31.22851","category":"119","category_name":"商场","address":"\"南京西路1168号中信泰富广场，店铺号221.\r\n\""},{"poiid":"B2094757D06FA5F54399","title":"吴记老锅底麻辣火锅(长宁路店)","lon":"121.42708","lat":"31.22361","category":"86","category_name":"火锅店","address":"长宁区长宁路345号(近江苏路)"},{"poiid":"B2094655D264A2F8489D","title":"小杨生煎馆","lon":"121.42765","lat":"31.22386","category":"257","category_name":"中餐厅","address":"长宁区长宁路341号(近江苏路)"},{"poiid":"B2094757D06FABFE4493","title":"岳阳飘湘楼(江苏路店)","lon":"121.42742","lat":"31.22433","category":"77","category_name":"湖南菜","address":"长宁区江苏北路30-6号(长宁路江苏北路)"},{"poiid":"B2094757D069A0F5459C","title":"上海爱乐乐团","lon":"121.429227","lat":"31.223856","category":"179","category_name":"音乐厅","address":"静安区武定西路1498号"},{"poiid":"B2094654D565A5FE469F","title":"亨通国际大厦","lon":"121.427","lat":"31.2248","category":"46","category_name":"楼宇","address":"长宁路1158号贝多芬广场618室"},{"poiid":"B2094757D068A5F94498","title":"长宁支路江苏北路","lon":"121.42757558","lat":"31.224833325","category":"500","category_name":"未知分类","address":"上海市长宁区长宁支路"},{"poiid":"B2094655D26DAAF94999","title":"思巴洛克咖啡中山公园店","lon":"121.42617","lat":"31.22281","category":"65","category_name":"咖啡厅","address":"长宁区长宁路434号(近中山公园或江苏北路)"},{"poiid":"B2094757D46DABF94299","title":"我和你","lon":"121.42715","lat":"31.22473","category":"76","category_name":"上海菜","address":"长宁区江苏北路30号-5(近长宁路)"},{"poiid":"B2094654DB6BA6F94492","title":"锦江之星(中山公园店)","lon":"121.42503","lat":"31.22184","category":"216","category_name":"经济型连锁酒店","address":"上海市长宁区长宁路546号(邮编200051)"},{"poiid":"B2094750DA6BA4FC4692","title":"敦煌楼兰州拉面","lon":"121.429443","lat":"31.225271","category":"247","category_name":"餐饮美食","address":"长宁区长宁路436号(近江苏路)"},{"poiid":"B2094757D068A3FA4298","title":"兆丰大厦","lon":"121.42636763","lat":"31.223258673","category":"46","category_name":"楼宇","address":"上海长宁区长宁路398号"},{"poiid":"B2094757D068A4FF4298","title":"长峰大厦","lon":"121.42821704422","lat":"31.221813972967","category":"46","category_name":"楼宇","address":"上海定西路1277号"},{"poiid":"B2094757D16EA1FE4993","title":"尤品鲜","lon":"121.427138586","lat":"31.2236533024","category":"96","category_name":"韩国料理","address":"长宁区长宁路357号(近江苏路)"},{"poiid":"B2094655D36CA0F9419D","title":"江苏北路长宁路","lon":"121.42566","lat":"31.2258","category":"38","category_name":"公交车站","address":""},{"poiid":"B2094757D068AAFE499E","title":"珊珊小笼馆(长宁路店)","lon":"121.42666","lat":"31.22335","category":"68","category_name":"快餐厅","address":"长宁区长宁路396弄18号(长宁路江苏北路)"},{"poiid":"B2094654DB6BA6F84799","title":"煲煲仔","lon":"121.42695599843","lat":"31.223134620432","category":"257","category_name":"中餐厅","address":"长宁区长宁路436号(江苏路口)"},{"poiid":"B2094654D565A6F4479D","title":"兆仪大厦","lon":"121.429","lat":"31.222","category":"46","category_name":"楼宇","address":"定西路1281号"},{"poiid":"B2094757D764A5FF4899","title":"胖阿姨正宗朝鲜冷面 长宁路店","lon":"121.42613","lat":"31.22277","category":"96","category_name":"韩国料理","address":"长宁区长宁路436号"},{"poiid":"B2094757D06AA6FC4598","title":"重庆鸡公煲","lon":"121.42688557","lat":"31.224049839","category":"71","category_name":"四川菜","address":"长宁区长宁路476号(近江苏路)"},{"poiid":"B2094757D06AA3FC4892","title":"南西幼儿园","lon":"121.42988","lat":"31.22349","category":"57","category_name":"幼儿园","address":"静安区武定西路1488号(近江苏路)"},{"poiid":"B2094757D064A6F54698","title":"民心小区","lon":"121.42525","lat":"31.223598","category":"47","category_name":"住宅区","address":"上海长宁区长宁路396弄"},{"poiid":"B2094750D76CA4FE429B","title":"妙寿司(江苏路店)","lon":"121.428","lat":"31.2241","category":"95","category_name":"日本料理","address":"长宁区江苏路585号(近延安西路)"},{"poiid":"B2094757D16DA3F5469D","title":"正圆烩面","lon":"121.427369586","lat":"31.2245989209","category":"68","category_name":"快餐厅","address":"长宁区长宁路367号(近江苏路)"},{"poiid":"B2094654D565A5F44293","title":"长宁大厦","lon":"121.42699","lat":"31.224062","category":"47","category_name":"住宅区","address":"上海市长宁区长宁路378号"},{"poiid":"B2094654D565A6F8469D","title":"三和办公(长宁路)","lon":"121.42755","lat":"31.22374","category":"139","category_name":"文化用品店","address":"长宁路353临"},{"poiid":"B2094757D06FABFD449A","title":"有家川菜(江苏路店)","lon":"121.42983","lat":"31.22287","category":"71","category_name":"四川菜","address":"长宁区江苏路121号中西大厦2楼(武定西路口)"},{"poiid":"B2094654D565A5F44193","title":"日旭商务中心","lon":"121.42719","lat":"31.22388","category":"46","category_name":"楼宇","address":"长宁路350"},{"poiid":"B2094654D565A5F4449C","title":"长江小区","lon":"121.42545","lat":"31.225136","category":"47","category_name":"住宅区","address":"江苏北路111弄1-68号"},{"poiid":"B2094654D565A6F8459D","title":"顶峰美容美发长宁店","lon":"121.4272","lat":"31.22327","category":"148","category_name":"美容美发店","address":"长宁区长宁路373号(江苏北路江苏路)"},{"poiid":"B2094654D565A6F84499","title":"长新小区","lon":"121.42639","lat":"31.22221","category":"47","category_name":"住宅区","address":"新村路349弄2-62号(双号)"},{"poiid":"B2094655D265A1FA4792","title":"长宁88金廷","lon":"121.428012","lat":"31.224482","category":"47","category_name":"住宅区","address":"上海市青浦区赵巷置发路138号"},{"poiid":"B2094757D06AA4FD499E","title":"长宁路麻辣烫","lon":"121.42768","lat":"31.22388","category":"247","category_name":"餐饮美食","address":"上海长宁区长宁路478号(近江苏路)  "},{"poiid":"B2094654D565A6F8479F","title":"永琪美容美发(长宁大厦东北)","lon":"121.4278","lat":"31.22396","category":"148","category_name":"美容美发店","address":"江苏路8"},{"poiid":"B2094750DB6CA4FB4693","title":"峥峥牛肉拉面","lon":"121.425941","lat":"31.222293","category":"247","category_name":"餐饮美食","address":"长宁路478号"},{"poiid":"B2094655D26AA4FC439B","title":"盱眙虾趣龙虾城 长宁路店","lon":"121.426612054","lat":"31.223067793","category":"247","category_name":"餐饮美食","address":"长宁路320号2楼近江苏路"},{"poiid":"B2094654DB64A6FB4399","title":"汉庭快捷(江苏路店)","lon":"121.42717","lat":"31.22474","category":"216","category_name":"经济型连锁酒店","address":"长宁区江苏北路30号(近长宁路路口)"},{"poiid":"B2094757D569A1FD4098","title":"十一月","lon":"121.429161","lat":"31.222702","category":"95","category_name":"日本料理","address":"长宁区江苏路98号-5号(近武定西路)"},{"poiid":"B2094655D26DA4F8439C","title":"兆丰大厦北楼","lon":"121.42613","lat":"31.2235","category":"46","category_name":"楼宇","address":"长宁路396弄9号"},{"poiid":"B209475DD164A4FA4099","title":"DAM一K","lon":"121.42704","lat":"31.223497","category":"500","category_name":"未知分类","address":"上海市 长宁路373号3F"},{"poiid":"B2094655D264A2F9489A","title":"为波客栈","lon":"121.42719","lat":"31.2231","category":"250","category_name":"公园户外","address":""},{"poiid":"B2094654D565A1FE479C","title":"文峰美发美容江苏一店","lon":"121.42835","lat":"31.22392","category":"148","category_name":"美容美发店","address":"江苏路51"},{"poiid":"B2094654D565A5F4429A","title":"上海少年儿童业余新闻学校","lon":"121.42719","lat":"31.22389","category":"253","category_name":"校园生活","address":"长宁区长宁路350号3楼(江苏路口)"},{"poiid":"B2094753DA6FA7FF4899","title":"敦煌楼兰州牛肉拉面","lon":"121.426107","lat":"31.222482","category":"247","category_name":"餐饮美食","address":"上海市 长宁区长宁路436号"},{"poiid":"B2094757D065A7FF409D","title":"静安风华苑","lon":"121.42861","lat":"31.224697","category":"47","category_name":"住宅区","address":"上海市静安区江苏路1号(长宁路口)"},{"poiid":"B2094757D66CA3F9439B","title":"假日之星酒店","lon":"121.42781","lat":"31.22478","category":"217","category_name":"旅馆招待所","address":"长宁区长宁路250号(江苏路口)"},{"poiid":"B2094757D568A0FA4099","title":"雅量(勃逊)LeBouchon","lon":"121.4296869","lat":"31.22351194","category":"247","category_name":"餐饮美食","address":"静安区武定西路1455号(近江苏路)"},{"poiid":"B2094655D36CA0F94198","title":"江苏路长宁路","lon":"121.42582","lat":"31.22565","category":"38","category_name":"公交车站","address":""},{"poiid":"B2094757D06FA0FA449A","title":"长宁路江苏路","lon":"121.428071","lat":"31.225633","category":"500","category_name":"未知分类","address":"上海市长宁区长宁路江苏路"},{"poiid":"B2094757D06FA7F44898","title":"峥峥饮食","lon":"121.425010054","lat":"31.221689793","category":"257","category_name":"中餐厅","address":"长宁区长宁路478-2号(近华阳路)"},{"poiid":"B209475CD564A7F8439E","title":"上海滩中信泰富店","lon":"121.45602","lat":"31.22851","category":"119","category_name":"商场","address":"\"南京西路1168号中信泰富广场，店铺号221.\r\n\""},{"poiid":"B2094757D06FA5F54399","title":"吴记老锅底麻辣火锅(长宁路店)","lon":"121.42708","lat":"31.22361","category":"86","category_name":"火锅店","address":"长宁区长宁路345号(近江苏路)"},{"poiid":"B2094655D264A2F8489D","title":"小杨生煎馆","lon":"121.42765","lat":"31.22386","category":"257","category_name":"中餐厅","address":"长宁区长宁路341号(近江苏路)"},{"poiid":"B2094757D06FABFE4493","title":"岳阳飘湘楼(江苏路店)","lon":"121.42742","lat":"31.22433","category":"77","category_name":"湖南菜","address":"长宁区江苏北路30-6号(长宁路江苏北路)"},{"poiid":"B2094757D069A0F5459C","title":"上海爱乐乐团","lon":"121.429227","lat":"31.223856","category":"179","category_name":"音乐厅","address":"静安区武定西路1498号"},{"poiid":"B2094654D565A5FE469F","title":"亨通国际大厦","lon":"121.427","lat":"31.2248","category":"46","category_name":"楼宇","address":"长宁路1158号贝多芬广场618室"},{"poiid":"B2094757D068A5F94498","title":"长宁支路江苏北路","lon":"121.42757558","lat":"31.224833325","category":"500","category_name":"未知分类","address":"上海市长宁区长宁支路"},{"poiid":"B2094655D26DAAF94999","title":"思巴洛克咖啡中山公园店","lon":"121.42617","lat":"31.22281","category":"65","category_name":"咖啡厅","address":"长宁区长宁路434号(近中山公园或江苏北路)"},{"poiid":"B2094757D46DABF94299","title":"我和你","lon":"121.42715","lat":"31.22473","category":"76","category_name":"上海菜","address":"长宁区江苏北路30号-5(近长宁路)"},{"poiid":"B2094654DB6BA6F94492","title":"锦江之星(中山公园店)","lon":"121.42503","lat":"31.22184","category":"216","category_name":"经济型连锁酒店","address":"上海市长宁区长宁路546号(邮编200051)"},{"poiid":"B2094750DA6BA4FC4692","title":"敦煌楼兰州拉面","lon":"121.429443","lat":"31.225271","category":"247","category_name":"餐饮美食","address":"长宁区长宁路436号(近江苏路)"},{"poiid":"B2094757D068A3FA4298","title":"兆丰大厦","lon":"121.42636763","lat":"31.223258673","category":"46","category_name":"楼宇","address":"上海长宁区长宁路398号"},{"poiid":"B2094757D068A4FF4298","title":"长峰大厦","lon":"121.42821704422","lat":"31.221813972967","category":"46","category_name":"楼宇","address":"上海定西路1277号"},{"poiid":"B2094757D16EA1FE4993","title":"尤品鲜","lon":"121.427138586","lat":"31.2236533024","category":"96","category_name":"韩国料理","address":"长宁区长宁路357号(近江苏路)"},{"poiid":"B2094655D36CA0F9419D","title":"江苏北路长宁路","lon":"121.42566","lat":"31.2258","category":"38","category_name":"公交车站","address":""},{"poiid":"B2094757D068AAFE499E","title":"珊珊小笼馆(长宁路店)","lon":"121.42666","lat":"31.22335","category":"68","category_name":"快餐厅","address":"长宁区长宁路396弄18号(长宁路江苏北路)"},{"poiid":"B2094654DB6BA6F84799","title":"煲煲仔","lon":"121.42695599843","lat":"31.223134620432","category":"257","category_name":"中餐厅","address":"长宁区长宁路436号(江苏路口)"},{"poiid":"B2094654D565A6F4479D","title":"兆仪大厦","lon":"121.429","lat":"31.222","category":"46","category_name":"楼宇","address":"定西路1281号"},{"poiid":"B2094757D764A5FF4899","title":"胖阿姨正宗朝鲜冷面 长宁路店","lon":"121.42613","lat":"31.22277","category":"96","category_name":"韩国料理","address":"长宁区长宁路436号"},{"poiid":"B2094757D06AA6FC4598","title":"重庆鸡公煲","lon":"121.42688557","lat":"31.224049839","category":"71","category_name":"四川菜","address":"长宁区长宁路476号(近江苏路)"},{"poiid":"B2094757D06AA3FC4892","title":"南西幼儿园","lon":"121.42988","lat":"31.22349","category":"57","category_name":"幼儿园","address":"静安区武定西路1488号(近江苏路)"},{"poiid":"B2094757D064A6F54698","title":"民心小区","lon":"121.42525","lat":"31.223598","category":"47","category_name":"住宅区","address":"上海长宁区长宁路396弄"},{"poiid":"B2094750D76CA4FE429B","title":"妙寿司(江苏路店)","lon":"121.428","lat":"31.2241","category":"95","category_name":"日本料理","address":"长宁区江苏路585号(近延安西路)"},{"poiid":"B2094757D16DA3F5469D","title":"正圆烩面","lon":"121.427369586","lat":"31.2245989209","category":"68","category_name":"快餐厅","address":"长宁区长宁路367号(近江苏路)"},{"poiid":"B2094654D565A5F44293","title":"长宁大厦","lon":"121.42699","lat":"31.224062","category":"47","category_name":"住宅区","address":"上海市长宁区长宁路378号"},{"poiid":"B2094654D565A6F8469D","title":"三和办公(长宁路)","lon":"121.42755","lat":"31.22374","category":"139","category_name":"文化用品店","address":"长宁路353临"},{"poiid":"B2094757D06FABFD449A","title":"有家川菜(江苏路店)","lon":"121.42983","lat":"31.22287","category":"71","category_name":"四川菜","address":"长宁区江苏路121号中西大厦2楼(武定西路口)"},{"poiid":"B2094654D565A5F44193","title":"日旭商务中心","lon":"121.42719","lat":"31.22388","category":"46","category_name":"楼宇","address":"长宁路350"},{"poiid":"B2094654D565A5F4449C","title":"长江小区","lon":"121.42545","lat":"31.225136","category":"47","category_name":"住宅区","address":"江苏北路111弄1-68号"},{"poiid":"B2094654D565A6F8459D","title":"顶峰美容美发长宁店","lon":"121.4272","lat":"31.22327","category":"148","category_name":"美容美发店","address":"长宁区长宁路373号(江苏北路江苏路)"},{"poiid":"B2094654D565A6F84499","title":"长新小区","lon":"121.42639","lat":"31.22221","category":"47","category_name":"住宅区","address":"新村路349弄2-62号(双号)"},{"poiid":"B2094655D265A1FA4792","title":"长宁88金廷","lon":"121.428012","lat":"31.224482","category":"47","category_name":"住宅区","address":"上海市青浦区赵巷置发路138号"},{"poiid":"B2094757D06AA4FD499E","title":"长宁路麻辣烫","lon":"121.42768","lat":"31.22388","category":"247","category_name":"餐饮美食","address":"上海长宁区长宁路478号(近江苏路)  "},{"poiid":"B2094654D565A6F8479F","title":"永琪美容美发(长宁大厦东北)","lon":"121.4278","lat":"31.22396","category":"148","category_name":"美容美发店","address":"江苏路8"},{"poiid":"B2094750DB6CA4FB4693","title":"峥峥牛肉拉面","lon":"121.425941","lat":"31.222293","category":"247","category_name":"餐饮美食","address":"长宁路478号"},{"poiid":"B2094655D26AA4FC439B","title":"盱眙虾趣龙虾城 长宁路店","lon":"121.426612054","lat":"31.223067793","category":"247","category_name":"餐饮美食","address":"长宁路320号2楼近江苏路"},{"poiid":"B2094654DB64A6FB4399","title":"汉庭快捷(江苏路店)","lon":"121.42717","lat":"31.22474","category":"216","category_name":"经济型连锁酒店","address":"长宁区江苏北路30号(近长宁路路口)"},{"poiid":"B2094757D569A1FD4098","title":"十一月","lon":"121.429161","lat":"31.222702","category":"95","category_name":"日本料理","address":"长宁区江苏路98号-5号(近武定西路)"},{"poiid":"B2094655D26DA4F8439C","title":"兆丰大厦北楼","lon":"121.42613","lat":"31.2235","category":"46","category_name":"楼宇","address":"长宁路396弄9号"},{"poiid":"B209475DD164A4FA4099","title":"DAM一K","lon":"121.42704","lat":"31.223497","category":"500","category_name":"未知分类","address":"上海市 长宁路373号3F"},{"poiid":"B2094655D264A2F9489A","title":"为波客栈","lon":"121.42719","lat":"31.2231","category":"250","category_name":"公园户外","address":""},{"poiid":"B2094654D565A1FE479C","title":"文峰美发美容江苏一店","lon":"121.42835","lat":"31.22392","category":"148","category_name":"美容美发店","address":"江苏路51"},{"poiid":"B2094654D565A5F4429A","title":"上海少年儿童业余新闻学校","lon":"121.42719","lat":"31.22389","category":"253","category_name":"校园生活","address":"长宁区长宁路350号3楼(江苏路口)"},{"poiid":"B2094753DA6FA7FF4899","title":"敦煌楼兰州牛肉拉面","lon":"121.426107","lat":"31.222482","category":"247","category_name":"餐饮美食","address":"上海市 长宁区长宁路436号"},{"poiid":"B2094757D065A7FF409D","title":"静安风华苑","lon":"121.42861","lat":"31.224697","category":"47","category_name":"住宅区","address":"上海市静安区江苏路1号(长宁路口)"},{"poiid":"B2094757D66CA3F9439B","title":"假日之星酒店","lon":"121.42781","lat":"31.22478","category":"217","category_name":"旅馆招待所","address":"长宁区长宁路250号(江苏路口)"},{"poiid":"B2094757D568A0FA4099","title":"雅量(勃逊)LeBouchon","lon":"121.4296869","lat":"31.22351194","category":"247","category_name":"餐饮美食","address":"静安区武定西路1455号(近江苏路)"},{"poiid":"B2094655D36CA0F94198","title":"江苏路长宁路","lon":"121.42582","lat":"31.22565","category":"38","category_name":"公交车站","address":""},{"poiid":"B2094757D06FA0FA449A","title":"长宁路江苏路","lon":"121.428071","lat":"31.225633","category":"500","category_name":"未知分类","address":"上海市长宁区长宁路江苏路"},{"poiid":"B2094757D06FA7F44898","title":"峥峥饮食","lon":"121.425010054","lat":"31.221689793","category":"257","category_name":"中餐厅","address":"长宁区长宁路478-2号(近华阳路)"},{"poiid":"B209475CD564A7F8439E","title":"上海滩中信泰富店","lon":"121.45602","lat":"31.22851","category":"119","category_name":"商场","address":"\"南京西路1168号中信泰富广场，店铺号221.\r\n\""},{"poiid":"B2094757D06FA5F54399","title":"吴记老锅底麻辣火锅(长宁路店)","lon":"121.42708","lat":"31.22361","category":"86","category_name":"火锅店","address":"长宁区长宁路345号(近江苏路)"},{"poiid":"B2094655D264A2F8489D","title":"小杨生煎馆","lon":"121.42765","lat":"31.22386","category":"257","category_name":"中餐厅","address":"长宁区长宁路341号(近江苏路)"},{"poiid":"B2094757D06FABFE4493","title":"岳阳飘湘楼(江苏路店)","lon":"121.42742","lat":"31.22433","category":"77","category_name":"湖南菜","address":"长宁区江苏北路30-6号(长宁路江苏北路)"},{"poiid":"B2094757D069A0F5459C","title":"上海爱乐乐团","lon":"121.429227","lat":"31.223856","category":"179","category_name":"音乐厅","address":"静安区武定西路1498号"},{"poiid":"B2094654D565A5FE469F","title":"亨通国际大厦","lon":"121.427","lat":"31.2248","category":"46","category_name":"楼宇","address":"长宁路1158号贝多芬广场618室"},{"poiid":"B2094757D068A5F94498","title":"长宁支路江苏北路","lon":"121.42757558","lat":"31.224833325","category":"500","category_name":"未知分类","address":"上海市长宁区长宁支路"},{"poiid":"B2094655D26DAAF94999","title":"思巴洛克咖啡中山公园店","lon":"121.42617","lat":"31.22281","category":"65","category_name":"咖啡厅","address":"长宁区长宁路434号(近中山公园或江苏北路)"},{"poiid":"B2094757D46DABF94299","title":"我和你","lon":"121.42715","lat":"31.22473","category":"76","category_name":"上海菜","address":"长宁区江苏北路30号-5(近长宁路)"},{"poiid":"B2094654DB6BA6F94492","title":"锦江之星(中山公园店)","lon":"121.42503","lat":"31.22184","category":"216","category_name":"经济型连锁酒店","address":"上海市长宁区长宁路546号(邮编200051)"},{"poiid":"B2094750DA6BA4FC4692","title":"敦煌楼兰州拉面","lon":"121.429443","lat":"31.225271","category":"247","category_name":"餐饮美食","address":"长宁区长宁路436号(近江苏路)"},{"poiid":"B2094757D068A3FA4298","title":"兆丰大厦","lon":"121.42636763","lat":"31.223258673","category":"46","category_name":"楼宇","address":"上海长宁区长宁路398号"},{"poiid":"B2094757D068A4FF4298","title":"长峰大厦","lon":"121.42821704422","lat":"31.221813972967","category":"46","category_name":"楼宇","address":"上海定西路1277号"},{"poiid":"B2094757D16EA1FE4993","title":"尤品鲜","lon":"121.427138586","lat":"31.2236533024","category":"96","category_name":"韩国料理","address":"长宁区长宁路357号(近江苏路)"},{"poiid":"B2094655D36CA0F9419D","title":"江苏北路长宁路","lon":"121.42566","lat":"31.2258","category":"38","category_name":"公交车站","address":""},{"poiid":"B2094757D068AAFE499E","title":"珊珊小笼馆(长宁路店)","lon":"121.42666","lat":"31.22335","category":"68","category_name":"快餐厅","address":"长宁区长宁路396弄18号(长宁路江苏北路)"},{"poiid":"B2094654DB6BA6F84799","title":"煲煲仔","lon":"121.42695599843","lat":"31.223134620432","category":"257","category_name":"中餐厅","address":"长宁区长宁路436号(江苏路口)"},{"poiid":"B2094654D565A6F4479D","title":"兆仪大厦","lon":"121.429","lat":"31.222","category":"46","category_name":"楼宇","address":"定西路1281号"},{"poiid":"B2094757D764A5FF4899","title":"胖阿姨正宗朝鲜冷面 长宁路店","lon":"121.42613","lat":"31.22277","category":"96","category_name":"韩国料理","address":"长宁区长宁路436号"},{"poiid":"B2094757D06AA6FC4598","title":"重庆鸡公煲","lon":"121.42688557","lat":"31.224049839","category":"71","category_name":"四川菜","address":"长宁区长宁路476号(近江苏路)"},{"poiid":"B2094757D06AA3FC4892","title":"南西幼儿园","lon":"121.42988","lat":"31.22349","category":"57","category_name":"幼儿园","address":"静安区武定西路1488号(近江苏路)"},{"poiid":"B2094757D064A6F54698","title":"民心小区","lon":"121.42525","lat":"31.223598","category":"47","category_name":"住宅区","address":"上海长宁区长宁路396弄"},{"poiid":"B2094750D76CA4FE429B","title":"妙寿司(江苏路店)","lon":"121.428","lat":"31.2241","category":"95","category_name":"日本料理","address":"长宁区江苏路585号(近延安西路)"},{"poiid":"B2094757D16DA3F5469D","title":"正圆烩面","lon":"121.427369586","lat":"31.2245989209","category":"68","category_name":"快餐厅","address":"长宁区长宁路367号(近江苏路)"},{"poiid":"B2094654D565A5F44293","title":"长宁大厦","lon":"121.42699","lat":"31.224062","category":"47","category_name":"住宅区","address":"上海市长宁区长宁路378号"},{"poiid":"B2094654D565A6F8469D","title":"三和办公(长宁路)","lon":"121.42755","lat":"31.22374","category":"139","category_name":"文化用品店","address":"长宁路353临"},{"poiid":"B2094757D06FABFD449A","title":"有家川菜(江苏路店)","lon":"121.42983","lat":"31.22287","category":"71","category_name":"四川菜","address":"长宁区江苏路121号中西大厦2楼(武定西路口)"},{"poiid":"B2094654D565A5F44193","title":"日旭商务中心","lon":"121.42719","lat":"31.22388","category":"46","category_name":"楼宇","address":"长宁路350"},{"poiid":"B2094654D565A5F4449C","title":"长江小区","lon":"121.42545","lat":"31.225136","category":"47","category_name":"住宅区","address":"江苏北路111弄1-68号"},{"poiid":"B2094654D565A6F8459D","title":"顶峰美容美发长宁店","lon":"121.4272","lat":"31.22327","category":"148","category_name":"美容美发店","address":"长宁区长宁路373号(江苏北路江苏路)"},{"poiid":"B2094654D565A6F84499","title":"长新小区","lon":"121.42639","lat":"31.22221","category":"47","category_name":"住宅区","address":"新村路349弄2-62号(双号)"},{"poiid":"B2094655D265A1FA4792","title":"长宁88金廷","lon":"121.428012","lat":"31.224482","category":"47","category_name":"住宅区","address":"上海市青浦区赵巷置发路138号"},{"poiid":"B2094757D06AA4FD499E","title":"长宁路麻辣烫","lon":"121.42768","lat":"31.22388","category":"247","category_name":"餐饮美食","address":"上海长宁区长宁路478号(近江苏路)  "},{"poiid":"B2094654D565A6F8479F","title":"永琪美容美发(长宁大厦东北)","lon":"121.4278","lat":"31.22396","category":"148","category_name":"美容美发店","address":"江苏路8"},{"poiid":"B2094750DB6CA4FB4693","title":"峥峥牛肉拉面","lon":"121.425941","lat":"31.222293","category":"247","category_name":"餐饮美食","address":"长宁路478号"},{"poiid":"B2094655D26AA4FC439B","title":"盱眙虾趣龙虾城 长宁路店","lon":"121.426612054","lat":"31.223067793","category":"247","category_name":"餐饮美食","address":"长宁路320号2楼近江苏路"},{"poiid":"B2094654DB64A6FB4399","title":"汉庭快捷(江苏路店)","lon":"121.42717","lat":"31.22474","category":"216","category_name":"经济型连锁酒店","address":"长宁区江苏北路30号(近长宁路路口)"},{"poiid":"B2094757D569A1FD4098","title":"十一月","lon":"121.429161","lat":"31.222702","category":"95","category_name":"日本料理","address":"长宁区江苏路98号-5号(近武定西路)"},{"poiid":"B2094655D26DA4F8439C","title":"兆丰大厦北楼","lon":"121.42613","lat":"31.2235","category":"46","category_name":"楼宇","address":"长宁路396弄9号"},{"poiid":"B209475DD164A4FA4099","title":"DAM一K","lon":"121.42704","lat":"31.223497","category":"500","category_name":"未知分类","address":"上海市 长宁路373号3F"},{"poiid":"B2094655D264A2F9489A","title":"为波客栈","lon":"121.42719","lat":"31.2231","category":"250","category_name":"公园户外","address":""},{"poiid":"B2094654D565A1FE479C","title":"文峰美发美容江苏一店","lon":"121.42835","lat":"31.22392","category":"148","category_name":"美容美发店","address":"江苏路51"},{"poiid":"B2094654D565A5F4429A","title":"上海少年儿童业余新闻学校","lon":"121.42719","lat":"31.22389","category":"253","category_name":"校园生活","address":"长宁区长宁路350号3楼(江苏路口)"},{"poiid":"B2094753DA6FA7FF4899","title":"敦煌楼兰州牛肉拉面","lon":"121.426107","lat":"31.222482","category":"247","category_name":"餐饮美食","address":"上海市 长宁区长宁路436号"},{"poiid":"B2094757D065A7FF409D","title":"静安风华苑","lon":"121.42861","lat":"31.224697","category":"47","category_name":"住宅区","address":"上海市静安区江苏路1号(长宁路口)"},{"poiid":"B2094757D66CA3F9439B","title":"假日之星酒店","lon":"121.42781","lat":"31.22478","category":"217","category_name":"旅馆招待所","address":"长宁区长宁路250号(江苏路口)"},{"poiid":"B2094757D568A0FA4099","title":"雅量(勃逊)LeBouchon","lon":"121.4296869","lat":"31.22351194","category":"247","category_name":"餐饮美食","address":"静安区武定西路1455号(近江苏路)"}]