[{"poiid":"B2094655D269ABFD469B","title":"静安寺","lon":"121.44552","lat":"31.22324","category":"244","category_name":"寺庙道观","address":"静安区南京西路1686号(近静安寺)"},{"poiid":"B2094655D268A6F5449B","title":"翠华餐厅 富民路店 Tsui Wah Restaurant","lon":"121.452124054","lat":"31.217478793","category":"72","category_name":"广东菜","address":"静安区富民路291号悟锦世纪大厦内(长乐路口)"},{"poiid":"B2094757D165A2F9489E","title":"Mr Pancake House","lon":"121.448","lat":"31.218213","category":"94","category_name":"西餐厅","address":"静安区巨鹿路901号(近华山路)"},{"poiid":"B2094753D76FAAFA449C","title":"上海滩国泰旗舰店","lon":"121.466011","lat":"31.216125","category":"249","category_name":"购物服务","address":"淮海中路868号"},{"poiid":"B209475CD564A7F84292","title":"上海滩新天地店","lon":"121.47463","lat":"31.22164","category":"119","category_name":"商场","address":"\"太仓路181弄新天地北里15号\r\n\""},{"poiid":"B209475CD564A7F8439E","title":"上海滩中信泰富店","lon":"121.45602","lat":"31.22851","category":"119","category_name":"商场","address":"\"南京西路1168号中信泰富广场，店铺号221.\r\n\""},{"poiid":"B2094655D26EA5F8409A","title":"保罗酒家","lon":"121.45205","lat":"31.21782","category":"257","category_name":"中餐厅","address":"静安区富民路271号(近长乐路)"},{"poiid":"B2094757D469A1F44499","title":"No.88酒吧 No.88 Bar","lon":"121.451729054","lat":"31.217383793","category":"172","category_name":"酒吧","address":"静安区富民路291号悟锦世纪大厦2楼(长乐路口)"},{"poiid":"B2094757D06FA2F94992","title":"Nepali Kitchen","lon":"121.45022","lat":"31.21855","category":"110","category_name":"其他亚洲菜","address":"静安区巨鹿路819弄4号(近富民路)"},{"poiid":"B2094751D46BA4F54898","title":"Plaza Pizza","lon":"121.447794","lat":"31.216233","category":"94","category_name":"西餐厅","address":"静安区华山路325号-1(常熟路口)"},{"poiid":"B2094750D268A1F54699","title":"宫","lon":"121.450805","lat":"31.217145","category":"260","category_name":"其他","address":"徐汇区长乐路764弄2号前门(近华亭路)"},{"poiid":"B2094757D06FABFA459A","title":"dr.wine","lon":"121.45114394","lat":"31.219256726","category":"65","category_name":"咖啡厅","address":"上海富民路177号(近巨鹿路)"},{"poiid":"B2094757D06FA7FD449A","title":"席家花园(静安店)","lon":"121.44815","lat":"31.21749","category":"47","category_name":"住宅区","address":"静安区巨鹿路889号(近常熟路)"},{"poiid":"B2094757D06FA1FF459E","title":"PHO REAL(富民路店)","lon":"121.45148","lat":"31.21822","category":"99","category_name":"泰国／越南菜品餐厅","address":"静安区富民路166号(近长乐路)"},{"poiid":"B2094757D068A6F9479B","title":"Casanova","lon":"121.448010058","lat":"31.2179782269","category":"94","category_name":"西餐厅","address":"静安区巨鹿路913号(近常熟路)"},{"poiid":"B2094757D06FA0F54398","title":"CANTINA AGAVE 富民路店","lon":"121.452071054","lat":"31.217879793","category":"94","category_name":"西餐厅","address":"静安区富民路291号悟锦世纪大厦1楼01A-2室(长乐路口)"},{"poiid":"B2094757D06FA4FB4792","title":"zen cafe","lon":"121.44974","lat":"31.21571","category":"65","category_name":"咖啡厅","address":"徐汇区东平路7-1号(近衡山路)"},{"poiid":"B2094757D06FA4FE499F","title":"锡伯新疆餐厅","lon":"121.44766329","lat":"31.217222182","category":"90","category_name":"清真餐馆","address":"静安区常熟路83号3楼(近巨鹿路)"},{"poiid":"B2094757D068A4FF459C","title":"荧七","lon":"121.45033424","lat":"31.217746436","category":"172","category_name":"酒吧","address":"上海巨鹿路"},{"poiid":"B2094757D06FA2FE459A","title":"COSTA COFFEE(常熟路店)","lon":"121.44797","lat":"31.21687","category":"65","category_name":"咖啡厅","address":"静安区常熟路85号1楼A8(近巨鹿路)"},{"poiid":"B2094654DB69A6F94798","title":"新都里无二 Shintori 2","lon":"121.45023441444","lat":"31.219697165107","category":"95","category_name":"日本料理","address":"静安区巨鹿路803号(近富民路)"},{"poiid":"B2094757D06FA1FC469B","title":"Dolce Vita Italian","lon":"121.45246925","lat":"31.2171414317","category":"94","category_name":"西餐厅","address":"静安区富民路291号悟锦世纪大厦内(长乐路口)"},{"poiid":"B2094757D068ABFC4098","title":"CLUB VIETNAM","lon":"121.44839","lat":"31.21765","category":"99","category_name":"泰国／越南菜品餐厅","address":"静安区巨鹿路889号11-12号楼(近常熟路)"},{"poiid":"B2094757DB69A2F5449A","title":"il Bambino","lon":"121.44798","lat":"31.21813","category":"94","category_name":"西餐厅","address":"静安区巨鹿路903号(近常熟路)"},{"poiid":"B2094757D66DABF94899","title":"Wasabi","lon":"121.44806058","lat":"31.2184602","category":"500","category_name":"未知分类","address":"上海静安区延安西路"},{"poiid":"B209475DD268A6FB489B","title":"香港龙凤楼","lon":"121.448295","lat":"31.217926","category":"247","category_name":"餐饮美食","address":"上海市 巨鹿路889号"},{"poiid":"B2094750D26FA7F5469E","title":"避风塘(常熟路店)","lon":"121.447868","lat":"31.216531","category":"72","category_name":"广东菜","address":"静安区常熟路98号(近巨鹿路)"},{"poiid":"B2094757D06FA1FD429F","title":"狠牛独创牛肉面馆(富民路店)","lon":"121.45243","lat":"31.21706","category":"68","category_name":"快餐厅","address":"静安区富民路291号悟锦世纪大厦1楼3B(长乐路口)"},{"poiid":"B2094757D068A2F94993","title":"和食上都","lon":"121.448460186","lat":"31.2158895505","category":"95","category_name":"日本料理","address":"静安区常熟路87号(近巨鹿路)"},{"poiid":"B2094757D06FA5FB409B","title":"毛豆阿姨","lon":"121.44856","lat":"31.21619","category":"76","category_name":"上海菜","address":"静安区常熟路115弄5号(近长乐路)"},{"poiid":"B2094750D66FA4FF469C","title":"Dr.  Beer","lon":"121.447898","lat":"31.216619","category":"248","category_name":"生活娱乐","address":"静安区富民路83号"},{"poiid":"B2094757D06FA6FB439F","title":"香啡缤(富民路店)","lon":"121.45256","lat":"31.21711","category":"260","category_name":"其他","address":"静安区富民路291号悟锦世纪大厦内(长乐路口)"},{"poiid":"B2094757D06FA2F4499F","title":"董大师金牌稻香蛙(延庆路店)","lon":"121.4514","lat":"31.21504","category":"71","category_name":"四川菜","address":"徐汇区延庆路92号(近华亭路)"},{"poiid":"B2094757D068A4FF439D","title":"BALI LAGUNA","lon":"121.45022583","lat":"31.219125747","category":"172","category_name":"酒吧","address":"上海静安区南京西路1649号(静安公园内)"},{"poiid":"B2094757D66AA5F8419F","title":"维也纳西餐厅 常熟路","lon":"121.4478","lat":"31.21693","category":"94","category_name":"西餐厅","address":"静安区常熟路98号4楼(近长乐路)"},{"poiid":"B2094751DB6CA4FD469E","title":"Vino Tapas","lon":"121.45196","lat":"31.21775","category":"247","category_name":"餐饮美食","address":"卢湾区富民路259号(近长乐路)"},{"poiid":"B2094757D064A2FD489E","title":"和さ美(巨鹿路店)","lon":"121.44835","lat":"31.2184","category":"95","category_name":"日本料理","address":"静安区巨鹿路876号(近华山路)"},{"poiid":"B2094750D26CA1FA4492","title":"玫瑰石时尚餐厅 Incarose Bistro Loun","lon":"121.447913","lat":"31.217215","category":"247","category_name":"餐饮美食","address":"静安区常熟路83号时尚前瞻大厦3楼(近巨鹿路)"},{"poiid":"B2094757D068A3F4439B","title":"湾仔(常熟店)","lon":"121.44904","lat":"31.21845","category":"71","category_name":"四川菜","address":"静安区巨鹿路858号(近常熟路)"},{"poiid":"B2094757D068A2FE4993","title":"金刚饮食店","lon":"121.451340788","lat":"31.217013254","category":"68","category_name":"快餐厅","address":"徐汇区长乐路601号(近东湖路)"},{"poiid":"B2094654D564ABFF4593","title":"渡口书店","lon":"121.44947","lat":"31.21916","category":"125","category_name":"书店","address":"静安区巨鹿路828号(富民路常熟路间)"},{"poiid":"B2094757D069A7F84998","title":"Q太郎","lon":"121.45101065","lat":"31.219166647","category":"95","category_name":"日本料理","address":"静安区富民路158号(近巨鹿路)"},{"poiid":"B2094757D06FA6F94698","title":"优纳仕意式休闲餐厅(静安店)","lon":"121.44787965","lat":"31.217260656","category":"94","category_name":"西餐厅","address":"静安区常熟路85号(近巨鹿路)"},{"poiid":"B2094753D66EAAFF469A","title":"千秋膳房常熟店","lon":"121.44784927","lat":"31.21716905","category":"247","category_name":"餐饮美食","address":"上海市静安区常熟路87号"},{"poiid":"B2094655D36CA5F94792","title":"常熟路长乐路","lon":"121.44883","lat":"31.21628","category":"38","category_name":"公交车站","address":""},{"poiid":"B2094757DB69A2FC4393","title":"宴公馆","lon":"121.448713","lat":"31.217807","category":"72","category_name":"广东菜","address":"静安区巨鹿路889号16号楼(近常熟路)"},{"poiid":"B2094757D064A2FB4893","title":"新加坡泰国村鱼翅(巨鹿花园店)","lon":"121.44858384","lat":"31.218204948","category":"110","category_name":"其他亚洲菜","address":"静安区巨鹿路889号7-8号楼(常熟路口)"},{"poiid":"B2094655D26EA6F4449A","title":"尼泊尔餐厅","lon":"121.45008","lat":"31.21929","category":"102","category_name":"印度风味","address":"静安区巨鹿路819弄4号"},{"poiid":"B2094757D56CA0F9499B","title":"B Real","lon":"121.451317","lat":"31.219085","category":"99","category_name":"泰国／越南菜品餐厅","address":"静安区富民路185号"},{"poiid":"B2094757DB6CA4FC4793","title":"Brioche Dorée","lon":"121.4521496124225","lat":"31.21834106369002","category":"247","category_name":"餐饮美食","address":"徐汇区东湖路7号(近富民路)"},{"poiid":"B2094655D269ABFD469B","title":"静安寺","lon":"121.44552","lat":"31.22324","category":"244","category_name":"寺庙道观","address":"静安区南京西路1686号(近静安寺)"},{"poiid":"B2094655D268A6F5449B","title":"翠华餐厅 富民路店 Tsui Wah Restaurant","lon":"121.452124054","lat":"31.217478793","category":"72","category_name":"广东菜","address":"静安区富民路291号悟锦世纪大厦内(长乐路口)"},{"poiid":"B2094757D165A2F9489E","title":"Mr Pancake House","lon":"121.448","lat":"31.218213","category":"94","category_name":"西餐厅","address":"静安区巨鹿路901号(近华山路)"},{"poiid":"B2094753D76FAAFA449C","title":"上海滩国泰旗舰店","lon":"121.466011","lat":"31.216125","category":"249","category_name":"购物服务","address":"淮海中路868号"},{"poiid":"B209475CD564A7F84292","title":"上海滩新天地店","lon":"121.47463","lat":"31.22164","category":"119","category_name":"商场","address":"\"太仓路181弄新天地北里15号\r\n\""},{"poiid":"B209475CD564A7F8439E","title":"上海滩中信泰富店","lon":"121.45602","lat":"31.22851","category":"119","category_name":"商场","address":"\"南京西路1168号中信泰富广场，店铺号221.\r\n\""},{"poiid":"B2094655D26EA5F8409A","title":"保罗酒家","lon":"121.45205","lat":"31.21782","category":"257","category_name":"中餐厅","address":"静安区富民路271号(近长乐路)"},{"poiid":"B2094757D469A1F44499","title":"No.88酒吧 No.88 Bar","lon":"121.451729054","lat":"31.217383793","category":"172","category_name":"酒吧","address":"静安区富民路291号悟锦世纪大厦2楼(长乐路口)"},{"poiid":"B2094757D06FA2F94992","title":"Nepali Kitchen","lon":"121.45022","lat":"31.21855","category":"110","category_name":"其他亚洲菜","address":"静安区巨鹿路819弄4号(近富民路)"},{"poiid":"B2094751D46BA4F54898","title":"Plaza Pizza","lon":"121.447794","lat":"31.216233","category":"94","category_name":"西餐厅","address":"静安区华山路325号-1(常熟路口)"},{"poiid":"B2094750D268A1F54699","title":"宫","lon":"121.450805","lat":"31.217145","category":"260","category_name":"其他","address":"徐汇区长乐路764弄2号前门(近华亭路)"},{"poiid":"B2094757D06FABFA459A","title":"dr.wine","lon":"121.45114394","lat":"31.219256726","category":"65","category_name":"咖啡厅","address":"上海富民路177号(近巨鹿路)"},{"poiid":"B2094757D06FA7FD449A","title":"席家花园(静安店)","lon":"121.44815","lat":"31.21749","category":"47","category_name":"住宅区","address":"静安区巨鹿路889号(近常熟路)"},{"poiid":"B2094757D06FA1FF459E","title":"PHO REAL(富民路店)","lon":"121.45148","lat":"31.21822","category":"99","category_name":"泰国／越南菜品餐厅","address":"静安区富民路166号(近长乐路)"},{"poiid":"B2094757D068A6F9479B","title":"Casanova","lon":"121.448010058","lat":"31.2179782269","category":"94","category_name":"西餐厅","address":"静安区巨鹿路913号(近常熟路)"},{"poiid":"B2094757D06FA0F54398","title":"CANTINA AGAVE 富民路店","lon":"121.452071054","lat":"31.217879793","category":"94","category_name":"西餐厅","address":"静安区富民路291号悟锦世纪大厦1楼01A-2室(长乐路口)"},{"poiid":"B2094757D06FA4FB4792","title":"zen cafe","lon":"121.44974","lat":"31.21571","category":"65","category_name":"咖啡厅","address":"徐汇区东平路7-1号(近衡山路)"},{"poiid":"B2094757D06FA4FE499F","title":"锡伯新疆餐厅","lon":"121.44766329","lat":"31.217222182","category":"90","category_name":"清真餐馆","address":"静安区常熟路83号3楼(近巨鹿路)"},{"poiid":"B2094757D068A4FF459C","title":"荧七","lon":"121.45033424","lat":"31.217746436","category":"172","category_name":"酒吧","address":"上海巨鹿路"},{"poiid":"B2094757D06FA2FE459A","title":"COSTA COFFEE(常熟路店)","lon":"121.44797","lat":"31.21687","category":"65","category_name":"咖啡厅","address":"静安区常熟路85号1楼A8(近巨鹿路)"},{"poiid":"B2094654DB69A6F94798","title":"新都里无二 Shintori 2","lon":"121.45023441444","lat":"31.219697165107","category":"95","category_name":"日本料理","address":"静安区巨鹿路803号(近富民路)"},{"poiid":"B2094757D06FA1FC469B","title":"Dolce Vita Italian","lon":"121.45246925","lat":"31.2171414317","category":"94","category_name":"西餐厅","address":"静安区富民路291号悟锦世纪大厦内(长乐路口)"},{"poiid":"B2094757D068ABFC4098","title":"CLUB VIETNAM","lon":"121.44839","lat":"31.21765","category":"99","category_name":"泰国／越南菜品餐厅","address":"静安区巨鹿路889号11-12号楼(近常熟路)"},{"poiid":"B2094757DB69A2F5449A","title":"il Bambino","lon":"121.44798","lat":"31.21813","category":"94","category_name":"西餐厅","address":"静安区巨鹿路903号(近常熟路)"},{"poiid":"B2094757D66DABF94899","title":"Wasabi","lon":"121.44806058","lat":"31.2184602","category":"500","category_name":"未知分类","address":"上海静安区延安西路"},{"poiid":"B209475DD268A6FB489B","title":"香港龙凤楼","lon":"121.448295","lat":"31.217926","category":"247","category_name":"餐饮美食","address":"上海市 巨鹿路889号"},{"poiid":"B2094750D26FA7F5469E","title":"避风塘(常熟路店)","lon":"121.447868","lat":"31.216531","category":"72","category_name":"广东菜","address":"静安区常熟路98号(近巨鹿路)"},{"poiid":"B2094757D06FA1FD429F","title":"狠牛独创牛肉面馆(富民路店)","lon":"121.45243","lat":"31.21706","category":"68","category_name":"快餐厅","address":"静安区富民路291号悟锦世纪大厦1楼3B(长乐路口)"},{"poiid":"B2094757D068A2F94993","title":"和食上都","lon":"121.448460186","lat":"31.2158895505","category":"95","category_name":"日本料理","address":"静安区常熟路87号(近巨鹿路)"},{"poiid":"B2094757D06FA5FB409B","title":"毛豆阿姨","lon":"121.44856","lat":"31.21619","category":"76","category_name":"上海菜","address":"静安区常熟路115弄5号(近长乐路)"},{"poiid":"B2094750D66FA4FF469C","title":"Dr.  Beer","lon":"121.447898","lat":"31.216619","category":"248","category_name":"生活娱乐","address":"静安区富民路83号"},{"poiid":"B2094757D06FA6FB439F","title":"香啡缤(富民路店)","lon":"121.45256","lat":"31.21711","category":"260","category_name":"其他","address":"静安区富民路291号悟锦世纪大厦内(长乐路口)"},{"poiid":"B2094757D06FA2F4499F","title":"董大师金牌稻香蛙(延庆路店)","lon":"121.4514","lat":"31.21504","category":"71","category_name":"四川菜","address":"徐汇区延庆路92号(近华亭路)"},{"poiid":"B2094757D068A4FF439D","title":"BALI LAGUNA","lon":"121.45022583","lat":"31.219125747","category":"172","category_name":"酒吧","address":"上海静安区南京西路1649号(静安公园内)"},{"poiid":"B2094757D66AA5F8419F","title":"维也纳西餐厅 常熟路","lon":"121.4478","lat":"31.21693","category":"94","category_name":"西餐厅","address":"静安区常熟路98号4楼(近长乐路)"},{"poiid":"B2094751DB6CA4FD469E","title":"Vino Tapas","lon":"121.45196","lat":"31.21775","category":"247","category_name":"餐饮美食","address":"卢湾区富民路259号(近长乐路)"},{"poiid":"B2094757D064A2FD489E","title":"和さ美(巨鹿路店)","lon":"121.44835","lat":"31.2184","category":"95","category_name":"日本料理","address":"静安区巨鹿路876号(近华山路)"},{"poiid":"B2094750D26CA1FA4492","title":"玫瑰石时尚餐厅 Incarose Bistro Loun","lon":"121.447913","lat":"31.217215","category":"247","category_name":"餐饮美食","address":"静安区常熟路83号时尚前瞻大厦3楼(近巨鹿路)"},{"poiid":"B2094757D068A3F4439B","title":"湾仔(常熟店)","lon":"121.44904","lat":"31.21845","category":"71","category_name":"四川菜","address":"静安区巨鹿路858号(近常熟路)"},{"poiid":"B2094757D068A2FE4993","title":"金刚饮食店","lon":"121.451340788","lat":"31.217013254","category":"68","category_name":"快餐厅","address":"徐汇区长乐路601号(近东湖路)"},{"poiid":"B2094654D564ABFF4593","title":"渡口书店","lon":"121.44947","lat":"31.21916","category":"125","category_name":"书店","address":"静安区巨鹿路828号(富民路常熟路间)"},{"poiid":"B2094757D069A7F84998","title":"Q太郎","lon":"121.45101065","lat":"31.219166647","category":"95","category_name":"日本料理","address":"静安区富民路158号(近巨鹿路)"},{"poiid":"B2094757D06FA6F94698","title":"优纳仕意式休闲餐厅(静安店)","lon":"121.44787965","lat":"31.217260656","category":"94","category_name":"西餐厅","address":"静安区常熟路85号(近巨鹿路)"},{"poiid":"B2094753D66EAAFF469A","title":"千秋膳房常熟店","lon":"121.44784927","lat":"31.21716905","category":"247","category_name":"餐饮美食","address":"上海市静安区常熟路87号"},{"poiid":"B2094655D36CA5F94792","title":"常熟路长乐路","lon":"121.44883","lat":"31.21628","category":"38","category_name":"公交车站","address":""},{"poiid":"B2094757DB69A2FC4393","title":"宴公馆","lon":"121.448713","lat":"31.217807","category":"72","category_name":"广东菜","address":"静安区巨鹿路889号16号楼(近常熟路)"},{"poiid":"B2094757D064A2FB4893","title":"新加坡泰国村鱼翅(巨鹿花园店)","lon":"121.44858384","lat":"31.218204948","category":"110","category_name":"其他亚洲菜","address":"静安区巨鹿路889号7-8号楼(常熟路口)"},{"poiid":"B2094655D26EA6F4449A","title":"尼泊尔餐厅","lon":"121.45008","lat":"31.21929","category":"102","category_name":"印度风味","address":"静安区巨鹿路819弄4号"},{"poiid":"B2094757D56CA0F9499B","title":"B Real","lon":"121.451317","lat":"31.219085","category":"99","category_name":"泰国／越南菜品餐厅","address":"静安区富民路185号"},{"poiid":"B2094757DB6CA4FC4793","title":"Brioche Dorée","lon":"121.4521496124225","lat":"31.21834106369002","category":"247","category_name":"餐饮美食","address":"徐汇区东湖路7号(近富民路)"},{"poiid":"B2094655D269ABFD469B","title":"静安寺","lon":"121.44552","lat":"31.22324","category":"244","category_name":"寺庙道观","address":"静安区南京西路1686号(近静安寺)"},{"poiid":"B2094655D268A6F5449B","title":"翠华餐厅 富民路店 Tsui Wah Restaurant","lon":"121.452124054","lat":"31.217478793","category":"72","category_name":"广东菜","address":"静安区富民路291号悟锦世纪大厦内(长乐路口)"},{"poiid":"B2094757D165A2F9489E","title":"Mr Pancake House","lon":"121.448","lat":"31.218213","category":"94","category_name":"西餐厅","address":"静安区巨鹿路901号(近华山路)"},{"poiid":"B2094753D76FAAFA449C","title":"上海滩国泰旗舰店","lon":"121.466011","lat":"31.216125","category":"249","category_name":"购物服务","address":"淮海中路868号"},{"poiid":"B209475CD564A7F84292","title":"上海滩新天地店","lon":"121.47463","lat":"31.22164","category":"119","category_name":"商场","address":"\"太仓路181弄新天地北里15号\r\n\""},{"poiid":"B209475CD564A7F8439E","title":"上海滩中信泰富店","lon":"121.45602","lat":"31.22851","category":"119","category_name":"商场","address":"\"南京西路1168号中信泰富广场，店铺号221.\r\n\""},{"poiid":"B2094655D26EA5F8409A","title":"保罗酒家","lon":"121.45205","lat":"31.21782","category":"257","category_name":"中餐厅","address":"静安区富民路271号(近长乐路)"},{"poiid":"B2094757D469A1F44499","title":"No.88酒吧 No.88 Bar","lon":"121.451729054","lat":"31.217383793","category":"172","category_name":"酒吧","address":"静安区富民路291号悟锦世纪大厦2楼(长乐路口)"},{"poiid":"B2094757D06FA2F94992","title":"Nepali Kitchen","lon":"121.45022","lat":"31.21855","category":"110","category_name":"其他亚洲菜","address":"静安区巨鹿路819弄4号(近富民路)"},{"poiid":"B2094751D46BA4F54898","title":"Plaza Pizza","lon":"121.447794","lat":"31.216233","category":"94","category_name":"西餐厅","address":"静安区华山路325号-1(常熟路口)"},{"poiid":"B2094750D268A1F54699","title":"宫","lon":"121.450805","lat":"31.217145","category":"260","category_name":"其他","address":"徐汇区长乐路764弄2号前门(近华亭路)"},{"poiid":"B2094757D06FABFA459A","title":"dr.wine","lon":"121.45114394","lat":"31.219256726","category":"65","category_name":"咖啡厅","address":"上海富民路177号(近巨鹿路)"},{"poiid":"B2094757D06FA7FD449A","title":"席家花园(静安店)","lon":"121.44815","lat":"31.21749","category":"47","category_name":"住宅区","address":"静安区巨鹿路889号(近常熟路)"},{"poiid":"B2094757D06FA1FF459E","title":"PHO REAL(富民路店)","lon":"121.45148","lat":"31.21822","category":"99","category_name":"泰国／越南菜品餐厅","address":"静安区富民路166号(近长乐路)"},{"poiid":"B2094757D068A6F9479B","title":"Casanova","lon":"121.448010058","lat":"31.2179782269","category":"94","category_name":"西餐厅","address":"静安区巨鹿路913号(近常熟路)"},{"poiid":"B2094757D06FA0F54398","title":"CANTINA AGAVE 富民路店","lon":"121.452071054","lat":"31.217879793","category":"94","category_name":"西餐厅","address":"静安区富民路291号悟锦世纪大厦1楼01A-2室(长乐路口)"},{"poiid":"B2094757D06FA4FB4792","title":"zen cafe","lon":"121.44974","lat":"31.21571","category":"65","category_name":"咖啡厅","address":"徐汇区东平路7-1号(近衡山路)"},{"poiid":"B2094757D06FA4FE499F","title":"锡伯新疆餐厅","lon":"121.44766329","lat":"31.217222182","category":"90","category_name":"清真餐馆","address":"静安区常熟路83号3楼(近巨鹿路)"},{"poiid":"B2094757D068A4FF459C","title":"荧七","lon":"121.45033424","lat":"31.217746436","category":"172","category_name":"酒吧","address":"上海巨鹿路"},{"poiid":"B2094757D06FA2FE459A","title":"COSTA COFFEE(常熟路店)","lon":"121.44797","lat":"31.21687","category":"65","category_name":"咖啡厅","address":"静安区常熟路85号1楼A8(近巨鹿路)"},{"poiid":"B2094654DB69A6F94798","title":"新都里无二 Shintori 2","lon":"121.45023441444","lat":"31.219697165107","category":"95","category_name":"日本料理","address":"静安区巨鹿路803号(近富民路)"},{"poiid":"B2094757D06FA1FC469B","title":"Dolce Vita Italian","lon":"121.45246925","lat":"31.2171414317","category":"94","category_name":"西餐厅","address":"静安区富民路291号悟锦世纪大厦内(长乐路口)"},{"poiid":"B2094757D068ABFC4098","title":"CLUB VIETNAM","lon":"121.44839","lat":"31.21765","category":"99","category_name":"泰国／越南菜品餐厅","address":"静安区巨鹿路889号11-12号楼(近常熟路)"},{"poiid":"B2094757DB69A2F5449A","title":"il Bambino","lon":"121.44798","lat":"31.21813","category":"94","category_name":"西餐厅","address":"静安区巨鹿路903号(近常熟路)"},{"poiid":"B2094757D66DABF94899","title":"Wasabi","lon":"121.44806058","lat":"31.2184602","category":"500","category_name":"未知分类","address":"上海静安区延安西路"},{"poiid":"B209475DD268A6FB489B","title":"香港龙凤楼","lon":"121.448295","lat":"31.217926","category":"247","category_name":"餐饮美食","address":"上海市 巨鹿路889号"},{"poiid":"B2094750D26FA7F5469E","title":"避风塘(常熟路店)","lon":"121.447868","lat":"31.216531","category":"72","category_name":"广东菜","address":"静安区常熟路98号(近巨鹿路)"},{"poiid":"B2094757D06FA1FD429F","title":"狠牛独创牛肉面馆(富民路店)","lon":"121.45243","lat":"31.21706","category":"68","category_name":"快餐厅","address":"静安区富民路291号悟锦世纪大厦1楼3B(长乐路口)"},{"poiid":"B2094757D068A2F94993","title":"和食上都","lon":"121.448460186","lat":"31.2158895505","category":"95","category_name":"日本料理","address":"静安区常熟路87号(近巨鹿路)"},{"poiid":"B2094757D06FA5FB409B","title":"毛豆阿姨","lon":"121.44856","lat":"31.21619","category":"76","category_name":"上海菜","address":"静安区常熟路115弄5号(近长乐路)"},{"poiid":"B2094750D66FA4FF469C","title":"Dr.  Beer","lon":"121.447898","lat":"31.216619","category":"248","category_name":"生活娱乐","address":"静安区富民路83号"},{"poiid":"B2094757D06FA6FB439F","title":"香啡缤(富民路店)","lon":"121.45256","lat":"31.21711","category":"260","category_name":"其他","address":"静安区富民路291号悟锦世纪大厦内(长乐路口)"},{"poiid":"B2094757D06FA2F4499F","title":"董大师金牌稻香蛙(延庆路店)","lon":"121.4514","lat":"31.21504","category":"71","category_name":"四川菜","address":"徐汇区延庆路92号(近华亭路)"},{"poiid":"B2094757D068A4FF439D","title":"BALI LAGUNA","lon":"121.45022583","lat":"31.219125747","category":"172","category_name":"酒吧","address":"上海静安区南京西路1649号(静安公园内)"},{"poiid":"B2094757D66AA5F8419F","title":"维也纳西餐厅 常熟路","lon":"121.4478","lat":"31.21693","category":"94","category_name":"西餐厅","address":"静安区常熟路98号4楼(近长乐路)"},{"poiid":"B2094751DB6CA4FD469E","title":"Vino Tapas","lon":"121.45196","lat":"31.21775","category":"247","category_name":"餐饮美食","address":"卢湾区富民路259号(近长乐路)"},{"poiid":"B2094757D064A2FD489E","title":"和さ美(巨鹿路店)","lon":"121.44835","lat":"31.2184","category":"95","category_name":"日本料理","address":"静安区巨鹿路876号(近华山路)"},{"poiid":"B2094750D26CA1FA4492","title":"玫瑰石时尚餐厅 Incarose Bistro Loun","lon":"121.447913","lat":"31.217215","category":"247","category_name":"餐饮美食","address":"静安区常熟路83号时尚前瞻大厦3楼(近巨鹿路)"},{"poiid":"B2094757D068A3F4439B","title":"湾仔(常熟店)","lon":"121.44904","lat":"31.21845","category":"71","category_name":"四川菜","address":"静安区巨鹿路858号(近常熟路)"},{"poiid":"B2094757D068A2FE4993","title":"金刚饮食店","lon":"121.451340788","lat":"31.217013254","category":"68","category_name":"快餐厅","address":"徐汇区长乐路601号(近东湖路)"},{"poiid":"B2094654D564ABFF4593","title":"渡口书店","lon":"121.44947","lat":"31.21916","category":"125","category_name":"书店","address":"静安区巨鹿路828号(富民路常熟路间)"},{"poiid":"B2094757D069A7F84998","title":"Q太郎","lon":"121.45101065","lat":"31.219166647","category":"95","category_name":"日本料理","address":"静安区富民路158号(近巨鹿路)"},{"poiid":"B2094757D06FA6F94698","title":"优纳仕意式休闲餐厅(静安店)","lon":"121.44787965","lat":"31.217260656","category":"94","category_name":"西餐厅","address":"静安区常熟路85号(近巨鹿路)"},{"poiid":"B2094753D66EAAFF469A","title":"千秋膳房常熟店","lon":"121.44784927","lat":"31.21716905","category":"247","category_name":"餐饮美食","address":"上海市静安区常熟路87号"},{"poiid":"B2094655D36CA5F94792","title":"常熟路长乐路","lon":"121.44883","lat":"31.21628","category":"38","category_name":"公交车站","address":""},{"poiid":"B2094757DB69A2FC4393","title":"宴公馆","lon":"121.448713","lat":"31.217807","category":"72","category_name":"广东菜","address":"静安区巨鹿路889号16号楼(近常熟路)"},{"poiid":"B2094757D064A2FB4893","title":"新加坡泰国村鱼翅(巨鹿花园店)","lon":"121.44858384","lat":"31.218204948","category":"110","category_name":"其他亚洲菜","address":"静安区巨鹿路889号7-8号楼(常熟路口)"},{"poiid":"B2094655D26EA6F4449A","title":"尼泊尔餐厅","lon":"121.45008","lat":"31.21929","category":"102","category_name":"印度风味","address":"静安区巨鹿路819弄4号"},{"poiid":"B2094757D56CA0F9499B","title":"B Real","lon":"121.451317","lat":"31.219085","category":"99","category_name":"泰国／越南菜品餐厅","address":"静安区富民路185号"},{"poiid":"B2094757DB6CA4FC4793","title":"Brioche Dorée","lon":"121.4521496124225","lat":"31.21834106369002","category":"247","category_name":"餐饮美食","address":"徐汇区东湖路7号(近富民路)"},{"poiid":"B2094655D269ABFD469B","title":"静安寺","lon":"121.44552","lat":"31.22324","category":"244","category_name":"寺庙道观","address":"静安区南京西路1686号(近静安寺)"},{"poiid":"B2094655D268A6F5449B","title":"翠华餐厅 富民路店 Tsui Wah Restaurant","lon":"121.452124054","lat":"31.217478793","category":"72","category_name":"广东菜","address":"静安区富民路291号悟锦世纪大厦内(长乐路口)"},{"poiid":"B2094757D165A2F9489E","title":"Mr Pancake House","lon":"121.448","lat":"31.218213","category":"94","category_name":"西餐厅","address":"静安区巨鹿路901号(近华山路)"},{"poiid":"B2094753D76FAAFA449C","title":"上海滩国泰旗舰店","lon":"121.466011","lat":"31.216125","category":"249","category_name":"购物服务","address":"淮海中路868号"},{"poiid":"B209475CD564A7F84292","title":"上海滩新天地店","lon":"121.47463","lat":"31.22164","category":"119","category_name":"商场","address":"\"太仓路181弄新天地北里15号\r\n\""},{"poiid":"B209475CD564A7F8439E","title":"上海滩中信泰富店","lon":"121.45602","lat":"31.22851","category":"119","category_name":"商场","address":"\"南京西路1168号中信泰富广场，店铺号221.\r\n\""},{"poiid":"B2094655D26EA5F8409A","title":"保罗酒家","lon":"121.45205","lat":"31.21782","category":"257","category_name":"中餐厅","address":"静安区富民路271号(近长乐路)"},{"poiid":"B2094757D469A1F44499","title":"No.88酒吧 No.88 Bar","lon":"121.451729054","lat":"31.217383793","category":"172","category_name":"酒吧","address":"静安区富民路291号悟锦世纪大厦2楼(长乐路口)"},{"poiid":"B2094757D06FA2F94992","title":"Nepali Kitchen","lon":"121.45022","lat":"31.21855","category":"110","category_name":"其他亚洲菜","address":"静安区巨鹿路819弄4号(近富民路)"},{"poiid":"B2094751D46BA4F54898","title":"Plaza Pizza","lon":"121.447794","lat":"31.216233","category":"94","category_name":"西餐厅","address":"静安区华山路325号-1(常熟路口)"},{"poiid":"B2094750D268A1F54699","title":"宫","lon":"121.450805","lat":"31.217145","category":"260","category_name":"其他","address":"徐汇区长乐路764弄2号前门(近华亭路)"},{"poiid":"B2094757D06FABFA459A","title":"dr.wine","lon":"121.45114394","lat":"31.219256726","category":"65","category_name":"咖啡厅","address":"上海富民路177号(近巨鹿路)"},{"poiid":"B2094757D06FA7FD449A","title":"席家花园(静安店)","lon":"121.44815","lat":"31.21749","category":"47","category_name":"住宅区","address":"静安区巨鹿路889号(近常熟路)"},{"poiid":"B2094757D06FA1FF459E","title":"PHO REAL(富民路店)","lon":"121.45148","lat":"31.21822","category":"99","category_name":"泰国／越南菜品餐厅","address":"静安区富民路166号(近长乐路)"},{"poiid":"B2094757D068A6F9479B","title":"Casanova","lon":"121.448010058","lat":"31.2179782269","category":"94","category_name":"西餐厅","address":"静安区巨鹿路913号(近常熟路)"},{"poiid":"B2094757D06FA0F54398","title":"CANTINA AGAVE 富民路店","lon":"121.452071054","lat":"31.217879793","category":"94","category_name":"西餐厅","address":"静安区富民路291号悟锦世纪大厦1楼01A-2室(长乐路口)"},{"poiid":"B2094757D06FA4FB4792","title":"zen cafe","lon":"121.44974","lat":"31.21571","category":"65","category_name":"咖啡厅","address":"徐汇区东平路7-1号(近衡山路)"},{"poiid":"B2094757D06FA4FE499F","title":"锡伯新疆餐厅","lon":"121.44766329","lat":"31.217222182","category":"90","category_name":"清真餐馆","address":"静安区常熟路83号3楼(近巨鹿路)"},{"poiid":"B2094757D068A4FF459C","title":"荧七","lon":"121.45033424","lat":"31.217746436","category":"172","category_name":"酒吧","address":"上海巨鹿路"},{"poiid":"B2094757D06FA2FE459A","title":"COSTA COFFEE(常熟路店)","lon":"121.44797","lat":"31.21687","category":"65","category_name":"咖啡厅","address":"静安区常熟路85号1楼A8(近巨鹿路)"},{"poiid":"B2094654DB69A6F94798","title":"新都里无二 Shintori 2","lon":"121.45023441444","lat":"31.219697165107","category":"95","category_name":"日本料理","address":"静安区巨鹿路803号(近富民路)"},{"poiid":"B2094757D06FA1FC469B","title":"Dolce Vita Italian","lon":"121.45246925","lat":"31.2171414317","category":"94","category_name":"西餐厅","address":"静安区富民路291号悟锦世纪大厦内(长乐路口)"},{"poiid":"B2094757D068ABFC4098","title":"CLUB VIETNAM","lon":"121.44839","lat":"31.21765","category":"99","category_name":"泰国／越南菜品餐厅","address":"静安区巨鹿路889号11-12号楼(近常熟路)"},{"poiid":"B2094757DB69A2F5449A","title":"il Bambino","lon":"121.44798","lat":"31.21813","category":"94","category_name":"西餐厅","address":"静安区巨鹿路903号(近常熟路)"},{"poiid":"B2094757D66DABF94899","title":"Wasabi","lon":"121.44806058","lat":"31.2184602","category":"500","category_name":"未知分类","address":"上海静安区延安西路"},{"poiid":"B209475DD268A6FB489B","title":"香港龙凤楼","lon":"121.448295","lat":"31.217926","category":"247","category_name":"餐饮美食","address":"上海市 巨鹿路889号"},{"poiid":"B2094750D26FA7F5469E","title":"避风塘(常熟路店)","lon":"121.447868","lat":"31.216531","category":"72","category_name":"广东菜","address":"静安区常熟路98号(近巨鹿路)"},{"poiid":"B2094757D06FA1FD429F","title":"狠牛独创牛肉面馆(富民路店)","lon":"121.45243","lat":"31.21706","category":"68","category_name":"快餐厅","address":"静安区富民路291号悟锦世纪大厦1楼3B(长乐路口)"},{"poiid":"B2094757D068A2F94993","title":"和食上都","lon":"121.448460186","lat":"31.2158895505","category":"95","category_name":"日本料理","address":"静安区常熟路87号(近巨鹿路)"},{"poiid":"B2094757D06FA5FB409B","title":"毛豆阿姨","lon":"121.44856","lat":"31.21619","category":"76","category_name":"上海菜","address":"静安区常熟路115弄5号(近长乐路)"},{"poiid":"B2094750D66FA4FF469C","title":"Dr.  Beer","lon":"121.447898","lat":"31.216619","category":"248","category_name":"生活娱乐","address":"静安区富民路83号"},{"poiid":"B2094757D06FA6FB439F","title":"香啡缤(富民路店)","lon":"121.45256","lat":"31.21711","category":"260","category_name":"其他","address":"静安区富民路291号悟锦世纪大厦内(长乐路口)"},{"poiid":"B2094757D06FA2F4499F","title":"董大师金牌稻香蛙(延庆路店)","lon":"121.4514","lat":"31.21504","category":"71","category_name":"四川菜","address":"徐汇区延庆路92号(近华亭路)"},{"poiid":"B2094757D068A4FF439D","title":"BALI LAGUNA","lon":"121.45022583","lat":"31.219125747","category":"172","category_name":"酒吧","address":"上海静安区南京西路1649号(静安公园内)"},{"poiid":"B2094757D66AA5F8419F","title":"维也纳西餐厅 常熟路","lon":"121.4478","lat":"31.21693","category":"94","category_name":"西餐厅","address":"静安区常熟路98号4楼(近长乐路)"},{"poiid":"B2094751DB6CA4FD469E","title":"Vino Tapas","lon":"121.45196","lat":"31.21775","category":"247","category_name":"餐饮美食","address":"卢湾区富民路259号(近长乐路)"},{"poiid":"B2094757D064A2FD489E","title":"和さ美(巨鹿路店)","lon":"121.44835","lat":"31.2184","category":"95","category_name":"日本料理","address":"静安区巨鹿路876号(近华山路)"},{"poiid":"B2094750D26CA1FA4492","title":"玫瑰石时尚餐厅 Incarose Bistro Loun","lon":"121.447913","lat":"31.217215","category":"247","category_name":"餐饮美食","address":"静安区常熟路83号时尚前瞻大厦3楼(近巨鹿路)"},{"poiid":"B2094757D068A3F4439B","title":"湾仔(常熟店)","lon":"121.44904","lat":"31.21845","category":"71","category_name":"四川菜","address":"静安区巨鹿路858号(近常熟路)"},{"poiid":"B2094757D068A2FE4993","title":"金刚饮食店","lon":"121.451340788","lat":"31.217013254","category":"68","category_name":"快餐厅","address":"徐汇区长乐路601号(近东湖路)"},{"poiid":"B2094654D564ABFF4593","title":"渡口书店","lon":"121.44947","lat":"31.21916","category":"125","category_name":"书店","address":"静安区巨鹿路828号(富民路常熟路间)"},{"poiid":"B2094757D069A7F84998","title":"Q太郎","lon":"121.45101065","lat":"31.219166647","category":"95","category_name":"日本料理","address":"静安区富民路158号(近巨鹿路)"},{"poiid":"B2094757D06FA6F94698","title":"优纳仕意式休闲餐厅(静安店)","lon":"121.44787965","lat":"31.217260656","category":"94","category_name":"西餐厅","address":"静安区常熟路85号(近巨鹿路)"},{"poiid":"B2094753D66EAAFF469A","title":"千秋膳房常熟店","lon":"121.44784927","lat":"31.21716905","category":"247","category_name":"餐饮美食","address":"上海市静安区常熟路87号"},{"poiid":"B2094655D36CA5F94792","title":"常熟路长乐路","lon":"121.44883","lat":"31.21628","category":"38","category_name":"公交车站","address":""},{"poiid":"B2094757DB69A2FC4393","title":"宴公馆","lon":"121.448713","lat":"31.217807","category":"72","category_name":"广东菜","address":"静安区巨鹿路889号16号楼(近常熟路)"},{"poiid":"B2094757D064A2FB4893","title":"新加坡泰国村鱼翅(巨鹿花园店)","lon":"121.44858384","lat":"31.218204948","category":"110","category_name":"其他亚洲菜","address":"静安区巨鹿路889号7-8号楼(常熟路口)"},{"poiid":"B2094655D26EA6F4449A","title":"尼泊尔餐厅","lon":"121.45008","lat":"31.21929","category":"102","category_name":"印度风味","address":"静安区巨鹿路819弄4号"},{"poiid":"B2094757D56CA0F9499B","title":"B Real","lon":"121.451317","lat":"31.219085","category":"99","category_name":"泰国／越南菜品餐厅","address":"静安区富民路185号"},{"poiid":"B2094757DB6CA4FC4793","title":"Brioche Dorée","lon":"121.4521496124225","lat":"31.21834106369002","category":"247","category_name":"餐饮美食","address":"徐汇区东湖路7号(近富民路)"}]