[{"poiid":"B2094655D269ABFD469B","title":"静安寺","lon":"121.44552","lat":"31.22324","category":"244","category_name":"寺庙道观","address":"静安区南京西路1686号(近静安寺)"},{"poiid":"B2094655D26CAAFD459F","title":"上海宏安瑞士大酒店","lon":"121.44712","lat":"31.22477","category":"213","category_name":"五星级宾馆","address":"静安区愚园路1号(近常德路)"},{"poiid":"B2094654DA6CA7FC429A","title":"久光城市广场(久光百货)","lon":"121.44618","lat":"31.22408","category":"119","category_name":"商场","address":"南京西路1618"},{"poiid":"B2094753D76FAAFA449C","title":"上海滩国泰旗舰店","lon":"121.466011","lat":"31.216125","category":"249","category_name":"购物服务","address":"淮海中路868号"},{"poiid":"B209475CD564A7F84292","title":"上海滩新天地店","lon":"121.47463","lat":"31.22164","category":"119","category_name":"商场","address":"\"太仓路181弄新天地北里15号\r\n\""},{"poiid":"B209475CD564A7F8439E","title":"上海滩中信泰富店","lon":"121.45602","lat":"31.22851","category":"119","category_name":"商场","address":"\"南京西路1168号中信泰富广场，店铺号221.\r\n\""},{"poiid":"B2094757D06EAAFC4892","title":"龙记茶餐厅 久光店","lon":"121.446597054","lat":"31.223581793","category":"111","category_name":"休闲餐饮场所","address":"静安区南京西路1618号久光百货B1楼DB28-1-2号铺(近静安寺)"},{"poiid":"B2094750DB6CA4F5469B","title":"台湾人道素菜","lon":"121.44513754498291","lat":"31.22450433180927","category":"89","category_name":"中式素餐馆","address":"静安区愚园路151-157号2楼(近万航渡路)"},{"poiid":"B2094655D269A4F9499E","title":"久光百货超市","lon":"121.44618","lat":"31.22409","category":"118","category_name":"超级市场","address":"静安区南京西路1618号久光百货B1楼(近静安寺)"},{"poiid":"B2094757D06FA2FB4998","title":"古意湘味浓(久光店)","lon":"121.44587566","lat":"31.224315975","category":"77","category_name":"湖南菜","address":"静安区南京西路1618号久光百货8楼(近静安寺)"},{"poiid":"B2094655D26AA7FA4292","title":"WINDOWS久光店","lon":"121.44618","lat":"31.22409","category":"172","category_name":"酒吧","address":"静安区南京西路1618号久光百货2楼(近静安寺)"},{"poiid":"B2094757D068A2F54593","title":"环球世界大厦","lon":"121.44458377","lat":"31.22441168","category":"46","category_name":"楼宇","address":"格林SOHO位于和平十三纬路云集街10号甲(东北炊具城西侧)"},{"poiid":"B2094757D068A5FC429E","title":"张爱玲故居","lon":"121.44760131","lat":"31.224729538","category":"182","category_name":"博物馆","address":"上海静安区常德路195号常德公寓601室"},{"poiid":"B2094757D06FA3FA429B","title":"一茶一坐(愚园店)","lon":"121.444821372","lat":"31.224261104","category":"260","category_name":"其他","address":"上海静安区愚园路150号(近万航渡路)"},{"poiid":"B2094757D06FA3FF489D","title":"敦煌小亭(常德路店)","lon":"121.446630351","lat":"31.2267976373","category":"84","category_name":"西北菜","address":"静安区常德路333号(近北京西路)"},{"poiid":"B2094757D06FA2FA489C","title":"香啡缤(愚园店)","lon":"121.44528","lat":"31.22412","category":"260","category_name":"其他","address":"静安区愚园路136号(近胶州路)"},{"poiid":"B2094654DA6CA7FC429B","title":"上海机场城市航站楼","lon":"121.44706","lat":"31.22404","category":"46","category_name":"楼宇","address":"西城区金融街A区3号地南部"},{"poiid":"B2094757D16DABF94998","title":"久光kookai","lon":"121.447232586","lat":"31.2260253488","category":"500","category_name":"未知分类","address":"上海市静安区延平路"},{"poiid":"B2094757D06FA7F84093","title":"coco壹番屋","lon":"121.44565158","lat":"31.223633302","category":"68","category_name":"快餐厅","address":"上海市静安区久光"},{"poiid":"B2094752D66BA7F8489A","title":"好好先生mr nice〜","lon":"121.445819","lat":"31.225452","category":"247","category_name":"餐饮美食","address":"上海市静安区愚园路280号"},{"poiid":"B2094757D06FA0FC4693","title":"感智盲人保健会所精品店(胶州路店)","lon":"121.44445","lat":"31.22576","category":"149","category_name":"洗浴推拿场所","address":"静安区胶州路129号(近北京西路)"},{"poiid":"B2094757D06FA4FE449E","title":"洋葱意厨","lon":"121.44720758","lat":"31.224171312","category":"94","category_name":"西餐厅","address":"静安区愚园路148号(近胶州路)"},{"poiid":"B2094655D26BA0F9499A","title":"新吉士酒楼(久光店)","lon":"121.44618","lat":"31.22409","category":"76","category_name":"上海菜","address":"静安区南京西路1618号久光百货8楼(近静安寺)"},{"poiid":"B2094757D66FA6FA449E","title":"屋企汤馆(愚园店)","lon":"121.445024674","lat":"31.2243216652","category":"75","category_name":"浙江菜","address":"上海静安区愚园路146号(近胶州路)"},{"poiid":"B2094757D068A6FA4493","title":"静安区青少年活动中心","lon":"121.44483184","lat":"31.224952697","category":"179","category_name":"音乐厅","address":"静安区胶州路15号(近久光百货)"},{"poiid":"B2094751D36CA7FA419B","title":"台湾莲香斋素菜","lon":"121.4452","lat":"31.22421","category":"89","category_name":"中式素餐馆","address":"静安区愚园路151号1、3楼(近万航渡路)"},{"poiid":"B2094757D068A0FD449F","title":"金涮盘","lon":"121.44580906","lat":"31.224455587","category":"86","category_name":"火锅店","address":"静安区愚园路142号(近胶州路)"},{"poiid":"B2094757DB69A3F8459F","title":"避风塘 愚园路店","lon":"121.44482","lat":"31.224264","category":"257","category_name":"中餐厅","address":"静安区愚园路150号(近万航渡路)"},{"poiid":"B209475CDA69A3FE4793","title":"瓦城泰国料理 静安芮欧店","lon":"121.446347","lat":"31.224032","category":"247","category_name":"餐饮美食","address":"上海市静安区南京西路1601号3楼"},{"poiid":"B2094757D06FA0FD4593","title":"王家沙(北京西路店)","lon":"121.44658","lat":"31.22674","category":"257","category_name":"中餐厅","address":"静安区北京西路1533号(常德路口)"},{"poiid":"B2094751D26EA1F9479D","title":"鸟心","lon":"121.44609","lat":"31.224475","category":"269","category_name":"烧烤","address":"静安区南京西路1618号久光百货B1楼(近静安寺)"},{"poiid":"B2094654DB6BA6F54793","title":"上海市医学会(北京西路)","lon":"121.44486","lat":"31.22601","category":"191","category_name":"科研机构","address":"北京西路1623号"},{"poiid":"B2094757D06FA3F5419F","title":"静安寺交通枢纽","lon":"121.445779","lat":"31.225803","category":"38","category_name":"公交车站","address":"上海胶州路北京西路(近静安寺﹑久光百货)"},{"poiid":"B2094757D06FA2FF479C","title":"酷圣石(久光店)","lon":"121.446370578","lat":"31.2236925645","category":"113","category_name":"冷饮店","address":"静安区南京西路1618号久光百货B1楼(近静安寺)"},{"poiid":"B2094750D26CA6FD449F","title":"屋企汤馆 静安店","lon":"121.4448325645","lat":"31.224241006737","category":"72","category_name":"广东菜","address":"静安区万航渡路1-5号4楼A室"},{"poiid":"B2094757D068A6F9449D","title":"圆苑酒家(愚园路店)","lon":"121.44751","lat":"31.22498","category":"75","category_name":"浙江菜","address":"上海静安区愚园路1号宏安瑞士酒店2楼(近常德路)"},{"poiid":"B2094757D16AA6FB499B","title":"越洋广场釜山料理","lon":"121.447309586","lat":"31.2250303293","category":"247","category_name":"餐饮美食","address":"上海南京西路1601号B2"},{"poiid":"B2094655D264A4FF4498","title":"Moon'sSteakhouse","lon":"121.44712","lat":"31.22478","category":"104","category_name":"牛扒店","address":"愚园路1号上海宏安瑞士大酒店"},{"poiid":"B2094751D56EA3F54298","title":"L's BOOK CAFE & WINE","lon":"121.44754","lat":"31.2249","category":"247","category_name":"餐饮美食","address":"静安区常德路195号(近南京西路)"},{"poiid":"B2094753D565AAFC479E","title":"胖达人手感烘焙","lon":"121.447616","lat":"31.225051","category":"247","category_name":"餐饮美食","address":"上海市 南京西路1601号芮欧百货B2-30"},{"poiid":"B2094757D068A2FE419A","title":"檬舒舒 久光百货店","lon":"121.44637","lat":"31.223679","category":"67","category_name":"甜品店","address":"静安区南京西路1618号久光百货B1楼(近静安寺)"},{"poiid":"B2094757D66CA5FF469D","title":"Hair Corner","lon":"121.445434586","lat":"31.2249413276","category":"500","category_name":"未知分类","address":"上海市静安区新闸路 九光1F"},{"poiid":"B2094654D565A0F8459E","title":"静安大厦","lon":"121.446","lat":"31.2255","category":"46","category_name":"楼宇","address":"格林SOHO位于和平十三纬路云集街10号甲(东北炊具城西侧)"},{"poiid":"B2094752D06EA0FC409D","title":"虹桥机场T2航站楼","lon":"121.445909","lat":"31.224168","category":"500","category_name":"未知分类","address":null},{"poiid":"B2094757D764AAF4439D","title":"洋葱餐厅 静安寺店","lon":"121.4452034","lat":"31.2243756","category":"72","category_name":"广东菜","address":"静安区愚园路144号(近胶州路)"},{"poiid":"B2094757D06FA5F84599","title":"ORYA(久光店)","lon":"121.4464","lat":"31.22381","category":"94","category_name":"西餐厅","address":"静安区南京西路1618号久光百货B1楼(近静安寺)"},{"poiid":"B2094757D06BA3F54699","title":"好地方精烧扒轩(愚园路店)","lon":"121.44762","lat":"31.22521","category":"94","category_name":"西餐厅","address":"静安区愚园路1号宏安瑞士大酒店1楼(近常德路)"},{"poiid":"B2094750D768AAF94792","title":"鲁肉范","lon":"121.445","lat":"31.2245","category":"91","category_name":"台湾菜","address":"静安区愚园路138号(一茶一坐旁)"},{"poiid":"B209475CD76DA2FE4298","title":"Bite4fun 粉豆趣 精緻甜品食趣","lon":"121.445495","lat":"31.224943","category":"247","category_name":"餐饮美食","address":"上海市 靜安區愚園路278號"},{"poiid":"B2094654DB6BA6F5499E","title":"久光(西门)","lon":"121.44572","lat":"31.2239","category":"119","category_name":"商场","address":"南京西路1618号(静安寺) "},{"poiid":"B2094655D269ABFD469B","title":"静安寺","lon":"121.44552","lat":"31.22324","category":"244","category_name":"寺庙道观","address":"静安区南京西路1686号(近静安寺)"},{"poiid":"B2094655D26CAAFD459F","title":"上海宏安瑞士大酒店","lon":"121.44712","lat":"31.22477","category":"213","category_name":"五星级宾馆","address":"静安区愚园路1号(近常德路)"},{"poiid":"B2094654DA6CA7FC429A","title":"久光城市广场(久光百货)","lon":"121.44618","lat":"31.22408","category":"119","category_name":"商场","address":"南京西路1618"},{"poiid":"B2094753D76FAAFA449C","title":"上海滩国泰旗舰店","lon":"121.466011","lat":"31.216125","category":"249","category_name":"购物服务","address":"淮海中路868号"},{"poiid":"B209475CD564A7F84292","title":"上海滩新天地店","lon":"121.47463","lat":"31.22164","category":"119","category_name":"商场","address":"\"太仓路181弄新天地北里15号\r\n\""},{"poiid":"B209475CD564A7F8439E","title":"上海滩中信泰富店","lon":"121.45602","lat":"31.22851","category":"119","category_name":"商场","address":"\"南京西路1168号中信泰富广场，店铺号221.\r\n\""},{"poiid":"B2094757D06EAAFC4892","title":"龙记茶餐厅 久光店","lon":"121.446597054","lat":"31.223581793","category":"111","category_name":"休闲餐饮场所","address":"静安区南京西路1618号久光百货B1楼DB28-1-2号铺(近静安寺)"},{"poiid":"B2094750DB6CA4F5469B","title":"台湾人道素菜","lon":"121.44513754498291","lat":"31.22450433180927","category":"89","category_name":"中式素餐馆","address":"静安区愚园路151-157号2楼(近万航渡路)"},{"poiid":"B2094655D269A4F9499E","title":"久光百货超市","lon":"121.44618","lat":"31.22409","category":"118","category_name":"超级市场","address":"静安区南京西路1618号久光百货B1楼(近静安寺)"},{"poiid":"B2094757D06FA2FB4998","title":"古意湘味浓(久光店)","lon":"121.44587566","lat":"31.224315975","category":"77","category_name":"湖南菜","address":"静安区南京西路1618号久光百货8楼(近静安寺)"},{"poiid":"B2094655D26AA7FA4292","title":"WINDOWS久光店","lon":"121.44618","lat":"31.22409","category":"172","category_name":"酒吧","address":"静安区南京西路1618号久光百货2楼(近静安寺)"},{"poiid":"B2094757D068A2F54593","title":"环球世界大厦","lon":"121.44458377","lat":"31.22441168","category":"46","category_name":"楼宇","address":"格林SOHO位于和平十三纬路云集街10号甲(东北炊具城西侧)"},{"poiid":"B2094757D068A5FC429E","title":"张爱玲故居","lon":"121.44760131","lat":"31.224729538","category":"182","category_name":"博物馆","address":"上海静安区常德路195号常德公寓601室"},{"poiid":"B2094757D06FA3FA429B","title":"一茶一坐(愚园店)","lon":"121.444821372","lat":"31.224261104","category":"260","category_name":"其他","address":"上海静安区愚园路150号(近万航渡路)"},{"poiid":"B2094757D06FA3FF489D","title":"敦煌小亭(常德路店)","lon":"121.446630351","lat":"31.2267976373","category":"84","category_name":"西北菜","address":"静安区常德路333号(近北京西路)"},{"poiid":"B2094757D06FA2FA489C","title":"香啡缤(愚园店)","lon":"121.44528","lat":"31.22412","category":"260","category_name":"其他","address":"静安区愚园路136号(近胶州路)"},{"poiid":"B2094654DA6CA7FC429B","title":"上海机场城市航站楼","lon":"121.44706","lat":"31.22404","category":"46","category_name":"楼宇","address":"西城区金融街A区3号地南部"},{"poiid":"B2094757D16DABF94998","title":"久光kookai","lon":"121.447232586","lat":"31.2260253488","category":"500","category_name":"未知分类","address":"上海市静安区延平路"},{"poiid":"B2094757D06FA7F84093","title":"coco壹番屋","lon":"121.44565158","lat":"31.223633302","category":"68","category_name":"快餐厅","address":"上海市静安区久光"},{"poiid":"B2094752D66BA7F8489A","title":"好好先生mr nice〜","lon":"121.445819","lat":"31.225452","category":"247","category_name":"餐饮美食","address":"上海市静安区愚园路280号"},{"poiid":"B2094757D06FA0FC4693","title":"感智盲人保健会所精品店(胶州路店)","lon":"121.44445","lat":"31.22576","category":"149","category_name":"洗浴推拿场所","address":"静安区胶州路129号(近北京西路)"},{"poiid":"B2094757D06FA4FE449E","title":"洋葱意厨","lon":"121.44720758","lat":"31.224171312","category":"94","category_name":"西餐厅","address":"静安区愚园路148号(近胶州路)"},{"poiid":"B2094655D26BA0F9499A","title":"新吉士酒楼(久光店)","lon":"121.44618","lat":"31.22409","category":"76","category_name":"上海菜","address":"静安区南京西路1618号久光百货8楼(近静安寺)"},{"poiid":"B2094757D66FA6FA449E","title":"屋企汤馆(愚园店)","lon":"121.445024674","lat":"31.2243216652","category":"75","category_name":"浙江菜","address":"上海静安区愚园路146号(近胶州路)"},{"poiid":"B2094757D068A6FA4493","title":"静安区青少年活动中心","lon":"121.44483184","lat":"31.224952697","category":"179","category_name":"音乐厅","address":"静安区胶州路15号(近久光百货)"},{"poiid":"B2094751D36CA7FA419B","title":"台湾莲香斋素菜","lon":"121.4452","lat":"31.22421","category":"89","category_name":"中式素餐馆","address":"静安区愚园路151号1、3楼(近万航渡路)"},{"poiid":"B2094757D068A0FD449F","title":"金涮盘","lon":"121.44580906","lat":"31.224455587","category":"86","category_name":"火锅店","address":"静安区愚园路142号(近胶州路)"},{"poiid":"B2094757DB69A3F8459F","title":"避风塘 愚园路店","lon":"121.44482","lat":"31.224264","category":"257","category_name":"中餐厅","address":"静安区愚园路150号(近万航渡路)"},{"poiid":"B209475CDA69A3FE4793","title":"瓦城泰国料理 静安芮欧店","lon":"121.446347","lat":"31.224032","category":"247","category_name":"餐饮美食","address":"上海市静安区南京西路1601号3楼"},{"poiid":"B2094757D06FA0FD4593","title":"王家沙(北京西路店)","lon":"121.44658","lat":"31.22674","category":"257","category_name":"中餐厅","address":"静安区北京西路1533号(常德路口)"},{"poiid":"B2094751D26EA1F9479D","title":"鸟心","lon":"121.44609","lat":"31.224475","category":"269","category_name":"烧烤","address":"静安区南京西路1618号久光百货B1楼(近静安寺)"},{"poiid":"B2094654DB6BA6F54793","title":"上海市医学会(北京西路)","lon":"121.44486","lat":"31.22601","category":"191","category_name":"科研机构","address":"北京西路1623号"},{"poiid":"B2094757D06FA3F5419F","title":"静安寺交通枢纽","lon":"121.445779","lat":"31.225803","category":"38","category_name":"公交车站","address":"上海胶州路北京西路(近静安寺﹑久光百货)"},{"poiid":"B2094757D06FA2FF479C","title":"酷圣石(久光店)","lon":"121.446370578","lat":"31.2236925645","category":"113","category_name":"冷饮店","address":"静安区南京西路1618号久光百货B1楼(近静安寺)"},{"poiid":"B2094750D26CA6FD449F","title":"屋企汤馆 静安店","lon":"121.4448325645","lat":"31.224241006737","category":"72","category_name":"广东菜","address":"静安区万航渡路1-5号4楼A室"},{"poiid":"B2094757D068A6F9449D","title":"圆苑酒家(愚园路店)","lon":"121.44751","lat":"31.22498","category":"75","category_name":"浙江菜","address":"上海静安区愚园路1号宏安瑞士酒店2楼(近常德路)"},{"poiid":"B2094757D16AA6FB499B","title":"越洋广场釜山料理","lon":"121.447309586","lat":"31.2250303293","category":"247","category_name":"餐饮美食","address":"上海南京西路1601号B2"},{"poiid":"B2094655D264A4FF4498","title":"Moon'sSteakhouse","lon":"121.44712","lat":"31.22478","category":"104","category_name":"牛扒店","address":"愚园路1号上海宏安瑞士大酒店"},{"poiid":"B2094751D56EA3F54298","title":"L's BOOK CAFE & WINE","lon":"121.44754","lat":"31.2249","category":"247","category_name":"餐饮美食","address":"静安区常德路195号(近南京西路)"},{"poiid":"B2094753D565AAFC479E","title":"胖达人手感烘焙","lon":"121.447616","lat":"31.225051","category":"247","category_name":"餐饮美食","address":"上海市 南京西路1601号芮欧百货B2-30"},{"poiid":"B2094757D068A2FE419A","title":"檬舒舒 久光百货店","lon":"121.44637","lat":"31.223679","category":"67","category_name":"甜品店","address":"静安区南京西路1618号久光百货B1楼(近静安寺)"},{"poiid":"B2094757D66CA5FF469D","title":"Hair Corner","lon":"121.445434586","lat":"31.2249413276","category":"500","category_name":"未知分类","address":"上海市静安区新闸路 九光1F"},{"poiid":"B2094654D565A0F8459E","title":"静安大厦","lon":"121.446","lat":"31.2255","category":"46","category_name":"楼宇","address":"格林SOHO位于和平十三纬路云集街10号甲(东北炊具城西侧)"},{"poiid":"B2094752D06EA0FC409D","title":"虹桥机场T2航站楼","lon":"121.445909","lat":"31.224168","category":"500","category_name":"未知分类","address":null},{"poiid":"B2094757D764AAF4439D","title":"洋葱餐厅 静安寺店","lon":"121.4452034","lat":"31.2243756","category":"72","category_name":"广东菜","address":"静安区愚园路144号(近胶州路)"},{"poiid":"B2094757D06FA5F84599","title":"ORYA(久光店)","lon":"121.4464","lat":"31.22381","category":"94","category_name":"西餐厅","address":"静安区南京西路1618号久光百货B1楼(近静安寺)"},{"poiid":"B2094757D06BA3F54699","title":"好地方精烧扒轩(愚园路店)","lon":"121.44762","lat":"31.22521","category":"94","category_name":"西餐厅","address":"静安区愚园路1号宏安瑞士大酒店1楼(近常德路)"},{"poiid":"B2094750D768AAF94792","title":"鲁肉范","lon":"121.445","lat":"31.2245","category":"91","category_name":"台湾菜","address":"静安区愚园路138号(一茶一坐旁)"},{"poiid":"B209475CD76DA2FE4298","title":"Bite4fun 粉豆趣 精緻甜品食趣","lon":"121.445495","lat":"31.224943","category":"247","category_name":"餐饮美食","address":"上海市 靜安區愚園路278號"},{"poiid":"B2094654DB6BA6F5499E","title":"久光(西门)","lon":"121.44572","lat":"31.2239","category":"119","category_name":"商场","address":"南京西路1618号(静安寺) "},{"poiid":"B2094655D269ABFD469B","title":"静安寺","lon":"121.44552","lat":"31.22324","category":"244","category_name":"寺庙道观","address":"静安区南京西路1686号(近静安寺)"},{"poiid":"B2094655D26CAAFD459F","title":"上海宏安瑞士大酒店","lon":"121.44712","lat":"31.22477","category":"213","category_name":"五星级宾馆","address":"静安区愚园路1号(近常德路)"},{"poiid":"B2094654DA6CA7FC429A","title":"久光城市广场(久光百货)","lon":"121.44618","lat":"31.22408","category":"119","category_name":"商场","address":"南京西路1618"},{"poiid":"B2094753D76FAAFA449C","title":"上海滩国泰旗舰店","lon":"121.466011","lat":"31.216125","category":"249","category_name":"购物服务","address":"淮海中路868号"},{"poiid":"B209475CD564A7F84292","title":"上海滩新天地店","lon":"121.47463","lat":"31.22164","category":"119","category_name":"商场","address":"\"太仓路181弄新天地北里15号\r\n\""},{"poiid":"B209475CD564A7F8439E","title":"上海滩中信泰富店","lon":"121.45602","lat":"31.22851","category":"119","category_name":"商场","address":"\"南京西路1168号中信泰富广场，店铺号221.\r\n\""},{"poiid":"B2094757D06EAAFC4892","title":"龙记茶餐厅 久光店","lon":"121.446597054","lat":"31.223581793","category":"111","category_name":"休闲餐饮场所","address":"静安区南京西路1618号久光百货B1楼DB28-1-2号铺(近静安寺)"},{"poiid":"B2094750DB6CA4F5469B","title":"台湾人道素菜","lon":"121.44513754498291","lat":"31.22450433180927","category":"89","category_name":"中式素餐馆","address":"静安区愚园路151-157号2楼(近万航渡路)"},{"poiid":"B2094655D269A4F9499E","title":"久光百货超市","lon":"121.44618","lat":"31.22409","category":"118","category_name":"超级市场","address":"静安区南京西路1618号久光百货B1楼(近静安寺)"},{"poiid":"B2094757D06FA2FB4998","title":"古意湘味浓(久光店)","lon":"121.44587566","lat":"31.224315975","category":"77","category_name":"湖南菜","address":"静安区南京西路1618号久光百货8楼(近静安寺)"},{"poiid":"B2094655D26AA7FA4292","title":"WINDOWS久光店","lon":"121.44618","lat":"31.22409","category":"172","category_name":"酒吧","address":"静安区南京西路1618号久光百货2楼(近静安寺)"},{"poiid":"B2094757D068A2F54593","title":"环球世界大厦","lon":"121.44458377","lat":"31.22441168","category":"46","category_name":"楼宇","address":"格林SOHO位于和平十三纬路云集街10号甲(东北炊具城西侧)"},{"poiid":"B2094757D068A5FC429E","title":"张爱玲故居","lon":"121.44760131","lat":"31.224729538","category":"182","category_name":"博物馆","address":"上海静安区常德路195号常德公寓601室"},{"poiid":"B2094757D06FA3FA429B","title":"一茶一坐(愚园店)","lon":"121.444821372","lat":"31.224261104","category":"260","category_name":"其他","address":"上海静安区愚园路150号(近万航渡路)"},{"poiid":"B2094757D06FA3FF489D","title":"敦煌小亭(常德路店)","lon":"121.446630351","lat":"31.2267976373","category":"84","category_name":"西北菜","address":"静安区常德路333号(近北京西路)"},{"poiid":"B2094757D06FA2FA489C","title":"香啡缤(愚园店)","lon":"121.44528","lat":"31.22412","category":"260","category_name":"其他","address":"静安区愚园路136号(近胶州路)"},{"poiid":"B2094654DA6CA7FC429B","title":"上海机场城市航站楼","lon":"121.44706","lat":"31.22404","category":"46","category_name":"楼宇","address":"西城区金融街A区3号地南部"},{"poiid":"B2094757D16DABF94998","title":"久光kookai","lon":"121.447232586","lat":"31.2260253488","category":"500","category_name":"未知分类","address":"上海市静安区延平路"},{"poiid":"B2094757D06FA7F84093","title":"coco壹番屋","lon":"121.44565158","lat":"31.223633302","category":"68","category_name":"快餐厅","address":"上海市静安区久光"},{"poiid":"B2094752D66BA7F8489A","title":"好好先生mr nice〜","lon":"121.445819","lat":"31.225452","category":"247","category_name":"餐饮美食","address":"上海市静安区愚园路280号"},{"poiid":"B2094757D06FA0FC4693","title":"感智盲人保健会所精品店(胶州路店)","lon":"121.44445","lat":"31.22576","category":"149","category_name":"洗浴推拿场所","address":"静安区胶州路129号(近北京西路)"},{"poiid":"B2094757D06FA4FE449E","title":"洋葱意厨","lon":"121.44720758","lat":"31.224171312","category":"94","category_name":"西餐厅","address":"静安区愚园路148号(近胶州路)"},{"poiid":"B2094655D26BA0F9499A","title":"新吉士酒楼(久光店)","lon":"121.44618","lat":"31.22409","category":"76","category_name":"上海菜","address":"静安区南京西路1618号久光百货8楼(近静安寺)"},{"poiid":"B2094757D66FA6FA449E","title":"屋企汤馆(愚园店)","lon":"121.445024674","lat":"31.2243216652","category":"75","category_name":"浙江菜","address":"上海静安区愚园路146号(近胶州路)"},{"poiid":"B2094757D068A6FA4493","title":"静安区青少年活动中心","lon":"121.44483184","lat":"31.224952697","category":"179","category_name":"音乐厅","address":"静安区胶州路15号(近久光百货)"},{"poiid":"B2094751D36CA7FA419B","title":"台湾莲香斋素菜","lon":"121.4452","lat":"31.22421","category":"89","category_name":"中式素餐馆","address":"静安区愚园路151号1、3楼(近万航渡路)"},{"poiid":"B2094757D068A0FD449F","title":"金涮盘","lon":"121.44580906","lat":"31.224455587","category":"86","category_name":"火锅店","address":"静安区愚园路142号(近胶州路)"},{"poiid":"B2094757DB69A3F8459F","title":"避风塘 愚园路店","lon":"121.44482","lat":"31.224264","category":"257","category_name":"中餐厅","address":"静安区愚园路150号(近万航渡路)"},{"poiid":"B209475CDA69A3FE4793","title":"瓦城泰国料理 静安芮欧店","lon":"121.446347","lat":"31.224032","category":"247","category_name":"餐饮美食","address":"上海市静安区南京西路1601号3楼"},{"poiid":"B2094757D06FA0FD4593","title":"王家沙(北京西路店)","lon":"121.44658","lat":"31.22674","category":"257","category_name":"中餐厅","address":"静安区北京西路1533号(常德路口)"},{"poiid":"B2094751D26EA1F9479D","title":"鸟心","lon":"121.44609","lat":"31.224475","category":"269","category_name":"烧烤","address":"静安区南京西路1618号久光百货B1楼(近静安寺)"},{"poiid":"B2094654DB6BA6F54793","title":"上海市医学会(北京西路)","lon":"121.44486","lat":"31.22601","category":"191","category_name":"科研机构","address":"北京西路1623号"},{"poiid":"B2094757D06FA3F5419F","title":"静安寺交通枢纽","lon":"121.445779","lat":"31.225803","category":"38","category_name":"公交车站","address":"上海胶州路北京西路(近静安寺﹑久光百货)"},{"poiid":"B2094757D06FA2FF479C","title":"酷圣石(久光店)","lon":"121.446370578","lat":"31.2236925645","category":"113","category_name":"冷饮店","address":"静安区南京西路1618号久光百货B1楼(近静安寺)"},{"poiid":"B2094750D26CA6FD449F","title":"屋企汤馆 静安店","lon":"121.4448325645","lat":"31.224241006737","category":"72","category_name":"广东菜","address":"静安区万航渡路1-5号4楼A室"},{"poiid":"B2094757D068A6F9449D","title":"圆苑酒家(愚园路店)","lon":"121.44751","lat":"31.22498","category":"75","category_name":"浙江菜","address":"上海静安区愚园路1号宏安瑞士酒店2楼(近常德路)"},{"poiid":"B2094757D16AA6FB499B","title":"越洋广场釜山料理","lon":"121.447309586","lat":"31.2250303293","category":"247","category_name":"餐饮美食","address":"上海南京西路1601号B2"},{"poiid":"B2094655D264A4FF4498","title":"Moon'sSteakhouse","lon":"121.44712","lat":"31.22478","category":"104","category_name":"牛扒店","address":"愚园路1号上海宏安瑞士大酒店"},{"poiid":"B2094751D56EA3F54298","title":"L's BOOK CAFE & WINE","lon":"121.44754","lat":"31.2249","category":"247","category_name":"餐饮美食","address":"静安区常德路195号(近南京西路)"},{"poiid":"B2094753D565AAFC479E","title":"胖达人手感烘焙","lon":"121.447616","lat":"31.225051","category":"247","category_name":"餐饮美食","address":"上海市 南京西路1601号芮欧百货B2-30"},{"poiid":"B2094757D068A2FE419A","title":"檬舒舒 久光百货店","lon":"121.44637","lat":"31.223679","category":"67","category_name":"甜品店","address":"静安区南京西路1618号久光百货B1楼(近静安寺)"},{"poiid":"B2094757D66CA5FF469D","title":"Hair Corner","lon":"121.445434586","lat":"31.2249413276","category":"500","category_name":"未知分类","address":"上海市静安区新闸路 九光1F"},{"poiid":"B2094654D565A0F8459E","title":"静安大厦","lon":"121.446","lat":"31.2255","category":"46","category_name":"楼宇","address":"格林SOHO位于和平十三纬路云集街10号甲(东北炊具城西侧)"},{"poiid":"B2094752D06EA0FC409D","title":"虹桥机场T2航站楼","lon":"121.445909","lat":"31.224168","category":"500","category_name":"未知分类","address":null},{"poiid":"B2094757D764AAF4439D","title":"洋葱餐厅 静安寺店","lon":"121.4452034","lat":"31.2243756","category":"72","category_name":"广东菜","address":"静安区愚园路144号(近胶州路)"},{"poiid":"B2094757D06FA5F84599","title":"ORYA(久光店)","lon":"121.4464","lat":"31.22381","category":"94","category_name":"西餐厅","address":"静安区南京西路1618号久光百货B1楼(近静安寺)"},{"poiid":"B2094757D06BA3F54699","title":"好地方精烧扒轩(愚园路店)","lon":"121.44762","lat":"31.22521","category":"94","category_name":"西餐厅","address":"静安区愚园路1号宏安瑞士大酒店1楼(近常德路)"},{"poiid":"B2094750D768AAF94792","title":"鲁肉范","lon":"121.445","lat":"31.2245","category":"91","category_name":"台湾菜","address":"静安区愚园路138号(一茶一坐旁)"},{"poiid":"B209475CD76DA2FE4298","title":"Bite4fun 粉豆趣 精緻甜品食趣","lon":"121.445495","lat":"31.224943","category":"247","category_name":"餐饮美食","address":"上海市 靜安區愚園路278號"},{"poiid":"B2094654DB6BA6F5499E","title":"久光(西门)","lon":"121.44572","lat":"31.2239","category":"119","category_name":"商场","address":"南京西路1618号(静安寺) "},{"poiid":"B2094655D269ABFD469B","title":"静安寺","lon":"121.44552","lat":"31.22324","category":"244","category_name":"寺庙道观","address":"静安区南京西路1686号(近静安寺)"},{"poiid":"B2094655D26CAAFD459F","title":"上海宏安瑞士大酒店","lon":"121.44712","lat":"31.22477","category":"213","category_name":"五星级宾馆","address":"静安区愚园路1号(近常德路)"},{"poiid":"B2094654DA6CA7FC429A","title":"久光城市广场(久光百货)","lon":"121.44618","lat":"31.22408","category":"119","category_name":"商场","address":"南京西路1618"},{"poiid":"B2094753D76FAAFA449C","title":"上海滩国泰旗舰店","lon":"121.466011","lat":"31.216125","category":"249","category_name":"购物服务","address":"淮海中路868号"},{"poiid":"B209475CD564A7F84292","title":"上海滩新天地店","lon":"121.47463","lat":"31.22164","category":"119","category_name":"商场","address":"\"太仓路181弄新天地北里15号\r\n\""},{"poiid":"B209475CD564A7F8439E","title":"上海滩中信泰富店","lon":"121.45602","lat":"31.22851","category":"119","category_name":"商场","address":"\"南京西路1168号中信泰富广场，店铺号221.\r\n\""},{"poiid":"B2094757D06EAAFC4892","title":"龙记茶餐厅 久光店","lon":"121.446597054","lat":"31.223581793","category":"111","category_name":"休闲餐饮场所","address":"静安区南京西路1618号久光百货B1楼DB28-1-2号铺(近静安寺)"},{"poiid":"B2094750DB6CA4F5469B","title":"台湾人道素菜","lon":"121.44513754498291","lat":"31.22450433180927","category":"89","category_name":"中式素餐馆","address":"静安区愚园路151-157号2楼(近万航渡路)"},{"poiid":"B2094655D269A4F9499E","title":"久光百货超市","lon":"121.44618","lat":"31.22409","category":"118","category_name":"超级市场","address":"静安区南京西路1618号久光百货B1楼(近静安寺)"},{"poiid":"B2094757D06FA2FB4998","title":"古意湘味浓(久光店)","lon":"121.44587566","lat":"31.224315975","category":"77","category_name":"湖南菜","address":"静安区南京西路1618号久光百货8楼(近静安寺)"},{"poiid":"B2094655D26AA7FA4292","title":"WINDOWS久光店","lon":"121.44618","lat":"31.22409","category":"172","category_name":"酒吧","address":"静安区南京西路1618号久光百货2楼(近静安寺)"},{"poiid":"B2094757D068A2F54593","title":"环球世界大厦","lon":"121.44458377","lat":"31.22441168","category":"46","category_name":"楼宇","address":"格林SOHO位于和平十三纬路云集街10号甲(东北炊具城西侧)"},{"poiid":"B2094757D068A5FC429E","title":"张爱玲故居","lon":"121.44760131","lat":"31.224729538","category":"182","category_name":"博物馆","address":"上海静安区常德路195号常德公寓601室"},{"poiid":"B2094757D06FA3FA429B","title":"一茶一坐(愚园店)","lon":"121.444821372","lat":"31.224261104","category":"260","category_name":"其他","address":"上海静安区愚园路150号(近万航渡路)"},{"poiid":"B2094757D06FA3FF489D","title":"敦煌小亭(常德路店)","lon":"121.446630351","lat":"31.2267976373","category":"84","category_name":"西北菜","address":"静安区常德路333号(近北京西路)"},{"poiid":"B2094757D06FA2FA489C","title":"香啡缤(愚园店)","lon":"121.44528","lat":"31.22412","category":"260","category_name":"其他","address":"静安区愚园路136号(近胶州路)"},{"poiid":"B2094654DA6CA7FC429B","title":"上海机场城市航站楼","lon":"121.44706","lat":"31.22404","category":"46","category_name":"楼宇","address":"西城区金融街A区3号地南部"},{"poiid":"B2094757D16DABF94998","title":"久光kookai","lon":"121.447232586","lat":"31.2260253488","category":"500","category_name":"未知分类","address":"上海市静安区延平路"},{"poiid":"B2094757D06FA7F84093","title":"coco壹番屋","lon":"121.44565158","lat":"31.223633302","category":"68","category_name":"快餐厅","address":"上海市静安区久光"},{"poiid":"B2094752D66BA7F8489A","title":"好好先生mr nice〜","lon":"121.445819","lat":"31.225452","category":"247","category_name":"餐饮美食","address":"上海市静安区愚园路280号"},{"poiid":"B2094757D06FA0FC4693","title":"感智盲人保健会所精品店(胶州路店)","lon":"121.44445","lat":"31.22576","category":"149","category_name":"洗浴推拿场所","address":"静安区胶州路129号(近北京西路)"},{"poiid":"B2094757D06FA4FE449E","title":"洋葱意厨","lon":"121.44720758","lat":"31.224171312","category":"94","category_name":"西餐厅","address":"静安区愚园路148号(近胶州路)"},{"poiid":"B2094655D26BA0F9499A","title":"新吉士酒楼(久光店)","lon":"121.44618","lat":"31.22409","category":"76","category_name":"上海菜","address":"静安区南京西路1618号久光百货8楼(近静安寺)"},{"poiid":"B2094757D66FA6FA449E","title":"屋企汤馆(愚园店)","lon":"121.445024674","lat":"31.2243216652","category":"75","category_name":"浙江菜","address":"上海静安区愚园路146号(近胶州路)"},{"poiid":"B2094757D068A6FA4493","title":"静安区青少年活动中心","lon":"121.44483184","lat":"31.224952697","category":"179","category_name":"音乐厅","address":"静安区胶州路15号(近久光百货)"},{"poiid":"B2094751D36CA7FA419B","title":"台湾莲香斋素菜","lon":"121.4452","lat":"31.22421","category":"89","category_name":"中式素餐馆","address":"静安区愚园路151号1、3楼(近万航渡路)"},{"poiid":"B2094757D068A0FD449F","title":"金涮盘","lon":"121.44580906","lat":"31.224455587","category":"86","category_name":"火锅店","address":"静安区愚园路142号(近胶州路)"},{"poiid":"B2094757DB69A3F8459F","title":"避风塘 愚园路店","lon":"121.44482","lat":"31.224264","category":"257","category_name":"中餐厅","address":"静安区愚园路150号(近万航渡路)"},{"poiid":"B209475CDA69A3FE4793","title":"瓦城泰国料理 静安芮欧店","lon":"121.446347","lat":"31.224032","category":"247","category_name":"餐饮美食","address":"上海市静安区南京西路1601号3楼"},{"poiid":"B2094757D06FA0FD4593","title":"王家沙(北京西路店)","lon":"121.44658","lat":"31.22674","category":"257","category_name":"中餐厅","address":"静安区北京西路1533号(常德路口)"},{"poiid":"B2094751D26EA1F9479D","title":"鸟心","lon":"121.44609","lat":"31.224475","category":"269","category_name":"烧烤","address":"静安区南京西路1618号久光百货B1楼(近静安寺)"},{"poiid":"B2094654DB6BA6F54793","title":"上海市医学会(北京西路)","lon":"121.44486","lat":"31.22601","category":"191","category_name":"科研机构","address":"北京西路1623号"},{"poiid":"B2094757D06FA3F5419F","title":"静安寺交通枢纽","lon":"121.445779","lat":"31.225803","category":"38","category_name":"公交车站","address":"上海胶州路北京西路(近静安寺﹑久光百货)"},{"poiid":"B2094757D06FA2FF479C","title":"酷圣石(久光店)","lon":"121.446370578","lat":"31.2236925645","category":"113","category_name":"冷饮店","address":"静安区南京西路1618号久光百货B1楼(近静安寺)"},{"poiid":"B2094750D26CA6FD449F","title":"屋企汤馆 静安店","lon":"121.4448325645","lat":"31.224241006737","category":"72","category_name":"广东菜","address":"静安区万航渡路1-5号4楼A室"},{"poiid":"B2094757D068A6F9449D","title":"圆苑酒家(愚园路店)","lon":"121.44751","lat":"31.22498","category":"75","category_name":"浙江菜","address":"上海静安区愚园路1号宏安瑞士酒店2楼(近常德路)"},{"poiid":"B2094757D16AA6FB499B","title":"越洋广场釜山料理","lon":"121.447309586","lat":"31.2250303293","category":"247","category_name":"餐饮美食","address":"上海南京西路1601号B2"},{"poiid":"B2094655D264A4FF4498","title":"Moon'sSteakhouse","lon":"121.44712","lat":"31.22478","category":"104","category_name":"牛扒店","address":"愚园路1号上海宏安瑞士大酒店"},{"poiid":"B2094751D56EA3F54298","title":"L's BOOK CAFE & WINE","lon":"121.44754","lat":"31.2249","category":"247","category_name":"餐饮美食","address":"静安区常德路195号(近南京西路)"},{"poiid":"B2094753D565AAFC479E","title":"胖达人手感烘焙","lon":"121.447616","lat":"31.225051","category":"247","category_name":"餐饮美食","address":"上海市 南京西路1601号芮欧百货B2-30"},{"poiid":"B2094757D068A2FE419A","title":"檬舒舒 久光百货店","lon":"121.44637","lat":"31.223679","category":"67","category_name":"甜品店","address":"静安区南京西路1618号久光百货B1楼(近静安寺)"},{"poiid":"B2094757D66CA5FF469D","title":"Hair Corner","lon":"121.445434586","lat":"31.2249413276","category":"500","category_name":"未知分类","address":"上海市静安区新闸路 九光1F"},{"poiid":"B2094654D565A0F8459E","title":"静安大厦","lon":"121.446","lat":"31.2255","category":"46","category_name":"楼宇","address":"格林SOHO位于和平十三纬路云集街10号甲(东北炊具城西侧)"},{"poiid":"B2094752D06EA0FC409D","title":"虹桥机场T2航站楼","lon":"121.445909","lat":"31.224168","category":"500","category_name":"未知分类","address":null},{"poiid":"B2094757D764AAF4439D","title":"洋葱餐厅 静安寺店","lon":"121.4452034","lat":"31.2243756","category":"72","category_name":"广东菜","address":"静安区愚园路144号(近胶州路)"},{"poiid":"B2094757D06FA5F84599","title":"ORYA(久光店)","lon":"121.4464","lat":"31.22381","category":"94","category_name":"西餐厅","address":"静安区南京西路1618号久光百货B1楼(近静安寺)"},{"poiid":"B2094757D06BA3F54699","title":"好地方精烧扒轩(愚园路店)","lon":"121.44762","lat":"31.22521","category":"94","category_name":"西餐厅","address":"静安区愚园路1号宏安瑞士大酒店1楼(近常德路)"},{"poiid":"B2094750D768AAF94792","title":"鲁肉范","lon":"121.445","lat":"31.2245","category":"91","category_name":"台湾菜","address":"静安区愚园路138号(一茶一坐旁)"},{"poiid":"B209475CD76DA2FE4298","title":"Bite4fun 粉豆趣 精緻甜品食趣","lon":"121.445495","lat":"31.224943","category":"247","category_name":"餐饮美食","address":"上海市 靜安區愚園路278號"},{"poiid":"B2094654DB6BA6F5499E","title":"久光(西门)","lon":"121.44572","lat":"31.2239","category":"119","category_name":"商场","address":"南京西路1618号(静安寺) "},{"poiid":"B2094655D269ABFD469B","title":"静安寺","lon":"121.44552","lat":"31.22324","category":"244","category_name":"寺庙道观","address":"静安区南京西路1686号(近静安寺)"},{"poiid":"B2094655D26CAAFD459F","title":"上海宏安瑞士大酒店","lon":"121.44712","lat":"31.22477","category":"213","category_name":"五星级宾馆","address":"静安区愚园路1号(近常德路)"},{"poiid":"B2094654DA6CA7FC429A","title":"久光城市广场(久光百货)","lon":"121.44618","lat":"31.22408","category":"119","category_name":"商场","address":"南京西路1618"},{"poiid":"B2094753D76FAAFA449C","title":"上海滩国泰旗舰店","lon":"121.466011","lat":"31.216125","category":"249","category_name":"购物服务","address":"淮海中路868号"},{"poiid":"B209475CD564A7F84292","title":"上海滩新天地店","lon":"121.47463","lat":"31.22164","category":"119","category_name":"商场","address":"\"太仓路181弄新天地北里15号\r\n\""},{"poiid":"B209475CD564A7F8439E","title":"上海滩中信泰富店","lon":"121.45602","lat":"31.22851","category":"119","category_name":"商场","address":"\"南京西路1168号中信泰富广场，店铺号221.\r\n\""},{"poiid":"B2094757D06EAAFC4892","title":"龙记茶餐厅 久光店","lon":"121.446597054","lat":"31.223581793","category":"111","category_name":"休闲餐饮场所","address":"静安区南京西路1618号久光百货B1楼DB28-1-2号铺(近静安寺)"},{"poiid":"B2094750DB6CA4F5469B","title":"台湾人道素菜","lon":"121.44513754498291","lat":"31.22450433180927","category":"89","category_name":"中式素餐馆","address":"静安区愚园路151-157号2楼(近万航渡路)"},{"poiid":"B2094655D269A4F9499E","title":"久光百货超市","lon":"121.44618","lat":"31.22409","category":"118","category_name":"超级市场","address":"静安区南京西路1618号久光百货B1楼(近静安寺)"},{"poiid":"B2094757D06FA2FB4998","title":"古意湘味浓(久光店)","lon":"121.44587566","lat":"31.224315975","category":"77","category_name":"湖南菜","address":"静安区南京西路1618号久光百货8楼(近静安寺)"},{"poiid":"B2094655D26AA7FA4292","title":"WINDOWS久光店","lon":"121.44618","lat":"31.22409","category":"172","category_name":"酒吧","address":"静安区南京西路1618号久光百货2楼(近静安寺)"},{"poiid":"B2094757D068A2F54593","title":"环球世界大厦","lon":"121.44458377","lat":"31.22441168","category":"46","category_name":"楼宇","address":"格林SOHO位于和平十三纬路云集街10号甲(东北炊具城西侧)"},{"poiid":"B2094757D068A5FC429E","title":"张爱玲故居","lon":"121.44760131","lat":"31.224729538","category":"182","category_name":"博物馆","address":"上海静安区常德路195号常德公寓601室"},{"poiid":"B2094757D06FA3FA429B","title":"一茶一坐(愚园店)","lon":"121.444821372","lat":"31.224261104","category":"260","category_name":"其他","address":"上海静安区愚园路150号(近万航渡路)"},{"poiid":"B2094757D06FA3FF489D","title":"敦煌小亭(常德路店)","lon":"121.446630351","lat":"31.2267976373","category":"84","category_name":"西北菜","address":"静安区常德路333号(近北京西路)"},{"poiid":"B2094757D06FA2FA489C","title":"香啡缤(愚园店)","lon":"121.44528","lat":"31.22412","category":"260","category_name":"其他","address":"静安区愚园路136号(近胶州路)"},{"poiid":"B2094654DA6CA7FC429B","title":"上海机场城市航站楼","lon":"121.44706","lat":"31.22404","category":"46","category_name":"楼宇","address":"西城区金融街A区3号地南部"},{"poiid":"B2094757D16DABF94998","title":"久光kookai","lon":"121.447232586","lat":"31.2260253488","category":"500","category_name":"未知分类","address":"上海市静安区延平路"},{"poiid":"B2094757D06FA7F84093","title":"coco壹番屋","lon":"121.44565158","lat":"31.223633302","category":"68","category_name":"快餐厅","address":"上海市静安区久光"},{"poiid":"B2094752D66BA7F8489A","title":"好好先生mr nice〜","lon":"121.445819","lat":"31.225452","category":"247","category_name":"餐饮美食","address":"上海市静安区愚园路280号"},{"poiid":"B2094757D06FA0FC4693","title":"感智盲人保健会所精品店(胶州路店)","lon":"121.44445","lat":"31.22576","category":"149","category_name":"洗浴推拿场所","address":"静安区胶州路129号(近北京西路)"},{"poiid":"B2094757D06FA4FE449E","title":"洋葱意厨","lon":"121.44720758","lat":"31.224171312","category":"94","category_name":"西餐厅","address":"静安区愚园路148号(近胶州路)"},{"poiid":"B2094655D26BA0F9499A","title":"新吉士酒楼(久光店)","lon":"121.44618","lat":"31.22409","category":"76","category_name":"上海菜","address":"静安区南京西路1618号久光百货8楼(近静安寺)"},{"poiid":"B2094757D66FA6FA449E","title":"屋企汤馆(愚园店)","lon":"121.445024674","lat":"31.2243216652","category":"75","category_name":"浙江菜","address":"上海静安区愚园路146号(近胶州路)"},{"poiid":"B2094757D068A6FA4493","title":"静安区青少年活动中心","lon":"121.44483184","lat":"31.224952697","category":"179","category_name":"音乐厅","address":"静安区胶州路15号(近久光百货)"},{"poiid":"B2094751D36CA7FA419B","title":"台湾莲香斋素菜","lon":"121.4452","lat":"31.22421","category":"89","category_name":"中式素餐馆","address":"静安区愚园路151号1、3楼(近万航渡路)"},{"poiid":"B2094757D068A0FD449F","title":"金涮盘","lon":"121.44580906","lat":"31.224455587","category":"86","category_name":"火锅店","address":"静安区愚园路142号(近胶州路)"},{"poiid":"B2094757DB69A3F8459F","title":"避风塘 愚园路店","lon":"121.44482","lat":"31.224264","category":"257","category_name":"中餐厅","address":"静安区愚园路150号(近万航渡路)"},{"poiid":"B209475CDA69A3FE4793","title":"瓦城泰国料理 静安芮欧店","lon":"121.446347","lat":"31.224032","category":"247","category_name":"餐饮美食","address":"上海市静安区南京西路1601号3楼"},{"poiid":"B2094757D06FA0FD4593","title":"王家沙(北京西路店)","lon":"121.44658","lat":"31.22674","category":"257","category_name":"中餐厅","address":"静安区北京西路1533号(常德路口)"},{"poiid":"B2094751D26EA1F9479D","title":"鸟心","lon":"121.44609","lat":"31.224475","category":"269","category_name":"烧烤","address":"静安区南京西路1618号久光百货B1楼(近静安寺)"},{"poiid":"B2094654DB6BA6F54793","title":"上海市医学会(北京西路)","lon":"121.44486","lat":"31.22601","category":"191","category_name":"科研机构","address":"北京西路1623号"},{"poiid":"B2094757D06FA3F5419F","title":"静安寺交通枢纽","lon":"121.445779","lat":"31.225803","category":"38","category_name":"公交车站","address":"上海胶州路北京西路(近静安寺﹑久光百货)"},{"poiid":"B2094757D06FA2FF479C","title":"酷圣石(久光店)","lon":"121.446370578","lat":"31.2236925645","category":"113","category_name":"冷饮店","address":"静安区南京西路1618号久光百货B1楼(近静安寺)"},{"poiid":"B2094750D26CA6FD449F","title":"屋企汤馆 静安店","lon":"121.4448325645","lat":"31.224241006737","category":"72","category_name":"广东菜","address":"静安区万航渡路1-5号4楼A室"},{"poiid":"B2094757D068A6F9449D","title":"圆苑酒家(愚园路店)","lon":"121.44751","lat":"31.22498","category":"75","category_name":"浙江菜","address":"上海静安区愚园路1号宏安瑞士酒店2楼(近常德路)"},{"poiid":"B2094757D16AA6FB499B","title":"越洋广场釜山料理","lon":"121.447309586","lat":"31.2250303293","category":"247","category_name":"餐饮美食","address":"上海南京西路1601号B2"},{"poiid":"B2094655D264A4FF4498","title":"Moon'sSteakhouse","lon":"121.44712","lat":"31.22478","category":"104","category_name":"牛扒店","address":"愚园路1号上海宏安瑞士大酒店"},{"poiid":"B2094751D56EA3F54298","title":"L's BOOK CAFE & WINE","lon":"121.44754","lat":"31.2249","category":"247","category_name":"餐饮美食","address":"静安区常德路195号(近南京西路)"},{"poiid":"B2094753D565AAFC479E","title":"胖达人手感烘焙","lon":"121.447616","lat":"31.225051","category":"247","category_name":"餐饮美食","address":"上海市 南京西路1601号芮欧百货B2-30"},{"poiid":"B2094757D068A2FE419A","title":"檬舒舒 久光百货店","lon":"121.44637","lat":"31.223679","category":"67","category_name":"甜品店","address":"静安区南京西路1618号久光百货B1楼(近静安寺)"},{"poiid":"B2094757D66CA5FF469D","title":"Hair Corner","lon":"121.445434586","lat":"31.2249413276","category":"500","category_name":"未知分类","address":"上海市静安区新闸路 九光1F"},{"poiid":"B2094654D565A0F8459E","title":"静安大厦","lon":"121.446","lat":"31.2255","category":"46","category_name":"楼宇","address":"格林SOHO位于和平十三纬路云集街10号甲(东北炊具城西侧)"},{"poiid":"B2094752D06EA0FC409D","title":"虹桥机场T2航站楼","lon":"121.445909","lat":"31.224168","category":"500","category_name":"未知分类","address":null},{"poiid":"B2094757D764AAF4439D","title":"洋葱餐厅 静安寺店","lon":"121.4452034","lat":"31.2243756","category":"72","category_name":"广东菜","address":"静安区愚园路144号(近胶州路)"},{"poiid":"B2094757D06FA5F84599","title":"ORYA(久光店)","lon":"121.4464","lat":"31.22381","category":"94","category_name":"西餐厅","address":"静安区南京西路1618号久光百货B1楼(近静安寺)"},{"poiid":"B2094757D06BA3F54699","title":"好地方精烧扒轩(愚园路店)","lon":"121.44762","lat":"31.22521","category":"94","category_name":"西餐厅","address":"静安区愚园路1号宏安瑞士大酒店1楼(近常德路)"},{"poiid":"B2094750D768AAF94792","title":"鲁肉范","lon":"121.445","lat":"31.2245","category":"91","category_name":"台湾菜","address":"静安区愚园路138号(一茶一坐旁)"},{"poiid":"B209475CD76DA2FE4298","title":"Bite4fun 粉豆趣 精緻甜品食趣","lon":"121.445495","lat":"31.224943","category":"247","category_name":"餐饮美食","address":"上海市 靜安區愚園路278號"},{"poiid":"B2094654DB6BA6F5499E","title":"久光(西门)","lon":"121.44572","lat":"31.2239","category":"119","category_name":"商场","address":"南京西路1618号(静安寺) "}]