[{"poiid":"B2094757D165A3FA489E","title":"七宝老街","lon":"121.358113586","lat":"31.1531869255","category":"500","category_name":"未知分类","address":"闵行区七宝镇富强街(七莘路新镇路间)"},{"poiid":"B2094757D06EAAFD409D","title":"闵行体育公园","lon":"121.36664128","lat":"31.146892955","category":"500","category_name":"未知分类","address":"闵行区新镇路456号(近农南路)"},{"poiid":"B2094654DA64ABF5409E","title":"七宝镇步行街","lon":"121.35808437301637","lat":"31.153243179298574","category":"116","category_name":"特色商业街","address":"闵行区富强街"},{"poiid":"B2094757D06FA1FB4299","title":"星中路地铁站","lon":"121.368422","lat":"31.158064","category":"36","category_name":"地铁站","address":"上海轨道交通 九号线 轨交星中路站 9"},{"poiid":"B2094757D068A1FF4198","title":"七宝中学","lon":"121.36772541","lat":"31.149760126","category":"55","category_name":"中学","address":"闵行区七中路1号(近农南路)"},{"poiid":"B2094757D465ABFA449A","title":"沪华海鲜大酒店","lon":"121.37256","lat":"31.1585","category":"76","category_name":"上海菜","address":"闵行区漕宝路1687号(近星中路)"},{"poiid":"B2094757D06BA7FC429C","title":"S20外环线漕宝路出口","lon":"121.367194586","lat":"31.158640732","category":"500","category_name":"未知分类","address":"上海漕宝路"},{"poiid":"B2094757D06FA5F54398","title":"龙袍蟹粉小笼馆(北大街店)","lon":"121.3568","lat":"31.15109","category":"257","category_name":"中餐厅","address":"闵行区七宝老街北大街15号(富强街竹行弄)"},{"poiid":"B2094757DA65A7F84593","title":"炭","lon":"121.37090504","lat":"31.16090053999999","category":"247","category_name":"餐饮美食","address":"虹泉路1101弄7号(近虹莘路)"},{"poiid":"B2094757D069A2F84293","title":"七宝教寺","lon":"121.3578","lat":"31.15457","category":"244","category_name":"寺庙道观","address":"闵行区七宝镇新镇路1205号"},{"poiid":"B2094654DA64A3FE469D","title":"上海市公安局闵行分局交通警察支队二中队","lon":"121.36434","lat":"31.15729","category":"248","category_name":"生活娱乐","address":""},{"poiid":"B2094654DA6BABF4439D","title":"秀枫翠谷公寓","lon":"121.36489","lat":"31.15887","category":"47","category_name":"住宅区","address":"漕宝路1911号"},{"poiid":"B2094757D068A6F54893","title":"七宝中学游泳馆","lon":"121.36752","lat":"31.15183","category":"253","category_name":"校园生活","address":"上海闵行区农南路22号七宝中学内"},{"poiid":"B2094757D069A7F4449D","title":"中化道达尔加油站","lon":"121.362674","lat":"31.158158","category":"500","category_name":"未知分类","address":"闵行区漕宝路1997号(近星强街)"},{"poiid":"B2094654DA6BABF4409D","title":"茂盛城市花园","lon":"121.36122","lat":"31.15213","category":"47","category_name":"住宅区","address":"新镇路1036弄"},{"poiid":"B2094757D065AAF84592","title":"颖尚精菜坊","lon":"121.367322586","lat":"31.1647771518","category":"76","category_name":"上海菜","address":"闵行区虹秀路51号(虹泉路西)"},{"poiid":"B2094654DA64A3F94993","title":"三佳花苑","lon":"121.36186","lat":"31.156012","category":"47","category_name":"住宅区","address":"上海新镇路1060弄"},{"poiid":"B2094655D36DA6FC419B","title":"漕宝路星西路","lon":"121.36297","lat":"31.15783","category":"38","category_name":"公交车站","address":""},{"poiid":"B2094654DA64A3FE4692","title":"上海道路交通事故物损评估中心闵行站","lon":"121.36434","lat":"31.15729","category":"250","category_name":"公园户外","address":""},{"poiid":"B2094654DB69A6FE429B","title":"明强小学","lon":"121.3612","lat":"31.15171","category":"56","category_name":"小学","address":"闵行区七宝镇新镇路1050号"},{"poiid":"B2094655D36DA0FE4699","title":"星中路","lon":"121.36743","lat":"31.15811","category":"38","category_name":"公交车站","address":""},{"poiid":"B2094751DA6BA1F8469D","title":"上海虹桥机场","lon":"121.367375","lat":"31.152502","category":"500","category_name":"未知分类","address":null},{"poiid":"B2094757D068ABFB479C","title":"海上新村","lon":"121.36875","lat":"31.156965","category":"47","category_name":"住宅区","address":"上海漕宝路1800弄"},{"poiid":"B2094757D16CABF5469B","title":"闵行区交通事故处理中心","lon":"121.36277758","lat":"31.156587991","category":"500","category_name":"未知分类","address":"上海市漕宝路2008号"},{"poiid":"B2094655D26AA0FA459A","title":"地铁星中路站","lon":"121.36841","lat":"31.15806","category":"36","category_name":"地铁站","address":""},{"poiid":"B2094654DA64A3FE459E","title":"上海锦富有色金属材料","lon":"121.36534","lat":"31.15579","category":"123","category_name":"家具建材市场","address":"星强街15号房6号"},{"poiid":"B2094655D36DA2FF479C","title":"外环漕宝路立交桥","lon":"121.36653","lat":"31.15854","category":"250","category_name":"公园户外","address":""},{"poiid":"B2094757DB68A4F54692","title":"上海歌城","lon":"121.37208861","lat":"31.15523277999998","category":"170","category_name":"KTV","address":"漕宝路"},{"poiid":"B2094750D56DA3FB489B","title":"七宝三中","lon":"121.363418","lat":"31.153989","category":"55","category_name":"中学","address":"闵行区宝南路88号(近七宝老街)"},{"poiid":"B2094654DA6BAAFF479C","title":"快客(漕宝路)","lon":"121.36234","lat":"31.15754","category":"117","category_name":"便民商店/便利店","address":""},{"poiid":"B2094757D16DA6FC439E","title":"上海国际汽车城大厦","lon":"121.36170279","lat":"31.156581019","category":"46","category_name":"楼宇","address":"上海嘉定区安亭墨玉南路888号"},{"poiid":"B2094757D469A5FD4793","title":"漕宝路兰州正宗牛肉拉面","lon":"121.368502","lat":"31.158047","category":"87","category_name":"特色／地方风味餐厅","address":"闵行区漕宝路1792号(近地铁星中路站)"},{"poiid":"B2094654DA64A3FA4192","title":"东风公寓(三佳花苑东南)","lon":"121.36368","lat":"31.15467","category":"47","category_name":"住宅区","address":""},{"poiid":"B2094654DA64A3FD4792","title":"九星不锈钢批发市场","lon":"121.36468","lat":"31.1545","category":"123","category_name":"家具建材市场","address":""},{"poiid":"B2094654DA64A3F94798","title":"越野兵运动汽车改装公社","lon":"121.36385","lat":"31.15554","category":"159","category_name":"汽车维修","address":"星富街9栋2-3号"},{"poiid":"B2094654DA6BABF4439B","title":"金泰公寓","lon":"121.35968","lat":"31.158234","category":"47","category_name":"住宅区","address":"上海闵行区漕宝路2999弄"},{"poiid":"B2094654DB64A2FC4898","title":"慈善超市(星富街)","lon":"121.36382","lat":"31.15574","category":"248","category_name":"生活娱乐","address":"七宝镇"},{"poiid":"B2094757D569A2FD439B","title":"格林豪泰酒店(上海七宝店)","lon":"121.3640332","lat":"31.15404785","category":"216","category_name":"经济型连锁酒店","address":"闵行区七宝镇宝南路85号(近新镇路)"},{"poiid":"B2094757D16AA2FF4593","title":"建设银行青年路支行","lon":"121.36296587","lat":"31.155660033","category":"150","category_name":"银行","address":"上海闵行区青年路194号(近民主路)"},{"poiid":"B2094757D568AAFF449F","title":"上海泉福耐力板有限公司正成工业连锁","lon":"121.364768","lat":"31.154987","category":"249","category_name":"购物服务","address":"星富街13幢18-19号"},{"poiid":"B2094757D164ABF44292","title":"上海永虹汽车修理有限公司","lon":"121.366437666","lat":"31.1585169795","category":"500","category_name":"未知分类","address":"上海市漕宝路"},{"poiid":"B2094654DA65A3F8499D","title":"阳光乾城苑","lon":"121.37106","lat":"31.15701","category":"47","category_name":"住宅区","address":"星中路1111弄"},{"poiid":"B2094655D26BA3FC409A","title":"泓泰","lon":"121.36324","lat":"31.15823","category":"248","category_name":"生活娱乐","address":"闵行区漕宝路1985号;;"},{"poiid":"B2094757D168A0FD499E","title":"瀏島訓練基地","lon":"121.364218","lat":"31.154423","category":"500","category_name":"未知分类","address":"上海嘉定區"},{"poiid":"B2094753D764A2F5459B","title":"上海七宝老街","lon":"121.361495","lat":"31.158798","category":"500","category_name":"未知分类","address":"上海市 上海七宝老街"},{"poiid":"B2094654DB65A5F44592","title":"红明村","lon":"121.36797","lat":"31.160118","category":"47","category_name":"住宅区","address":"漕宝路1783弄"},{"poiid":"B2094654DA64A3FE439A","title":"小豆苗(星强街)","lon":"121.3667","lat":"31.15365","category":"117","category_name":"便民商店/便利店","address":"闵行区星强街57幢1-3号"},{"poiid":"B2094655D268A1FE479D","title":"上海市公用事业学校漕宝校区(西门)","lon":"121.37012","lat":"31.16177","category":"678","category_name":"学校大门","address":""},{"poiid":"B2094654DA6BAAFF4698","title":"七宝人家","lon":"121.357322054","lat":"31.157613793","category":"76","category_name":"上海菜","address":"闵行区新镇路1262号(漕宝路口)"},{"poiid":"B2094655D26FABFD469C","title":"红明村(南门)","lon":"121.36819","lat":"31.15943","category":"47","category_name":"住宅区","address":""},{"poiid":"B2094757D165A3FA489E","title":"七宝老街","lon":"121.358113586","lat":"31.1531869255","category":"500","category_name":"未知分类","address":"闵行区七宝镇富强街(七莘路新镇路间)"},{"poiid":"B2094757D06EAAFD409D","title":"闵行体育公园","lon":"121.36664128","lat":"31.146892955","category":"500","category_name":"未知分类","address":"闵行区新镇路456号(近农南路)"},{"poiid":"B2094654DA64ABF5409E","title":"七宝镇步行街","lon":"121.35808437301637","lat":"31.153243179298574","category":"116","category_name":"特色商业街","address":"闵行区富强街"},{"poiid":"B2094757D06FA1FB4299","title":"星中路地铁站","lon":"121.368422","lat":"31.158064","category":"36","category_name":"地铁站","address":"上海轨道交通 九号线 轨交星中路站 9"},{"poiid":"B2094757D068A1FF4198","title":"七宝中学","lon":"121.36772541","lat":"31.149760126","category":"55","category_name":"中学","address":"闵行区七中路1号(近农南路)"},{"poiid":"B2094757D465ABFA449A","title":"沪华海鲜大酒店","lon":"121.37256","lat":"31.1585","category":"76","category_name":"上海菜","address":"闵行区漕宝路1687号(近星中路)"},{"poiid":"B2094757D06BA7FC429C","title":"S20外环线漕宝路出口","lon":"121.367194586","lat":"31.158640732","category":"500","category_name":"未知分类","address":"上海漕宝路"},{"poiid":"B2094757D06FA5F54398","title":"龙袍蟹粉小笼馆(北大街店)","lon":"121.3568","lat":"31.15109","category":"257","category_name":"中餐厅","address":"闵行区七宝老街北大街15号(富强街竹行弄)"},{"poiid":"B2094757DA65A7F84593","title":"炭","lon":"121.37090504","lat":"31.16090053999999","category":"247","category_name":"餐饮美食","address":"虹泉路1101弄7号(近虹莘路)"},{"poiid":"B2094757D069A2F84293","title":"七宝教寺","lon":"121.3578","lat":"31.15457","category":"244","category_name":"寺庙道观","address":"闵行区七宝镇新镇路1205号"},{"poiid":"B2094654DA64A3FE469D","title":"上海市公安局闵行分局交通警察支队二中队","lon":"121.36434","lat":"31.15729","category":"248","category_name":"生活娱乐","address":""},{"poiid":"B2094654DA6BABF4439D","title":"秀枫翠谷公寓","lon":"121.36489","lat":"31.15887","category":"47","category_name":"住宅区","address":"漕宝路1911号"},{"poiid":"B2094757D068A6F54893","title":"七宝中学游泳馆","lon":"121.36752","lat":"31.15183","category":"253","category_name":"校园生活","address":"上海闵行区农南路22号七宝中学内"},{"poiid":"B2094757D069A7F4449D","title":"中化道达尔加油站","lon":"121.362674","lat":"31.158158","category":"500","category_name":"未知分类","address":"闵行区漕宝路1997号(近星强街)"},{"poiid":"B2094654DA6BABF4409D","title":"茂盛城市花园","lon":"121.36122","lat":"31.15213","category":"47","category_name":"住宅区","address":"新镇路1036弄"},{"poiid":"B2094757D065AAF84592","title":"颖尚精菜坊","lon":"121.367322586","lat":"31.1647771518","category":"76","category_name":"上海菜","address":"闵行区虹秀路51号(虹泉路西)"},{"poiid":"B2094654DA64A3F94993","title":"三佳花苑","lon":"121.36186","lat":"31.156012","category":"47","category_name":"住宅区","address":"上海新镇路1060弄"},{"poiid":"B2094655D36DA6FC419B","title":"漕宝路星西路","lon":"121.36297","lat":"31.15783","category":"38","category_name":"公交车站","address":""},{"poiid":"B2094654DA64A3FE4692","title":"上海道路交通事故物损评估中心闵行站","lon":"121.36434","lat":"31.15729","category":"250","category_name":"公园户外","address":""},{"poiid":"B2094654DB69A6FE429B","title":"明强小学","lon":"121.3612","lat":"31.15171","category":"56","category_name":"小学","address":"闵行区七宝镇新镇路1050号"},{"poiid":"B2094655D36DA0FE4699","title":"星中路","lon":"121.36743","lat":"31.15811","category":"38","category_name":"公交车站","address":""},{"poiid":"B2094751DA6BA1F8469D","title":"上海虹桥机场","lon":"121.367375","lat":"31.152502","category":"500","category_name":"未知分类","address":null},{"poiid":"B2094757D068ABFB479C","title":"海上新村","lon":"121.36875","lat":"31.156965","category":"47","category_name":"住宅区","address":"上海漕宝路1800弄"},{"poiid":"B2094757D16CABF5469B","title":"闵行区交通事故处理中心","lon":"121.36277758","lat":"31.156587991","category":"500","category_name":"未知分类","address":"上海市漕宝路2008号"},{"poiid":"B2094655D26AA0FA459A","title":"地铁星中路站","lon":"121.36841","lat":"31.15806","category":"36","category_name":"地铁站","address":""},{"poiid":"B2094654DA64A3FE459E","title":"上海锦富有色金属材料","lon":"121.36534","lat":"31.15579","category":"123","category_name":"家具建材市场","address":"星强街15号房6号"},{"poiid":"B2094655D36DA2FF479C","title":"外环漕宝路立交桥","lon":"121.36653","lat":"31.15854","category":"250","category_name":"公园户外","address":""},{"poiid":"B2094757DB68A4F54692","title":"上海歌城","lon":"121.37208861","lat":"31.15523277999998","category":"170","category_name":"KTV","address":"漕宝路"},{"poiid":"B2094750D56DA3FB489B","title":"七宝三中","lon":"121.363418","lat":"31.153989","category":"55","category_name":"中学","address":"闵行区宝南路88号(近七宝老街)"},{"poiid":"B2094654DA6BAAFF479C","title":"快客(漕宝路)","lon":"121.36234","lat":"31.15754","category":"117","category_name":"便民商店/便利店","address":""},{"poiid":"B2094757D16DA6FC439E","title":"上海国际汽车城大厦","lon":"121.36170279","lat":"31.156581019","category":"46","category_name":"楼宇","address":"上海嘉定区安亭墨玉南路888号"},{"poiid":"B2094757D469A5FD4793","title":"漕宝路兰州正宗牛肉拉面","lon":"121.368502","lat":"31.158047","category":"87","category_name":"特色／地方风味餐厅","address":"闵行区漕宝路1792号(近地铁星中路站)"},{"poiid":"B2094654DA64A3FA4192","title":"东风公寓(三佳花苑东南)","lon":"121.36368","lat":"31.15467","category":"47","category_name":"住宅区","address":""},{"poiid":"B2094654DA64A3FD4792","title":"九星不锈钢批发市场","lon":"121.36468","lat":"31.1545","category":"123","category_name":"家具建材市场","address":""},{"poiid":"B2094654DA64A3F94798","title":"越野兵运动汽车改装公社","lon":"121.36385","lat":"31.15554","category":"159","category_name":"汽车维修","address":"星富街9栋2-3号"},{"poiid":"B2094654DA6BABF4439B","title":"金泰公寓","lon":"121.35968","lat":"31.158234","category":"47","category_name":"住宅区","address":"上海闵行区漕宝路2999弄"},{"poiid":"B2094654DB64A2FC4898","title":"慈善超市(星富街)","lon":"121.36382","lat":"31.15574","category":"248","category_name":"生活娱乐","address":"七宝镇"},{"poiid":"B2094757D569A2FD439B","title":"格林豪泰酒店(上海七宝店)","lon":"121.3640332","lat":"31.15404785","category":"216","category_name":"经济型连锁酒店","address":"闵行区七宝镇宝南路85号(近新镇路)"},{"poiid":"B2094757D16AA2FF4593","title":"建设银行青年路支行","lon":"121.36296587","lat":"31.155660033","category":"150","category_name":"银行","address":"上海闵行区青年路194号(近民主路)"},{"poiid":"B2094757D568AAFF449F","title":"上海泉福耐力板有限公司正成工业连锁","lon":"121.364768","lat":"31.154987","category":"249","category_name":"购物服务","address":"星富街13幢18-19号"},{"poiid":"B2094757D164ABF44292","title":"上海永虹汽车修理有限公司","lon":"121.366437666","lat":"31.1585169795","category":"500","category_name":"未知分类","address":"上海市漕宝路"},{"poiid":"B2094654DA65A3F8499D","title":"阳光乾城苑","lon":"121.37106","lat":"31.15701","category":"47","category_name":"住宅区","address":"星中路1111弄"},{"poiid":"B2094655D26BA3FC409A","title":"泓泰","lon":"121.36324","lat":"31.15823","category":"248","category_name":"生活娱乐","address":"闵行区漕宝路1985号;;"},{"poiid":"B2094757D168A0FD499E","title":"瀏島訓練基地","lon":"121.364218","lat":"31.154423","category":"500","category_name":"未知分类","address":"上海嘉定區"},{"poiid":"B2094753D764A2F5459B","title":"上海七宝老街","lon":"121.361495","lat":"31.158798","category":"500","category_name":"未知分类","address":"上海市 上海七宝老街"},{"poiid":"B2094654DB65A5F44592","title":"红明村","lon":"121.36797","lat":"31.160118","category":"47","category_name":"住宅区","address":"漕宝路1783弄"},{"poiid":"B2094654DA64A3FE439A","title":"小豆苗(星强街)","lon":"121.3667","lat":"31.15365","category":"117","category_name":"便民商店/便利店","address":"闵行区星强街57幢1-3号"},{"poiid":"B2094655D268A1FE479D","title":"上海市公用事业学校漕宝校区(西门)","lon":"121.37012","lat":"31.16177","category":"678","category_name":"学校大门","address":""},{"poiid":"B2094654DA6BAAFF4698","title":"七宝人家","lon":"121.357322054","lat":"31.157613793","category":"76","category_name":"上海菜","address":"闵行区新镇路1262号(漕宝路口)"},{"poiid":"B2094655D26FABFD469C","title":"红明村(南门)","lon":"121.36819","lat":"31.15943","category":"47","category_name":"住宅区","address":""},{"poiid":"B2094757D165A3FA489E","title":"七宝老街","lon":"121.358113586","lat":"31.1531869255","category":"500","category_name":"未知分类","address":"闵行区七宝镇富强街(七莘路新镇路间)"},{"poiid":"B2094757D06EAAFD409D","title":"闵行体育公园","lon":"121.36664128","lat":"31.146892955","category":"500","category_name":"未知分类","address":"闵行区新镇路456号(近农南路)"},{"poiid":"B2094654DA64ABF5409E","title":"七宝镇步行街","lon":"121.35808437301637","lat":"31.153243179298574","category":"116","category_name":"特色商业街","address":"闵行区富强街"},{"poiid":"B2094757D06FA1FB4299","title":"星中路地铁站","lon":"121.368422","lat":"31.158064","category":"36","category_name":"地铁站","address":"上海轨道交通 九号线 轨交星中路站 9"},{"poiid":"B2094757D068A1FF4198","title":"七宝中学","lon":"121.36772541","lat":"31.149760126","category":"55","category_name":"中学","address":"闵行区七中路1号(近农南路)"},{"poiid":"B2094757D465ABFA449A","title":"沪华海鲜大酒店","lon":"121.37256","lat":"31.1585","category":"76","category_name":"上海菜","address":"闵行区漕宝路1687号(近星中路)"},{"poiid":"B2094757D06BA7FC429C","title":"S20外环线漕宝路出口","lon":"121.367194586","lat":"31.158640732","category":"500","category_name":"未知分类","address":"上海漕宝路"},{"poiid":"B2094757D06FA5F54398","title":"龙袍蟹粉小笼馆(北大街店)","lon":"121.3568","lat":"31.15109","category":"257","category_name":"中餐厅","address":"闵行区七宝老街北大街15号(富强街竹行弄)"},{"poiid":"B2094757DA65A7F84593","title":"炭","lon":"121.37090504","lat":"31.16090053999999","category":"247","category_name":"餐饮美食","address":"虹泉路1101弄7号(近虹莘路)"},{"poiid":"B2094757D069A2F84293","title":"七宝教寺","lon":"121.3578","lat":"31.15457","category":"244","category_name":"寺庙道观","address":"闵行区七宝镇新镇路1205号"},{"poiid":"B2094654DA64A3FE469D","title":"上海市公安局闵行分局交通警察支队二中队","lon":"121.36434","lat":"31.15729","category":"248","category_name":"生活娱乐","address":""},{"poiid":"B2094654DA6BABF4439D","title":"秀枫翠谷公寓","lon":"121.36489","lat":"31.15887","category":"47","category_name":"住宅区","address":"漕宝路1911号"},{"poiid":"B2094757D068A6F54893","title":"七宝中学游泳馆","lon":"121.36752","lat":"31.15183","category":"253","category_name":"校园生活","address":"上海闵行区农南路22号七宝中学内"},{"poiid":"B2094757D069A7F4449D","title":"中化道达尔加油站","lon":"121.362674","lat":"31.158158","category":"500","category_name":"未知分类","address":"闵行区漕宝路1997号(近星强街)"},{"poiid":"B2094654DA6BABF4409D","title":"茂盛城市花园","lon":"121.36122","lat":"31.15213","category":"47","category_name":"住宅区","address":"新镇路1036弄"},{"poiid":"B2094757D065AAF84592","title":"颖尚精菜坊","lon":"121.367322586","lat":"31.1647771518","category":"76","category_name":"上海菜","address":"闵行区虹秀路51号(虹泉路西)"},{"poiid":"B2094654DA64A3F94993","title":"三佳花苑","lon":"121.36186","lat":"31.156012","category":"47","category_name":"住宅区","address":"上海新镇路1060弄"},{"poiid":"B2094655D36DA6FC419B","title":"漕宝路星西路","lon":"121.36297","lat":"31.15783","category":"38","category_name":"公交车站","address":""},{"poiid":"B2094654DA64A3FE4692","title":"上海道路交通事故物损评估中心闵行站","lon":"121.36434","lat":"31.15729","category":"250","category_name":"公园户外","address":""},{"poiid":"B2094654DB69A6FE429B","title":"明强小学","lon":"121.3612","lat":"31.15171","category":"56","category_name":"小学","address":"闵行区七宝镇新镇路1050号"},{"poiid":"B2094655D36DA0FE4699","title":"星中路","lon":"121.36743","lat":"31.15811","category":"38","category_name":"公交车站","address":""},{"poiid":"B2094751DA6BA1F8469D","title":"上海虹桥机场","lon":"121.367375","lat":"31.152502","category":"500","category_name":"未知分类","address":null},{"poiid":"B2094757D068ABFB479C","title":"海上新村","lon":"121.36875","lat":"31.156965","category":"47","category_name":"住宅区","address":"上海漕宝路1800弄"},{"poiid":"B2094757D16CABF5469B","title":"闵行区交通事故处理中心","lon":"121.36277758","lat":"31.156587991","category":"500","category_name":"未知分类","address":"上海市漕宝路2008号"},{"poiid":"B2094655D26AA0FA459A","title":"地铁星中路站","lon":"121.36841","lat":"31.15806","category":"36","category_name":"地铁站","address":""},{"poiid":"B2094654DA64A3FE459E","title":"上海锦富有色金属材料","lon":"121.36534","lat":"31.15579","category":"123","category_name":"家具建材市场","address":"星强街15号房6号"},{"poiid":"B2094655D36DA2FF479C","title":"外环漕宝路立交桥","lon":"121.36653","lat":"31.15854","category":"250","category_name":"公园户外","address":""},{"poiid":"B2094757DB68A4F54692","title":"上海歌城","lon":"121.37208861","lat":"31.15523277999998","category":"170","category_name":"KTV","address":"漕宝路"},{"poiid":"B2094750D56DA3FB489B","title":"七宝三中","lon":"121.363418","lat":"31.153989","category":"55","category_name":"中学","address":"闵行区宝南路88号(近七宝老街)"},{"poiid":"B2094654DA6BAAFF479C","title":"快客(漕宝路)","lon":"121.36234","lat":"31.15754","category":"117","category_name":"便民商店/便利店","address":""},{"poiid":"B2094757D16DA6FC439E","title":"上海国际汽车城大厦","lon":"121.36170279","lat":"31.156581019","category":"46","category_name":"楼宇","address":"上海嘉定区安亭墨玉南路888号"},{"poiid":"B2094757D469A5FD4793","title":"漕宝路兰州正宗牛肉拉面","lon":"121.368502","lat":"31.158047","category":"87","category_name":"特色／地方风味餐厅","address":"闵行区漕宝路1792号(近地铁星中路站)"},{"poiid":"B2094654DA64A3FA4192","title":"东风公寓(三佳花苑东南)","lon":"121.36368","lat":"31.15467","category":"47","category_name":"住宅区","address":""},{"poiid":"B2094654DA64A3FD4792","title":"九星不锈钢批发市场","lon":"121.36468","lat":"31.1545","category":"123","category_name":"家具建材市场","address":""},{"poiid":"B2094654DA64A3F94798","title":"越野兵运动汽车改装公社","lon":"121.36385","lat":"31.15554","category":"159","category_name":"汽车维修","address":"星富街9栋2-3号"},{"poiid":"B2094654DA6BABF4439B","title":"金泰公寓","lon":"121.35968","lat":"31.158234","category":"47","category_name":"住宅区","address":"上海闵行区漕宝路2999弄"},{"poiid":"B2094654DB64A2FC4898","title":"慈善超市(星富街)","lon":"121.36382","lat":"31.15574","category":"248","category_name":"生活娱乐","address":"七宝镇"},{"poiid":"B2094757D569A2FD439B","title":"格林豪泰酒店(上海七宝店)","lon":"121.3640332","lat":"31.15404785","category":"216","category_name":"经济型连锁酒店","address":"闵行区七宝镇宝南路85号(近新镇路)"},{"poiid":"B2094757D16AA2FF4593","title":"建设银行青年路支行","lon":"121.36296587","lat":"31.155660033","category":"150","category_name":"银行","address":"上海闵行区青年路194号(近民主路)"},{"poiid":"B2094757D568AAFF449F","title":"上海泉福耐力板有限公司正成工业连锁","lon":"121.364768","lat":"31.154987","category":"249","category_name":"购物服务","address":"星富街13幢18-19号"},{"poiid":"B2094757D164ABF44292","title":"上海永虹汽车修理有限公司","lon":"121.366437666","lat":"31.1585169795","category":"500","category_name":"未知分类","address":"上海市漕宝路"},{"poiid":"B2094654DA65A3F8499D","title":"阳光乾城苑","lon":"121.37106","lat":"31.15701","category":"47","category_name":"住宅区","address":"星中路1111弄"},{"poiid":"B2094655D26BA3FC409A","title":"泓泰","lon":"121.36324","lat":"31.15823","category":"248","category_name":"生活娱乐","address":"闵行区漕宝路1985号;;"},{"poiid":"B2094757D168A0FD499E","title":"瀏島訓練基地","lon":"121.364218","lat":"31.154423","category":"500","category_name":"未知分类","address":"上海嘉定區"},{"poiid":"B2094753D764A2F5459B","title":"上海七宝老街","lon":"121.361495","lat":"31.158798","category":"500","category_name":"未知分类","address":"上海市 上海七宝老街"},{"poiid":"B2094654DB65A5F44592","title":"红明村","lon":"121.36797","lat":"31.160118","category":"47","category_name":"住宅区","address":"漕宝路1783弄"},{"poiid":"B2094654DA64A3FE439A","title":"小豆苗(星强街)","lon":"121.3667","lat":"31.15365","category":"117","category_name":"便民商店/便利店","address":"闵行区星强街57幢1-3号"},{"poiid":"B2094655D268A1FE479D","title":"上海市公用事业学校漕宝校区(西门)","lon":"121.37012","lat":"31.16177","category":"678","category_name":"学校大门","address":""},{"poiid":"B2094654DA6BAAFF4698","title":"七宝人家","lon":"121.357322054","lat":"31.157613793","category":"76","category_name":"上海菜","address":"闵行区新镇路1262号(漕宝路口)"},{"poiid":"B2094655D26FABFD469C","title":"红明村(南门)","lon":"121.36819","lat":"31.15943","category":"47","category_name":"住宅区","address":""},{"poiid":"B2094757D165A3FA489E","title":"七宝老街","lon":"121.358113586","lat":"31.1531869255","category":"500","category_name":"未知分类","address":"闵行区七宝镇富强街(七莘路新镇路间)"},{"poiid":"B2094757D06EAAFD409D","title":"闵行体育公园","lon":"121.36664128","lat":"31.146892955","category":"500","category_name":"未知分类","address":"闵行区新镇路456号(近农南路)"},{"poiid":"B2094654DA64ABF5409E","title":"七宝镇步行街","lon":"121.35808437301637","lat":"31.153243179298574","category":"116","category_name":"特色商业街","address":"闵行区富强街"},{"poiid":"B2094757D06FA1FB4299","title":"星中路地铁站","lon":"121.368422","lat":"31.158064","category":"36","category_name":"地铁站","address":"上海轨道交通 九号线 轨交星中路站 9"},{"poiid":"B2094757D068A1FF4198","title":"七宝中学","lon":"121.36772541","lat":"31.149760126","category":"55","category_name":"中学","address":"闵行区七中路1号(近农南路)"},{"poiid":"B2094757D465ABFA449A","title":"沪华海鲜大酒店","lon":"121.37256","lat":"31.1585","category":"76","category_name":"上海菜","address":"闵行区漕宝路1687号(近星中路)"},{"poiid":"B2094757D06BA7FC429C","title":"S20外环线漕宝路出口","lon":"121.367194586","lat":"31.158640732","category":"500","category_name":"未知分类","address":"上海漕宝路"},{"poiid":"B2094757D06FA5F54398","title":"龙袍蟹粉小笼馆(北大街店)","lon":"121.3568","lat":"31.15109","category":"257","category_name":"中餐厅","address":"闵行区七宝老街北大街15号(富强街竹行弄)"},{"poiid":"B2094757DA65A7F84593","title":"炭","lon":"121.37090504","lat":"31.16090053999999","category":"247","category_name":"餐饮美食","address":"虹泉路1101弄7号(近虹莘路)"},{"poiid":"B2094757D069A2F84293","title":"七宝教寺","lon":"121.3578","lat":"31.15457","category":"244","category_name":"寺庙道观","address":"闵行区七宝镇新镇路1205号"},{"poiid":"B2094654DA64A3FE469D","title":"上海市公安局闵行分局交通警察支队二中队","lon":"121.36434","lat":"31.15729","category":"248","category_name":"生活娱乐","address":""},{"poiid":"B2094654DA6BABF4439D","title":"秀枫翠谷公寓","lon":"121.36489","lat":"31.15887","category":"47","category_name":"住宅区","address":"漕宝路1911号"},{"poiid":"B2094757D068A6F54893","title":"七宝中学游泳馆","lon":"121.36752","lat":"31.15183","category":"253","category_name":"校园生活","address":"上海闵行区农南路22号七宝中学内"},{"poiid":"B2094757D069A7F4449D","title":"中化道达尔加油站","lon":"121.362674","lat":"31.158158","category":"500","category_name":"未知分类","address":"闵行区漕宝路1997号(近星强街)"},{"poiid":"B2094654DA6BABF4409D","title":"茂盛城市花园","lon":"121.36122","lat":"31.15213","category":"47","category_name":"住宅区","address":"新镇路1036弄"},{"poiid":"B2094757D065AAF84592","title":"颖尚精菜坊","lon":"121.367322586","lat":"31.1647771518","category":"76","category_name":"上海菜","address":"闵行区虹秀路51号(虹泉路西)"},{"poiid":"B2094654DA64A3F94993","title":"三佳花苑","lon":"121.36186","lat":"31.156012","category":"47","category_name":"住宅区","address":"上海新镇路1060弄"},{"poiid":"B2094655D36DA6FC419B","title":"漕宝路星西路","lon":"121.36297","lat":"31.15783","category":"38","category_name":"公交车站","address":""},{"poiid":"B2094654DA64A3FE4692","title":"上海道路交通事故物损评估中心闵行站","lon":"121.36434","lat":"31.15729","category":"250","category_name":"公园户外","address":""},{"poiid":"B2094654DB69A6FE429B","title":"明强小学","lon":"121.3612","lat":"31.15171","category":"56","category_name":"小学","address":"闵行区七宝镇新镇路1050号"},{"poiid":"B2094655D36DA0FE4699","title":"星中路","lon":"121.36743","lat":"31.15811","category":"38","category_name":"公交车站","address":""},{"poiid":"B2094751DA6BA1F8469D","title":"上海虹桥机场","lon":"121.367375","lat":"31.152502","category":"500","category_name":"未知分类","address":null},{"poiid":"B2094757D068ABFB479C","title":"海上新村","lon":"121.36875","lat":"31.156965","category":"47","category_name":"住宅区","address":"上海漕宝路1800弄"},{"poiid":"B2094757D16CABF5469B","title":"闵行区交通事故处理中心","lon":"121.36277758","lat":"31.156587991","category":"500","category_name":"未知分类","address":"上海市漕宝路2008号"},{"poiid":"B2094655D26AA0FA459A","title":"地铁星中路站","lon":"121.36841","lat":"31.15806","category":"36","category_name":"地铁站","address":""},{"poiid":"B2094654DA64A3FE459E","title":"上海锦富有色金属材料","lon":"121.36534","lat":"31.15579","category":"123","category_name":"家具建材市场","address":"星强街15号房6号"},{"poiid":"B2094655D36DA2FF479C","title":"外环漕宝路立交桥","lon":"121.36653","lat":"31.15854","category":"250","category_name":"公园户外","address":""},{"poiid":"B2094757DB68A4F54692","title":"上海歌城","lon":"121.37208861","lat":"31.15523277999998","category":"170","category_name":"KTV","address":"漕宝路"},{"poiid":"B2094750D56DA3FB489B","title":"七宝三中","lon":"121.363418","lat":"31.153989","category":"55","category_name":"中学","address":"闵行区宝南路88号(近七宝老街)"},{"poiid":"B2094654DA6BAAFF479C","title":"快客(漕宝路)","lon":"121.36234","lat":"31.15754","category":"117","category_name":"便民商店/便利店","address":""},{"poiid":"B2094757D16DA6FC439E","title":"上海国际汽车城大厦","lon":"121.36170279","lat":"31.156581019","category":"46","category_name":"楼宇","address":"上海嘉定区安亭墨玉南路888号"},{"poiid":"B2094757D469A5FD4793","title":"漕宝路兰州正宗牛肉拉面","lon":"121.368502","lat":"31.158047","category":"87","category_name":"特色／地方风味餐厅","address":"闵行区漕宝路1792号(近地铁星中路站)"},{"poiid":"B2094654DA64A3FA4192","title":"东风公寓(三佳花苑东南)","lon":"121.36368","lat":"31.15467","category":"47","category_name":"住宅区","address":""},{"poiid":"B2094654DA64A3FD4792","title":"九星不锈钢批发市场","lon":"121.36468","lat":"31.1545","category":"123","category_name":"家具建材市场","address":""},{"poiid":"B2094654DA64A3F94798","title":"越野兵运动汽车改装公社","lon":"121.36385","lat":"31.15554","category":"159","category_name":"汽车维修","address":"星富街9栋2-3号"},{"poiid":"B2094654DA6BABF4439B","title":"金泰公寓","lon":"121.35968","lat":"31.158234","category":"47","category_name":"住宅区","address":"上海闵行区漕宝路2999弄"},{"poiid":"B2094654DB64A2FC4898","title":"慈善超市(星富街)","lon":"121.36382","lat":"31.15574","category":"248","category_name":"生活娱乐","address":"七宝镇"},{"poiid":"B2094757D569A2FD439B","title":"格林豪泰酒店(上海七宝店)","lon":"121.3640332","lat":"31.15404785","category":"216","category_name":"经济型连锁酒店","address":"闵行区七宝镇宝南路85号(近新镇路)"},{"poiid":"B2094757D16AA2FF4593","title":"建设银行青年路支行","lon":"121.36296587","lat":"31.155660033","category":"150","category_name":"银行","address":"上海闵行区青年路194号(近民主路)"},{"poiid":"B2094757D568AAFF449F","title":"上海泉福耐力板有限公司正成工业连锁","lon":"121.364768","lat":"31.154987","category":"249","category_name":"购物服务","address":"星富街13幢18-19号"},{"poiid":"B2094757D164ABF44292","title":"上海永虹汽车修理有限公司","lon":"121.366437666","lat":"31.1585169795","category":"500","category_name":"未知分类","address":"上海市漕宝路"},{"poiid":"B2094654DA65A3F8499D","title":"阳光乾城苑","lon":"121.37106","lat":"31.15701","category":"47","category_name":"住宅区","address":"星中路1111弄"},{"poiid":"B2094655D26BA3FC409A","title":"泓泰","lon":"121.36324","lat":"31.15823","category":"248","category_name":"生活娱乐","address":"闵行区漕宝路1985号;;"},{"poiid":"B2094757D168A0FD499E","title":"瀏島訓練基地","lon":"121.364218","lat":"31.154423","category":"500","category_name":"未知分类","address":"上海嘉定區"},{"poiid":"B2094753D764A2F5459B","title":"上海七宝老街","lon":"121.361495","lat":"31.158798","category":"500","category_name":"未知分类","address":"上海市 上海七宝老街"},{"poiid":"B2094654DB65A5F44592","title":"红明村","lon":"121.36797","lat":"31.160118","category":"47","category_name":"住宅区","address":"漕宝路1783弄"},{"poiid":"B2094654DA64A3FE439A","title":"小豆苗(星强街)","lon":"121.3667","lat":"31.15365","category":"117","category_name":"便民商店/便利店","address":"闵行区星强街57幢1-3号"},{"poiid":"B2094655D268A1FE479D","title":"上海市公用事业学校漕宝校区(西门)","lon":"121.37012","lat":"31.16177","category":"678","category_name":"学校大门","address":""},{"poiid":"B2094654DA6BAAFF4698","title":"七宝人家","lon":"121.357322054","lat":"31.157613793","category":"76","category_name":"上海菜","address":"闵行区新镇路1262号(漕宝路口)"},{"poiid":"B2094655D26FABFD469C","title":"红明村(南门)","lon":"121.36819","lat":"31.15943","category":"47","category_name":"住宅区","address":""}]