[{"poiid":"B2094757D06EAAF5479B","title":"星巴克(漕宝店)","lon":"121.3770909","lat":"31.157744","category":"65","category_name":"咖啡厅","address":"闵行区虹莘路2988号漕宝购物中心内"},{"poiid":"B2094757D06FA1FB4299","title":"星中路地铁站","lon":"121.368422","lat":"31.158064","category":"36","category_name":"地铁站","address":"上海轨道交通 九号线 轨交星中路站 9"},{"poiid":"B2094757D068A1FF4198","title":"七宝中学","lon":"121.36772541","lat":"31.149760126","category":"55","category_name":"中学","address":"闵行区七中路1号(近农南路)"},{"poiid":"B2094757D06FA0F4449D","title":"大上海国际花园","lon":"121.37775","lat":"31.159109","category":"47","category_name":"住宅区","address":"漕宝路1555号"},{"poiid":"B2094757D068A0FB4993","title":"漕宝购物中心","lon":"121.378073471","lat":"31.1565138661","category":"119","category_name":"商场","address":"闵行区漕宝路1574号(近虹莘路)"},{"poiid":"B2094757D465ABFA449A","title":"沪华海鲜大酒店","lon":"121.37256","lat":"31.1585","category":"76","category_name":"上海菜","address":"闵行区漕宝路1687号(近星中路)"},{"poiid":"B2094757D06FA0F8409F","title":"九星建材批发市场","lon":"121.3737","lat":"31.1493","category":"249","category_name":"购物服务","address":"上海闵行区漕宝路6号桥南侧(近虹莘路)  "},{"poiid":"B2094757DA65A7F84593","title":"炭","lon":"121.37090504","lat":"31.16090053999999","category":"247","category_name":"餐饮美食","address":"虹泉路1101弄7号(近虹莘路)"},{"poiid":"B2094757D06BA7FC429C","title":"S20外环线漕宝路出口","lon":"121.367194586","lat":"31.158640732","category":"500","category_name":"未知分类","address":"上海漕宝路"},{"poiid":"B2094757D06AA3F9419C","title":"江南公社","lon":"121.37763758","lat":"31.157779015","category":"77","category_name":"湖南菜","address":"闵行区漕宝路1539号大上海国际花园旁(近虹莘路)"},{"poiid":"B2094757D065AAF84592","title":"颖尚精菜坊","lon":"121.367322586","lat":"31.1647771518","category":"76","category_name":"上海菜","address":"闵行区虹秀路51号(虹泉路西)"},{"poiid":"B2094757D068A6F54893","title":"七宝中学游泳馆","lon":"121.36752","lat":"31.15183","category":"253","category_name":"校园生活","address":"上海闵行区农南路22号七宝中学内"},{"poiid":"B2094757D068A2FD4793","title":"DQ冰雪皇后 漕宝路店 Dairy Queen","lon":"121.37609","lat":"31.15785","category":"113","category_name":"冷饮店","address":"闵行区漕宝路1574号漕宝购物中心(漕宝路虹莘路)"},{"poiid":"B2094757DB68A4F54692","title":"上海歌城","lon":"121.37208861","lat":"31.15523277999998","category":"170","category_name":"KTV","address":"漕宝路"},{"poiid":"B2094757D164A6FA4898","title":"浙鲜面馆","lon":"121.377268586","lat":"31.1558939783","category":"68","category_name":"快餐厅","address":"闵行区虹莘路2930号(近东兰路)"},{"poiid":"B2094757D065A3FA489C","title":"菌道——菌菇火锅料理","lon":"121.377247815","lat":"31.1583192476","category":"86","category_name":"火锅店","address":"闵行区漕宝路1539号宝秀美食广场1楼(大上海国际花园旁)"},{"poiid":"B2094654DA6BABF4409D","title":"茂盛城市花园","lon":"121.36122","lat":"31.15213","category":"47","category_name":"住宅区","address":"新镇路1036弄"},{"poiid":"B2094757D068ABFB479C","title":"海上新村","lon":"121.36875","lat":"31.156965","category":"47","category_name":"住宅区","address":"上海漕宝路1800弄"},{"poiid":"B2094751DA6BA1F8469D","title":"上海虹桥机场","lon":"121.367375","lat":"31.152502","category":"500","category_name":"未知分类","address":null},{"poiid":"B2094655D26AA0FA459A","title":"地铁星中路站","lon":"121.36841","lat":"31.15806","category":"36","category_name":"地铁站","address":""},{"poiid":"B2094654DA64A3FE469D","title":"上海市公安局闵行分局交通警察支队二中队","lon":"121.36434","lat":"31.15729","category":"248","category_name":"生活娱乐","address":""},{"poiid":"B2094654DB69A6FE429B","title":"明强小学","lon":"121.3612","lat":"31.15171","category":"56","category_name":"小学","address":"闵行区七宝镇新镇路1050号"},{"poiid":"B2094654DA6BABF4439D","title":"秀枫翠谷公寓","lon":"121.36489","lat":"31.15887","category":"47","category_name":"住宅区","address":"漕宝路1911号"},{"poiid":"B2094654DA65A3F8499D","title":"阳光乾城苑","lon":"121.37106","lat":"31.15701","category":"47","category_name":"住宅区","address":"星中路1111弄"},{"poiid":"B2094655D36DA0FE4699","title":"星中路","lon":"121.36743","lat":"31.15811","category":"38","category_name":"公交车站","address":""},{"poiid":"B2094757D469A5FD4793","title":"漕宝路兰州正宗牛肉拉面","lon":"121.368502","lat":"31.158047","category":"87","category_name":"特色／地方风味餐厅","address":"闵行区漕宝路1792号(近地铁星中路站)"},{"poiid":"B2094757D069A2FB429A","title":"味千拉面","lon":"121.37803056","lat":"31.157752234","category":"95","category_name":"日本料理","address":"闵行区漕宝路1574号漕宝购物中心2楼2001店铺"},{"poiid":"B2094655D268A1FE479D","title":"上海市公用事业学校漕宝校区(西门)","lon":"121.37012","lat":"31.16177","category":"678","category_name":"学校大门","address":""},{"poiid":"B2094757D069A7F4449D","title":"中化道达尔加油站","lon":"121.362674","lat":"31.158158","category":"500","category_name":"未知分类","address":"闵行区漕宝路1997号(近星强街)"},{"poiid":"B2094757D064A5FD4498","title":"爱乐游(漕宝购物中心店)","lon":"121.37506158","lat":"31.159373046","category":"500","category_name":"未知分类","address":"上海市闵行区漕宝路漕宝购物中心3F"},{"poiid":"B2094757D065A3F54092","title":"诺宝健身中心游泳馆","lon":"121.37289","lat":"31.15739","category":"220","category_name":"运动场所","address":"上海闵行区漕宝路1688号诺宝中心大酒店  "},{"poiid":"B2094654DA64A3F94993","title":"三佳花苑","lon":"121.36186","lat":"31.156012","category":"47","category_name":"住宅区","address":"上海新镇路1060弄"},{"poiid":"B2094757D06FA0FB499A","title":"外环线","lon":"121.37167739","lat":"31.147986525","category":"500","category_name":"未知分类","address":"上海外环线"},{"poiid":"B2094757DA65A5FB459B","title":"汉庭快捷酒店（上海虹桥漕宝路店）","lon":"121.3725784","lat":"31.15848795","category":"216","category_name":"经济型连锁酒店","address":"上海市闵行区漕宝路1687号(近星中路)"},{"poiid":"B2094655D26FA3F9439B","title":"快客No.1698","lon":"121.37016","lat":"31.15791","category":"117","category_name":"便民商店/便利店","address":"漕宝路1788"},{"poiid":"B2094655D36DA2FF479C","title":"外环漕宝路立交桥","lon":"121.36653","lat":"31.15854","category":"250","category_name":"公园户外","address":""},{"poiid":"B2094750DB6DA1F54893","title":"上海歌城","lon":"121.37030315","lat":"31.16022074","category":"170","category_name":"KTV","address":"漕宝路1550号"},{"poiid":"B2094655D36DA6FC4198","title":"漕宝路星中路","lon":"121.37157","lat":"31.15821","category":"38","category_name":"公交车站","address":""},{"poiid":"B2094655D265A3F94198","title":"上海天安豪园一期","lon":"121.37185","lat":"31.15914","category":"47","category_name":"住宅区","address":""},{"poiid":"B2094655D36DA6FC419B","title":"漕宝路星西路","lon":"121.36297","lat":"31.15783","category":"38","category_name":"公交车站","address":""},{"poiid":"B2094757D66BA3FA439D","title":"吴记老锅底麻辣火锅 漕宝路店","lon":"121.377639","lat":"31.156669","category":"86","category_name":"火锅店","address":"闵行区虹莘路3065号苏宁电器1楼(近漕宝路)"},{"poiid":"B2094655D264ABF4499E","title":"易购便利店","lon":"121.37016","lat":"31.15791","category":"117","category_name":"便民商店/便利店","address":"漕宝路1788"},{"poiid":"B2094757D16DA3FD4492","title":"雷迪大酒店","lon":"121.376894","lat":"31.156461","category":"72","category_name":"广东菜","address":"闵行区虹莘路3065号华宝广场(近漕宝路)"},{"poiid":"B2094654DB65A5F44592","title":"红明村","lon":"121.36797","lat":"31.160118","category":"47","category_name":"住宅区","address":"漕宝路1783弄"},{"poiid":"B2094757D16AA2FA419D","title":"九星宴会厅","lon":"121.36811058","lat":"31.152861919","category":"247","category_name":"餐饮美食","address":"上海市闵行区宝盛路"},{"poiid":"B2094757D06AA1F54693","title":"G2京沪高速安亭收费站","lon":"121.368501586","lat":"31.1546650543","category":"267","category_name":"收费站","address":"上海京沪高速"},{"poiid":"B2094757D169A3FC459B","title":"九星市场","lon":"121.37508558","lat":"31.159269044","category":"217","category_name":"旅馆招待所","address":"上海九星路二区"},{"poiid":"B2094654DB64A2FF469F","title":"宏明雅舍","lon":"121.36934","lat":"31.159344","category":"47","category_name":"住宅区","address":"漕宝路1755弄"},{"poiid":"B2094757D16CA5FA4292","title":"桐春金农庄","lon":"121.37724058","lat":"31.159310045","category":"87","category_name":"特色／地方风味餐厅","address":"闵行区漕宝路1539号(虹莘路)"},{"poiid":"B2094757D169AAF9429F","title":"樂虹坊","lon":"121.375470586","lat":"31.1588440359","category":"500","category_name":"未知分类","address":"上海市闵行区虹井路"},{"poiid":"B2094757D06EAAF5479B","title":"星巴克(漕宝店)","lon":"121.3770909","lat":"31.157744","category":"65","category_name":"咖啡厅","address":"闵行区虹莘路2988号漕宝购物中心内"},{"poiid":"B2094757D06FA1FB4299","title":"星中路地铁站","lon":"121.368422","lat":"31.158064","category":"36","category_name":"地铁站","address":"上海轨道交通 九号线 轨交星中路站 9"},{"poiid":"B2094757D068A1FF4198","title":"七宝中学","lon":"121.36772541","lat":"31.149760126","category":"55","category_name":"中学","address":"闵行区七中路1号(近农南路)"},{"poiid":"B2094757D06FA0F4449D","title":"大上海国际花园","lon":"121.37775","lat":"31.159109","category":"47","category_name":"住宅区","address":"漕宝路1555号"},{"poiid":"B2094757D068A0FB4993","title":"漕宝购物中心","lon":"121.378073471","lat":"31.1565138661","category":"119","category_name":"商场","address":"闵行区漕宝路1574号(近虹莘路)"},{"poiid":"B2094757D465ABFA449A","title":"沪华海鲜大酒店","lon":"121.37256","lat":"31.1585","category":"76","category_name":"上海菜","address":"闵行区漕宝路1687号(近星中路)"},{"poiid":"B2094757D06FA0F8409F","title":"九星建材批发市场","lon":"121.3737","lat":"31.1493","category":"249","category_name":"购物服务","address":"上海闵行区漕宝路6号桥南侧(近虹莘路)  "},{"poiid":"B2094757DA65A7F84593","title":"炭","lon":"121.37090504","lat":"31.16090053999999","category":"247","category_name":"餐饮美食","address":"虹泉路1101弄7号(近虹莘路)"},{"poiid":"B2094757D06BA7FC429C","title":"S20外环线漕宝路出口","lon":"121.367194586","lat":"31.158640732","category":"500","category_name":"未知分类","address":"上海漕宝路"},{"poiid":"B2094757D06AA3F9419C","title":"江南公社","lon":"121.37763758","lat":"31.157779015","category":"77","category_name":"湖南菜","address":"闵行区漕宝路1539号大上海国际花园旁(近虹莘路)"},{"poiid":"B2094757D065AAF84592","title":"颖尚精菜坊","lon":"121.367322586","lat":"31.1647771518","category":"76","category_name":"上海菜","address":"闵行区虹秀路51号(虹泉路西)"},{"poiid":"B2094757D068A6F54893","title":"七宝中学游泳馆","lon":"121.36752","lat":"31.15183","category":"253","category_name":"校园生活","address":"上海闵行区农南路22号七宝中学内"},{"poiid":"B2094757D068A2FD4793","title":"DQ冰雪皇后 漕宝路店 Dairy Queen","lon":"121.37609","lat":"31.15785","category":"113","category_name":"冷饮店","address":"闵行区漕宝路1574号漕宝购物中心(漕宝路虹莘路)"},{"poiid":"B2094757DB68A4F54692","title":"上海歌城","lon":"121.37208861","lat":"31.15523277999998","category":"170","category_name":"KTV","address":"漕宝路"},{"poiid":"B2094757D164A6FA4898","title":"浙鲜面馆","lon":"121.377268586","lat":"31.1558939783","category":"68","category_name":"快餐厅","address":"闵行区虹莘路2930号(近东兰路)"},{"poiid":"B2094757D065A3FA489C","title":"菌道——菌菇火锅料理","lon":"121.377247815","lat":"31.1583192476","category":"86","category_name":"火锅店","address":"闵行区漕宝路1539号宝秀美食广场1楼(大上海国际花园旁)"},{"poiid":"B2094654DA6BABF4409D","title":"茂盛城市花园","lon":"121.36122","lat":"31.15213","category":"47","category_name":"住宅区","address":"新镇路1036弄"},{"poiid":"B2094757D068ABFB479C","title":"海上新村","lon":"121.36875","lat":"31.156965","category":"47","category_name":"住宅区","address":"上海漕宝路1800弄"},{"poiid":"B2094751DA6BA1F8469D","title":"上海虹桥机场","lon":"121.367375","lat":"31.152502","category":"500","category_name":"未知分类","address":null},{"poiid":"B2094655D26AA0FA459A","title":"地铁星中路站","lon":"121.36841","lat":"31.15806","category":"36","category_name":"地铁站","address":""},{"poiid":"B2094654DA64A3FE469D","title":"上海市公安局闵行分局交通警察支队二中队","lon":"121.36434","lat":"31.15729","category":"248","category_name":"生活娱乐","address":""},{"poiid":"B2094654DB69A6FE429B","title":"明强小学","lon":"121.3612","lat":"31.15171","category":"56","category_name":"小学","address":"闵行区七宝镇新镇路1050号"},{"poiid":"B2094654DA6BABF4439D","title":"秀枫翠谷公寓","lon":"121.36489","lat":"31.15887","category":"47","category_name":"住宅区","address":"漕宝路1911号"},{"poiid":"B2094654DA65A3F8499D","title":"阳光乾城苑","lon":"121.37106","lat":"31.15701","category":"47","category_name":"住宅区","address":"星中路1111弄"},{"poiid":"B2094655D36DA0FE4699","title":"星中路","lon":"121.36743","lat":"31.15811","category":"38","category_name":"公交车站","address":""},{"poiid":"B2094757D469A5FD4793","title":"漕宝路兰州正宗牛肉拉面","lon":"121.368502","lat":"31.158047","category":"87","category_name":"特色／地方风味餐厅","address":"闵行区漕宝路1792号(近地铁星中路站)"},{"poiid":"B2094757D069A2FB429A","title":"味千拉面","lon":"121.37803056","lat":"31.157752234","category":"95","category_name":"日本料理","address":"闵行区漕宝路1574号漕宝购物中心2楼2001店铺"},{"poiid":"B2094655D268A1FE479D","title":"上海市公用事业学校漕宝校区(西门)","lon":"121.37012","lat":"31.16177","category":"678","category_name":"学校大门","address":""},{"poiid":"B2094757D069A7F4449D","title":"中化道达尔加油站","lon":"121.362674","lat":"31.158158","category":"500","category_name":"未知分类","address":"闵行区漕宝路1997号(近星强街)"},{"poiid":"B2094757D064A5FD4498","title":"爱乐游(漕宝购物中心店)","lon":"121.37506158","lat":"31.159373046","category":"500","category_name":"未知分类","address":"上海市闵行区漕宝路漕宝购物中心3F"},{"poiid":"B2094757D065A3F54092","title":"诺宝健身中心游泳馆","lon":"121.37289","lat":"31.15739","category":"220","category_name":"运动场所","address":"上海闵行区漕宝路1688号诺宝中心大酒店  "},{"poiid":"B2094654DA64A3F94993","title":"三佳花苑","lon":"121.36186","lat":"31.156012","category":"47","category_name":"住宅区","address":"上海新镇路1060弄"},{"poiid":"B2094757D06FA0FB499A","title":"外环线","lon":"121.37167739","lat":"31.147986525","category":"500","category_name":"未知分类","address":"上海外环线"},{"poiid":"B2094757DA65A5FB459B","title":"汉庭快捷酒店（上海虹桥漕宝路店）","lon":"121.3725784","lat":"31.15848795","category":"216","category_name":"经济型连锁酒店","address":"上海市闵行区漕宝路1687号(近星中路)"},{"poiid":"B2094655D26FA3F9439B","title":"快客No.1698","lon":"121.37016","lat":"31.15791","category":"117","category_name":"便民商店/便利店","address":"漕宝路1788"},{"poiid":"B2094655D36DA2FF479C","title":"外环漕宝路立交桥","lon":"121.36653","lat":"31.15854","category":"250","category_name":"公园户外","address":""},{"poiid":"B2094750DB6DA1F54893","title":"上海歌城","lon":"121.37030315","lat":"31.16022074","category":"170","category_name":"KTV","address":"漕宝路1550号"},{"poiid":"B2094655D36DA6FC4198","title":"漕宝路星中路","lon":"121.37157","lat":"31.15821","category":"38","category_name":"公交车站","address":""},{"poiid":"B2094655D265A3F94198","title":"上海天安豪园一期","lon":"121.37185","lat":"31.15914","category":"47","category_name":"住宅区","address":""},{"poiid":"B2094655D36DA6FC419B","title":"漕宝路星西路","lon":"121.36297","lat":"31.15783","category":"38","category_name":"公交车站","address":""},{"poiid":"B2094757D66BA3FA439D","title":"吴记老锅底麻辣火锅 漕宝路店","lon":"121.377639","lat":"31.156669","category":"86","category_name":"火锅店","address":"闵行区虹莘路3065号苏宁电器1楼(近漕宝路)"},{"poiid":"B2094655D264ABF4499E","title":"易购便利店","lon":"121.37016","lat":"31.15791","category":"117","category_name":"便民商店/便利店","address":"漕宝路1788"},{"poiid":"B2094757D16DA3FD4492","title":"雷迪大酒店","lon":"121.376894","lat":"31.156461","category":"72","category_name":"广东菜","address":"闵行区虹莘路3065号华宝广场(近漕宝路)"},{"poiid":"B2094654DB65A5F44592","title":"红明村","lon":"121.36797","lat":"31.160118","category":"47","category_name":"住宅区","address":"漕宝路1783弄"},{"poiid":"B2094757D16AA2FA419D","title":"九星宴会厅","lon":"121.36811058","lat":"31.152861919","category":"247","category_name":"餐饮美食","address":"上海市闵行区宝盛路"},{"poiid":"B2094757D06AA1F54693","title":"G2京沪高速安亭收费站","lon":"121.368501586","lat":"31.1546650543","category":"267","category_name":"收费站","address":"上海京沪高速"},{"poiid":"B2094757D169A3FC459B","title":"九星市场","lon":"121.37508558","lat":"31.159269044","category":"217","category_name":"旅馆招待所","address":"上海九星路二区"},{"poiid":"B2094654DB64A2FF469F","title":"宏明雅舍","lon":"121.36934","lat":"31.159344","category":"47","category_name":"住宅区","address":"漕宝路1755弄"},{"poiid":"B2094757D16CA5FA4292","title":"桐春金农庄","lon":"121.37724058","lat":"31.159310045","category":"87","category_name":"特色／地方风味餐厅","address":"闵行区漕宝路1539号(虹莘路)"},{"poiid":"B2094757D169AAF9429F","title":"樂虹坊","lon":"121.375470586","lat":"31.1588440359","category":"500","category_name":"未知分类","address":"上海市闵行区虹井路"},{"poiid":"B2094757D06EAAF5479B","title":"星巴克(漕宝店)","lon":"121.3770909","lat":"31.157744","category":"65","category_name":"咖啡厅","address":"闵行区虹莘路2988号漕宝购物中心内"},{"poiid":"B2094757D06FA1FB4299","title":"星中路地铁站","lon":"121.368422","lat":"31.158064","category":"36","category_name":"地铁站","address":"上海轨道交通 九号线 轨交星中路站 9"},{"poiid":"B2094757D068A1FF4198","title":"七宝中学","lon":"121.36772541","lat":"31.149760126","category":"55","category_name":"中学","address":"闵行区七中路1号(近农南路)"},{"poiid":"B2094757D06FA0F4449D","title":"大上海国际花园","lon":"121.37775","lat":"31.159109","category":"47","category_name":"住宅区","address":"漕宝路1555号"},{"poiid":"B2094757D068A0FB4993","title":"漕宝购物中心","lon":"121.378073471","lat":"31.1565138661","category":"119","category_name":"商场","address":"闵行区漕宝路1574号(近虹莘路)"},{"poiid":"B2094757D465ABFA449A","title":"沪华海鲜大酒店","lon":"121.37256","lat":"31.1585","category":"76","category_name":"上海菜","address":"闵行区漕宝路1687号(近星中路)"},{"poiid":"B2094757D06FA0F8409F","title":"九星建材批发市场","lon":"121.3737","lat":"31.1493","category":"249","category_name":"购物服务","address":"上海闵行区漕宝路6号桥南侧(近虹莘路)  "},{"poiid":"B2094757DA65A7F84593","title":"炭","lon":"121.37090504","lat":"31.16090053999999","category":"247","category_name":"餐饮美食","address":"虹泉路1101弄7号(近虹莘路)"},{"poiid":"B2094757D06BA7FC429C","title":"S20外环线漕宝路出口","lon":"121.367194586","lat":"31.158640732","category":"500","category_name":"未知分类","address":"上海漕宝路"},{"poiid":"B2094757D06AA3F9419C","title":"江南公社","lon":"121.37763758","lat":"31.157779015","category":"77","category_name":"湖南菜","address":"闵行区漕宝路1539号大上海国际花园旁(近虹莘路)"},{"poiid":"B2094757D065AAF84592","title":"颖尚精菜坊","lon":"121.367322586","lat":"31.1647771518","category":"76","category_name":"上海菜","address":"闵行区虹秀路51号(虹泉路西)"},{"poiid":"B2094757D068A6F54893","title":"七宝中学游泳馆","lon":"121.36752","lat":"31.15183","category":"253","category_name":"校园生活","address":"上海闵行区农南路22号七宝中学内"},{"poiid":"B2094757D068A2FD4793","title":"DQ冰雪皇后 漕宝路店 Dairy Queen","lon":"121.37609","lat":"31.15785","category":"113","category_name":"冷饮店","address":"闵行区漕宝路1574号漕宝购物中心(漕宝路虹莘路)"},{"poiid":"B2094757DB68A4F54692","title":"上海歌城","lon":"121.37208861","lat":"31.15523277999998","category":"170","category_name":"KTV","address":"漕宝路"},{"poiid":"B2094757D164A6FA4898","title":"浙鲜面馆","lon":"121.377268586","lat":"31.1558939783","category":"68","category_name":"快餐厅","address":"闵行区虹莘路2930号(近东兰路)"},{"poiid":"B2094757D065A3FA489C","title":"菌道——菌菇火锅料理","lon":"121.377247815","lat":"31.1583192476","category":"86","category_name":"火锅店","address":"闵行区漕宝路1539号宝秀美食广场1楼(大上海国际花园旁)"},{"poiid":"B2094654DA6BABF4409D","title":"茂盛城市花园","lon":"121.36122","lat":"31.15213","category":"47","category_name":"住宅区","address":"新镇路1036弄"},{"poiid":"B2094757D068ABFB479C","title":"海上新村","lon":"121.36875","lat":"31.156965","category":"47","category_name":"住宅区","address":"上海漕宝路1800弄"},{"poiid":"B2094751DA6BA1F8469D","title":"上海虹桥机场","lon":"121.367375","lat":"31.152502","category":"500","category_name":"未知分类","address":null},{"poiid":"B2094655D26AA0FA459A","title":"地铁星中路站","lon":"121.36841","lat":"31.15806","category":"36","category_name":"地铁站","address":""},{"poiid":"B2094654DA64A3FE469D","title":"上海市公安局闵行分局交通警察支队二中队","lon":"121.36434","lat":"31.15729","category":"248","category_name":"生活娱乐","address":""},{"poiid":"B2094654DB69A6FE429B","title":"明强小学","lon":"121.3612","lat":"31.15171","category":"56","category_name":"小学","address":"闵行区七宝镇新镇路1050号"},{"poiid":"B2094654DA6BABF4439D","title":"秀枫翠谷公寓","lon":"121.36489","lat":"31.15887","category":"47","category_name":"住宅区","address":"漕宝路1911号"},{"poiid":"B2094654DA65A3F8499D","title":"阳光乾城苑","lon":"121.37106","lat":"31.15701","category":"47","category_name":"住宅区","address":"星中路1111弄"},{"poiid":"B2094655D36DA0FE4699","title":"星中路","lon":"121.36743","lat":"31.15811","category":"38","category_name":"公交车站","address":""},{"poiid":"B2094757D469A5FD4793","title":"漕宝路兰州正宗牛肉拉面","lon":"121.368502","lat":"31.158047","category":"87","category_name":"特色／地方风味餐厅","address":"闵行区漕宝路1792号(近地铁星中路站)"},{"poiid":"B2094757D069A2FB429A","title":"味千拉面","lon":"121.37803056","lat":"31.157752234","category":"95","category_name":"日本料理","address":"闵行区漕宝路1574号漕宝购物中心2楼2001店铺"},{"poiid":"B2094655D268A1FE479D","title":"上海市公用事业学校漕宝校区(西门)","lon":"121.37012","lat":"31.16177","category":"678","category_name":"学校大门","address":""},{"poiid":"B2094757D069A7F4449D","title":"中化道达尔加油站","lon":"121.362674","lat":"31.158158","category":"500","category_name":"未知分类","address":"闵行区漕宝路1997号(近星强街)"},{"poiid":"B2094757D064A5FD4498","title":"爱乐游(漕宝购物中心店)","lon":"121.37506158","lat":"31.159373046","category":"500","category_name":"未知分类","address":"上海市闵行区漕宝路漕宝购物中心3F"},{"poiid":"B2094757D065A3F54092","title":"诺宝健身中心游泳馆","lon":"121.37289","lat":"31.15739","category":"220","category_name":"运动场所","address":"上海闵行区漕宝路1688号诺宝中心大酒店  "},{"poiid":"B2094654DA64A3F94993","title":"三佳花苑","lon":"121.36186","lat":"31.156012","category":"47","category_name":"住宅区","address":"上海新镇路1060弄"},{"poiid":"B2094757D06FA0FB499A","title":"外环线","lon":"121.37167739","lat":"31.147986525","category":"500","category_name":"未知分类","address":"上海外环线"},{"poiid":"B2094757DA65A5FB459B","title":"汉庭快捷酒店（上海虹桥漕宝路店）","lon":"121.3725784","lat":"31.15848795","category":"216","category_name":"经济型连锁酒店","address":"上海市闵行区漕宝路1687号(近星中路)"},{"poiid":"B2094655D26FA3F9439B","title":"快客No.1698","lon":"121.37016","lat":"31.15791","category":"117","category_name":"便民商店/便利店","address":"漕宝路1788"},{"poiid":"B2094655D36DA2FF479C","title":"外环漕宝路立交桥","lon":"121.36653","lat":"31.15854","category":"250","category_name":"公园户外","address":""},{"poiid":"B2094750DB6DA1F54893","title":"上海歌城","lon":"121.37030315","lat":"31.16022074","category":"170","category_name":"KTV","address":"漕宝路1550号"},{"poiid":"B2094655D36DA6FC4198","title":"漕宝路星中路","lon":"121.37157","lat":"31.15821","category":"38","category_name":"公交车站","address":""},{"poiid":"B2094655D265A3F94198","title":"上海天安豪园一期","lon":"121.37185","lat":"31.15914","category":"47","category_name":"住宅区","address":""},{"poiid":"B2094655D36DA6FC419B","title":"漕宝路星西路","lon":"121.36297","lat":"31.15783","category":"38","category_name":"公交车站","address":""},{"poiid":"B2094757D66BA3FA439D","title":"吴记老锅底麻辣火锅 漕宝路店","lon":"121.377639","lat":"31.156669","category":"86","category_name":"火锅店","address":"闵行区虹莘路3065号苏宁电器1楼(近漕宝路)"},{"poiid":"B2094655D264ABF4499E","title":"易购便利店","lon":"121.37016","lat":"31.15791","category":"117","category_name":"便民商店/便利店","address":"漕宝路1788"},{"poiid":"B2094757D16DA3FD4492","title":"雷迪大酒店","lon":"121.376894","lat":"31.156461","category":"72","category_name":"广东菜","address":"闵行区虹莘路3065号华宝广场(近漕宝路)"},{"poiid":"B2094654DB65A5F44592","title":"红明村","lon":"121.36797","lat":"31.160118","category":"47","category_name":"住宅区","address":"漕宝路1783弄"},{"poiid":"B2094757D16AA2FA419D","title":"九星宴会厅","lon":"121.36811058","lat":"31.152861919","category":"247","category_name":"餐饮美食","address":"上海市闵行区宝盛路"},{"poiid":"B2094757D06AA1F54693","title":"G2京沪高速安亭收费站","lon":"121.368501586","lat":"31.1546650543","category":"267","category_name":"收费站","address":"上海京沪高速"},{"poiid":"B2094757D169A3FC459B","title":"九星市场","lon":"121.37508558","lat":"31.159269044","category":"217","category_name":"旅馆招待所","address":"上海九星路二区"},{"poiid":"B2094654DB64A2FF469F","title":"宏明雅舍","lon":"121.36934","lat":"31.159344","category":"47","category_name":"住宅区","address":"漕宝路1755弄"},{"poiid":"B2094757D16CA5FA4292","title":"桐春金农庄","lon":"121.37724058","lat":"31.159310045","category":"87","category_name":"特色／地方风味餐厅","address":"闵行区漕宝路1539号(虹莘路)"},{"poiid":"B2094757D169AAF9429F","title":"樂虹坊","lon":"121.375470586","lat":"31.1588440359","category":"500","category_name":"未知分类","address":"上海市闵行区虹井路"},{"poiid":"B2094757D06EAAF5479B","title":"星巴克(漕宝店)","lon":"121.3770909","lat":"31.157744","category":"65","category_name":"咖啡厅","address":"闵行区虹莘路2988号漕宝购物中心内"},{"poiid":"B2094757D06FA1FB4299","title":"星中路地铁站","lon":"121.368422","lat":"31.158064","category":"36","category_name":"地铁站","address":"上海轨道交通 九号线 轨交星中路站 9"},{"poiid":"B2094757D068A1FF4198","title":"七宝中学","lon":"121.36772541","lat":"31.149760126","category":"55","category_name":"中学","address":"闵行区七中路1号(近农南路)"},{"poiid":"B2094757D06FA0F4449D","title":"大上海国际花园","lon":"121.37775","lat":"31.159109","category":"47","category_name":"住宅区","address":"漕宝路1555号"},{"poiid":"B2094757D068A0FB4993","title":"漕宝购物中心","lon":"121.378073471","lat":"31.1565138661","category":"119","category_name":"商场","address":"闵行区漕宝路1574号(近虹莘路)"},{"poiid":"B2094757D465ABFA449A","title":"沪华海鲜大酒店","lon":"121.37256","lat":"31.1585","category":"76","category_name":"上海菜","address":"闵行区漕宝路1687号(近星中路)"},{"poiid":"B2094757D06FA0F8409F","title":"九星建材批发市场","lon":"121.3737","lat":"31.1493","category":"249","category_name":"购物服务","address":"上海闵行区漕宝路6号桥南侧(近虹莘路)  "},{"poiid":"B2094757DA65A7F84593","title":"炭","lon":"121.37090504","lat":"31.16090053999999","category":"247","category_name":"餐饮美食","address":"虹泉路1101弄7号(近虹莘路)"},{"poiid":"B2094757D06BA7FC429C","title":"S20外环线漕宝路出口","lon":"121.367194586","lat":"31.158640732","category":"500","category_name":"未知分类","address":"上海漕宝路"},{"poiid":"B2094757D06AA3F9419C","title":"江南公社","lon":"121.37763758","lat":"31.157779015","category":"77","category_name":"湖南菜","address":"闵行区漕宝路1539号大上海国际花园旁(近虹莘路)"},{"poiid":"B2094757D065AAF84592","title":"颖尚精菜坊","lon":"121.367322586","lat":"31.1647771518","category":"76","category_name":"上海菜","address":"闵行区虹秀路51号(虹泉路西)"},{"poiid":"B2094757D068A6F54893","title":"七宝中学游泳馆","lon":"121.36752","lat":"31.15183","category":"253","category_name":"校园生活","address":"上海闵行区农南路22号七宝中学内"},{"poiid":"B2094757D068A2FD4793","title":"DQ冰雪皇后 漕宝路店 Dairy Queen","lon":"121.37609","lat":"31.15785","category":"113","category_name":"冷饮店","address":"闵行区漕宝路1574号漕宝购物中心(漕宝路虹莘路)"},{"poiid":"B2094757DB68A4F54692","title":"上海歌城","lon":"121.37208861","lat":"31.15523277999998","category":"170","category_name":"KTV","address":"漕宝路"},{"poiid":"B2094757D164A6FA4898","title":"浙鲜面馆","lon":"121.377268586","lat":"31.1558939783","category":"68","category_name":"快餐厅","address":"闵行区虹莘路2930号(近东兰路)"},{"poiid":"B2094757D065A3FA489C","title":"菌道——菌菇火锅料理","lon":"121.377247815","lat":"31.1583192476","category":"86","category_name":"火锅店","address":"闵行区漕宝路1539号宝秀美食广场1楼(大上海国际花园旁)"},{"poiid":"B2094654DA6BABF4409D","title":"茂盛城市花园","lon":"121.36122","lat":"31.15213","category":"47","category_name":"住宅区","address":"新镇路1036弄"},{"poiid":"B2094757D068ABFB479C","title":"海上新村","lon":"121.36875","lat":"31.156965","category":"47","category_name":"住宅区","address":"上海漕宝路1800弄"},{"poiid":"B2094751DA6BA1F8469D","title":"上海虹桥机场","lon":"121.367375","lat":"31.152502","category":"500","category_name":"未知分类","address":null},{"poiid":"B2094655D26AA0FA459A","title":"地铁星中路站","lon":"121.36841","lat":"31.15806","category":"36","category_name":"地铁站","address":""},{"poiid":"B2094654DA64A3FE469D","title":"上海市公安局闵行分局交通警察支队二中队","lon":"121.36434","lat":"31.15729","category":"248","category_name":"生活娱乐","address":""},{"poiid":"B2094654DB69A6FE429B","title":"明强小学","lon":"121.3612","lat":"31.15171","category":"56","category_name":"小学","address":"闵行区七宝镇新镇路1050号"},{"poiid":"B2094654DA6BABF4439D","title":"秀枫翠谷公寓","lon":"121.36489","lat":"31.15887","category":"47","category_name":"住宅区","address":"漕宝路1911号"},{"poiid":"B2094654DA65A3F8499D","title":"阳光乾城苑","lon":"121.37106","lat":"31.15701","category":"47","category_name":"住宅区","address":"星中路1111弄"},{"poiid":"B2094655D36DA0FE4699","title":"星中路","lon":"121.36743","lat":"31.15811","category":"38","category_name":"公交车站","address":""},{"poiid":"B2094757D469A5FD4793","title":"漕宝路兰州正宗牛肉拉面","lon":"121.368502","lat":"31.158047","category":"87","category_name":"特色／地方风味餐厅","address":"闵行区漕宝路1792号(近地铁星中路站)"},{"poiid":"B2094757D069A2FB429A","title":"味千拉面","lon":"121.37803056","lat":"31.157752234","category":"95","category_name":"日本料理","address":"闵行区漕宝路1574号漕宝购物中心2楼2001店铺"},{"poiid":"B2094655D268A1FE479D","title":"上海市公用事业学校漕宝校区(西门)","lon":"121.37012","lat":"31.16177","category":"678","category_name":"学校大门","address":""},{"poiid":"B2094757D069A7F4449D","title":"中化道达尔加油站","lon":"121.362674","lat":"31.158158","category":"500","category_name":"未知分类","address":"闵行区漕宝路1997号(近星强街)"},{"poiid":"B2094757D064A5FD4498","title":"爱乐游(漕宝购物中心店)","lon":"121.37506158","lat":"31.159373046","category":"500","category_name":"未知分类","address":"上海市闵行区漕宝路漕宝购物中心3F"},{"poiid":"B2094757D065A3F54092","title":"诺宝健身中心游泳馆","lon":"121.37289","lat":"31.15739","category":"220","category_name":"运动场所","address":"上海闵行区漕宝路1688号诺宝中心大酒店  "},{"poiid":"B2094654DA64A3F94993","title":"三佳花苑","lon":"121.36186","lat":"31.156012","category":"47","category_name":"住宅区","address":"上海新镇路1060弄"},{"poiid":"B2094757D06FA0FB499A","title":"外环线","lon":"121.37167739","lat":"31.147986525","category":"500","category_name":"未知分类","address":"上海外环线"},{"poiid":"B2094757DA65A5FB459B","title":"汉庭快捷酒店（上海虹桥漕宝路店）","lon":"121.3725784","lat":"31.15848795","category":"216","category_name":"经济型连锁酒店","address":"上海市闵行区漕宝路1687号(近星中路)"},{"poiid":"B2094655D26FA3F9439B","title":"快客No.1698","lon":"121.37016","lat":"31.15791","category":"117","category_name":"便民商店/便利店","address":"漕宝路1788"},{"poiid":"B2094655D36DA2FF479C","title":"外环漕宝路立交桥","lon":"121.36653","lat":"31.15854","category":"250","category_name":"公园户外","address":""},{"poiid":"B2094750DB6DA1F54893","title":"上海歌城","lon":"121.37030315","lat":"31.16022074","category":"170","category_name":"KTV","address":"漕宝路1550号"},{"poiid":"B2094655D36DA6FC4198","title":"漕宝路星中路","lon":"121.37157","lat":"31.15821","category":"38","category_name":"公交车站","address":""},{"poiid":"B2094655D265A3F94198","title":"上海天安豪园一期","lon":"121.37185","lat":"31.15914","category":"47","category_name":"住宅区","address":""},{"poiid":"B2094655D36DA6FC419B","title":"漕宝路星西路","lon":"121.36297","lat":"31.15783","category":"38","category_name":"公交车站","address":""},{"poiid":"B2094757D66BA3FA439D","title":"吴记老锅底麻辣火锅 漕宝路店","lon":"121.377639","lat":"31.156669","category":"86","category_name":"火锅店","address":"闵行区虹莘路3065号苏宁电器1楼(近漕宝路)"},{"poiid":"B2094655D264ABF4499E","title":"易购便利店","lon":"121.37016","lat":"31.15791","category":"117","category_name":"便民商店/便利店","address":"漕宝路1788"},{"poiid":"B2094757D16DA3FD4492","title":"雷迪大酒店","lon":"121.376894","lat":"31.156461","category":"72","category_name":"广东菜","address":"闵行区虹莘路3065号华宝广场(近漕宝路)"},{"poiid":"B2094654DB65A5F44592","title":"红明村","lon":"121.36797","lat":"31.160118","category":"47","category_name":"住宅区","address":"漕宝路1783弄"},{"poiid":"B2094757D16AA2FA419D","title":"九星宴会厅","lon":"121.36811058","lat":"31.152861919","category":"247","category_name":"餐饮美食","address":"上海市闵行区宝盛路"},{"poiid":"B2094757D06AA1F54693","title":"G2京沪高速安亭收费站","lon":"121.368501586","lat":"31.1546650543","category":"267","category_name":"收费站","address":"上海京沪高速"},{"poiid":"B2094757D169A3FC459B","title":"九星市场","lon":"121.37508558","lat":"31.159269044","category":"217","category_name":"旅馆招待所","address":"上海九星路二区"},{"poiid":"B2094654DB64A2FF469F","title":"宏明雅舍","lon":"121.36934","lat":"31.159344","category":"47","category_name":"住宅区","address":"漕宝路1755弄"},{"poiid":"B2094757D16CA5FA4292","title":"桐春金农庄","lon":"121.37724058","lat":"31.159310045","category":"87","category_name":"特色／地方风味餐厅","address":"闵行区漕宝路1539号(虹莘路)"},{"poiid":"B2094757D169AAF9429F","title":"樂虹坊","lon":"121.375470586","lat":"31.1588440359","category":"500","category_name":"未知分类","address":"上海市闵行区虹井路"}]