[{"poiid":"B2094757D06FA3F4439C","title":"自由港量贩式KTV(闵行店)","lon":"121.41953","lat":"31.00382","category":"170","category_name":"KTV","address":"闵行区兰坪路202号(近江川路)"},{"poiid":"B2094757D06FA2FE4492","title":"欧尚(闵行店)","lon":"121.42","lat":"31.01418","category":"118","category_name":"超级市场","address":"闵行区东川路2092号欧尚超市内(近沪闵路)"},{"poiid":"B2094757D06AA3FA4493","title":"麦当劳 江川东路店 McDonald's","lon":"121.42307107374","lat":"31.005477740948","category":"68","category_name":"快餐厅","address":"闵行区江川东路1050号(近沪闵路)"},{"poiid":"B2094655D265A5FB449D","title":"上海沪华国际大酒店","lon":"121.41726","lat":"31.00876","category":"250","category_name":"公园户外","address":"闵行区鹤庆路300号(近兰坪路)"},{"poiid":"B2094757D068A2FB469E","title":"闵行公园","lon":"121.42343145","lat":"31.006854963","category":"196","category_name":"公园","address":"闵行区沪闵路249号(江川路口)"},{"poiid":"B2094757D068A3FC499A","title":"肯德基 闵行店 KFC","lon":"121.421093054","lat":"31.004294793","category":"68","category_name":"快餐厅","address":"闵行区江川路279号(近兰坪路)"},{"poiid":"B2094654DB6EAAFD449C","title":"闵行中学","lon":"121.42591","lat":"31.00709","category":"55","category_name":"中学","address":"闵行区江川东路950号(近沪闵路)"},{"poiid":"B2094757D069A3FC459D","title":"迪豪小田园酒店","lon":"121.4225","lat":"31.01029","category":"75","category_name":"浙江菜","address":"闵行区鹤庆路16号(近江川路)"},{"poiid":"B2094757D06AA1FC4698","title":"聚鑫阁(兰坪路店)","lon":"121.41863","lat":"31.00642","category":"76","category_name":"上海菜","address":"闵行区兰坪路303号(近鹤庆路)"},{"poiid":"B2094654DB6AA6F8469B","title":"闵行饭店","lon":"121.41847","lat":"31.00429","category":"76","category_name":"上海菜","address":"闵行区兰坪路202号(近江川路)"},{"poiid":"B2094757D464A5FF409F","title":"巴贝拉 江川路店 Babela's Kitchen","lon":"121.420819054","lat":"31.004262793","category":"247","category_name":"餐饮美食","address":"闵行区江川路277号2楼(近兰坪路)"},{"poiid":"B2094654DB65ABF44592","title":"部落情(东川路店)","lon":"121.41885","lat":"31.01345","category":"86","category_name":"火锅店","address":"闵行区东川路2092号欧尚广场3楼(近沪闵路)"},{"poiid":"B2094757D068A7FD409A","title":"肯德基 KFC (东川店)","lon":"121.419301","lat":"31.013649","category":"68","category_name":"快餐厅","address":"闵行区东川路2088-2098号(近轻轨5号线)"},{"poiid":"B2094757D069A2FA479C","title":"老盛昌苏州汤包馆(兰坪路店)","lon":"121.42024","lat":"31.00299","category":"68","category_name":"快餐厅","address":"上海闵行区兰坪路191号(近江川路)  "},{"poiid":"B2094757D06AAAFE459E","title":"南亚宾馆","lon":"121.42218","lat":"31.00748","category":"217","category_name":"旅馆招待所","address":"上海闵行区沪闵路280号  "},{"poiid":"B2094654DB6FA1F5479C","title":"高华小区","lon":"121.42041","lat":"31.00255","category":"47","category_name":"住宅区","address":"上海沪闵路158弄"},{"poiid":"B2094654DB6FA0FC409D","title":"太阳城量贩式音乐广场","lon":"121.42523","lat":"31.00235","category":"170","category_name":"KTV","address":""},{"poiid":"B2094757D16AA1FE459B","title":"新闵小区","lon":"121.4259","lat":"31.004814","category":"47","category_name":"住宅区","address":"上海江川东路沪闵路口"},{"poiid":"B2094655D36DA3F5439C","title":"闵浦二桥","lon":"121.42244","lat":"31.00725","category":"250","category_name":"公园户外","address":""},{"poiid":"B2094655D36CA0F94598","title":"江川路","lon":"121.42318","lat":"31.00584","category":"38","category_name":"公交车站","address":""},{"poiid":"B2094654DB69A5F54399","title":"迪欧咖啡 江川店 DIO CAFE","lon":"121.42524935548","lat":"31.006254857158","category":"65","category_name":"咖啡厅","address":"江川东路976号近沪闵路平山路间"},{"poiid":"B2094757D16CA1FC499D","title":"金榜世家","lon":"121.42746912","lat":"31.012706446","category":"500","category_name":"未知分类","address":"上海市闵行区沧源路676-684号"},{"poiid":"B2094757D064AAF8499D","title":"上海电视大学闵行第二分校","lon":"121.419349128","lat":"31.0090533713","category":"500","category_name":"未知分类","address":"上海市闵行区鹤庆路"},{"poiid":"B2094757D16DA5F5439A","title":"人和小菜","lon":"121.41831","lat":"31.00696","category":"76","category_name":"上海菜","address":"闵行区兰坪路317号(近建行)"},{"poiid":"B2094654DB6FA2F5459F","title":"东风小区(上海南亚宾馆西南)","lon":"121.42044","lat":"31.00699","category":"47","category_name":"住宅区","address":""},{"poiid":"B2094757DA65A5F44598","title":"汉庭快捷酒店（上海交大沪闵路店）","lon":"121.423226595","lat":"31.011508984","category":"216","category_name":"经济型连锁酒店","address":"上海市闵行区沪闵路277号(近鹤庆路东川路)"},{"poiid":"B2094654DB6FA0FC499E","title":"南亚餐厅","lon":"121.4216","lat":"31.00785","category":"257","category_name":"中餐厅","address":"沪闵路280号"},{"poiid":"B2094757D06AA6FD4993","title":"沃尔玛(闵行店)","lon":"121.42582512","lat":"31.002250231","category":"118","category_name":"超级市场","address":"闵行区沪闵路131号(近华坪路)"},{"poiid":"B2094654DB69A4FB439D","title":"重庆鸡公煲(鹤庆路店)","lon":"121.42206","lat":"31.01001","category":"71","category_name":"四川菜","address":"闵行区鹤庆路(近沪闵路)"},{"poiid":"B2094654DB69A5F5409E","title":"避风塘(闵行店)","lon":"121.42605","lat":"31.00653","category":"66","category_name":"茶艺馆","address":"闵行区江川东路1050号"},{"poiid":"B2094757D664AAFE479F","title":"旺晖火锅城 沪闵路店","lon":"121.42340075988","lat":"31.004412149084","category":"86","category_name":"火锅店","address":"闵行区沪闵路241号(江川东路口)"},{"poiid":"B2094654DB6EAAF94893","title":"文绮中学","lon":"121.42427","lat":"31.00615","category":"55","category_name":"中学","address":"闵行区江川东路980号"},{"poiid":"B2094757D465A5F5439D","title":"品味面坊","lon":"121.42522","lat":"31.00531","category":"68","category_name":"快餐厅","address":"闵行区江川东路927号(近沪闵路)"},{"poiid":"B2094757D064A6F44992","title":"都可茶饮 老闵行店 CoCo","lon":"121.420432","lat":"31.004196","category":"113","category_name":"冷饮店","address":"闵行区江川路243号(近兰坪路)"},{"poiid":"B2094750D76EA1FF439D","title":"小介福","lon":"121.424","lat":"31.0053","category":"68","category_name":"快餐厅","address":"闵行区沪闵路243号(江川东路口)"},{"poiid":"B2094757D16CA1FE409E","title":"豪大大台湾大鸡排 江川店","lon":"121.42363","lat":"31.00548","category":"68","category_name":"快餐厅","address":"闵行区江川东路243号(近沪闵路)"},{"poiid":"B2094757DA65A5FB4398","title":"莫泰168（上海闵行江川路店）","lon":"121.4237067","lat":"31.00540541","category":"216","category_name":"经济型连锁酒店","address":"上海市闵行区沪闵路213号(江川路口)"},{"poiid":"B2094655D36CA1F44692","title":"兰坪路江川路","lon":"121.4191","lat":"31.00466","category":"38","category_name":"公交车站","address":""},{"poiid":"B2094654DB6FA3F9419D","title":"雅吉清真饭店","lon":"121.42098","lat":"31.00484","category":"68","category_name":"快餐厅","address":"闵行区江川路238号(近兰坪路)"},{"poiid":"B2094757DA65A5FA4999","title":"锦江之星（上海闵行东川路店）","lon":"121.4232802","lat":"31.01110439","category":"216","category_name":"经济型连锁酒店","address":"上海市闵行区沪闵路319号(近鹤庆路)"},{"poiid":"B2094757D66BA4FC459C","title":"傣妹火锅 江川路店","lon":"121.421234054","lat":"31.004400793","category":"86","category_name":"火锅店","address":"闵行区江川路277号3楼(近兰坪路)"},{"poiid":"B2094655D36CA7FD469C","title":"沪闵路江川路","lon":"121.42318","lat":"31.00593","category":"38","category_name":"公交车站","address":""},{"poiid":"B2094757D66EABFF479B","title":"图门串烤","lon":"121.423342","lat":"31.006241","category":"247","category_name":"餐饮美食","address":"上海江川东路1050号"},{"poiid":"B2094655D36CA7FD479B","title":"沪闵路鹤庆路","lon":"121.42282","lat":"31.01177","category":"38","category_name":"公交车站","address":""},{"poiid":"B2094654DB6FA2F54498","title":"上海市闵行区江川路小学南校区","lon":"121.41974","lat":"31.00647","category":"56","category_name":"小学","address":"江川路248弄114"},{"poiid":"B2094654DB6FA2F54792","title":"鹤北新村","lon":"121.41965","lat":"31.010733","category":"47","category_name":"住宅区","address":"鹤庆路136弄21支弄"},{"poiid":"B2094757D16DA6FA409B","title":"东风二村","lon":"121.420963046","lat":"31.0057513541","category":"252","category_name":"楼宇机构","address":"上海闵行区江川路248弄"},{"poiid":"B2094654DB6FA2F54192","title":"闵行区启智学校","lon":"121.41983","lat":"31.00918","category":"57","category_name":"幼儿园","address":"闵行区兰坪路301弄22支弄70号"},{"poiid":"B2094654DB65A7F5409B","title":"圆缘园时尚餐厅(闵行店)","lon":"121.42645","lat":"31.00697","category":"68","category_name":"快餐厅","address":"闵行区江川东路919-923号(近沪闵路)"},{"poiid":"B2094757D569A3F44198","title":"永琪美容美发(鹤庆路)","lon":"121.42137939","lat":"31.010287","category":"148","category_name":"美容美发店","address":"鹤庆路88"},{"poiid":"B2094757D06FA3F4439C","title":"自由港量贩式KTV(闵行店)","lon":"121.41953","lat":"31.00382","category":"170","category_name":"KTV","address":"闵行区兰坪路202号(近江川路)"},{"poiid":"B2094757D06FA2FE4492","title":"欧尚(闵行店)","lon":"121.42","lat":"31.01418","category":"118","category_name":"超级市场","address":"闵行区东川路2092号欧尚超市内(近沪闵路)"},{"poiid":"B2094757D06AA3FA4493","title":"麦当劳 江川东路店 McDonald's","lon":"121.42307107374","lat":"31.005477740948","category":"68","category_name":"快餐厅","address":"闵行区江川东路1050号(近沪闵路)"},{"poiid":"B2094655D265A5FB449D","title":"上海沪华国际大酒店","lon":"121.41726","lat":"31.00876","category":"250","category_name":"公园户外","address":"闵行区鹤庆路300号(近兰坪路)"},{"poiid":"B2094757D068A2FB469E","title":"闵行公园","lon":"121.42343145","lat":"31.006854963","category":"196","category_name":"公园","address":"闵行区沪闵路249号(江川路口)"},{"poiid":"B2094757D068A3FC499A","title":"肯德基 闵行店 KFC","lon":"121.421093054","lat":"31.004294793","category":"68","category_name":"快餐厅","address":"闵行区江川路279号(近兰坪路)"},{"poiid":"B2094654DB6EAAFD449C","title":"闵行中学","lon":"121.42591","lat":"31.00709","category":"55","category_name":"中学","address":"闵行区江川东路950号(近沪闵路)"},{"poiid":"B2094757D069A3FC459D","title":"迪豪小田园酒店","lon":"121.4225","lat":"31.01029","category":"75","category_name":"浙江菜","address":"闵行区鹤庆路16号(近江川路)"},{"poiid":"B2094757D06AA1FC4698","title":"聚鑫阁(兰坪路店)","lon":"121.41863","lat":"31.00642","category":"76","category_name":"上海菜","address":"闵行区兰坪路303号(近鹤庆路)"},{"poiid":"B2094654DB6AA6F8469B","title":"闵行饭店","lon":"121.41847","lat":"31.00429","category":"76","category_name":"上海菜","address":"闵行区兰坪路202号(近江川路)"},{"poiid":"B2094757D464A5FF409F","title":"巴贝拉 江川路店 Babela's Kitchen","lon":"121.420819054","lat":"31.004262793","category":"247","category_name":"餐饮美食","address":"闵行区江川路277号2楼(近兰坪路)"},{"poiid":"B2094654DB65ABF44592","title":"部落情(东川路店)","lon":"121.41885","lat":"31.01345","category":"86","category_name":"火锅店","address":"闵行区东川路2092号欧尚广场3楼(近沪闵路)"},{"poiid":"B2094757D068A7FD409A","title":"肯德基 KFC (东川店)","lon":"121.419301","lat":"31.013649","category":"68","category_name":"快餐厅","address":"闵行区东川路2088-2098号(近轻轨5号线)"},{"poiid":"B2094757D069A2FA479C","title":"老盛昌苏州汤包馆(兰坪路店)","lon":"121.42024","lat":"31.00299","category":"68","category_name":"快餐厅","address":"上海闵行区兰坪路191号(近江川路)  "},{"poiid":"B2094757D06AAAFE459E","title":"南亚宾馆","lon":"121.42218","lat":"31.00748","category":"217","category_name":"旅馆招待所","address":"上海闵行区沪闵路280号  "},{"poiid":"B2094654DB6FA1F5479C","title":"高华小区","lon":"121.42041","lat":"31.00255","category":"47","category_name":"住宅区","address":"上海沪闵路158弄"},{"poiid":"B2094654DB6FA0FC409D","title":"太阳城量贩式音乐广场","lon":"121.42523","lat":"31.00235","category":"170","category_name":"KTV","address":""},{"poiid":"B2094757D16AA1FE459B","title":"新闵小区","lon":"121.4259","lat":"31.004814","category":"47","category_name":"住宅区","address":"上海江川东路沪闵路口"},{"poiid":"B2094655D36DA3F5439C","title":"闵浦二桥","lon":"121.42244","lat":"31.00725","category":"250","category_name":"公园户外","address":""},{"poiid":"B2094655D36CA0F94598","title":"江川路","lon":"121.42318","lat":"31.00584","category":"38","category_name":"公交车站","address":""},{"poiid":"B2094654DB69A5F54399","title":"迪欧咖啡 江川店 DIO CAFE","lon":"121.42524935548","lat":"31.006254857158","category":"65","category_name":"咖啡厅","address":"江川东路976号近沪闵路平山路间"},{"poiid":"B2094757D16CA1FC499D","title":"金榜世家","lon":"121.42746912","lat":"31.012706446","category":"500","category_name":"未知分类","address":"上海市闵行区沧源路676-684号"},{"poiid":"B2094757D064AAF8499D","title":"上海电视大学闵行第二分校","lon":"121.419349128","lat":"31.0090533713","category":"500","category_name":"未知分类","address":"上海市闵行区鹤庆路"},{"poiid":"B2094757D16DA5F5439A","title":"人和小菜","lon":"121.41831","lat":"31.00696","category":"76","category_name":"上海菜","address":"闵行区兰坪路317号(近建行)"},{"poiid":"B2094654DB6FA2F5459F","title":"东风小区(上海南亚宾馆西南)","lon":"121.42044","lat":"31.00699","category":"47","category_name":"住宅区","address":""},{"poiid":"B2094757DA65A5F44598","title":"汉庭快捷酒店（上海交大沪闵路店）","lon":"121.423226595","lat":"31.011508984","category":"216","category_name":"经济型连锁酒店","address":"上海市闵行区沪闵路277号(近鹤庆路东川路)"},{"poiid":"B2094654DB6FA0FC499E","title":"南亚餐厅","lon":"121.4216","lat":"31.00785","category":"257","category_name":"中餐厅","address":"沪闵路280号"},{"poiid":"B2094757D06AA6FD4993","title":"沃尔玛(闵行店)","lon":"121.42582512","lat":"31.002250231","category":"118","category_name":"超级市场","address":"闵行区沪闵路131号(近华坪路)"},{"poiid":"B2094654DB69A4FB439D","title":"重庆鸡公煲(鹤庆路店)","lon":"121.42206","lat":"31.01001","category":"71","category_name":"四川菜","address":"闵行区鹤庆路(近沪闵路)"},{"poiid":"B2094654DB69A5F5409E","title":"避风塘(闵行店)","lon":"121.42605","lat":"31.00653","category":"66","category_name":"茶艺馆","address":"闵行区江川东路1050号"},{"poiid":"B2094757D664AAFE479F","title":"旺晖火锅城 沪闵路店","lon":"121.42340075988","lat":"31.004412149084","category":"86","category_name":"火锅店","address":"闵行区沪闵路241号(江川东路口)"},{"poiid":"B2094654DB6EAAF94893","title":"文绮中学","lon":"121.42427","lat":"31.00615","category":"55","category_name":"中学","address":"闵行区江川东路980号"},{"poiid":"B2094757D465A5F5439D","title":"品味面坊","lon":"121.42522","lat":"31.00531","category":"68","category_name":"快餐厅","address":"闵行区江川东路927号(近沪闵路)"},{"poiid":"B2094757D064A6F44992","title":"都可茶饮 老闵行店 CoCo","lon":"121.420432","lat":"31.004196","category":"113","category_name":"冷饮店","address":"闵行区江川路243号(近兰坪路)"},{"poiid":"B2094750D76EA1FF439D","title":"小介福","lon":"121.424","lat":"31.0053","category":"68","category_name":"快餐厅","address":"闵行区沪闵路243号(江川东路口)"},{"poiid":"B2094757D16CA1FE409E","title":"豪大大台湾大鸡排 江川店","lon":"121.42363","lat":"31.00548","category":"68","category_name":"快餐厅","address":"闵行区江川东路243号(近沪闵路)"},{"poiid":"B2094757DA65A5FB4398","title":"莫泰168（上海闵行江川路店）","lon":"121.4237067","lat":"31.00540541","category":"216","category_name":"经济型连锁酒店","address":"上海市闵行区沪闵路213号(江川路口)"},{"poiid":"B2094655D36CA1F44692","title":"兰坪路江川路","lon":"121.4191","lat":"31.00466","category":"38","category_name":"公交车站","address":""},{"poiid":"B2094654DB6FA3F9419D","title":"雅吉清真饭店","lon":"121.42098","lat":"31.00484","category":"68","category_name":"快餐厅","address":"闵行区江川路238号(近兰坪路)"},{"poiid":"B2094757DA65A5FA4999","title":"锦江之星（上海闵行东川路店）","lon":"121.4232802","lat":"31.01110439","category":"216","category_name":"经济型连锁酒店","address":"上海市闵行区沪闵路319号(近鹤庆路)"},{"poiid":"B2094757D66BA4FC459C","title":"傣妹火锅 江川路店","lon":"121.421234054","lat":"31.004400793","category":"86","category_name":"火锅店","address":"闵行区江川路277号3楼(近兰坪路)"},{"poiid":"B2094655D36CA7FD469C","title":"沪闵路江川路","lon":"121.42318","lat":"31.00593","category":"38","category_name":"公交车站","address":""},{"poiid":"B2094757D66EABFF479B","title":"图门串烤","lon":"121.423342","lat":"31.006241","category":"247","category_name":"餐饮美食","address":"上海江川东路1050号"},{"poiid":"B2094655D36CA7FD479B","title":"沪闵路鹤庆路","lon":"121.42282","lat":"31.01177","category":"38","category_name":"公交车站","address":""},{"poiid":"B2094654DB6FA2F54498","title":"上海市闵行区江川路小学南校区","lon":"121.41974","lat":"31.00647","category":"56","category_name":"小学","address":"江川路248弄114"},{"poiid":"B2094654DB6FA2F54792","title":"鹤北新村","lon":"121.41965","lat":"31.010733","category":"47","category_name":"住宅区","address":"鹤庆路136弄21支弄"},{"poiid":"B2094757D16DA6FA409B","title":"东风二村","lon":"121.420963046","lat":"31.0057513541","category":"252","category_name":"楼宇机构","address":"上海闵行区江川路248弄"},{"poiid":"B2094654DB6FA2F54192","title":"闵行区启智学校","lon":"121.41983","lat":"31.00918","category":"57","category_name":"幼儿园","address":"闵行区兰坪路301弄22支弄70号"},{"poiid":"B2094654DB65A7F5409B","title":"圆缘园时尚餐厅(闵行店)","lon":"121.42645","lat":"31.00697","category":"68","category_name":"快餐厅","address":"闵行区江川东路919-923号(近沪闵路)"},{"poiid":"B2094757D569A3F44198","title":"永琪美容美发(鹤庆路)","lon":"121.42137939","lat":"31.010287","category":"148","category_name":"美容美发店","address":"鹤庆路88"},{"poiid":"B2094757D06FA3F4439C","title":"自由港量贩式KTV(闵行店)","lon":"121.41953","lat":"31.00382","category":"170","category_name":"KTV","address":"闵行区兰坪路202号(近江川路)"},{"poiid":"B2094757D06FA2FE4492","title":"欧尚(闵行店)","lon":"121.42","lat":"31.01418","category":"118","category_name":"超级市场","address":"闵行区东川路2092号欧尚超市内(近沪闵路)"},{"poiid":"B2094757D06AA3FA4493","title":"麦当劳 江川东路店 McDonald's","lon":"121.42307107374","lat":"31.005477740948","category":"68","category_name":"快餐厅","address":"闵行区江川东路1050号(近沪闵路)"},{"poiid":"B2094655D265A5FB449D","title":"上海沪华国际大酒店","lon":"121.41726","lat":"31.00876","category":"250","category_name":"公园户外","address":"闵行区鹤庆路300号(近兰坪路)"},{"poiid":"B2094757D068A2FB469E","title":"闵行公园","lon":"121.42343145","lat":"31.006854963","category":"196","category_name":"公园","address":"闵行区沪闵路249号(江川路口)"},{"poiid":"B2094757D068A3FC499A","title":"肯德基 闵行店 KFC","lon":"121.421093054","lat":"31.004294793","category":"68","category_name":"快餐厅","address":"闵行区江川路279号(近兰坪路)"},{"poiid":"B2094654DB6EAAFD449C","title":"闵行中学","lon":"121.42591","lat":"31.00709","category":"55","category_name":"中学","address":"闵行区江川东路950号(近沪闵路)"},{"poiid":"B2094757D069A3FC459D","title":"迪豪小田园酒店","lon":"121.4225","lat":"31.01029","category":"75","category_name":"浙江菜","address":"闵行区鹤庆路16号(近江川路)"},{"poiid":"B2094757D06AA1FC4698","title":"聚鑫阁(兰坪路店)","lon":"121.41863","lat":"31.00642","category":"76","category_name":"上海菜","address":"闵行区兰坪路303号(近鹤庆路)"},{"poiid":"B2094654DB6AA6F8469B","title":"闵行饭店","lon":"121.41847","lat":"31.00429","category":"76","category_name":"上海菜","address":"闵行区兰坪路202号(近江川路)"},{"poiid":"B2094757D464A5FF409F","title":"巴贝拉 江川路店 Babela's Kitchen","lon":"121.420819054","lat":"31.004262793","category":"247","category_name":"餐饮美食","address":"闵行区江川路277号2楼(近兰坪路)"},{"poiid":"B2094654DB65ABF44592","title":"部落情(东川路店)","lon":"121.41885","lat":"31.01345","category":"86","category_name":"火锅店","address":"闵行区东川路2092号欧尚广场3楼(近沪闵路)"},{"poiid":"B2094757D068A7FD409A","title":"肯德基 KFC (东川店)","lon":"121.419301","lat":"31.013649","category":"68","category_name":"快餐厅","address":"闵行区东川路2088-2098号(近轻轨5号线)"},{"poiid":"B2094757D069A2FA479C","title":"老盛昌苏州汤包馆(兰坪路店)","lon":"121.42024","lat":"31.00299","category":"68","category_name":"快餐厅","address":"上海闵行区兰坪路191号(近江川路)  "},{"poiid":"B2094757D06AAAFE459E","title":"南亚宾馆","lon":"121.42218","lat":"31.00748","category":"217","category_name":"旅馆招待所","address":"上海闵行区沪闵路280号  "},{"poiid":"B2094654DB6FA1F5479C","title":"高华小区","lon":"121.42041","lat":"31.00255","category":"47","category_name":"住宅区","address":"上海沪闵路158弄"},{"poiid":"B2094654DB6FA0FC409D","title":"太阳城量贩式音乐广场","lon":"121.42523","lat":"31.00235","category":"170","category_name":"KTV","address":""},{"poiid":"B2094757D16AA1FE459B","title":"新闵小区","lon":"121.4259","lat":"31.004814","category":"47","category_name":"住宅区","address":"上海江川东路沪闵路口"},{"poiid":"B2094655D36DA3F5439C","title":"闵浦二桥","lon":"121.42244","lat":"31.00725","category":"250","category_name":"公园户外","address":""},{"poiid":"B2094655D36CA0F94598","title":"江川路","lon":"121.42318","lat":"31.00584","category":"38","category_name":"公交车站","address":""},{"poiid":"B2094654DB69A5F54399","title":"迪欧咖啡 江川店 DIO CAFE","lon":"121.42524935548","lat":"31.006254857158","category":"65","category_name":"咖啡厅","address":"江川东路976号近沪闵路平山路间"},{"poiid":"B2094757D16CA1FC499D","title":"金榜世家","lon":"121.42746912","lat":"31.012706446","category":"500","category_name":"未知分类","address":"上海市闵行区沧源路676-684号"},{"poiid":"B2094757D064AAF8499D","title":"上海电视大学闵行第二分校","lon":"121.419349128","lat":"31.0090533713","category":"500","category_name":"未知分类","address":"上海市闵行区鹤庆路"},{"poiid":"B2094757D16DA5F5439A","title":"人和小菜","lon":"121.41831","lat":"31.00696","category":"76","category_name":"上海菜","address":"闵行区兰坪路317号(近建行)"},{"poiid":"B2094654DB6FA2F5459F","title":"东风小区(上海南亚宾馆西南)","lon":"121.42044","lat":"31.00699","category":"47","category_name":"住宅区","address":""},{"poiid":"B2094757DA65A5F44598","title":"汉庭快捷酒店（上海交大沪闵路店）","lon":"121.423226595","lat":"31.011508984","category":"216","category_name":"经济型连锁酒店","address":"上海市闵行区沪闵路277号(近鹤庆路东川路)"},{"poiid":"B2094654DB6FA0FC499E","title":"南亚餐厅","lon":"121.4216","lat":"31.00785","category":"257","category_name":"中餐厅","address":"沪闵路280号"},{"poiid":"B2094757D06AA6FD4993","title":"沃尔玛(闵行店)","lon":"121.42582512","lat":"31.002250231","category":"118","category_name":"超级市场","address":"闵行区沪闵路131号(近华坪路)"},{"poiid":"B2094654DB69A4FB439D","title":"重庆鸡公煲(鹤庆路店)","lon":"121.42206","lat":"31.01001","category":"71","category_name":"四川菜","address":"闵行区鹤庆路(近沪闵路)"},{"poiid":"B2094654DB69A5F5409E","title":"避风塘(闵行店)","lon":"121.42605","lat":"31.00653","category":"66","category_name":"茶艺馆","address":"闵行区江川东路1050号"},{"poiid":"B2094757D664AAFE479F","title":"旺晖火锅城 沪闵路店","lon":"121.42340075988","lat":"31.004412149084","category":"86","category_name":"火锅店","address":"闵行区沪闵路241号(江川东路口)"},{"poiid":"B2094654DB6EAAF94893","title":"文绮中学","lon":"121.42427","lat":"31.00615","category":"55","category_name":"中学","address":"闵行区江川东路980号"},{"poiid":"B2094757D465A5F5439D","title":"品味面坊","lon":"121.42522","lat":"31.00531","category":"68","category_name":"快餐厅","address":"闵行区江川东路927号(近沪闵路)"},{"poiid":"B2094757D064A6F44992","title":"都可茶饮 老闵行店 CoCo","lon":"121.420432","lat":"31.004196","category":"113","category_name":"冷饮店","address":"闵行区江川路243号(近兰坪路)"},{"poiid":"B2094750D76EA1FF439D","title":"小介福","lon":"121.424","lat":"31.0053","category":"68","category_name":"快餐厅","address":"闵行区沪闵路243号(江川东路口)"},{"poiid":"B2094757D16CA1FE409E","title":"豪大大台湾大鸡排 江川店","lon":"121.42363","lat":"31.00548","category":"68","category_name":"快餐厅","address":"闵行区江川东路243号(近沪闵路)"},{"poiid":"B2094757DA65A5FB4398","title":"莫泰168（上海闵行江川路店）","lon":"121.4237067","lat":"31.00540541","category":"216","category_name":"经济型连锁酒店","address":"上海市闵行区沪闵路213号(江川路口)"},{"poiid":"B2094655D36CA1F44692","title":"兰坪路江川路","lon":"121.4191","lat":"31.00466","category":"38","category_name":"公交车站","address":""},{"poiid":"B2094654DB6FA3F9419D","title":"雅吉清真饭店","lon":"121.42098","lat":"31.00484","category":"68","category_name":"快餐厅","address":"闵行区江川路238号(近兰坪路)"},{"poiid":"B2094757DA65A5FA4999","title":"锦江之星（上海闵行东川路店）","lon":"121.4232802","lat":"31.01110439","category":"216","category_name":"经济型连锁酒店","address":"上海市闵行区沪闵路319号(近鹤庆路)"},{"poiid":"B2094757D66BA4FC459C","title":"傣妹火锅 江川路店","lon":"121.421234054","lat":"31.004400793","category":"86","category_name":"火锅店","address":"闵行区江川路277号3楼(近兰坪路)"},{"poiid":"B2094655D36CA7FD469C","title":"沪闵路江川路","lon":"121.42318","lat":"31.00593","category":"38","category_name":"公交车站","address":""},{"poiid":"B2094757D66EABFF479B","title":"图门串烤","lon":"121.423342","lat":"31.006241","category":"247","category_name":"餐饮美食","address":"上海江川东路1050号"},{"poiid":"B2094655D36CA7FD479B","title":"沪闵路鹤庆路","lon":"121.42282","lat":"31.01177","category":"38","category_name":"公交车站","address":""},{"poiid":"B2094654DB6FA2F54498","title":"上海市闵行区江川路小学南校区","lon":"121.41974","lat":"31.00647","category":"56","category_name":"小学","address":"江川路248弄114"},{"poiid":"B2094654DB6FA2F54792","title":"鹤北新村","lon":"121.41965","lat":"31.010733","category":"47","category_name":"住宅区","address":"鹤庆路136弄21支弄"},{"poiid":"B2094757D16DA6FA409B","title":"东风二村","lon":"121.420963046","lat":"31.0057513541","category":"252","category_name":"楼宇机构","address":"上海闵行区江川路248弄"},{"poiid":"B2094654DB6FA2F54192","title":"闵行区启智学校","lon":"121.41983","lat":"31.00918","category":"57","category_name":"幼儿园","address":"闵行区兰坪路301弄22支弄70号"},{"poiid":"B2094654DB65A7F5409B","title":"圆缘园时尚餐厅(闵行店)","lon":"121.42645","lat":"31.00697","category":"68","category_name":"快餐厅","address":"闵行区江川东路919-923号(近沪闵路)"},{"poiid":"B2094757D569A3F44198","title":"永琪美容美发(鹤庆路)","lon":"121.42137939","lat":"31.010287","category":"148","category_name":"美容美发店","address":"鹤庆路88"},{"poiid":"B2094757D06FA3F4439C","title":"自由港量贩式KTV(闵行店)","lon":"121.41953","lat":"31.00382","category":"170","category_name":"KTV","address":"闵行区兰坪路202号(近江川路)"},{"poiid":"B2094757D06FA2FE4492","title":"欧尚(闵行店)","lon":"121.42","lat":"31.01418","category":"118","category_name":"超级市场","address":"闵行区东川路2092号欧尚超市内(近沪闵路)"},{"poiid":"B2094757D06AA3FA4493","title":"麦当劳 江川东路店 McDonald's","lon":"121.42307107374","lat":"31.005477740948","category":"68","category_name":"快餐厅","address":"闵行区江川东路1050号(近沪闵路)"},{"poiid":"B2094655D265A5FB449D","title":"上海沪华国际大酒店","lon":"121.41726","lat":"31.00876","category":"250","category_name":"公园户外","address":"闵行区鹤庆路300号(近兰坪路)"},{"poiid":"B2094757D068A2FB469E","title":"闵行公园","lon":"121.42343145","lat":"31.006854963","category":"196","category_name":"公园","address":"闵行区沪闵路249号(江川路口)"},{"poiid":"B2094757D068A3FC499A","title":"肯德基 闵行店 KFC","lon":"121.421093054","lat":"31.004294793","category":"68","category_name":"快餐厅","address":"闵行区江川路279号(近兰坪路)"},{"poiid":"B2094654DB6EAAFD449C","title":"闵行中学","lon":"121.42591","lat":"31.00709","category":"55","category_name":"中学","address":"闵行区江川东路950号(近沪闵路)"},{"poiid":"B2094757D069A3FC459D","title":"迪豪小田园酒店","lon":"121.4225","lat":"31.01029","category":"75","category_name":"浙江菜","address":"闵行区鹤庆路16号(近江川路)"},{"poiid":"B2094757D06AA1FC4698","title":"聚鑫阁(兰坪路店)","lon":"121.41863","lat":"31.00642","category":"76","category_name":"上海菜","address":"闵行区兰坪路303号(近鹤庆路)"},{"poiid":"B2094654DB6AA6F8469B","title":"闵行饭店","lon":"121.41847","lat":"31.00429","category":"76","category_name":"上海菜","address":"闵行区兰坪路202号(近江川路)"},{"poiid":"B2094757D464A5FF409F","title":"巴贝拉 江川路店 Babela's Kitchen","lon":"121.420819054","lat":"31.004262793","category":"247","category_name":"餐饮美食","address":"闵行区江川路277号2楼(近兰坪路)"},{"poiid":"B2094654DB65ABF44592","title":"部落情(东川路店)","lon":"121.41885","lat":"31.01345","category":"86","category_name":"火锅店","address":"闵行区东川路2092号欧尚广场3楼(近沪闵路)"},{"poiid":"B2094757D068A7FD409A","title":"肯德基 KFC (东川店)","lon":"121.419301","lat":"31.013649","category":"68","category_name":"快餐厅","address":"闵行区东川路2088-2098号(近轻轨5号线)"},{"poiid":"B2094757D069A2FA479C","title":"老盛昌苏州汤包馆(兰坪路店)","lon":"121.42024","lat":"31.00299","category":"68","category_name":"快餐厅","address":"上海闵行区兰坪路191号(近江川路)  "},{"poiid":"B2094757D06AAAFE459E","title":"南亚宾馆","lon":"121.42218","lat":"31.00748","category":"217","category_name":"旅馆招待所","address":"上海闵行区沪闵路280号  "},{"poiid":"B2094654DB6FA1F5479C","title":"高华小区","lon":"121.42041","lat":"31.00255","category":"47","category_name":"住宅区","address":"上海沪闵路158弄"},{"poiid":"B2094654DB6FA0FC409D","title":"太阳城量贩式音乐广场","lon":"121.42523","lat":"31.00235","category":"170","category_name":"KTV","address":""},{"poiid":"B2094757D16AA1FE459B","title":"新闵小区","lon":"121.4259","lat":"31.004814","category":"47","category_name":"住宅区","address":"上海江川东路沪闵路口"},{"poiid":"B2094655D36DA3F5439C","title":"闵浦二桥","lon":"121.42244","lat":"31.00725","category":"250","category_name":"公园户外","address":""},{"poiid":"B2094655D36CA0F94598","title":"江川路","lon":"121.42318","lat":"31.00584","category":"38","category_name":"公交车站","address":""},{"poiid":"B2094654DB69A5F54399","title":"迪欧咖啡 江川店 DIO CAFE","lon":"121.42524935548","lat":"31.006254857158","category":"65","category_name":"咖啡厅","address":"江川东路976号近沪闵路平山路间"},{"poiid":"B2094757D16CA1FC499D","title":"金榜世家","lon":"121.42746912","lat":"31.012706446","category":"500","category_name":"未知分类","address":"上海市闵行区沧源路676-684号"},{"poiid":"B2094757D064AAF8499D","title":"上海电视大学闵行第二分校","lon":"121.419349128","lat":"31.0090533713","category":"500","category_name":"未知分类","address":"上海市闵行区鹤庆路"},{"poiid":"B2094757D16DA5F5439A","title":"人和小菜","lon":"121.41831","lat":"31.00696","category":"76","category_name":"上海菜","address":"闵行区兰坪路317号(近建行)"},{"poiid":"B2094654DB6FA2F5459F","title":"东风小区(上海南亚宾馆西南)","lon":"121.42044","lat":"31.00699","category":"47","category_name":"住宅区","address":""},{"poiid":"B2094757DA65A5F44598","title":"汉庭快捷酒店（上海交大沪闵路店）","lon":"121.423226595","lat":"31.011508984","category":"216","category_name":"经济型连锁酒店","address":"上海市闵行区沪闵路277号(近鹤庆路东川路)"},{"poiid":"B2094654DB6FA0FC499E","title":"南亚餐厅","lon":"121.4216","lat":"31.00785","category":"257","category_name":"中餐厅","address":"沪闵路280号"},{"poiid":"B2094757D06AA6FD4993","title":"沃尔玛(闵行店)","lon":"121.42582512","lat":"31.002250231","category":"118","category_name":"超级市场","address":"闵行区沪闵路131号(近华坪路)"},{"poiid":"B2094654DB69A4FB439D","title":"重庆鸡公煲(鹤庆路店)","lon":"121.42206","lat":"31.01001","category":"71","category_name":"四川菜","address":"闵行区鹤庆路(近沪闵路)"},{"poiid":"B2094654DB69A5F5409E","title":"避风塘(闵行店)","lon":"121.42605","lat":"31.00653","category":"66","category_name":"茶艺馆","address":"闵行区江川东路1050号"},{"poiid":"B2094757D664AAFE479F","title":"旺晖火锅城 沪闵路店","lon":"121.42340075988","lat":"31.004412149084","category":"86","category_name":"火锅店","address":"闵行区沪闵路241号(江川东路口)"},{"poiid":"B2094654DB6EAAF94893","title":"文绮中学","lon":"121.42427","lat":"31.00615","category":"55","category_name":"中学","address":"闵行区江川东路980号"},{"poiid":"B2094757D465A5F5439D","title":"品味面坊","lon":"121.42522","lat":"31.00531","category":"68","category_name":"快餐厅","address":"闵行区江川东路927号(近沪闵路)"},{"poiid":"B2094757D064A6F44992","title":"都可茶饮 老闵行店 CoCo","lon":"121.420432","lat":"31.004196","category":"113","category_name":"冷饮店","address":"闵行区江川路243号(近兰坪路)"},{"poiid":"B2094750D76EA1FF439D","title":"小介福","lon":"121.424","lat":"31.0053","category":"68","category_name":"快餐厅","address":"闵行区沪闵路243号(江川东路口)"},{"poiid":"B2094757D16CA1FE409E","title":"豪大大台湾大鸡排 江川店","lon":"121.42363","lat":"31.00548","category":"68","category_name":"快餐厅","address":"闵行区江川东路243号(近沪闵路)"},{"poiid":"B2094757DA65A5FB4398","title":"莫泰168（上海闵行江川路店）","lon":"121.4237067","lat":"31.00540541","category":"216","category_name":"经济型连锁酒店","address":"上海市闵行区沪闵路213号(江川路口)"},{"poiid":"B2094655D36CA1F44692","title":"兰坪路江川路","lon":"121.4191","lat":"31.00466","category":"38","category_name":"公交车站","address":""},{"poiid":"B2094654DB6FA3F9419D","title":"雅吉清真饭店","lon":"121.42098","lat":"31.00484","category":"68","category_name":"快餐厅","address":"闵行区江川路238号(近兰坪路)"},{"poiid":"B2094757DA65A5FA4999","title":"锦江之星（上海闵行东川路店）","lon":"121.4232802","lat":"31.01110439","category":"216","category_name":"经济型连锁酒店","address":"上海市闵行区沪闵路319号(近鹤庆路)"},{"poiid":"B2094757D66BA4FC459C","title":"傣妹火锅 江川路店","lon":"121.421234054","lat":"31.004400793","category":"86","category_name":"火锅店","address":"闵行区江川路277号3楼(近兰坪路)"},{"poiid":"B2094655D36CA7FD469C","title":"沪闵路江川路","lon":"121.42318","lat":"31.00593","category":"38","category_name":"公交车站","address":""},{"poiid":"B2094757D66EABFF479B","title":"图门串烤","lon":"121.423342","lat":"31.006241","category":"247","category_name":"餐饮美食","address":"上海江川东路1050号"},{"poiid":"B2094655D36CA7FD479B","title":"沪闵路鹤庆路","lon":"121.42282","lat":"31.01177","category":"38","category_name":"公交车站","address":""},{"poiid":"B2094654DB6FA2F54498","title":"上海市闵行区江川路小学南校区","lon":"121.41974","lat":"31.00647","category":"56","category_name":"小学","address":"江川路248弄114"},{"poiid":"B2094654DB6FA2F54792","title":"鹤北新村","lon":"121.41965","lat":"31.010733","category":"47","category_name":"住宅区","address":"鹤庆路136弄21支弄"},{"poiid":"B2094757D16DA6FA409B","title":"东风二村","lon":"121.420963046","lat":"31.0057513541","category":"252","category_name":"楼宇机构","address":"上海闵行区江川路248弄"},{"poiid":"B2094654DB6FA2F54192","title":"闵行区启智学校","lon":"121.41983","lat":"31.00918","category":"57","category_name":"幼儿园","address":"闵行区兰坪路301弄22支弄70号"},{"poiid":"B2094654DB65A7F5409B","title":"圆缘园时尚餐厅(闵行店)","lon":"121.42645","lat":"31.00697","category":"68","category_name":"快餐厅","address":"闵行区江川东路919-923号(近沪闵路)"},{"poiid":"B2094757D569A3F44198","title":"永琪美容美发(鹤庆路)","lon":"121.42137939","lat":"31.010287","category":"148","category_name":"美容美发店","address":"鹤庆路88"}]