[{"poiid":"B2094654DB6BA3F8449E","title":"星巴克(耀江广场店)","lon":"121.489692","lat":"31.2488751","category":"65","category_name":"咖啡厅","address":"虹口区吴淞路258号耀江国际广场1楼(近汉阳路)"},{"poiid":"B2094757D06FA3FD439D","title":"玛格萝妮比萨屋(昆山店)","lon":"121.48835125","lat":"31.249665167","category":"94","category_name":"西餐厅","address":"虹口区昆山路122号(近乍浦路)"},{"poiid":"B2094757D06FA5FB419B","title":"虹口公安分局出入境管理处","lon":"121.4903231","lat":"31.2475029045","category":"46","category_name":"楼宇","address":"上海闵行路260号1号楼213室"},{"poiid":"B209475CD564A7F84392","title":"上海滩浦东香格里拉店","lon":"121.50058","lat":"31.23634","category":"119","category_name":"商场","address":"浦东富成路33号香格里拉酒店内大堂层"},{"poiid":"B2094654DA6FA6FE4299","title":"恒升半岛国际酒店","lon":"121.48945","lat":"31.24747","category":"214","category_name":"四星级宾馆","address":"虹口区吴淞路205号恒升半岛国际酒店内(近武昌路)"},{"poiid":"B2094751D36EA0FB4499","title":"鼓浪屿的风Amoy Restaurant","lon":"121.48813","lat":"31.24963","category":"247","category_name":"餐饮美食","address":"虹口区昆山路128号(近吴淞路)"},{"poiid":"B2094757D06FA6FE409A","title":"Jamaica Blue(九江路店)","lon":"121.49105","lat":"31.24837","category":"260","category_name":"其他","address":"黄浦区九江路700号南新雅大酒店1楼铺面E座(近贵州路)"},{"poiid":"B2094757D068A6FE419D","title":"宝御酒店 (Hotel Pravo Shanghai)","lon":"121.489273","lat":"31.248918","category":"217","category_name":"旅馆招待所","address":"上海虹口区吴淞路299号"},{"poiid":"B2094757D06FA2FF4898","title":"BM TOWER(宝矿大厦)","lon":"121.49057006","lat":"31.248397827","category":"46","category_name":"楼宇","address":"上海市虹口区吴淞路218号"},{"poiid":"B2094757D069A2F4419C","title":"中国太平洋保险公司上海分公司","lon":"121.489896003","lat":"31.2502330005","category":"263","category_name":"公司","address":"上海吴淞路400号"},{"poiid":"B2094757D06FA3FE459A","title":"上海财经大学成人教育学院","lon":"121.48796","lat":"31.24937","category":"253","category_name":"校园生活","address":"虹口区昆山路146号(近乍浦路)"},{"poiid":"B2094757D06BA5FB4093","title":"玛蕾西餐厅","lon":"121.4893438","lat":"31.2491687","category":"94","category_name":"西餐厅","address":"虹口区吴淞路299号宝御酒店2楼(近塘沽路)"},{"poiid":"B2094757D068A3FE4799","title":"景灵堂","lon":"121.48806","lat":"31.24935","category":"245","category_name":"教堂","address":"虹口区昆山路135号(近乍浦路)"},{"poiid":"B2094757D069A3FD4398","title":"樂Lofree(乍浦店)","lon":"121.490083103","lat":"31.2512250212","category":"68","category_name":"快餐厅","address":"虹口区昆山路179号(近乍浦路)"},{"poiid":"B2094655D36CA7FB429B","title":"海宁路","lon":"121.48917","lat":"31.25","category":"38","category_name":"公交车站","address":""},{"poiid":"B2094757D06FA2F44899","title":"上海法语培训中心(吴淞路校区)","lon":"121.48962","lat":"31.24837","category":"260","category_name":"其他","address":"虹口区吴淞路297号虹口区业余大学5-6楼(近塘沽路)"},{"poiid":"B2094757D06FA5FD4898","title":"华隆大厦","lon":"121.491","lat":"31.2478","category":"46","category_name":"楼宇","address":"浦东新区金湘路225弄"},{"poiid":"B2094757D06FAAFD469E","title":"上海市公安局虹口分局","lon":"121.490322","lat":"31.247499","category":"46","category_name":"楼宇","address":"上海闵行路260号"},{"poiid":"B209475CD368A0FA4998","title":"金时代顺风大酒店 汉阳路店","lon":"121.49141","lat":"31.2493","category":"75","category_name":"浙江菜","address":"汉阳路88号(近吴淞路)"},{"poiid":"B2094655D265A4FF469B","title":"联富商业广场","lon":"121.488","lat":"31.2496","category":"46","category_name":"楼宇","address":"河南北路99号"},{"poiid":"B2094757D06FA6F5479B","title":"兴旺国际服饰城","lon":"121.489","lat":"31.2514","category":"249","category_name":"购物服务","address":"虹口区七浦路133号(近河南北路)"},{"poiid":"B2094757D06AA5F4439C","title":"东泰大厦","lon":"121.4890747","lat":"31.24793624","category":"46","category_name":"楼宇","address":"东泰大厦位于虹口上海市外滩塘沽路309号"},{"poiid":"B2094757D164AAFB4793","title":"UTI","lon":"121.4903818","lat":"31.249088776","category":"46","category_name":"楼宇","address":"上海吴淞路268号"},{"poiid":"B2094654D56DABFF4593","title":"北虹高级中学","lon":"121.49189","lat":"31.24873","category":"55","category_name":"中学","address":"虹口区南浔路281号(近塘沽路)"},{"poiid":"B2094750D664AAFA499E","title":"御园中餐厅","lon":"121.489","lat":"31.2489","category":"72","category_name":"广东菜","address":"虹口区吴淞路299号宝御酒店3楼(近塘沽路)"},{"poiid":"B2094655D26FAAF8439B","title":"太保大厦","lon":"121.48954","lat":"31.25057","category":"46","category_name":"楼宇","address":"吴淞路400号"},{"poiid":"B2094753DB69A7FC409A","title":"点点心港式茶餐","lon":"121.491477","lat":"31.249082","category":"247","category_name":"餐饮美食","address":"上海市 海宁路307号（乍浦路口）"},{"poiid":"B2094757D065A5F84398","title":"品寿司","lon":"121.491281","lat":"31.24787","category":"95","category_name":"日本料理","address":"虹口区塘沽路195号(峨眉路塘沽路)"},{"poiid":"B2094751D36FA7FC4992","title":"北外滩之夜酒吧","lon":"121.4895","lat":"31.24745","category":"247","category_name":"餐饮美食","address":"虹口区吴淞路205号恒升半岛国际酒店26楼B(近武昌路)"},{"poiid":"B2094757D468A4FB4393","title":"弄堂口面馆 Alley Kitchen","lon":"121.49059","lat":"31.25102","category":"68","category_name":"快餐厅","address":"虹口区峨眉路315号(近余杭路)"},{"poiid":"B2094654D56DABFF4599","title":"隆江大厦","lon":"121.49274","lat":"31.24899","category":"46","category_name":"楼宇","address":"上海市虹口区虹口区南浔路260号"},{"poiid":"B2094654D56DABFE4599","title":"上海市电力公司市区供电公司","lon":"121.49131","lat":"31.25106","category":"263","category_name":"公司","address":"上海九龙路399号"},{"poiid":"B2094655D26BA2FC4699","title":"吴淞路闵行路","lon":"121.48964","lat":"31.24877","category":"38","category_name":"公交车站","address":""},{"poiid":"B2094757DB6CAAF44793","title":"正大广场","lon":"121.490381003","lat":"31.2503230023","category":"500","category_name":"未知分类","address":"星美"},{"poiid":"B2094757D16AA2FA469C","title":"小王子美容美发连锁机构","lon":"121.490430103","lat":"31.2487809701","category":"148","category_name":"美容美发店","address":"上海虹口区乍浦路304号"},{"poiid":"B2094757D665AAF9489A","title":"太平洋保险大厦餐厅","lon":"121.489324054","lat":"31.250388793","category":"76","category_name":"上海菜","address":"虹口区吴淞路400号5楼(近海宁路)"},{"poiid":"B2094751D26BA6F9409C","title":"地铁4号线大连路","lon":"121.4894929276499","lat":"31.24837257002929","category":"500","category_name":"未知分类","address":null},{"poiid":"B2094757D069A5FD439A","title":"虹口区业余大学","lon":"121.48968","lat":"31.2482","category":"52","category_name":"高等院校","address":"虹口区吴淞路297号(近昆山路)"},{"poiid":"B2094757DA6AABFA4692","title":"香港福记茶餐厅","lon":"121.48796","lat":"31.24937","category":"72","category_name":"广东菜","address":"虹口区昆山路177号(近乍浦路)"},{"poiid":"B2094757D064ABFC4793","title":"外滩3号4楼法国餐厅","lon":"121.488834887","lat":"31.2511940089","category":"94","category_name":"西餐厅","address":"上海外滩"},{"poiid":"B2094655D26CA0FA4999","title":"北虹高级中学(东二号门)","lon":"121.49203","lat":"31.24913","category":"678","category_name":"学校大门","address":"南浔路281"},{"poiid":"B2094757D165A1F4469E","title":"肯德基KFC 虹桥火车站店","lon":"121.488975403","lat":"31.2485611655","category":"500","category_name":"未知分类","address":"上海虹桥火车站B1"},{"poiid":"B2094757D168AAFB4693","title":"上海市第一人民医院国际部","lon":"121.488517903","lat":"31.2513569239","category":"162","category_name":"医院","address":"上海武进路"},{"poiid":"B2094655D26BA2FA419C","title":"塘沽路吴淞路","lon":"121.48959","lat":"31.24841","category":"38","category_name":"公交车站","address":""},{"poiid":"B2094752DB6FA7FD459F","title":"上海外滩","lon":"121.490742","lat":"31.247427","category":"500","category_name":"未知分类","address":"上海市 上海外滩"},{"poiid":"B2094655D26EA1F5469C","title":"Alliance Francaise","lon":"121.48937","lat":"31.24852","category":"247","category_name":"餐饮美食","address":"吴淞路297号6楼"},{"poiid":"B2094752D369A2FA4999","title":"蔡嘉法式甜品（日月光店）","lon":"121.490106","lat":"31.250353","category":"247","category_name":"餐饮美食","address":null},{"poiid":"B2094757D06BAAF84398","title":"上海银行虹口支行","lon":"121.489434","lat":"31.250792","category":"150","category_name":"银行","address":"上海吴淞路408号"},{"poiid":"B2094750DA64A1FF449E","title":"好好栗子","lon":"121.492446","lat":"31.250213","category":"247","category_name":"餐饮美食","address":"北海宁路21号"},{"poiid":"B2094757D168A2F44299","title":"上海市外国人就业中心","lon":"121.490158","lat":"31.248755","category":"500","category_name":"未知分类","address":"上海吴淞路258号"},{"poiid":"B2094654DB6BA3F8449E","title":"星巴克(耀江广场店)","lon":"121.489692","lat":"31.2488751","category":"65","category_name":"咖啡厅","address":"虹口区吴淞路258号耀江国际广场1楼(近汉阳路)"},{"poiid":"B2094757D06FA3FD439D","title":"玛格萝妮比萨屋(昆山店)","lon":"121.48835125","lat":"31.249665167","category":"94","category_name":"西餐厅","address":"虹口区昆山路122号(近乍浦路)"},{"poiid":"B2094757D06FA5FB419B","title":"虹口公安分局出入境管理处","lon":"121.4903231","lat":"31.2475029045","category":"46","category_name":"楼宇","address":"上海闵行路260号1号楼213室"},{"poiid":"B209475CD564A7F84392","title":"上海滩浦东香格里拉店","lon":"121.50058","lat":"31.23634","category":"119","category_name":"商场","address":"浦东富成路33号香格里拉酒店内大堂层"},{"poiid":"B2094654DA6FA6FE4299","title":"恒升半岛国际酒店","lon":"121.48945","lat":"31.24747","category":"214","category_name":"四星级宾馆","address":"虹口区吴淞路205号恒升半岛国际酒店内(近武昌路)"},{"poiid":"B2094751D36EA0FB4499","title":"鼓浪屿的风Amoy Restaurant","lon":"121.48813","lat":"31.24963","category":"247","category_name":"餐饮美食","address":"虹口区昆山路128号(近吴淞路)"},{"poiid":"B2094757D06FA6FE409A","title":"Jamaica Blue(九江路店)","lon":"121.49105","lat":"31.24837","category":"260","category_name":"其他","address":"黄浦区九江路700号南新雅大酒店1楼铺面E座(近贵州路)"},{"poiid":"B2094757D068A6FE419D","title":"宝御酒店 (Hotel Pravo Shanghai)","lon":"121.489273","lat":"31.248918","category":"217","category_name":"旅馆招待所","address":"上海虹口区吴淞路299号"},{"poiid":"B2094757D06FA2FF4898","title":"BM TOWER(宝矿大厦)","lon":"121.49057006","lat":"31.248397827","category":"46","category_name":"楼宇","address":"上海市虹口区吴淞路218号"},{"poiid":"B2094757D069A2F4419C","title":"中国太平洋保险公司上海分公司","lon":"121.489896003","lat":"31.2502330005","category":"263","category_name":"公司","address":"上海吴淞路400号"},{"poiid":"B2094757D06FA3FE459A","title":"上海财经大学成人教育学院","lon":"121.48796","lat":"31.24937","category":"253","category_name":"校园生活","address":"虹口区昆山路146号(近乍浦路)"},{"poiid":"B2094757D06BA5FB4093","title":"玛蕾西餐厅","lon":"121.4893438","lat":"31.2491687","category":"94","category_name":"西餐厅","address":"虹口区吴淞路299号宝御酒店2楼(近塘沽路)"},{"poiid":"B2094757D068A3FE4799","title":"景灵堂","lon":"121.48806","lat":"31.24935","category":"245","category_name":"教堂","address":"虹口区昆山路135号(近乍浦路)"},{"poiid":"B2094757D069A3FD4398","title":"樂Lofree(乍浦店)","lon":"121.490083103","lat":"31.2512250212","category":"68","category_name":"快餐厅","address":"虹口区昆山路179号(近乍浦路)"},{"poiid":"B2094655D36CA7FB429B","title":"海宁路","lon":"121.48917","lat":"31.25","category":"38","category_name":"公交车站","address":""},{"poiid":"B2094757D06FA2F44899","title":"上海法语培训中心(吴淞路校区)","lon":"121.48962","lat":"31.24837","category":"260","category_name":"其他","address":"虹口区吴淞路297号虹口区业余大学5-6楼(近塘沽路)"},{"poiid":"B2094757D06FA5FD4898","title":"华隆大厦","lon":"121.491","lat":"31.2478","category":"46","category_name":"楼宇","address":"浦东新区金湘路225弄"},{"poiid":"B2094757D06FAAFD469E","title":"上海市公安局虹口分局","lon":"121.490322","lat":"31.247499","category":"46","category_name":"楼宇","address":"上海闵行路260号"},{"poiid":"B209475CD368A0FA4998","title":"金时代顺风大酒店 汉阳路店","lon":"121.49141","lat":"31.2493","category":"75","category_name":"浙江菜","address":"汉阳路88号(近吴淞路)"},{"poiid":"B2094655D265A4FF469B","title":"联富商业广场","lon":"121.488","lat":"31.2496","category":"46","category_name":"楼宇","address":"河南北路99号"},{"poiid":"B2094757D06FA6F5479B","title":"兴旺国际服饰城","lon":"121.489","lat":"31.2514","category":"249","category_name":"购物服务","address":"虹口区七浦路133号(近河南北路)"},{"poiid":"B2094757D06AA5F4439C","title":"东泰大厦","lon":"121.4890747","lat":"31.24793624","category":"46","category_name":"楼宇","address":"东泰大厦位于虹口上海市外滩塘沽路309号"},{"poiid":"B2094757D164AAFB4793","title":"UTI","lon":"121.4903818","lat":"31.249088776","category":"46","category_name":"楼宇","address":"上海吴淞路268号"},{"poiid":"B2094654D56DABFF4593","title":"北虹高级中学","lon":"121.49189","lat":"31.24873","category":"55","category_name":"中学","address":"虹口区南浔路281号(近塘沽路)"},{"poiid":"B2094750D664AAFA499E","title":"御园中餐厅","lon":"121.489","lat":"31.2489","category":"72","category_name":"广东菜","address":"虹口区吴淞路299号宝御酒店3楼(近塘沽路)"},{"poiid":"B2094655D26FAAF8439B","title":"太保大厦","lon":"121.48954","lat":"31.25057","category":"46","category_name":"楼宇","address":"吴淞路400号"},{"poiid":"B2094753DB69A7FC409A","title":"点点心港式茶餐","lon":"121.491477","lat":"31.249082","category":"247","category_name":"餐饮美食","address":"上海市 海宁路307号（乍浦路口）"},{"poiid":"B2094757D065A5F84398","title":"品寿司","lon":"121.491281","lat":"31.24787","category":"95","category_name":"日本料理","address":"虹口区塘沽路195号(峨眉路塘沽路)"},{"poiid":"B2094751D36FA7FC4992","title":"北外滩之夜酒吧","lon":"121.4895","lat":"31.24745","category":"247","category_name":"餐饮美食","address":"虹口区吴淞路205号恒升半岛国际酒店26楼B(近武昌路)"},{"poiid":"B2094757D468A4FB4393","title":"弄堂口面馆 Alley Kitchen","lon":"121.49059","lat":"31.25102","category":"68","category_name":"快餐厅","address":"虹口区峨眉路315号(近余杭路)"},{"poiid":"B2094654D56DABFF4599","title":"隆江大厦","lon":"121.49274","lat":"31.24899","category":"46","category_name":"楼宇","address":"上海市虹口区虹口区南浔路260号"},{"poiid":"B2094654D56DABFE4599","title":"上海市电力公司市区供电公司","lon":"121.49131","lat":"31.25106","category":"263","category_name":"公司","address":"上海九龙路399号"},{"poiid":"B2094655D26BA2FC4699","title":"吴淞路闵行路","lon":"121.48964","lat":"31.24877","category":"38","category_name":"公交车站","address":""},{"poiid":"B2094757DB6CAAF44793","title":"正大广场","lon":"121.490381003","lat":"31.2503230023","category":"500","category_name":"未知分类","address":"星美"},{"poiid":"B2094757D16AA2FA469C","title":"小王子美容美发连锁机构","lon":"121.490430103","lat":"31.2487809701","category":"148","category_name":"美容美发店","address":"上海虹口区乍浦路304号"},{"poiid":"B2094757D665AAF9489A","title":"太平洋保险大厦餐厅","lon":"121.489324054","lat":"31.250388793","category":"76","category_name":"上海菜","address":"虹口区吴淞路400号5楼(近海宁路)"},{"poiid":"B2094751D26BA6F9409C","title":"地铁4号线大连路","lon":"121.4894929276499","lat":"31.24837257002929","category":"500","category_name":"未知分类","address":null},{"poiid":"B2094757D069A5FD439A","title":"虹口区业余大学","lon":"121.48968","lat":"31.2482","category":"52","category_name":"高等院校","address":"虹口区吴淞路297号(近昆山路)"},{"poiid":"B2094757DA6AABFA4692","title":"香港福记茶餐厅","lon":"121.48796","lat":"31.24937","category":"72","category_name":"广东菜","address":"虹口区昆山路177号(近乍浦路)"},{"poiid":"B2094757D064ABFC4793","title":"外滩3号4楼法国餐厅","lon":"121.488834887","lat":"31.2511940089","category":"94","category_name":"西餐厅","address":"上海外滩"},{"poiid":"B2094655D26CA0FA4999","title":"北虹高级中学(东二号门)","lon":"121.49203","lat":"31.24913","category":"678","category_name":"学校大门","address":"南浔路281"},{"poiid":"B2094757D165A1F4469E","title":"肯德基KFC 虹桥火车站店","lon":"121.488975403","lat":"31.2485611655","category":"500","category_name":"未知分类","address":"上海虹桥火车站B1"},{"poiid":"B2094757D168AAFB4693","title":"上海市第一人民医院国际部","lon":"121.488517903","lat":"31.2513569239","category":"162","category_name":"医院","address":"上海武进路"},{"poiid":"B2094655D26BA2FA419C","title":"塘沽路吴淞路","lon":"121.48959","lat":"31.24841","category":"38","category_name":"公交车站","address":""},{"poiid":"B2094752DB6FA7FD459F","title":"上海外滩","lon":"121.490742","lat":"31.247427","category":"500","category_name":"未知分类","address":"上海市 上海外滩"},{"poiid":"B2094655D26EA1F5469C","title":"Alliance Francaise","lon":"121.48937","lat":"31.24852","category":"247","category_name":"餐饮美食","address":"吴淞路297号6楼"},{"poiid":"B2094752D369A2FA4999","title":"蔡嘉法式甜品（日月光店）","lon":"121.490106","lat":"31.250353","category":"247","category_name":"餐饮美食","address":null},{"poiid":"B2094757D06BAAF84398","title":"上海银行虹口支行","lon":"121.489434","lat":"31.250792","category":"150","category_name":"银行","address":"上海吴淞路408号"},{"poiid":"B2094750DA64A1FF449E","title":"好好栗子","lon":"121.492446","lat":"31.250213","category":"247","category_name":"餐饮美食","address":"北海宁路21号"},{"poiid":"B2094757D168A2F44299","title":"上海市外国人就业中心","lon":"121.490158","lat":"31.248755","category":"500","category_name":"未知分类","address":"上海吴淞路258号"},{"poiid":"B2094654DB6BA3F8449E","title":"星巴克(耀江广场店)","lon":"121.489692","lat":"31.2488751","category":"65","category_name":"咖啡厅","address":"虹口区吴淞路258号耀江国际广场1楼(近汉阳路)"},{"poiid":"B2094757D06FA3FD439D","title":"玛格萝妮比萨屋(昆山店)","lon":"121.48835125","lat":"31.249665167","category":"94","category_name":"西餐厅","address":"虹口区昆山路122号(近乍浦路)"},{"poiid":"B2094757D06FA5FB419B","title":"虹口公安分局出入境管理处","lon":"121.4903231","lat":"31.2475029045","category":"46","category_name":"楼宇","address":"上海闵行路260号1号楼213室"},{"poiid":"B209475CD564A7F84392","title":"上海滩浦东香格里拉店","lon":"121.50058","lat":"31.23634","category":"119","category_name":"商场","address":"浦东富成路33号香格里拉酒店内大堂层"},{"poiid":"B2094654DA6FA6FE4299","title":"恒升半岛国际酒店","lon":"121.48945","lat":"31.24747","category":"214","category_name":"四星级宾馆","address":"虹口区吴淞路205号恒升半岛国际酒店内(近武昌路)"},{"poiid":"B2094751D36EA0FB4499","title":"鼓浪屿的风Amoy Restaurant","lon":"121.48813","lat":"31.24963","category":"247","category_name":"餐饮美食","address":"虹口区昆山路128号(近吴淞路)"},{"poiid":"B2094757D06FA6FE409A","title":"Jamaica Blue(九江路店)","lon":"121.49105","lat":"31.24837","category":"260","category_name":"其他","address":"黄浦区九江路700号南新雅大酒店1楼铺面E座(近贵州路)"},{"poiid":"B2094757D068A6FE419D","title":"宝御酒店 (Hotel Pravo Shanghai)","lon":"121.489273","lat":"31.248918","category":"217","category_name":"旅馆招待所","address":"上海虹口区吴淞路299号"},{"poiid":"B2094757D06FA2FF4898","title":"BM TOWER(宝矿大厦)","lon":"121.49057006","lat":"31.248397827","category":"46","category_name":"楼宇","address":"上海市虹口区吴淞路218号"},{"poiid":"B2094757D069A2F4419C","title":"中国太平洋保险公司上海分公司","lon":"121.489896003","lat":"31.2502330005","category":"263","category_name":"公司","address":"上海吴淞路400号"},{"poiid":"B2094757D06FA3FE459A","title":"上海财经大学成人教育学院","lon":"121.48796","lat":"31.24937","category":"253","category_name":"校园生活","address":"虹口区昆山路146号(近乍浦路)"},{"poiid":"B2094757D06BA5FB4093","title":"玛蕾西餐厅","lon":"121.4893438","lat":"31.2491687","category":"94","category_name":"西餐厅","address":"虹口区吴淞路299号宝御酒店2楼(近塘沽路)"},{"poiid":"B2094757D068A3FE4799","title":"景灵堂","lon":"121.48806","lat":"31.24935","category":"245","category_name":"教堂","address":"虹口区昆山路135号(近乍浦路)"},{"poiid":"B2094757D069A3FD4398","title":"樂Lofree(乍浦店)","lon":"121.490083103","lat":"31.2512250212","category":"68","category_name":"快餐厅","address":"虹口区昆山路179号(近乍浦路)"},{"poiid":"B2094655D36CA7FB429B","title":"海宁路","lon":"121.48917","lat":"31.25","category":"38","category_name":"公交车站","address":""},{"poiid":"B2094757D06FA2F44899","title":"上海法语培训中心(吴淞路校区)","lon":"121.48962","lat":"31.24837","category":"260","category_name":"其他","address":"虹口区吴淞路297号虹口区业余大学5-6楼(近塘沽路)"},{"poiid":"B2094757D06FA5FD4898","title":"华隆大厦","lon":"121.491","lat":"31.2478","category":"46","category_name":"楼宇","address":"浦东新区金湘路225弄"},{"poiid":"B2094757D06FAAFD469E","title":"上海市公安局虹口分局","lon":"121.490322","lat":"31.247499","category":"46","category_name":"楼宇","address":"上海闵行路260号"},{"poiid":"B209475CD368A0FA4998","title":"金时代顺风大酒店 汉阳路店","lon":"121.49141","lat":"31.2493","category":"75","category_name":"浙江菜","address":"汉阳路88号(近吴淞路)"},{"poiid":"B2094655D265A4FF469B","title":"联富商业广场","lon":"121.488","lat":"31.2496","category":"46","category_name":"楼宇","address":"河南北路99号"},{"poiid":"B2094757D06FA6F5479B","title":"兴旺国际服饰城","lon":"121.489","lat":"31.2514","category":"249","category_name":"购物服务","address":"虹口区七浦路133号(近河南北路)"},{"poiid":"B2094757D06AA5F4439C","title":"东泰大厦","lon":"121.4890747","lat":"31.24793624","category":"46","category_name":"楼宇","address":"东泰大厦位于虹口上海市外滩塘沽路309号"},{"poiid":"B2094757D164AAFB4793","title":"UTI","lon":"121.4903818","lat":"31.249088776","category":"46","category_name":"楼宇","address":"上海吴淞路268号"},{"poiid":"B2094654D56DABFF4593","title":"北虹高级中学","lon":"121.49189","lat":"31.24873","category":"55","category_name":"中学","address":"虹口区南浔路281号(近塘沽路)"},{"poiid":"B2094750D664AAFA499E","title":"御园中餐厅","lon":"121.489","lat":"31.2489","category":"72","category_name":"广东菜","address":"虹口区吴淞路299号宝御酒店3楼(近塘沽路)"},{"poiid":"B2094655D26FAAF8439B","title":"太保大厦","lon":"121.48954","lat":"31.25057","category":"46","category_name":"楼宇","address":"吴淞路400号"},{"poiid":"B2094753DB69A7FC409A","title":"点点心港式茶餐","lon":"121.491477","lat":"31.249082","category":"247","category_name":"餐饮美食","address":"上海市 海宁路307号（乍浦路口）"},{"poiid":"B2094757D065A5F84398","title":"品寿司","lon":"121.491281","lat":"31.24787","category":"95","category_name":"日本料理","address":"虹口区塘沽路195号(峨眉路塘沽路)"},{"poiid":"B2094751D36FA7FC4992","title":"北外滩之夜酒吧","lon":"121.4895","lat":"31.24745","category":"247","category_name":"餐饮美食","address":"虹口区吴淞路205号恒升半岛国际酒店26楼B(近武昌路)"},{"poiid":"B2094757D468A4FB4393","title":"弄堂口面馆 Alley Kitchen","lon":"121.49059","lat":"31.25102","category":"68","category_name":"快餐厅","address":"虹口区峨眉路315号(近余杭路)"},{"poiid":"B2094654D56DABFF4599","title":"隆江大厦","lon":"121.49274","lat":"31.24899","category":"46","category_name":"楼宇","address":"上海市虹口区虹口区南浔路260号"},{"poiid":"B2094654D56DABFE4599","title":"上海市电力公司市区供电公司","lon":"121.49131","lat":"31.25106","category":"263","category_name":"公司","address":"上海九龙路399号"},{"poiid":"B2094655D26BA2FC4699","title":"吴淞路闵行路","lon":"121.48964","lat":"31.24877","category":"38","category_name":"公交车站","address":""},{"poiid":"B2094757DB6CAAF44793","title":"正大广场","lon":"121.490381003","lat":"31.2503230023","category":"500","category_name":"未知分类","address":"星美"},{"poiid":"B2094757D16AA2FA469C","title":"小王子美容美发连锁机构","lon":"121.490430103","lat":"31.2487809701","category":"148","category_name":"美容美发店","address":"上海虹口区乍浦路304号"},{"poiid":"B2094757D665AAF9489A","title":"太平洋保险大厦餐厅","lon":"121.489324054","lat":"31.250388793","category":"76","category_name":"上海菜","address":"虹口区吴淞路400号5楼(近海宁路)"},{"poiid":"B2094751D26BA6F9409C","title":"地铁4号线大连路","lon":"121.4894929276499","lat":"31.24837257002929","category":"500","category_name":"未知分类","address":null},{"poiid":"B2094757D069A5FD439A","title":"虹口区业余大学","lon":"121.48968","lat":"31.2482","category":"52","category_name":"高等院校","address":"虹口区吴淞路297号(近昆山路)"},{"poiid":"B2094757DA6AABFA4692","title":"香港福记茶餐厅","lon":"121.48796","lat":"31.24937","category":"72","category_name":"广东菜","address":"虹口区昆山路177号(近乍浦路)"},{"poiid":"B2094757D064ABFC4793","title":"外滩3号4楼法国餐厅","lon":"121.488834887","lat":"31.2511940089","category":"94","category_name":"西餐厅","address":"上海外滩"},{"poiid":"B2094655D26CA0FA4999","title":"北虹高级中学(东二号门)","lon":"121.49203","lat":"31.24913","category":"678","category_name":"学校大门","address":"南浔路281"},{"poiid":"B2094757D165A1F4469E","title":"肯德基KFC 虹桥火车站店","lon":"121.488975403","lat":"31.2485611655","category":"500","category_name":"未知分类","address":"上海虹桥火车站B1"},{"poiid":"B2094757D168AAFB4693","title":"上海市第一人民医院国际部","lon":"121.488517903","lat":"31.2513569239","category":"162","category_name":"医院","address":"上海武进路"},{"poiid":"B2094655D26BA2FA419C","title":"塘沽路吴淞路","lon":"121.48959","lat":"31.24841","category":"38","category_name":"公交车站","address":""},{"poiid":"B2094752DB6FA7FD459F","title":"上海外滩","lon":"121.490742","lat":"31.247427","category":"500","category_name":"未知分类","address":"上海市 上海外滩"},{"poiid":"B2094655D26EA1F5469C","title":"Alliance Francaise","lon":"121.48937","lat":"31.24852","category":"247","category_name":"餐饮美食","address":"吴淞路297号6楼"},{"poiid":"B2094752D369A2FA4999","title":"蔡嘉法式甜品（日月光店）","lon":"121.490106","lat":"31.250353","category":"247","category_name":"餐饮美食","address":null},{"poiid":"B2094757D06BAAF84398","title":"上海银行虹口支行","lon":"121.489434","lat":"31.250792","category":"150","category_name":"银行","address":"上海吴淞路408号"},{"poiid":"B2094750DA64A1FF449E","title":"好好栗子","lon":"121.492446","lat":"31.250213","category":"247","category_name":"餐饮美食","address":"北海宁路21号"},{"poiid":"B2094757D168A2F44299","title":"上海市外国人就业中心","lon":"121.490158","lat":"31.248755","category":"500","category_name":"未知分类","address":"上海吴淞路258号"},{"poiid":"B2094654DB6BA3F8449E","title":"星巴克(耀江广场店)","lon":"121.489692","lat":"31.2488751","category":"65","category_name":"咖啡厅","address":"虹口区吴淞路258号耀江国际广场1楼(近汉阳路)"},{"poiid":"B2094757D06FA3FD439D","title":"玛格萝妮比萨屋(昆山店)","lon":"121.48835125","lat":"31.249665167","category":"94","category_name":"西餐厅","address":"虹口区昆山路122号(近乍浦路)"},{"poiid":"B2094757D06FA5FB419B","title":"虹口公安分局出入境管理处","lon":"121.4903231","lat":"31.2475029045","category":"46","category_name":"楼宇","address":"上海闵行路260号1号楼213室"},{"poiid":"B209475CD564A7F84392","title":"上海滩浦东香格里拉店","lon":"121.50058","lat":"31.23634","category":"119","category_name":"商场","address":"浦东富成路33号香格里拉酒店内大堂层"},{"poiid":"B2094654DA6FA6FE4299","title":"恒升半岛国际酒店","lon":"121.48945","lat":"31.24747","category":"214","category_name":"四星级宾馆","address":"虹口区吴淞路205号恒升半岛国际酒店内(近武昌路)"},{"poiid":"B2094751D36EA0FB4499","title":"鼓浪屿的风Amoy Restaurant","lon":"121.48813","lat":"31.24963","category":"247","category_name":"餐饮美食","address":"虹口区昆山路128号(近吴淞路)"},{"poiid":"B2094757D06FA6FE409A","title":"Jamaica Blue(九江路店)","lon":"121.49105","lat":"31.24837","category":"260","category_name":"其他","address":"黄浦区九江路700号南新雅大酒店1楼铺面E座(近贵州路)"},{"poiid":"B2094757D068A6FE419D","title":"宝御酒店 (Hotel Pravo Shanghai)","lon":"121.489273","lat":"31.248918","category":"217","category_name":"旅馆招待所","address":"上海虹口区吴淞路299号"},{"poiid":"B2094757D06FA2FF4898","title":"BM TOWER(宝矿大厦)","lon":"121.49057006","lat":"31.248397827","category":"46","category_name":"楼宇","address":"上海市虹口区吴淞路218号"},{"poiid":"B2094757D069A2F4419C","title":"中国太平洋保险公司上海分公司","lon":"121.489896003","lat":"31.2502330005","category":"263","category_name":"公司","address":"上海吴淞路400号"},{"poiid":"B2094757D06FA3FE459A","title":"上海财经大学成人教育学院","lon":"121.48796","lat":"31.24937","category":"253","category_name":"校园生活","address":"虹口区昆山路146号(近乍浦路)"},{"poiid":"B2094757D06BA5FB4093","title":"玛蕾西餐厅","lon":"121.4893438","lat":"31.2491687","category":"94","category_name":"西餐厅","address":"虹口区吴淞路299号宝御酒店2楼(近塘沽路)"},{"poiid":"B2094757D068A3FE4799","title":"景灵堂","lon":"121.48806","lat":"31.24935","category":"245","category_name":"教堂","address":"虹口区昆山路135号(近乍浦路)"},{"poiid":"B2094757D069A3FD4398","title":"樂Lofree(乍浦店)","lon":"121.490083103","lat":"31.2512250212","category":"68","category_name":"快餐厅","address":"虹口区昆山路179号(近乍浦路)"},{"poiid":"B2094655D36CA7FB429B","title":"海宁路","lon":"121.48917","lat":"31.25","category":"38","category_name":"公交车站","address":""},{"poiid":"B2094757D06FA2F44899","title":"上海法语培训中心(吴淞路校区)","lon":"121.48962","lat":"31.24837","category":"260","category_name":"其他","address":"虹口区吴淞路297号虹口区业余大学5-6楼(近塘沽路)"},{"poiid":"B2094757D06FA5FD4898","title":"华隆大厦","lon":"121.491","lat":"31.2478","category":"46","category_name":"楼宇","address":"浦东新区金湘路225弄"},{"poiid":"B2094757D06FAAFD469E","title":"上海市公安局虹口分局","lon":"121.490322","lat":"31.247499","category":"46","category_name":"楼宇","address":"上海闵行路260号"},{"poiid":"B209475CD368A0FA4998","title":"金时代顺风大酒店 汉阳路店","lon":"121.49141","lat":"31.2493","category":"75","category_name":"浙江菜","address":"汉阳路88号(近吴淞路)"},{"poiid":"B2094655D265A4FF469B","title":"联富商业广场","lon":"121.488","lat":"31.2496","category":"46","category_name":"楼宇","address":"河南北路99号"},{"poiid":"B2094757D06FA6F5479B","title":"兴旺国际服饰城","lon":"121.489","lat":"31.2514","category":"249","category_name":"购物服务","address":"虹口区七浦路133号(近河南北路)"},{"poiid":"B2094757D06AA5F4439C","title":"东泰大厦","lon":"121.4890747","lat":"31.24793624","category":"46","category_name":"楼宇","address":"东泰大厦位于虹口上海市外滩塘沽路309号"},{"poiid":"B2094757D164AAFB4793","title":"UTI","lon":"121.4903818","lat":"31.249088776","category":"46","category_name":"楼宇","address":"上海吴淞路268号"},{"poiid":"B2094654D56DABFF4593","title":"北虹高级中学","lon":"121.49189","lat":"31.24873","category":"55","category_name":"中学","address":"虹口区南浔路281号(近塘沽路)"},{"poiid":"B2094750D664AAFA499E","title":"御园中餐厅","lon":"121.489","lat":"31.2489","category":"72","category_name":"广东菜","address":"虹口区吴淞路299号宝御酒店3楼(近塘沽路)"},{"poiid":"B2094655D26FAAF8439B","title":"太保大厦","lon":"121.48954","lat":"31.25057","category":"46","category_name":"楼宇","address":"吴淞路400号"},{"poiid":"B2094753DB69A7FC409A","title":"点点心港式茶餐","lon":"121.491477","lat":"31.249082","category":"247","category_name":"餐饮美食","address":"上海市 海宁路307号（乍浦路口）"},{"poiid":"B2094757D065A5F84398","title":"品寿司","lon":"121.491281","lat":"31.24787","category":"95","category_name":"日本料理","address":"虹口区塘沽路195号(峨眉路塘沽路)"},{"poiid":"B2094751D36FA7FC4992","title":"北外滩之夜酒吧","lon":"121.4895","lat":"31.24745","category":"247","category_name":"餐饮美食","address":"虹口区吴淞路205号恒升半岛国际酒店26楼B(近武昌路)"},{"poiid":"B2094757D468A4FB4393","title":"弄堂口面馆 Alley Kitchen","lon":"121.49059","lat":"31.25102","category":"68","category_name":"快餐厅","address":"虹口区峨眉路315号(近余杭路)"},{"poiid":"B2094654D56DABFF4599","title":"隆江大厦","lon":"121.49274","lat":"31.24899","category":"46","category_name":"楼宇","address":"上海市虹口区虹口区南浔路260号"},{"poiid":"B2094654D56DABFE4599","title":"上海市电力公司市区供电公司","lon":"121.49131","lat":"31.25106","category":"263","category_name":"公司","address":"上海九龙路399号"},{"poiid":"B2094655D26BA2FC4699","title":"吴淞路闵行路","lon":"121.48964","lat":"31.24877","category":"38","category_name":"公交车站","address":""},{"poiid":"B2094757DB6CAAF44793","title":"正大广场","lon":"121.490381003","lat":"31.2503230023","category":"500","category_name":"未知分类","address":"星美"},{"poiid":"B2094757D16AA2FA469C","title":"小王子美容美发连锁机构","lon":"121.490430103","lat":"31.2487809701","category":"148","category_name":"美容美发店","address":"上海虹口区乍浦路304号"},{"poiid":"B2094757D665AAF9489A","title":"太平洋保险大厦餐厅","lon":"121.489324054","lat":"31.250388793","category":"76","category_name":"上海菜","address":"虹口区吴淞路400号5楼(近海宁路)"},{"poiid":"B2094751D26BA6F9409C","title":"地铁4号线大连路","lon":"121.4894929276499","lat":"31.24837257002929","category":"500","category_name":"未知分类","address":null},{"poiid":"B2094757D069A5FD439A","title":"虹口区业余大学","lon":"121.48968","lat":"31.2482","category":"52","category_name":"高等院校","address":"虹口区吴淞路297号(近昆山路)"},{"poiid":"B2094757DA6AABFA4692","title":"香港福记茶餐厅","lon":"121.48796","lat":"31.24937","category":"72","category_name":"广东菜","address":"虹口区昆山路177号(近乍浦路)"},{"poiid":"B2094757D064ABFC4793","title":"外滩3号4楼法国餐厅","lon":"121.488834887","lat":"31.2511940089","category":"94","category_name":"西餐厅","address":"上海外滩"},{"poiid":"B2094655D26CA0FA4999","title":"北虹高级中学(东二号门)","lon":"121.49203","lat":"31.24913","category":"678","category_name":"学校大门","address":"南浔路281"},{"poiid":"B2094757D165A1F4469E","title":"肯德基KFC 虹桥火车站店","lon":"121.488975403","lat":"31.2485611655","category":"500","category_name":"未知分类","address":"上海虹桥火车站B1"},{"poiid":"B2094757D168AAFB4693","title":"上海市第一人民医院国际部","lon":"121.488517903","lat":"31.2513569239","category":"162","category_name":"医院","address":"上海武进路"},{"poiid":"B2094655D26BA2FA419C","title":"塘沽路吴淞路","lon":"121.48959","lat":"31.24841","category":"38","category_name":"公交车站","address":""},{"poiid":"B2094752DB6FA7FD459F","title":"上海外滩","lon":"121.490742","lat":"31.247427","category":"500","category_name":"未知分类","address":"上海市 上海外滩"},{"poiid":"B2094655D26EA1F5469C","title":"Alliance Francaise","lon":"121.48937","lat":"31.24852","category":"247","category_name":"餐饮美食","address":"吴淞路297号6楼"},{"poiid":"B2094752D369A2FA4999","title":"蔡嘉法式甜品（日月光店）","lon":"121.490106","lat":"31.250353","category":"247","category_name":"餐饮美食","address":null},{"poiid":"B2094757D06BAAF84398","title":"上海银行虹口支行","lon":"121.489434","lat":"31.250792","category":"150","category_name":"银行","address":"上海吴淞路408号"},{"poiid":"B2094750DA64A1FF449E","title":"好好栗子","lon":"121.492446","lat":"31.250213","category":"247","category_name":"餐饮美食","address":"北海宁路21号"},{"poiid":"B2094757D168A2F44299","title":"上海市外国人就业中心","lon":"121.490158","lat":"31.248755","category":"500","category_name":"未知分类","address":"上海吴淞路258号"}]