[{"poiid":"B2094757D06FA7F5499A","title":"万嘉商业广场","lon":"121.616968","lat":"31.298423","category":"119","category_name":"商场","address":"浦东新区高行镇东靖路1881号(近金高路)"},{"poiid":"B2094757D064ABF4409C","title":"绿地崴廉公寓","lon":"121.61346587","lat":"31.290841159","category":"252","category_name":"楼宇机构","address":"浦东新区东靖路2250弄"},{"poiid":"B2094757D068A0FF4292","title":"沃尔玛购物广场(高行万嘉店)","lon":"121.6145773","lat":"31.2932941","category":"500","category_name":"未知分类","address":"浦东新区东靖路2011号万嘉商业广场2-3楼"},{"poiid":"B2094654DB65A4FB429B","title":"幸福小镇","lon":"121.60913","lat":"31.300512","category":"47","category_name":"住宅区","address":"俱进路285弄1-244号"},{"poiid":"B2094750DB69A2FD4799","title":"大地数字影院（万嘉店）","lon":"121.611305","lat":"31.293529","category":"178","category_name":"电影院","address":"东靖路1881号万嘉商业广场4层"},{"poiid":"B2094757D16DA7FD429B","title":"农屋里香","lon":"121.610447339","lat":"31.2922177679","category":"87","category_name":"特色／地方风味餐厅","address":"浦东新区高行镇东靖路1881号万嘉广场B102号"},{"poiid":"B2094757D06BABF9439F","title":"呷哺呷哺(高行万嘉店)","lon":"121.611506039","lat":"31.2927903811","category":"86","category_name":"火锅店","address":"浦东新区东靖路1881号2楼208-209商铺"},{"poiid":"B2094751D36AA3FA4398","title":"鲜芋仙(万嘉店)","lon":"121.61058","lat":"31.29329","category":"67","category_name":"甜品店","address":"浦东新区东靖路1881号万嘉商业广场1楼"},{"poiid":"B2094655D26FA0FC4292","title":"新高苑·兰园","lon":"121.62247","lat":"31.29098","category":"47","category_name":"住宅区","address":"高宝路379弄1-60号"},{"poiid":"B2094757D06FABFA4493","title":"绿地威廉公寓","lon":"121.618171692","lat":"31.2894210815","category":"47","category_name":"住宅区","address":"上海浦东新区东靖路2250弄"},{"poiid":"B2094750D76DAAF54298","title":"新石器烤肉(万嘉广场店)","lon":"121.609","lat":"31.2929","category":"68","category_name":"快餐厅","address":"浦东新区东靖路1881号高行万嘉广场207室"},{"poiid":"B2094750D665A0F44799","title":"必胜客(高行店)","lon":"121.61","lat":"31.2926","category":"94","category_name":"西餐厅","address":"浦东新区东靖路1881号万嘉广场1楼(近金高路)"},{"poiid":"B2094654D568A5FD409C","title":"高行家园","lon":"121.61419","lat":"31.295094","category":"47","category_name":"住宅区","address":"浦东新区行德路141弄(近金高路高行街)"},{"poiid":"B2094757D069A2F4489A","title":"金苹果学校","lon":"121.61986","lat":"31.28107","category":"253","category_name":"校园生活","address":"浦东新区巨峰路1555号"},{"poiid":"B2094654D568A5FD4793","title":"紫翠苑","lon":"121.61369","lat":"31.30155","category":"47","category_name":"住宅区","address":"俱进路505弄1-92号"},{"poiid":"B2094757D065A0FE4193","title":"味千拉面(高行万嘉店)","lon":"121.611838573","lat":"31.2928368822","category":"247","category_name":"餐饮美食","address":"上海市浦东新区东靖路1881号万嘉商业广场1F(金高路口)"},{"poiid":"B2094655D26FA7F94492","title":"新高苑·春园","lon":"121.61988","lat":"31.29208","category":"47","category_name":"住宅区","address":"高宝路229弄1-108"},{"poiid":"B2094757D069A2FB429B","title":"长江隧桥浦东入口","lon":"121.637017489","lat":"31.2972054077","category":"500","category_name":"未知分类","address":"上海长江隧桥"},{"poiid":"B2094752D76BA7FC409A","title":"上海永达奥迪旗舰店","lon":"121.622214","lat":"31.295884","category":"263","category_name":"公司","address":"上海浦东新区申江路288号"},{"poiid":"B2094757D16DA1FE449D","title":"农业银行数据中心","lon":"121.61064133","lat":"31.305083063","category":"500","category_name":"未知分类","address":"上海市浦东新区澳尼路88号"},{"poiid":"B2094757D16BA1FF489A","title":"永和大王","lon":"121.611448439","lat":"31.2927942812","category":"68","category_name":"快餐厅","address":"浦东新区东靖路1881号万嘉商业广场1楼(近新行路)"},{"poiid":"B2094654D568A5FC429C","title":"上海市高行中学","lon":"121.60939","lat":"31.28935","category":"55","category_name":"中学","address":"行泰路210"},{"poiid":"B2094757D76AA6FE489A","title":"肯德基 高行店 KFC","lon":"121.609923","lat":"31.293041","category":"68","category_name":"快餐厅","address":"浦东新区东靖路2011号万嘉商业广场1楼(近新行路)"},{"poiid":"B2094757D064A4F5489F","title":"新高苑一期","lon":"121.621312339","lat":"31.2933767946","category":"47","category_name":"住宅区","address":"上海市浦东新区高建路"},{"poiid":"B2094750DA6EA3F54998","title":"大地数字影院","lon":"121.619758","lat":"31.302953","category":"178","category_name":"电影院","address":"万嘉"},{"poiid":"B2094757D068A2FD4898","title":"高行新苑","lon":"121.61402","lat":"31.296251","category":"47","category_name":"住宅区","address":"上海浦东新区万安街333号"},{"poiid":"B2094757D16DA3FD449B","title":"金港湾餐饮","lon":"121.61900329","lat":"31.293199539","category":"260","category_name":"其他","address":"浦东新区高建路1号(近东靖路)"},{"poiid":"B2094654DB6BA1FF409A","title":"新高苑·春园(西门)","lon":"121.61878","lat":"31.29228","category":"47","category_name":"住宅区","address":"高宝路229弄1-108"},{"poiid":"B2094757D069AAFF4298","title":"证大家园四期","lon":"121.627","lat":"31.2857","category":"47","category_name":"住宅区","address":"上海浦东新区五莲路1769弄"},{"poiid":"B2094750D76DA7FE419A","title":"宝寿司(高行店)","lon":"121.611","lat":"31.293","category":"95","category_name":"日本料理","address":"浦东新区东靖路2011号万嘉商业广场1楼第一食品内"},{"poiid":"B2094654D568A5FC459F","title":"华高小学东靖路校区","lon":"121.61766","lat":"31.29274","category":"56","category_name":"小学","address":"浦东新区高建路40号(东靖路高建路)"},{"poiid":"B2094655D36DA0F9449B","title":"杨园镇","lon":"121.63108","lat":"31.30388","category":"38","category_name":"公交车站","address":""},{"poiid":"B2094654D568A5FC4393","title":"上海奇萍汽车维修美容服务中心","lon":"121.62087","lat":"31.29355","category":"159","category_name":"汽车维修","address":"浦东新区东靖路2606-2610号(东靖路金京路)"},{"poiid":"B2094757D06AA4FC459E","title":"五洲大道申江路","lon":"121.614617","lat":"31.30362","category":"500","category_name":"未知分类","address":"上海五洲大道申江路"},{"poiid":"B2094654D568A5FD429C","title":"缘缘酒楼","lon":"121.60816","lat":"31.29501","category":"76","category_name":"上海菜","address":"浦东新区高行镇万安街265号"},{"poiid":"B2094654D568A5FC439A","title":"新高苑·兰园(南门)","lon":"121.62345","lat":"31.2902","category":"47","category_name":"住宅区","address":"高宝路379弄1-60号"},{"poiid":"B2094753D76BABF4449E","title":"上海歌城","lon":"121.613342","lat":"31.294324","category":"170","category_name":"KTV","address":"上海市 万嘉广场B1层"},{"poiid":"B2094751DA6AA6FD469E","title":"小四川水煮鱼","lon":"121.61332","lat":"31.289653","category":"247","category_name":"餐饮美食","address":"浦东新区双桥路1216号(近金高路)"},{"poiid":"B2094654DB65A3F94699","title":"锦江之星(俱进路店)","lon":"121.61092","lat":"31.30031","category":"216","category_name":"经济型连锁酒店","address":"浦东新区俱进路389号(近杨高北路)"},{"poiid":"B2094757D66DABFF4093","title":"高行馨苑","lon":"121.619040939","lat":"31.303043617","category":"47","category_name":"住宅区","address":"上海浦东新区万安街333弄"},{"poiid":"B209475CD068AAFB489C","title":"丰收日大酒店 东靖路店","lon":"121.611767","lat":"31.293488","category":"88","category_name":"海鲜酒楼","address":"东靖路1881号万嘉商业广场3楼"},{"poiid":"B2094757D56DA6F9409C","title":"新高苑三期南块","lon":"121.61737561225891","lat":"31.290745418547644","category":"47","category_name":"住宅区","address":"上海 上海市 高宝路68弄73#~111#"},{"poiid":"B2094655D36CA6FE459B","title":"高宝路高设路","lon":"121.62335","lat":"31.29005","category":"38","category_name":"公交车站","address":""},{"poiid":"B2094757D16CA7FA409E","title":"新发展物流","lon":"121.622367859","lat":"31.3018131256","category":"500","category_name":"未知分类","address":"上海英伦路300号"},{"poiid":"B2094654D568A6F54093","title":"东源名都(东门)","lon":"121.61643","lat":"31.28361","category":"656","category_name":"大门","address":"双桥路1139弄1-14号"},{"poiid":"B2094655D36DA0FD489B","title":"新行路万安街","lon":"121.61231","lat":"31.2964","category":"38","category_name":"公交车站","address":""},{"poiid":"B2094750D76DA3F9409B","title":"萨莉亚(万嘉广场店)","lon":"121.609","lat":"31.2929","category":"94","category_name":"西餐厅","address":"浦东新区东靖路1881号万嘉广场1楼第一食品商店内(近金高路)"},{"poiid":"B2094655D264A7F94198","title":"贝越高行馨苑四期","lon":"121.61281","lat":"31.29651","category":"47","category_name":"住宅区","address":"上海市浦东新区万安街路233号"},{"poiid":"B2094757D065A6FF459F","title":"上海近铁国际物流有限公司","lon":"121.62368933","lat":"31.305031062","category":"263","category_name":"公司","address":"上海市浦东新区澳尼路"},{"poiid":"B2094757D168ABF84893","title":"Tina's 、HOUSE","lon":"121.615122339","lat":"31.2980379018","category":"500","category_name":"未知分类","address":null},{"poiid":"B2094757D06FA7F5499A","title":"万嘉商业广场","lon":"121.616968","lat":"31.298423","category":"119","category_name":"商场","address":"浦东新区高行镇东靖路1881号(近金高路)"},{"poiid":"B2094757D064ABF4409C","title":"绿地崴廉公寓","lon":"121.61346587","lat":"31.290841159","category":"252","category_name":"楼宇机构","address":"浦东新区东靖路2250弄"},{"poiid":"B2094757D068A0FF4292","title":"沃尔玛购物广场(高行万嘉店)","lon":"121.6145773","lat":"31.2932941","category":"500","category_name":"未知分类","address":"浦东新区东靖路2011号万嘉商业广场2-3楼"},{"poiid":"B2094654DB65A4FB429B","title":"幸福小镇","lon":"121.60913","lat":"31.300512","category":"47","category_name":"住宅区","address":"俱进路285弄1-244号"},{"poiid":"B2094750DB69A2FD4799","title":"大地数字影院（万嘉店）","lon":"121.611305","lat":"31.293529","category":"178","category_name":"电影院","address":"东靖路1881号万嘉商业广场4层"},{"poiid":"B2094757D16DA7FD429B","title":"农屋里香","lon":"121.610447339","lat":"31.2922177679","category":"87","category_name":"特色／地方风味餐厅","address":"浦东新区高行镇东靖路1881号万嘉广场B102号"},{"poiid":"B2094757D06BABF9439F","title":"呷哺呷哺(高行万嘉店)","lon":"121.611506039","lat":"31.2927903811","category":"86","category_name":"火锅店","address":"浦东新区东靖路1881号2楼208-209商铺"},{"poiid":"B2094751D36AA3FA4398","title":"鲜芋仙(万嘉店)","lon":"121.61058","lat":"31.29329","category":"67","category_name":"甜品店","address":"浦东新区东靖路1881号万嘉商业广场1楼"},{"poiid":"B2094655D26FA0FC4292","title":"新高苑·兰园","lon":"121.62247","lat":"31.29098","category":"47","category_name":"住宅区","address":"高宝路379弄1-60号"},{"poiid":"B2094757D06FABFA4493","title":"绿地威廉公寓","lon":"121.618171692","lat":"31.2894210815","category":"47","category_name":"住宅区","address":"上海浦东新区东靖路2250弄"},{"poiid":"B2094750D76DAAF54298","title":"新石器烤肉(万嘉广场店)","lon":"121.609","lat":"31.2929","category":"68","category_name":"快餐厅","address":"浦东新区东靖路1881号高行万嘉广场207室"},{"poiid":"B2094750D665A0F44799","title":"必胜客(高行店)","lon":"121.61","lat":"31.2926","category":"94","category_name":"西餐厅","address":"浦东新区东靖路1881号万嘉广场1楼(近金高路)"},{"poiid":"B2094654D568A5FD409C","title":"高行家园","lon":"121.61419","lat":"31.295094","category":"47","category_name":"住宅区","address":"浦东新区行德路141弄(近金高路高行街)"},{"poiid":"B2094757D069A2F4489A","title":"金苹果学校","lon":"121.61986","lat":"31.28107","category":"253","category_name":"校园生活","address":"浦东新区巨峰路1555号"},{"poiid":"B2094654D568A5FD4793","title":"紫翠苑","lon":"121.61369","lat":"31.30155","category":"47","category_name":"住宅区","address":"俱进路505弄1-92号"},{"poiid":"B2094757D065A0FE4193","title":"味千拉面(高行万嘉店)","lon":"121.611838573","lat":"31.2928368822","category":"247","category_name":"餐饮美食","address":"上海市浦东新区东靖路1881号万嘉商业广场1F(金高路口)"},{"poiid":"B2094655D26FA7F94492","title":"新高苑·春园","lon":"121.61988","lat":"31.29208","category":"47","category_name":"住宅区","address":"高宝路229弄1-108"},{"poiid":"B2094757D069A2FB429B","title":"长江隧桥浦东入口","lon":"121.637017489","lat":"31.2972054077","category":"500","category_name":"未知分类","address":"上海长江隧桥"},{"poiid":"B2094752D76BA7FC409A","title":"上海永达奥迪旗舰店","lon":"121.622214","lat":"31.295884","category":"263","category_name":"公司","address":"上海浦东新区申江路288号"},{"poiid":"B2094757D16DA1FE449D","title":"农业银行数据中心","lon":"121.61064133","lat":"31.305083063","category":"500","category_name":"未知分类","address":"上海市浦东新区澳尼路88号"},{"poiid":"B2094757D16BA1FF489A","title":"永和大王","lon":"121.611448439","lat":"31.2927942812","category":"68","category_name":"快餐厅","address":"浦东新区东靖路1881号万嘉商业广场1楼(近新行路)"},{"poiid":"B2094654D568A5FC429C","title":"上海市高行中学","lon":"121.60939","lat":"31.28935","category":"55","category_name":"中学","address":"行泰路210"},{"poiid":"B2094757D76AA6FE489A","title":"肯德基 高行店 KFC","lon":"121.609923","lat":"31.293041","category":"68","category_name":"快餐厅","address":"浦东新区东靖路2011号万嘉商业广场1楼(近新行路)"},{"poiid":"B2094757D064A4F5489F","title":"新高苑一期","lon":"121.621312339","lat":"31.2933767946","category":"47","category_name":"住宅区","address":"上海市浦东新区高建路"},{"poiid":"B2094750DA6EA3F54998","title":"大地数字影院","lon":"121.619758","lat":"31.302953","category":"178","category_name":"电影院","address":"万嘉"},{"poiid":"B2094757D068A2FD4898","title":"高行新苑","lon":"121.61402","lat":"31.296251","category":"47","category_name":"住宅区","address":"上海浦东新区万安街333号"},{"poiid":"B2094757D16DA3FD449B","title":"金港湾餐饮","lon":"121.61900329","lat":"31.293199539","category":"260","category_name":"其他","address":"浦东新区高建路1号(近东靖路)"},{"poiid":"B2094654DB6BA1FF409A","title":"新高苑·春园(西门)","lon":"121.61878","lat":"31.29228","category":"47","category_name":"住宅区","address":"高宝路229弄1-108"},{"poiid":"B2094757D069AAFF4298","title":"证大家园四期","lon":"121.627","lat":"31.2857","category":"47","category_name":"住宅区","address":"上海浦东新区五莲路1769弄"},{"poiid":"B2094750D76DA7FE419A","title":"宝寿司(高行店)","lon":"121.611","lat":"31.293","category":"95","category_name":"日本料理","address":"浦东新区东靖路2011号万嘉商业广场1楼第一食品内"},{"poiid":"B2094654D568A5FC459F","title":"华高小学东靖路校区","lon":"121.61766","lat":"31.29274","category":"56","category_name":"小学","address":"浦东新区高建路40号(东靖路高建路)"},{"poiid":"B2094655D36DA0F9449B","title":"杨园镇","lon":"121.63108","lat":"31.30388","category":"38","category_name":"公交车站","address":""},{"poiid":"B2094654D568A5FC4393","title":"上海奇萍汽车维修美容服务中心","lon":"121.62087","lat":"31.29355","category":"159","category_name":"汽车维修","address":"浦东新区东靖路2606-2610号(东靖路金京路)"},{"poiid":"B2094757D06AA4FC459E","title":"五洲大道申江路","lon":"121.614617","lat":"31.30362","category":"500","category_name":"未知分类","address":"上海五洲大道申江路"},{"poiid":"B2094654D568A5FD429C","title":"缘缘酒楼","lon":"121.60816","lat":"31.29501","category":"76","category_name":"上海菜","address":"浦东新区高行镇万安街265号"},{"poiid":"B2094654D568A5FC439A","title":"新高苑·兰园(南门)","lon":"121.62345","lat":"31.2902","category":"47","category_name":"住宅区","address":"高宝路379弄1-60号"},{"poiid":"B2094753D76BABF4449E","title":"上海歌城","lon":"121.613342","lat":"31.294324","category":"170","category_name":"KTV","address":"上海市 万嘉广场B1层"},{"poiid":"B2094751DA6AA6FD469E","title":"小四川水煮鱼","lon":"121.61332","lat":"31.289653","category":"247","category_name":"餐饮美食","address":"浦东新区双桥路1216号(近金高路)"},{"poiid":"B2094654DB65A3F94699","title":"锦江之星(俱进路店)","lon":"121.61092","lat":"31.30031","category":"216","category_name":"经济型连锁酒店","address":"浦东新区俱进路389号(近杨高北路)"},{"poiid":"B2094757D66DABFF4093","title":"高行馨苑","lon":"121.619040939","lat":"31.303043617","category":"47","category_name":"住宅区","address":"上海浦东新区万安街333弄"},{"poiid":"B209475CD068AAFB489C","title":"丰收日大酒店 东靖路店","lon":"121.611767","lat":"31.293488","category":"88","category_name":"海鲜酒楼","address":"东靖路1881号万嘉商业广场3楼"},{"poiid":"B2094757D56DA6F9409C","title":"新高苑三期南块","lon":"121.61737561225891","lat":"31.290745418547644","category":"47","category_name":"住宅区","address":"上海 上海市 高宝路68弄73#~111#"},{"poiid":"B2094655D36CA6FE459B","title":"高宝路高设路","lon":"121.62335","lat":"31.29005","category":"38","category_name":"公交车站","address":""},{"poiid":"B2094757D16CA7FA409E","title":"新发展物流","lon":"121.622367859","lat":"31.3018131256","category":"500","category_name":"未知分类","address":"上海英伦路300号"},{"poiid":"B2094654D568A6F54093","title":"东源名都(东门)","lon":"121.61643","lat":"31.28361","category":"656","category_name":"大门","address":"双桥路1139弄1-14号"},{"poiid":"B2094655D36DA0FD489B","title":"新行路万安街","lon":"121.61231","lat":"31.2964","category":"38","category_name":"公交车站","address":""},{"poiid":"B2094750D76DA3F9409B","title":"萨莉亚(万嘉广场店)","lon":"121.609","lat":"31.2929","category":"94","category_name":"西餐厅","address":"浦东新区东靖路1881号万嘉广场1楼第一食品商店内(近金高路)"},{"poiid":"B2094655D264A7F94198","title":"贝越高行馨苑四期","lon":"121.61281","lat":"31.29651","category":"47","category_name":"住宅区","address":"上海市浦东新区万安街路233号"},{"poiid":"B2094757D065A6FF459F","title":"上海近铁国际物流有限公司","lon":"121.62368933","lat":"31.305031062","category":"263","category_name":"公司","address":"上海市浦东新区澳尼路"},{"poiid":"B2094757D168ABF84893","title":"Tina's 、HOUSE","lon":"121.615122339","lat":"31.2980379018","category":"500","category_name":"未知分类","address":null},{"poiid":"B2094757D06FA7F5499A","title":"万嘉商业广场","lon":"121.616968","lat":"31.298423","category":"119","category_name":"商场","address":"浦东新区高行镇东靖路1881号(近金高路)"},{"poiid":"B2094757D064ABF4409C","title":"绿地崴廉公寓","lon":"121.61346587","lat":"31.290841159","category":"252","category_name":"楼宇机构","address":"浦东新区东靖路2250弄"},{"poiid":"B2094757D068A0FF4292","title":"沃尔玛购物广场(高行万嘉店)","lon":"121.6145773","lat":"31.2932941","category":"500","category_name":"未知分类","address":"浦东新区东靖路2011号万嘉商业广场2-3楼"},{"poiid":"B2094654DB65A4FB429B","title":"幸福小镇","lon":"121.60913","lat":"31.300512","category":"47","category_name":"住宅区","address":"俱进路285弄1-244号"},{"poiid":"B2094750DB69A2FD4799","title":"大地数字影院（万嘉店）","lon":"121.611305","lat":"31.293529","category":"178","category_name":"电影院","address":"东靖路1881号万嘉商业广场4层"},{"poiid":"B2094757D16DA7FD429B","title":"农屋里香","lon":"121.610447339","lat":"31.2922177679","category":"87","category_name":"特色／地方风味餐厅","address":"浦东新区高行镇东靖路1881号万嘉广场B102号"},{"poiid":"B2094757D06BABF9439F","title":"呷哺呷哺(高行万嘉店)","lon":"121.611506039","lat":"31.2927903811","category":"86","category_name":"火锅店","address":"浦东新区东靖路1881号2楼208-209商铺"},{"poiid":"B2094751D36AA3FA4398","title":"鲜芋仙(万嘉店)","lon":"121.61058","lat":"31.29329","category":"67","category_name":"甜品店","address":"浦东新区东靖路1881号万嘉商业广场1楼"},{"poiid":"B2094655D26FA0FC4292","title":"新高苑·兰园","lon":"121.62247","lat":"31.29098","category":"47","category_name":"住宅区","address":"高宝路379弄1-60号"},{"poiid":"B2094757D06FABFA4493","title":"绿地威廉公寓","lon":"121.618171692","lat":"31.2894210815","category":"47","category_name":"住宅区","address":"上海浦东新区东靖路2250弄"},{"poiid":"B2094750D76DAAF54298","title":"新石器烤肉(万嘉广场店)","lon":"121.609","lat":"31.2929","category":"68","category_name":"快餐厅","address":"浦东新区东靖路1881号高行万嘉广场207室"},{"poiid":"B2094750D665A0F44799","title":"必胜客(高行店)","lon":"121.61","lat":"31.2926","category":"94","category_name":"西餐厅","address":"浦东新区东靖路1881号万嘉广场1楼(近金高路)"},{"poiid":"B2094654D568A5FD409C","title":"高行家园","lon":"121.61419","lat":"31.295094","category":"47","category_name":"住宅区","address":"浦东新区行德路141弄(近金高路高行街)"},{"poiid":"B2094757D069A2F4489A","title":"金苹果学校","lon":"121.61986","lat":"31.28107","category":"253","category_name":"校园生活","address":"浦东新区巨峰路1555号"},{"poiid":"B2094654D568A5FD4793","title":"紫翠苑","lon":"121.61369","lat":"31.30155","category":"47","category_name":"住宅区","address":"俱进路505弄1-92号"},{"poiid":"B2094757D065A0FE4193","title":"味千拉面(高行万嘉店)","lon":"121.611838573","lat":"31.2928368822","category":"247","category_name":"餐饮美食","address":"上海市浦东新区东靖路1881号万嘉商业广场1F(金高路口)"},{"poiid":"B2094655D26FA7F94492","title":"新高苑·春园","lon":"121.61988","lat":"31.29208","category":"47","category_name":"住宅区","address":"高宝路229弄1-108"},{"poiid":"B2094757D069A2FB429B","title":"长江隧桥浦东入口","lon":"121.637017489","lat":"31.2972054077","category":"500","category_name":"未知分类","address":"上海长江隧桥"},{"poiid":"B2094752D76BA7FC409A","title":"上海永达奥迪旗舰店","lon":"121.622214","lat":"31.295884","category":"263","category_name":"公司","address":"上海浦东新区申江路288号"},{"poiid":"B2094757D16DA1FE449D","title":"农业银行数据中心","lon":"121.61064133","lat":"31.305083063","category":"500","category_name":"未知分类","address":"上海市浦东新区澳尼路88号"},{"poiid":"B2094757D16BA1FF489A","title":"永和大王","lon":"121.611448439","lat":"31.2927942812","category":"68","category_name":"快餐厅","address":"浦东新区东靖路1881号万嘉商业广场1楼(近新行路)"},{"poiid":"B2094654D568A5FC429C","title":"上海市高行中学","lon":"121.60939","lat":"31.28935","category":"55","category_name":"中学","address":"行泰路210"},{"poiid":"B2094757D76AA6FE489A","title":"肯德基 高行店 KFC","lon":"121.609923","lat":"31.293041","category":"68","category_name":"快餐厅","address":"浦东新区东靖路2011号万嘉商业广场1楼(近新行路)"},{"poiid":"B2094757D064A4F5489F","title":"新高苑一期","lon":"121.621312339","lat":"31.2933767946","category":"47","category_name":"住宅区","address":"上海市浦东新区高建路"},{"poiid":"B2094750DA6EA3F54998","title":"大地数字影院","lon":"121.619758","lat":"31.302953","category":"178","category_name":"电影院","address":"万嘉"},{"poiid":"B2094757D068A2FD4898","title":"高行新苑","lon":"121.61402","lat":"31.296251","category":"47","category_name":"住宅区","address":"上海浦东新区万安街333号"},{"poiid":"B2094757D16DA3FD449B","title":"金港湾餐饮","lon":"121.61900329","lat":"31.293199539","category":"260","category_name":"其他","address":"浦东新区高建路1号(近东靖路)"},{"poiid":"B2094654DB6BA1FF409A","title":"新高苑·春园(西门)","lon":"121.61878","lat":"31.29228","category":"47","category_name":"住宅区","address":"高宝路229弄1-108"},{"poiid":"B2094757D069AAFF4298","title":"证大家园四期","lon":"121.627","lat":"31.2857","category":"47","category_name":"住宅区","address":"上海浦东新区五莲路1769弄"},{"poiid":"B2094750D76DA7FE419A","title":"宝寿司(高行店)","lon":"121.611","lat":"31.293","category":"95","category_name":"日本料理","address":"浦东新区东靖路2011号万嘉商业广场1楼第一食品内"},{"poiid":"B2094654D568A5FC459F","title":"华高小学东靖路校区","lon":"121.61766","lat":"31.29274","category":"56","category_name":"小学","address":"浦东新区高建路40号(东靖路高建路)"},{"poiid":"B2094655D36DA0F9449B","title":"杨园镇","lon":"121.63108","lat":"31.30388","category":"38","category_name":"公交车站","address":""},{"poiid":"B2094654D568A5FC4393","title":"上海奇萍汽车维修美容服务中心","lon":"121.62087","lat":"31.29355","category":"159","category_name":"汽车维修","address":"浦东新区东靖路2606-2610号(东靖路金京路)"},{"poiid":"B2094757D06AA4FC459E","title":"五洲大道申江路","lon":"121.614617","lat":"31.30362","category":"500","category_name":"未知分类","address":"上海五洲大道申江路"},{"poiid":"B2094654D568A5FD429C","title":"缘缘酒楼","lon":"121.60816","lat":"31.29501","category":"76","category_name":"上海菜","address":"浦东新区高行镇万安街265号"},{"poiid":"B2094654D568A5FC439A","title":"新高苑·兰园(南门)","lon":"121.62345","lat":"31.2902","category":"47","category_name":"住宅区","address":"高宝路379弄1-60号"},{"poiid":"B2094753D76BABF4449E","title":"上海歌城","lon":"121.613342","lat":"31.294324","category":"170","category_name":"KTV","address":"上海市 万嘉广场B1层"},{"poiid":"B2094751DA6AA6FD469E","title":"小四川水煮鱼","lon":"121.61332","lat":"31.289653","category":"247","category_name":"餐饮美食","address":"浦东新区双桥路1216号(近金高路)"},{"poiid":"B2094654DB65A3F94699","title":"锦江之星(俱进路店)","lon":"121.61092","lat":"31.30031","category":"216","category_name":"经济型连锁酒店","address":"浦东新区俱进路389号(近杨高北路)"},{"poiid":"B2094757D66DABFF4093","title":"高行馨苑","lon":"121.619040939","lat":"31.303043617","category":"47","category_name":"住宅区","address":"上海浦东新区万安街333弄"},{"poiid":"B209475CD068AAFB489C","title":"丰收日大酒店 东靖路店","lon":"121.611767","lat":"31.293488","category":"88","category_name":"海鲜酒楼","address":"东靖路1881号万嘉商业广场3楼"},{"poiid":"B2094757D56DA6F9409C","title":"新高苑三期南块","lon":"121.61737561225891","lat":"31.290745418547644","category":"47","category_name":"住宅区","address":"上海 上海市 高宝路68弄73#~111#"},{"poiid":"B2094655D36CA6FE459B","title":"高宝路高设路","lon":"121.62335","lat":"31.29005","category":"38","category_name":"公交车站","address":""},{"poiid":"B2094757D16CA7FA409E","title":"新发展物流","lon":"121.622367859","lat":"31.3018131256","category":"500","category_name":"未知分类","address":"上海英伦路300号"},{"poiid":"B2094654D568A6F54093","title":"东源名都(东门)","lon":"121.61643","lat":"31.28361","category":"656","category_name":"大门","address":"双桥路1139弄1-14号"},{"poiid":"B2094655D36DA0FD489B","title":"新行路万安街","lon":"121.61231","lat":"31.2964","category":"38","category_name":"公交车站","address":""},{"poiid":"B2094750D76DA3F9409B","title":"萨莉亚(万嘉广场店)","lon":"121.609","lat":"31.2929","category":"94","category_name":"西餐厅","address":"浦东新区东靖路1881号万嘉广场1楼第一食品商店内(近金高路)"},{"poiid":"B2094655D264A7F94198","title":"贝越高行馨苑四期","lon":"121.61281","lat":"31.29651","category":"47","category_name":"住宅区","address":"上海市浦东新区万安街路233号"},{"poiid":"B2094757D065A6FF459F","title":"上海近铁国际物流有限公司","lon":"121.62368933","lat":"31.305031062","category":"263","category_name":"公司","address":"上海市浦东新区澳尼路"},{"poiid":"B2094757D168ABF84893","title":"Tina's 、HOUSE","lon":"121.615122339","lat":"31.2980379018","category":"500","category_name":"未知分类","address":null},{"poiid":"B2094757D06FA7F5499A","title":"万嘉商业广场","lon":"121.616968","lat":"31.298423","category":"119","category_name":"商场","address":"浦东新区高行镇东靖路1881号(近金高路)"},{"poiid":"B2094757D064ABF4409C","title":"绿地崴廉公寓","lon":"121.61346587","lat":"31.290841159","category":"252","category_name":"楼宇机构","address":"浦东新区东靖路2250弄"},{"poiid":"B2094757D068A0FF4292","title":"沃尔玛购物广场(高行万嘉店)","lon":"121.6145773","lat":"31.2932941","category":"500","category_name":"未知分类","address":"浦东新区东靖路2011号万嘉商业广场2-3楼"},{"poiid":"B2094654DB65A4FB429B","title":"幸福小镇","lon":"121.60913","lat":"31.300512","category":"47","category_name":"住宅区","address":"俱进路285弄1-244号"},{"poiid":"B2094750DB69A2FD4799","title":"大地数字影院（万嘉店）","lon":"121.611305","lat":"31.293529","category":"178","category_name":"电影院","address":"东靖路1881号万嘉商业广场4层"},{"poiid":"B2094757D16DA7FD429B","title":"农屋里香","lon":"121.610447339","lat":"31.2922177679","category":"87","category_name":"特色／地方风味餐厅","address":"浦东新区高行镇东靖路1881号万嘉广场B102号"},{"poiid":"B2094757D06BABF9439F","title":"呷哺呷哺(高行万嘉店)","lon":"121.611506039","lat":"31.2927903811","category":"86","category_name":"火锅店","address":"浦东新区东靖路1881号2楼208-209商铺"},{"poiid":"B2094751D36AA3FA4398","title":"鲜芋仙(万嘉店)","lon":"121.61058","lat":"31.29329","category":"67","category_name":"甜品店","address":"浦东新区东靖路1881号万嘉商业广场1楼"},{"poiid":"B2094655D26FA0FC4292","title":"新高苑·兰园","lon":"121.62247","lat":"31.29098","category":"47","category_name":"住宅区","address":"高宝路379弄1-60号"},{"poiid":"B2094757D06FABFA4493","title":"绿地威廉公寓","lon":"121.618171692","lat":"31.2894210815","category":"47","category_name":"住宅区","address":"上海浦东新区东靖路2250弄"},{"poiid":"B2094750D76DAAF54298","title":"新石器烤肉(万嘉广场店)","lon":"121.609","lat":"31.2929","category":"68","category_name":"快餐厅","address":"浦东新区东靖路1881号高行万嘉广场207室"},{"poiid":"B2094750D665A0F44799","title":"必胜客(高行店)","lon":"121.61","lat":"31.2926","category":"94","category_name":"西餐厅","address":"浦东新区东靖路1881号万嘉广场1楼(近金高路)"},{"poiid":"B2094654D568A5FD409C","title":"高行家园","lon":"121.61419","lat":"31.295094","category":"47","category_name":"住宅区","address":"浦东新区行德路141弄(近金高路高行街)"},{"poiid":"B2094757D069A2F4489A","title":"金苹果学校","lon":"121.61986","lat":"31.28107","category":"253","category_name":"校园生活","address":"浦东新区巨峰路1555号"},{"poiid":"B2094654D568A5FD4793","title":"紫翠苑","lon":"121.61369","lat":"31.30155","category":"47","category_name":"住宅区","address":"俱进路505弄1-92号"},{"poiid":"B2094757D065A0FE4193","title":"味千拉面(高行万嘉店)","lon":"121.611838573","lat":"31.2928368822","category":"247","category_name":"餐饮美食","address":"上海市浦东新区东靖路1881号万嘉商业广场1F(金高路口)"},{"poiid":"B2094655D26FA7F94492","title":"新高苑·春园","lon":"121.61988","lat":"31.29208","category":"47","category_name":"住宅区","address":"高宝路229弄1-108"},{"poiid":"B2094757D069A2FB429B","title":"长江隧桥浦东入口","lon":"121.637017489","lat":"31.2972054077","category":"500","category_name":"未知分类","address":"上海长江隧桥"},{"poiid":"B2094752D76BA7FC409A","title":"上海永达奥迪旗舰店","lon":"121.622214","lat":"31.295884","category":"263","category_name":"公司","address":"上海浦东新区申江路288号"},{"poiid":"B2094757D16DA1FE449D","title":"农业银行数据中心","lon":"121.61064133","lat":"31.305083063","category":"500","category_name":"未知分类","address":"上海市浦东新区澳尼路88号"},{"poiid":"B2094757D16BA1FF489A","title":"永和大王","lon":"121.611448439","lat":"31.2927942812","category":"68","category_name":"快餐厅","address":"浦东新区东靖路1881号万嘉商业广场1楼(近新行路)"},{"poiid":"B2094654D568A5FC429C","title":"上海市高行中学","lon":"121.60939","lat":"31.28935","category":"55","category_name":"中学","address":"行泰路210"},{"poiid":"B2094757D76AA6FE489A","title":"肯德基 高行店 KFC","lon":"121.609923","lat":"31.293041","category":"68","category_name":"快餐厅","address":"浦东新区东靖路2011号万嘉商业广场1楼(近新行路)"},{"poiid":"B2094757D064A4F5489F","title":"新高苑一期","lon":"121.621312339","lat":"31.2933767946","category":"47","category_name":"住宅区","address":"上海市浦东新区高建路"},{"poiid":"B2094750DA6EA3F54998","title":"大地数字影院","lon":"121.619758","lat":"31.302953","category":"178","category_name":"电影院","address":"万嘉"},{"poiid":"B2094757D068A2FD4898","title":"高行新苑","lon":"121.61402","lat":"31.296251","category":"47","category_name":"住宅区","address":"上海浦东新区万安街333号"},{"poiid":"B2094757D16DA3FD449B","title":"金港湾餐饮","lon":"121.61900329","lat":"31.293199539","category":"260","category_name":"其他","address":"浦东新区高建路1号(近东靖路)"},{"poiid":"B2094654DB6BA1FF409A","title":"新高苑·春园(西门)","lon":"121.61878","lat":"31.29228","category":"47","category_name":"住宅区","address":"高宝路229弄1-108"},{"poiid":"B2094757D069AAFF4298","title":"证大家园四期","lon":"121.627","lat":"31.2857","category":"47","category_name":"住宅区","address":"上海浦东新区五莲路1769弄"},{"poiid":"B2094750D76DA7FE419A","title":"宝寿司(高行店)","lon":"121.611","lat":"31.293","category":"95","category_name":"日本料理","address":"浦东新区东靖路2011号万嘉商业广场1楼第一食品内"},{"poiid":"B2094654D568A5FC459F","title":"华高小学东靖路校区","lon":"121.61766","lat":"31.29274","category":"56","category_name":"小学","address":"浦东新区高建路40号(东靖路高建路)"},{"poiid":"B2094655D36DA0F9449B","title":"杨园镇","lon":"121.63108","lat":"31.30388","category":"38","category_name":"公交车站","address":""},{"poiid":"B2094654D568A5FC4393","title":"上海奇萍汽车维修美容服务中心","lon":"121.62087","lat":"31.29355","category":"159","category_name":"汽车维修","address":"浦东新区东靖路2606-2610号(东靖路金京路)"},{"poiid":"B2094757D06AA4FC459E","title":"五洲大道申江路","lon":"121.614617","lat":"31.30362","category":"500","category_name":"未知分类","address":"上海五洲大道申江路"},{"poiid":"B2094654D568A5FD429C","title":"缘缘酒楼","lon":"121.60816","lat":"31.29501","category":"76","category_name":"上海菜","address":"浦东新区高行镇万安街265号"},{"poiid":"B2094654D568A5FC439A","title":"新高苑·兰园(南门)","lon":"121.62345","lat":"31.2902","category":"47","category_name":"住宅区","address":"高宝路379弄1-60号"},{"poiid":"B2094753D76BABF4449E","title":"上海歌城","lon":"121.613342","lat":"31.294324","category":"170","category_name":"KTV","address":"上海市 万嘉广场B1层"},{"poiid":"B2094751DA6AA6FD469E","title":"小四川水煮鱼","lon":"121.61332","lat":"31.289653","category":"247","category_name":"餐饮美食","address":"浦东新区双桥路1216号(近金高路)"},{"poiid":"B2094654DB65A3F94699","title":"锦江之星(俱进路店)","lon":"121.61092","lat":"31.30031","category":"216","category_name":"经济型连锁酒店","address":"浦东新区俱进路389号(近杨高北路)"},{"poiid":"B2094757D66DABFF4093","title":"高行馨苑","lon":"121.619040939","lat":"31.303043617","category":"47","category_name":"住宅区","address":"上海浦东新区万安街333弄"},{"poiid":"B209475CD068AAFB489C","title":"丰收日大酒店 东靖路店","lon":"121.611767","lat":"31.293488","category":"88","category_name":"海鲜酒楼","address":"东靖路1881号万嘉商业广场3楼"},{"poiid":"B2094757D56DA6F9409C","title":"新高苑三期南块","lon":"121.61737561225891","lat":"31.290745418547644","category":"47","category_name":"住宅区","address":"上海 上海市 高宝路68弄73#~111#"},{"poiid":"B2094655D36CA6FE459B","title":"高宝路高设路","lon":"121.62335","lat":"31.29005","category":"38","category_name":"公交车站","address":""},{"poiid":"B2094757D16CA7FA409E","title":"新发展物流","lon":"121.622367859","lat":"31.3018131256","category":"500","category_name":"未知分类","address":"上海英伦路300号"},{"poiid":"B2094654D568A6F54093","title":"东源名都(东门)","lon":"121.61643","lat":"31.28361","category":"656","category_name":"大门","address":"双桥路1139弄1-14号"},{"poiid":"B2094655D36DA0FD489B","title":"新行路万安街","lon":"121.61231","lat":"31.2964","category":"38","category_name":"公交车站","address":""},{"poiid":"B2094750D76DA3F9409B","title":"萨莉亚(万嘉广场店)","lon":"121.609","lat":"31.2929","category":"94","category_name":"西餐厅","address":"浦东新区东靖路1881号万嘉广场1楼第一食品商店内(近金高路)"},{"poiid":"B2094655D264A7F94198","title":"贝越高行馨苑四期","lon":"121.61281","lat":"31.29651","category":"47","category_name":"住宅区","address":"上海市浦东新区万安街路233号"},{"poiid":"B2094757D065A6FF459F","title":"上海近铁国际物流有限公司","lon":"121.62368933","lat":"31.305031062","category":"263","category_name":"公司","address":"上海市浦东新区澳尼路"},{"poiid":"B2094757D168ABF84893","title":"Tina's 、HOUSE","lon":"121.615122339","lat":"31.2980379018","category":"500","category_name":"未知分类","address":null}]