[{"poiid":"B2094655D36DA1F4459C","title":"仙霞路水城路","lon":"121.38987","lat":"31.20596","category":"38","category_name":"公交车站","address":""},{"poiid":"B2094655D269AAFB429B","title":"虹桥迎宾馆宴会厅","lon":"121.39425","lat":"31.20254","category":"76","category_name":"上海菜","address":"长宁区虹桥路1591号虹桥迎宾馆内(近地铁10号线水城路站)"},{"poiid":"B2094655D26EA2FD419F","title":"香港点心皇 仙霞路店","lon":"121.39491271973","lat":"31.205955505371","category":"257","category_name":"中餐厅","address":"长宁区仙霞路413号(近芙蓉江路)"},{"poiid":"B2094757D068A2F9489F","title":"元利香辣蟹 仙霞店","lon":"121.3897902126","lat":"31.205741553014","category":"71","category_name":"四川菜","address":"长宁区仙霞路600号(近水城路)"},{"poiid":"B2094757D068A6F4459E","title":"必爱歌(仙霞路店)","lon":"121.39035","lat":"31.20545","category":"170","category_name":"KTV","address":"长宁区仙霞路602号3楼(近水城路)"},{"poiid":"B2094654D56BA6FB409E","title":"上海电视大学长宁分校(水城路)","lon":"121.39194","lat":"31.20327","category":"671","category_name":"高校中心点","address":"长宁区水城路68"},{"poiid":"B2094654DB64A6FB459E","title":"云峰宾馆","lon":"121.39305","lat":"31.20114","category":"215","category_name":"三星级宾馆","address":"长宁区虹桥路1665号洛城广场内(近水城路)"},{"poiid":"B2094757D068A1FF4492","title":"85度C(仙霞店)","lon":"121.393279","lat":"31.205953","category":"112","category_name":"糕饼店","address":"长宁区仙霞路449号(近芙蓉江路)"},{"poiid":"B2094654DB65A6FA489E","title":"上海虹桥迎宾馆(北门)","lon":"121.39443","lat":"31.20372","category":"656","category_name":"大门","address":"上海市长宁区虹桥路1591号"},{"poiid":"B2094654D56AAAFE499F","title":"仙逸小区","lon":"121.39288","lat":"31.206806","category":"47","category_name":"住宅区","address":"上海市长宁区水城路386,388弄"},{"poiid":"B2094757D069A5F8479A","title":"长宁区业余大学(水城路校区)","lon":"121.391933","lat":"31.203264","category":"500","category_name":"未知分类","address":"上海虹古路321号"},{"poiid":"B2094757D068AAFE479B","title":"巴贝隆自助烧烤","lon":"121.39044758","lat":"31.205870954","category":"247","category_name":"餐饮美食","address":"上海市长宁区仙霞路"},{"poiid":"B2094654D56BA6FA4398","title":"洛城时尚广场","lon":"121.39274","lat":"31.20081","category":"46","category_name":"楼宇","address":"仙霞新村"},{"poiid":"B2094655D26DA7FE4998","title":"西郊公寓酒店","lon":"121.393","lat":"31.2025","category":"214","category_name":"四星级宾馆","address":"长宁区虹许路1151号(虹桥路口)"},{"poiid":"B2094757D06AA5FC419B","title":"金枪鱼日本料理 和平广场店","lon":"121.3920722","lat":"31.2008584","category":"95","category_name":"日本料理","address":"水城路20号和平广场2楼近虹桥路"},{"poiid":"B2094757D16DAAFB4992","title":"湘味小厨","lon":"121.38898","lat":"31.20365","category":"77","category_name":"湖南菜","address":"长宁区虹古路379号(近水城路)"},{"poiid":"B2094654D56AAAFF4099","title":"华德饭店 仙霞店","lon":"121.39410427087","lat":"31.206185147708","category":"76","category_name":"上海菜","address":"长宁区仙霞路431号(近芙蓉江路)"},{"poiid":"B2094757D065A0F5489E","title":"水城路烧烤摊","lon":"121.39154","lat":"31.20311","category":"68","category_name":"快餐厅","address":"长宁区水城路67号鸿顺兴苏式面馆旁(近虹古路)"},{"poiid":"B2094655D26FA7F84392","title":"西郊宾馆花园别墅","lon":"121.39067","lat":"31.20269","category":"47","category_name":"住宅区","address":"虹桥路1919号"},{"poiid":"B2094655D36CA3FA479C","title":"上海市长宁区业余大学(北门)","lon":"121.39186","lat":"31.20369","category":"52","category_name":"高等院校","address":"虹古路321"},{"poiid":"B2094655D26BA3FD429F","title":"鸟安 虹桥店 鳥やす","lon":"121.392335054","lat":"31.200123793","category":"247","category_name":"餐饮美食","address":"水城路20号和平广场1楼虹桥路口"},{"poiid":"B2094757D464A6FE4399","title":"鸿顺兴苏式面馆","lon":"121.39117213557","lat":"31.202998005188","category":"68","category_name":"快餐厅","address":"长宁区水城路67号(近虹古路)"},{"poiid":"B2094750D769A3FB479D","title":"桃太郎","lon":"121.391","lat":"31.2061","category":"95","category_name":"日本料理","address":"长宁区仙霞路491号(近水城路)"},{"poiid":"B2094655D26EA1FE479B","title":"云峰宾馆餐厅","lon":"121.39368089569","lat":"31.200359007398","category":"247","category_name":"餐饮美食","address":"虹桥路1665号云峰宾馆3楼近水城路"},{"poiid":"B2094654D56BA6FA469E","title":"盛贺美","lon":"121.39264","lat":"31.20117","category":"95","category_name":"日本料理","address":"长宁区延安西路2088号嘉顿广场"},{"poiid":"B2094654D56BA6FB439C","title":"虹景小区","lon":"121.39296","lat":"31.204443","category":"47","category_name":"住宅区","address":"虹古路208弄1-32号"},{"poiid":"B2094750D66BA1FB439B","title":"dili寿司","lon":"121.391006","lat":"31.202692","category":"95","category_name":"日本料理","address":"长宁区水城路47弄1号(近虹古路)"},{"poiid":"B2094750D268A0F84399","title":"味乐","lon":"121.392396","lat":"31.201227","category":"95","category_name":"日本料理","address":"长宁区水城路20号洛城广场2楼(近虹桥路)"},{"poiid":"B2094750D36BA4FD4692","title":"周洁艺校","lon":"121.39169","lat":"31.20313","category":"54","category_name":"职业技术学校","address":"上海市长宁区业余大学"},{"poiid":"B2094654D56BA6F5409C","title":"月亮房","lon":"121.3938","lat":"31.20561","category":"68","category_name":"快餐厅","address":"长宁区仙霞路432号(近芙蓉江路)"},{"poiid":"B2094654D56BA6FB419B","title":"上海飞尔航空乘务进修学校","lon":"121.39193","lat":"31.20326","category":"53","category_name":"成人教育","address":"水城路68"},{"poiid":"B2094654D56BA6FB439E","title":"虹古小区","lon":"121.39272","lat":"31.203291","category":"47","category_name":"住宅区","address":"虹古路261弄6-26号"},{"poiid":"B2094654D56BA6FE4792","title":"华必和 虹古店","lon":"121.390699054","lat":"31.203606793","category":"68","category_name":"快餐厅","address":"长宁区虹古路335号(近水城路)"},{"poiid":"B2094655D36DA1F44593","title":"仙霞路芙蓉江路","lon":"121.39427","lat":"31.20582","category":"38","category_name":"公交车站","address":""},{"poiid":"B2094757D069ABFC439E","title":"汤正饭香","lon":"121.387882","lat":"31.206007","category":"72","category_name":"广东菜","address":"长宁区仙霞路636号"},{"poiid":"B2094654D56BA6F54399","title":"虹城公寓","lon":"121.3923","lat":"31.205038","category":"47","category_name":"住宅区","address":"仙霞路470弄1-24号"},{"poiid":"B2094655D36CA1FE489A","title":"水城路仙霞路","lon":"121.39111","lat":"31.20463","category":"38","category_name":"公交车站","address":""},{"poiid":"B2094654D56BA6FA489D","title":"景苑小区(西门)","lon":"121.39191","lat":"31.20197","category":"47","category_name":"住宅区","address":"水城路40弄1-25号"},{"poiid":"B2094655D36CA1FE479F","title":"水城路","lon":"121.39081","lat":"31.20642","category":"38","category_name":"公交车站","address":""},{"poiid":"B2094654DB65A5F9409F","title":"河村 KAWAMURA","lon":"121.39507696031","lat":"31.204940887232","category":"95","category_name":"日本料理","address":"长宁区芙蓉江路36号2楼(近虹古路)"},{"poiid":"B2094750D56FABF4489B","title":"巴贝隆自助烤肉(水城路店)","lon":"121.391","lat":"31.206","category":"96","category_name":"韩国料理","address":"长宁区水城路367号(近仙霞路)"},{"poiid":"B2094654D56BA6FB4192","title":"克丽缇娜(虹古路)","lon":"121.39199","lat":"31.20392","category":"148","category_name":"美容美发店","address":"长宁区虹古路314号(近水城路)"},{"poiid":"B2094757D06BA3FA429E","title":"88火锅","lon":"121.39305","lat":"31.20114","category":"95","category_name":"日本料理","address":"长宁区虹桥路1665号洛城广场2楼(近水城路)"},{"poiid":"B2094757D469A7F8459E","title":"牛奶棚 仙霞路店","lon":"121.391910054","lat":"31.205837793","category":"67","category_name":"甜品店","address":"长宁区仙霞路628号(近水城路)"},{"poiid":"B2094757D168A2F94098","title":"妯娌老鸭粉丝 水城路","lon":"121.390921054","lat":"31.207156793","category":"68","category_name":"快餐厅","address":"长宁区水城路372号(近仙霞路)"},{"poiid":"B2094654D56BA6FA459D","title":"和平广场","lon":"121.39238","lat":"31.20122","category":"46","category_name":"楼宇","address":"水城路"},{"poiid":"B2094655D26EA4FB429C","title":"山城烤鱼故事","lon":"121.39113593056","lat":"31.203965886234","category":"87","category_name":"特色／地方风味餐厅","address":"虹古路330号近水城路"},{"poiid":"B2094655D26FA6FA479B","title":"东湖别墅","lon":"121.391","lat":"31.2029","category":"47","category_name":"住宅区","address":"东湖别墅位于长宁虹桥路1986号"},{"poiid":"B2094654D56BA6F5469A","title":"仙霞路第一幼儿园分园","lon":"121.39138","lat":"31.20486","category":"57","category_name":"幼儿园","address":"长宁区仙霞路435弄7号"},{"poiid":"B2094757D068A1F8479E","title":"网鱼网咖(仙霞店)","lon":"121.38994","lat":"31.205772","category":"173","category_name":"游戏厅","address":"长宁区仙霞路606号2楼"},{"poiid":"B2094655D36DA1F4459C","title":"仙霞路水城路","lon":"121.38987","lat":"31.20596","category":"38","category_name":"公交车站","address":""},{"poiid":"B2094655D269AAFB429B","title":"虹桥迎宾馆宴会厅","lon":"121.39425","lat":"31.20254","category":"76","category_name":"上海菜","address":"长宁区虹桥路1591号虹桥迎宾馆内(近地铁10号线水城路站)"},{"poiid":"B2094655D26EA2FD419F","title":"香港点心皇 仙霞路店","lon":"121.39491271973","lat":"31.205955505371","category":"257","category_name":"中餐厅","address":"长宁区仙霞路413号(近芙蓉江路)"},{"poiid":"B2094757D068A2F9489F","title":"元利香辣蟹 仙霞店","lon":"121.3897902126","lat":"31.205741553014","category":"71","category_name":"四川菜","address":"长宁区仙霞路600号(近水城路)"},{"poiid":"B2094757D068A6F4459E","title":"必爱歌(仙霞路店)","lon":"121.39035","lat":"31.20545","category":"170","category_name":"KTV","address":"长宁区仙霞路602号3楼(近水城路)"},{"poiid":"B2094654D56BA6FB409E","title":"上海电视大学长宁分校(水城路)","lon":"121.39194","lat":"31.20327","category":"671","category_name":"高校中心点","address":"长宁区水城路68"},{"poiid":"B2094654DB64A6FB459E","title":"云峰宾馆","lon":"121.39305","lat":"31.20114","category":"215","category_name":"三星级宾馆","address":"长宁区虹桥路1665号洛城广场内(近水城路)"},{"poiid":"B2094757D068A1FF4492","title":"85度C(仙霞店)","lon":"121.393279","lat":"31.205953","category":"112","category_name":"糕饼店","address":"长宁区仙霞路449号(近芙蓉江路)"},{"poiid":"B2094654DB65A6FA489E","title":"上海虹桥迎宾馆(北门)","lon":"121.39443","lat":"31.20372","category":"656","category_name":"大门","address":"上海市长宁区虹桥路1591号"},{"poiid":"B2094654D56AAAFE499F","title":"仙逸小区","lon":"121.39288","lat":"31.206806","category":"47","category_name":"住宅区","address":"上海市长宁区水城路386,388弄"},{"poiid":"B2094757D069A5F8479A","title":"长宁区业余大学(水城路校区)","lon":"121.391933","lat":"31.203264","category":"500","category_name":"未知分类","address":"上海虹古路321号"},{"poiid":"B2094757D068AAFE479B","title":"巴贝隆自助烧烤","lon":"121.39044758","lat":"31.205870954","category":"247","category_name":"餐饮美食","address":"上海市长宁区仙霞路"},{"poiid":"B2094654D56BA6FA4398","title":"洛城时尚广场","lon":"121.39274","lat":"31.20081","category":"46","category_name":"楼宇","address":"仙霞新村"},{"poiid":"B2094655D26DA7FE4998","title":"西郊公寓酒店","lon":"121.393","lat":"31.2025","category":"214","category_name":"四星级宾馆","address":"长宁区虹许路1151号(虹桥路口)"},{"poiid":"B2094757D06AA5FC419B","title":"金枪鱼日本料理 和平广场店","lon":"121.3920722","lat":"31.2008584","category":"95","category_name":"日本料理","address":"水城路20号和平广场2楼近虹桥路"},{"poiid":"B2094757D16DAAFB4992","title":"湘味小厨","lon":"121.38898","lat":"31.20365","category":"77","category_name":"湖南菜","address":"长宁区虹古路379号(近水城路)"},{"poiid":"B2094654D56AAAFF4099","title":"华德饭店 仙霞店","lon":"121.39410427087","lat":"31.206185147708","category":"76","category_name":"上海菜","address":"长宁区仙霞路431号(近芙蓉江路)"},{"poiid":"B2094757D065A0F5489E","title":"水城路烧烤摊","lon":"121.39154","lat":"31.20311","category":"68","category_name":"快餐厅","address":"长宁区水城路67号鸿顺兴苏式面馆旁(近虹古路)"},{"poiid":"B2094655D26FA7F84392","title":"西郊宾馆花园别墅","lon":"121.39067","lat":"31.20269","category":"47","category_name":"住宅区","address":"虹桥路1919号"},{"poiid":"B2094655D36CA3FA479C","title":"上海市长宁区业余大学(北门)","lon":"121.39186","lat":"31.20369","category":"52","category_name":"高等院校","address":"虹古路321"},{"poiid":"B2094655D26BA3FD429F","title":"鸟安 虹桥店 鳥やす","lon":"121.392335054","lat":"31.200123793","category":"247","category_name":"餐饮美食","address":"水城路20号和平广场1楼虹桥路口"},{"poiid":"B2094757D464A6FE4399","title":"鸿顺兴苏式面馆","lon":"121.39117213557","lat":"31.202998005188","category":"68","category_name":"快餐厅","address":"长宁区水城路67号(近虹古路)"},{"poiid":"B2094750D769A3FB479D","title":"桃太郎","lon":"121.391","lat":"31.2061","category":"95","category_name":"日本料理","address":"长宁区仙霞路491号(近水城路)"},{"poiid":"B2094655D26EA1FE479B","title":"云峰宾馆餐厅","lon":"121.39368089569","lat":"31.200359007398","category":"247","category_name":"餐饮美食","address":"虹桥路1665号云峰宾馆3楼近水城路"},{"poiid":"B2094654D56BA6FA469E","title":"盛贺美","lon":"121.39264","lat":"31.20117","category":"95","category_name":"日本料理","address":"长宁区延安西路2088号嘉顿广场"},{"poiid":"B2094654D56BA6FB439C","title":"虹景小区","lon":"121.39296","lat":"31.204443","category":"47","category_name":"住宅区","address":"虹古路208弄1-32号"},{"poiid":"B2094750D66BA1FB439B","title":"dili寿司","lon":"121.391006","lat":"31.202692","category":"95","category_name":"日本料理","address":"长宁区水城路47弄1号(近虹古路)"},{"poiid":"B2094750D268A0F84399","title":"味乐","lon":"121.392396","lat":"31.201227","category":"95","category_name":"日本料理","address":"长宁区水城路20号洛城广场2楼(近虹桥路)"},{"poiid":"B2094750D36BA4FD4692","title":"周洁艺校","lon":"121.39169","lat":"31.20313","category":"54","category_name":"职业技术学校","address":"上海市长宁区业余大学"},{"poiid":"B2094654D56BA6F5409C","title":"月亮房","lon":"121.3938","lat":"31.20561","category":"68","category_name":"快餐厅","address":"长宁区仙霞路432号(近芙蓉江路)"},{"poiid":"B2094654D56BA6FB419B","title":"上海飞尔航空乘务进修学校","lon":"121.39193","lat":"31.20326","category":"53","category_name":"成人教育","address":"水城路68"},{"poiid":"B2094654D56BA6FB439E","title":"虹古小区","lon":"121.39272","lat":"31.203291","category":"47","category_name":"住宅区","address":"虹古路261弄6-26号"},{"poiid":"B2094654D56BA6FE4792","title":"华必和 虹古店","lon":"121.390699054","lat":"31.203606793","category":"68","category_name":"快餐厅","address":"长宁区虹古路335号(近水城路)"},{"poiid":"B2094655D36DA1F44593","title":"仙霞路芙蓉江路","lon":"121.39427","lat":"31.20582","category":"38","category_name":"公交车站","address":""},{"poiid":"B2094757D069ABFC439E","title":"汤正饭香","lon":"121.387882","lat":"31.206007","category":"72","category_name":"广东菜","address":"长宁区仙霞路636号"},{"poiid":"B2094654D56BA6F54399","title":"虹城公寓","lon":"121.3923","lat":"31.205038","category":"47","category_name":"住宅区","address":"仙霞路470弄1-24号"},{"poiid":"B2094655D36CA1FE489A","title":"水城路仙霞路","lon":"121.39111","lat":"31.20463","category":"38","category_name":"公交车站","address":""},{"poiid":"B2094654D56BA6FA489D","title":"景苑小区(西门)","lon":"121.39191","lat":"31.20197","category":"47","category_name":"住宅区","address":"水城路40弄1-25号"},{"poiid":"B2094655D36CA1FE479F","title":"水城路","lon":"121.39081","lat":"31.20642","category":"38","category_name":"公交车站","address":""},{"poiid":"B2094654DB65A5F9409F","title":"河村 KAWAMURA","lon":"121.39507696031","lat":"31.204940887232","category":"95","category_name":"日本料理","address":"长宁区芙蓉江路36号2楼(近虹古路)"},{"poiid":"B2094750D56FABF4489B","title":"巴贝隆自助烤肉(水城路店)","lon":"121.391","lat":"31.206","category":"96","category_name":"韩国料理","address":"长宁区水城路367号(近仙霞路)"},{"poiid":"B2094654D56BA6FB4192","title":"克丽缇娜(虹古路)","lon":"121.39199","lat":"31.20392","category":"148","category_name":"美容美发店","address":"长宁区虹古路314号(近水城路)"},{"poiid":"B2094757D06BA3FA429E","title":"88火锅","lon":"121.39305","lat":"31.20114","category":"95","category_name":"日本料理","address":"长宁区虹桥路1665号洛城广场2楼(近水城路)"},{"poiid":"B2094757D469A7F8459E","title":"牛奶棚 仙霞路店","lon":"121.391910054","lat":"31.205837793","category":"67","category_name":"甜品店","address":"长宁区仙霞路628号(近水城路)"},{"poiid":"B2094757D168A2F94098","title":"妯娌老鸭粉丝 水城路","lon":"121.390921054","lat":"31.207156793","category":"68","category_name":"快餐厅","address":"长宁区水城路372号(近仙霞路)"},{"poiid":"B2094654D56BA6FA459D","title":"和平广场","lon":"121.39238","lat":"31.20122","category":"46","category_name":"楼宇","address":"水城路"},{"poiid":"B2094655D26EA4FB429C","title":"山城烤鱼故事","lon":"121.39113593056","lat":"31.203965886234","category":"87","category_name":"特色／地方风味餐厅","address":"虹古路330号近水城路"},{"poiid":"B2094655D26FA6FA479B","title":"东湖别墅","lon":"121.391","lat":"31.2029","category":"47","category_name":"住宅区","address":"东湖别墅位于长宁虹桥路1986号"},{"poiid":"B2094654D56BA6F5469A","title":"仙霞路第一幼儿园分园","lon":"121.39138","lat":"31.20486","category":"57","category_name":"幼儿园","address":"长宁区仙霞路435弄7号"},{"poiid":"B2094757D068A1F8479E","title":"网鱼网咖(仙霞店)","lon":"121.38994","lat":"31.205772","category":"173","category_name":"游戏厅","address":"长宁区仙霞路606号2楼"},{"poiid":"B2094655D36DA1F4459C","title":"仙霞路水城路","lon":"121.38987","lat":"31.20596","category":"38","category_name":"公交车站","address":""},{"poiid":"B2094655D269AAFB429B","title":"虹桥迎宾馆宴会厅","lon":"121.39425","lat":"31.20254","category":"76","category_name":"上海菜","address":"长宁区虹桥路1591号虹桥迎宾馆内(近地铁10号线水城路站)"},{"poiid":"B2094655D26EA2FD419F","title":"香港点心皇 仙霞路店","lon":"121.39491271973","lat":"31.205955505371","category":"257","category_name":"中餐厅","address":"长宁区仙霞路413号(近芙蓉江路)"},{"poiid":"B2094757D068A2F9489F","title":"元利香辣蟹 仙霞店","lon":"121.3897902126","lat":"31.205741553014","category":"71","category_name":"四川菜","address":"长宁区仙霞路600号(近水城路)"},{"poiid":"B2094757D068A6F4459E","title":"必爱歌(仙霞路店)","lon":"121.39035","lat":"31.20545","category":"170","category_name":"KTV","address":"长宁区仙霞路602号3楼(近水城路)"},{"poiid":"B2094654D56BA6FB409E","title":"上海电视大学长宁分校(水城路)","lon":"121.39194","lat":"31.20327","category":"671","category_name":"高校中心点","address":"长宁区水城路68"},{"poiid":"B2094654DB64A6FB459E","title":"云峰宾馆","lon":"121.39305","lat":"31.20114","category":"215","category_name":"三星级宾馆","address":"长宁区虹桥路1665号洛城广场内(近水城路)"},{"poiid":"B2094757D068A1FF4492","title":"85度C(仙霞店)","lon":"121.393279","lat":"31.205953","category":"112","category_name":"糕饼店","address":"长宁区仙霞路449号(近芙蓉江路)"},{"poiid":"B2094654DB65A6FA489E","title":"上海虹桥迎宾馆(北门)","lon":"121.39443","lat":"31.20372","category":"656","category_name":"大门","address":"上海市长宁区虹桥路1591号"},{"poiid":"B2094654D56AAAFE499F","title":"仙逸小区","lon":"121.39288","lat":"31.206806","category":"47","category_name":"住宅区","address":"上海市长宁区水城路386,388弄"},{"poiid":"B2094757D069A5F8479A","title":"长宁区业余大学(水城路校区)","lon":"121.391933","lat":"31.203264","category":"500","category_name":"未知分类","address":"上海虹古路321号"},{"poiid":"B2094757D068AAFE479B","title":"巴贝隆自助烧烤","lon":"121.39044758","lat":"31.205870954","category":"247","category_name":"餐饮美食","address":"上海市长宁区仙霞路"},{"poiid":"B2094654D56BA6FA4398","title":"洛城时尚广场","lon":"121.39274","lat":"31.20081","category":"46","category_name":"楼宇","address":"仙霞新村"},{"poiid":"B2094655D26DA7FE4998","title":"西郊公寓酒店","lon":"121.393","lat":"31.2025","category":"214","category_name":"四星级宾馆","address":"长宁区虹许路1151号(虹桥路口)"},{"poiid":"B2094757D06AA5FC419B","title":"金枪鱼日本料理 和平广场店","lon":"121.3920722","lat":"31.2008584","category":"95","category_name":"日本料理","address":"水城路20号和平广场2楼近虹桥路"},{"poiid":"B2094757D16DAAFB4992","title":"湘味小厨","lon":"121.38898","lat":"31.20365","category":"77","category_name":"湖南菜","address":"长宁区虹古路379号(近水城路)"},{"poiid":"B2094654D56AAAFF4099","title":"华德饭店 仙霞店","lon":"121.39410427087","lat":"31.206185147708","category":"76","category_name":"上海菜","address":"长宁区仙霞路431号(近芙蓉江路)"},{"poiid":"B2094757D065A0F5489E","title":"水城路烧烤摊","lon":"121.39154","lat":"31.20311","category":"68","category_name":"快餐厅","address":"长宁区水城路67号鸿顺兴苏式面馆旁(近虹古路)"},{"poiid":"B2094655D26FA7F84392","title":"西郊宾馆花园别墅","lon":"121.39067","lat":"31.20269","category":"47","category_name":"住宅区","address":"虹桥路1919号"},{"poiid":"B2094655D36CA3FA479C","title":"上海市长宁区业余大学(北门)","lon":"121.39186","lat":"31.20369","category":"52","category_name":"高等院校","address":"虹古路321"},{"poiid":"B2094655D26BA3FD429F","title":"鸟安 虹桥店 鳥やす","lon":"121.392335054","lat":"31.200123793","category":"247","category_name":"餐饮美食","address":"水城路20号和平广场1楼虹桥路口"},{"poiid":"B2094757D464A6FE4399","title":"鸿顺兴苏式面馆","lon":"121.39117213557","lat":"31.202998005188","category":"68","category_name":"快餐厅","address":"长宁区水城路67号(近虹古路)"},{"poiid":"B2094750D769A3FB479D","title":"桃太郎","lon":"121.391","lat":"31.2061","category":"95","category_name":"日本料理","address":"长宁区仙霞路491号(近水城路)"},{"poiid":"B2094655D26EA1FE479B","title":"云峰宾馆餐厅","lon":"121.39368089569","lat":"31.200359007398","category":"247","category_name":"餐饮美食","address":"虹桥路1665号云峰宾馆3楼近水城路"},{"poiid":"B2094654D56BA6FA469E","title":"盛贺美","lon":"121.39264","lat":"31.20117","category":"95","category_name":"日本料理","address":"长宁区延安西路2088号嘉顿广场"},{"poiid":"B2094654D56BA6FB439C","title":"虹景小区","lon":"121.39296","lat":"31.204443","category":"47","category_name":"住宅区","address":"虹古路208弄1-32号"},{"poiid":"B2094750D66BA1FB439B","title":"dili寿司","lon":"121.391006","lat":"31.202692","category":"95","category_name":"日本料理","address":"长宁区水城路47弄1号(近虹古路)"},{"poiid":"B2094750D268A0F84399","title":"味乐","lon":"121.392396","lat":"31.201227","category":"95","category_name":"日本料理","address":"长宁区水城路20号洛城广场2楼(近虹桥路)"},{"poiid":"B2094750D36BA4FD4692","title":"周洁艺校","lon":"121.39169","lat":"31.20313","category":"54","category_name":"职业技术学校","address":"上海市长宁区业余大学"},{"poiid":"B2094654D56BA6F5409C","title":"月亮房","lon":"121.3938","lat":"31.20561","category":"68","category_name":"快餐厅","address":"长宁区仙霞路432号(近芙蓉江路)"},{"poiid":"B2094654D56BA6FB419B","title":"上海飞尔航空乘务进修学校","lon":"121.39193","lat":"31.20326","category":"53","category_name":"成人教育","address":"水城路68"},{"poiid":"B2094654D56BA6FB439E","title":"虹古小区","lon":"121.39272","lat":"31.203291","category":"47","category_name":"住宅区","address":"虹古路261弄6-26号"},{"poiid":"B2094654D56BA6FE4792","title":"华必和 虹古店","lon":"121.390699054","lat":"31.203606793","category":"68","category_name":"快餐厅","address":"长宁区虹古路335号(近水城路)"},{"poiid":"B2094655D36DA1F44593","title":"仙霞路芙蓉江路","lon":"121.39427","lat":"31.20582","category":"38","category_name":"公交车站","address":""},{"poiid":"B2094757D069ABFC439E","title":"汤正饭香","lon":"121.387882","lat":"31.206007","category":"72","category_name":"广东菜","address":"长宁区仙霞路636号"},{"poiid":"B2094654D56BA6F54399","title":"虹城公寓","lon":"121.3923","lat":"31.205038","category":"47","category_name":"住宅区","address":"仙霞路470弄1-24号"},{"poiid":"B2094655D36CA1FE489A","title":"水城路仙霞路","lon":"121.39111","lat":"31.20463","category":"38","category_name":"公交车站","address":""},{"poiid":"B2094654D56BA6FA489D","title":"景苑小区(西门)","lon":"121.39191","lat":"31.20197","category":"47","category_name":"住宅区","address":"水城路40弄1-25号"},{"poiid":"B2094655D36CA1FE479F","title":"水城路","lon":"121.39081","lat":"31.20642","category":"38","category_name":"公交车站","address":""},{"poiid":"B2094654DB65A5F9409F","title":"河村 KAWAMURA","lon":"121.39507696031","lat":"31.204940887232","category":"95","category_name":"日本料理","address":"长宁区芙蓉江路36号2楼(近虹古路)"},{"poiid":"B2094750D56FABF4489B","title":"巴贝隆自助烤肉(水城路店)","lon":"121.391","lat":"31.206","category":"96","category_name":"韩国料理","address":"长宁区水城路367号(近仙霞路)"},{"poiid":"B2094654D56BA6FB4192","title":"克丽缇娜(虹古路)","lon":"121.39199","lat":"31.20392","category":"148","category_name":"美容美发店","address":"长宁区虹古路314号(近水城路)"},{"poiid":"B2094757D06BA3FA429E","title":"88火锅","lon":"121.39305","lat":"31.20114","category":"95","category_name":"日本料理","address":"长宁区虹桥路1665号洛城广场2楼(近水城路)"},{"poiid":"B2094757D469A7F8459E","title":"牛奶棚 仙霞路店","lon":"121.391910054","lat":"31.205837793","category":"67","category_name":"甜品店","address":"长宁区仙霞路628号(近水城路)"},{"poiid":"B2094757D168A2F94098","title":"妯娌老鸭粉丝 水城路","lon":"121.390921054","lat":"31.207156793","category":"68","category_name":"快餐厅","address":"长宁区水城路372号(近仙霞路)"},{"poiid":"B2094654D56BA6FA459D","title":"和平广场","lon":"121.39238","lat":"31.20122","category":"46","category_name":"楼宇","address":"水城路"},{"poiid":"B2094655D26EA4FB429C","title":"山城烤鱼故事","lon":"121.39113593056","lat":"31.203965886234","category":"87","category_name":"特色／地方风味餐厅","address":"虹古路330号近水城路"},{"poiid":"B2094655D26FA6FA479B","title":"东湖别墅","lon":"121.391","lat":"31.2029","category":"47","category_name":"住宅区","address":"东湖别墅位于长宁虹桥路1986号"},{"poiid":"B2094654D56BA6F5469A","title":"仙霞路第一幼儿园分园","lon":"121.39138","lat":"31.20486","category":"57","category_name":"幼儿园","address":"长宁区仙霞路435弄7号"},{"poiid":"B2094757D068A1F8479E","title":"网鱼网咖(仙霞店)","lon":"121.38994","lat":"31.205772","category":"173","category_name":"游戏厅","address":"长宁区仙霞路606号2楼"},{"poiid":"B2094655D36DA1F4459C","title":"仙霞路水城路","lon":"121.38987","lat":"31.20596","category":"38","category_name":"公交车站","address":""},{"poiid":"B2094655D269AAFB429B","title":"虹桥迎宾馆宴会厅","lon":"121.39425","lat":"31.20254","category":"76","category_name":"上海菜","address":"长宁区虹桥路1591号虹桥迎宾馆内(近地铁10号线水城路站)"},{"poiid":"B2094655D26EA2FD419F","title":"香港点心皇 仙霞路店","lon":"121.39491271973","lat":"31.205955505371","category":"257","category_name":"中餐厅","address":"长宁区仙霞路413号(近芙蓉江路)"},{"poiid":"B2094757D068A2F9489F","title":"元利香辣蟹 仙霞店","lon":"121.3897902126","lat":"31.205741553014","category":"71","category_name":"四川菜","address":"长宁区仙霞路600号(近水城路)"},{"poiid":"B2094757D068A6F4459E","title":"必爱歌(仙霞路店)","lon":"121.39035","lat":"31.20545","category":"170","category_name":"KTV","address":"长宁区仙霞路602号3楼(近水城路)"},{"poiid":"B2094654D56BA6FB409E","title":"上海电视大学长宁分校(水城路)","lon":"121.39194","lat":"31.20327","category":"671","category_name":"高校中心点","address":"长宁区水城路68"},{"poiid":"B2094654DB64A6FB459E","title":"云峰宾馆","lon":"121.39305","lat":"31.20114","category":"215","category_name":"三星级宾馆","address":"长宁区虹桥路1665号洛城广场内(近水城路)"},{"poiid":"B2094757D068A1FF4492","title":"85度C(仙霞店)","lon":"121.393279","lat":"31.205953","category":"112","category_name":"糕饼店","address":"长宁区仙霞路449号(近芙蓉江路)"},{"poiid":"B2094654DB65A6FA489E","title":"上海虹桥迎宾馆(北门)","lon":"121.39443","lat":"31.20372","category":"656","category_name":"大门","address":"上海市长宁区虹桥路1591号"},{"poiid":"B2094654D56AAAFE499F","title":"仙逸小区","lon":"121.39288","lat":"31.206806","category":"47","category_name":"住宅区","address":"上海市长宁区水城路386,388弄"},{"poiid":"B2094757D069A5F8479A","title":"长宁区业余大学(水城路校区)","lon":"121.391933","lat":"31.203264","category":"500","category_name":"未知分类","address":"上海虹古路321号"},{"poiid":"B2094757D068AAFE479B","title":"巴贝隆自助烧烤","lon":"121.39044758","lat":"31.205870954","category":"247","category_name":"餐饮美食","address":"上海市长宁区仙霞路"},{"poiid":"B2094654D56BA6FA4398","title":"洛城时尚广场","lon":"121.39274","lat":"31.20081","category":"46","category_name":"楼宇","address":"仙霞新村"},{"poiid":"B2094655D26DA7FE4998","title":"西郊公寓酒店","lon":"121.393","lat":"31.2025","category":"214","category_name":"四星级宾馆","address":"长宁区虹许路1151号(虹桥路口)"},{"poiid":"B2094757D06AA5FC419B","title":"金枪鱼日本料理 和平广场店","lon":"121.3920722","lat":"31.2008584","category":"95","category_name":"日本料理","address":"水城路20号和平广场2楼近虹桥路"},{"poiid":"B2094757D16DAAFB4992","title":"湘味小厨","lon":"121.38898","lat":"31.20365","category":"77","category_name":"湖南菜","address":"长宁区虹古路379号(近水城路)"},{"poiid":"B2094654D56AAAFF4099","title":"华德饭店 仙霞店","lon":"121.39410427087","lat":"31.206185147708","category":"76","category_name":"上海菜","address":"长宁区仙霞路431号(近芙蓉江路)"},{"poiid":"B2094757D065A0F5489E","title":"水城路烧烤摊","lon":"121.39154","lat":"31.20311","category":"68","category_name":"快餐厅","address":"长宁区水城路67号鸿顺兴苏式面馆旁(近虹古路)"},{"poiid":"B2094655D26FA7F84392","title":"西郊宾馆花园别墅","lon":"121.39067","lat":"31.20269","category":"47","category_name":"住宅区","address":"虹桥路1919号"},{"poiid":"B2094655D36CA3FA479C","title":"上海市长宁区业余大学(北门)","lon":"121.39186","lat":"31.20369","category":"52","category_name":"高等院校","address":"虹古路321"},{"poiid":"B2094655D26BA3FD429F","title":"鸟安 虹桥店 鳥やす","lon":"121.392335054","lat":"31.200123793","category":"247","category_name":"餐饮美食","address":"水城路20号和平广场1楼虹桥路口"},{"poiid":"B2094757D464A6FE4399","title":"鸿顺兴苏式面馆","lon":"121.39117213557","lat":"31.202998005188","category":"68","category_name":"快餐厅","address":"长宁区水城路67号(近虹古路)"},{"poiid":"B2094750D769A3FB479D","title":"桃太郎","lon":"121.391","lat":"31.2061","category":"95","category_name":"日本料理","address":"长宁区仙霞路491号(近水城路)"},{"poiid":"B2094655D26EA1FE479B","title":"云峰宾馆餐厅","lon":"121.39368089569","lat":"31.200359007398","category":"247","category_name":"餐饮美食","address":"虹桥路1665号云峰宾馆3楼近水城路"},{"poiid":"B2094654D56BA6FA469E","title":"盛贺美","lon":"121.39264","lat":"31.20117","category":"95","category_name":"日本料理","address":"长宁区延安西路2088号嘉顿广场"},{"poiid":"B2094654D56BA6FB439C","title":"虹景小区","lon":"121.39296","lat":"31.204443","category":"47","category_name":"住宅区","address":"虹古路208弄1-32号"},{"poiid":"B2094750D66BA1FB439B","title":"dili寿司","lon":"121.391006","lat":"31.202692","category":"95","category_name":"日本料理","address":"长宁区水城路47弄1号(近虹古路)"},{"poiid":"B2094750D268A0F84399","title":"味乐","lon":"121.392396","lat":"31.201227","category":"95","category_name":"日本料理","address":"长宁区水城路20号洛城广场2楼(近虹桥路)"},{"poiid":"B2094750D36BA4FD4692","title":"周洁艺校","lon":"121.39169","lat":"31.20313","category":"54","category_name":"职业技术学校","address":"上海市长宁区业余大学"},{"poiid":"B2094654D56BA6F5409C","title":"月亮房","lon":"121.3938","lat":"31.20561","category":"68","category_name":"快餐厅","address":"长宁区仙霞路432号(近芙蓉江路)"},{"poiid":"B2094654D56BA6FB419B","title":"上海飞尔航空乘务进修学校","lon":"121.39193","lat":"31.20326","category":"53","category_name":"成人教育","address":"水城路68"},{"poiid":"B2094654D56BA6FB439E","title":"虹古小区","lon":"121.39272","lat":"31.203291","category":"47","category_name":"住宅区","address":"虹古路261弄6-26号"},{"poiid":"B2094654D56BA6FE4792","title":"华必和 虹古店","lon":"121.390699054","lat":"31.203606793","category":"68","category_name":"快餐厅","address":"长宁区虹古路335号(近水城路)"},{"poiid":"B2094655D36DA1F44593","title":"仙霞路芙蓉江路","lon":"121.39427","lat":"31.20582","category":"38","category_name":"公交车站","address":""},{"poiid":"B2094757D069ABFC439E","title":"汤正饭香","lon":"121.387882","lat":"31.206007","category":"72","category_name":"广东菜","address":"长宁区仙霞路636号"},{"poiid":"B2094654D56BA6F54399","title":"虹城公寓","lon":"121.3923","lat":"31.205038","category":"47","category_name":"住宅区","address":"仙霞路470弄1-24号"},{"poiid":"B2094655D36CA1FE489A","title":"水城路仙霞路","lon":"121.39111","lat":"31.20463","category":"38","category_name":"公交车站","address":""},{"poiid":"B2094654D56BA6FA489D","title":"景苑小区(西门)","lon":"121.39191","lat":"31.20197","category":"47","category_name":"住宅区","address":"水城路40弄1-25号"},{"poiid":"B2094655D36CA1FE479F","title":"水城路","lon":"121.39081","lat":"31.20642","category":"38","category_name":"公交车站","address":""},{"poiid":"B2094654DB65A5F9409F","title":"河村 KAWAMURA","lon":"121.39507696031","lat":"31.204940887232","category":"95","category_name":"日本料理","address":"长宁区芙蓉江路36号2楼(近虹古路)"},{"poiid":"B2094750D56FABF4489B","title":"巴贝隆自助烤肉(水城路店)","lon":"121.391","lat":"31.206","category":"96","category_name":"韩国料理","address":"长宁区水城路367号(近仙霞路)"},{"poiid":"B2094654D56BA6FB4192","title":"克丽缇娜(虹古路)","lon":"121.39199","lat":"31.20392","category":"148","category_name":"美容美发店","address":"长宁区虹古路314号(近水城路)"},{"poiid":"B2094757D06BA3FA429E","title":"88火锅","lon":"121.39305","lat":"31.20114","category":"95","category_name":"日本料理","address":"长宁区虹桥路1665号洛城广场2楼(近水城路)"},{"poiid":"B2094757D469A7F8459E","title":"牛奶棚 仙霞路店","lon":"121.391910054","lat":"31.205837793","category":"67","category_name":"甜品店","address":"长宁区仙霞路628号(近水城路)"},{"poiid":"B2094757D168A2F94098","title":"妯娌老鸭粉丝 水城路","lon":"121.390921054","lat":"31.207156793","category":"68","category_name":"快餐厅","address":"长宁区水城路372号(近仙霞路)"},{"poiid":"B2094654D56BA6FA459D","title":"和平广场","lon":"121.39238","lat":"31.20122","category":"46","category_name":"楼宇","address":"水城路"},{"poiid":"B2094655D26EA4FB429C","title":"山城烤鱼故事","lon":"121.39113593056","lat":"31.203965886234","category":"87","category_name":"特色／地方风味餐厅","address":"虹古路330号近水城路"},{"poiid":"B2094655D26FA6FA479B","title":"东湖别墅","lon":"121.391","lat":"31.2029","category":"47","category_name":"住宅区","address":"东湖别墅位于长宁虹桥路1986号"},{"poiid":"B2094654D56BA6F5469A","title":"仙霞路第一幼儿园分园","lon":"121.39138","lat":"31.20486","category":"57","category_name":"幼儿园","address":"长宁区仙霞路435弄7号"},{"poiid":"B2094757D068A1F8479E","title":"网鱼网咖(仙霞店)","lon":"121.38994","lat":"31.205772","category":"173","category_name":"游戏厅","address":"长宁区仙霞路606号2楼"}]