[{"poiid":"B2094655D269ABFD469B","title":"静安寺","lon":"121.44552","lat":"31.22324","category":"244","category_name":"寺庙道观","address":"静安区南京西路1686号(近静安寺)"},{"poiid":"B2094655D26EA2FD4592","title":"巴厘岛","lon":"121.44594","lat":"31.22133","category":"110","category_name":"其他亚洲菜","address":"静安区华山路189号静安公园3号门(近延安路高架)"},{"poiid":"B2094655D26FA2FA429D","title":"越洋廣場","lon":"121.44767667724614","lat":"31.223172433526056","category":"249","category_name":"购物服务","address":"上海市静安区常德路"},{"poiid":"B2094753D76FAAFA449C","title":"上海滩国泰旗舰店","lon":"121.466011","lat":"31.216125","category":"249","category_name":"购物服务","address":"淮海中路868号"},{"poiid":"B209475CD564A7F84292","title":"上海滩新天地店","lon":"121.47463","lat":"31.22164","category":"119","category_name":"商场","address":"\"太仓路181弄新天地北里15号\r\n\""},{"poiid":"B209475CD564A7F8439E","title":"上海滩中信泰富店","lon":"121.45602","lat":"31.22851","category":"119","category_name":"商场","address":"\"南京西路1168号中信泰富广场，店铺号221.\r\n\""},{"poiid":"B2094757D06FA2FE479F","title":"哈根达斯(久光二店)","lon":"121.447189586","lat":"31.2235192998","category":"113","category_name":"冷饮店","address":"静安区南京西路1618号久光百货2楼S223号商铺(近静安寺)"},{"poiid":"B2094655D26CAAF44692","title":"璞丽酒店(常德路)","lon":"121.44858","lat":"31.22251","category":"250","category_name":"公园户外","address":"静安区常德路1号(近延安中路)"},{"poiid":"B2094757D06EAAFF469B","title":"静安寺地铁站","lon":"121.446432","lat":"31.223208","category":"36","category_name":"地铁站","address":"上海轨道交通 二号线 七号线 轨交静安寺站 2 7"},{"poiid":"B2094655D26EA1FE449F","title":"上海延安饭店","lon":"121.44827","lat":"31.22062","category":"214","category_name":"四星级宾馆","address":"静安区延安中路1111号(近华山路)"},{"poiid":"B2094757D06EAAFB4999","title":"Reel Kitchen","lon":"121.44711328","lat":"31.223639802","category":"260","category_name":"其他","address":"上海市靜安區南京西路1601號B2"},{"poiid":"B2094655D268A2FA409B","title":"多乐星 旗舰店 Donut King","lon":"121.445782054","lat":"31.222489793","category":"65","category_name":"咖啡厅","address":"静安区南京西路1649号静安公园内(久光百货对面)"},{"poiid":"B2094757D06FA7FA4899","title":"苏浙汇(静安店)","lon":"121.4476","lat":"31.22033","category":"76","category_name":"上海菜","address":"静安区延安中路1121号(近华山路)"},{"poiid":"B2094757D06BA4FC4493","title":"Windows久光店","lon":"121.446855586","lat":"31.2232922953","category":"500","category_name":"未知分类","address":"上海市静安区万航渡路"},{"poiid":"B2094757D06FA6F8499C","title":"小南国烧烤(久光店)","lon":"121.44737","lat":"31.22351","category":"95","category_name":"日本料理","address":"静安区南京西路1618号久光百货8楼(近静安寺)"},{"poiid":"B2094757D068A7FD4199","title":"釜山料理(越洋广场店)","lon":"121.447444586","lat":"31.2233062956","category":"247","category_name":"餐饮美食","address":"上海静安区南京西路1601号越洋广场B2楼"},{"poiid":"B2094757D06FA1F54799","title":"上海人家精作坊(航站店)","lon":"121.44726","lat":"31.22342","category":"76","category_name":"上海菜","address":"静安区南京西路1600号机场航站楼4楼(近常德路)"},{"poiid":"B2094757D065AAFD439C","title":"巴厘岛印尼东南亚餐厅","lon":"121.445717586","lat":"31.2222982759","category":"500","category_name":"未知分类","address":"上海市静安区华山路189号"},{"poiid":"B2094750DB64A1FE469A","title":"HENKES","lon":"121.44633","lat":"31.2229","category":"94","category_name":"西餐厅","address":"静安区南京西路1601号1楼E铺(近常德路)"},{"poiid":"B2094757D064A5F9439C","title":"Sabatini意大利餐厅","lon":"121.446666586","lat":"31.2211182528","category":"500","category_name":"未知分类","address":"南京西路1717号会德丰国际广场南苑1楼"},{"poiid":"B2094757D06FABFC459B","title":"鹤舞","lon":"121.44711","lat":"31.22347","category":"95","category_name":"日本料理","address":"静安区南京西路1618号久光百货8楼(近静安寺)"},{"poiid":"B2094757D06FA6F4449F","title":"清风人家(静安店)","lon":"121.44802","lat":"31.22035","category":"260","category_name":"其他","address":"静安区延安中路1109号(近延安饭店)"},{"poiid":"B2094757D46AA4F8469D","title":"COCO壱番屋 久光店","lon":"121.446597054","lat":"31.223581793","category":"95","category_name":"日本料理","address":"静安区南京西路1618号久光百货B1楼(近静安寺)"},{"poiid":"B2094757D068A3FD489E","title":"越洋广场美食街","lon":"121.446637586","lat":"31.2233442963","category":"260","category_name":"其他","address":"上海静安区南京西路1601号越洋广场B2"},{"poiid":"B2094757D06FA2F84799","title":"伊美时尚广场","lon":"121.44570962","lat":"31.222571385","category":"249","category_name":"购物服务","address":"静安区南京西路1699号伊美时尚广场内(近静安寺)"},{"poiid":"B2094757D069A7FA4698","title":"宝珠奶酪","lon":"121.447335586","lat":"31.2236733028","category":"67","category_name":"甜品店","address":"静安区南京西路1601号芮欧百货B2楼B244号(近地铁二号线七号线静安寺站10号口)"},{"poiid":"B2094753DA65ABFB459F","title":"小贝壳海鲜火锅","lon":"121.448814","lat":"31.222833","category":"247","category_name":"餐饮美食","address":"上海市 万航渡路1号"},{"poiid":"B2094757D568ABFA4998","title":"JACafe","lon":"121.44664","lat":"31.222799","category":"65","category_name":"咖啡厅","address":"中国上海市静安区南京西路"},{"poiid":"B2094750D76FAAFF429C","title":"PANKOO釜山料理(芮欧百货店)","lon":"121.446","lat":"31.2229","category":"96","category_name":"韩国料理","address":"静安区南京西路1601号芮欧百货B214室"},{"poiid":"B209475CDA6CABF4429E","title":"myst","lon":"121.447692","lat":"31.220817","category":"500","category_name":"未知分类","address":"上海市 静安区延安中路"},{"poiid":"B2094752D068A5FF479F","title":"RAT TAR ART BAR","lon":"121.446869","lat":"31.223206","category":"248","category_name":"生活娱乐","address":"南京西路1601号芮欧百货109室"},{"poiid":"B2094757D66DA5FF4798","title":"苏浙汇","lon":"121.44903058","lat":"31.221403258","category":"500","category_name":"未知分类","address":"上海延安西路"},{"poiid":"B2094752D664A7F94498","title":"Henkes","lon":"121.44739","lat":"31.222622","category":"247","category_name":"餐饮美食","address":"芮欧百货"},{"poiid":"B2094757D068ABFB439B","title":"战锅时代 越洋店","lon":"121.4476342","lat":"31.2238135","category":"71","category_name":"四川菜","address":"静安区南京西路1601号芮欧百货"},{"poiid":"B2094757D465A5F44898","title":"泰湖 久光店","lon":"121.446597054","lat":"31.223581793","category":"68","category_name":"快餐厅","address":"静安区南京西路1618号久光百货B1楼(近静安寺)"},{"poiid":"B2094757D16AA7FC439F","title":"莹七餐厅","lon":"121.449147586","lat":"31.221130253","category":"500","category_name":"未知分类","address":"上海巨鹿路805号"},{"poiid":"B2094757D06BABFC429C","title":"wagas(越洋广场)","lon":"121.447297586","lat":"31.2236533024","category":"500","category_name":"未知分类","address":"上海市静安区北京西路"},{"poiid":"B209475CD26FA2FC4392","title":"La Creperie","lon":"121.447349","lat":"31.223041","category":"500","category_name":"未知分类","address":"上海市 南京西路1601号芮欧百货1楼D座"},{"poiid":"B2094757D069A5FC499B","title":"翠华","lon":"121.44918058","lat":"31.221185254","category":"249","category_name":"购物服务","address":"上海静安区华山路"},{"poiid":"B2094757D06FA7F8449B","title":"静安寺下沉式广场","lon":"121.44625","lat":"31.22236","category":"119","category_name":"商场","address":"静安区南京西路(近华山路)"},{"poiid":"B2094757D06FA6FC4999","title":"COSTA COFFEE(越洋广场店)","lon":"121.44875","lat":"31.2223","category":"65","category_name":"咖啡厅","address":"静安区南京西路1601号越洋广场1楼B单元(近常德路)"},{"poiid":"B2094757D065A3FA459D","title":"coconut paradise","lon":"121.449070586","lat":"31.2214652596","category":"500","category_name":"未知分类","address":"上海市静安区富民路38号近巨鹿路"},{"poiid":"B209475CD16AA1FC459C","title":"艾米1895电影街","lon":"121.447013","lat":"31.222036","category":"178","category_name":"电影院","address":"上海市 上海市北京西路1829号4楼 靠近愚园路"},{"poiid":"B209475CD26DA4FE419A","title":"10·corso·como","lon":"121.445999","lat":"31.220499","category":"500","category_name":"未知分类","address":"上海市 南京西路1717号会德丰广场北院"},{"poiid":"B2094750D66CABFA429C","title":"筑地银章鱼烧Gindaco","lon":"121.447265","lat":"31.22351","category":"68","category_name":"快餐厅","address":"静安区南京西路1601号芮欧百货B2楼ReelKitchen内(近静安寺)"},{"poiid":"B2094750D664A7FF4992","title":"琥家拉面(芮欧百货店)","lon":"121.446","lat":"31.2229","category":"95","category_name":"日本料理","address":"静安区南京西路1601号芮欧百货B2楼"},{"poiid":"B2094757D069A6F84999","title":"复茂小龙虾(万航店)","lon":"121.44610058","lat":"31.222838286","category":"68","category_name":"快餐厅","address":"静安区万航渡路450号(近镇宁路)"},{"poiid":"B2094757D069A2F5479E","title":"和兴汤馆","lon":"121.44792946","lat":"31.221589774","category":"72","category_name":"广东菜","address":"静安区延安中路1123号(近富民路)"},{"poiid":"B2094757D169A0F84593","title":"一哥火锅","lon":"121.449226586","lat":"31.2211502534","category":"247","category_name":"餐饮美食","address":"上海市静安区华山路"},{"poiid":"B2094654DB6BA6FC429E","title":"格林豪泰(上海延安中路店)","lon":"121.4485","lat":"31.22102","category":"216","category_name":"经济型连锁酒店","address":"上海市延安中路1111号(近华山路)"},{"poiid":"B2094655D269ABFD469B","title":"静安寺","lon":"121.44552","lat":"31.22324","category":"244","category_name":"寺庙道观","address":"静安区南京西路1686号(近静安寺)"},{"poiid":"B2094655D26EA2FD4592","title":"巴厘岛","lon":"121.44594","lat":"31.22133","category":"110","category_name":"其他亚洲菜","address":"静安区华山路189号静安公园3号门(近延安路高架)"},{"poiid":"B2094655D26FA2FA429D","title":"越洋廣場","lon":"121.44767667724614","lat":"31.223172433526056","category":"249","category_name":"购物服务","address":"上海市静安区常德路"},{"poiid":"B2094753D76FAAFA449C","title":"上海滩国泰旗舰店","lon":"121.466011","lat":"31.216125","category":"249","category_name":"购物服务","address":"淮海中路868号"},{"poiid":"B209475CD564A7F84292","title":"上海滩新天地店","lon":"121.47463","lat":"31.22164","category":"119","category_name":"商场","address":"\"太仓路181弄新天地北里15号\r\n\""},{"poiid":"B209475CD564A7F8439E","title":"上海滩中信泰富店","lon":"121.45602","lat":"31.22851","category":"119","category_name":"商场","address":"\"南京西路1168号中信泰富广场，店铺号221.\r\n\""},{"poiid":"B2094757D06FA2FE479F","title":"哈根达斯(久光二店)","lon":"121.447189586","lat":"31.2235192998","category":"113","category_name":"冷饮店","address":"静安区南京西路1618号久光百货2楼S223号商铺(近静安寺)"},{"poiid":"B2094655D26CAAF44692","title":"璞丽酒店(常德路)","lon":"121.44858","lat":"31.22251","category":"250","category_name":"公园户外","address":"静安区常德路1号(近延安中路)"},{"poiid":"B2094757D06EAAFF469B","title":"静安寺地铁站","lon":"121.446432","lat":"31.223208","category":"36","category_name":"地铁站","address":"上海轨道交通 二号线 七号线 轨交静安寺站 2 7"},{"poiid":"B2094655D26EA1FE449F","title":"上海延安饭店","lon":"121.44827","lat":"31.22062","category":"214","category_name":"四星级宾馆","address":"静安区延安中路1111号(近华山路)"},{"poiid":"B2094757D06EAAFB4999","title":"Reel Kitchen","lon":"121.44711328","lat":"31.223639802","category":"260","category_name":"其他","address":"上海市靜安區南京西路1601號B2"},{"poiid":"B2094655D268A2FA409B","title":"多乐星 旗舰店 Donut King","lon":"121.445782054","lat":"31.222489793","category":"65","category_name":"咖啡厅","address":"静安区南京西路1649号静安公园内(久光百货对面)"},{"poiid":"B2094757D06FA7FA4899","title":"苏浙汇(静安店)","lon":"121.4476","lat":"31.22033","category":"76","category_name":"上海菜","address":"静安区延安中路1121号(近华山路)"},{"poiid":"B2094757D06BA4FC4493","title":"Windows久光店","lon":"121.446855586","lat":"31.2232922953","category":"500","category_name":"未知分类","address":"上海市静安区万航渡路"},{"poiid":"B2094757D06FA6F8499C","title":"小南国烧烤(久光店)","lon":"121.44737","lat":"31.22351","category":"95","category_name":"日本料理","address":"静安区南京西路1618号久光百货8楼(近静安寺)"},{"poiid":"B2094757D068A7FD4199","title":"釜山料理(越洋广场店)","lon":"121.447444586","lat":"31.2233062956","category":"247","category_name":"餐饮美食","address":"上海静安区南京西路1601号越洋广场B2楼"},{"poiid":"B2094757D06FA1F54799","title":"上海人家精作坊(航站店)","lon":"121.44726","lat":"31.22342","category":"76","category_name":"上海菜","address":"静安区南京西路1600号机场航站楼4楼(近常德路)"},{"poiid":"B2094757D065AAFD439C","title":"巴厘岛印尼东南亚餐厅","lon":"121.445717586","lat":"31.2222982759","category":"500","category_name":"未知分类","address":"上海市静安区华山路189号"},{"poiid":"B2094750DB64A1FE469A","title":"HENKES","lon":"121.44633","lat":"31.2229","category":"94","category_name":"西餐厅","address":"静安区南京西路1601号1楼E铺(近常德路)"},{"poiid":"B2094757D064A5F9439C","title":"Sabatini意大利餐厅","lon":"121.446666586","lat":"31.2211182528","category":"500","category_name":"未知分类","address":"南京西路1717号会德丰国际广场南苑1楼"},{"poiid":"B2094757D06FABFC459B","title":"鹤舞","lon":"121.44711","lat":"31.22347","category":"95","category_name":"日本料理","address":"静安区南京西路1618号久光百货8楼(近静安寺)"},{"poiid":"B2094757D06FA6F4449F","title":"清风人家(静安店)","lon":"121.44802","lat":"31.22035","category":"260","category_name":"其他","address":"静安区延安中路1109号(近延安饭店)"},{"poiid":"B2094757D46AA4F8469D","title":"COCO壱番屋 久光店","lon":"121.446597054","lat":"31.223581793","category":"95","category_name":"日本料理","address":"静安区南京西路1618号久光百货B1楼(近静安寺)"},{"poiid":"B2094757D068A3FD489E","title":"越洋广场美食街","lon":"121.446637586","lat":"31.2233442963","category":"260","category_name":"其他","address":"上海静安区南京西路1601号越洋广场B2"},{"poiid":"B2094757D06FA2F84799","title":"伊美时尚广场","lon":"121.44570962","lat":"31.222571385","category":"249","category_name":"购物服务","address":"静安区南京西路1699号伊美时尚广场内(近静安寺)"},{"poiid":"B2094757D069A7FA4698","title":"宝珠奶酪","lon":"121.447335586","lat":"31.2236733028","category":"67","category_name":"甜品店","address":"静安区南京西路1601号芮欧百货B2楼B244号(近地铁二号线七号线静安寺站10号口)"},{"poiid":"B2094753DA65ABFB459F","title":"小贝壳海鲜火锅","lon":"121.448814","lat":"31.222833","category":"247","category_name":"餐饮美食","address":"上海市 万航渡路1号"},{"poiid":"B2094757D568ABFA4998","title":"JACafe","lon":"121.44664","lat":"31.222799","category":"65","category_name":"咖啡厅","address":"中国上海市静安区南京西路"},{"poiid":"B2094750D76FAAFF429C","title":"PANKOO釜山料理(芮欧百货店)","lon":"121.446","lat":"31.2229","category":"96","category_name":"韩国料理","address":"静安区南京西路1601号芮欧百货B214室"},{"poiid":"B209475CDA6CABF4429E","title":"myst","lon":"121.447692","lat":"31.220817","category":"500","category_name":"未知分类","address":"上海市 静安区延安中路"},{"poiid":"B2094752D068A5FF479F","title":"RAT TAR ART BAR","lon":"121.446869","lat":"31.223206","category":"248","category_name":"生活娱乐","address":"南京西路1601号芮欧百货109室"},{"poiid":"B2094757D66DA5FF4798","title":"苏浙汇","lon":"121.44903058","lat":"31.221403258","category":"500","category_name":"未知分类","address":"上海延安西路"},{"poiid":"B2094752D664A7F94498","title":"Henkes","lon":"121.44739","lat":"31.222622","category":"247","category_name":"餐饮美食","address":"芮欧百货"},{"poiid":"B2094757D068ABFB439B","title":"战锅时代 越洋店","lon":"121.4476342","lat":"31.2238135","category":"71","category_name":"四川菜","address":"静安区南京西路1601号芮欧百货"},{"poiid":"B2094757D465A5F44898","title":"泰湖 久光店","lon":"121.446597054","lat":"31.223581793","category":"68","category_name":"快餐厅","address":"静安区南京西路1618号久光百货B1楼(近静安寺)"},{"poiid":"B2094757D16AA7FC439F","title":"莹七餐厅","lon":"121.449147586","lat":"31.221130253","category":"500","category_name":"未知分类","address":"上海巨鹿路805号"},{"poiid":"B2094757D06BABFC429C","title":"wagas(越洋广场)","lon":"121.447297586","lat":"31.2236533024","category":"500","category_name":"未知分类","address":"上海市静安区北京西路"},{"poiid":"B209475CD26FA2FC4392","title":"La Creperie","lon":"121.447349","lat":"31.223041","category":"500","category_name":"未知分类","address":"上海市 南京西路1601号芮欧百货1楼D座"},{"poiid":"B2094757D069A5FC499B","title":"翠华","lon":"121.44918058","lat":"31.221185254","category":"249","category_name":"购物服务","address":"上海静安区华山路"},{"poiid":"B2094757D06FA7F8449B","title":"静安寺下沉式广场","lon":"121.44625","lat":"31.22236","category":"119","category_name":"商场","address":"静安区南京西路(近华山路)"},{"poiid":"B2094757D06FA6FC4999","title":"COSTA COFFEE(越洋广场店)","lon":"121.44875","lat":"31.2223","category":"65","category_name":"咖啡厅","address":"静安区南京西路1601号越洋广场1楼B单元(近常德路)"},{"poiid":"B2094757D065A3FA459D","title":"coconut paradise","lon":"121.449070586","lat":"31.2214652596","category":"500","category_name":"未知分类","address":"上海市静安区富民路38号近巨鹿路"},{"poiid":"B209475CD16AA1FC459C","title":"艾米1895电影街","lon":"121.447013","lat":"31.222036","category":"178","category_name":"电影院","address":"上海市 上海市北京西路1829号4楼 靠近愚园路"},{"poiid":"B209475CD26DA4FE419A","title":"10·corso·como","lon":"121.445999","lat":"31.220499","category":"500","category_name":"未知分类","address":"上海市 南京西路1717号会德丰广场北院"},{"poiid":"B2094750D66CABFA429C","title":"筑地银章鱼烧Gindaco","lon":"121.447265","lat":"31.22351","category":"68","category_name":"快餐厅","address":"静安区南京西路1601号芮欧百货B2楼ReelKitchen内(近静安寺)"},{"poiid":"B2094750D664A7FF4992","title":"琥家拉面(芮欧百货店)","lon":"121.446","lat":"31.2229","category":"95","category_name":"日本料理","address":"静安区南京西路1601号芮欧百货B2楼"},{"poiid":"B2094757D069A6F84999","title":"复茂小龙虾(万航店)","lon":"121.44610058","lat":"31.222838286","category":"68","category_name":"快餐厅","address":"静安区万航渡路450号(近镇宁路)"},{"poiid":"B2094757D069A2F5479E","title":"和兴汤馆","lon":"121.44792946","lat":"31.221589774","category":"72","category_name":"广东菜","address":"静安区延安中路1123号(近富民路)"},{"poiid":"B2094757D169A0F84593","title":"一哥火锅","lon":"121.449226586","lat":"31.2211502534","category":"247","category_name":"餐饮美食","address":"上海市静安区华山路"},{"poiid":"B2094654DB6BA6FC429E","title":"格林豪泰(上海延安中路店)","lon":"121.4485","lat":"31.22102","category":"216","category_name":"经济型连锁酒店","address":"上海市延安中路1111号(近华山路)"},{"poiid":"B2094655D269ABFD469B","title":"静安寺","lon":"121.44552","lat":"31.22324","category":"244","category_name":"寺庙道观","address":"静安区南京西路1686号(近静安寺)"},{"poiid":"B2094655D26EA2FD4592","title":"巴厘岛","lon":"121.44594","lat":"31.22133","category":"110","category_name":"其他亚洲菜","address":"静安区华山路189号静安公园3号门(近延安路高架)"},{"poiid":"B2094655D26FA2FA429D","title":"越洋廣場","lon":"121.44767667724614","lat":"31.223172433526056","category":"249","category_name":"购物服务","address":"上海市静安区常德路"},{"poiid":"B2094753D76FAAFA449C","title":"上海滩国泰旗舰店","lon":"121.466011","lat":"31.216125","category":"249","category_name":"购物服务","address":"淮海中路868号"},{"poiid":"B209475CD564A7F84292","title":"上海滩新天地店","lon":"121.47463","lat":"31.22164","category":"119","category_name":"商场","address":"\"太仓路181弄新天地北里15号\r\n\""},{"poiid":"B209475CD564A7F8439E","title":"上海滩中信泰富店","lon":"121.45602","lat":"31.22851","category":"119","category_name":"商场","address":"\"南京西路1168号中信泰富广场，店铺号221.\r\n\""},{"poiid":"B2094757D06FA2FE479F","title":"哈根达斯(久光二店)","lon":"121.447189586","lat":"31.2235192998","category":"113","category_name":"冷饮店","address":"静安区南京西路1618号久光百货2楼S223号商铺(近静安寺)"},{"poiid":"B2094655D26CAAF44692","title":"璞丽酒店(常德路)","lon":"121.44858","lat":"31.22251","category":"250","category_name":"公园户外","address":"静安区常德路1号(近延安中路)"},{"poiid":"B2094757D06EAAFF469B","title":"静安寺地铁站","lon":"121.446432","lat":"31.223208","category":"36","category_name":"地铁站","address":"上海轨道交通 二号线 七号线 轨交静安寺站 2 7"},{"poiid":"B2094655D26EA1FE449F","title":"上海延安饭店","lon":"121.44827","lat":"31.22062","category":"214","category_name":"四星级宾馆","address":"静安区延安中路1111号(近华山路)"},{"poiid":"B2094757D06EAAFB4999","title":"Reel Kitchen","lon":"121.44711328","lat":"31.223639802","category":"260","category_name":"其他","address":"上海市靜安區南京西路1601號B2"},{"poiid":"B2094655D268A2FA409B","title":"多乐星 旗舰店 Donut King","lon":"121.445782054","lat":"31.222489793","category":"65","category_name":"咖啡厅","address":"静安区南京西路1649号静安公园内(久光百货对面)"},{"poiid":"B2094757D06FA7FA4899","title":"苏浙汇(静安店)","lon":"121.4476","lat":"31.22033","category":"76","category_name":"上海菜","address":"静安区延安中路1121号(近华山路)"},{"poiid":"B2094757D06BA4FC4493","title":"Windows久光店","lon":"121.446855586","lat":"31.2232922953","category":"500","category_name":"未知分类","address":"上海市静安区万航渡路"},{"poiid":"B2094757D06FA6F8499C","title":"小南国烧烤(久光店)","lon":"121.44737","lat":"31.22351","category":"95","category_name":"日本料理","address":"静安区南京西路1618号久光百货8楼(近静安寺)"},{"poiid":"B2094757D068A7FD4199","title":"釜山料理(越洋广场店)","lon":"121.447444586","lat":"31.2233062956","category":"247","category_name":"餐饮美食","address":"上海静安区南京西路1601号越洋广场B2楼"},{"poiid":"B2094757D06FA1F54799","title":"上海人家精作坊(航站店)","lon":"121.44726","lat":"31.22342","category":"76","category_name":"上海菜","address":"静安区南京西路1600号机场航站楼4楼(近常德路)"},{"poiid":"B2094757D065AAFD439C","title":"巴厘岛印尼东南亚餐厅","lon":"121.445717586","lat":"31.2222982759","category":"500","category_name":"未知分类","address":"上海市静安区华山路189号"},{"poiid":"B2094750DB64A1FE469A","title":"HENKES","lon":"121.44633","lat":"31.2229","category":"94","category_name":"西餐厅","address":"静安区南京西路1601号1楼E铺(近常德路)"},{"poiid":"B2094757D064A5F9439C","title":"Sabatini意大利餐厅","lon":"121.446666586","lat":"31.2211182528","category":"500","category_name":"未知分类","address":"南京西路1717号会德丰国际广场南苑1楼"},{"poiid":"B2094757D06FABFC459B","title":"鹤舞","lon":"121.44711","lat":"31.22347","category":"95","category_name":"日本料理","address":"静安区南京西路1618号久光百货8楼(近静安寺)"},{"poiid":"B2094757D06FA6F4449F","title":"清风人家(静安店)","lon":"121.44802","lat":"31.22035","category":"260","category_name":"其他","address":"静安区延安中路1109号(近延安饭店)"},{"poiid":"B2094757D46AA4F8469D","title":"COCO壱番屋 久光店","lon":"121.446597054","lat":"31.223581793","category":"95","category_name":"日本料理","address":"静安区南京西路1618号久光百货B1楼(近静安寺)"},{"poiid":"B2094757D068A3FD489E","title":"越洋广场美食街","lon":"121.446637586","lat":"31.2233442963","category":"260","category_name":"其他","address":"上海静安区南京西路1601号越洋广场B2"},{"poiid":"B2094757D06FA2F84799","title":"伊美时尚广场","lon":"121.44570962","lat":"31.222571385","category":"249","category_name":"购物服务","address":"静安区南京西路1699号伊美时尚广场内(近静安寺)"},{"poiid":"B2094757D069A7FA4698","title":"宝珠奶酪","lon":"121.447335586","lat":"31.2236733028","category":"67","category_name":"甜品店","address":"静安区南京西路1601号芮欧百货B2楼B244号(近地铁二号线七号线静安寺站10号口)"},{"poiid":"B2094753DA65ABFB459F","title":"小贝壳海鲜火锅","lon":"121.448814","lat":"31.222833","category":"247","category_name":"餐饮美食","address":"上海市 万航渡路1号"},{"poiid":"B2094757D568ABFA4998","title":"JACafe","lon":"121.44664","lat":"31.222799","category":"65","category_name":"咖啡厅","address":"中国上海市静安区南京西路"},{"poiid":"B2094750D76FAAFF429C","title":"PANKOO釜山料理(芮欧百货店)","lon":"121.446","lat":"31.2229","category":"96","category_name":"韩国料理","address":"静安区南京西路1601号芮欧百货B214室"},{"poiid":"B209475CDA6CABF4429E","title":"myst","lon":"121.447692","lat":"31.220817","category":"500","category_name":"未知分类","address":"上海市 静安区延安中路"},{"poiid":"B2094752D068A5FF479F","title":"RAT TAR ART BAR","lon":"121.446869","lat":"31.223206","category":"248","category_name":"生活娱乐","address":"南京西路1601号芮欧百货109室"},{"poiid":"B2094757D66DA5FF4798","title":"苏浙汇","lon":"121.44903058","lat":"31.221403258","category":"500","category_name":"未知分类","address":"上海延安西路"},{"poiid":"B2094752D664A7F94498","title":"Henkes","lon":"121.44739","lat":"31.222622","category":"247","category_name":"餐饮美食","address":"芮欧百货"},{"poiid":"B2094757D068ABFB439B","title":"战锅时代 越洋店","lon":"121.4476342","lat":"31.2238135","category":"71","category_name":"四川菜","address":"静安区南京西路1601号芮欧百货"},{"poiid":"B2094757D465A5F44898","title":"泰湖 久光店","lon":"121.446597054","lat":"31.223581793","category":"68","category_name":"快餐厅","address":"静安区南京西路1618号久光百货B1楼(近静安寺)"},{"poiid":"B2094757D16AA7FC439F","title":"莹七餐厅","lon":"121.449147586","lat":"31.221130253","category":"500","category_name":"未知分类","address":"上海巨鹿路805号"},{"poiid":"B2094757D06BABFC429C","title":"wagas(越洋广场)","lon":"121.447297586","lat":"31.2236533024","category":"500","category_name":"未知分类","address":"上海市静安区北京西路"},{"poiid":"B209475CD26FA2FC4392","title":"La Creperie","lon":"121.447349","lat":"31.223041","category":"500","category_name":"未知分类","address":"上海市 南京西路1601号芮欧百货1楼D座"},{"poiid":"B2094757D069A5FC499B","title":"翠华","lon":"121.44918058","lat":"31.221185254","category":"249","category_name":"购物服务","address":"上海静安区华山路"},{"poiid":"B2094757D06FA7F8449B","title":"静安寺下沉式广场","lon":"121.44625","lat":"31.22236","category":"119","category_name":"商场","address":"静安区南京西路(近华山路)"},{"poiid":"B2094757D06FA6FC4999","title":"COSTA COFFEE(越洋广场店)","lon":"121.44875","lat":"31.2223","category":"65","category_name":"咖啡厅","address":"静安区南京西路1601号越洋广场1楼B单元(近常德路)"},{"poiid":"B2094757D065A3FA459D","title":"coconut paradise","lon":"121.449070586","lat":"31.2214652596","category":"500","category_name":"未知分类","address":"上海市静安区富民路38号近巨鹿路"},{"poiid":"B209475CD16AA1FC459C","title":"艾米1895电影街","lon":"121.447013","lat":"31.222036","category":"178","category_name":"电影院","address":"上海市 上海市北京西路1829号4楼 靠近愚园路"},{"poiid":"B209475CD26DA4FE419A","title":"10·corso·como","lon":"121.445999","lat":"31.220499","category":"500","category_name":"未知分类","address":"上海市 南京西路1717号会德丰广场北院"},{"poiid":"B2094750D66CABFA429C","title":"筑地银章鱼烧Gindaco","lon":"121.447265","lat":"31.22351","category":"68","category_name":"快餐厅","address":"静安区南京西路1601号芮欧百货B2楼ReelKitchen内(近静安寺)"},{"poiid":"B2094750D664A7FF4992","title":"琥家拉面(芮欧百货店)","lon":"121.446","lat":"31.2229","category":"95","category_name":"日本料理","address":"静安区南京西路1601号芮欧百货B2楼"},{"poiid":"B2094757D069A6F84999","title":"复茂小龙虾(万航店)","lon":"121.44610058","lat":"31.222838286","category":"68","category_name":"快餐厅","address":"静安区万航渡路450号(近镇宁路)"},{"poiid":"B2094757D069A2F5479E","title":"和兴汤馆","lon":"121.44792946","lat":"31.221589774","category":"72","category_name":"广东菜","address":"静安区延安中路1123号(近富民路)"},{"poiid":"B2094757D169A0F84593","title":"一哥火锅","lon":"121.449226586","lat":"31.2211502534","category":"247","category_name":"餐饮美食","address":"上海市静安区华山路"},{"poiid":"B2094654DB6BA6FC429E","title":"格林豪泰(上海延安中路店)","lon":"121.4485","lat":"31.22102","category":"216","category_name":"经济型连锁酒店","address":"上海市延安中路1111号(近华山路)"},{"poiid":"B2094655D269ABFD469B","title":"静安寺","lon":"121.44552","lat":"31.22324","category":"244","category_name":"寺庙道观","address":"静安区南京西路1686号(近静安寺)"},{"poiid":"B2094655D26EA2FD4592","title":"巴厘岛","lon":"121.44594","lat":"31.22133","category":"110","category_name":"其他亚洲菜","address":"静安区华山路189号静安公园3号门(近延安路高架)"},{"poiid":"B2094655D26FA2FA429D","title":"越洋廣場","lon":"121.44767667724614","lat":"31.223172433526056","category":"249","category_name":"购物服务","address":"上海市静安区常德路"},{"poiid":"B2094753D76FAAFA449C","title":"上海滩国泰旗舰店","lon":"121.466011","lat":"31.216125","category":"249","category_name":"购物服务","address":"淮海中路868号"},{"poiid":"B209475CD564A7F84292","title":"上海滩新天地店","lon":"121.47463","lat":"31.22164","category":"119","category_name":"商场","address":"\"太仓路181弄新天地北里15号\r\n\""},{"poiid":"B209475CD564A7F8439E","title":"上海滩中信泰富店","lon":"121.45602","lat":"31.22851","category":"119","category_name":"商场","address":"\"南京西路1168号中信泰富广场，店铺号221.\r\n\""},{"poiid":"B2094757D06FA2FE479F","title":"哈根达斯(久光二店)","lon":"121.447189586","lat":"31.2235192998","category":"113","category_name":"冷饮店","address":"静安区南京西路1618号久光百货2楼S223号商铺(近静安寺)"},{"poiid":"B2094655D26CAAF44692","title":"璞丽酒店(常德路)","lon":"121.44858","lat":"31.22251","category":"250","category_name":"公园户外","address":"静安区常德路1号(近延安中路)"},{"poiid":"B2094757D06EAAFF469B","title":"静安寺地铁站","lon":"121.446432","lat":"31.223208","category":"36","category_name":"地铁站","address":"上海轨道交通 二号线 七号线 轨交静安寺站 2 7"},{"poiid":"B2094655D26EA1FE449F","title":"上海延安饭店","lon":"121.44827","lat":"31.22062","category":"214","category_name":"四星级宾馆","address":"静安区延安中路1111号(近华山路)"},{"poiid":"B2094757D06EAAFB4999","title":"Reel Kitchen","lon":"121.44711328","lat":"31.223639802","category":"260","category_name":"其他","address":"上海市靜安區南京西路1601號B2"},{"poiid":"B2094655D268A2FA409B","title":"多乐星 旗舰店 Donut King","lon":"121.445782054","lat":"31.222489793","category":"65","category_name":"咖啡厅","address":"静安区南京西路1649号静安公园内(久光百货对面)"},{"poiid":"B2094757D06FA7FA4899","title":"苏浙汇(静安店)","lon":"121.4476","lat":"31.22033","category":"76","category_name":"上海菜","address":"静安区延安中路1121号(近华山路)"},{"poiid":"B2094757D06BA4FC4493","title":"Windows久光店","lon":"121.446855586","lat":"31.2232922953","category":"500","category_name":"未知分类","address":"上海市静安区万航渡路"},{"poiid":"B2094757D06FA6F8499C","title":"小南国烧烤(久光店)","lon":"121.44737","lat":"31.22351","category":"95","category_name":"日本料理","address":"静安区南京西路1618号久光百货8楼(近静安寺)"},{"poiid":"B2094757D068A7FD4199","title":"釜山料理(越洋广场店)","lon":"121.447444586","lat":"31.2233062956","category":"247","category_name":"餐饮美食","address":"上海静安区南京西路1601号越洋广场B2楼"},{"poiid":"B2094757D06FA1F54799","title":"上海人家精作坊(航站店)","lon":"121.44726","lat":"31.22342","category":"76","category_name":"上海菜","address":"静安区南京西路1600号机场航站楼4楼(近常德路)"},{"poiid":"B2094757D065AAFD439C","title":"巴厘岛印尼东南亚餐厅","lon":"121.445717586","lat":"31.2222982759","category":"500","category_name":"未知分类","address":"上海市静安区华山路189号"},{"poiid":"B2094750DB64A1FE469A","title":"HENKES","lon":"121.44633","lat":"31.2229","category":"94","category_name":"西餐厅","address":"静安区南京西路1601号1楼E铺(近常德路)"},{"poiid":"B2094757D064A5F9439C","title":"Sabatini意大利餐厅","lon":"121.446666586","lat":"31.2211182528","category":"500","category_name":"未知分类","address":"南京西路1717号会德丰国际广场南苑1楼"},{"poiid":"B2094757D06FABFC459B","title":"鹤舞","lon":"121.44711","lat":"31.22347","category":"95","category_name":"日本料理","address":"静安区南京西路1618号久光百货8楼(近静安寺)"},{"poiid":"B2094757D06FA6F4449F","title":"清风人家(静安店)","lon":"121.44802","lat":"31.22035","category":"260","category_name":"其他","address":"静安区延安中路1109号(近延安饭店)"},{"poiid":"B2094757D46AA4F8469D","title":"COCO壱番屋 久光店","lon":"121.446597054","lat":"31.223581793","category":"95","category_name":"日本料理","address":"静安区南京西路1618号久光百货B1楼(近静安寺)"},{"poiid":"B2094757D068A3FD489E","title":"越洋广场美食街","lon":"121.446637586","lat":"31.2233442963","category":"260","category_name":"其他","address":"上海静安区南京西路1601号越洋广场B2"},{"poiid":"B2094757D06FA2F84799","title":"伊美时尚广场","lon":"121.44570962","lat":"31.222571385","category":"249","category_name":"购物服务","address":"静安区南京西路1699号伊美时尚广场内(近静安寺)"},{"poiid":"B2094757D069A7FA4698","title":"宝珠奶酪","lon":"121.447335586","lat":"31.2236733028","category":"67","category_name":"甜品店","address":"静安区南京西路1601号芮欧百货B2楼B244号(近地铁二号线七号线静安寺站10号口)"},{"poiid":"B2094753DA65ABFB459F","title":"小贝壳海鲜火锅","lon":"121.448814","lat":"31.222833","category":"247","category_name":"餐饮美食","address":"上海市 万航渡路1号"},{"poiid":"B2094757D568ABFA4998","title":"JACafe","lon":"121.44664","lat":"31.222799","category":"65","category_name":"咖啡厅","address":"中国上海市静安区南京西路"},{"poiid":"B2094750D76FAAFF429C","title":"PANKOO釜山料理(芮欧百货店)","lon":"121.446","lat":"31.2229","category":"96","category_name":"韩国料理","address":"静安区南京西路1601号芮欧百货B214室"},{"poiid":"B209475CDA6CABF4429E","title":"myst","lon":"121.447692","lat":"31.220817","category":"500","category_name":"未知分类","address":"上海市 静安区延安中路"},{"poiid":"B2094752D068A5FF479F","title":"RAT TAR ART BAR","lon":"121.446869","lat":"31.223206","category":"248","category_name":"生活娱乐","address":"南京西路1601号芮欧百货109室"},{"poiid":"B2094757D66DA5FF4798","title":"苏浙汇","lon":"121.44903058","lat":"31.221403258","category":"500","category_name":"未知分类","address":"上海延安西路"},{"poiid":"B2094752D664A7F94498","title":"Henkes","lon":"121.44739","lat":"31.222622","category":"247","category_name":"餐饮美食","address":"芮欧百货"},{"poiid":"B2094757D068ABFB439B","title":"战锅时代 越洋店","lon":"121.4476342","lat":"31.2238135","category":"71","category_name":"四川菜","address":"静安区南京西路1601号芮欧百货"},{"poiid":"B2094757D465A5F44898","title":"泰湖 久光店","lon":"121.446597054","lat":"31.223581793","category":"68","category_name":"快餐厅","address":"静安区南京西路1618号久光百货B1楼(近静安寺)"},{"poiid":"B2094757D16AA7FC439F","title":"莹七餐厅","lon":"121.449147586","lat":"31.221130253","category":"500","category_name":"未知分类","address":"上海巨鹿路805号"},{"poiid":"B2094757D06BABFC429C","title":"wagas(越洋广场)","lon":"121.447297586","lat":"31.2236533024","category":"500","category_name":"未知分类","address":"上海市静安区北京西路"},{"poiid":"B209475CD26FA2FC4392","title":"La Creperie","lon":"121.447349","lat":"31.223041","category":"500","category_name":"未知分类","address":"上海市 南京西路1601号芮欧百货1楼D座"},{"poiid":"B2094757D069A5FC499B","title":"翠华","lon":"121.44918058","lat":"31.221185254","category":"249","category_name":"购物服务","address":"上海静安区华山路"},{"poiid":"B2094757D06FA7F8449B","title":"静安寺下沉式广场","lon":"121.44625","lat":"31.22236","category":"119","category_name":"商场","address":"静安区南京西路(近华山路)"},{"poiid":"B2094757D06FA6FC4999","title":"COSTA COFFEE(越洋广场店)","lon":"121.44875","lat":"31.2223","category":"65","category_name":"咖啡厅","address":"静安区南京西路1601号越洋广场1楼B单元(近常德路)"},{"poiid":"B2094757D065A3FA459D","title":"coconut paradise","lon":"121.449070586","lat":"31.2214652596","category":"500","category_name":"未知分类","address":"上海市静安区富民路38号近巨鹿路"},{"poiid":"B209475CD16AA1FC459C","title":"艾米1895电影街","lon":"121.447013","lat":"31.222036","category":"178","category_name":"电影院","address":"上海市 上海市北京西路1829号4楼 靠近愚园路"},{"poiid":"B209475CD26DA4FE419A","title":"10·corso·como","lon":"121.445999","lat":"31.220499","category":"500","category_name":"未知分类","address":"上海市 南京西路1717号会德丰广场北院"},{"poiid":"B2094750D66CABFA429C","title":"筑地银章鱼烧Gindaco","lon":"121.447265","lat":"31.22351","category":"68","category_name":"快餐厅","address":"静安区南京西路1601号芮欧百货B2楼ReelKitchen内(近静安寺)"},{"poiid":"B2094750D664A7FF4992","title":"琥家拉面(芮欧百货店)","lon":"121.446","lat":"31.2229","category":"95","category_name":"日本料理","address":"静安区南京西路1601号芮欧百货B2楼"},{"poiid":"B2094757D069A6F84999","title":"复茂小龙虾(万航店)","lon":"121.44610058","lat":"31.222838286","category":"68","category_name":"快餐厅","address":"静安区万航渡路450号(近镇宁路)"},{"poiid":"B2094757D069A2F5479E","title":"和兴汤馆","lon":"121.44792946","lat":"31.221589774","category":"72","category_name":"广东菜","address":"静安区延安中路1123号(近富民路)"},{"poiid":"B2094757D169A0F84593","title":"一哥火锅","lon":"121.449226586","lat":"31.2211502534","category":"247","category_name":"餐饮美食","address":"上海市静安区华山路"},{"poiid":"B2094654DB6BA6FC429E","title":"格林豪泰(上海延安中路店)","lon":"121.4485","lat":"31.22102","category":"216","category_name":"经济型连锁酒店","address":"上海市延安中路1111号(近华山路)"},{"poiid":"B2094655D269ABFD469B","title":"静安寺","lon":"121.44552","lat":"31.22324","category":"244","category_name":"寺庙道观","address":"静安区南京西路1686号(近静安寺)"},{"poiid":"B2094655D26EA2FD4592","title":"巴厘岛","lon":"121.44594","lat":"31.22133","category":"110","category_name":"其他亚洲菜","address":"静安区华山路189号静安公园3号门(近延安路高架)"},{"poiid":"B2094655D26FA2FA429D","title":"越洋廣場","lon":"121.44767667724614","lat":"31.223172433526056","category":"249","category_name":"购物服务","address":"上海市静安区常德路"},{"poiid":"B2094753D76FAAFA449C","title":"上海滩国泰旗舰店","lon":"121.466011","lat":"31.216125","category":"249","category_name":"购物服务","address":"淮海中路868号"},{"poiid":"B209475CD564A7F84292","title":"上海滩新天地店","lon":"121.47463","lat":"31.22164","category":"119","category_name":"商场","address":"\"太仓路181弄新天地北里15号\r\n\""},{"poiid":"B209475CD564A7F8439E","title":"上海滩中信泰富店","lon":"121.45602","lat":"31.22851","category":"119","category_name":"商场","address":"\"南京西路1168号中信泰富广场，店铺号221.\r\n\""},{"poiid":"B2094757D06FA2FE479F","title":"哈根达斯(久光二店)","lon":"121.447189586","lat":"31.2235192998","category":"113","category_name":"冷饮店","address":"静安区南京西路1618号久光百货2楼S223号商铺(近静安寺)"},{"poiid":"B2094655D26CAAF44692","title":"璞丽酒店(常德路)","lon":"121.44858","lat":"31.22251","category":"250","category_name":"公园户外","address":"静安区常德路1号(近延安中路)"},{"poiid":"B2094757D06EAAFF469B","title":"静安寺地铁站","lon":"121.446432","lat":"31.223208","category":"36","category_name":"地铁站","address":"上海轨道交通 二号线 七号线 轨交静安寺站 2 7"},{"poiid":"B2094655D26EA1FE449F","title":"上海延安饭店","lon":"121.44827","lat":"31.22062","category":"214","category_name":"四星级宾馆","address":"静安区延安中路1111号(近华山路)"},{"poiid":"B2094757D06EAAFB4999","title":"Reel Kitchen","lon":"121.44711328","lat":"31.223639802","category":"260","category_name":"其他","address":"上海市靜安區南京西路1601號B2"},{"poiid":"B2094655D268A2FA409B","title":"多乐星 旗舰店 Donut King","lon":"121.445782054","lat":"31.222489793","category":"65","category_name":"咖啡厅","address":"静安区南京西路1649号静安公园内(久光百货对面)"},{"poiid":"B2094757D06FA7FA4899","title":"苏浙汇(静安店)","lon":"121.4476","lat":"31.22033","category":"76","category_name":"上海菜","address":"静安区延安中路1121号(近华山路)"},{"poiid":"B2094757D06BA4FC4493","title":"Windows久光店","lon":"121.446855586","lat":"31.2232922953","category":"500","category_name":"未知分类","address":"上海市静安区万航渡路"},{"poiid":"B2094757D06FA6F8499C","title":"小南国烧烤(久光店)","lon":"121.44737","lat":"31.22351","category":"95","category_name":"日本料理","address":"静安区南京西路1618号久光百货8楼(近静安寺)"},{"poiid":"B2094757D068A7FD4199","title":"釜山料理(越洋广场店)","lon":"121.447444586","lat":"31.2233062956","category":"247","category_name":"餐饮美食","address":"上海静安区南京西路1601号越洋广场B2楼"},{"poiid":"B2094757D06FA1F54799","title":"上海人家精作坊(航站店)","lon":"121.44726","lat":"31.22342","category":"76","category_name":"上海菜","address":"静安区南京西路1600号机场航站楼4楼(近常德路)"},{"poiid":"B2094757D065AAFD439C","title":"巴厘岛印尼东南亚餐厅","lon":"121.445717586","lat":"31.2222982759","category":"500","category_name":"未知分类","address":"上海市静安区华山路189号"},{"poiid":"B2094750DB64A1FE469A","title":"HENKES","lon":"121.44633","lat":"31.2229","category":"94","category_name":"西餐厅","address":"静安区南京西路1601号1楼E铺(近常德路)"},{"poiid":"B2094757D064A5F9439C","title":"Sabatini意大利餐厅","lon":"121.446666586","lat":"31.2211182528","category":"500","category_name":"未知分类","address":"南京西路1717号会德丰国际广场南苑1楼"},{"poiid":"B2094757D06FABFC459B","title":"鹤舞","lon":"121.44711","lat":"31.22347","category":"95","category_name":"日本料理","address":"静安区南京西路1618号久光百货8楼(近静安寺)"},{"poiid":"B2094757D06FA6F4449F","title":"清风人家(静安店)","lon":"121.44802","lat":"31.22035","category":"260","category_name":"其他","address":"静安区延安中路1109号(近延安饭店)"},{"poiid":"B2094757D46AA4F8469D","title":"COCO壱番屋 久光店","lon":"121.446597054","lat":"31.223581793","category":"95","category_name":"日本料理","address":"静安区南京西路1618号久光百货B1楼(近静安寺)"},{"poiid":"B2094757D068A3FD489E","title":"越洋广场美食街","lon":"121.446637586","lat":"31.2233442963","category":"260","category_name":"其他","address":"上海静安区南京西路1601号越洋广场B2"},{"poiid":"B2094757D06FA2F84799","title":"伊美时尚广场","lon":"121.44570962","lat":"31.222571385","category":"249","category_name":"购物服务","address":"静安区南京西路1699号伊美时尚广场内(近静安寺)"},{"poiid":"B2094757D069A7FA4698","title":"宝珠奶酪","lon":"121.447335586","lat":"31.2236733028","category":"67","category_name":"甜品店","address":"静安区南京西路1601号芮欧百货B2楼B244号(近地铁二号线七号线静安寺站10号口)"},{"poiid":"B2094753DA65ABFB459F","title":"小贝壳海鲜火锅","lon":"121.448814","lat":"31.222833","category":"247","category_name":"餐饮美食","address":"上海市 万航渡路1号"},{"poiid":"B2094757D568ABFA4998","title":"JACafe","lon":"121.44664","lat":"31.222799","category":"65","category_name":"咖啡厅","address":"中国上海市静安区南京西路"},{"poiid":"B2094750D76FAAFF429C","title":"PANKOO釜山料理(芮欧百货店)","lon":"121.446","lat":"31.2229","category":"96","category_name":"韩国料理","address":"静安区南京西路1601号芮欧百货B214室"},{"poiid":"B209475CDA6CABF4429E","title":"myst","lon":"121.447692","lat":"31.220817","category":"500","category_name":"未知分类","address":"上海市 静安区延安中路"},{"poiid":"B2094752D068A5FF479F","title":"RAT TAR ART BAR","lon":"121.446869","lat":"31.223206","category":"248","category_name":"生活娱乐","address":"南京西路1601号芮欧百货109室"},{"poiid":"B2094757D66DA5FF4798","title":"苏浙汇","lon":"121.44903058","lat":"31.221403258","category":"500","category_name":"未知分类","address":"上海延安西路"},{"poiid":"B2094752D664A7F94498","title":"Henkes","lon":"121.44739","lat":"31.222622","category":"247","category_name":"餐饮美食","address":"芮欧百货"},{"poiid":"B2094757D068ABFB439B","title":"战锅时代 越洋店","lon":"121.4476342","lat":"31.2238135","category":"71","category_name":"四川菜","address":"静安区南京西路1601号芮欧百货"},{"poiid":"B2094757D465A5F44898","title":"泰湖 久光店","lon":"121.446597054","lat":"31.223581793","category":"68","category_name":"快餐厅","address":"静安区南京西路1618号久光百货B1楼(近静安寺)"},{"poiid":"B2094757D16AA7FC439F","title":"莹七餐厅","lon":"121.449147586","lat":"31.221130253","category":"500","category_name":"未知分类","address":"上海巨鹿路805号"},{"poiid":"B2094757D06BABFC429C","title":"wagas(越洋广场)","lon":"121.447297586","lat":"31.2236533024","category":"500","category_name":"未知分类","address":"上海市静安区北京西路"},{"poiid":"B209475CD26FA2FC4392","title":"La Creperie","lon":"121.447349","lat":"31.223041","category":"500","category_name":"未知分类","address":"上海市 南京西路1601号芮欧百货1楼D座"},{"poiid":"B2094757D069A5FC499B","title":"翠华","lon":"121.44918058","lat":"31.221185254","category":"249","category_name":"购物服务","address":"上海静安区华山路"},{"poiid":"B2094757D06FA7F8449B","title":"静安寺下沉式广场","lon":"121.44625","lat":"31.22236","category":"119","category_name":"商场","address":"静安区南京西路(近华山路)"},{"poiid":"B2094757D06FA6FC4999","title":"COSTA COFFEE(越洋广场店)","lon":"121.44875","lat":"31.2223","category":"65","category_name":"咖啡厅","address":"静安区南京西路1601号越洋广场1楼B单元(近常德路)"},{"poiid":"B2094757D065A3FA459D","title":"coconut paradise","lon":"121.449070586","lat":"31.2214652596","category":"500","category_name":"未知分类","address":"上海市静安区富民路38号近巨鹿路"},{"poiid":"B209475CD16AA1FC459C","title":"艾米1895电影街","lon":"121.447013","lat":"31.222036","category":"178","category_name":"电影院","address":"上海市 上海市北京西路1829号4楼 靠近愚园路"},{"poiid":"B209475CD26DA4FE419A","title":"10·corso·como","lon":"121.445999","lat":"31.220499","category":"500","category_name":"未知分类","address":"上海市 南京西路1717号会德丰广场北院"},{"poiid":"B2094750D66CABFA429C","title":"筑地银章鱼烧Gindaco","lon":"121.447265","lat":"31.22351","category":"68","category_name":"快餐厅","address":"静安区南京西路1601号芮欧百货B2楼ReelKitchen内(近静安寺)"},{"poiid":"B2094750D664A7FF4992","title":"琥家拉面(芮欧百货店)","lon":"121.446","lat":"31.2229","category":"95","category_name":"日本料理","address":"静安区南京西路1601号芮欧百货B2楼"},{"poiid":"B2094757D069A6F84999","title":"复茂小龙虾(万航店)","lon":"121.44610058","lat":"31.222838286","category":"68","category_name":"快餐厅","address":"静安区万航渡路450号(近镇宁路)"},{"poiid":"B2094757D069A2F5479E","title":"和兴汤馆","lon":"121.44792946","lat":"31.221589774","category":"72","category_name":"广东菜","address":"静安区延安中路1123号(近富民路)"},{"poiid":"B2094757D169A0F84593","title":"一哥火锅","lon":"121.449226586","lat":"31.2211502534","category":"247","category_name":"餐饮美食","address":"上海市静安区华山路"},{"poiid":"B2094654DB6BA6FC429E","title":"格林豪泰(上海延安中路店)","lon":"121.4485","lat":"31.22102","category":"216","category_name":"经济型连锁酒店","address":"上海市延安中路1111号(近华山路)"}]