[{"poiid":"B2094757D66FA6FB4192","title":"星巴克 STARBUCKS (江苏路店)","lon":"121.4311","lat":"31.21871","category":"65","category_name":"咖啡厅","address":"长宁区江苏路458号舜元弘基天地1楼116室(近宣化路)"},{"poiid":"B2094757D06FA7FC4499","title":"福1039","lon":"121.43052","lat":"31.21855","category":"76","category_name":"上海菜","address":"长宁区愚园路1039号(近江苏路)"},{"poiid":"B2094757D06AA1F9409A","title":"江苏路愚园路","lon":"121.430786586","lat":"31.2201002329","category":"500","category_name":"未知分类","address":"上海市"},{"poiid":"B209475CD564A7F8439E","title":"上海滩中信泰富店","lon":"121.45602","lat":"31.22851","category":"119","category_name":"商场","address":"\"南京西路1168号中信泰富广场，店铺号221.\r\n\""},{"poiid":"B2094757D169A4FA4698","title":"愚园路","lon":"121.427104586","lat":"31.2190412122","category":"500","category_name":"未知分类","address":"上海愚园路1155弄"},{"poiid":"B2094757D069A5FE459B","title":"长宁区少年宫","lon":"121.42641758","lat":"31.219353218","category":"248","category_name":"生活娱乐","address":"长宁区愚园路1136弄31号"},{"poiid":"B2094757D16FA5FB439B","title":"Tiramisu Italian Restaurant","lon":"121.42796058","lat":"31.217515182","category":"94","category_name":"西餐厅","address":"长宁区宣化路100号(近江苏路)"},{"poiid":"B2094751D368A2FF439B","title":"源石日本料理","lon":"121.43071","lat":"31.21831","category":"95","category_name":"日本料理","address":"长宁区江苏路458号弘基天地2楼(近宣化路)"},{"poiid":"B2094654D565A6F9439B","title":"百味手拨虾","lon":"121.42834","lat":"31.2189","category":"257","category_name":"中餐厅","address":"长宁区愚园路1096号(近江苏路)"},{"poiid":"B2094757D16EA6FD489C","title":"长宁区","lon":"121.426747322","lat":"31.220535541","category":"250","category_name":"公园户外","address":"上海长宁区区域"},{"poiid":"B2094655D26DA2FE419B","title":"弘基创邑国际园","lon":"121.42823","lat":"31.21826","category":"45","category_name":"产业园区","address":"长宁区愚园路1107号(近江苏路)"},{"poiid":"B2094750DA6DA2FF4692","title":"质馆咖啡","lon":"121.430816","lat":"31.218475","category":"247","category_name":"餐饮美食","address":"长宁区江苏路398号舜元大厦停车场入口处(近星巴克)"},{"poiid":"B2094757D06FA0FB4193","title":"肯德基KFC(江苏路店)","lon":"121.431109","lat":"31.21894","category":"68","category_name":"快餐厅","address":"上海长宁区江苏路398号舜元弘基天地1楼(近宣化路)"},{"poiid":"B2094757D16EA4F5499F","title":"唐恩都乐(愚园店)","lon":"121.425279586","lat":"31.2190882131","category":"67","category_name":"甜品店","address":"长宁区愚园路1277号附近(近安西路)"},{"poiid":"B2094757D06FA4F9409F","title":"上海医药职工大学","lon":"121.43099","lat":"31.21871","category":"671","category_name":"高校中心点","address":"长宁区愚园路1088弄48号(近江苏路)"},{"poiid":"B2094757DB68A1FE4692","title":"大马可","lon":"121.42893","lat":"31.219728","category":"500","category_name":"未知分类","address":"维景酒店一楼"},{"poiid":"B2094757D069ABFC4098","title":"福1015","lon":"121.430094","lat":"31.21871","category":"76","category_name":"上海菜","address":"长宁区愚园路1015号"},{"poiid":"B2094757D068A4FF479A","title":"长宁温水游泳池","lon":"121.43026","lat":"31.21814","category":"231","category_name":"游泳馆","address":"上海长宁区愚园路1041号(近江苏路)"},{"poiid":"B2094757D06FA7FB4498","title":"星伟桌球","lon":"121.42575","lat":"31.21863","category":"171","category_name":"台球厅","address":"长宁区宣化路311号6楼(近巴黎春天)"},{"poiid":"B2094757D068A6FD409F","title":"KIKIS炭烧","lon":"121.431169054","lat":"31.217912793","category":"269","category_name":"烧烤","address":"长宁区江苏路458号舜元弘基广场2楼(近宣化路)"},{"poiid":"B2094757D064A4F9469B","title":"鼎尚创意餐厅","lon":"121.42536","lat":"31.21996","category":"95","category_name":"日本料理","address":"长宁区长宁区江苏路458号弘基天地2楼(近宣化路)"},{"poiid":"B2094757D06EAAF44392","title":"江苏路营业厅","lon":"121.431045532","lat":"31.2184104919","category":"138","category_name":"家电电子卖场","address":"长宁区江苏路458号110室"},{"poiid":"B2094757D06BA0F94098","title":"苏州面馆","lon":"121.428344","lat":"31.218721","category":"68","category_name":"快餐厅","address":"长宁区愚园路1301号(近中山公园)"},{"poiid":"B2094757D06BA0FE4792","title":"安西路","lon":"121.425997","lat":"31.218903","category":"500","category_name":"未知分类","address":"上海愚园路安西路"},{"poiid":"B2094757D069AAFD419A","title":"润湘之(宣化路店)","lon":"121.42981","lat":"31.21727","category":"77","category_name":"湖南菜","address":"上海长宁区宣化路59号(近江苏路)"},{"poiid":"B2094654D565A7F5479E","title":"辽油大厦","lon":"121.43","lat":"31.2181","category":"46","category_name":"楼宇","address":"上海长宁区定西路1100号"},{"poiid":"B2094655D26DA7FF489B","title":"中国银行上海市愚园路支行","lon":"121.4281","lat":"31.21885","category":"150","category_name":"银行","address":"长宁区愚园路1118号"},{"poiid":"B2094757D068A4FF4298","title":"长峰大厦","lon":"121.42821704422","lat":"31.221813972967","category":"46","category_name":"楼宇","address":"上海定西路1277号"},{"poiid":"B2094654D565A6F5479C","title":"武定大厦","lon":"121.42842799209","lat":"31.218871725488","category":"46","category_name":"楼宇","address":"武夷路418弄1"},{"poiid":"B2094757D168A1FD4298","title":"银统大厦","lon":"121.43","lat":"31.2166","category":"46","category_name":"楼宇","address":"上海市长宁区遵义南路88号"},{"poiid":"B2094654DB65A4F4459B","title":"罗柏记快餐","lon":"121.43090303812","lat":"31.217876284587","category":"68","category_name":"快餐厅","address":"长宁区宣化路51号(近江苏路)"},{"poiid":"B209475CD264A3F54899","title":"地铁站","lon":"121.430015","lat":"31.221008","category":"36","category_name":"地铁站","address":"上海市 11号线交通大学站"},{"poiid":"B2094757D068A6FF469C","title":"Bill飚记面铺","lon":"121.42967","lat":"31.21737","category":"68","category_name":"快餐厅","address":"长宁区宣化路75号(近江苏路)"},{"poiid":"B2094655D26CABFE439D","title":"可的(上海市长宁区政协东南)","lon":"121.42783","lat":"31.21894","category":"117","category_name":"便民商店/便利店","address":"愚园路1134"},{"poiid":"B2094655D264A6FF4998","title":"阳光剧场","lon":"121.42747","lat":"31.21946","category":"180","category_name":"剧场","address":"上海愚园路"},{"poiid":"B2094654D565A6F9429E","title":"华阳地段医院愚园路门诊部","lon":"121.42868","lat":"31.21887","category":"162","category_name":"医院","address":"愚园路1086"},{"poiid":"B2094757D16CA0FD409C","title":"宏业花园","lon":"121.42867","lat":"31.21946","category":"47","category_name":"住宅区","address":"上海长宁区愚园路1088弄"},{"poiid":"B2094750DA6DA6FD4892","title":"Z ’ PARK BAR","lon":"121.427551","lat":"31.217639","category":"247","category_name":"餐饮美食","address":"中山公园龙之梦25F"},{"poiid":"B2094655D26AAAFE449F","title":"春在中国愚园路店","lon":"121.42834","lat":"31.2183","category":"123","category_name":"家具建材市场","address":"静安区愚园路1107号1楼102号"},{"poiid":"B2094655D26DA7FA449C","title":"宏业花园(南门)","lon":"121.42861","lat":"31.21891","category":"47","category_name":"住宅区","address":"愚园路1088弄110支弄5-168号"},{"poiid":"B2094750D56FAAFB489A","title":"星巴克","lon":"121.431","lat":"31.2192","category":"260","category_name":"其他","address":"长宁区愚园路1000号(近江苏路)"},{"poiid":"B2094654DB65A2FE499C","title":"上海学生美术馆","lon":"121.42743","lat":"31.21961","category":"184","category_name":"美术馆","address":""},{"poiid":"B2094654D565A6FE439C","title":"南辉小区","lon":"121.42964","lat":"31.217155","category":"47","category_name":"住宅区","address":"宣化路113弄1-6,8,10,12,89,97,105,121,129,137号"},{"poiid":"B2094757D66CA5FF4398","title":"正宗绿豆饼","lon":"121.42747923","lat":"31.218210595","category":"247","category_name":"餐饮美食","address":"上海市长宁区长宁路770号"},{"poiid":"B2094654D565A6F9439F","title":"上海市长宁区新世纪培训学校","lon":"121.42825","lat":"31.21893","category":"190","category_name":"培训机构","address":"愚园路1112弄4-31号"},{"poiid":"B2094654D565A6F94498","title":"上海形家广告设计有限公司","lon":"121.42805","lat":"31.21883","category":"263","category_name":"公司","address":"愚园路1118号3层"},{"poiid":"B2094757D068A4FF4499","title":"江苏路派出所","lon":"121.42839459","lat":"31.217337486","category":"609","category_name":"警察局","address":"上海愚园路1171号"},{"poiid":"B2094655D26BABFF4899","title":"GioiamiaItalianRestaurantLoungeBar","lon":"121.42818","lat":"31.21763","category":"65","category_name":"咖啡厅","address":"宣化路100临"},{"poiid":"B2094757D069A5FE449F","title":"蚝门","lon":"121.42639","lat":"31.21883","category":"68","category_name":"快餐厅","address":"长宁区愚园路1203弄(近安西路)"},{"poiid":"B2094654D565A6FE489B","title":"宣化小区","lon":"121.42895","lat":"31.218029","category":"47","category_name":"住宅区","address":"宣化路72弄1-23号"},{"poiid":"B2094757D66FA6FB4192","title":"星巴克 STARBUCKS (江苏路店)","lon":"121.4311","lat":"31.21871","category":"65","category_name":"咖啡厅","address":"长宁区江苏路458号舜元弘基天地1楼116室(近宣化路)"},{"poiid":"B2094757D06FA7FC4499","title":"福1039","lon":"121.43052","lat":"31.21855","category":"76","category_name":"上海菜","address":"长宁区愚园路1039号(近江苏路)"},{"poiid":"B2094757D06AA1F9409A","title":"江苏路愚园路","lon":"121.430786586","lat":"31.2201002329","category":"500","category_name":"未知分类","address":"上海市"},{"poiid":"B209475CD564A7F8439E","title":"上海滩中信泰富店","lon":"121.45602","lat":"31.22851","category":"119","category_name":"商场","address":"\"南京西路1168号中信泰富广场，店铺号221.\r\n\""},{"poiid":"B2094757D169A4FA4698","title":"愚园路","lon":"121.427104586","lat":"31.2190412122","category":"500","category_name":"未知分类","address":"上海愚园路1155弄"},{"poiid":"B2094757D069A5FE459B","title":"长宁区少年宫","lon":"121.42641758","lat":"31.219353218","category":"248","category_name":"生活娱乐","address":"长宁区愚园路1136弄31号"},{"poiid":"B2094757D16FA5FB439B","title":"Tiramisu Italian Restaurant","lon":"121.42796058","lat":"31.217515182","category":"94","category_name":"西餐厅","address":"长宁区宣化路100号(近江苏路)"},{"poiid":"B2094751D368A2FF439B","title":"源石日本料理","lon":"121.43071","lat":"31.21831","category":"95","category_name":"日本料理","address":"长宁区江苏路458号弘基天地2楼(近宣化路)"},{"poiid":"B2094654D565A6F9439B","title":"百味手拨虾","lon":"121.42834","lat":"31.2189","category":"257","category_name":"中餐厅","address":"长宁区愚园路1096号(近江苏路)"},{"poiid":"B2094757D16EA6FD489C","title":"长宁区","lon":"121.426747322","lat":"31.220535541","category":"250","category_name":"公园户外","address":"上海长宁区区域"},{"poiid":"B2094655D26DA2FE419B","title":"弘基创邑国际园","lon":"121.42823","lat":"31.21826","category":"45","category_name":"产业园区","address":"长宁区愚园路1107号(近江苏路)"},{"poiid":"B2094750DA6DA2FF4692","title":"质馆咖啡","lon":"121.430816","lat":"31.218475","category":"247","category_name":"餐饮美食","address":"长宁区江苏路398号舜元大厦停车场入口处(近星巴克)"},{"poiid":"B2094757D06FA0FB4193","title":"肯德基KFC(江苏路店)","lon":"121.431109","lat":"31.21894","category":"68","category_name":"快餐厅","address":"上海长宁区江苏路398号舜元弘基天地1楼(近宣化路)"},{"poiid":"B2094757D16EA4F5499F","title":"唐恩都乐(愚园店)","lon":"121.425279586","lat":"31.2190882131","category":"67","category_name":"甜品店","address":"长宁区愚园路1277号附近(近安西路)"},{"poiid":"B2094757D06FA4F9409F","title":"上海医药职工大学","lon":"121.43099","lat":"31.21871","category":"671","category_name":"高校中心点","address":"长宁区愚园路1088弄48号(近江苏路)"},{"poiid":"B2094757DB68A1FE4692","title":"大马可","lon":"121.42893","lat":"31.219728","category":"500","category_name":"未知分类","address":"维景酒店一楼"},{"poiid":"B2094757D069ABFC4098","title":"福1015","lon":"121.430094","lat":"31.21871","category":"76","category_name":"上海菜","address":"长宁区愚园路1015号"},{"poiid":"B2094757D068A4FF479A","title":"长宁温水游泳池","lon":"121.43026","lat":"31.21814","category":"231","category_name":"游泳馆","address":"上海长宁区愚园路1041号(近江苏路)"},{"poiid":"B2094757D06FA7FB4498","title":"星伟桌球","lon":"121.42575","lat":"31.21863","category":"171","category_name":"台球厅","address":"长宁区宣化路311号6楼(近巴黎春天)"},{"poiid":"B2094757D068A6FD409F","title":"KIKIS炭烧","lon":"121.431169054","lat":"31.217912793","category":"269","category_name":"烧烤","address":"长宁区江苏路458号舜元弘基广场2楼(近宣化路)"},{"poiid":"B2094757D064A4F9469B","title":"鼎尚创意餐厅","lon":"121.42536","lat":"31.21996","category":"95","category_name":"日本料理","address":"长宁区长宁区江苏路458号弘基天地2楼(近宣化路)"},{"poiid":"B2094757D06EAAF44392","title":"江苏路营业厅","lon":"121.431045532","lat":"31.2184104919","category":"138","category_name":"家电电子卖场","address":"长宁区江苏路458号110室"},{"poiid":"B2094757D06BA0F94098","title":"苏州面馆","lon":"121.428344","lat":"31.218721","category":"68","category_name":"快餐厅","address":"长宁区愚园路1301号(近中山公园)"},{"poiid":"B2094757D06BA0FE4792","title":"安西路","lon":"121.425997","lat":"31.218903","category":"500","category_name":"未知分类","address":"上海愚园路安西路"},{"poiid":"B2094757D069AAFD419A","title":"润湘之(宣化路店)","lon":"121.42981","lat":"31.21727","category":"77","category_name":"湖南菜","address":"上海长宁区宣化路59号(近江苏路)"},{"poiid":"B2094654D565A7F5479E","title":"辽油大厦","lon":"121.43","lat":"31.2181","category":"46","category_name":"楼宇","address":"上海长宁区定西路1100号"},{"poiid":"B2094655D26DA7FF489B","title":"中国银行上海市愚园路支行","lon":"121.4281","lat":"31.21885","category":"150","category_name":"银行","address":"长宁区愚园路1118号"},{"poiid":"B2094757D068A4FF4298","title":"长峰大厦","lon":"121.42821704422","lat":"31.221813972967","category":"46","category_name":"楼宇","address":"上海定西路1277号"},{"poiid":"B2094654D565A6F5479C","title":"武定大厦","lon":"121.42842799209","lat":"31.218871725488","category":"46","category_name":"楼宇","address":"武夷路418弄1"},{"poiid":"B2094757D168A1FD4298","title":"银统大厦","lon":"121.43","lat":"31.2166","category":"46","category_name":"楼宇","address":"上海市长宁区遵义南路88号"},{"poiid":"B2094654DB65A4F4459B","title":"罗柏记快餐","lon":"121.43090303812","lat":"31.217876284587","category":"68","category_name":"快餐厅","address":"长宁区宣化路51号(近江苏路)"},{"poiid":"B209475CD264A3F54899","title":"地铁站","lon":"121.430015","lat":"31.221008","category":"36","category_name":"地铁站","address":"上海市 11号线交通大学站"},{"poiid":"B2094757D068A6FF469C","title":"Bill飚记面铺","lon":"121.42967","lat":"31.21737","category":"68","category_name":"快餐厅","address":"长宁区宣化路75号(近江苏路)"},{"poiid":"B2094655D26CABFE439D","title":"可的(上海市长宁区政协东南)","lon":"121.42783","lat":"31.21894","category":"117","category_name":"便民商店/便利店","address":"愚园路1134"},{"poiid":"B2094655D264A6FF4998","title":"阳光剧场","lon":"121.42747","lat":"31.21946","category":"180","category_name":"剧场","address":"上海愚园路"},{"poiid":"B2094654D565A6F9429E","title":"华阳地段医院愚园路门诊部","lon":"121.42868","lat":"31.21887","category":"162","category_name":"医院","address":"愚园路1086"},{"poiid":"B2094757D16CA0FD409C","title":"宏业花园","lon":"121.42867","lat":"31.21946","category":"47","category_name":"住宅区","address":"上海长宁区愚园路1088弄"},{"poiid":"B2094750DA6DA6FD4892","title":"Z ’ PARK BAR","lon":"121.427551","lat":"31.217639","category":"247","category_name":"餐饮美食","address":"中山公园龙之梦25F"},{"poiid":"B2094655D26AAAFE449F","title":"春在中国愚园路店","lon":"121.42834","lat":"31.2183","category":"123","category_name":"家具建材市场","address":"静安区愚园路1107号1楼102号"},{"poiid":"B2094655D26DA7FA449C","title":"宏业花园(南门)","lon":"121.42861","lat":"31.21891","category":"47","category_name":"住宅区","address":"愚园路1088弄110支弄5-168号"},{"poiid":"B2094750D56FAAFB489A","title":"星巴克","lon":"121.431","lat":"31.2192","category":"260","category_name":"其他","address":"长宁区愚园路1000号(近江苏路)"},{"poiid":"B2094654DB65A2FE499C","title":"上海学生美术馆","lon":"121.42743","lat":"31.21961","category":"184","category_name":"美术馆","address":""},{"poiid":"B2094654D565A6FE439C","title":"南辉小区","lon":"121.42964","lat":"31.217155","category":"47","category_name":"住宅区","address":"宣化路113弄1-6,8,10,12,89,97,105,121,129,137号"},{"poiid":"B2094757D66CA5FF4398","title":"正宗绿豆饼","lon":"121.42747923","lat":"31.218210595","category":"247","category_name":"餐饮美食","address":"上海市长宁区长宁路770号"},{"poiid":"B2094654D565A6F9439F","title":"上海市长宁区新世纪培训学校","lon":"121.42825","lat":"31.21893","category":"190","category_name":"培训机构","address":"愚园路1112弄4-31号"},{"poiid":"B2094654D565A6F94498","title":"上海形家广告设计有限公司","lon":"121.42805","lat":"31.21883","category":"263","category_name":"公司","address":"愚园路1118号3层"},{"poiid":"B2094757D068A4FF4499","title":"江苏路派出所","lon":"121.42839459","lat":"31.217337486","category":"609","category_name":"警察局","address":"上海愚园路1171号"},{"poiid":"B2094655D26BABFF4899","title":"GioiamiaItalianRestaurantLoungeBar","lon":"121.42818","lat":"31.21763","category":"65","category_name":"咖啡厅","address":"宣化路100临"},{"poiid":"B2094757D069A5FE449F","title":"蚝门","lon":"121.42639","lat":"31.21883","category":"68","category_name":"快餐厅","address":"长宁区愚园路1203弄(近安西路)"},{"poiid":"B2094654D565A6FE489B","title":"宣化小区","lon":"121.42895","lat":"31.218029","category":"47","category_name":"住宅区","address":"宣化路72弄1-23号"},{"poiid":"B2094757D66FA6FB4192","title":"星巴克 STARBUCKS (江苏路店)","lon":"121.4311","lat":"31.21871","category":"65","category_name":"咖啡厅","address":"长宁区江苏路458号舜元弘基天地1楼116室(近宣化路)"},{"poiid":"B2094757D06FA7FC4499","title":"福1039","lon":"121.43052","lat":"31.21855","category":"76","category_name":"上海菜","address":"长宁区愚园路1039号(近江苏路)"},{"poiid":"B2094757D06AA1F9409A","title":"江苏路愚园路","lon":"121.430786586","lat":"31.2201002329","category":"500","category_name":"未知分类","address":"上海市"},{"poiid":"B209475CD564A7F8439E","title":"上海滩中信泰富店","lon":"121.45602","lat":"31.22851","category":"119","category_name":"商场","address":"\"南京西路1168号中信泰富广场，店铺号221.\r\n\""},{"poiid":"B2094757D169A4FA4698","title":"愚园路","lon":"121.427104586","lat":"31.2190412122","category":"500","category_name":"未知分类","address":"上海愚园路1155弄"},{"poiid":"B2094757D069A5FE459B","title":"长宁区少年宫","lon":"121.42641758","lat":"31.219353218","category":"248","category_name":"生活娱乐","address":"长宁区愚园路1136弄31号"},{"poiid":"B2094757D16FA5FB439B","title":"Tiramisu Italian Restaurant","lon":"121.42796058","lat":"31.217515182","category":"94","category_name":"西餐厅","address":"长宁区宣化路100号(近江苏路)"},{"poiid":"B2094751D368A2FF439B","title":"源石日本料理","lon":"121.43071","lat":"31.21831","category":"95","category_name":"日本料理","address":"长宁区江苏路458号弘基天地2楼(近宣化路)"},{"poiid":"B2094654D565A6F9439B","title":"百味手拨虾","lon":"121.42834","lat":"31.2189","category":"257","category_name":"中餐厅","address":"长宁区愚园路1096号(近江苏路)"},{"poiid":"B2094757D16EA6FD489C","title":"长宁区","lon":"121.426747322","lat":"31.220535541","category":"250","category_name":"公园户外","address":"上海长宁区区域"},{"poiid":"B2094655D26DA2FE419B","title":"弘基创邑国际园","lon":"121.42823","lat":"31.21826","category":"45","category_name":"产业园区","address":"长宁区愚园路1107号(近江苏路)"},{"poiid":"B2094750DA6DA2FF4692","title":"质馆咖啡","lon":"121.430816","lat":"31.218475","category":"247","category_name":"餐饮美食","address":"长宁区江苏路398号舜元大厦停车场入口处(近星巴克)"},{"poiid":"B2094757D06FA0FB4193","title":"肯德基KFC(江苏路店)","lon":"121.431109","lat":"31.21894","category":"68","category_name":"快餐厅","address":"上海长宁区江苏路398号舜元弘基天地1楼(近宣化路)"},{"poiid":"B2094757D16EA4F5499F","title":"唐恩都乐(愚园店)","lon":"121.425279586","lat":"31.2190882131","category":"67","category_name":"甜品店","address":"长宁区愚园路1277号附近(近安西路)"},{"poiid":"B2094757D06FA4F9409F","title":"上海医药职工大学","lon":"121.43099","lat":"31.21871","category":"671","category_name":"高校中心点","address":"长宁区愚园路1088弄48号(近江苏路)"},{"poiid":"B2094757DB68A1FE4692","title":"大马可","lon":"121.42893","lat":"31.219728","category":"500","category_name":"未知分类","address":"维景酒店一楼"},{"poiid":"B2094757D069ABFC4098","title":"福1015","lon":"121.430094","lat":"31.21871","category":"76","category_name":"上海菜","address":"长宁区愚园路1015号"},{"poiid":"B2094757D068A4FF479A","title":"长宁温水游泳池","lon":"121.43026","lat":"31.21814","category":"231","category_name":"游泳馆","address":"上海长宁区愚园路1041号(近江苏路)"},{"poiid":"B2094757D06FA7FB4498","title":"星伟桌球","lon":"121.42575","lat":"31.21863","category":"171","category_name":"台球厅","address":"长宁区宣化路311号6楼(近巴黎春天)"},{"poiid":"B2094757D068A6FD409F","title":"KIKIS炭烧","lon":"121.431169054","lat":"31.217912793","category":"269","category_name":"烧烤","address":"长宁区江苏路458号舜元弘基广场2楼(近宣化路)"},{"poiid":"B2094757D064A4F9469B","title":"鼎尚创意餐厅","lon":"121.42536","lat":"31.21996","category":"95","category_name":"日本料理","address":"长宁区长宁区江苏路458号弘基天地2楼(近宣化路)"},{"poiid":"B2094757D06EAAF44392","title":"江苏路营业厅","lon":"121.431045532","lat":"31.2184104919","category":"138","category_name":"家电电子卖场","address":"长宁区江苏路458号110室"},{"poiid":"B2094757D06BA0F94098","title":"苏州面馆","lon":"121.428344","lat":"31.218721","category":"68","category_name":"快餐厅","address":"长宁区愚园路1301号(近中山公园)"},{"poiid":"B2094757D06BA0FE4792","title":"安西路","lon":"121.425997","lat":"31.218903","category":"500","category_name":"未知分类","address":"上海愚园路安西路"},{"poiid":"B2094757D069AAFD419A","title":"润湘之(宣化路店)","lon":"121.42981","lat":"31.21727","category":"77","category_name":"湖南菜","address":"上海长宁区宣化路59号(近江苏路)"},{"poiid":"B2094654D565A7F5479E","title":"辽油大厦","lon":"121.43","lat":"31.2181","category":"46","category_name":"楼宇","address":"上海长宁区定西路1100号"},{"poiid":"B2094655D26DA7FF489B","title":"中国银行上海市愚园路支行","lon":"121.4281","lat":"31.21885","category":"150","category_name":"银行","address":"长宁区愚园路1118号"},{"poiid":"B2094757D068A4FF4298","title":"长峰大厦","lon":"121.42821704422","lat":"31.221813972967","category":"46","category_name":"楼宇","address":"上海定西路1277号"},{"poiid":"B2094654D565A6F5479C","title":"武定大厦","lon":"121.42842799209","lat":"31.218871725488","category":"46","category_name":"楼宇","address":"武夷路418弄1"},{"poiid":"B2094757D168A1FD4298","title":"银统大厦","lon":"121.43","lat":"31.2166","category":"46","category_name":"楼宇","address":"上海市长宁区遵义南路88号"},{"poiid":"B2094654DB65A4F4459B","title":"罗柏记快餐","lon":"121.43090303812","lat":"31.217876284587","category":"68","category_name":"快餐厅","address":"长宁区宣化路51号(近江苏路)"},{"poiid":"B209475CD264A3F54899","title":"地铁站","lon":"121.430015","lat":"31.221008","category":"36","category_name":"地铁站","address":"上海市 11号线交通大学站"},{"poiid":"B2094757D068A6FF469C","title":"Bill飚记面铺","lon":"121.42967","lat":"31.21737","category":"68","category_name":"快餐厅","address":"长宁区宣化路75号(近江苏路)"},{"poiid":"B2094655D26CABFE439D","title":"可的(上海市长宁区政协东南)","lon":"121.42783","lat":"31.21894","category":"117","category_name":"便民商店/便利店","address":"愚园路1134"},{"poiid":"B2094655D264A6FF4998","title":"阳光剧场","lon":"121.42747","lat":"31.21946","category":"180","category_name":"剧场","address":"上海愚园路"},{"poiid":"B2094654D565A6F9429E","title":"华阳地段医院愚园路门诊部","lon":"121.42868","lat":"31.21887","category":"162","category_name":"医院","address":"愚园路1086"},{"poiid":"B2094757D16CA0FD409C","title":"宏业花园","lon":"121.42867","lat":"31.21946","category":"47","category_name":"住宅区","address":"上海长宁区愚园路1088弄"},{"poiid":"B2094750DA6DA6FD4892","title":"Z ’ PARK BAR","lon":"121.427551","lat":"31.217639","category":"247","category_name":"餐饮美食","address":"中山公园龙之梦25F"},{"poiid":"B2094655D26AAAFE449F","title":"春在中国愚园路店","lon":"121.42834","lat":"31.2183","category":"123","category_name":"家具建材市场","address":"静安区愚园路1107号1楼102号"},{"poiid":"B2094655D26DA7FA449C","title":"宏业花园(南门)","lon":"121.42861","lat":"31.21891","category":"47","category_name":"住宅区","address":"愚园路1088弄110支弄5-168号"},{"poiid":"B2094750D56FAAFB489A","title":"星巴克","lon":"121.431","lat":"31.2192","category":"260","category_name":"其他","address":"长宁区愚园路1000号(近江苏路)"},{"poiid":"B2094654DB65A2FE499C","title":"上海学生美术馆","lon":"121.42743","lat":"31.21961","category":"184","category_name":"美术馆","address":""},{"poiid":"B2094654D565A6FE439C","title":"南辉小区","lon":"121.42964","lat":"31.217155","category":"47","category_name":"住宅区","address":"宣化路113弄1-6,8,10,12,89,97,105,121,129,137号"},{"poiid":"B2094757D66CA5FF4398","title":"正宗绿豆饼","lon":"121.42747923","lat":"31.218210595","category":"247","category_name":"餐饮美食","address":"上海市长宁区长宁路770号"},{"poiid":"B2094654D565A6F9439F","title":"上海市长宁区新世纪培训学校","lon":"121.42825","lat":"31.21893","category":"190","category_name":"培训机构","address":"愚园路1112弄4-31号"},{"poiid":"B2094654D565A6F94498","title":"上海形家广告设计有限公司","lon":"121.42805","lat":"31.21883","category":"263","category_name":"公司","address":"愚园路1118号3层"},{"poiid":"B2094757D068A4FF4499","title":"江苏路派出所","lon":"121.42839459","lat":"31.217337486","category":"609","category_name":"警察局","address":"上海愚园路1171号"},{"poiid":"B2094655D26BABFF4899","title":"GioiamiaItalianRestaurantLoungeBar","lon":"121.42818","lat":"31.21763","category":"65","category_name":"咖啡厅","address":"宣化路100临"},{"poiid":"B2094757D069A5FE449F","title":"蚝门","lon":"121.42639","lat":"31.21883","category":"68","category_name":"快餐厅","address":"长宁区愚园路1203弄(近安西路)"},{"poiid":"B2094654D565A6FE489B","title":"宣化小区","lon":"121.42895","lat":"31.218029","category":"47","category_name":"住宅区","address":"宣化路72弄1-23号"},{"poiid":"B2094757D66FA6FB4192","title":"星巴克 STARBUCKS (江苏路店)","lon":"121.4311","lat":"31.21871","category":"65","category_name":"咖啡厅","address":"长宁区江苏路458号舜元弘基天地1楼116室(近宣化路)"},{"poiid":"B2094757D06FA7FC4499","title":"福1039","lon":"121.43052","lat":"31.21855","category":"76","category_name":"上海菜","address":"长宁区愚园路1039号(近江苏路)"},{"poiid":"B2094757D06AA1F9409A","title":"江苏路愚园路","lon":"121.430786586","lat":"31.2201002329","category":"500","category_name":"未知分类","address":"上海市"},{"poiid":"B209475CD564A7F8439E","title":"上海滩中信泰富店","lon":"121.45602","lat":"31.22851","category":"119","category_name":"商场","address":"\"南京西路1168号中信泰富广场，店铺号221.\r\n\""},{"poiid":"B2094757D169A4FA4698","title":"愚园路","lon":"121.427104586","lat":"31.2190412122","category":"500","category_name":"未知分类","address":"上海愚园路1155弄"},{"poiid":"B2094757D069A5FE459B","title":"长宁区少年宫","lon":"121.42641758","lat":"31.219353218","category":"248","category_name":"生活娱乐","address":"长宁区愚园路1136弄31号"},{"poiid":"B2094757D16FA5FB439B","title":"Tiramisu Italian Restaurant","lon":"121.42796058","lat":"31.217515182","category":"94","category_name":"西餐厅","address":"长宁区宣化路100号(近江苏路)"},{"poiid":"B2094751D368A2FF439B","title":"源石日本料理","lon":"121.43071","lat":"31.21831","category":"95","category_name":"日本料理","address":"长宁区江苏路458号弘基天地2楼(近宣化路)"},{"poiid":"B2094654D565A6F9439B","title":"百味手拨虾","lon":"121.42834","lat":"31.2189","category":"257","category_name":"中餐厅","address":"长宁区愚园路1096号(近江苏路)"},{"poiid":"B2094757D16EA6FD489C","title":"长宁区","lon":"121.426747322","lat":"31.220535541","category":"250","category_name":"公园户外","address":"上海长宁区区域"},{"poiid":"B2094655D26DA2FE419B","title":"弘基创邑国际园","lon":"121.42823","lat":"31.21826","category":"45","category_name":"产业园区","address":"长宁区愚园路1107号(近江苏路)"},{"poiid":"B2094750DA6DA2FF4692","title":"质馆咖啡","lon":"121.430816","lat":"31.218475","category":"247","category_name":"餐饮美食","address":"长宁区江苏路398号舜元大厦停车场入口处(近星巴克)"},{"poiid":"B2094757D06FA0FB4193","title":"肯德基KFC(江苏路店)","lon":"121.431109","lat":"31.21894","category":"68","category_name":"快餐厅","address":"上海长宁区江苏路398号舜元弘基天地1楼(近宣化路)"},{"poiid":"B2094757D16EA4F5499F","title":"唐恩都乐(愚园店)","lon":"121.425279586","lat":"31.2190882131","category":"67","category_name":"甜品店","address":"长宁区愚园路1277号附近(近安西路)"},{"poiid":"B2094757D06FA4F9409F","title":"上海医药职工大学","lon":"121.43099","lat":"31.21871","category":"671","category_name":"高校中心点","address":"长宁区愚园路1088弄48号(近江苏路)"},{"poiid":"B2094757DB68A1FE4692","title":"大马可","lon":"121.42893","lat":"31.219728","category":"500","category_name":"未知分类","address":"维景酒店一楼"},{"poiid":"B2094757D069ABFC4098","title":"福1015","lon":"121.430094","lat":"31.21871","category":"76","category_name":"上海菜","address":"长宁区愚园路1015号"},{"poiid":"B2094757D068A4FF479A","title":"长宁温水游泳池","lon":"121.43026","lat":"31.21814","category":"231","category_name":"游泳馆","address":"上海长宁区愚园路1041号(近江苏路)"},{"poiid":"B2094757D06FA7FB4498","title":"星伟桌球","lon":"121.42575","lat":"31.21863","category":"171","category_name":"台球厅","address":"长宁区宣化路311号6楼(近巴黎春天)"},{"poiid":"B2094757D068A6FD409F","title":"KIKIS炭烧","lon":"121.431169054","lat":"31.217912793","category":"269","category_name":"烧烤","address":"长宁区江苏路458号舜元弘基广场2楼(近宣化路)"},{"poiid":"B2094757D064A4F9469B","title":"鼎尚创意餐厅","lon":"121.42536","lat":"31.21996","category":"95","category_name":"日本料理","address":"长宁区长宁区江苏路458号弘基天地2楼(近宣化路)"},{"poiid":"B2094757D06EAAF44392","title":"江苏路营业厅","lon":"121.431045532","lat":"31.2184104919","category":"138","category_name":"家电电子卖场","address":"长宁区江苏路458号110室"},{"poiid":"B2094757D06BA0F94098","title":"苏州面馆","lon":"121.428344","lat":"31.218721","category":"68","category_name":"快餐厅","address":"长宁区愚园路1301号(近中山公园)"},{"poiid":"B2094757D06BA0FE4792","title":"安西路","lon":"121.425997","lat":"31.218903","category":"500","category_name":"未知分类","address":"上海愚园路安西路"},{"poiid":"B2094757D069AAFD419A","title":"润湘之(宣化路店)","lon":"121.42981","lat":"31.21727","category":"77","category_name":"湖南菜","address":"上海长宁区宣化路59号(近江苏路)"},{"poiid":"B2094654D565A7F5479E","title":"辽油大厦","lon":"121.43","lat":"31.2181","category":"46","category_name":"楼宇","address":"上海长宁区定西路1100号"},{"poiid":"B2094655D26DA7FF489B","title":"中国银行上海市愚园路支行","lon":"121.4281","lat":"31.21885","category":"150","category_name":"银行","address":"长宁区愚园路1118号"},{"poiid":"B2094757D068A4FF4298","title":"长峰大厦","lon":"121.42821704422","lat":"31.221813972967","category":"46","category_name":"楼宇","address":"上海定西路1277号"},{"poiid":"B2094654D565A6F5479C","title":"武定大厦","lon":"121.42842799209","lat":"31.218871725488","category":"46","category_name":"楼宇","address":"武夷路418弄1"},{"poiid":"B2094757D168A1FD4298","title":"银统大厦","lon":"121.43","lat":"31.2166","category":"46","category_name":"楼宇","address":"上海市长宁区遵义南路88号"},{"poiid":"B2094654DB65A4F4459B","title":"罗柏记快餐","lon":"121.43090303812","lat":"31.217876284587","category":"68","category_name":"快餐厅","address":"长宁区宣化路51号(近江苏路)"},{"poiid":"B209475CD264A3F54899","title":"地铁站","lon":"121.430015","lat":"31.221008","category":"36","category_name":"地铁站","address":"上海市 11号线交通大学站"},{"poiid":"B2094757D068A6FF469C","title":"Bill飚记面铺","lon":"121.42967","lat":"31.21737","category":"68","category_name":"快餐厅","address":"长宁区宣化路75号(近江苏路)"},{"poiid":"B2094655D26CABFE439D","title":"可的(上海市长宁区政协东南)","lon":"121.42783","lat":"31.21894","category":"117","category_name":"便民商店/便利店","address":"愚园路1134"},{"poiid":"B2094655D264A6FF4998","title":"阳光剧场","lon":"121.42747","lat":"31.21946","category":"180","category_name":"剧场","address":"上海愚园路"},{"poiid":"B2094654D565A6F9429E","title":"华阳地段医院愚园路门诊部","lon":"121.42868","lat":"31.21887","category":"162","category_name":"医院","address":"愚园路1086"},{"poiid":"B2094757D16CA0FD409C","title":"宏业花园","lon":"121.42867","lat":"31.21946","category":"47","category_name":"住宅区","address":"上海长宁区愚园路1088弄"},{"poiid":"B2094750DA6DA6FD4892","title":"Z ’ PARK BAR","lon":"121.427551","lat":"31.217639","category":"247","category_name":"餐饮美食","address":"中山公园龙之梦25F"},{"poiid":"B2094655D26AAAFE449F","title":"春在中国愚园路店","lon":"121.42834","lat":"31.2183","category":"123","category_name":"家具建材市场","address":"静安区愚园路1107号1楼102号"},{"poiid":"B2094655D26DA7FA449C","title":"宏业花园(南门)","lon":"121.42861","lat":"31.21891","category":"47","category_name":"住宅区","address":"愚园路1088弄110支弄5-168号"},{"poiid":"B2094750D56FAAFB489A","title":"星巴克","lon":"121.431","lat":"31.2192","category":"260","category_name":"其他","address":"长宁区愚园路1000号(近江苏路)"},{"poiid":"B2094654DB65A2FE499C","title":"上海学生美术馆","lon":"121.42743","lat":"31.21961","category":"184","category_name":"美术馆","address":""},{"poiid":"B2094654D565A6FE439C","title":"南辉小区","lon":"121.42964","lat":"31.217155","category":"47","category_name":"住宅区","address":"宣化路113弄1-6,8,10,12,89,97,105,121,129,137号"},{"poiid":"B2094757D66CA5FF4398","title":"正宗绿豆饼","lon":"121.42747923","lat":"31.218210595","category":"247","category_name":"餐饮美食","address":"上海市长宁区长宁路770号"},{"poiid":"B2094654D565A6F9439F","title":"上海市长宁区新世纪培训学校","lon":"121.42825","lat":"31.21893","category":"190","category_name":"培训机构","address":"愚园路1112弄4-31号"},{"poiid":"B2094654D565A6F94498","title":"上海形家广告设计有限公司","lon":"121.42805","lat":"31.21883","category":"263","category_name":"公司","address":"愚园路1118号3层"},{"poiid":"B2094757D068A4FF4499","title":"江苏路派出所","lon":"121.42839459","lat":"31.217337486","category":"609","category_name":"警察局","address":"上海愚园路1171号"},{"poiid":"B2094655D26BABFF4899","title":"GioiamiaItalianRestaurantLoungeBar","lon":"121.42818","lat":"31.21763","category":"65","category_name":"咖啡厅","address":"宣化路100临"},{"poiid":"B2094757D069A5FE449F","title":"蚝门","lon":"121.42639","lat":"31.21883","category":"68","category_name":"快餐厅","address":"长宁区愚园路1203弄(近安西路)"},{"poiid":"B2094654D565A6FE489B","title":"宣化小区","lon":"121.42895","lat":"31.218029","category":"47","category_name":"住宅区","address":"宣化路72弄1-23号"}]