[{"poiid":"B2094757D06AA3FD489B","title":"宜家IKEA餐厅","lon":"121.55741887","lat":"31.162236271","category":"500","category_name":"未知分类","address":"上海宜家北蔡店"},{"poiid":"B2094654DA68A5FD4092","title":"上海农产品中心批发市场","lon":"121.56091","lat":"31.16456","category":"117","category_name":"便民商店/便利店","address":"浦东新区沪南路2000号(近华夏西路)"},{"poiid":"B2094757D06FA0F9489A","title":"绿川小区","lon":"121.54938136","lat":"31.17048202","category":"47","category_name":"住宅区","address":"博华路1018弄1-62号"},{"poiid":"B2094654DB64A1FA4598","title":"环球翡翠湾花园","lon":"121.541","lat":"31.1588","category":"47","category_name":"住宅区","address":"上海市浦东新区西泰林路158弄"},{"poiid":"B2094655D26DA1FA449F","title":"绿川新苑","lon":"121.54807","lat":"31.172768","category":"47","category_name":"住宅区","address":"绿川新苑位于浦东绿林路50-52弄"},{"poiid":"B2094655D36CA7FE479A","title":"沪南路陈春路","lon":"121.55806","lat":"31.17387","category":"38","category_name":"公交车站","address":"上海陈家桥"},{"poiid":"B2094757D16EA3FE459D","title":"绿川学校羽毛球馆","lon":"121.55062","lat":"31.16855","category":"220","category_name":"运动场所","address":"浦东新区绿林路409号(近博华路)"},{"poiid":"B2094757D66FA7FF429E","title":"锦绣路／绿林路","lon":"121.543443738","lat":"31.1682239799","category":"500","category_name":"未知分类","address":"上海锦绣路绿林路"},{"poiid":"B2094757D065A3FD4193","title":"鹏丰苑","lon":"121.55321","lat":"31.170677","category":"252","category_name":"楼宇机构","address":"上海市浦东新区鹏岳路152弄"},{"poiid":"B2094654DA68A6F54299","title":"绿星小区","lon":"121.54362","lat":"31.167856","category":"47","category_name":"住宅区","address":"上海市浦东新区下南路225弄"},{"poiid":"B2094757D66CA3FA409C","title":"Shanghai American Football Clu","lon":"121.54981773","lat":"31.165621924","category":"500","category_name":"未知分类","address":"上海市浦东新区张扬北路2700号"},{"poiid":"B2094757D069A4FD419A","title":"粥天粥地(北蔡店)","lon":"121.54951","lat":"31.1715","category":"87","category_name":"特色／地方风味餐厅","address":"浦东新区北蔡镇绿林路211号世纪金盆(陈春路绿林路)"},{"poiid":"B2094655D26DA6FC4592","title":"三林世博家园东门(大道站路)","lon":"121.54034","lat":"31.16153","category":"47","category_name":"住宅区","address":"大道站路94弄1-300号"},{"poiid":"B2094757D06FABF4499A","title":"文汇小区","lon":"121.54112","lat":"31.168835","category":"47","category_name":"住宅区","address":"下南路320弄1-39号"},{"poiid":"B2094654DA68A6F54492","title":"上海市绿川学校","lon":"121.55036","lat":"31.16882","category":"55","category_name":"中学","address":"浦东新区绿林路226号(陈春路绿林路)"},{"poiid":"B2094654DA68A5FC4699","title":"联勤广场","lon":"121.55111","lat":"31.16821","category":"201","category_name":"城市广场","address":""},{"poiid":"B2094655D265A2F8489B","title":"东方红幼儿园","lon":"121.55039","lat":"31.16413","category":"57","category_name":"幼儿园","address":""},{"poiid":"B2094654DB6BABFA409F","title":"南新二村(南门)","lon":"121.54447","lat":"31.16889","category":"47","category_name":"住宅区","address":"下南路309弄24-70号"},{"poiid":"B2094654DB6DA1F4429C","title":"凡之屋木业(上海)有限公司","lon":"121.54876","lat":"31.1644","category":"263","category_name":"公司","address":"杨莲路888号"},{"poiid":"B2094655D26DA1FA449C","title":"绿川小区东门(博华路)","lon":"121.55113","lat":"31.17039","category":"47","category_name":"住宅区","address":"博华路1018弄1-62号"},{"poiid":"B2094757D06AA3F84599","title":"南新三村","lon":"121.54253","lat":"31.170132","category":"47","category_name":"住宅区","address":"上海浦东新区下南路339弄"},{"poiid":"B2094654DA68A5FC479A","title":"上海国安园林景观建设有限公司(苗圃)","lon":"121.55262","lat":"31.16669","category":"263","category_name":"公司","address":""},{"poiid":"B2094655D26DA7F9429A","title":"上海纪航汽修厂","lon":"121.55252","lat":"31.1676","category":"159","category_name":"汽车维修","address":"杨莲路60号"},{"poiid":"B2094654DB6BABFA409B","title":"绿川新苑(正门)","lon":"121.54834","lat":"31.17209","category":"656","category_name":"大门","address":"绿林路50弄1-46号"},{"poiid":"B2094757D468A4FC419D","title":"来羊洋火锅","lon":"121.549386","lat":"31.172138","category":"86","category_name":"火锅店","address":"浦东新区陈春路301号(近博华路)"},{"poiid":"B2094654DA68A6F54298","title":"南新一村","lon":"121.54399","lat":"31.167128","category":"47","category_name":"住宅区","address":"下南路161弄1-38号"},{"poiid":"B2094655D26BAAF9409B","title":"海和酒家","lon":"121.55032","lat":"31.17185","category":"76","category_name":"上海菜","address":"浦东新区博华路989号(近陈春路)"},{"poiid":"B2094757D16AA1FA429F","title":"江门站(江海区)","lon":"121.545726738","lat":"31.1693210032","category":"36","category_name":"地铁站","address":"广珠轻轨江门站"},{"poiid":"B2094654DA68A6F5489F","title":"安达医院绿川门诊部","lon":"121.54895","lat":"31.17134","category":"162","category_name":"医院","address":"绿林路225-3"},{"poiid":"B2094757D069ABFB4298","title":"U's home","lon":"121.54941573","lat":"31.170297024","category":"500","category_name":"未知分类","address":"上海市浦东新区博华路999弄"},{"poiid":"B2094655D26BA1FE479F","title":"南新小区","lon":"121.54427","lat":"31.16868","category":"47","category_name":"住宅区","address":"下南路225弄"},{"poiid":"B2094655D26DA7F8479D","title":"绿川新苑(北门)","lon":"121.54764","lat":"31.16941","category":"656","category_name":"大门","address":"绿林路320弄58-122号"},{"poiid":"B2094654DB6BABFA429C","title":"上海市绿川学校(西门)","lon":"121.54927","lat":"31.16856","category":"656","category_name":"大门","address":"绿林路409"},{"poiid":"B2094757D068A3FF489B","title":"南新四村","lon":"121.54075","lat":"31.172556","category":"252","category_name":"楼宇机构","address":"上海下南路551弄"},{"poiid":"B2094757D164A1F9429A","title":"村夫烤鱼(绿林路店)","lon":"121.54866","lat":"31.17125","category":"247","category_name":"餐饮美食","address":"上海浦东新区绿林路(近陈春路)  "},{"poiid":"B2094655D26DA7F44292","title":"绿川公寓(西门)","lon":"121.55101","lat":"31.17111","category":"47","category_name":"住宅区","address":"博华路980弄"},{"poiid":"B2094654DA68A6FB4699","title":"欣顺小区","lon":"121.5426","lat":"31.168827","category":"47","category_name":"住宅区","address":"下南路309弄1-22号"},{"poiid":"B2094757D16EA5F84598","title":"华联超市(绿林店)","lon":"121.54883","lat":"31.17107","category":"118","category_name":"超级市场","address":"浦东新区绿林路222号(近绿川小区)"},{"poiid":"B2094655D265A3FB479A","title":"锦文KTV","lon":"121.55033","lat":"31.17175","category":"170","category_name":"KTV","address":"陈春路299号2层"},{"poiid":"B2094655D268A5FD459D","title":"绿川新苑(东门)","lon":"121.54898","lat":"31.16881","category":"656","category_name":"大门","address":""},{"poiid":"B2094655D36DA1F44392","title":"下南路南新新村","lon":"121.54342","lat":"31.16604","category":"38","category_name":"公交车站","address":""},{"poiid":"B2094655D265A7FA489C","title":"上海鹏丰苑二期(南门)","lon":"121.55428","lat":"31.16955","category":"47","category_name":"住宅区","address":""},{"poiid":"B2094654DA68A6FB4499","title":"南新二村","lon":"121.54416","lat":"31.169279","category":"47","category_name":"住宅区","address":"下南路309弄24-70号"},{"poiid":"B2094655D264A2FA459C","title":"御桥农贸市场","lon":"121.55627","lat":"31.16576","category":"117","category_name":"便民商店/便利店","address":""},{"poiid":"B2094757D16DAAFD4993","title":"闵海台球俱乐部","lon":"121.54921","lat":"31.17145","category":"171","category_name":"台球厅","address":"浦东新区绿林路211号(莲溪)"},{"poiid":"B2094655D36DA1F4439D","title":"下南路绿林路","lon":"121.54177","lat":"31.16909","category":"38","category_name":"公交车站","address":""},{"poiid":"B2094654DA68A6F54899","title":"林杰造型","lon":"121.54875","lat":"31.17132","category":"148","category_name":"美容美发店","address":"绿林路225-1号"},{"poiid":"B2094654DB6DA1F4419D","title":"八仟代绅士服北蔡企业","lon":"121.54672","lat":"31.16252","category":"263","category_name":"公司","address":"杨莲路138号"},{"poiid":"B2094655D268ABFD4092","title":"绿川小区(南门)","lon":"121.55195","lat":"31.1689","category":"656","category_name":"大门","address":"博华路1018弄1-62号"},{"poiid":"B2094654DB6BABFA4299","title":"南新一村(东门)","lon":"121.54315","lat":"31.1669","category":"47","category_name":"住宅区","address":"下南路161弄1-38号"},{"poiid":"B2094757D06AA3FD489B","title":"宜家IKEA餐厅","lon":"121.55741887","lat":"31.162236271","category":"500","category_name":"未知分类","address":"上海宜家北蔡店"},{"poiid":"B2094654DA68A5FD4092","title":"上海农产品中心批发市场","lon":"121.56091","lat":"31.16456","category":"117","category_name":"便民商店/便利店","address":"浦东新区沪南路2000号(近华夏西路)"},{"poiid":"B2094757D06FA0F9489A","title":"绿川小区","lon":"121.54938136","lat":"31.17048202","category":"47","category_name":"住宅区","address":"博华路1018弄1-62号"},{"poiid":"B2094654DB64A1FA4598","title":"环球翡翠湾花园","lon":"121.541","lat":"31.1588","category":"47","category_name":"住宅区","address":"上海市浦东新区西泰林路158弄"},{"poiid":"B2094655D26DA1FA449F","title":"绿川新苑","lon":"121.54807","lat":"31.172768","category":"47","category_name":"住宅区","address":"绿川新苑位于浦东绿林路50-52弄"},{"poiid":"B2094655D36CA7FE479A","title":"沪南路陈春路","lon":"121.55806","lat":"31.17387","category":"38","category_name":"公交车站","address":"上海陈家桥"},{"poiid":"B2094757D16EA3FE459D","title":"绿川学校羽毛球馆","lon":"121.55062","lat":"31.16855","category":"220","category_name":"运动场所","address":"浦东新区绿林路409号(近博华路)"},{"poiid":"B2094757D66FA7FF429E","title":"锦绣路／绿林路","lon":"121.543443738","lat":"31.1682239799","category":"500","category_name":"未知分类","address":"上海锦绣路绿林路"},{"poiid":"B2094757D065A3FD4193","title":"鹏丰苑","lon":"121.55321","lat":"31.170677","category":"252","category_name":"楼宇机构","address":"上海市浦东新区鹏岳路152弄"},{"poiid":"B2094654DA68A6F54299","title":"绿星小区","lon":"121.54362","lat":"31.167856","category":"47","category_name":"住宅区","address":"上海市浦东新区下南路225弄"},{"poiid":"B2094757D66CA3FA409C","title":"Shanghai American Football Clu","lon":"121.54981773","lat":"31.165621924","category":"500","category_name":"未知分类","address":"上海市浦东新区张扬北路2700号"},{"poiid":"B2094757D069A4FD419A","title":"粥天粥地(北蔡店)","lon":"121.54951","lat":"31.1715","category":"87","category_name":"特色／地方风味餐厅","address":"浦东新区北蔡镇绿林路211号世纪金盆(陈春路绿林路)"},{"poiid":"B2094655D26DA6FC4592","title":"三林世博家园东门(大道站路)","lon":"121.54034","lat":"31.16153","category":"47","category_name":"住宅区","address":"大道站路94弄1-300号"},{"poiid":"B2094757D06FABF4499A","title":"文汇小区","lon":"121.54112","lat":"31.168835","category":"47","category_name":"住宅区","address":"下南路320弄1-39号"},{"poiid":"B2094654DA68A6F54492","title":"上海市绿川学校","lon":"121.55036","lat":"31.16882","category":"55","category_name":"中学","address":"浦东新区绿林路226号(陈春路绿林路)"},{"poiid":"B2094654DA68A5FC4699","title":"联勤广场","lon":"121.55111","lat":"31.16821","category":"201","category_name":"城市广场","address":""},{"poiid":"B2094655D265A2F8489B","title":"东方红幼儿园","lon":"121.55039","lat":"31.16413","category":"57","category_name":"幼儿园","address":""},{"poiid":"B2094654DB6BABFA409F","title":"南新二村(南门)","lon":"121.54447","lat":"31.16889","category":"47","category_name":"住宅区","address":"下南路309弄24-70号"},{"poiid":"B2094654DB6DA1F4429C","title":"凡之屋木业(上海)有限公司","lon":"121.54876","lat":"31.1644","category":"263","category_name":"公司","address":"杨莲路888号"},{"poiid":"B2094655D26DA1FA449C","title":"绿川小区东门(博华路)","lon":"121.55113","lat":"31.17039","category":"47","category_name":"住宅区","address":"博华路1018弄1-62号"},{"poiid":"B2094757D06AA3F84599","title":"南新三村","lon":"121.54253","lat":"31.170132","category":"47","category_name":"住宅区","address":"上海浦东新区下南路339弄"},{"poiid":"B2094654DA68A5FC479A","title":"上海国安园林景观建设有限公司(苗圃)","lon":"121.55262","lat":"31.16669","category":"263","category_name":"公司","address":""},{"poiid":"B2094655D26DA7F9429A","title":"上海纪航汽修厂","lon":"121.55252","lat":"31.1676","category":"159","category_name":"汽车维修","address":"杨莲路60号"},{"poiid":"B2094654DB6BABFA409B","title":"绿川新苑(正门)","lon":"121.54834","lat":"31.17209","category":"656","category_name":"大门","address":"绿林路50弄1-46号"},{"poiid":"B2094757D468A4FC419D","title":"来羊洋火锅","lon":"121.549386","lat":"31.172138","category":"86","category_name":"火锅店","address":"浦东新区陈春路301号(近博华路)"},{"poiid":"B2094654DA68A6F54298","title":"南新一村","lon":"121.54399","lat":"31.167128","category":"47","category_name":"住宅区","address":"下南路161弄1-38号"},{"poiid":"B2094655D26BAAF9409B","title":"海和酒家","lon":"121.55032","lat":"31.17185","category":"76","category_name":"上海菜","address":"浦东新区博华路989号(近陈春路)"},{"poiid":"B2094757D16AA1FA429F","title":"江门站(江海区)","lon":"121.545726738","lat":"31.1693210032","category":"36","category_name":"地铁站","address":"广珠轻轨江门站"},{"poiid":"B2094654DA68A6F5489F","title":"安达医院绿川门诊部","lon":"121.54895","lat":"31.17134","category":"162","category_name":"医院","address":"绿林路225-3"},{"poiid":"B2094757D069ABFB4298","title":"U's home","lon":"121.54941573","lat":"31.170297024","category":"500","category_name":"未知分类","address":"上海市浦东新区博华路999弄"},{"poiid":"B2094655D26BA1FE479F","title":"南新小区","lon":"121.54427","lat":"31.16868","category":"47","category_name":"住宅区","address":"下南路225弄"},{"poiid":"B2094655D26DA7F8479D","title":"绿川新苑(北门)","lon":"121.54764","lat":"31.16941","category":"656","category_name":"大门","address":"绿林路320弄58-122号"},{"poiid":"B2094654DB6BABFA429C","title":"上海市绿川学校(西门)","lon":"121.54927","lat":"31.16856","category":"656","category_name":"大门","address":"绿林路409"},{"poiid":"B2094757D068A3FF489B","title":"南新四村","lon":"121.54075","lat":"31.172556","category":"252","category_name":"楼宇机构","address":"上海下南路551弄"},{"poiid":"B2094757D164A1F9429A","title":"村夫烤鱼(绿林路店)","lon":"121.54866","lat":"31.17125","category":"247","category_name":"餐饮美食","address":"上海浦东新区绿林路(近陈春路)  "},{"poiid":"B2094655D26DA7F44292","title":"绿川公寓(西门)","lon":"121.55101","lat":"31.17111","category":"47","category_name":"住宅区","address":"博华路980弄"},{"poiid":"B2094654DA68A6FB4699","title":"欣顺小区","lon":"121.5426","lat":"31.168827","category":"47","category_name":"住宅区","address":"下南路309弄1-22号"},{"poiid":"B2094757D16EA5F84598","title":"华联超市(绿林店)","lon":"121.54883","lat":"31.17107","category":"118","category_name":"超级市场","address":"浦东新区绿林路222号(近绿川小区)"},{"poiid":"B2094655D265A3FB479A","title":"锦文KTV","lon":"121.55033","lat":"31.17175","category":"170","category_name":"KTV","address":"陈春路299号2层"},{"poiid":"B2094655D268A5FD459D","title":"绿川新苑(东门)","lon":"121.54898","lat":"31.16881","category":"656","category_name":"大门","address":""},{"poiid":"B2094655D36DA1F44392","title":"下南路南新新村","lon":"121.54342","lat":"31.16604","category":"38","category_name":"公交车站","address":""},{"poiid":"B2094655D265A7FA489C","title":"上海鹏丰苑二期(南门)","lon":"121.55428","lat":"31.16955","category":"47","category_name":"住宅区","address":""},{"poiid":"B2094654DA68A6FB4499","title":"南新二村","lon":"121.54416","lat":"31.169279","category":"47","category_name":"住宅区","address":"下南路309弄24-70号"},{"poiid":"B2094655D264A2FA459C","title":"御桥农贸市场","lon":"121.55627","lat":"31.16576","category":"117","category_name":"便民商店/便利店","address":""},{"poiid":"B2094757D16DAAFD4993","title":"闵海台球俱乐部","lon":"121.54921","lat":"31.17145","category":"171","category_name":"台球厅","address":"浦东新区绿林路211号(莲溪)"},{"poiid":"B2094655D36DA1F4439D","title":"下南路绿林路","lon":"121.54177","lat":"31.16909","category":"38","category_name":"公交车站","address":""},{"poiid":"B2094654DA68A6F54899","title":"林杰造型","lon":"121.54875","lat":"31.17132","category":"148","category_name":"美容美发店","address":"绿林路225-1号"},{"poiid":"B2094654DB6DA1F4419D","title":"八仟代绅士服北蔡企业","lon":"121.54672","lat":"31.16252","category":"263","category_name":"公司","address":"杨莲路138号"},{"poiid":"B2094655D268ABFD4092","title":"绿川小区(南门)","lon":"121.55195","lat":"31.1689","category":"656","category_name":"大门","address":"博华路1018弄1-62号"},{"poiid":"B2094654DB6BABFA4299","title":"南新一村(东门)","lon":"121.54315","lat":"31.1669","category":"47","category_name":"住宅区","address":"下南路161弄1-38号"},{"poiid":"B2094757D06AA3FD489B","title":"宜家IKEA餐厅","lon":"121.55741887","lat":"31.162236271","category":"500","category_name":"未知分类","address":"上海宜家北蔡店"},{"poiid":"B2094654DA68A5FD4092","title":"上海农产品中心批发市场","lon":"121.56091","lat":"31.16456","category":"117","category_name":"便民商店/便利店","address":"浦东新区沪南路2000号(近华夏西路)"},{"poiid":"B2094757D06FA0F9489A","title":"绿川小区","lon":"121.54938136","lat":"31.17048202","category":"47","category_name":"住宅区","address":"博华路1018弄1-62号"},{"poiid":"B2094654DB64A1FA4598","title":"环球翡翠湾花园","lon":"121.541","lat":"31.1588","category":"47","category_name":"住宅区","address":"上海市浦东新区西泰林路158弄"},{"poiid":"B2094655D26DA1FA449F","title":"绿川新苑","lon":"121.54807","lat":"31.172768","category":"47","category_name":"住宅区","address":"绿川新苑位于浦东绿林路50-52弄"},{"poiid":"B2094655D36CA7FE479A","title":"沪南路陈春路","lon":"121.55806","lat":"31.17387","category":"38","category_name":"公交车站","address":"上海陈家桥"},{"poiid":"B2094757D16EA3FE459D","title":"绿川学校羽毛球馆","lon":"121.55062","lat":"31.16855","category":"220","category_name":"运动场所","address":"浦东新区绿林路409号(近博华路)"},{"poiid":"B2094757D66FA7FF429E","title":"锦绣路／绿林路","lon":"121.543443738","lat":"31.1682239799","category":"500","category_name":"未知分类","address":"上海锦绣路绿林路"},{"poiid":"B2094757D065A3FD4193","title":"鹏丰苑","lon":"121.55321","lat":"31.170677","category":"252","category_name":"楼宇机构","address":"上海市浦东新区鹏岳路152弄"},{"poiid":"B2094654DA68A6F54299","title":"绿星小区","lon":"121.54362","lat":"31.167856","category":"47","category_name":"住宅区","address":"上海市浦东新区下南路225弄"},{"poiid":"B2094757D66CA3FA409C","title":"Shanghai American Football Clu","lon":"121.54981773","lat":"31.165621924","category":"500","category_name":"未知分类","address":"上海市浦东新区张扬北路2700号"},{"poiid":"B2094757D069A4FD419A","title":"粥天粥地(北蔡店)","lon":"121.54951","lat":"31.1715","category":"87","category_name":"特色／地方风味餐厅","address":"浦东新区北蔡镇绿林路211号世纪金盆(陈春路绿林路)"},{"poiid":"B2094655D26DA6FC4592","title":"三林世博家园东门(大道站路)","lon":"121.54034","lat":"31.16153","category":"47","category_name":"住宅区","address":"大道站路94弄1-300号"},{"poiid":"B2094757D06FABF4499A","title":"文汇小区","lon":"121.54112","lat":"31.168835","category":"47","category_name":"住宅区","address":"下南路320弄1-39号"},{"poiid":"B2094654DA68A6F54492","title":"上海市绿川学校","lon":"121.55036","lat":"31.16882","category":"55","category_name":"中学","address":"浦东新区绿林路226号(陈春路绿林路)"},{"poiid":"B2094654DA68A5FC4699","title":"联勤广场","lon":"121.55111","lat":"31.16821","category":"201","category_name":"城市广场","address":""},{"poiid":"B2094655D265A2F8489B","title":"东方红幼儿园","lon":"121.55039","lat":"31.16413","category":"57","category_name":"幼儿园","address":""},{"poiid":"B2094654DB6BABFA409F","title":"南新二村(南门)","lon":"121.54447","lat":"31.16889","category":"47","category_name":"住宅区","address":"下南路309弄24-70号"},{"poiid":"B2094654DB6DA1F4429C","title":"凡之屋木业(上海)有限公司","lon":"121.54876","lat":"31.1644","category":"263","category_name":"公司","address":"杨莲路888号"},{"poiid":"B2094655D26DA1FA449C","title":"绿川小区东门(博华路)","lon":"121.55113","lat":"31.17039","category":"47","category_name":"住宅区","address":"博华路1018弄1-62号"},{"poiid":"B2094757D06AA3F84599","title":"南新三村","lon":"121.54253","lat":"31.170132","category":"47","category_name":"住宅区","address":"上海浦东新区下南路339弄"},{"poiid":"B2094654DA68A5FC479A","title":"上海国安园林景观建设有限公司(苗圃)","lon":"121.55262","lat":"31.16669","category":"263","category_name":"公司","address":""},{"poiid":"B2094655D26DA7F9429A","title":"上海纪航汽修厂","lon":"121.55252","lat":"31.1676","category":"159","category_name":"汽车维修","address":"杨莲路60号"},{"poiid":"B2094654DB6BABFA409B","title":"绿川新苑(正门)","lon":"121.54834","lat":"31.17209","category":"656","category_name":"大门","address":"绿林路50弄1-46号"},{"poiid":"B2094757D468A4FC419D","title":"来羊洋火锅","lon":"121.549386","lat":"31.172138","category":"86","category_name":"火锅店","address":"浦东新区陈春路301号(近博华路)"},{"poiid":"B2094654DA68A6F54298","title":"南新一村","lon":"121.54399","lat":"31.167128","category":"47","category_name":"住宅区","address":"下南路161弄1-38号"},{"poiid":"B2094655D26BAAF9409B","title":"海和酒家","lon":"121.55032","lat":"31.17185","category":"76","category_name":"上海菜","address":"浦东新区博华路989号(近陈春路)"},{"poiid":"B2094757D16AA1FA429F","title":"江门站(江海区)","lon":"121.545726738","lat":"31.1693210032","category":"36","category_name":"地铁站","address":"广珠轻轨江门站"},{"poiid":"B2094654DA68A6F5489F","title":"安达医院绿川门诊部","lon":"121.54895","lat":"31.17134","category":"162","category_name":"医院","address":"绿林路225-3"},{"poiid":"B2094757D069ABFB4298","title":"U's home","lon":"121.54941573","lat":"31.170297024","category":"500","category_name":"未知分类","address":"上海市浦东新区博华路999弄"},{"poiid":"B2094655D26BA1FE479F","title":"南新小区","lon":"121.54427","lat":"31.16868","category":"47","category_name":"住宅区","address":"下南路225弄"},{"poiid":"B2094655D26DA7F8479D","title":"绿川新苑(北门)","lon":"121.54764","lat":"31.16941","category":"656","category_name":"大门","address":"绿林路320弄58-122号"},{"poiid":"B2094654DB6BABFA429C","title":"上海市绿川学校(西门)","lon":"121.54927","lat":"31.16856","category":"656","category_name":"大门","address":"绿林路409"},{"poiid":"B2094757D068A3FF489B","title":"南新四村","lon":"121.54075","lat":"31.172556","category":"252","category_name":"楼宇机构","address":"上海下南路551弄"},{"poiid":"B2094757D164A1F9429A","title":"村夫烤鱼(绿林路店)","lon":"121.54866","lat":"31.17125","category":"247","category_name":"餐饮美食","address":"上海浦东新区绿林路(近陈春路)  "},{"poiid":"B2094655D26DA7F44292","title":"绿川公寓(西门)","lon":"121.55101","lat":"31.17111","category":"47","category_name":"住宅区","address":"博华路980弄"},{"poiid":"B2094654DA68A6FB4699","title":"欣顺小区","lon":"121.5426","lat":"31.168827","category":"47","category_name":"住宅区","address":"下南路309弄1-22号"},{"poiid":"B2094757D16EA5F84598","title":"华联超市(绿林店)","lon":"121.54883","lat":"31.17107","category":"118","category_name":"超级市场","address":"浦东新区绿林路222号(近绿川小区)"},{"poiid":"B2094655D265A3FB479A","title":"锦文KTV","lon":"121.55033","lat":"31.17175","category":"170","category_name":"KTV","address":"陈春路299号2层"},{"poiid":"B2094655D268A5FD459D","title":"绿川新苑(东门)","lon":"121.54898","lat":"31.16881","category":"656","category_name":"大门","address":""},{"poiid":"B2094655D36DA1F44392","title":"下南路南新新村","lon":"121.54342","lat":"31.16604","category":"38","category_name":"公交车站","address":""},{"poiid":"B2094655D265A7FA489C","title":"上海鹏丰苑二期(南门)","lon":"121.55428","lat":"31.16955","category":"47","category_name":"住宅区","address":""},{"poiid":"B2094654DA68A6FB4499","title":"南新二村","lon":"121.54416","lat":"31.169279","category":"47","category_name":"住宅区","address":"下南路309弄24-70号"},{"poiid":"B2094655D264A2FA459C","title":"御桥农贸市场","lon":"121.55627","lat":"31.16576","category":"117","category_name":"便民商店/便利店","address":""},{"poiid":"B2094757D16DAAFD4993","title":"闵海台球俱乐部","lon":"121.54921","lat":"31.17145","category":"171","category_name":"台球厅","address":"浦东新区绿林路211号(莲溪)"},{"poiid":"B2094655D36DA1F4439D","title":"下南路绿林路","lon":"121.54177","lat":"31.16909","category":"38","category_name":"公交车站","address":""},{"poiid":"B2094654DA68A6F54899","title":"林杰造型","lon":"121.54875","lat":"31.17132","category":"148","category_name":"美容美发店","address":"绿林路225-1号"},{"poiid":"B2094654DB6DA1F4419D","title":"八仟代绅士服北蔡企业","lon":"121.54672","lat":"31.16252","category":"263","category_name":"公司","address":"杨莲路138号"},{"poiid":"B2094655D268ABFD4092","title":"绿川小区(南门)","lon":"121.55195","lat":"31.1689","category":"656","category_name":"大门","address":"博华路1018弄1-62号"},{"poiid":"B2094654DB6BABFA4299","title":"南新一村(东门)","lon":"121.54315","lat":"31.1669","category":"47","category_name":"住宅区","address":"下南路161弄1-38号"},{"poiid":"B2094757D06AA3FD489B","title":"宜家IKEA餐厅","lon":"121.55741887","lat":"31.162236271","category":"500","category_name":"未知分类","address":"上海宜家北蔡店"},{"poiid":"B2094654DA68A5FD4092","title":"上海农产品中心批发市场","lon":"121.56091","lat":"31.16456","category":"117","category_name":"便民商店/便利店","address":"浦东新区沪南路2000号(近华夏西路)"},{"poiid":"B2094757D06FA0F9489A","title":"绿川小区","lon":"121.54938136","lat":"31.17048202","category":"47","category_name":"住宅区","address":"博华路1018弄1-62号"},{"poiid":"B2094654DB64A1FA4598","title":"环球翡翠湾花园","lon":"121.541","lat":"31.1588","category":"47","category_name":"住宅区","address":"上海市浦东新区西泰林路158弄"},{"poiid":"B2094655D26DA1FA449F","title":"绿川新苑","lon":"121.54807","lat":"31.172768","category":"47","category_name":"住宅区","address":"绿川新苑位于浦东绿林路50-52弄"},{"poiid":"B2094655D36CA7FE479A","title":"沪南路陈春路","lon":"121.55806","lat":"31.17387","category":"38","category_name":"公交车站","address":"上海陈家桥"},{"poiid":"B2094757D16EA3FE459D","title":"绿川学校羽毛球馆","lon":"121.55062","lat":"31.16855","category":"220","category_name":"运动场所","address":"浦东新区绿林路409号(近博华路)"},{"poiid":"B2094757D66FA7FF429E","title":"锦绣路／绿林路","lon":"121.543443738","lat":"31.1682239799","category":"500","category_name":"未知分类","address":"上海锦绣路绿林路"},{"poiid":"B2094757D065A3FD4193","title":"鹏丰苑","lon":"121.55321","lat":"31.170677","category":"252","category_name":"楼宇机构","address":"上海市浦东新区鹏岳路152弄"},{"poiid":"B2094654DA68A6F54299","title":"绿星小区","lon":"121.54362","lat":"31.167856","category":"47","category_name":"住宅区","address":"上海市浦东新区下南路225弄"},{"poiid":"B2094757D66CA3FA409C","title":"Shanghai American Football Clu","lon":"121.54981773","lat":"31.165621924","category":"500","category_name":"未知分类","address":"上海市浦东新区张扬北路2700号"},{"poiid":"B2094757D069A4FD419A","title":"粥天粥地(北蔡店)","lon":"121.54951","lat":"31.1715","category":"87","category_name":"特色／地方风味餐厅","address":"浦东新区北蔡镇绿林路211号世纪金盆(陈春路绿林路)"},{"poiid":"B2094655D26DA6FC4592","title":"三林世博家园东门(大道站路)","lon":"121.54034","lat":"31.16153","category":"47","category_name":"住宅区","address":"大道站路94弄1-300号"},{"poiid":"B2094757D06FABF4499A","title":"文汇小区","lon":"121.54112","lat":"31.168835","category":"47","category_name":"住宅区","address":"下南路320弄1-39号"},{"poiid":"B2094654DA68A6F54492","title":"上海市绿川学校","lon":"121.55036","lat":"31.16882","category":"55","category_name":"中学","address":"浦东新区绿林路226号(陈春路绿林路)"},{"poiid":"B2094654DA68A5FC4699","title":"联勤广场","lon":"121.55111","lat":"31.16821","category":"201","category_name":"城市广场","address":""},{"poiid":"B2094655D265A2F8489B","title":"东方红幼儿园","lon":"121.55039","lat":"31.16413","category":"57","category_name":"幼儿园","address":""},{"poiid":"B2094654DB6BABFA409F","title":"南新二村(南门)","lon":"121.54447","lat":"31.16889","category":"47","category_name":"住宅区","address":"下南路309弄24-70号"},{"poiid":"B2094654DB6DA1F4429C","title":"凡之屋木业(上海)有限公司","lon":"121.54876","lat":"31.1644","category":"263","category_name":"公司","address":"杨莲路888号"},{"poiid":"B2094655D26DA1FA449C","title":"绿川小区东门(博华路)","lon":"121.55113","lat":"31.17039","category":"47","category_name":"住宅区","address":"博华路1018弄1-62号"},{"poiid":"B2094757D06AA3F84599","title":"南新三村","lon":"121.54253","lat":"31.170132","category":"47","category_name":"住宅区","address":"上海浦东新区下南路339弄"},{"poiid":"B2094654DA68A5FC479A","title":"上海国安园林景观建设有限公司(苗圃)","lon":"121.55262","lat":"31.16669","category":"263","category_name":"公司","address":""},{"poiid":"B2094655D26DA7F9429A","title":"上海纪航汽修厂","lon":"121.55252","lat":"31.1676","category":"159","category_name":"汽车维修","address":"杨莲路60号"},{"poiid":"B2094654DB6BABFA409B","title":"绿川新苑(正门)","lon":"121.54834","lat":"31.17209","category":"656","category_name":"大门","address":"绿林路50弄1-46号"},{"poiid":"B2094757D468A4FC419D","title":"来羊洋火锅","lon":"121.549386","lat":"31.172138","category":"86","category_name":"火锅店","address":"浦东新区陈春路301号(近博华路)"},{"poiid":"B2094654DA68A6F54298","title":"南新一村","lon":"121.54399","lat":"31.167128","category":"47","category_name":"住宅区","address":"下南路161弄1-38号"},{"poiid":"B2094655D26BAAF9409B","title":"海和酒家","lon":"121.55032","lat":"31.17185","category":"76","category_name":"上海菜","address":"浦东新区博华路989号(近陈春路)"},{"poiid":"B2094757D16AA1FA429F","title":"江门站(江海区)","lon":"121.545726738","lat":"31.1693210032","category":"36","category_name":"地铁站","address":"广珠轻轨江门站"},{"poiid":"B2094654DA68A6F5489F","title":"安达医院绿川门诊部","lon":"121.54895","lat":"31.17134","category":"162","category_name":"医院","address":"绿林路225-3"},{"poiid":"B2094757D069ABFB4298","title":"U's home","lon":"121.54941573","lat":"31.170297024","category":"500","category_name":"未知分类","address":"上海市浦东新区博华路999弄"},{"poiid":"B2094655D26BA1FE479F","title":"南新小区","lon":"121.54427","lat":"31.16868","category":"47","category_name":"住宅区","address":"下南路225弄"},{"poiid":"B2094655D26DA7F8479D","title":"绿川新苑(北门)","lon":"121.54764","lat":"31.16941","category":"656","category_name":"大门","address":"绿林路320弄58-122号"},{"poiid":"B2094654DB6BABFA429C","title":"上海市绿川学校(西门)","lon":"121.54927","lat":"31.16856","category":"656","category_name":"大门","address":"绿林路409"},{"poiid":"B2094757D068A3FF489B","title":"南新四村","lon":"121.54075","lat":"31.172556","category":"252","category_name":"楼宇机构","address":"上海下南路551弄"},{"poiid":"B2094757D164A1F9429A","title":"村夫烤鱼(绿林路店)","lon":"121.54866","lat":"31.17125","category":"247","category_name":"餐饮美食","address":"上海浦东新区绿林路(近陈春路)  "},{"poiid":"B2094655D26DA7F44292","title":"绿川公寓(西门)","lon":"121.55101","lat":"31.17111","category":"47","category_name":"住宅区","address":"博华路980弄"},{"poiid":"B2094654DA68A6FB4699","title":"欣顺小区","lon":"121.5426","lat":"31.168827","category":"47","category_name":"住宅区","address":"下南路309弄1-22号"},{"poiid":"B2094757D16EA5F84598","title":"华联超市(绿林店)","lon":"121.54883","lat":"31.17107","category":"118","category_name":"超级市场","address":"浦东新区绿林路222号(近绿川小区)"},{"poiid":"B2094655D265A3FB479A","title":"锦文KTV","lon":"121.55033","lat":"31.17175","category":"170","category_name":"KTV","address":"陈春路299号2层"},{"poiid":"B2094655D268A5FD459D","title":"绿川新苑(东门)","lon":"121.54898","lat":"31.16881","category":"656","category_name":"大门","address":""},{"poiid":"B2094655D36DA1F44392","title":"下南路南新新村","lon":"121.54342","lat":"31.16604","category":"38","category_name":"公交车站","address":""},{"poiid":"B2094655D265A7FA489C","title":"上海鹏丰苑二期(南门)","lon":"121.55428","lat":"31.16955","category":"47","category_name":"住宅区","address":""},{"poiid":"B2094654DA68A6FB4499","title":"南新二村","lon":"121.54416","lat":"31.169279","category":"47","category_name":"住宅区","address":"下南路309弄24-70号"},{"poiid":"B2094655D264A2FA459C","title":"御桥农贸市场","lon":"121.55627","lat":"31.16576","category":"117","category_name":"便民商店/便利店","address":""},{"poiid":"B2094757D16DAAFD4993","title":"闵海台球俱乐部","lon":"121.54921","lat":"31.17145","category":"171","category_name":"台球厅","address":"浦东新区绿林路211号(莲溪)"},{"poiid":"B2094655D36DA1F4439D","title":"下南路绿林路","lon":"121.54177","lat":"31.16909","category":"38","category_name":"公交车站","address":""},{"poiid":"B2094654DA68A6F54899","title":"林杰造型","lon":"121.54875","lat":"31.17132","category":"148","category_name":"美容美发店","address":"绿林路225-1号"},{"poiid":"B2094654DB6DA1F4419D","title":"八仟代绅士服北蔡企业","lon":"121.54672","lat":"31.16252","category":"263","category_name":"公司","address":"杨莲路138号"},{"poiid":"B2094655D268ABFD4092","title":"绿川小区(南门)","lon":"121.55195","lat":"31.1689","category":"656","category_name":"大门","address":"博华路1018弄1-62号"},{"poiid":"B2094654DB6BABFA4299","title":"南新一村(东门)","lon":"121.54315","lat":"31.1669","category":"47","category_name":"住宅区","address":"下南路161弄1-38号"}]