[{"poiid":"B2094757D16CABFA479E","title":"龙记香港茶餐厅(金谊广场店)","lon":"121.5128","lat":"31.14039","category":"72","category_name":"广东菜","address":"浦东新区上南路4467号金谊广场1楼"},{"poiid":"B2094757DA6FA3F54798","title":"满记甜品(金谊广场店)","lon":"121.514410972595","lat":"31.138815432809","category":"67","category_name":"甜品店","address":"浦东新区上南路4467号金谊广场1楼"},{"poiid":"B2094750D26EA2F94992","title":"星巴克","lon":"121.512878","lat":"31.14019","category":"260","category_name":"其他","address":"浦东新区上南路4467号金谊广场1楼(近永泰路)"},{"poiid":"B2094757D064ABFB459A","title":"金源坊酒家","lon":"121.514134","lat":"31.139748869","category":"76","category_name":"上海菜","address":"浦东新区上南路4467号金谊广场4楼(近三林路)"},{"poiid":"B2094757D06FA2FF4992","title":"上南路地铁站","lon":"121.50706092","lat":"31.148490295","category":"36","category_name":"地铁站","address":"上海轨道交通 六号线 轨交上南路站 6"},{"poiid":"B2094757D06FA6FE4692","title":"乐购(金谊广场)","lon":"121.51280695","lat":"31.141156467","category":"118","category_name":"超级市场","address":"浦东新区上南路4467号20号金谊广场B1楼(近永泰路)"},{"poiid":"B2094757D069AAFA4993","title":"上南路","lon":"121.50829911","lat":"31.146226552","category":"500","category_name":"未知分类","address":"上海上南路"},{"poiid":"B2094757D465A3FE429F","title":"汉韵唐风","lon":"121.51348829269","lat":"31.14000921435","category":"72","category_name":"广东菜","address":"上南路4467号金谊广场4楼"},{"poiid":"B2094750D56DA6FF429C","title":"大碗鱼(金谊广场)","lon":"121.513183","lat":"31.141038","category":"71","category_name":"四川菜","address":"浦东新区上南路4467弄金谊广场49号418室(近永泰路)"},{"poiid":"B2094757D66EA4F8459B","title":"武贞烧肉","lon":"121.513863009","lat":"31.1413689048","category":"95","category_name":"日本料理","address":"浦东新区上南路4467号中房金谊广场4楼"},{"poiid":"B2094757D064A4FF409F","title":"盱眙倪氏龙虾(三林路店)","lon":"121.50191","lat":"31.13963","category":"68","category_name":"快餐厅","address":"浦东新区三林路517号(近灵岩南路)"},{"poiid":"B2094757D068A2FC459D","title":"三林路","lon":"121.50924682","lat":"31.142173767","category":"500","category_name":"未知分类","address":"上海浦东新区三林路"},{"poiid":"B2094757DA6FA3F9489D","title":"董大师金牌稻香蛙(中房金谊广场店)","lon":"121.512004999999","lat":"31.1439009999997","category":"247","category_name":"餐饮美食","address":"浦东新区上南路4467号中房金谊广场4楼(近永泰路)"},{"poiid":"B2094750D76DA5FD469E","title":"吉利士南洋美食餐厅","lon":"121.514","lat":"31.1394","category":"110","category_name":"其他亚洲菜","address":"浦东新区上南路4467号金谊广场4楼(近永泰路)"},{"poiid":"B2094757D468ABF54999","title":"品尚豆捞 金谊广场店","lon":"121.513829","lat":"31.138724","category":"86","category_name":"火锅店","address":"浦东新区上南路4467号金谊广场4楼(永泰路口)"},{"poiid":"B2094655D36CA2FA4692","title":"三林","lon":"121.50875","lat":"31.14565","category":"38","category_name":"公交车站","address":""},{"poiid":"B2094654DB6DA0F8459E","title":"上海市三林中学","lon":"121.50445","lat":"31.14043","category":"55","category_name":"中学","address":"浦东新区三林路658号(浦东三新路三林路)"},{"poiid":"B2094757D06BA0FE469A","title":"三林新村","lon":"121.511800009","lat":"31.1362487932","category":"500","category_name":"未知分类","address":"上海市浦东新区永泰路258弄"},{"poiid":"B2094654DA65A7F8439A","title":"上海市三林中学北校凌兆路校区","lon":"121.50329","lat":"31.1443","category":"55","category_name":"中学","address":""},{"poiid":"B2094757D06FA5FB439D","title":"恒大翰城瀚林苑","lon":"121.506578","lat":"31.149811","category":"47","category_name":"住宅区","address":"上海上南路3899弄"},{"poiid":"B2094757D06BA6F4469E","title":"跃达大酒店 三林路店","lon":"121.50984906981","lat":"31.142692882422","category":"76","category_name":"上海菜","address":"浦东新区三林路869号(近上南路)"},{"poiid":"B2094654DB6DA0F84093","title":"旺林酒家","lon":"121.50582921752","lat":"31.141371779699","category":"76","category_name":"上海菜","address":"浦东新区三林路767号"},{"poiid":"B2094751DA6EA4F54999","title":"上海市东方医院南院","lon":"121.507308","lat":"31.146069","category":"252","category_name":"楼宇机构","address":"上海市云台路1800号"},{"poiid":"B2094757D66EA0F5459A","title":"SOHO GYM健身馆","lon":"121.513905009","lat":"31.1402548805","category":"220","category_name":"运动场所","address":"上海金谊广场"},{"poiid":"B2094757D465A0FA469C","title":"新培酒家","lon":"121.510217","lat":"31.142582","category":"74","category_name":"江苏菜","address":"浦东新区三林路388号(长清路灵岩南路间)"},{"poiid":"B2094750DA69A2FE4899","title":"新石器烤肉","lon":"121.512893","lat":"31.140678","category":"247","category_name":"餐饮美食","address":"三林上南路金谊广场"},{"poiid":"B2094750D76EA4F84198","title":"明府其食","lon":"121.506","lat":"31.1493","category":"76","category_name":"上海菜","address":"浦东新区上南路3886号(华夏西路口)"},{"poiid":"B2094454D065A6F5429C","title":"金谊华夏影城","lon":"121.513381","lat":"31.140973","category":"178","category_name":"电影院","address":"上海市浦东新区上南路4467号中房金谊生活广场"},{"poiid":"B2094750D768A7F54498","title":"越味风(上南路店)","lon":"121.513","lat":"31.1398","category":"99","category_name":"泰国／越南菜品餐厅","address":"上南路4467号中房金谊广场4楼层"},{"poiid":"B2094751D56AA7FD439B","title":"中房金誼廣場Starbucks","lon":"121.509234","lat":"31.142104","category":"247","category_name":"餐饮美食","address":"上南路永泰路口"},{"poiid":"B2094654DB6DA0FE4292","title":"永乐生活电器三林店","lon":"121.5101","lat":"31.1431","category":"138","category_name":"家电电子卖场","address":"浦东新区三林路480号(近灵岩南路)"},{"poiid":"B2094757D16EA0F4489C","title":"肯德基Kfc(金谊广场店)","lon":"121.515883","lat":"31.139906872","category":"68","category_name":"快餐厅","address":"浦东新区上南路4467号20号金谊广场内(近永泰路)"},{"poiid":"B2094750D26EA6FC4498","title":"星巴克金谊店","lon":"121.514427","lat":"31.139675","category":"247","category_name":"餐饮美食","address":"上南路"},{"poiid":"B2094655D36CA2F54199","title":"上南路三林路(三林)","lon":"121.51054","lat":"31.14336","category":"38","category_name":"公交车站","address":""},{"poiid":"B2094757D465A0FB479F","title":"春天园咖啡","lon":"121.511197054","lat":"31.142268793","category":"260","category_name":"其他","address":"浦东新区上南路4276号(近三林路)"},{"poiid":"B2094753D568A6F44593","title":"歌神KTV","lon":"121.511009","lat":"31.142204","category":"170","category_name":"KTV","address":"上海市 金谊广场4楼"},{"poiid":"B2094750DA6DA6FE449C","title":"金芋良圆","lon":"121.512634","lat":"31.141963","category":"67","category_name":"甜品店","address":"浦东新区上南路4467号金谊广场1楼中庭(近永泰路)"},{"poiid":"B2094757D16CA3FF429D","title":"金光小区","lon":"121.51068","lat":"31.144218","category":"47","category_name":"住宅区","address":"上海市浦东新区上南路4265弄"},{"poiid":"B2094757D16FA5F4499A","title":"苏菲雅摄影基地","lon":"121.5100884","lat":"31.134071745","category":"500","category_name":"未知分类","address":"上海上南路5018弄25号"},{"poiid":"B2094751D56DA2FA4193","title":"四谷姜太公","lon":"121.5131","lat":"31.1397","category":"95","category_name":"日本料理","address":"上南路4467号金谊广场2楼221号铺"},{"poiid":"B2094655D26EA4F54892","title":"斯朴林咖啡 上南店","lon":"121.50663943574","lat":"31.144333967298","category":"65","category_name":"咖啡厅","address":"上南路4276号近上浜路"},{"poiid":"B2094757D169A6FE409A","title":"凌兆路烧烤摊","lon":"121.50885","lat":"31.14281","category":"247","category_name":"餐饮美食","address":"上海浦东新区凌兆路860号门口(上南路)  "},{"poiid":"B2094757D069A5FF4493","title":"金光新村","lon":"121.514483","lat":"31.145823001","category":"252","category_name":"楼宇机构","address":"上海市浦东新区上南路"},{"poiid":"B2094655D268A2FF459A","title":"上南路4362弄小区(东门)","lon":"121.511","lat":"31.14231","category":"47","category_name":"住宅区","address":"上南路4362弄1-6号"},{"poiid":"B2094752D269A3FD419B","title":"歌神量贩KTV","lon":"121.507552","lat":"31.146231","category":"170","category_name":"KTV","address":"金谊广场"},{"poiid":"B2094757D66EAAFC409D","title":"先得意酒店","lon":"121.510916","lat":"31.14345315","category":"76","category_name":"上海菜","address":"上海徐汇区老沪闵路517号(近石龙路)  "},{"poiid":"B2094757D069A3F8459C","title":"海宁阿月煲(三林路店)","lon":"121.50242242","lat":"31.139621493","category":"260","category_name":"其他","address":"浦东新区三林路535号(灵岩南路口)"},{"poiid":"B2094757D16BA2FD4099","title":"家","lon":"121.510259","lat":"31.141915916","category":"500","category_name":"未知分类","address":null},{"poiid":"B2094655D26BA7FA499B","title":"快客","lon":"121.51034","lat":"31.1438","category":"117","category_name":"便民商店/便利店","address":""},{"poiid":"B2094757DA6FA2FD4393","title":"大桶大足浴(上南路店)","lon":"121.512053100001","lat":"31.1415132000003","category":"247","category_name":"餐饮美食","address":"浦东新区上南路3521号D座2楼"},{"poiid":"B2094757D16CABFA479E","title":"龙记香港茶餐厅(金谊广场店)","lon":"121.5128","lat":"31.14039","category":"72","category_name":"广东菜","address":"浦东新区上南路4467号金谊广场1楼"},{"poiid":"B2094757DA6FA3F54798","title":"满记甜品(金谊广场店)","lon":"121.514410972595","lat":"31.138815432809","category":"67","category_name":"甜品店","address":"浦东新区上南路4467号金谊广场1楼"},{"poiid":"B2094750D26EA2F94992","title":"星巴克","lon":"121.512878","lat":"31.14019","category":"260","category_name":"其他","address":"浦东新区上南路4467号金谊广场1楼(近永泰路)"},{"poiid":"B2094757D064ABFB459A","title":"金源坊酒家","lon":"121.514134","lat":"31.139748869","category":"76","category_name":"上海菜","address":"浦东新区上南路4467号金谊广场4楼(近三林路)"},{"poiid":"B2094757D06FA2FF4992","title":"上南路地铁站","lon":"121.50706092","lat":"31.148490295","category":"36","category_name":"地铁站","address":"上海轨道交通 六号线 轨交上南路站 6"},{"poiid":"B2094757D06FA6FE4692","title":"乐购(金谊广场)","lon":"121.51280695","lat":"31.141156467","category":"118","category_name":"超级市场","address":"浦东新区上南路4467号20号金谊广场B1楼(近永泰路)"},{"poiid":"B2094757D069AAFA4993","title":"上南路","lon":"121.50829911","lat":"31.146226552","category":"500","category_name":"未知分类","address":"上海上南路"},{"poiid":"B2094757D465A3FE429F","title":"汉韵唐风","lon":"121.51348829269","lat":"31.14000921435","category":"72","category_name":"广东菜","address":"上南路4467号金谊广场4楼"},{"poiid":"B2094750D56DA6FF429C","title":"大碗鱼(金谊广场)","lon":"121.513183","lat":"31.141038","category":"71","category_name":"四川菜","address":"浦东新区上南路4467弄金谊广场49号418室(近永泰路)"},{"poiid":"B2094757D66EA4F8459B","title":"武贞烧肉","lon":"121.513863009","lat":"31.1413689048","category":"95","category_name":"日本料理","address":"浦东新区上南路4467号中房金谊广场4楼"},{"poiid":"B2094757D064A4FF409F","title":"盱眙倪氏龙虾(三林路店)","lon":"121.50191","lat":"31.13963","category":"68","category_name":"快餐厅","address":"浦东新区三林路517号(近灵岩南路)"},{"poiid":"B2094757D068A2FC459D","title":"三林路","lon":"121.50924682","lat":"31.142173767","category":"500","category_name":"未知分类","address":"上海浦东新区三林路"},{"poiid":"B2094757DA6FA3F9489D","title":"董大师金牌稻香蛙(中房金谊广场店)","lon":"121.512004999999","lat":"31.1439009999997","category":"247","category_name":"餐饮美食","address":"浦东新区上南路4467号中房金谊广场4楼(近永泰路)"},{"poiid":"B2094750D76DA5FD469E","title":"吉利士南洋美食餐厅","lon":"121.514","lat":"31.1394","category":"110","category_name":"其他亚洲菜","address":"浦东新区上南路4467号金谊广场4楼(近永泰路)"},{"poiid":"B2094757D468ABF54999","title":"品尚豆捞 金谊广场店","lon":"121.513829","lat":"31.138724","category":"86","category_name":"火锅店","address":"浦东新区上南路4467号金谊广场4楼(永泰路口)"},{"poiid":"B2094655D36CA2FA4692","title":"三林","lon":"121.50875","lat":"31.14565","category":"38","category_name":"公交车站","address":""},{"poiid":"B2094654DB6DA0F8459E","title":"上海市三林中学","lon":"121.50445","lat":"31.14043","category":"55","category_name":"中学","address":"浦东新区三林路658号(浦东三新路三林路)"},{"poiid":"B2094757D06BA0FE469A","title":"三林新村","lon":"121.511800009","lat":"31.1362487932","category":"500","category_name":"未知分类","address":"上海市浦东新区永泰路258弄"},{"poiid":"B2094654DA65A7F8439A","title":"上海市三林中学北校凌兆路校区","lon":"121.50329","lat":"31.1443","category":"55","category_name":"中学","address":""},{"poiid":"B2094757D06FA5FB439D","title":"恒大翰城瀚林苑","lon":"121.506578","lat":"31.149811","category":"47","category_name":"住宅区","address":"上海上南路3899弄"},{"poiid":"B2094757D06BA6F4469E","title":"跃达大酒店 三林路店","lon":"121.50984906981","lat":"31.142692882422","category":"76","category_name":"上海菜","address":"浦东新区三林路869号(近上南路)"},{"poiid":"B2094654DB6DA0F84093","title":"旺林酒家","lon":"121.50582921752","lat":"31.141371779699","category":"76","category_name":"上海菜","address":"浦东新区三林路767号"},{"poiid":"B2094751DA6EA4F54999","title":"上海市东方医院南院","lon":"121.507308","lat":"31.146069","category":"252","category_name":"楼宇机构","address":"上海市云台路1800号"},{"poiid":"B2094757D66EA0F5459A","title":"SOHO GYM健身馆","lon":"121.513905009","lat":"31.1402548805","category":"220","category_name":"运动场所","address":"上海金谊广场"},{"poiid":"B2094757D465A0FA469C","title":"新培酒家","lon":"121.510217","lat":"31.142582","category":"74","category_name":"江苏菜","address":"浦东新区三林路388号(长清路灵岩南路间)"},{"poiid":"B2094750DA69A2FE4899","title":"新石器烤肉","lon":"121.512893","lat":"31.140678","category":"247","category_name":"餐饮美食","address":"三林上南路金谊广场"},{"poiid":"B2094750D76EA4F84198","title":"明府其食","lon":"121.506","lat":"31.1493","category":"76","category_name":"上海菜","address":"浦东新区上南路3886号(华夏西路口)"},{"poiid":"B2094454D065A6F5429C","title":"金谊华夏影城","lon":"121.513381","lat":"31.140973","category":"178","category_name":"电影院","address":"上海市浦东新区上南路4467号中房金谊生活广场"},{"poiid":"B2094750D768A7F54498","title":"越味风(上南路店)","lon":"121.513","lat":"31.1398","category":"99","category_name":"泰国／越南菜品餐厅","address":"上南路4467号中房金谊广场4楼层"},{"poiid":"B2094751D56AA7FD439B","title":"中房金誼廣場Starbucks","lon":"121.509234","lat":"31.142104","category":"247","category_name":"餐饮美食","address":"上南路永泰路口"},{"poiid":"B2094654DB6DA0FE4292","title":"永乐生活电器三林店","lon":"121.5101","lat":"31.1431","category":"138","category_name":"家电电子卖场","address":"浦东新区三林路480号(近灵岩南路)"},{"poiid":"B2094757D16EA0F4489C","title":"肯德基Kfc(金谊广场店)","lon":"121.515883","lat":"31.139906872","category":"68","category_name":"快餐厅","address":"浦东新区上南路4467号20号金谊广场内(近永泰路)"},{"poiid":"B2094750D26EA6FC4498","title":"星巴克金谊店","lon":"121.514427","lat":"31.139675","category":"247","category_name":"餐饮美食","address":"上南路"},{"poiid":"B2094655D36CA2F54199","title":"上南路三林路(三林)","lon":"121.51054","lat":"31.14336","category":"38","category_name":"公交车站","address":""},{"poiid":"B2094757D465A0FB479F","title":"春天园咖啡","lon":"121.511197054","lat":"31.142268793","category":"260","category_name":"其他","address":"浦东新区上南路4276号(近三林路)"},{"poiid":"B2094753D568A6F44593","title":"歌神KTV","lon":"121.511009","lat":"31.142204","category":"170","category_name":"KTV","address":"上海市 金谊广场4楼"},{"poiid":"B2094750DA6DA6FE449C","title":"金芋良圆","lon":"121.512634","lat":"31.141963","category":"67","category_name":"甜品店","address":"浦东新区上南路4467号金谊广场1楼中庭(近永泰路)"},{"poiid":"B2094757D16CA3FF429D","title":"金光小区","lon":"121.51068","lat":"31.144218","category":"47","category_name":"住宅区","address":"上海市浦东新区上南路4265弄"},{"poiid":"B2094757D16FA5F4499A","title":"苏菲雅摄影基地","lon":"121.5100884","lat":"31.134071745","category":"500","category_name":"未知分类","address":"上海上南路5018弄25号"},{"poiid":"B2094751D56DA2FA4193","title":"四谷姜太公","lon":"121.5131","lat":"31.1397","category":"95","category_name":"日本料理","address":"上南路4467号金谊广场2楼221号铺"},{"poiid":"B2094655D26EA4F54892","title":"斯朴林咖啡 上南店","lon":"121.50663943574","lat":"31.144333967298","category":"65","category_name":"咖啡厅","address":"上南路4276号近上浜路"},{"poiid":"B2094757D169A6FE409A","title":"凌兆路烧烤摊","lon":"121.50885","lat":"31.14281","category":"247","category_name":"餐饮美食","address":"上海浦东新区凌兆路860号门口(上南路)  "},{"poiid":"B2094757D069A5FF4493","title":"金光新村","lon":"121.514483","lat":"31.145823001","category":"252","category_name":"楼宇机构","address":"上海市浦东新区上南路"},{"poiid":"B2094655D268A2FF459A","title":"上南路4362弄小区(东门)","lon":"121.511","lat":"31.14231","category":"47","category_name":"住宅区","address":"上南路4362弄1-6号"},{"poiid":"B2094752D269A3FD419B","title":"歌神量贩KTV","lon":"121.507552","lat":"31.146231","category":"170","category_name":"KTV","address":"金谊广场"},{"poiid":"B2094757D66EAAFC409D","title":"先得意酒店","lon":"121.510916","lat":"31.14345315","category":"76","category_name":"上海菜","address":"上海徐汇区老沪闵路517号(近石龙路)  "},{"poiid":"B2094757D069A3F8459C","title":"海宁阿月煲(三林路店)","lon":"121.50242242","lat":"31.139621493","category":"260","category_name":"其他","address":"浦东新区三林路535号(灵岩南路口)"},{"poiid":"B2094757D16BA2FD4099","title":"家","lon":"121.510259","lat":"31.141915916","category":"500","category_name":"未知分类","address":null},{"poiid":"B2094655D26BA7FA499B","title":"快客","lon":"121.51034","lat":"31.1438","category":"117","category_name":"便民商店/便利店","address":""},{"poiid":"B2094757DA6FA2FD4393","title":"大桶大足浴(上南路店)","lon":"121.512053100001","lat":"31.1415132000003","category":"247","category_name":"餐饮美食","address":"浦东新区上南路3521号D座2楼"},{"poiid":"B2094757D16CABFA479E","title":"龙记香港茶餐厅(金谊广场店)","lon":"121.5128","lat":"31.14039","category":"72","category_name":"广东菜","address":"浦东新区上南路4467号金谊广场1楼"},{"poiid":"B2094757DA6FA3F54798","title":"满记甜品(金谊广场店)","lon":"121.514410972595","lat":"31.138815432809","category":"67","category_name":"甜品店","address":"浦东新区上南路4467号金谊广场1楼"},{"poiid":"B2094750D26EA2F94992","title":"星巴克","lon":"121.512878","lat":"31.14019","category":"260","category_name":"其他","address":"浦东新区上南路4467号金谊广场1楼(近永泰路)"},{"poiid":"B2094757D064ABFB459A","title":"金源坊酒家","lon":"121.514134","lat":"31.139748869","category":"76","category_name":"上海菜","address":"浦东新区上南路4467号金谊广场4楼(近三林路)"},{"poiid":"B2094757D06FA2FF4992","title":"上南路地铁站","lon":"121.50706092","lat":"31.148490295","category":"36","category_name":"地铁站","address":"上海轨道交通 六号线 轨交上南路站 6"},{"poiid":"B2094757D06FA6FE4692","title":"乐购(金谊广场)","lon":"121.51280695","lat":"31.141156467","category":"118","category_name":"超级市场","address":"浦东新区上南路4467号20号金谊广场B1楼(近永泰路)"},{"poiid":"B2094757D069AAFA4993","title":"上南路","lon":"121.50829911","lat":"31.146226552","category":"500","category_name":"未知分类","address":"上海上南路"},{"poiid":"B2094757D465A3FE429F","title":"汉韵唐风","lon":"121.51348829269","lat":"31.14000921435","category":"72","category_name":"广东菜","address":"上南路4467号金谊广场4楼"},{"poiid":"B2094750D56DA6FF429C","title":"大碗鱼(金谊广场)","lon":"121.513183","lat":"31.141038","category":"71","category_name":"四川菜","address":"浦东新区上南路4467弄金谊广场49号418室(近永泰路)"},{"poiid":"B2094757D66EA4F8459B","title":"武贞烧肉","lon":"121.513863009","lat":"31.1413689048","category":"95","category_name":"日本料理","address":"浦东新区上南路4467号中房金谊广场4楼"},{"poiid":"B2094757D064A4FF409F","title":"盱眙倪氏龙虾(三林路店)","lon":"121.50191","lat":"31.13963","category":"68","category_name":"快餐厅","address":"浦东新区三林路517号(近灵岩南路)"},{"poiid":"B2094757D068A2FC459D","title":"三林路","lon":"121.50924682","lat":"31.142173767","category":"500","category_name":"未知分类","address":"上海浦东新区三林路"},{"poiid":"B2094757DA6FA3F9489D","title":"董大师金牌稻香蛙(中房金谊广场店)","lon":"121.512004999999","lat":"31.1439009999997","category":"247","category_name":"餐饮美食","address":"浦东新区上南路4467号中房金谊广场4楼(近永泰路)"},{"poiid":"B2094750D76DA5FD469E","title":"吉利士南洋美食餐厅","lon":"121.514","lat":"31.1394","category":"110","category_name":"其他亚洲菜","address":"浦东新区上南路4467号金谊广场4楼(近永泰路)"},{"poiid":"B2094757D468ABF54999","title":"品尚豆捞 金谊广场店","lon":"121.513829","lat":"31.138724","category":"86","category_name":"火锅店","address":"浦东新区上南路4467号金谊广场4楼(永泰路口)"},{"poiid":"B2094655D36CA2FA4692","title":"三林","lon":"121.50875","lat":"31.14565","category":"38","category_name":"公交车站","address":""},{"poiid":"B2094654DB6DA0F8459E","title":"上海市三林中学","lon":"121.50445","lat":"31.14043","category":"55","category_name":"中学","address":"浦东新区三林路658号(浦东三新路三林路)"},{"poiid":"B2094757D06BA0FE469A","title":"三林新村","lon":"121.511800009","lat":"31.1362487932","category":"500","category_name":"未知分类","address":"上海市浦东新区永泰路258弄"},{"poiid":"B2094654DA65A7F8439A","title":"上海市三林中学北校凌兆路校区","lon":"121.50329","lat":"31.1443","category":"55","category_name":"中学","address":""},{"poiid":"B2094757D06FA5FB439D","title":"恒大翰城瀚林苑","lon":"121.506578","lat":"31.149811","category":"47","category_name":"住宅区","address":"上海上南路3899弄"},{"poiid":"B2094757D06BA6F4469E","title":"跃达大酒店 三林路店","lon":"121.50984906981","lat":"31.142692882422","category":"76","category_name":"上海菜","address":"浦东新区三林路869号(近上南路)"},{"poiid":"B2094654DB6DA0F84093","title":"旺林酒家","lon":"121.50582921752","lat":"31.141371779699","category":"76","category_name":"上海菜","address":"浦东新区三林路767号"},{"poiid":"B2094751DA6EA4F54999","title":"上海市东方医院南院","lon":"121.507308","lat":"31.146069","category":"252","category_name":"楼宇机构","address":"上海市云台路1800号"},{"poiid":"B2094757D66EA0F5459A","title":"SOHO GYM健身馆","lon":"121.513905009","lat":"31.1402548805","category":"220","category_name":"运动场所","address":"上海金谊广场"},{"poiid":"B2094757D465A0FA469C","title":"新培酒家","lon":"121.510217","lat":"31.142582","category":"74","category_name":"江苏菜","address":"浦东新区三林路388号(长清路灵岩南路间)"},{"poiid":"B2094750DA69A2FE4899","title":"新石器烤肉","lon":"121.512893","lat":"31.140678","category":"247","category_name":"餐饮美食","address":"三林上南路金谊广场"},{"poiid":"B2094750D76EA4F84198","title":"明府其食","lon":"121.506","lat":"31.1493","category":"76","category_name":"上海菜","address":"浦东新区上南路3886号(华夏西路口)"},{"poiid":"B2094454D065A6F5429C","title":"金谊华夏影城","lon":"121.513381","lat":"31.140973","category":"178","category_name":"电影院","address":"上海市浦东新区上南路4467号中房金谊生活广场"},{"poiid":"B2094750D768A7F54498","title":"越味风(上南路店)","lon":"121.513","lat":"31.1398","category":"99","category_name":"泰国／越南菜品餐厅","address":"上南路4467号中房金谊广场4楼层"},{"poiid":"B2094751D56AA7FD439B","title":"中房金誼廣場Starbucks","lon":"121.509234","lat":"31.142104","category":"247","category_name":"餐饮美食","address":"上南路永泰路口"},{"poiid":"B2094654DB6DA0FE4292","title":"永乐生活电器三林店","lon":"121.5101","lat":"31.1431","category":"138","category_name":"家电电子卖场","address":"浦东新区三林路480号(近灵岩南路)"},{"poiid":"B2094757D16EA0F4489C","title":"肯德基Kfc(金谊广场店)","lon":"121.515883","lat":"31.139906872","category":"68","category_name":"快餐厅","address":"浦东新区上南路4467号20号金谊广场内(近永泰路)"},{"poiid":"B2094750D26EA6FC4498","title":"星巴克金谊店","lon":"121.514427","lat":"31.139675","category":"247","category_name":"餐饮美食","address":"上南路"},{"poiid":"B2094655D36CA2F54199","title":"上南路三林路(三林)","lon":"121.51054","lat":"31.14336","category":"38","category_name":"公交车站","address":""},{"poiid":"B2094757D465A0FB479F","title":"春天园咖啡","lon":"121.511197054","lat":"31.142268793","category":"260","category_name":"其他","address":"浦东新区上南路4276号(近三林路)"},{"poiid":"B2094753D568A6F44593","title":"歌神KTV","lon":"121.511009","lat":"31.142204","category":"170","category_name":"KTV","address":"上海市 金谊广场4楼"},{"poiid":"B2094750DA6DA6FE449C","title":"金芋良圆","lon":"121.512634","lat":"31.141963","category":"67","category_name":"甜品店","address":"浦东新区上南路4467号金谊广场1楼中庭(近永泰路)"},{"poiid":"B2094757D16CA3FF429D","title":"金光小区","lon":"121.51068","lat":"31.144218","category":"47","category_name":"住宅区","address":"上海市浦东新区上南路4265弄"},{"poiid":"B2094757D16FA5F4499A","title":"苏菲雅摄影基地","lon":"121.5100884","lat":"31.134071745","category":"500","category_name":"未知分类","address":"上海上南路5018弄25号"},{"poiid":"B2094751D56DA2FA4193","title":"四谷姜太公","lon":"121.5131","lat":"31.1397","category":"95","category_name":"日本料理","address":"上南路4467号金谊广场2楼221号铺"},{"poiid":"B2094655D26EA4F54892","title":"斯朴林咖啡 上南店","lon":"121.50663943574","lat":"31.144333967298","category":"65","category_name":"咖啡厅","address":"上南路4276号近上浜路"},{"poiid":"B2094757D169A6FE409A","title":"凌兆路烧烤摊","lon":"121.50885","lat":"31.14281","category":"247","category_name":"餐饮美食","address":"上海浦东新区凌兆路860号门口(上南路)  "},{"poiid":"B2094757D069A5FF4493","title":"金光新村","lon":"121.514483","lat":"31.145823001","category":"252","category_name":"楼宇机构","address":"上海市浦东新区上南路"},{"poiid":"B2094655D268A2FF459A","title":"上南路4362弄小区(东门)","lon":"121.511","lat":"31.14231","category":"47","category_name":"住宅区","address":"上南路4362弄1-6号"},{"poiid":"B2094752D269A3FD419B","title":"歌神量贩KTV","lon":"121.507552","lat":"31.146231","category":"170","category_name":"KTV","address":"金谊广场"},{"poiid":"B2094757D66EAAFC409D","title":"先得意酒店","lon":"121.510916","lat":"31.14345315","category":"76","category_name":"上海菜","address":"上海徐汇区老沪闵路517号(近石龙路)  "},{"poiid":"B2094757D069A3F8459C","title":"海宁阿月煲(三林路店)","lon":"121.50242242","lat":"31.139621493","category":"260","category_name":"其他","address":"浦东新区三林路535号(灵岩南路口)"},{"poiid":"B2094757D16BA2FD4099","title":"家","lon":"121.510259","lat":"31.141915916","category":"500","category_name":"未知分类","address":null},{"poiid":"B2094655D26BA7FA499B","title":"快客","lon":"121.51034","lat":"31.1438","category":"117","category_name":"便民商店/便利店","address":""},{"poiid":"B2094757DA6FA2FD4393","title":"大桶大足浴(上南路店)","lon":"121.512053100001","lat":"31.1415132000003","category":"247","category_name":"餐饮美食","address":"浦东新区上南路3521号D座2楼"},{"poiid":"B2094757D16CABFA479E","title":"龙记香港茶餐厅(金谊广场店)","lon":"121.5128","lat":"31.14039","category":"72","category_name":"广东菜","address":"浦东新区上南路4467号金谊广场1楼"},{"poiid":"B2094757DA6FA3F54798","title":"满记甜品(金谊广场店)","lon":"121.514410972595","lat":"31.138815432809","category":"67","category_name":"甜品店","address":"浦东新区上南路4467号金谊广场1楼"},{"poiid":"B2094750D26EA2F94992","title":"星巴克","lon":"121.512878","lat":"31.14019","category":"260","category_name":"其他","address":"浦东新区上南路4467号金谊广场1楼(近永泰路)"},{"poiid":"B2094757D064ABFB459A","title":"金源坊酒家","lon":"121.514134","lat":"31.139748869","category":"76","category_name":"上海菜","address":"浦东新区上南路4467号金谊广场4楼(近三林路)"},{"poiid":"B2094757D06FA2FF4992","title":"上南路地铁站","lon":"121.50706092","lat":"31.148490295","category":"36","category_name":"地铁站","address":"上海轨道交通 六号线 轨交上南路站 6"},{"poiid":"B2094757D06FA6FE4692","title":"乐购(金谊广场)","lon":"121.51280695","lat":"31.141156467","category":"118","category_name":"超级市场","address":"浦东新区上南路4467号20号金谊广场B1楼(近永泰路)"},{"poiid":"B2094757D069AAFA4993","title":"上南路","lon":"121.50829911","lat":"31.146226552","category":"500","category_name":"未知分类","address":"上海上南路"},{"poiid":"B2094757D465A3FE429F","title":"汉韵唐风","lon":"121.51348829269","lat":"31.14000921435","category":"72","category_name":"广东菜","address":"上南路4467号金谊广场4楼"},{"poiid":"B2094750D56DA6FF429C","title":"大碗鱼(金谊广场)","lon":"121.513183","lat":"31.141038","category":"71","category_name":"四川菜","address":"浦东新区上南路4467弄金谊广场49号418室(近永泰路)"},{"poiid":"B2094757D66EA4F8459B","title":"武贞烧肉","lon":"121.513863009","lat":"31.1413689048","category":"95","category_name":"日本料理","address":"浦东新区上南路4467号中房金谊广场4楼"},{"poiid":"B2094757D064A4FF409F","title":"盱眙倪氏龙虾(三林路店)","lon":"121.50191","lat":"31.13963","category":"68","category_name":"快餐厅","address":"浦东新区三林路517号(近灵岩南路)"},{"poiid":"B2094757D068A2FC459D","title":"三林路","lon":"121.50924682","lat":"31.142173767","category":"500","category_name":"未知分类","address":"上海浦东新区三林路"},{"poiid":"B2094757DA6FA3F9489D","title":"董大师金牌稻香蛙(中房金谊广场店)","lon":"121.512004999999","lat":"31.1439009999997","category":"247","category_name":"餐饮美食","address":"浦东新区上南路4467号中房金谊广场4楼(近永泰路)"},{"poiid":"B2094750D76DA5FD469E","title":"吉利士南洋美食餐厅","lon":"121.514","lat":"31.1394","category":"110","category_name":"其他亚洲菜","address":"浦东新区上南路4467号金谊广场4楼(近永泰路)"},{"poiid":"B2094757D468ABF54999","title":"品尚豆捞 金谊广场店","lon":"121.513829","lat":"31.138724","category":"86","category_name":"火锅店","address":"浦东新区上南路4467号金谊广场4楼(永泰路口)"},{"poiid":"B2094655D36CA2FA4692","title":"三林","lon":"121.50875","lat":"31.14565","category":"38","category_name":"公交车站","address":""},{"poiid":"B2094654DB6DA0F8459E","title":"上海市三林中学","lon":"121.50445","lat":"31.14043","category":"55","category_name":"中学","address":"浦东新区三林路658号(浦东三新路三林路)"},{"poiid":"B2094757D06BA0FE469A","title":"三林新村","lon":"121.511800009","lat":"31.1362487932","category":"500","category_name":"未知分类","address":"上海市浦东新区永泰路258弄"},{"poiid":"B2094654DA65A7F8439A","title":"上海市三林中学北校凌兆路校区","lon":"121.50329","lat":"31.1443","category":"55","category_name":"中学","address":""},{"poiid":"B2094757D06FA5FB439D","title":"恒大翰城瀚林苑","lon":"121.506578","lat":"31.149811","category":"47","category_name":"住宅区","address":"上海上南路3899弄"},{"poiid":"B2094757D06BA6F4469E","title":"跃达大酒店 三林路店","lon":"121.50984906981","lat":"31.142692882422","category":"76","category_name":"上海菜","address":"浦东新区三林路869号(近上南路)"},{"poiid":"B2094654DB6DA0F84093","title":"旺林酒家","lon":"121.50582921752","lat":"31.141371779699","category":"76","category_name":"上海菜","address":"浦东新区三林路767号"},{"poiid":"B2094751DA6EA4F54999","title":"上海市东方医院南院","lon":"121.507308","lat":"31.146069","category":"252","category_name":"楼宇机构","address":"上海市云台路1800号"},{"poiid":"B2094757D66EA0F5459A","title":"SOHO GYM健身馆","lon":"121.513905009","lat":"31.1402548805","category":"220","category_name":"运动场所","address":"上海金谊广场"},{"poiid":"B2094757D465A0FA469C","title":"新培酒家","lon":"121.510217","lat":"31.142582","category":"74","category_name":"江苏菜","address":"浦东新区三林路388号(长清路灵岩南路间)"},{"poiid":"B2094750DA69A2FE4899","title":"新石器烤肉","lon":"121.512893","lat":"31.140678","category":"247","category_name":"餐饮美食","address":"三林上南路金谊广场"},{"poiid":"B2094750D76EA4F84198","title":"明府其食","lon":"121.506","lat":"31.1493","category":"76","category_name":"上海菜","address":"浦东新区上南路3886号(华夏西路口)"},{"poiid":"B2094454D065A6F5429C","title":"金谊华夏影城","lon":"121.513381","lat":"31.140973","category":"178","category_name":"电影院","address":"上海市浦东新区上南路4467号中房金谊生活广场"},{"poiid":"B2094750D768A7F54498","title":"越味风(上南路店)","lon":"121.513","lat":"31.1398","category":"99","category_name":"泰国／越南菜品餐厅","address":"上南路4467号中房金谊广场4楼层"},{"poiid":"B2094751D56AA7FD439B","title":"中房金誼廣場Starbucks","lon":"121.509234","lat":"31.142104","category":"247","category_name":"餐饮美食","address":"上南路永泰路口"},{"poiid":"B2094654DB6DA0FE4292","title":"永乐生活电器三林店","lon":"121.5101","lat":"31.1431","category":"138","category_name":"家电电子卖场","address":"浦东新区三林路480号(近灵岩南路)"},{"poiid":"B2094757D16EA0F4489C","title":"肯德基Kfc(金谊广场店)","lon":"121.515883","lat":"31.139906872","category":"68","category_name":"快餐厅","address":"浦东新区上南路4467号20号金谊广场内(近永泰路)"},{"poiid":"B2094750D26EA6FC4498","title":"星巴克金谊店","lon":"121.514427","lat":"31.139675","category":"247","category_name":"餐饮美食","address":"上南路"},{"poiid":"B2094655D36CA2F54199","title":"上南路三林路(三林)","lon":"121.51054","lat":"31.14336","category":"38","category_name":"公交车站","address":""},{"poiid":"B2094757D465A0FB479F","title":"春天园咖啡","lon":"121.511197054","lat":"31.142268793","category":"260","category_name":"其他","address":"浦东新区上南路4276号(近三林路)"},{"poiid":"B2094753D568A6F44593","title":"歌神KTV","lon":"121.511009","lat":"31.142204","category":"170","category_name":"KTV","address":"上海市 金谊广场4楼"},{"poiid":"B2094750DA6DA6FE449C","title":"金芋良圆","lon":"121.512634","lat":"31.141963","category":"67","category_name":"甜品店","address":"浦东新区上南路4467号金谊广场1楼中庭(近永泰路)"},{"poiid":"B2094757D16CA3FF429D","title":"金光小区","lon":"121.51068","lat":"31.144218","category":"47","category_name":"住宅区","address":"上海市浦东新区上南路4265弄"},{"poiid":"B2094757D16FA5F4499A","title":"苏菲雅摄影基地","lon":"121.5100884","lat":"31.134071745","category":"500","category_name":"未知分类","address":"上海上南路5018弄25号"},{"poiid":"B2094751D56DA2FA4193","title":"四谷姜太公","lon":"121.5131","lat":"31.1397","category":"95","category_name":"日本料理","address":"上南路4467号金谊广场2楼221号铺"},{"poiid":"B2094655D26EA4F54892","title":"斯朴林咖啡 上南店","lon":"121.50663943574","lat":"31.144333967298","category":"65","category_name":"咖啡厅","address":"上南路4276号近上浜路"},{"poiid":"B2094757D169A6FE409A","title":"凌兆路烧烤摊","lon":"121.50885","lat":"31.14281","category":"247","category_name":"餐饮美食","address":"上海浦东新区凌兆路860号门口(上南路)  "},{"poiid":"B2094757D069A5FF4493","title":"金光新村","lon":"121.514483","lat":"31.145823001","category":"252","category_name":"楼宇机构","address":"上海市浦东新区上南路"},{"poiid":"B2094655D268A2FF459A","title":"上南路4362弄小区(东门)","lon":"121.511","lat":"31.14231","category":"47","category_name":"住宅区","address":"上南路4362弄1-6号"},{"poiid":"B2094752D269A3FD419B","title":"歌神量贩KTV","lon":"121.507552","lat":"31.146231","category":"170","category_name":"KTV","address":"金谊广场"},{"poiid":"B2094757D66EAAFC409D","title":"先得意酒店","lon":"121.510916","lat":"31.14345315","category":"76","category_name":"上海菜","address":"上海徐汇区老沪闵路517号(近石龙路)  "},{"poiid":"B2094757D069A3F8459C","title":"海宁阿月煲(三林路店)","lon":"121.50242242","lat":"31.139621493","category":"260","category_name":"其他","address":"浦东新区三林路535号(灵岩南路口)"},{"poiid":"B2094757D16BA2FD4099","title":"家","lon":"121.510259","lat":"31.141915916","category":"500","category_name":"未知分类","address":null},{"poiid":"B2094655D26BA7FA499B","title":"快客","lon":"121.51034","lat":"31.1438","category":"117","category_name":"便民商店/便利店","address":""},{"poiid":"B2094757DA6FA2FD4393","title":"大桶大足浴(上南路店)","lon":"121.512053100001","lat":"31.1415132000003","category":"247","category_name":"餐饮美食","address":"浦东新区上南路3521号D座2楼"}]