[{"poiid":"B2094757D06FA0FF459A","title":"有家川菜 阳曲路店","lon":"121.459702054","lat":"31.316875793","category":"71","category_name":"四川菜","address":"闸北区阳曲路665号(近保德路)"},{"poiid":"B2094757D165ABFF4392","title":"烧品(阳曲店)","lon":"121.458924103","lat":"31.3177274115","category":"76","category_name":"上海菜","address":"闸北区阳曲路666号(近保德路)"},{"poiid":"B2094654D465ABFA489A","title":"麦盛莉酒楼阳曲店","lon":"121.46017","lat":"31.31739","category":"70","category_name":"综合酒楼","address":"闸北区阳曲路670号(保德路口)"},{"poiid":"B2094757D068A1FB449D","title":"岭南路景鳳路","lon":"121.455826","lat":"31.317847","category":"38","category_name":"公交车站","address":"上海岭南路景鳳路"},{"poiid":"B2094757D068A0FB469A","title":"岭南雅苑","lon":"121.45682","lat":"31.324879","category":"47","category_name":"住宅区","address":"上海宝山区岭南路1288弄"},{"poiid":"B2094757D064A4FA429B","title":"上海武警政治学院","lon":"121.459355103","lat":"31.3200824608","category":"500","category_name":"未知分类","address":"上海市闸北区岭南路"},{"poiid":"B2094757D464A7FE4693","title":"新昌润 彭浦店","lon":"121.45940148283","lat":"31.315978615687","category":"76","category_name":"上海菜","address":"闸北区阳曲路638号(近保德路)"},{"poiid":"B2094757DA6EA5FC4993","title":"大汉宫酒店","lon":"121.455194000002","lat":"31.3211760000001","category":"76","category_name":"上海菜","address":"闸北区岭南路1115号(近共康东路)"},{"poiid":"B2094654D56DA2F5419D","title":"美树铭家","lon":"121.45837","lat":"31.324881","category":"47","category_name":"住宅区","address":"美树铭家位于宝山阳曲路1111弄"},{"poiid":"B2094757D06FA7F44699","title":"岭南路保德路站","lon":"121.455917","lat":"31.3166366","category":"38","category_name":"公交车站","address":"上海岭南路616号(保德路)"},{"poiid":"B2094757D069A2FC489D","title":"景凤路","lon":"121.4585927","lat":"31.320419812","category":"260","category_name":"其他","address":"上海景凤路"},{"poiid":"B2094757D06FA4F44893","title":"景凤小区","lon":"121.45789","lat":"31.320566","category":"47","category_name":"住宅区","address":"上海景凤路520弄(近岭南路)"},{"poiid":"B2094654D56DA1FD409C","title":"共和三村","lon":"121.45857","lat":"31.321901","category":"47","category_name":"住宅区","address":"上海阳曲路共康东路"},{"poiid":"B2094757D06FABFE459D","title":"田家炳中学","lon":"121.46329","lat":"31.31989","category":"55","category_name":"中学","address":"闸北区景风路185号(近阳泉路)"},{"poiid":"B2094654D56DA1FD4099","title":"阳景小区","lon":"121.45885","lat":"31.319254","category":"47","category_name":"住宅区","address":"阳曲路781弄"},{"poiid":"B2094757D56DA3F8459D","title":"乔老爷老北京铜炉涮锅","lon":"121.4618465","lat":"31.3233447","category":"86","category_name":"火锅店","address":"宝山区共康东路113-115号(近阳曲路)"},{"poiid":"B2094655D26CA0FA489A","title":"临汾路1564弄小区","lon":"121.462","lat":"31.317","category":"47","category_name":"住宅区","address":"临汾路1564弄1-39号"},{"poiid":"B2094654DB6BA3FC409E","title":"意海居海鲜家常菜馆","lon":"121.455925054","lat":"31.319894793","category":"76","category_name":"上海菜","address":"闸北区岭南路1025号(近景风路)"},{"poiid":"B2094655D36CA4FC4492","title":"保德路阳曲路","lon":"121.45916","lat":"31.31747","category":"38","category_name":"公交车站","address":"上海保德路阳曲路"},{"poiid":"B2094654D56DA1F84098","title":"共和二村","lon":"121.46089","lat":"31.321644","category":"47","category_name":"住宅区","address":"上海市宝山区阳曲路"},{"poiid":"B2094757D06BA0F94992","title":"岁福祥老母鸡汤面馆 阳曲路店","lon":"121.45997","lat":"31.31945","category":"68","category_name":"快餐厅","address":"闸北区阳曲路814号(近景凤路)"},{"poiid":"B2094757D064A4F44999","title":"同洲模范学校","lon":"121.457131286","lat":"31.321205951","category":"253","category_name":"校园生活","address":"闸北区岭南路1050弄1号(近共康东路)"},{"poiid":"B2094751DA64A4FB459A","title":"东滩悦大酒店","lon":"121.460159","lat":"31.316034","category":"247","category_name":"餐饮美食","address":"阳曲路632号"},{"poiid":"B2094757D06BAAF8439F","title":"临汾路派出所","lon":"121.459439","lat":"31.320314","category":"609","category_name":"警察局","address":"上海景凤路398号"},{"poiid":"B2094757D66DA7FE489E","title":"姚太太 阳曲路店","lon":"121.4599","lat":"31.32045","category":"68","category_name":"快餐厅","address":"闸北区阳曲路(近临汾路)"},{"poiid":"B2094757D46FA3FE4198","title":"重庆鸡公煲 岭南路店","lon":"121.455759054","lat":"31.318513793","category":"71","category_name":"四川菜","address":"闸北区岭南路779号(近平顺路)"},{"poiid":"B2094655D26EA4FF439C","title":"景凤小吃","lon":"121.45795526357","lat":"31.320044639582","category":"257","category_name":"中餐厅","address":"景凤路510号近阳曲路"},{"poiid":"B2094654D56DA2F9419B","title":"上海袁氏特色糕米团点心店","lon":"121.45566","lat":"31.31969","category":"68","category_name":"快餐厅","address":"闸北区岭南路813号(近景凤路)"},{"poiid":"B2094654D56DA1FF4698","title":"景阳小区","lon":"121.46208","lat":"31.31909","category":"47","category_name":"住宅区","address":"景凤路205、301弄"},{"poiid":"B2094751D36CA3F9429C","title":"段氏龙虾(阳曲路店)","lon":"121.45976","lat":"31.31732","category":"68","category_name":"快餐厅","address":"闸北区阳曲路681号(保德路口)"},{"poiid":"B2094654D56DA1FC4098","title":"亚东串烤","lon":"121.458901054","lat":"31.323119793","category":"87","category_name":"特色／地方风味餐厅","address":"宝山区共康东路103号(近阳泉路)"},{"poiid":"B2094655D26CA1FE469A","title":"好德便利No.894","lon":"121.45759","lat":"31.31961","category":"117","category_name":"便民商店/便利店","address":"景凤路515-519"},{"poiid":"B2094654D56DA1F8409B","title":"伊恩幼儿园","lon":"121.4605","lat":"31.32044","category":"57","category_name":"幼儿园","address":"闸北区景凤路380弄1号(景凤路阳曲路)"},{"poiid":"B2094654DB6BA3FC479F","title":"景凤小区(南门)","lon":"121.45747","lat":"31.31986","category":"47","category_name":"住宅区","address":"景凤路380弄7-10号、16-19号、480弄1-33号、520弄1-37号"},{"poiid":"B2094757D56CA1FF4498","title":"新旺美食林","lon":"121.45598776629","lat":"31.317443608128","category":"87","category_name":"特色／地方风味餐厅","address":"闸北区岭南路722号(近保德路)"},{"poiid":"B2094655D26FA0F54699","title":"景凤路小学","lon":"121.45786","lat":"31.31947","category":"56","category_name":"小学","address":"闸北区景凤路521弄1号(景凤路岭南路)"},{"poiid":"B2094757D16CA2FA429C","title":"701路彭浦新村终点站","lon":"121.457031959","lat":"31.3194646292","category":"500","category_name":"未知分类","address":"上海景凤路580号"},{"poiid":"B2094757D569A1FB429E","title":"岭南路烧烤","lon":"121.4583739","lat":"31.31775611","category":"68","category_name":"快餐厅","address":"闸北区岭南路700弄(保德路口)"},{"poiid":"B2094655D26AA4FA489F","title":"狼爱上羊烧烤店","lon":"121.45924","lat":"31.32289","category":"68","category_name":"快餐厅","address":"宝山区共康东路326号(近阳曲路)"},{"poiid":"B2094655D36DA0F94693","title":"阳曲路景凤路","lon":"121.45993","lat":"31.31854","category":"38","category_name":"公交车站","address":""},{"poiid":"B2094750D664A7FF489B","title":"珍辣味麻辣捞汤(岭南路店)","lon":"121.456","lat":"31.3176","category":"68","category_name":"快餐厅","address":"闸北区岭南路714号(近保德路)"},{"poiid":"B2094655D36CA6FC479F","title":"共康东路岭南路","lon":"121.45876","lat":"31.3231","category":"38","category_name":"公交车站","address":""},{"poiid":"B2094757D169A3FD459D","title":"景凤路403弄","lon":"121.4585401","lat":"31.318699431","category":"500","category_name":"未知分类","address":"上海市閘北區景凤路"},{"poiid":"B2094655D26DA5FD469F","title":"江杨小区","lon":"121.45632","lat":"31.32078","category":"47","category_name":"住宅区","address":"岭南路1050弄17-32号"},{"poiid":"B2094654D56DA1FF4399","title":"星阳苑","lon":"121.46175","lat":"31.319508","category":"47","category_name":"住宅区","address":"上海保德路258弄"},{"poiid":"B2094655D26FA0F9489C","title":"共和四村(东门)","lon":"121.45554","lat":"31.32036","category":"47","category_name":"住宅区","address":"共和四村1-22号"},{"poiid":"B2094655D36DA0F94692","title":"阳曲路共康东路","lon":"121.45974","lat":"31.32278","category":"38","category_name":"公交车站","address":""},{"poiid":"B2094757D068A0FB429E","title":"岭南小区","lon":"121.4576","lat":"31.318693","category":"252","category_name":"楼宇机构","address":"上海岭南路539,559,700弄,汾西路650弄,保德路681弄"},{"poiid":"B2094757D568ABFF4898","title":"阳曲路760弄1-20号小区(西门)","lon":"121.46017008","lat":"31.31858209","category":"47","category_name":"住宅区","address":"阳曲路760弄1-20号"},{"poiid":"B2094654D56DA2FB4398","title":"共和新路4605弄小区","lon":"121.455","lat":"31.323","category":"47","category_name":"住宅区","address":"共和新路4605弄1-3号"},{"poiid":"B2094757D06FA0FF459A","title":"有家川菜 阳曲路店","lon":"121.459702054","lat":"31.316875793","category":"71","category_name":"四川菜","address":"闸北区阳曲路665号(近保德路)"},{"poiid":"B2094757D165ABFF4392","title":"烧品(阳曲店)","lon":"121.458924103","lat":"31.3177274115","category":"76","category_name":"上海菜","address":"闸北区阳曲路666号(近保德路)"},{"poiid":"B2094654D465ABFA489A","title":"麦盛莉酒楼阳曲店","lon":"121.46017","lat":"31.31739","category":"70","category_name":"综合酒楼","address":"闸北区阳曲路670号(保德路口)"},{"poiid":"B2094757D068A1FB449D","title":"岭南路景鳳路","lon":"121.455826","lat":"31.317847","category":"38","category_name":"公交车站","address":"上海岭南路景鳳路"},{"poiid":"B2094757D068A0FB469A","title":"岭南雅苑","lon":"121.45682","lat":"31.324879","category":"47","category_name":"住宅区","address":"上海宝山区岭南路1288弄"},{"poiid":"B2094757D064A4FA429B","title":"上海武警政治学院","lon":"121.459355103","lat":"31.3200824608","category":"500","category_name":"未知分类","address":"上海市闸北区岭南路"},{"poiid":"B2094757D464A7FE4693","title":"新昌润 彭浦店","lon":"121.45940148283","lat":"31.315978615687","category":"76","category_name":"上海菜","address":"闸北区阳曲路638号(近保德路)"},{"poiid":"B2094757DA6EA5FC4993","title":"大汉宫酒店","lon":"121.455194000002","lat":"31.3211760000001","category":"76","category_name":"上海菜","address":"闸北区岭南路1115号(近共康东路)"},{"poiid":"B2094654D56DA2F5419D","title":"美树铭家","lon":"121.45837","lat":"31.324881","category":"47","category_name":"住宅区","address":"美树铭家位于宝山阳曲路1111弄"},{"poiid":"B2094757D06FA7F44699","title":"岭南路保德路站","lon":"121.455917","lat":"31.3166366","category":"38","category_name":"公交车站","address":"上海岭南路616号(保德路)"},{"poiid":"B2094757D069A2FC489D","title":"景凤路","lon":"121.4585927","lat":"31.320419812","category":"260","category_name":"其他","address":"上海景凤路"},{"poiid":"B2094757D06FA4F44893","title":"景凤小区","lon":"121.45789","lat":"31.320566","category":"47","category_name":"住宅区","address":"上海景凤路520弄(近岭南路)"},{"poiid":"B2094654D56DA1FD409C","title":"共和三村","lon":"121.45857","lat":"31.321901","category":"47","category_name":"住宅区","address":"上海阳曲路共康东路"},{"poiid":"B2094757D06FABFE459D","title":"田家炳中学","lon":"121.46329","lat":"31.31989","category":"55","category_name":"中学","address":"闸北区景风路185号(近阳泉路)"},{"poiid":"B2094654D56DA1FD4099","title":"阳景小区","lon":"121.45885","lat":"31.319254","category":"47","category_name":"住宅区","address":"阳曲路781弄"},{"poiid":"B2094757D56DA3F8459D","title":"乔老爷老北京铜炉涮锅","lon":"121.4618465","lat":"31.3233447","category":"86","category_name":"火锅店","address":"宝山区共康东路113-115号(近阳曲路)"},{"poiid":"B2094655D26CA0FA489A","title":"临汾路1564弄小区","lon":"121.462","lat":"31.317","category":"47","category_name":"住宅区","address":"临汾路1564弄1-39号"},{"poiid":"B2094654DB6BA3FC409E","title":"意海居海鲜家常菜馆","lon":"121.455925054","lat":"31.319894793","category":"76","category_name":"上海菜","address":"闸北区岭南路1025号(近景风路)"},{"poiid":"B2094655D36CA4FC4492","title":"保德路阳曲路","lon":"121.45916","lat":"31.31747","category":"38","category_name":"公交车站","address":"上海保德路阳曲路"},{"poiid":"B2094654D56DA1F84098","title":"共和二村","lon":"121.46089","lat":"31.321644","category":"47","category_name":"住宅区","address":"上海市宝山区阳曲路"},{"poiid":"B2094757D06BA0F94992","title":"岁福祥老母鸡汤面馆 阳曲路店","lon":"121.45997","lat":"31.31945","category":"68","category_name":"快餐厅","address":"闸北区阳曲路814号(近景凤路)"},{"poiid":"B2094757D064A4F44999","title":"同洲模范学校","lon":"121.457131286","lat":"31.321205951","category":"253","category_name":"校园生活","address":"闸北区岭南路1050弄1号(近共康东路)"},{"poiid":"B2094751DA64A4FB459A","title":"东滩悦大酒店","lon":"121.460159","lat":"31.316034","category":"247","category_name":"餐饮美食","address":"阳曲路632号"},{"poiid":"B2094757D06BAAF8439F","title":"临汾路派出所","lon":"121.459439","lat":"31.320314","category":"609","category_name":"警察局","address":"上海景凤路398号"},{"poiid":"B2094757D66DA7FE489E","title":"姚太太 阳曲路店","lon":"121.4599","lat":"31.32045","category":"68","category_name":"快餐厅","address":"闸北区阳曲路(近临汾路)"},{"poiid":"B2094757D46FA3FE4198","title":"重庆鸡公煲 岭南路店","lon":"121.455759054","lat":"31.318513793","category":"71","category_name":"四川菜","address":"闸北区岭南路779号(近平顺路)"},{"poiid":"B2094655D26EA4FF439C","title":"景凤小吃","lon":"121.45795526357","lat":"31.320044639582","category":"257","category_name":"中餐厅","address":"景凤路510号近阳曲路"},{"poiid":"B2094654D56DA2F9419B","title":"上海袁氏特色糕米团点心店","lon":"121.45566","lat":"31.31969","category":"68","category_name":"快餐厅","address":"闸北区岭南路813号(近景凤路)"},{"poiid":"B2094654D56DA1FF4698","title":"景阳小区","lon":"121.46208","lat":"31.31909","category":"47","category_name":"住宅区","address":"景凤路205、301弄"},{"poiid":"B2094751D36CA3F9429C","title":"段氏龙虾(阳曲路店)","lon":"121.45976","lat":"31.31732","category":"68","category_name":"快餐厅","address":"闸北区阳曲路681号(保德路口)"},{"poiid":"B2094654D56DA1FC4098","title":"亚东串烤","lon":"121.458901054","lat":"31.323119793","category":"87","category_name":"特色／地方风味餐厅","address":"宝山区共康东路103号(近阳泉路)"},{"poiid":"B2094655D26CA1FE469A","title":"好德便利No.894","lon":"121.45759","lat":"31.31961","category":"117","category_name":"便民商店/便利店","address":"景凤路515-519"},{"poiid":"B2094654D56DA1F8409B","title":"伊恩幼儿园","lon":"121.4605","lat":"31.32044","category":"57","category_name":"幼儿园","address":"闸北区景凤路380弄1号(景凤路阳曲路)"},{"poiid":"B2094654DB6BA3FC479F","title":"景凤小区(南门)","lon":"121.45747","lat":"31.31986","category":"47","category_name":"住宅区","address":"景凤路380弄7-10号、16-19号、480弄1-33号、520弄1-37号"},{"poiid":"B2094757D56CA1FF4498","title":"新旺美食林","lon":"121.45598776629","lat":"31.317443608128","category":"87","category_name":"特色／地方风味餐厅","address":"闸北区岭南路722号(近保德路)"},{"poiid":"B2094655D26FA0F54699","title":"景凤路小学","lon":"121.45786","lat":"31.31947","category":"56","category_name":"小学","address":"闸北区景凤路521弄1号(景凤路岭南路)"},{"poiid":"B2094757D16CA2FA429C","title":"701路彭浦新村终点站","lon":"121.457031959","lat":"31.3194646292","category":"500","category_name":"未知分类","address":"上海景凤路580号"},{"poiid":"B2094757D569A1FB429E","title":"岭南路烧烤","lon":"121.4583739","lat":"31.31775611","category":"68","category_name":"快餐厅","address":"闸北区岭南路700弄(保德路口)"},{"poiid":"B2094655D26AA4FA489F","title":"狼爱上羊烧烤店","lon":"121.45924","lat":"31.32289","category":"68","category_name":"快餐厅","address":"宝山区共康东路326号(近阳曲路)"},{"poiid":"B2094655D36DA0F94693","title":"阳曲路景凤路","lon":"121.45993","lat":"31.31854","category":"38","category_name":"公交车站","address":""},{"poiid":"B2094750D664A7FF489B","title":"珍辣味麻辣捞汤(岭南路店)","lon":"121.456","lat":"31.3176","category":"68","category_name":"快餐厅","address":"闸北区岭南路714号(近保德路)"},{"poiid":"B2094655D36CA6FC479F","title":"共康东路岭南路","lon":"121.45876","lat":"31.3231","category":"38","category_name":"公交车站","address":""},{"poiid":"B2094757D169A3FD459D","title":"景凤路403弄","lon":"121.4585401","lat":"31.318699431","category":"500","category_name":"未知分类","address":"上海市閘北區景凤路"},{"poiid":"B2094655D26DA5FD469F","title":"江杨小区","lon":"121.45632","lat":"31.32078","category":"47","category_name":"住宅区","address":"岭南路1050弄17-32号"},{"poiid":"B2094654D56DA1FF4399","title":"星阳苑","lon":"121.46175","lat":"31.319508","category":"47","category_name":"住宅区","address":"上海保德路258弄"},{"poiid":"B2094655D26FA0F9489C","title":"共和四村(东门)","lon":"121.45554","lat":"31.32036","category":"47","category_name":"住宅区","address":"共和四村1-22号"},{"poiid":"B2094655D36DA0F94692","title":"阳曲路共康东路","lon":"121.45974","lat":"31.32278","category":"38","category_name":"公交车站","address":""},{"poiid":"B2094757D068A0FB429E","title":"岭南小区","lon":"121.4576","lat":"31.318693","category":"252","category_name":"楼宇机构","address":"上海岭南路539,559,700弄,汾西路650弄,保德路681弄"},{"poiid":"B2094757D568ABFF4898","title":"阳曲路760弄1-20号小区(西门)","lon":"121.46017008","lat":"31.31858209","category":"47","category_name":"住宅区","address":"阳曲路760弄1-20号"},{"poiid":"B2094654D56DA2FB4398","title":"共和新路4605弄小区","lon":"121.455","lat":"31.323","category":"47","category_name":"住宅区","address":"共和新路4605弄1-3号"},{"poiid":"B2094757D06FA0FF459A","title":"有家川菜 阳曲路店","lon":"121.459702054","lat":"31.316875793","category":"71","category_name":"四川菜","address":"闸北区阳曲路665号(近保德路)"},{"poiid":"B2094757D165ABFF4392","title":"烧品(阳曲店)","lon":"121.458924103","lat":"31.3177274115","category":"76","category_name":"上海菜","address":"闸北区阳曲路666号(近保德路)"},{"poiid":"B2094654D465ABFA489A","title":"麦盛莉酒楼阳曲店","lon":"121.46017","lat":"31.31739","category":"70","category_name":"综合酒楼","address":"闸北区阳曲路670号(保德路口)"},{"poiid":"B2094757D068A1FB449D","title":"岭南路景鳳路","lon":"121.455826","lat":"31.317847","category":"38","category_name":"公交车站","address":"上海岭南路景鳳路"},{"poiid":"B2094757D068A0FB469A","title":"岭南雅苑","lon":"121.45682","lat":"31.324879","category":"47","category_name":"住宅区","address":"上海宝山区岭南路1288弄"},{"poiid":"B2094757D064A4FA429B","title":"上海武警政治学院","lon":"121.459355103","lat":"31.3200824608","category":"500","category_name":"未知分类","address":"上海市闸北区岭南路"},{"poiid":"B2094757D464A7FE4693","title":"新昌润 彭浦店","lon":"121.45940148283","lat":"31.315978615687","category":"76","category_name":"上海菜","address":"闸北区阳曲路638号(近保德路)"},{"poiid":"B2094757DA6EA5FC4993","title":"大汉宫酒店","lon":"121.455194000002","lat":"31.3211760000001","category":"76","category_name":"上海菜","address":"闸北区岭南路1115号(近共康东路)"},{"poiid":"B2094654D56DA2F5419D","title":"美树铭家","lon":"121.45837","lat":"31.324881","category":"47","category_name":"住宅区","address":"美树铭家位于宝山阳曲路1111弄"},{"poiid":"B2094757D06FA7F44699","title":"岭南路保德路站","lon":"121.455917","lat":"31.3166366","category":"38","category_name":"公交车站","address":"上海岭南路616号(保德路)"},{"poiid":"B2094757D069A2FC489D","title":"景凤路","lon":"121.4585927","lat":"31.320419812","category":"260","category_name":"其他","address":"上海景凤路"},{"poiid":"B2094757D06FA4F44893","title":"景凤小区","lon":"121.45789","lat":"31.320566","category":"47","category_name":"住宅区","address":"上海景凤路520弄(近岭南路)"},{"poiid":"B2094654D56DA1FD409C","title":"共和三村","lon":"121.45857","lat":"31.321901","category":"47","category_name":"住宅区","address":"上海阳曲路共康东路"},{"poiid":"B2094757D06FABFE459D","title":"田家炳中学","lon":"121.46329","lat":"31.31989","category":"55","category_name":"中学","address":"闸北区景风路185号(近阳泉路)"},{"poiid":"B2094654D56DA1FD4099","title":"阳景小区","lon":"121.45885","lat":"31.319254","category":"47","category_name":"住宅区","address":"阳曲路781弄"},{"poiid":"B2094757D56DA3F8459D","title":"乔老爷老北京铜炉涮锅","lon":"121.4618465","lat":"31.3233447","category":"86","category_name":"火锅店","address":"宝山区共康东路113-115号(近阳曲路)"},{"poiid":"B2094655D26CA0FA489A","title":"临汾路1564弄小区","lon":"121.462","lat":"31.317","category":"47","category_name":"住宅区","address":"临汾路1564弄1-39号"},{"poiid":"B2094654DB6BA3FC409E","title":"意海居海鲜家常菜馆","lon":"121.455925054","lat":"31.319894793","category":"76","category_name":"上海菜","address":"闸北区岭南路1025号(近景风路)"},{"poiid":"B2094655D36CA4FC4492","title":"保德路阳曲路","lon":"121.45916","lat":"31.31747","category":"38","category_name":"公交车站","address":"上海保德路阳曲路"},{"poiid":"B2094654D56DA1F84098","title":"共和二村","lon":"121.46089","lat":"31.321644","category":"47","category_name":"住宅区","address":"上海市宝山区阳曲路"},{"poiid":"B2094757D06BA0F94992","title":"岁福祥老母鸡汤面馆 阳曲路店","lon":"121.45997","lat":"31.31945","category":"68","category_name":"快餐厅","address":"闸北区阳曲路814号(近景凤路)"},{"poiid":"B2094757D064A4F44999","title":"同洲模范学校","lon":"121.457131286","lat":"31.321205951","category":"253","category_name":"校园生活","address":"闸北区岭南路1050弄1号(近共康东路)"},{"poiid":"B2094751DA64A4FB459A","title":"东滩悦大酒店","lon":"121.460159","lat":"31.316034","category":"247","category_name":"餐饮美食","address":"阳曲路632号"},{"poiid":"B2094757D06BAAF8439F","title":"临汾路派出所","lon":"121.459439","lat":"31.320314","category":"609","category_name":"警察局","address":"上海景凤路398号"},{"poiid":"B2094757D66DA7FE489E","title":"姚太太 阳曲路店","lon":"121.4599","lat":"31.32045","category":"68","category_name":"快餐厅","address":"闸北区阳曲路(近临汾路)"},{"poiid":"B2094757D46FA3FE4198","title":"重庆鸡公煲 岭南路店","lon":"121.455759054","lat":"31.318513793","category":"71","category_name":"四川菜","address":"闸北区岭南路779号(近平顺路)"},{"poiid":"B2094655D26EA4FF439C","title":"景凤小吃","lon":"121.45795526357","lat":"31.320044639582","category":"257","category_name":"中餐厅","address":"景凤路510号近阳曲路"},{"poiid":"B2094654D56DA2F9419B","title":"上海袁氏特色糕米团点心店","lon":"121.45566","lat":"31.31969","category":"68","category_name":"快餐厅","address":"闸北区岭南路813号(近景凤路)"},{"poiid":"B2094654D56DA1FF4698","title":"景阳小区","lon":"121.46208","lat":"31.31909","category":"47","category_name":"住宅区","address":"景凤路205、301弄"},{"poiid":"B2094751D36CA3F9429C","title":"段氏龙虾(阳曲路店)","lon":"121.45976","lat":"31.31732","category":"68","category_name":"快餐厅","address":"闸北区阳曲路681号(保德路口)"},{"poiid":"B2094654D56DA1FC4098","title":"亚东串烤","lon":"121.458901054","lat":"31.323119793","category":"87","category_name":"特色／地方风味餐厅","address":"宝山区共康东路103号(近阳泉路)"},{"poiid":"B2094655D26CA1FE469A","title":"好德便利No.894","lon":"121.45759","lat":"31.31961","category":"117","category_name":"便民商店/便利店","address":"景凤路515-519"},{"poiid":"B2094654D56DA1F8409B","title":"伊恩幼儿园","lon":"121.4605","lat":"31.32044","category":"57","category_name":"幼儿园","address":"闸北区景凤路380弄1号(景凤路阳曲路)"},{"poiid":"B2094654DB6BA3FC479F","title":"景凤小区(南门)","lon":"121.45747","lat":"31.31986","category":"47","category_name":"住宅区","address":"景凤路380弄7-10号、16-19号、480弄1-33号、520弄1-37号"},{"poiid":"B2094757D56CA1FF4498","title":"新旺美食林","lon":"121.45598776629","lat":"31.317443608128","category":"87","category_name":"特色／地方风味餐厅","address":"闸北区岭南路722号(近保德路)"},{"poiid":"B2094655D26FA0F54699","title":"景凤路小学","lon":"121.45786","lat":"31.31947","category":"56","category_name":"小学","address":"闸北区景凤路521弄1号(景凤路岭南路)"},{"poiid":"B2094757D16CA2FA429C","title":"701路彭浦新村终点站","lon":"121.457031959","lat":"31.3194646292","category":"500","category_name":"未知分类","address":"上海景凤路580号"},{"poiid":"B2094757D569A1FB429E","title":"岭南路烧烤","lon":"121.4583739","lat":"31.31775611","category":"68","category_name":"快餐厅","address":"闸北区岭南路700弄(保德路口)"},{"poiid":"B2094655D26AA4FA489F","title":"狼爱上羊烧烤店","lon":"121.45924","lat":"31.32289","category":"68","category_name":"快餐厅","address":"宝山区共康东路326号(近阳曲路)"},{"poiid":"B2094655D36DA0F94693","title":"阳曲路景凤路","lon":"121.45993","lat":"31.31854","category":"38","category_name":"公交车站","address":""},{"poiid":"B2094750D664A7FF489B","title":"珍辣味麻辣捞汤(岭南路店)","lon":"121.456","lat":"31.3176","category":"68","category_name":"快餐厅","address":"闸北区岭南路714号(近保德路)"},{"poiid":"B2094655D36CA6FC479F","title":"共康东路岭南路","lon":"121.45876","lat":"31.3231","category":"38","category_name":"公交车站","address":""},{"poiid":"B2094757D169A3FD459D","title":"景凤路403弄","lon":"121.4585401","lat":"31.318699431","category":"500","category_name":"未知分类","address":"上海市閘北區景凤路"},{"poiid":"B2094655D26DA5FD469F","title":"江杨小区","lon":"121.45632","lat":"31.32078","category":"47","category_name":"住宅区","address":"岭南路1050弄17-32号"},{"poiid":"B2094654D56DA1FF4399","title":"星阳苑","lon":"121.46175","lat":"31.319508","category":"47","category_name":"住宅区","address":"上海保德路258弄"},{"poiid":"B2094655D26FA0F9489C","title":"共和四村(东门)","lon":"121.45554","lat":"31.32036","category":"47","category_name":"住宅区","address":"共和四村1-22号"},{"poiid":"B2094655D36DA0F94692","title":"阳曲路共康东路","lon":"121.45974","lat":"31.32278","category":"38","category_name":"公交车站","address":""},{"poiid":"B2094757D068A0FB429E","title":"岭南小区","lon":"121.4576","lat":"31.318693","category":"252","category_name":"楼宇机构","address":"上海岭南路539,559,700弄,汾西路650弄,保德路681弄"},{"poiid":"B2094757D568ABFF4898","title":"阳曲路760弄1-20号小区(西门)","lon":"121.46017008","lat":"31.31858209","category":"47","category_name":"住宅区","address":"阳曲路760弄1-20号"},{"poiid":"B2094654D56DA2FB4398","title":"共和新路4605弄小区","lon":"121.455","lat":"31.323","category":"47","category_name":"住宅区","address":"共和新路4605弄1-3号"},{"poiid":"B2094757D06FA0FF459A","title":"有家川菜 阳曲路店","lon":"121.459702054","lat":"31.316875793","category":"71","category_name":"四川菜","address":"闸北区阳曲路665号(近保德路)"},{"poiid":"B2094757D165ABFF4392","title":"烧品(阳曲店)","lon":"121.458924103","lat":"31.3177274115","category":"76","category_name":"上海菜","address":"闸北区阳曲路666号(近保德路)"},{"poiid":"B2094654D465ABFA489A","title":"麦盛莉酒楼阳曲店","lon":"121.46017","lat":"31.31739","category":"70","category_name":"综合酒楼","address":"闸北区阳曲路670号(保德路口)"},{"poiid":"B2094757D068A1FB449D","title":"岭南路景鳳路","lon":"121.455826","lat":"31.317847","category":"38","category_name":"公交车站","address":"上海岭南路景鳳路"},{"poiid":"B2094757D068A0FB469A","title":"岭南雅苑","lon":"121.45682","lat":"31.324879","category":"47","category_name":"住宅区","address":"上海宝山区岭南路1288弄"},{"poiid":"B2094757D064A4FA429B","title":"上海武警政治学院","lon":"121.459355103","lat":"31.3200824608","category":"500","category_name":"未知分类","address":"上海市闸北区岭南路"},{"poiid":"B2094757D464A7FE4693","title":"新昌润 彭浦店","lon":"121.45940148283","lat":"31.315978615687","category":"76","category_name":"上海菜","address":"闸北区阳曲路638号(近保德路)"},{"poiid":"B2094757DA6EA5FC4993","title":"大汉宫酒店","lon":"121.455194000002","lat":"31.3211760000001","category":"76","category_name":"上海菜","address":"闸北区岭南路1115号(近共康东路)"},{"poiid":"B2094654D56DA2F5419D","title":"美树铭家","lon":"121.45837","lat":"31.324881","category":"47","category_name":"住宅区","address":"美树铭家位于宝山阳曲路1111弄"},{"poiid":"B2094757D06FA7F44699","title":"岭南路保德路站","lon":"121.455917","lat":"31.3166366","category":"38","category_name":"公交车站","address":"上海岭南路616号(保德路)"},{"poiid":"B2094757D069A2FC489D","title":"景凤路","lon":"121.4585927","lat":"31.320419812","category":"260","category_name":"其他","address":"上海景凤路"},{"poiid":"B2094757D06FA4F44893","title":"景凤小区","lon":"121.45789","lat":"31.320566","category":"47","category_name":"住宅区","address":"上海景凤路520弄(近岭南路)"},{"poiid":"B2094654D56DA1FD409C","title":"共和三村","lon":"121.45857","lat":"31.321901","category":"47","category_name":"住宅区","address":"上海阳曲路共康东路"},{"poiid":"B2094757D06FABFE459D","title":"田家炳中学","lon":"121.46329","lat":"31.31989","category":"55","category_name":"中学","address":"闸北区景风路185号(近阳泉路)"},{"poiid":"B2094654D56DA1FD4099","title":"阳景小区","lon":"121.45885","lat":"31.319254","category":"47","category_name":"住宅区","address":"阳曲路781弄"},{"poiid":"B2094757D56DA3F8459D","title":"乔老爷老北京铜炉涮锅","lon":"121.4618465","lat":"31.3233447","category":"86","category_name":"火锅店","address":"宝山区共康东路113-115号(近阳曲路)"},{"poiid":"B2094655D26CA0FA489A","title":"临汾路1564弄小区","lon":"121.462","lat":"31.317","category":"47","category_name":"住宅区","address":"临汾路1564弄1-39号"},{"poiid":"B2094654DB6BA3FC409E","title":"意海居海鲜家常菜馆","lon":"121.455925054","lat":"31.319894793","category":"76","category_name":"上海菜","address":"闸北区岭南路1025号(近景风路)"},{"poiid":"B2094655D36CA4FC4492","title":"保德路阳曲路","lon":"121.45916","lat":"31.31747","category":"38","category_name":"公交车站","address":"上海保德路阳曲路"},{"poiid":"B2094654D56DA1F84098","title":"共和二村","lon":"121.46089","lat":"31.321644","category":"47","category_name":"住宅区","address":"上海市宝山区阳曲路"},{"poiid":"B2094757D06BA0F94992","title":"岁福祥老母鸡汤面馆 阳曲路店","lon":"121.45997","lat":"31.31945","category":"68","category_name":"快餐厅","address":"闸北区阳曲路814号(近景凤路)"},{"poiid":"B2094757D064A4F44999","title":"同洲模范学校","lon":"121.457131286","lat":"31.321205951","category":"253","category_name":"校园生活","address":"闸北区岭南路1050弄1号(近共康东路)"},{"poiid":"B2094751DA64A4FB459A","title":"东滩悦大酒店","lon":"121.460159","lat":"31.316034","category":"247","category_name":"餐饮美食","address":"阳曲路632号"},{"poiid":"B2094757D06BAAF8439F","title":"临汾路派出所","lon":"121.459439","lat":"31.320314","category":"609","category_name":"警察局","address":"上海景凤路398号"},{"poiid":"B2094757D66DA7FE489E","title":"姚太太 阳曲路店","lon":"121.4599","lat":"31.32045","category":"68","category_name":"快餐厅","address":"闸北区阳曲路(近临汾路)"},{"poiid":"B2094757D46FA3FE4198","title":"重庆鸡公煲 岭南路店","lon":"121.455759054","lat":"31.318513793","category":"71","category_name":"四川菜","address":"闸北区岭南路779号(近平顺路)"},{"poiid":"B2094655D26EA4FF439C","title":"景凤小吃","lon":"121.45795526357","lat":"31.320044639582","category":"257","category_name":"中餐厅","address":"景凤路510号近阳曲路"},{"poiid":"B2094654D56DA2F9419B","title":"上海袁氏特色糕米团点心店","lon":"121.45566","lat":"31.31969","category":"68","category_name":"快餐厅","address":"闸北区岭南路813号(近景凤路)"},{"poiid":"B2094654D56DA1FF4698","title":"景阳小区","lon":"121.46208","lat":"31.31909","category":"47","category_name":"住宅区","address":"景凤路205、301弄"},{"poiid":"B2094751D36CA3F9429C","title":"段氏龙虾(阳曲路店)","lon":"121.45976","lat":"31.31732","category":"68","category_name":"快餐厅","address":"闸北区阳曲路681号(保德路口)"},{"poiid":"B2094654D56DA1FC4098","title":"亚东串烤","lon":"121.458901054","lat":"31.323119793","category":"87","category_name":"特色／地方风味餐厅","address":"宝山区共康东路103号(近阳泉路)"},{"poiid":"B2094655D26CA1FE469A","title":"好德便利No.894","lon":"121.45759","lat":"31.31961","category":"117","category_name":"便民商店/便利店","address":"景凤路515-519"},{"poiid":"B2094654D56DA1F8409B","title":"伊恩幼儿园","lon":"121.4605","lat":"31.32044","category":"57","category_name":"幼儿园","address":"闸北区景凤路380弄1号(景凤路阳曲路)"},{"poiid":"B2094654DB6BA3FC479F","title":"景凤小区(南门)","lon":"121.45747","lat":"31.31986","category":"47","category_name":"住宅区","address":"景凤路380弄7-10号、16-19号、480弄1-33号、520弄1-37号"},{"poiid":"B2094757D56CA1FF4498","title":"新旺美食林","lon":"121.45598776629","lat":"31.317443608128","category":"87","category_name":"特色／地方风味餐厅","address":"闸北区岭南路722号(近保德路)"},{"poiid":"B2094655D26FA0F54699","title":"景凤路小学","lon":"121.45786","lat":"31.31947","category":"56","category_name":"小学","address":"闸北区景凤路521弄1号(景凤路岭南路)"},{"poiid":"B2094757D16CA2FA429C","title":"701路彭浦新村终点站","lon":"121.457031959","lat":"31.3194646292","category":"500","category_name":"未知分类","address":"上海景凤路580号"},{"poiid":"B2094757D569A1FB429E","title":"岭南路烧烤","lon":"121.4583739","lat":"31.31775611","category":"68","category_name":"快餐厅","address":"闸北区岭南路700弄(保德路口)"},{"poiid":"B2094655D26AA4FA489F","title":"狼爱上羊烧烤店","lon":"121.45924","lat":"31.32289","category":"68","category_name":"快餐厅","address":"宝山区共康东路326号(近阳曲路)"},{"poiid":"B2094655D36DA0F94693","title":"阳曲路景凤路","lon":"121.45993","lat":"31.31854","category":"38","category_name":"公交车站","address":""},{"poiid":"B2094750D664A7FF489B","title":"珍辣味麻辣捞汤(岭南路店)","lon":"121.456","lat":"31.3176","category":"68","category_name":"快餐厅","address":"闸北区岭南路714号(近保德路)"},{"poiid":"B2094655D36CA6FC479F","title":"共康东路岭南路","lon":"121.45876","lat":"31.3231","category":"38","category_name":"公交车站","address":""},{"poiid":"B2094757D169A3FD459D","title":"景凤路403弄","lon":"121.4585401","lat":"31.318699431","category":"500","category_name":"未知分类","address":"上海市閘北區景凤路"},{"poiid":"B2094655D26DA5FD469F","title":"江杨小区","lon":"121.45632","lat":"31.32078","category":"47","category_name":"住宅区","address":"岭南路1050弄17-32号"},{"poiid":"B2094654D56DA1FF4399","title":"星阳苑","lon":"121.46175","lat":"31.319508","category":"47","category_name":"住宅区","address":"上海保德路258弄"},{"poiid":"B2094655D26FA0F9489C","title":"共和四村(东门)","lon":"121.45554","lat":"31.32036","category":"47","category_name":"住宅区","address":"共和四村1-22号"},{"poiid":"B2094655D36DA0F94692","title":"阳曲路共康东路","lon":"121.45974","lat":"31.32278","category":"38","category_name":"公交车站","address":""},{"poiid":"B2094757D068A0FB429E","title":"岭南小区","lon":"121.4576","lat":"31.318693","category":"252","category_name":"楼宇机构","address":"上海岭南路539,559,700弄,汾西路650弄,保德路681弄"},{"poiid":"B2094757D568ABFF4898","title":"阳曲路760弄1-20号小区(西门)","lon":"121.46017008","lat":"31.31858209","category":"47","category_name":"住宅区","address":"阳曲路760弄1-20号"},{"poiid":"B2094654D56DA2FB4398","title":"共和新路4605弄小区","lon":"121.455","lat":"31.323","category":"47","category_name":"住宅区","address":"共和新路4605弄1-3号"}]