[{"poiid":"B2094757D06FA3FF469C","title":"泗泾地铁站","lon":"121.257731","lat":"31.118226","category":"36","category_name":"地铁站","address":"上海轨道交通 九号线 轨交泗泾站 9"},{"poiid":"B2094655D36DA7F44992","title":"泗泾","lon":"121.27429","lat":"31.10866","category":"38","category_name":"公交车站","address":""},{"poiid":"B2094654DA64ABFD4292","title":"云顶别墅","lon":"121.27198","lat":"31.12071","category":"47","category_name":"住宅区","address":"上海市松江区泗泾镇泗陈公路388号"},{"poiid":"B2094757D06AA5FD439F","title":"泗泾大润发","lon":"121.26138935","lat":"31.117217216","category":"118","category_name":"超级市场","address":"松江区横港路18弄63号(近泗泾地铁站)"},{"poiid":"B2094757D16BA2F5459E","title":"泗泾古镇","lon":"121.278487831","lat":"31.1102715986","category":"260","category_name":"其他","address":"上海松江"},{"poiid":"B2094757D068A4FF409A","title":"松江钢材城","lon":"121.28397478","lat":"31.108853042","category":"123","category_name":"家具建材市场","address":"上海松江区泗泾镇泗砖路103号"},{"poiid":"B2094757D068A0F9409F","title":"欢乐谷 矿山历险","lon":"121.26219568","lat":"31.109043602","category":"195","category_name":"游乐场","address":"松江区佘山镇林湖路888号上海欢乐谷内"},{"poiid":"B2094654DA64A6F54592","title":"丽水豪庭","lon":"121.28366","lat":"31.113916","category":"47","category_name":"住宅区","address":"上海市松江区沪松公路2517弄"},{"poiid":"B2094654DA64ABFD429D","title":"小桥流水 松江店","lon":"121.26726","lat":"31.11963","category":"47","category_name":"住宅区","address":"松江区泗泾镇泗陈公路388号(近文化路)"},{"poiid":"B2094654DA64ABFE449D","title":"金港花园","lon":"121.2625","lat":"31.1117","category":"47","category_name":"住宅区","address":"横港路155弄"},{"poiid":"B2094757D16FA5F5469D","title":"天雅村酒店(松江店)","lon":"121.27643","lat":"31.11559","category":"76","category_name":"上海菜","address":"松江区泗泾镇文化路227号(鼓浪路口)"},{"poiid":"B2094654DA64ABFD469F","title":"西南名苑","lon":"121.26776","lat":"31.116817","category":"47","category_name":"住宅区","address":"上海市松江区泗陈公路501弄"},{"poiid":"B2094654DB64A2FE439B","title":"颐景园(朝辉公路)","lon":"121.26741","lat":"31.11967","category":"47","category_name":"住宅区","address":""},{"poiid":"B2094654DA64A1F54498","title":"润和苑","lon":"121.26771","lat":"31.113291","category":"47","category_name":"住宅区","address":"上海市松江区四泾镇鼓浪路801号"},{"poiid":"B2094757D16CA1FC4092","title":"九亭","lon":"121.27549483","lat":"31.119801804","category":"500","category_name":"未知分类","address":"上海市松江区泗陈公路"},{"poiid":"B2094757D16AA2FF469B","title":"泗泾医院","lon":"121.27336283","lat":"31.112432645","category":"162","category_name":"医院","address":"松江区泗泾镇江川北路108号(近泗泾老街)"},{"poiid":"B2094757D168A4F8419B","title":"泗泾镇人民政府","lon":"121.27498883","lat":"31.116565734","category":"500","category_name":"未知分类","address":"上海市松江区泗泾镇人民路1号"},{"poiid":"B2094655D265A0F8469E","title":"三湘商业广场","lon":"121.27165","lat":"31.11765","category":"47","category_name":"住宅区","address":"松江区横港公路37-45号(近泗陈公路)"},{"poiid":"B2094757D568A5F94593","title":"金港河滨华城","lon":"121.269","lat":"31.1175","category":"47","category_name":"住宅区","address":"上海市松江区镇横港路633号"},{"poiid":"B2094757D66BA7FD4598","title":"肯德基 泗泾镇店 KFC","lon":"121.261035054","lat":"31.111355793","category":"94","category_name":"西餐厅","address":"松江区松江泗泾镇江川北路134弄146号"},{"poiid":"B2094654DA64A6FB409E","title":"江川二村","lon":"121.26999","lat":"31.114859","category":"47","category_name":"住宅区","address":"鼓浪路700号"},{"poiid":"B2094757D06AA7F9429F","title":"老邻居饭香","lon":"121.271109","lat":"31.11452","category":"249","category_name":"购物服务","address":"上海松江区泗泾镇鼓浪路639号"},{"poiid":"B2094654DA64ABFD429C","title":"南村小区","lon":"121.27428","lat":"31.117962","category":"47","category_name":"住宅区","address":"文化路321弄"},{"poiid":"B2094757D16DA3F84999","title":"肯德基kfc泗泾大润发店","lon":"121.26154483","lat":"31.117982765","category":"68","category_name":"快餐厅","address":"松江区横港路18弄63号大润发1楼(近泗泾地铁站)"},{"poiid":"B2094757D66CA7FA479C","title":"味道江湖","lon":"121.26904383","lat":"31.114292585","category":"71","category_name":"四川菜","address":"松江区鼓浪路693-697号(近西安路)"},{"poiid":"B2094655D26AA6F44299","title":"美味情缘烧烤吧","lon":"121.27084","lat":"31.11428","category":"68","category_name":"快餐厅","address":"松江区泗泾镇鼓浪路649号(近江川路)"},{"poiid":"B2094654DA64ABFD469C","title":"松江区泗泾幼儿园","lon":"121.26954","lat":"31.11751","category":"57","category_name":"幼儿园","address":"松江区泗泾镇赵非公路175弄50号"},{"poiid":"B2094654DB64A2FE4993","title":"祥和公寓","lon":"121.26217","lat":"31.116907","category":"47","category_name":"住宅区","address":"横港公路49弄"},{"poiid":"B2094654DA64ABFD469D","title":"松江区泗泾小学","lon":"121.26981","lat":"31.11612","category":"56","category_name":"小学","address":"赵非泾路75弄50"},{"poiid":"B2094757D06AA7F4419A","title":"肯德基 KFC (泗泾店)","lon":"121.274235","lat":"31.112659","category":"500","category_name":"未知分类","address":"上海松江泗泾镇江川北路134弄146号"},{"poiid":"B2094757D66AABFC409A","title":"宋记香辣蟹 泗泾镇店","lon":"121.26931","lat":"31.11425","category":"71","category_name":"四川菜","address":"松江区泗泾镇鼓浪路727号(鼓浪路泗泾西安路)"},{"poiid":"B2094654DA64A6F8439C","title":"东方教具工业园","lon":"121.27437","lat":"31.12601","category":"45","category_name":"产业园区","address":""},{"poiid":"B2094654DA64A6FA4899","title":"川金龙骨头王","lon":"121.27423","lat":"31.1154","category":"70","category_name":"综合酒楼","address":""},{"poiid":"B2094654DA64A6F84992","title":"泗泾酒家","lon":"121.26969","lat":"31.11413","category":"70","category_name":"综合酒楼","address":"松江区泗泾镇古浪路719号(近西安路)"},{"poiid":"B2094654DB69A4FF419D","title":"文峰美容美发(鼓浪路店)","lon":"121.27714","lat":"31.11618","category":"148","category_name":"美容美发店","address":"松江区泗泾镇鼓浪路534号(鼓浪路泗泾江川路)"},{"poiid":"B2094757D169ABFE429D","title":"柯马(上海)工程有限公司","lon":"121.26990383","lat":"31.131906065","category":"46","category_name":"楼宇","address":"上海松江区泗泾工业区九干路1353号"},{"poiid":"B2094654DA64A6F8429E","title":"大名公寓","lon":"121.27621","lat":"31.116224","category":"47","category_name":"住宅区","address":"文化路256弄"},{"poiid":"B2094654DA64A6F8439E","title":"打铁桥村社区之家","lon":"121.27471","lat":"31.12392","category":"248","category_name":"生活娱乐","address":""},{"poiid":"B2094654DB64A6F8409A","title":"中国移动泗泾营业厅","lon":"121.27019","lat":"31.11434","category":"151","category_name":"电讯营业厅","address":"松江区泗泾镇古浪路685号"},{"poiid":"B2094654DA64ABFD499A","title":"广利粽子店","lon":"121.27375","lat":"31.11282","category":"68","category_name":"快餐厅","address":"松江区松江泗泾镇江川北路155号"},{"poiid":"B2094757D568A6FC449D","title":"润和欣苑","lon":"121.26702","lat":"31.114988","category":"47","category_name":"住宅区","address":"上海市松江区鼓浪路828弄、790弄"},{"poiid":"B2094757D464A0F94992","title":"小咸亨","lon":"121.2837139959","lat":"31.117566597902","category":"75","category_name":"浙江菜","address":"松江区泗泾镇鼓浪路58号(沪松公路)"},{"poiid":"B2094654DA64ABFD4198","title":"上海市地方税务局松江分局第八税务所","lon":"121.27388","lat":"31.11394","category":"250","category_name":"公园户外","address":"泗泾江川北路208"},{"poiid":"B2094654DA64A6F94192","title":"弘泰酒家","lon":"121.27117","lat":"31.11434","category":"70","category_name":"综合酒楼","address":""},{"poiid":"B2094757D165ABFA4292","title":"都可茶饮CoCo(横港公路店)","lon":"121.27022973","lat":"31.114223983","category":"247","category_name":"餐饮美食","address":"上海松江区泗泾镇横港公路18弄63号"},{"poiid":"B2094654DA64ABFE419E","title":"江川一村","lon":"121.27206","lat":"31.112606","category":"47","category_name":"住宅区","address":"开江二路78弄"},{"poiid":"B2094757D165ABFB469C","title":"宋记香辣蟹","lon":"121.269011831","lat":"31.1143796873","category":"247","category_name":"餐饮美食","address":"上海市松江区横港公路"},{"poiid":"B2094654DB64A2FE4898","title":"永琪美容美发(泗泾·江川路)","lon":"121.27423","lat":"31.11267","category":"148","category_name":"美容美发店","address":"松江区松江泗泾镇江川北路148号"},{"poiid":"B2094751D368A3F8429F","title":"湘西部落","lon":"121.28337","lat":"31.11372","category":"77","category_name":"湖南菜","address":"松江区泗泾镇沪松公路2519弄2-6号(近泗泾老街)"},{"poiid":"B2094654DB69A7F9499C","title":"中国工商银行泗泾支行","lon":"121.27308","lat":"31.11525","category":"150","category_name":"银行","address":"杨浦区文化路412号鼓浪路口(鼓浪路松江文化路)"},{"poiid":"B2094757D06FA3FF469C","title":"泗泾地铁站","lon":"121.257731","lat":"31.118226","category":"36","category_name":"地铁站","address":"上海轨道交通 九号线 轨交泗泾站 9"},{"poiid":"B2094655D36DA7F44992","title":"泗泾","lon":"121.27429","lat":"31.10866","category":"38","category_name":"公交车站","address":""},{"poiid":"B2094654DA64ABFD4292","title":"云顶别墅","lon":"121.27198","lat":"31.12071","category":"47","category_name":"住宅区","address":"上海市松江区泗泾镇泗陈公路388号"},{"poiid":"B2094757D06AA5FD439F","title":"泗泾大润发","lon":"121.26138935","lat":"31.117217216","category":"118","category_name":"超级市场","address":"松江区横港路18弄63号(近泗泾地铁站)"},{"poiid":"B2094757D16BA2F5459E","title":"泗泾古镇","lon":"121.278487831","lat":"31.1102715986","category":"260","category_name":"其他","address":"上海松江"},{"poiid":"B2094757D068A4FF409A","title":"松江钢材城","lon":"121.28397478","lat":"31.108853042","category":"123","category_name":"家具建材市场","address":"上海松江区泗泾镇泗砖路103号"},{"poiid":"B2094757D068A0F9409F","title":"欢乐谷 矿山历险","lon":"121.26219568","lat":"31.109043602","category":"195","category_name":"游乐场","address":"松江区佘山镇林湖路888号上海欢乐谷内"},{"poiid":"B2094654DA64A6F54592","title":"丽水豪庭","lon":"121.28366","lat":"31.113916","category":"47","category_name":"住宅区","address":"上海市松江区沪松公路2517弄"},{"poiid":"B2094654DA64ABFD429D","title":"小桥流水 松江店","lon":"121.26726","lat":"31.11963","category":"47","category_name":"住宅区","address":"松江区泗泾镇泗陈公路388号(近文化路)"},{"poiid":"B2094654DA64ABFE449D","title":"金港花园","lon":"121.2625","lat":"31.1117","category":"47","category_name":"住宅区","address":"横港路155弄"},{"poiid":"B2094757D16FA5F5469D","title":"天雅村酒店(松江店)","lon":"121.27643","lat":"31.11559","category":"76","category_name":"上海菜","address":"松江区泗泾镇文化路227号(鼓浪路口)"},{"poiid":"B2094654DA64ABFD469F","title":"西南名苑","lon":"121.26776","lat":"31.116817","category":"47","category_name":"住宅区","address":"上海市松江区泗陈公路501弄"},{"poiid":"B2094654DB64A2FE439B","title":"颐景园(朝辉公路)","lon":"121.26741","lat":"31.11967","category":"47","category_name":"住宅区","address":""},{"poiid":"B2094654DA64A1F54498","title":"润和苑","lon":"121.26771","lat":"31.113291","category":"47","category_name":"住宅区","address":"上海市松江区四泾镇鼓浪路801号"},{"poiid":"B2094757D16CA1FC4092","title":"九亭","lon":"121.27549483","lat":"31.119801804","category":"500","category_name":"未知分类","address":"上海市松江区泗陈公路"},{"poiid":"B2094757D16AA2FF469B","title":"泗泾医院","lon":"121.27336283","lat":"31.112432645","category":"162","category_name":"医院","address":"松江区泗泾镇江川北路108号(近泗泾老街)"},{"poiid":"B2094757D168A4F8419B","title":"泗泾镇人民政府","lon":"121.27498883","lat":"31.116565734","category":"500","category_name":"未知分类","address":"上海市松江区泗泾镇人民路1号"},{"poiid":"B2094655D265A0F8469E","title":"三湘商业广场","lon":"121.27165","lat":"31.11765","category":"47","category_name":"住宅区","address":"松江区横港公路37-45号(近泗陈公路)"},{"poiid":"B2094757D568A5F94593","title":"金港河滨华城","lon":"121.269","lat":"31.1175","category":"47","category_name":"住宅区","address":"上海市松江区镇横港路633号"},{"poiid":"B2094757D66BA7FD4598","title":"肯德基 泗泾镇店 KFC","lon":"121.261035054","lat":"31.111355793","category":"94","category_name":"西餐厅","address":"松江区松江泗泾镇江川北路134弄146号"},{"poiid":"B2094654DA64A6FB409E","title":"江川二村","lon":"121.26999","lat":"31.114859","category":"47","category_name":"住宅区","address":"鼓浪路700号"},{"poiid":"B2094757D06AA7F9429F","title":"老邻居饭香","lon":"121.271109","lat":"31.11452","category":"249","category_name":"购物服务","address":"上海松江区泗泾镇鼓浪路639号"},{"poiid":"B2094654DA64ABFD429C","title":"南村小区","lon":"121.27428","lat":"31.117962","category":"47","category_name":"住宅区","address":"文化路321弄"},{"poiid":"B2094757D16DA3F84999","title":"肯德基kfc泗泾大润发店","lon":"121.26154483","lat":"31.117982765","category":"68","category_name":"快餐厅","address":"松江区横港路18弄63号大润发1楼(近泗泾地铁站)"},{"poiid":"B2094757D66CA7FA479C","title":"味道江湖","lon":"121.26904383","lat":"31.114292585","category":"71","category_name":"四川菜","address":"松江区鼓浪路693-697号(近西安路)"},{"poiid":"B2094655D26AA6F44299","title":"美味情缘烧烤吧","lon":"121.27084","lat":"31.11428","category":"68","category_name":"快餐厅","address":"松江区泗泾镇鼓浪路649号(近江川路)"},{"poiid":"B2094654DA64ABFD469C","title":"松江区泗泾幼儿园","lon":"121.26954","lat":"31.11751","category":"57","category_name":"幼儿园","address":"松江区泗泾镇赵非公路175弄50号"},{"poiid":"B2094654DB64A2FE4993","title":"祥和公寓","lon":"121.26217","lat":"31.116907","category":"47","category_name":"住宅区","address":"横港公路49弄"},{"poiid":"B2094654DA64ABFD469D","title":"松江区泗泾小学","lon":"121.26981","lat":"31.11612","category":"56","category_name":"小学","address":"赵非泾路75弄50"},{"poiid":"B2094757D06AA7F4419A","title":"肯德基 KFC (泗泾店)","lon":"121.274235","lat":"31.112659","category":"500","category_name":"未知分类","address":"上海松江泗泾镇江川北路134弄146号"},{"poiid":"B2094757D66AABFC409A","title":"宋记香辣蟹 泗泾镇店","lon":"121.26931","lat":"31.11425","category":"71","category_name":"四川菜","address":"松江区泗泾镇鼓浪路727号(鼓浪路泗泾西安路)"},{"poiid":"B2094654DA64A6F8439C","title":"东方教具工业园","lon":"121.27437","lat":"31.12601","category":"45","category_name":"产业园区","address":""},{"poiid":"B2094654DA64A6FA4899","title":"川金龙骨头王","lon":"121.27423","lat":"31.1154","category":"70","category_name":"综合酒楼","address":""},{"poiid":"B2094654DA64A6F84992","title":"泗泾酒家","lon":"121.26969","lat":"31.11413","category":"70","category_name":"综合酒楼","address":"松江区泗泾镇古浪路719号(近西安路)"},{"poiid":"B2094654DB69A4FF419D","title":"文峰美容美发(鼓浪路店)","lon":"121.27714","lat":"31.11618","category":"148","category_name":"美容美发店","address":"松江区泗泾镇鼓浪路534号(鼓浪路泗泾江川路)"},{"poiid":"B2094757D169ABFE429D","title":"柯马(上海)工程有限公司","lon":"121.26990383","lat":"31.131906065","category":"46","category_name":"楼宇","address":"上海松江区泗泾工业区九干路1353号"},{"poiid":"B2094654DA64A6F8429E","title":"大名公寓","lon":"121.27621","lat":"31.116224","category":"47","category_name":"住宅区","address":"文化路256弄"},{"poiid":"B2094654DA64A6F8439E","title":"打铁桥村社区之家","lon":"121.27471","lat":"31.12392","category":"248","category_name":"生活娱乐","address":""},{"poiid":"B2094654DB64A6F8409A","title":"中国移动泗泾营业厅","lon":"121.27019","lat":"31.11434","category":"151","category_name":"电讯营业厅","address":"松江区泗泾镇古浪路685号"},{"poiid":"B2094654DA64ABFD499A","title":"广利粽子店","lon":"121.27375","lat":"31.11282","category":"68","category_name":"快餐厅","address":"松江区松江泗泾镇江川北路155号"},{"poiid":"B2094757D568A6FC449D","title":"润和欣苑","lon":"121.26702","lat":"31.114988","category":"47","category_name":"住宅区","address":"上海市松江区鼓浪路828弄、790弄"},{"poiid":"B2094757D464A0F94992","title":"小咸亨","lon":"121.2837139959","lat":"31.117566597902","category":"75","category_name":"浙江菜","address":"松江区泗泾镇鼓浪路58号(沪松公路)"},{"poiid":"B2094654DA64ABFD4198","title":"上海市地方税务局松江分局第八税务所","lon":"121.27388","lat":"31.11394","category":"250","category_name":"公园户外","address":"泗泾江川北路208"},{"poiid":"B2094654DA64A6F94192","title":"弘泰酒家","lon":"121.27117","lat":"31.11434","category":"70","category_name":"综合酒楼","address":""},{"poiid":"B2094757D165ABFA4292","title":"都可茶饮CoCo(横港公路店)","lon":"121.27022973","lat":"31.114223983","category":"247","category_name":"餐饮美食","address":"上海松江区泗泾镇横港公路18弄63号"},{"poiid":"B2094654DA64ABFE419E","title":"江川一村","lon":"121.27206","lat":"31.112606","category":"47","category_name":"住宅区","address":"开江二路78弄"},{"poiid":"B2094757D165ABFB469C","title":"宋记香辣蟹","lon":"121.269011831","lat":"31.1143796873","category":"247","category_name":"餐饮美食","address":"上海市松江区横港公路"},{"poiid":"B2094654DB64A2FE4898","title":"永琪美容美发(泗泾·江川路)","lon":"121.27423","lat":"31.11267","category":"148","category_name":"美容美发店","address":"松江区松江泗泾镇江川北路148号"},{"poiid":"B2094751D368A3F8429F","title":"湘西部落","lon":"121.28337","lat":"31.11372","category":"77","category_name":"湖南菜","address":"松江区泗泾镇沪松公路2519弄2-6号(近泗泾老街)"},{"poiid":"B2094654DB69A7F9499C","title":"中国工商银行泗泾支行","lon":"121.27308","lat":"31.11525","category":"150","category_name":"银行","address":"杨浦区文化路412号鼓浪路口(鼓浪路松江文化路)"},{"poiid":"B2094757D06FA3FF469C","title":"泗泾地铁站","lon":"121.257731","lat":"31.118226","category":"36","category_name":"地铁站","address":"上海轨道交通 九号线 轨交泗泾站 9"},{"poiid":"B2094655D36DA7F44992","title":"泗泾","lon":"121.27429","lat":"31.10866","category":"38","category_name":"公交车站","address":""},{"poiid":"B2094654DA64ABFD4292","title":"云顶别墅","lon":"121.27198","lat":"31.12071","category":"47","category_name":"住宅区","address":"上海市松江区泗泾镇泗陈公路388号"},{"poiid":"B2094757D06AA5FD439F","title":"泗泾大润发","lon":"121.26138935","lat":"31.117217216","category":"118","category_name":"超级市场","address":"松江区横港路18弄63号(近泗泾地铁站)"},{"poiid":"B2094757D16BA2F5459E","title":"泗泾古镇","lon":"121.278487831","lat":"31.1102715986","category":"260","category_name":"其他","address":"上海松江"},{"poiid":"B2094757D068A4FF409A","title":"松江钢材城","lon":"121.28397478","lat":"31.108853042","category":"123","category_name":"家具建材市场","address":"上海松江区泗泾镇泗砖路103号"},{"poiid":"B2094757D068A0F9409F","title":"欢乐谷 矿山历险","lon":"121.26219568","lat":"31.109043602","category":"195","category_name":"游乐场","address":"松江区佘山镇林湖路888号上海欢乐谷内"},{"poiid":"B2094654DA64A6F54592","title":"丽水豪庭","lon":"121.28366","lat":"31.113916","category":"47","category_name":"住宅区","address":"上海市松江区沪松公路2517弄"},{"poiid":"B2094654DA64ABFD429D","title":"小桥流水 松江店","lon":"121.26726","lat":"31.11963","category":"47","category_name":"住宅区","address":"松江区泗泾镇泗陈公路388号(近文化路)"},{"poiid":"B2094654DA64ABFE449D","title":"金港花园","lon":"121.2625","lat":"31.1117","category":"47","category_name":"住宅区","address":"横港路155弄"},{"poiid":"B2094757D16FA5F5469D","title":"天雅村酒店(松江店)","lon":"121.27643","lat":"31.11559","category":"76","category_name":"上海菜","address":"松江区泗泾镇文化路227号(鼓浪路口)"},{"poiid":"B2094654DA64ABFD469F","title":"西南名苑","lon":"121.26776","lat":"31.116817","category":"47","category_name":"住宅区","address":"上海市松江区泗陈公路501弄"},{"poiid":"B2094654DB64A2FE439B","title":"颐景园(朝辉公路)","lon":"121.26741","lat":"31.11967","category":"47","category_name":"住宅区","address":""},{"poiid":"B2094654DA64A1F54498","title":"润和苑","lon":"121.26771","lat":"31.113291","category":"47","category_name":"住宅区","address":"上海市松江区四泾镇鼓浪路801号"},{"poiid":"B2094757D16CA1FC4092","title":"九亭","lon":"121.27549483","lat":"31.119801804","category":"500","category_name":"未知分类","address":"上海市松江区泗陈公路"},{"poiid":"B2094757D16AA2FF469B","title":"泗泾医院","lon":"121.27336283","lat":"31.112432645","category":"162","category_name":"医院","address":"松江区泗泾镇江川北路108号(近泗泾老街)"},{"poiid":"B2094757D168A4F8419B","title":"泗泾镇人民政府","lon":"121.27498883","lat":"31.116565734","category":"500","category_name":"未知分类","address":"上海市松江区泗泾镇人民路1号"},{"poiid":"B2094655D265A0F8469E","title":"三湘商业广场","lon":"121.27165","lat":"31.11765","category":"47","category_name":"住宅区","address":"松江区横港公路37-45号(近泗陈公路)"},{"poiid":"B2094757D568A5F94593","title":"金港河滨华城","lon":"121.269","lat":"31.1175","category":"47","category_name":"住宅区","address":"上海市松江区镇横港路633号"},{"poiid":"B2094757D66BA7FD4598","title":"肯德基 泗泾镇店 KFC","lon":"121.261035054","lat":"31.111355793","category":"94","category_name":"西餐厅","address":"松江区松江泗泾镇江川北路134弄146号"},{"poiid":"B2094654DA64A6FB409E","title":"江川二村","lon":"121.26999","lat":"31.114859","category":"47","category_name":"住宅区","address":"鼓浪路700号"},{"poiid":"B2094757D06AA7F9429F","title":"老邻居饭香","lon":"121.271109","lat":"31.11452","category":"249","category_name":"购物服务","address":"上海松江区泗泾镇鼓浪路639号"},{"poiid":"B2094654DA64ABFD429C","title":"南村小区","lon":"121.27428","lat":"31.117962","category":"47","category_name":"住宅区","address":"文化路321弄"},{"poiid":"B2094757D16DA3F84999","title":"肯德基kfc泗泾大润发店","lon":"121.26154483","lat":"31.117982765","category":"68","category_name":"快餐厅","address":"松江区横港路18弄63号大润发1楼(近泗泾地铁站)"},{"poiid":"B2094757D66CA7FA479C","title":"味道江湖","lon":"121.26904383","lat":"31.114292585","category":"71","category_name":"四川菜","address":"松江区鼓浪路693-697号(近西安路)"},{"poiid":"B2094655D26AA6F44299","title":"美味情缘烧烤吧","lon":"121.27084","lat":"31.11428","category":"68","category_name":"快餐厅","address":"松江区泗泾镇鼓浪路649号(近江川路)"},{"poiid":"B2094654DA64ABFD469C","title":"松江区泗泾幼儿园","lon":"121.26954","lat":"31.11751","category":"57","category_name":"幼儿园","address":"松江区泗泾镇赵非公路175弄50号"},{"poiid":"B2094654DB64A2FE4993","title":"祥和公寓","lon":"121.26217","lat":"31.116907","category":"47","category_name":"住宅区","address":"横港公路49弄"},{"poiid":"B2094654DA64ABFD469D","title":"松江区泗泾小学","lon":"121.26981","lat":"31.11612","category":"56","category_name":"小学","address":"赵非泾路75弄50"},{"poiid":"B2094757D06AA7F4419A","title":"肯德基 KFC (泗泾店)","lon":"121.274235","lat":"31.112659","category":"500","category_name":"未知分类","address":"上海松江泗泾镇江川北路134弄146号"},{"poiid":"B2094757D66AABFC409A","title":"宋记香辣蟹 泗泾镇店","lon":"121.26931","lat":"31.11425","category":"71","category_name":"四川菜","address":"松江区泗泾镇鼓浪路727号(鼓浪路泗泾西安路)"},{"poiid":"B2094654DA64A6F8439C","title":"东方教具工业园","lon":"121.27437","lat":"31.12601","category":"45","category_name":"产业园区","address":""},{"poiid":"B2094654DA64A6FA4899","title":"川金龙骨头王","lon":"121.27423","lat":"31.1154","category":"70","category_name":"综合酒楼","address":""},{"poiid":"B2094654DA64A6F84992","title":"泗泾酒家","lon":"121.26969","lat":"31.11413","category":"70","category_name":"综合酒楼","address":"松江区泗泾镇古浪路719号(近西安路)"},{"poiid":"B2094654DB69A4FF419D","title":"文峰美容美发(鼓浪路店)","lon":"121.27714","lat":"31.11618","category":"148","category_name":"美容美发店","address":"松江区泗泾镇鼓浪路534号(鼓浪路泗泾江川路)"},{"poiid":"B2094757D169ABFE429D","title":"柯马(上海)工程有限公司","lon":"121.26990383","lat":"31.131906065","category":"46","category_name":"楼宇","address":"上海松江区泗泾工业区九干路1353号"},{"poiid":"B2094654DA64A6F8429E","title":"大名公寓","lon":"121.27621","lat":"31.116224","category":"47","category_name":"住宅区","address":"文化路256弄"},{"poiid":"B2094654DA64A6F8439E","title":"打铁桥村社区之家","lon":"121.27471","lat":"31.12392","category":"248","category_name":"生活娱乐","address":""},{"poiid":"B2094654DB64A6F8409A","title":"中国移动泗泾营业厅","lon":"121.27019","lat":"31.11434","category":"151","category_name":"电讯营业厅","address":"松江区泗泾镇古浪路685号"},{"poiid":"B2094654DA64ABFD499A","title":"广利粽子店","lon":"121.27375","lat":"31.11282","category":"68","category_name":"快餐厅","address":"松江区松江泗泾镇江川北路155号"},{"poiid":"B2094757D568A6FC449D","title":"润和欣苑","lon":"121.26702","lat":"31.114988","category":"47","category_name":"住宅区","address":"上海市松江区鼓浪路828弄、790弄"},{"poiid":"B2094757D464A0F94992","title":"小咸亨","lon":"121.2837139959","lat":"31.117566597902","category":"75","category_name":"浙江菜","address":"松江区泗泾镇鼓浪路58号(沪松公路)"},{"poiid":"B2094654DA64ABFD4198","title":"上海市地方税务局松江分局第八税务所","lon":"121.27388","lat":"31.11394","category":"250","category_name":"公园户外","address":"泗泾江川北路208"},{"poiid":"B2094654DA64A6F94192","title":"弘泰酒家","lon":"121.27117","lat":"31.11434","category":"70","category_name":"综合酒楼","address":""},{"poiid":"B2094757D165ABFA4292","title":"都可茶饮CoCo(横港公路店)","lon":"121.27022973","lat":"31.114223983","category":"247","category_name":"餐饮美食","address":"上海松江区泗泾镇横港公路18弄63号"},{"poiid":"B2094654DA64ABFE419E","title":"江川一村","lon":"121.27206","lat":"31.112606","category":"47","category_name":"住宅区","address":"开江二路78弄"},{"poiid":"B2094757D165ABFB469C","title":"宋记香辣蟹","lon":"121.269011831","lat":"31.1143796873","category":"247","category_name":"餐饮美食","address":"上海市松江区横港公路"},{"poiid":"B2094654DB64A2FE4898","title":"永琪美容美发(泗泾·江川路)","lon":"121.27423","lat":"31.11267","category":"148","category_name":"美容美发店","address":"松江区松江泗泾镇江川北路148号"},{"poiid":"B2094751D368A3F8429F","title":"湘西部落","lon":"121.28337","lat":"31.11372","category":"77","category_name":"湖南菜","address":"松江区泗泾镇沪松公路2519弄2-6号(近泗泾老街)"},{"poiid":"B2094654DB69A7F9499C","title":"中国工商银行泗泾支行","lon":"121.27308","lat":"31.11525","category":"150","category_name":"银行","address":"杨浦区文化路412号鼓浪路口(鼓浪路松江文化路)"}]