[{"poiid":"B2094654D56DA3FF439A","title":"上海财经大学","lon":"121.4989","lat":"31.30643","category":"671","category_name":"高校中心点","address":"杨浦区武川路111号"},{"poiid":"B2094757D068A4FA4993","title":"上海财大豪生大酒店","lon":"121.491975103","lat":"31.3046381377","category":"217","category_name":"旅馆招待所","address":"上海市杨浦区武东路188号"},{"poiid":"B2094757D06FA3F8429E","title":"上海财经大学图书馆","lon":"121.49477791","lat":"31.303851515","category":"253","category_name":"校园生活","address":"上海市杨浦区武川路111号上海财经大学内"},{"poiid":"B2094757D06FA3FA499C","title":"长白山韩国烧烤店(武川总店)","lon":"121.49485","lat":"31.30224","category":"96","category_name":"韩国料理","address":"杨浦区武川路47号(近武东路)"},{"poiid":"B2094757D06FA7FE419D","title":"釜山火炉","lon":"121.49385","lat":"31.30046","category":"96","category_name":"韩国料理","address":"杨浦区武川路11号(近纪念路)"},{"poiid":"B2094654DB65A6F5469F","title":"Ing韩国料理","lon":"121.49424","lat":"31.30133","category":"96","category_name":"韩国料理","address":"杨浦区武川路49号1楼(近纪念路)"},{"poiid":"B2094757D16CA1FA499F","title":"Helen's酒吧","lon":"121.49433494","lat":"31.301696696","category":"172","category_name":"酒吧","address":"上海杨浦区武川路51号"},{"poiid":"B2094757D068A5FC479A","title":"Ricco Cafe","lon":"121.495382","lat":"31.304011","category":"260","category_name":"其他","address":"杨浦区武川路107号(近武东路)"},{"poiid":"B2094757D068A3F54198","title":"洋人阿婆 国权北路店","lon":"121.49653","lat":"31.30859","category":"76","category_name":"上海菜","address":"杨浦区国权北路3号(政立路口)"},{"poiid":"B2094757D06FAAF4429A","title":"上海财经大学(武东路校区) 宁远楼","lon":"121.49890408","lat":"31.306435706","category":"500","category_name":"未知分类","address":"上海武东路100号"},{"poiid":"B2094757D069A0F44299","title":"上海财经大学 会计学院","lon":"121.49037188","lat":"31.306741198","category":"253","category_name":"校园生活","address":"上海武川路111弄"},{"poiid":"B2094757D068A6FA479A","title":"阿康烧烤(国权北路店)","lon":"121.49661","lat":"31.30796","category":"68","category_name":"快餐厅","address":"杨浦区国权北路休闲街7-8A号(近政立路)"},{"poiid":"B2094757D064A5F84398","title":"三湘世纪花城","lon":"121.49545951341","lat":"31.305311026976","category":"500","category_name":"未知分类","address":"上海市纪念路289弄"},{"poiid":"B2094757D068A5F54192","title":"上海财经大学第四教学楼","lon":"121.497952513","lat":"31.3066278093","category":"253","category_name":"校园生活","address":"上海武川路111号"},{"poiid":"B2094757DA65A2FC439C","title":"上海财经大学皇家图书馆","lon":"121.491082","lat":"31.307629","category":"253","category_name":"校园生活","address":"杨浦区武川路111号"},{"poiid":"B2094757D06BAAFE469A","title":"文化名园","lon":"121.49146","lat":"31.307182","category":"47","category_name":"住宅区","address":"上海市杨浦区吉浦路375号"},{"poiid":"B2094757D068A4FF409E","title":"上海财经大学大礼堂","lon":"121.49893188","lat":"31.306453704","category":"249","category_name":"购物服务","address":"上海杨浦区国定路777号上海财经大学內"},{"poiid":"B2094654D56CABF5409A","title":"文化花园","lon":"121.49307","lat":"31.302458","category":"47","category_name":"住宅区","address":"上海武川路75弄"},{"poiid":"B2094757D069A3FA439F","title":"上海财经大学新园食堂","lon":"121.496303","lat":"31.306886","category":"253","category_name":"校园生活","address":"杨浦区武川路111号上海财经大学内"},{"poiid":"B2094654D56DA3FF499D","title":"复旦大学北苑学生生活园区","lon":"121.49686","lat":"31.30193","category":"47","category_name":"住宅区","address":"武东路57号"},{"poiid":"B2094655D26AA7FB4398","title":"财经大学游泳馆","lon":"121.49578","lat":"31.30645","category":"247","category_name":"餐饮美食","address":"杨浦区武川路111号"},{"poiid":"B2094757D469A5FA419C","title":"一期一会","lon":"121.497397054","lat":"31.303044793","category":"95","category_name":"日本料理","address":"杨浦区武东路38号(近复旦大学北门)"},{"poiid":"B2094757D16DAAFD419F","title":"上海财经大学静思园","lon":"121.49751203","lat":"31.307275432","category":"500","category_name":"未知分类","address":"杨浦区杨浦区武东路321号(武川路武东路)"},{"poiid":"B2094757D068A1F4419D","title":"新新潘晓婷撞球俱乐部(财大店)","lon":"121.49138","lat":"31.30397","category":"500","category_name":"未知分类","address":"杨浦区武东路311号3楼(近吉浦路)"},{"poiid":"B2094750D768A3F54293","title":"财大黑暗料理","lon":"121.496","lat":"31.3069","category":"68","category_name":"快餐厅","address":"杨浦区武川路111号上海财经大学武川校区门口(近政立路)"},{"poiid":"B2094654D56CAAF54198","title":"元和投资大厦","lon":"121.493601","lat":"31.304054","category":"46","category_name":"楼宇","address":"上海市虹口区逸仙路270号"},{"poiid":"B2094757D16BA7FB4299","title":"政立路830弄","lon":"121.494118203","lat":"31.3073561945","category":"47","category_name":"住宅区","address":"上海杨浦区政立路830弄"},{"poiid":"B2094757D065A2FC4698","title":"新园餐厅","lon":"121.49609","lat":"31.30431","category":"68","category_name":"快餐厅","address":"杨浦区国定路777号上海财经大学内(近政立路)"},{"poiid":"B2094757D165ABF8439C","title":"豪大大鸡排","lon":"121.4949111","lat":"31.306510176","category":"247","category_name":"餐饮美食","address":"上海政立路821号(近国权北路)"},{"poiid":"B2094757D16EA7F84399","title":"浦源农家菜(国权北路店)","lon":"121.49493","lat":"31.30778","category":"87","category_name":"特色／地方风味餐厅","address":"杨浦区国权北路7-10号1楼(近政立路)"},{"poiid":"B2094757D06AA7FD479E","title":"三门路吉浦路","lon":"121.4906571","lat":"31.308799224","category":"500","category_name":"未知分类","address":"上海三门路510弄"},{"poiid":"B2094752DA6FA2FB419C","title":"浦东机场","lon":"121.495149","lat":"31.306273","category":"500","category_name":"未知分类","address":"上海市 上海市浦东区"},{"poiid":"B2094757D464A7FB489A","title":"夏朵德蕾","lon":"121.49966","lat":"31.30171","category":"67","category_name":"甜品店","address":"杨浦区武东路28弄1号楼(近复旦北区后门)"},{"poiid":"B2094757D06AA2FF409C","title":"同济北苑","lon":"121.4947","lat":"31.310532","category":"47","category_name":"住宅区","address":"上海市杨浦区三门路318弄"},{"poiid":"B2094757D06BA7F5429F","title":"上海财经大学经济学院梯六","lon":"121.495786","lat":"31.306453","category":"500","category_name":"未知分类","address":"上海财经大学武川路校区"},{"poiid":"B2094655D26AABF84998","title":"财大豪生碧丽斯西餐厅","lon":"121.49201","lat":"31.30431","category":"268","category_name":"自助","address":"杨浦区武东路188号上海财大豪生大酒店1楼(近上海财经大学)"},{"poiid":"B2094757D568A4F4469F","title":"武川图书馆","lon":"121.494704","lat":"31.304322","category":"181","category_name":"图书馆","address":"中国上海市杨浦区"},{"poiid":"B2094751D36FA1FC489F","title":"Helens Bar","lon":"121.49422","lat":"31.3013","category":"247","category_name":"餐饮美食","address":"杨浦区武川路49号2楼(近武东路)"},{"poiid":"B2094757D16EA0F5479B","title":"吉祥馄饨","lon":"121.493472103","lat":"31.3076492006","category":"247","category_name":"餐饮美食","address":"杨浦区国权北路7号(国权北路殷高路)"},{"poiid":"B2094654D56DA3FF4993","title":"复旦大学留学生公寓","lon":"121.49571","lat":"31.30254","category":"47","category_name":"住宅区","address":"上海杨浦区邯郸路220号复旦大学邯郸校区"},{"poiid":"B2094757D16EA6FB459B","title":"湘里乡","lon":"121.496702054","lat":"31.308232793","category":"77","category_name":"湖南菜","address":"杨浦区国权北路33号(近政立路)"},{"poiid":"B2094757D66DA1FE4293","title":"信德祥","lon":"121.4961043","lat":"31.307869105","category":"68","category_name":"快餐厅","address":"杨浦区三门路497号(近国权北路)"},{"poiid":"B2094757D06BA5FE409A","title":"政立路武川路站","lon":"121.496637","lat":"31.306139","category":"38","category_name":"公交车站","address":"上海杨浦区政立路(公交99,100,559,960,187,537,758,819)"},{"poiid":"B2094750DB6BA5FB4998","title":"上海财经大学武川路校区四教","lon":"121.492668","lat":"31.306507","category":"253","category_name":"校园生活","address":"武川路111号"},{"poiid":"B2094750DA6EA2FC479F","title":"财大武东校区","lon":"121.490539","lat":"31.303375","category":"253","category_name":"校园生活","address":"武东路321号"},{"poiid":"B2094757D66BA3F44992","title":"原味湘菜馆","lon":"121.4950477","lat":"31.3031112","category":"77","category_name":"湖南菜","address":"杨浦区武东路(近武川路)"},{"poiid":"B2094655D26BA2FC469B","title":"武川路武东路","lon":"121.49291","lat":"31.30384","category":"38","category_name":"公交车站","address":""},{"poiid":"B2094750DB6EA3FE4599","title":"杨浦区五角场","lon":"121.493499","lat":"31.306352","category":"500","category_name":"未知分类","address":null},{"poiid":"B2094654D56CAAFE4299","title":"好德便利No.942","lon":"121.49501","lat":"31.30768","category":"117","category_name":"便民商店/便利店","address":"政立路814"},{"poiid":"B2094655D26BA3F5449A","title":"逸居虹口","lon":"121.493532","lat":"31.304725","category":"47","category_name":"住宅区","address":"上海市虹口区逸仙路288弄"},{"poiid":"B2094654D56DA3FF439A","title":"上海财经大学","lon":"121.4989","lat":"31.30643","category":"671","category_name":"高校中心点","address":"杨浦区武川路111号"},{"poiid":"B2094757D068A4FA4993","title":"上海财大豪生大酒店","lon":"121.491975103","lat":"31.3046381377","category":"217","category_name":"旅馆招待所","address":"上海市杨浦区武东路188号"},{"poiid":"B2094757D06FA3F8429E","title":"上海财经大学图书馆","lon":"121.49477791","lat":"31.303851515","category":"253","category_name":"校园生活","address":"上海市杨浦区武川路111号上海财经大学内"},{"poiid":"B2094757D06FA3FA499C","title":"长白山韩国烧烤店(武川总店)","lon":"121.49485","lat":"31.30224","category":"96","category_name":"韩国料理","address":"杨浦区武川路47号(近武东路)"},{"poiid":"B2094757D06FA7FE419D","title":"釜山火炉","lon":"121.49385","lat":"31.30046","category":"96","category_name":"韩国料理","address":"杨浦区武川路11号(近纪念路)"},{"poiid":"B2094654DB65A6F5469F","title":"Ing韩国料理","lon":"121.49424","lat":"31.30133","category":"96","category_name":"韩国料理","address":"杨浦区武川路49号1楼(近纪念路)"},{"poiid":"B2094757D16CA1FA499F","title":"Helen's酒吧","lon":"121.49433494","lat":"31.301696696","category":"172","category_name":"酒吧","address":"上海杨浦区武川路51号"},{"poiid":"B2094757D068A5FC479A","title":"Ricco Cafe","lon":"121.495382","lat":"31.304011","category":"260","category_name":"其他","address":"杨浦区武川路107号(近武东路)"},{"poiid":"B2094757D068A3F54198","title":"洋人阿婆 国权北路店","lon":"121.49653","lat":"31.30859","category":"76","category_name":"上海菜","address":"杨浦区国权北路3号(政立路口)"},{"poiid":"B2094757D06FAAF4429A","title":"上海财经大学(武东路校区) 宁远楼","lon":"121.49890408","lat":"31.306435706","category":"500","category_name":"未知分类","address":"上海武东路100号"},{"poiid":"B2094757D069A0F44299","title":"上海财经大学 会计学院","lon":"121.49037188","lat":"31.306741198","category":"253","category_name":"校园生活","address":"上海武川路111弄"},{"poiid":"B2094757D068A6FA479A","title":"阿康烧烤(国权北路店)","lon":"121.49661","lat":"31.30796","category":"68","category_name":"快餐厅","address":"杨浦区国权北路休闲街7-8A号(近政立路)"},{"poiid":"B2094757D064A5F84398","title":"三湘世纪花城","lon":"121.49545951341","lat":"31.305311026976","category":"500","category_name":"未知分类","address":"上海市纪念路289弄"},{"poiid":"B2094757D068A5F54192","title":"上海财经大学第四教学楼","lon":"121.497952513","lat":"31.3066278093","category":"253","category_name":"校园生活","address":"上海武川路111号"},{"poiid":"B2094757DA65A2FC439C","title":"上海财经大学皇家图书馆","lon":"121.491082","lat":"31.307629","category":"253","category_name":"校园生活","address":"杨浦区武川路111号"},{"poiid":"B2094757D06BAAFE469A","title":"文化名园","lon":"121.49146","lat":"31.307182","category":"47","category_name":"住宅区","address":"上海市杨浦区吉浦路375号"},{"poiid":"B2094757D068A4FF409E","title":"上海财经大学大礼堂","lon":"121.49893188","lat":"31.306453704","category":"249","category_name":"购物服务","address":"上海杨浦区国定路777号上海财经大学內"},{"poiid":"B2094654D56CABF5409A","title":"文化花园","lon":"121.49307","lat":"31.302458","category":"47","category_name":"住宅区","address":"上海武川路75弄"},{"poiid":"B2094757D069A3FA439F","title":"上海财经大学新园食堂","lon":"121.496303","lat":"31.306886","category":"253","category_name":"校园生活","address":"杨浦区武川路111号上海财经大学内"},{"poiid":"B2094654D56DA3FF499D","title":"复旦大学北苑学生生活园区","lon":"121.49686","lat":"31.30193","category":"47","category_name":"住宅区","address":"武东路57号"},{"poiid":"B2094655D26AA7FB4398","title":"财经大学游泳馆","lon":"121.49578","lat":"31.30645","category":"247","category_name":"餐饮美食","address":"杨浦区武川路111号"},{"poiid":"B2094757D469A5FA419C","title":"一期一会","lon":"121.497397054","lat":"31.303044793","category":"95","category_name":"日本料理","address":"杨浦区武东路38号(近复旦大学北门)"},{"poiid":"B2094757D16DAAFD419F","title":"上海财经大学静思园","lon":"121.49751203","lat":"31.307275432","category":"500","category_name":"未知分类","address":"杨浦区杨浦区武东路321号(武川路武东路)"},{"poiid":"B2094757D068A1F4419D","title":"新新潘晓婷撞球俱乐部(财大店)","lon":"121.49138","lat":"31.30397","category":"500","category_name":"未知分类","address":"杨浦区武东路311号3楼(近吉浦路)"},{"poiid":"B2094750D768A3F54293","title":"财大黑暗料理","lon":"121.496","lat":"31.3069","category":"68","category_name":"快餐厅","address":"杨浦区武川路111号上海财经大学武川校区门口(近政立路)"},{"poiid":"B2094654D56CAAF54198","title":"元和投资大厦","lon":"121.493601","lat":"31.304054","category":"46","category_name":"楼宇","address":"上海市虹口区逸仙路270号"},{"poiid":"B2094757D16BA7FB4299","title":"政立路830弄","lon":"121.494118203","lat":"31.3073561945","category":"47","category_name":"住宅区","address":"上海杨浦区政立路830弄"},{"poiid":"B2094757D065A2FC4698","title":"新园餐厅","lon":"121.49609","lat":"31.30431","category":"68","category_name":"快餐厅","address":"杨浦区国定路777号上海财经大学内(近政立路)"},{"poiid":"B2094757D165ABF8439C","title":"豪大大鸡排","lon":"121.4949111","lat":"31.306510176","category":"247","category_name":"餐饮美食","address":"上海政立路821号(近国权北路)"},{"poiid":"B2094757D16EA7F84399","title":"浦源农家菜(国权北路店)","lon":"121.49493","lat":"31.30778","category":"87","category_name":"特色／地方风味餐厅","address":"杨浦区国权北路7-10号1楼(近政立路)"},{"poiid":"B2094757D06AA7FD479E","title":"三门路吉浦路","lon":"121.4906571","lat":"31.308799224","category":"500","category_name":"未知分类","address":"上海三门路510弄"},{"poiid":"B2094752DA6FA2FB419C","title":"浦东机场","lon":"121.495149","lat":"31.306273","category":"500","category_name":"未知分类","address":"上海市 上海市浦东区"},{"poiid":"B2094757D464A7FB489A","title":"夏朵德蕾","lon":"121.49966","lat":"31.30171","category":"67","category_name":"甜品店","address":"杨浦区武东路28弄1号楼(近复旦北区后门)"},{"poiid":"B2094757D06AA2FF409C","title":"同济北苑","lon":"121.4947","lat":"31.310532","category":"47","category_name":"住宅区","address":"上海市杨浦区三门路318弄"},{"poiid":"B2094757D06BA7F5429F","title":"上海财经大学经济学院梯六","lon":"121.495786","lat":"31.306453","category":"500","category_name":"未知分类","address":"上海财经大学武川路校区"},{"poiid":"B2094655D26AABF84998","title":"财大豪生碧丽斯西餐厅","lon":"121.49201","lat":"31.30431","category":"268","category_name":"自助","address":"杨浦区武东路188号上海财大豪生大酒店1楼(近上海财经大学)"},{"poiid":"B2094757D568A4F4469F","title":"武川图书馆","lon":"121.494704","lat":"31.304322","category":"181","category_name":"图书馆","address":"中国上海市杨浦区"},{"poiid":"B2094751D36FA1FC489F","title":"Helens Bar","lon":"121.49422","lat":"31.3013","category":"247","category_name":"餐饮美食","address":"杨浦区武川路49号2楼(近武东路)"},{"poiid":"B2094757D16EA0F5479B","title":"吉祥馄饨","lon":"121.493472103","lat":"31.3076492006","category":"247","category_name":"餐饮美食","address":"杨浦区国权北路7号(国权北路殷高路)"},{"poiid":"B2094654D56DA3FF4993","title":"复旦大学留学生公寓","lon":"121.49571","lat":"31.30254","category":"47","category_name":"住宅区","address":"上海杨浦区邯郸路220号复旦大学邯郸校区"},{"poiid":"B2094757D16EA6FB459B","title":"湘里乡","lon":"121.496702054","lat":"31.308232793","category":"77","category_name":"湖南菜","address":"杨浦区国权北路33号(近政立路)"},{"poiid":"B2094757D66DA1FE4293","title":"信德祥","lon":"121.4961043","lat":"31.307869105","category":"68","category_name":"快餐厅","address":"杨浦区三门路497号(近国权北路)"},{"poiid":"B2094757D06BA5FE409A","title":"政立路武川路站","lon":"121.496637","lat":"31.306139","category":"38","category_name":"公交车站","address":"上海杨浦区政立路(公交99,100,559,960,187,537,758,819)"},{"poiid":"B2094750DB6BA5FB4998","title":"上海财经大学武川路校区四教","lon":"121.492668","lat":"31.306507","category":"253","category_name":"校园生活","address":"武川路111号"},{"poiid":"B2094750DA6EA2FC479F","title":"财大武东校区","lon":"121.490539","lat":"31.303375","category":"253","category_name":"校园生活","address":"武东路321号"},{"poiid":"B2094757D66BA3F44992","title":"原味湘菜馆","lon":"121.4950477","lat":"31.3031112","category":"77","category_name":"湖南菜","address":"杨浦区武东路(近武川路)"},{"poiid":"B2094655D26BA2FC469B","title":"武川路武东路","lon":"121.49291","lat":"31.30384","category":"38","category_name":"公交车站","address":""},{"poiid":"B2094750DB6EA3FE4599","title":"杨浦区五角场","lon":"121.493499","lat":"31.306352","category":"500","category_name":"未知分类","address":null},{"poiid":"B2094654D56CAAFE4299","title":"好德便利No.942","lon":"121.49501","lat":"31.30768","category":"117","category_name":"便民商店/便利店","address":"政立路814"},{"poiid":"B2094655D26BA3F5449A","title":"逸居虹口","lon":"121.493532","lat":"31.304725","category":"47","category_name":"住宅区","address":"上海市虹口区逸仙路288弄"},{"poiid":"B2094654D56DA3FF439A","title":"上海财经大学","lon":"121.4989","lat":"31.30643","category":"671","category_name":"高校中心点","address":"杨浦区武川路111号"},{"poiid":"B2094757D068A4FA4993","title":"上海财大豪生大酒店","lon":"121.491975103","lat":"31.3046381377","category":"217","category_name":"旅馆招待所","address":"上海市杨浦区武东路188号"},{"poiid":"B2094757D06FA3F8429E","title":"上海财经大学图书馆","lon":"121.49477791","lat":"31.303851515","category":"253","category_name":"校园生活","address":"上海市杨浦区武川路111号上海财经大学内"},{"poiid":"B2094757D06FA3FA499C","title":"长白山韩国烧烤店(武川总店)","lon":"121.49485","lat":"31.30224","category":"96","category_name":"韩国料理","address":"杨浦区武川路47号(近武东路)"},{"poiid":"B2094757D06FA7FE419D","title":"釜山火炉","lon":"121.49385","lat":"31.30046","category":"96","category_name":"韩国料理","address":"杨浦区武川路11号(近纪念路)"},{"poiid":"B2094654DB65A6F5469F","title":"Ing韩国料理","lon":"121.49424","lat":"31.30133","category":"96","category_name":"韩国料理","address":"杨浦区武川路49号1楼(近纪念路)"},{"poiid":"B2094757D16CA1FA499F","title":"Helen's酒吧","lon":"121.49433494","lat":"31.301696696","category":"172","category_name":"酒吧","address":"上海杨浦区武川路51号"},{"poiid":"B2094757D068A5FC479A","title":"Ricco Cafe","lon":"121.495382","lat":"31.304011","category":"260","category_name":"其他","address":"杨浦区武川路107号(近武东路)"},{"poiid":"B2094757D068A3F54198","title":"洋人阿婆 国权北路店","lon":"121.49653","lat":"31.30859","category":"76","category_name":"上海菜","address":"杨浦区国权北路3号(政立路口)"},{"poiid":"B2094757D06FAAF4429A","title":"上海财经大学(武东路校区) 宁远楼","lon":"121.49890408","lat":"31.306435706","category":"500","category_name":"未知分类","address":"上海武东路100号"},{"poiid":"B2094757D069A0F44299","title":"上海财经大学 会计学院","lon":"121.49037188","lat":"31.306741198","category":"253","category_name":"校园生活","address":"上海武川路111弄"},{"poiid":"B2094757D068A6FA479A","title":"阿康烧烤(国权北路店)","lon":"121.49661","lat":"31.30796","category":"68","category_name":"快餐厅","address":"杨浦区国权北路休闲街7-8A号(近政立路)"},{"poiid":"B2094757D064A5F84398","title":"三湘世纪花城","lon":"121.49545951341","lat":"31.305311026976","category":"500","category_name":"未知分类","address":"上海市纪念路289弄"},{"poiid":"B2094757D068A5F54192","title":"上海财经大学第四教学楼","lon":"121.497952513","lat":"31.3066278093","category":"253","category_name":"校园生活","address":"上海武川路111号"},{"poiid":"B2094757DA65A2FC439C","title":"上海财经大学皇家图书馆","lon":"121.491082","lat":"31.307629","category":"253","category_name":"校园生活","address":"杨浦区武川路111号"},{"poiid":"B2094757D06BAAFE469A","title":"文化名园","lon":"121.49146","lat":"31.307182","category":"47","category_name":"住宅区","address":"上海市杨浦区吉浦路375号"},{"poiid":"B2094757D068A4FF409E","title":"上海财经大学大礼堂","lon":"121.49893188","lat":"31.306453704","category":"249","category_name":"购物服务","address":"上海杨浦区国定路777号上海财经大学內"},{"poiid":"B2094654D56CABF5409A","title":"文化花园","lon":"121.49307","lat":"31.302458","category":"47","category_name":"住宅区","address":"上海武川路75弄"},{"poiid":"B2094757D069A3FA439F","title":"上海财经大学新园食堂","lon":"121.496303","lat":"31.306886","category":"253","category_name":"校园生活","address":"杨浦区武川路111号上海财经大学内"},{"poiid":"B2094654D56DA3FF499D","title":"复旦大学北苑学生生活园区","lon":"121.49686","lat":"31.30193","category":"47","category_name":"住宅区","address":"武东路57号"},{"poiid":"B2094655D26AA7FB4398","title":"财经大学游泳馆","lon":"121.49578","lat":"31.30645","category":"247","category_name":"餐饮美食","address":"杨浦区武川路111号"},{"poiid":"B2094757D469A5FA419C","title":"一期一会","lon":"121.497397054","lat":"31.303044793","category":"95","category_name":"日本料理","address":"杨浦区武东路38号(近复旦大学北门)"},{"poiid":"B2094757D16DAAFD419F","title":"上海财经大学静思园","lon":"121.49751203","lat":"31.307275432","category":"500","category_name":"未知分类","address":"杨浦区杨浦区武东路321号(武川路武东路)"},{"poiid":"B2094757D068A1F4419D","title":"新新潘晓婷撞球俱乐部(财大店)","lon":"121.49138","lat":"31.30397","category":"500","category_name":"未知分类","address":"杨浦区武东路311号3楼(近吉浦路)"},{"poiid":"B2094750D768A3F54293","title":"财大黑暗料理","lon":"121.496","lat":"31.3069","category":"68","category_name":"快餐厅","address":"杨浦区武川路111号上海财经大学武川校区门口(近政立路)"},{"poiid":"B2094654D56CAAF54198","title":"元和投资大厦","lon":"121.493601","lat":"31.304054","category":"46","category_name":"楼宇","address":"上海市虹口区逸仙路270号"},{"poiid":"B2094757D16BA7FB4299","title":"政立路830弄","lon":"121.494118203","lat":"31.3073561945","category":"47","category_name":"住宅区","address":"上海杨浦区政立路830弄"},{"poiid":"B2094757D065A2FC4698","title":"新园餐厅","lon":"121.49609","lat":"31.30431","category":"68","category_name":"快餐厅","address":"杨浦区国定路777号上海财经大学内(近政立路)"},{"poiid":"B2094757D165ABF8439C","title":"豪大大鸡排","lon":"121.4949111","lat":"31.306510176","category":"247","category_name":"餐饮美食","address":"上海政立路821号(近国权北路)"},{"poiid":"B2094757D16EA7F84399","title":"浦源农家菜(国权北路店)","lon":"121.49493","lat":"31.30778","category":"87","category_name":"特色／地方风味餐厅","address":"杨浦区国权北路7-10号1楼(近政立路)"},{"poiid":"B2094757D06AA7FD479E","title":"三门路吉浦路","lon":"121.4906571","lat":"31.308799224","category":"500","category_name":"未知分类","address":"上海三门路510弄"},{"poiid":"B2094752DA6FA2FB419C","title":"浦东机场","lon":"121.495149","lat":"31.306273","category":"500","category_name":"未知分类","address":"上海市 上海市浦东区"},{"poiid":"B2094757D464A7FB489A","title":"夏朵德蕾","lon":"121.49966","lat":"31.30171","category":"67","category_name":"甜品店","address":"杨浦区武东路28弄1号楼(近复旦北区后门)"},{"poiid":"B2094757D06AA2FF409C","title":"同济北苑","lon":"121.4947","lat":"31.310532","category":"47","category_name":"住宅区","address":"上海市杨浦区三门路318弄"},{"poiid":"B2094757D06BA7F5429F","title":"上海财经大学经济学院梯六","lon":"121.495786","lat":"31.306453","category":"500","category_name":"未知分类","address":"上海财经大学武川路校区"},{"poiid":"B2094655D26AABF84998","title":"财大豪生碧丽斯西餐厅","lon":"121.49201","lat":"31.30431","category":"268","category_name":"自助","address":"杨浦区武东路188号上海财大豪生大酒店1楼(近上海财经大学)"},{"poiid":"B2094757D568A4F4469F","title":"武川图书馆","lon":"121.494704","lat":"31.304322","category":"181","category_name":"图书馆","address":"中国上海市杨浦区"},{"poiid":"B2094751D36FA1FC489F","title":"Helens Bar","lon":"121.49422","lat":"31.3013","category":"247","category_name":"餐饮美食","address":"杨浦区武川路49号2楼(近武东路)"},{"poiid":"B2094757D16EA0F5479B","title":"吉祥馄饨","lon":"121.493472103","lat":"31.3076492006","category":"247","category_name":"餐饮美食","address":"杨浦区国权北路7号(国权北路殷高路)"},{"poiid":"B2094654D56DA3FF4993","title":"复旦大学留学生公寓","lon":"121.49571","lat":"31.30254","category":"47","category_name":"住宅区","address":"上海杨浦区邯郸路220号复旦大学邯郸校区"},{"poiid":"B2094757D16EA6FB459B","title":"湘里乡","lon":"121.496702054","lat":"31.308232793","category":"77","category_name":"湖南菜","address":"杨浦区国权北路33号(近政立路)"},{"poiid":"B2094757D66DA1FE4293","title":"信德祥","lon":"121.4961043","lat":"31.307869105","category":"68","category_name":"快餐厅","address":"杨浦区三门路497号(近国权北路)"},{"poiid":"B2094757D06BA5FE409A","title":"政立路武川路站","lon":"121.496637","lat":"31.306139","category":"38","category_name":"公交车站","address":"上海杨浦区政立路(公交99,100,559,960,187,537,758,819)"},{"poiid":"B2094750DB6BA5FB4998","title":"上海财经大学武川路校区四教","lon":"121.492668","lat":"31.306507","category":"253","category_name":"校园生活","address":"武川路111号"},{"poiid":"B2094750DA6EA2FC479F","title":"财大武东校区","lon":"121.490539","lat":"31.303375","category":"253","category_name":"校园生活","address":"武东路321号"},{"poiid":"B2094757D66BA3F44992","title":"原味湘菜馆","lon":"121.4950477","lat":"31.3031112","category":"77","category_name":"湖南菜","address":"杨浦区武东路(近武川路)"},{"poiid":"B2094655D26BA2FC469B","title":"武川路武东路","lon":"121.49291","lat":"31.30384","category":"38","category_name":"公交车站","address":""},{"poiid":"B2094750DB6EA3FE4599","title":"杨浦区五角场","lon":"121.493499","lat":"31.306352","category":"500","category_name":"未知分类","address":null},{"poiid":"B2094654D56CAAFE4299","title":"好德便利No.942","lon":"121.49501","lat":"31.30768","category":"117","category_name":"便民商店/便利店","address":"政立路814"},{"poiid":"B2094655D26BA3F5449A","title":"逸居虹口","lon":"121.493532","lat":"31.304725","category":"47","category_name":"住宅区","address":"上海市虹口区逸仙路288弄"},{"poiid":"B2094654D56DA3FF439A","title":"上海财经大学","lon":"121.4989","lat":"31.30643","category":"671","category_name":"高校中心点","address":"杨浦区武川路111号"},{"poiid":"B2094757D068A4FA4993","title":"上海财大豪生大酒店","lon":"121.491975103","lat":"31.3046381377","category":"217","category_name":"旅馆招待所","address":"上海市杨浦区武东路188号"},{"poiid":"B2094757D06FA3F8429E","title":"上海财经大学图书馆","lon":"121.49477791","lat":"31.303851515","category":"253","category_name":"校园生活","address":"上海市杨浦区武川路111号上海财经大学内"},{"poiid":"B2094757D06FA3FA499C","title":"长白山韩国烧烤店(武川总店)","lon":"121.49485","lat":"31.30224","category":"96","category_name":"韩国料理","address":"杨浦区武川路47号(近武东路)"},{"poiid":"B2094757D06FA7FE419D","title":"釜山火炉","lon":"121.49385","lat":"31.30046","category":"96","category_name":"韩国料理","address":"杨浦区武川路11号(近纪念路)"},{"poiid":"B2094654DB65A6F5469F","title":"Ing韩国料理","lon":"121.49424","lat":"31.30133","category":"96","category_name":"韩国料理","address":"杨浦区武川路49号1楼(近纪念路)"},{"poiid":"B2094757D16CA1FA499F","title":"Helen's酒吧","lon":"121.49433494","lat":"31.301696696","category":"172","category_name":"酒吧","address":"上海杨浦区武川路51号"},{"poiid":"B2094757D068A5FC479A","title":"Ricco Cafe","lon":"121.495382","lat":"31.304011","category":"260","category_name":"其他","address":"杨浦区武川路107号(近武东路)"},{"poiid":"B2094757D068A3F54198","title":"洋人阿婆 国权北路店","lon":"121.49653","lat":"31.30859","category":"76","category_name":"上海菜","address":"杨浦区国权北路3号(政立路口)"},{"poiid":"B2094757D06FAAF4429A","title":"上海财经大学(武东路校区) 宁远楼","lon":"121.49890408","lat":"31.306435706","category":"500","category_name":"未知分类","address":"上海武东路100号"},{"poiid":"B2094757D069A0F44299","title":"上海财经大学 会计学院","lon":"121.49037188","lat":"31.306741198","category":"253","category_name":"校园生活","address":"上海武川路111弄"},{"poiid":"B2094757D068A6FA479A","title":"阿康烧烤(国权北路店)","lon":"121.49661","lat":"31.30796","category":"68","category_name":"快餐厅","address":"杨浦区国权北路休闲街7-8A号(近政立路)"},{"poiid":"B2094757D064A5F84398","title":"三湘世纪花城","lon":"121.49545951341","lat":"31.305311026976","category":"500","category_name":"未知分类","address":"上海市纪念路289弄"},{"poiid":"B2094757D068A5F54192","title":"上海财经大学第四教学楼","lon":"121.497952513","lat":"31.3066278093","category":"253","category_name":"校园生活","address":"上海武川路111号"},{"poiid":"B2094757DA65A2FC439C","title":"上海财经大学皇家图书馆","lon":"121.491082","lat":"31.307629","category":"253","category_name":"校园生活","address":"杨浦区武川路111号"},{"poiid":"B2094757D06BAAFE469A","title":"文化名园","lon":"121.49146","lat":"31.307182","category":"47","category_name":"住宅区","address":"上海市杨浦区吉浦路375号"},{"poiid":"B2094757D068A4FF409E","title":"上海财经大学大礼堂","lon":"121.49893188","lat":"31.306453704","category":"249","category_name":"购物服务","address":"上海杨浦区国定路777号上海财经大学內"},{"poiid":"B2094654D56CABF5409A","title":"文化花园","lon":"121.49307","lat":"31.302458","category":"47","category_name":"住宅区","address":"上海武川路75弄"},{"poiid":"B2094757D069A3FA439F","title":"上海财经大学新园食堂","lon":"121.496303","lat":"31.306886","category":"253","category_name":"校园生活","address":"杨浦区武川路111号上海财经大学内"},{"poiid":"B2094654D56DA3FF499D","title":"复旦大学北苑学生生活园区","lon":"121.49686","lat":"31.30193","category":"47","category_name":"住宅区","address":"武东路57号"},{"poiid":"B2094655D26AA7FB4398","title":"财经大学游泳馆","lon":"121.49578","lat":"31.30645","category":"247","category_name":"餐饮美食","address":"杨浦区武川路111号"},{"poiid":"B2094757D469A5FA419C","title":"一期一会","lon":"121.497397054","lat":"31.303044793","category":"95","category_name":"日本料理","address":"杨浦区武东路38号(近复旦大学北门)"},{"poiid":"B2094757D16DAAFD419F","title":"上海财经大学静思园","lon":"121.49751203","lat":"31.307275432","category":"500","category_name":"未知分类","address":"杨浦区杨浦区武东路321号(武川路武东路)"},{"poiid":"B2094757D068A1F4419D","title":"新新潘晓婷撞球俱乐部(财大店)","lon":"121.49138","lat":"31.30397","category":"500","category_name":"未知分类","address":"杨浦区武东路311号3楼(近吉浦路)"},{"poiid":"B2094750D768A3F54293","title":"财大黑暗料理","lon":"121.496","lat":"31.3069","category":"68","category_name":"快餐厅","address":"杨浦区武川路111号上海财经大学武川校区门口(近政立路)"},{"poiid":"B2094654D56CAAF54198","title":"元和投资大厦","lon":"121.493601","lat":"31.304054","category":"46","category_name":"楼宇","address":"上海市虹口区逸仙路270号"},{"poiid":"B2094757D16BA7FB4299","title":"政立路830弄","lon":"121.494118203","lat":"31.3073561945","category":"47","category_name":"住宅区","address":"上海杨浦区政立路830弄"},{"poiid":"B2094757D065A2FC4698","title":"新园餐厅","lon":"121.49609","lat":"31.30431","category":"68","category_name":"快餐厅","address":"杨浦区国定路777号上海财经大学内(近政立路)"},{"poiid":"B2094757D165ABF8439C","title":"豪大大鸡排","lon":"121.4949111","lat":"31.306510176","category":"247","category_name":"餐饮美食","address":"上海政立路821号(近国权北路)"},{"poiid":"B2094757D16EA7F84399","title":"浦源农家菜(国权北路店)","lon":"121.49493","lat":"31.30778","category":"87","category_name":"特色／地方风味餐厅","address":"杨浦区国权北路7-10号1楼(近政立路)"},{"poiid":"B2094757D06AA7FD479E","title":"三门路吉浦路","lon":"121.4906571","lat":"31.308799224","category":"500","category_name":"未知分类","address":"上海三门路510弄"},{"poiid":"B2094752DA6FA2FB419C","title":"浦东机场","lon":"121.495149","lat":"31.306273","category":"500","category_name":"未知分类","address":"上海市 上海市浦东区"},{"poiid":"B2094757D464A7FB489A","title":"夏朵德蕾","lon":"121.49966","lat":"31.30171","category":"67","category_name":"甜品店","address":"杨浦区武东路28弄1号楼(近复旦北区后门)"},{"poiid":"B2094757D06AA2FF409C","title":"同济北苑","lon":"121.4947","lat":"31.310532","category":"47","category_name":"住宅区","address":"上海市杨浦区三门路318弄"},{"poiid":"B2094757D06BA7F5429F","title":"上海财经大学经济学院梯六","lon":"121.495786","lat":"31.306453","category":"500","category_name":"未知分类","address":"上海财经大学武川路校区"},{"poiid":"B2094655D26AABF84998","title":"财大豪生碧丽斯西餐厅","lon":"121.49201","lat":"31.30431","category":"268","category_name":"自助","address":"杨浦区武东路188号上海财大豪生大酒店1楼(近上海财经大学)"},{"poiid":"B2094757D568A4F4469F","title":"武川图书馆","lon":"121.494704","lat":"31.304322","category":"181","category_name":"图书馆","address":"中国上海市杨浦区"},{"poiid":"B2094751D36FA1FC489F","title":"Helens Bar","lon":"121.49422","lat":"31.3013","category":"247","category_name":"餐饮美食","address":"杨浦区武川路49号2楼(近武东路)"},{"poiid":"B2094757D16EA0F5479B","title":"吉祥馄饨","lon":"121.493472103","lat":"31.3076492006","category":"247","category_name":"餐饮美食","address":"杨浦区国权北路7号(国权北路殷高路)"},{"poiid":"B2094654D56DA3FF4993","title":"复旦大学留学生公寓","lon":"121.49571","lat":"31.30254","category":"47","category_name":"住宅区","address":"上海杨浦区邯郸路220号复旦大学邯郸校区"},{"poiid":"B2094757D16EA6FB459B","title":"湘里乡","lon":"121.496702054","lat":"31.308232793","category":"77","category_name":"湖南菜","address":"杨浦区国权北路33号(近政立路)"},{"poiid":"B2094757D66DA1FE4293","title":"信德祥","lon":"121.4961043","lat":"31.307869105","category":"68","category_name":"快餐厅","address":"杨浦区三门路497号(近国权北路)"},{"poiid":"B2094757D06BA5FE409A","title":"政立路武川路站","lon":"121.496637","lat":"31.306139","category":"38","category_name":"公交车站","address":"上海杨浦区政立路(公交99,100,559,960,187,537,758,819)"},{"poiid":"B2094750DB6BA5FB4998","title":"上海财经大学武川路校区四教","lon":"121.492668","lat":"31.306507","category":"253","category_name":"校园生活","address":"武川路111号"},{"poiid":"B2094750DA6EA2FC479F","title":"财大武东校区","lon":"121.490539","lat":"31.303375","category":"253","category_name":"校园生活","address":"武东路321号"},{"poiid":"B2094757D66BA3F44992","title":"原味湘菜馆","lon":"121.4950477","lat":"31.3031112","category":"77","category_name":"湖南菜","address":"杨浦区武东路(近武川路)"},{"poiid":"B2094655D26BA2FC469B","title":"武川路武东路","lon":"121.49291","lat":"31.30384","category":"38","category_name":"公交车站","address":""},{"poiid":"B2094750DB6EA3FE4599","title":"杨浦区五角场","lon":"121.493499","lat":"31.306352","category":"500","category_name":"未知分类","address":null},{"poiid":"B2094654D56CAAFE4299","title":"好德便利No.942","lon":"121.49501","lat":"31.30768","category":"117","category_name":"便民商店/便利店","address":"政立路814"},{"poiid":"B2094655D26BA3F5449A","title":"逸居虹口","lon":"121.493532","lat":"31.304725","category":"47","category_name":"住宅区","address":"上海市虹口区逸仙路288弄"}]