[{"poiid":"B2094757D06FA3F8429C","title":"淮海路","lon":"121.46398412","lat":"31.222631868","category":"260","category_name":"其他","address":"上海淮海路"},{"poiid":"B2094757D66FA6FA489D","title":"满记甜品 迪美店","lon":"121.47513","lat":"31.22758","category":"67","category_name":"甜品店","address":"黄浦区武胜路218号迪美购物中心224-1店铺(近人民大道)"},{"poiid":"B2094757D06FA2FB479D","title":"延中绿地","lon":"121.47533607","lat":"31.225347868","category":"196","category_name":"公园","address":"上海黄浦区延安东路至延安中路(西藏南路至茂名南路)"},{"poiid":"B2094753D76FAAFA449C","title":"上海滩国泰旗舰店","lon":"121.466011","lat":"31.216125","category":"249","category_name":"购物服务","address":"淮海中路868号"},{"poiid":"B209475CD564A7F84292","title":"上海滩新天地店","lon":"121.47463","lat":"31.22164","category":"119","category_name":"商场","address":"\"太仓路181弄新天地北里15号\r\n\""},{"poiid":"B209475CD564A7F8439E","title":"上海滩中信泰富店","lon":"121.45602","lat":"31.22851","category":"119","category_name":"商场","address":"\"南京西路1168号中信泰富广场，店铺号221.\r\n\""},{"poiid":"B209475CD564A7F84392","title":"上海滩浦东香格里拉店","lon":"121.50058","lat":"31.23634","category":"119","category_name":"商场","address":"浦东富成路33号香格里拉酒店内大堂层"},{"poiid":"B2094757D068A5F4459C","title":"八号线 人民广场站","lon":"121.475506038","lat":"31.2258020057","category":"36","category_name":"地铁站","address":"上海人民广场"},{"poiid":"B2094757D06FA2FB4899","title":"冰期时代(迪美店)","lon":"121.47475","lat":"31.22708","category":"113","category_name":"冷饮店","address":"黄浦区人民大道221号迪美购物中心225号商铺(近武胜路)"},{"poiid":"B2094757D068A2FF429B","title":"电信大楼","lon":"121.473292093","lat":"31.226889133","category":"46","category_name":"楼宇","address":"上海武胜路333号"},{"poiid":"B2094757D56DABF5419F","title":"中山公园龙之梦","lon":"121.47514343261719","lat":"31.227481631987086","category":"251","category_name":"出行住宿","address":"上海 上海市 中山公园龙之梦"},{"poiid":"B2094757D06FA7F5439A","title":"霓虹儿童广场(普安路店)","lon":"121.47625","lat":"31.22666","category":"128","category_name":"儿童用品店","address":"黄浦区普安路10号霓虹儿童广场内(近金陵中路)"},{"poiid":"B2094752D16BABFE499D","title":"tutti melon","lon":"121.475296","lat":"31.225388","category":"247","category_name":"餐饮美食","address":"k11"},{"poiid":"B2094757D068A7FA4792","title":"延中广场公园","lon":"121.474751441","lat":"31.2255222197","category":"196","category_name":"公园","address":"上海延安中路金陵中路间"},{"poiid":"B2094752D06FA6FF4098","title":"港丽K11店","lon":"121.474741","lat":"31.225224","category":"247","category_name":"餐饮美食","address":"淮海中路"},{"poiid":"B2094757D06FA7FE4198","title":"武胜路人民广场站(公交112,123,145,952,952B终)","lon":"121.474035682","lat":"31.2269005782","category":"38","category_name":"公交车站","address":"上海市黄浦区武胜路黄陂北路"},{"poiid":"B2094757D66DA4FD479B","title":"california fitness","lon":"121.475505738","lat":"31.2253271956","category":"500","category_name":"未知分类","address":"上海淮海中路无限度广场5楼"},{"poiid":"B2094750D26DA1FF459A","title":"上海广场（原无限度广场）","lon":"121.4739733622222","lat":"31.22735138333332","category":"119","category_name":"商场","address":"上海淮海中路138号"},{"poiid":"B2094757D068A4FA489A","title":"WHY BAR","lon":"121.47451","lat":"31.22449","category":"260","category_name":"其他","address":"卢湾区黄陂南路35号(近金陵路)"},{"poiid":"B2094750D26EA7F9409B","title":"蒂纳卡顿尔翻糖艺术蛋糕 Couture","lon":"121.475957","lat":"31.224848","category":"112","category_name":"糕饼店","address":"卢湾区淮海中路222号力宝广场B1楼(近嵩山路)"},{"poiid":"B2094757DB6FA5FA469D","title":"丽轩","lon":"121.47563","lat":"31.22419","category":"72","category_name":"广东菜","address":"卢湾区淮海中路222号力宝广场3楼(近嵩山路)"},{"poiid":"B2094655D36DA6FF4993","title":"金逸国际电影城","lon":"121.47591","lat":"31.22435","category":"178","category_name":"电影院","address":"上海海上海店"},{"poiid":"B2094750DB6DA7FB489B","title":"上海歌城","lon":"121.475082","lat":"31.2259","category":"170","category_name":"KTV","address":null},{"poiid":"B2094751D564ABFC4693","title":"上海大学","lon":"121.47591","lat":"31.22435","category":"253","category_name":"校园生活","address":"上大路99号"},{"poiid":"B2094750DB65ABFC419B","title":"rich baby","lon":"121.476661","lat":"31.225774","category":"500","category_name":"未知分类","address":null},{"poiid":"B2094753D26DA4FF4792","title":"Ninethirty","lon":"121.474739","lat":"31.225257","category":"500","category_name":"未知分类","address":"上海市 K11 306"},{"poiid":"B2094757D66CA0FD429C","title":"苏豪香港餐厅","lon":"121.47206","lat":"31.22226","category":"72","category_name":"广东菜","address":"卢湾区淮海中路398号世纪巴士大厦B1楼(近黄陂南路地铁站)"},{"poiid":"B2094750D26FA0FE479E","title":"宝万坊","lon":"121.47598028183","lat":"31.224545779642","category":"94","category_name":"西餐厅","address":"卢湾区淮海中路222号力宝广场3楼303A铺(近嵩山路)"},{"poiid":"B2094757D16AA5FD479D","title":"中区顺风大酒店","lon":"121.47668047","lat":"31.225791453","category":"75","category_name":"浙江菜","address":"上海黄陂北路227号3楼"},{"poiid":"B2094757D068A2FF4193","title":"雁荡大厦","lon":"121.476","lat":"31.2246","category":"46","category_name":"楼宇","address":"上海雁荡路107号"},{"poiid":"B2094757D064A7FE479A","title":"安薇塔 力宝店","lon":"121.475324271","lat":"31.2241227699","category":"500","category_name":"未知分类","address":"上海卢湾区淮海中路222号力宝广场B1-101"},{"poiid":"B2094751D564A0F8409F","title":"王鼎铁板烧精致料理","lon":"121.47591","lat":"31.22435","category":"247","category_name":"餐饮美食","address":"世博大道1368号1L M 0304"},{"poiid":"B2094757D068A3FC469D","title":"934终点站","lon":"121.476341","lat":"31.226147","category":"38","category_name":"公交车站","address":"上海普安路"},{"poiid":"B2094753D26DA0FD4298","title":"揽香","lon":"121.474487","lat":"31.22551","category":"247","category_name":"餐饮美食","address":"上海市 上海市淮海中路381号中环广场3楼"},{"poiid":"B2094752D269A2F4429A","title":"外婆家(华润时代广场店)","lon":"121.47591","lat":"31.22435","category":"500","category_name":"未知分类","address":"张扬路500号华润时代广场8楼"},{"poiid":"B2094751D565A0F4419E","title":"华东理工大学徐汇校区","lon":"121.47591","lat":"31.22435","category":"627","category_name":"一般地点标志","address":"梅陇路130号"},{"poiid":"B2094752D26BA6FC439D","title":"虹桥机场一号航站楼","lon":"121.47591","lat":"31.22435","category":"251","category_name":"出行住宿","address":"上海卢湾区虹桥机场"},{"poiid":"B2094751DA6AA7FF419E","title":"上海动物园","lon":"121.47591","lat":"31.22435","category":"500","category_name":"未知分类","address":null},{"poiid":"B2094751DA6EA3FA4098","title":"上海市，松江区","lon":"121.47591","lat":"31.22435","category":"500","category_name":"未知分类","address":"松江区"},{"poiid":"B2094751D569A7FE439F","title":"松江开元地中海","lon":"121.47591","lat":"31.22435","category":"500","category_name":"未知分类","address":null},{"poiid":"B2094751D464A0F4429C","title":"上海影城","lon":"121.47591","lat":"31.22435","category":"178","category_name":"电影院","address":null},{"poiid":"B2094750D56EA7F8439D","title":"梅塞德斯奔驰文化中心","lon":"121.474609","lat":"31.226078","category":"500","category_name":"未知分类","address":null},{"poiid":"B2094751D56BABFF4499","title":"周浦万达影城","lon":"121.47591","lat":"31.22435","category":"178","category_name":"电影院","address":"年家浜路"},{"poiid":"B2094751DA6CA7F8499B","title":"联洋大拇指广场","lon":"121.47591","lat":"31.22435","category":"247","category_name":"餐饮美食","address":"芳甸路199弄19号"},{"poiid":"B2094751DA6DA1FC4399","title":"芮欧百货","lon":"121.47591","lat":"31.22435","category":"119","category_name":"商场","address":"南京西路"},{"poiid":"B2094752D06BA0FF419C","title":"五角场","lon":"121.47591","lat":"31.22435","category":"500","category_name":"未知分类","address":"邯郸路"},{"poiid":"B2094751D46BABFA4999","title":"上海市青浦区","lon":"121.47591","lat":"31.22435","category":"500","category_name":"未知分类","address":null},{"poiid":"B2094757D06FA7FD419A","title":"西树泡芙(国金中心店)","lon":"121.4740912","lat":"31.227401666","category":"67","category_name":"甜品店","address":"上海浦东新区世纪大道8号国金中心商场LG2"},{"poiid":"B2094757D764A5F9499C","title":"赛百味 延安店 Subway","lon":"121.47609517407","lat":"31.227010181559","category":"94","category_name":"西餐厅","address":"黄浦区延安东路550号海洋大厦1楼(近湖北路)"},{"poiid":"B2094751DA64A7FB459B","title":"复旦大学附属儿科医院","lon":"121.47591","lat":"31.22435","category":"162","category_name":"医院","address":null},{"poiid":"B2094757D06FA3F8429C","title":"淮海路","lon":"121.46398412","lat":"31.222631868","category":"260","category_name":"其他","address":"上海淮海路"},{"poiid":"B2094757D66FA6FA489D","title":"满记甜品 迪美店","lon":"121.47513","lat":"31.22758","category":"67","category_name":"甜品店","address":"黄浦区武胜路218号迪美购物中心224-1店铺(近人民大道)"},{"poiid":"B2094757D06FA2FB479D","title":"延中绿地","lon":"121.47533607","lat":"31.225347868","category":"196","category_name":"公园","address":"上海黄浦区延安东路至延安中路(西藏南路至茂名南路)"},{"poiid":"B2094753D76FAAFA449C","title":"上海滩国泰旗舰店","lon":"121.466011","lat":"31.216125","category":"249","category_name":"购物服务","address":"淮海中路868号"},{"poiid":"B209475CD564A7F84292","title":"上海滩新天地店","lon":"121.47463","lat":"31.22164","category":"119","category_name":"商场","address":"\"太仓路181弄新天地北里15号\r\n\""},{"poiid":"B209475CD564A7F8439E","title":"上海滩中信泰富店","lon":"121.45602","lat":"31.22851","category":"119","category_name":"商场","address":"\"南京西路1168号中信泰富广场，店铺号221.\r\n\""},{"poiid":"B209475CD564A7F84392","title":"上海滩浦东香格里拉店","lon":"121.50058","lat":"31.23634","category":"119","category_name":"商场","address":"浦东富成路33号香格里拉酒店内大堂层"},{"poiid":"B2094757D068A5F4459C","title":"八号线 人民广场站","lon":"121.475506038","lat":"31.2258020057","category":"36","category_name":"地铁站","address":"上海人民广场"},{"poiid":"B2094757D06FA2FB4899","title":"冰期时代(迪美店)","lon":"121.47475","lat":"31.22708","category":"113","category_name":"冷饮店","address":"黄浦区人民大道221号迪美购物中心225号商铺(近武胜路)"},{"poiid":"B2094757D068A2FF429B","title":"电信大楼","lon":"121.473292093","lat":"31.226889133","category":"46","category_name":"楼宇","address":"上海武胜路333号"},{"poiid":"B2094757D56DABF5419F","title":"中山公园龙之梦","lon":"121.47514343261719","lat":"31.227481631987086","category":"251","category_name":"出行住宿","address":"上海 上海市 中山公园龙之梦"},{"poiid":"B2094757D06FA7F5439A","title":"霓虹儿童广场(普安路店)","lon":"121.47625","lat":"31.22666","category":"128","category_name":"儿童用品店","address":"黄浦区普安路10号霓虹儿童广场内(近金陵中路)"},{"poiid":"B2094752D16BABFE499D","title":"tutti melon","lon":"121.475296","lat":"31.225388","category":"247","category_name":"餐饮美食","address":"k11"},{"poiid":"B2094757D068A7FA4792","title":"延中广场公园","lon":"121.474751441","lat":"31.2255222197","category":"196","category_name":"公园","address":"上海延安中路金陵中路间"},{"poiid":"B2094752D06FA6FF4098","title":"港丽K11店","lon":"121.474741","lat":"31.225224","category":"247","category_name":"餐饮美食","address":"淮海中路"},{"poiid":"B2094757D06FA7FE4198","title":"武胜路人民广场站(公交112,123,145,952,952B终)","lon":"121.474035682","lat":"31.2269005782","category":"38","category_name":"公交车站","address":"上海市黄浦区武胜路黄陂北路"},{"poiid":"B2094757D66DA4FD479B","title":"california fitness","lon":"121.475505738","lat":"31.2253271956","category":"500","category_name":"未知分类","address":"上海淮海中路无限度广场5楼"},{"poiid":"B2094750D26DA1FF459A","title":"上海广场（原无限度广场）","lon":"121.4739733622222","lat":"31.22735138333332","category":"119","category_name":"商场","address":"上海淮海中路138号"},{"poiid":"B2094757D068A4FA489A","title":"WHY BAR","lon":"121.47451","lat":"31.22449","category":"260","category_name":"其他","address":"卢湾区黄陂南路35号(近金陵路)"},{"poiid":"B2094750D26EA7F9409B","title":"蒂纳卡顿尔翻糖艺术蛋糕 Couture","lon":"121.475957","lat":"31.224848","category":"112","category_name":"糕饼店","address":"卢湾区淮海中路222号力宝广场B1楼(近嵩山路)"},{"poiid":"B2094757DB6FA5FA469D","title":"丽轩","lon":"121.47563","lat":"31.22419","category":"72","category_name":"广东菜","address":"卢湾区淮海中路222号力宝广场3楼(近嵩山路)"},{"poiid":"B2094655D36DA6FF4993","title":"金逸国际电影城","lon":"121.47591","lat":"31.22435","category":"178","category_name":"电影院","address":"上海海上海店"},{"poiid":"B2094750DB6DA7FB489B","title":"上海歌城","lon":"121.475082","lat":"31.2259","category":"170","category_name":"KTV","address":null},{"poiid":"B2094751D564ABFC4693","title":"上海大学","lon":"121.47591","lat":"31.22435","category":"253","category_name":"校园生活","address":"上大路99号"},{"poiid":"B2094750DB65ABFC419B","title":"rich baby","lon":"121.476661","lat":"31.225774","category":"500","category_name":"未知分类","address":null},{"poiid":"B2094753D26DA4FF4792","title":"Ninethirty","lon":"121.474739","lat":"31.225257","category":"500","category_name":"未知分类","address":"上海市 K11 306"},{"poiid":"B2094757D66CA0FD429C","title":"苏豪香港餐厅","lon":"121.47206","lat":"31.22226","category":"72","category_name":"广东菜","address":"卢湾区淮海中路398号世纪巴士大厦B1楼(近黄陂南路地铁站)"},{"poiid":"B2094750D26FA0FE479E","title":"宝万坊","lon":"121.47598028183","lat":"31.224545779642","category":"94","category_name":"西餐厅","address":"卢湾区淮海中路222号力宝广场3楼303A铺(近嵩山路)"},{"poiid":"B2094757D16AA5FD479D","title":"中区顺风大酒店","lon":"121.47668047","lat":"31.225791453","category":"75","category_name":"浙江菜","address":"上海黄陂北路227号3楼"},{"poiid":"B2094757D068A2FF4193","title":"雁荡大厦","lon":"121.476","lat":"31.2246","category":"46","category_name":"楼宇","address":"上海雁荡路107号"},{"poiid":"B2094757D064A7FE479A","title":"安薇塔 力宝店","lon":"121.475324271","lat":"31.2241227699","category":"500","category_name":"未知分类","address":"上海卢湾区淮海中路222号力宝广场B1-101"},{"poiid":"B2094751D564A0F8409F","title":"王鼎铁板烧精致料理","lon":"121.47591","lat":"31.22435","category":"247","category_name":"餐饮美食","address":"世博大道1368号1L M 0304"},{"poiid":"B2094757D068A3FC469D","title":"934终点站","lon":"121.476341","lat":"31.226147","category":"38","category_name":"公交车站","address":"上海普安路"},{"poiid":"B2094753D26DA0FD4298","title":"揽香","lon":"121.474487","lat":"31.22551","category":"247","category_name":"餐饮美食","address":"上海市 上海市淮海中路381号中环广场3楼"},{"poiid":"B2094752D269A2F4429A","title":"外婆家(华润时代广场店)","lon":"121.47591","lat":"31.22435","category":"500","category_name":"未知分类","address":"张扬路500号华润时代广场8楼"},{"poiid":"B2094751D565A0F4419E","title":"华东理工大学徐汇校区","lon":"121.47591","lat":"31.22435","category":"627","category_name":"一般地点标志","address":"梅陇路130号"},{"poiid":"B2094752D26BA6FC439D","title":"虹桥机场一号航站楼","lon":"121.47591","lat":"31.22435","category":"251","category_name":"出行住宿","address":"上海卢湾区虹桥机场"},{"poiid":"B2094751DA6AA7FF419E","title":"上海动物园","lon":"121.47591","lat":"31.22435","category":"500","category_name":"未知分类","address":null},{"poiid":"B2094751DA6EA3FA4098","title":"上海市，松江区","lon":"121.47591","lat":"31.22435","category":"500","category_name":"未知分类","address":"松江区"},{"poiid":"B2094751D569A7FE439F","title":"松江开元地中海","lon":"121.47591","lat":"31.22435","category":"500","category_name":"未知分类","address":null},{"poiid":"B2094751D464A0F4429C","title":"上海影城","lon":"121.47591","lat":"31.22435","category":"178","category_name":"电影院","address":null},{"poiid":"B2094750D56EA7F8439D","title":"梅塞德斯奔驰文化中心","lon":"121.474609","lat":"31.226078","category":"500","category_name":"未知分类","address":null},{"poiid":"B2094751D56BABFF4499","title":"周浦万达影城","lon":"121.47591","lat":"31.22435","category":"178","category_name":"电影院","address":"年家浜路"},{"poiid":"B2094751DA6CA7F8499B","title":"联洋大拇指广场","lon":"121.47591","lat":"31.22435","category":"247","category_name":"餐饮美食","address":"芳甸路199弄19号"},{"poiid":"B2094751DA6DA1FC4399","title":"芮欧百货","lon":"121.47591","lat":"31.22435","category":"119","category_name":"商场","address":"南京西路"},{"poiid":"B2094752D06BA0FF419C","title":"五角场","lon":"121.47591","lat":"31.22435","category":"500","category_name":"未知分类","address":"邯郸路"},{"poiid":"B2094751D46BABFA4999","title":"上海市青浦区","lon":"121.47591","lat":"31.22435","category":"500","category_name":"未知分类","address":null},{"poiid":"B2094757D06FA7FD419A","title":"西树泡芙(国金中心店)","lon":"121.4740912","lat":"31.227401666","category":"67","category_name":"甜品店","address":"上海浦东新区世纪大道8号国金中心商场LG2"},{"poiid":"B2094757D764A5F9499C","title":"赛百味 延安店 Subway","lon":"121.47609517407","lat":"31.227010181559","category":"94","category_name":"西餐厅","address":"黄浦区延安东路550号海洋大厦1楼(近湖北路)"},{"poiid":"B2094751DA64A7FB459B","title":"复旦大学附属儿科医院","lon":"121.47591","lat":"31.22435","category":"162","category_name":"医院","address":null},{"poiid":"B2094757D06FA3F8429C","title":"淮海路","lon":"121.46398412","lat":"31.222631868","category":"260","category_name":"其他","address":"上海淮海路"},{"poiid":"B2094757D66FA6FA489D","title":"满记甜品 迪美店","lon":"121.47513","lat":"31.22758","category":"67","category_name":"甜品店","address":"黄浦区武胜路218号迪美购物中心224-1店铺(近人民大道)"},{"poiid":"B2094757D06FA2FB479D","title":"延中绿地","lon":"121.47533607","lat":"31.225347868","category":"196","category_name":"公园","address":"上海黄浦区延安东路至延安中路(西藏南路至茂名南路)"},{"poiid":"B2094753D76FAAFA449C","title":"上海滩国泰旗舰店","lon":"121.466011","lat":"31.216125","category":"249","category_name":"购物服务","address":"淮海中路868号"},{"poiid":"B209475CD564A7F84292","title":"上海滩新天地店","lon":"121.47463","lat":"31.22164","category":"119","category_name":"商场","address":"\"太仓路181弄新天地北里15号\r\n\""},{"poiid":"B209475CD564A7F8439E","title":"上海滩中信泰富店","lon":"121.45602","lat":"31.22851","category":"119","category_name":"商场","address":"\"南京西路1168号中信泰富广场，店铺号221.\r\n\""},{"poiid":"B209475CD564A7F84392","title":"上海滩浦东香格里拉店","lon":"121.50058","lat":"31.23634","category":"119","category_name":"商场","address":"浦东富成路33号香格里拉酒店内大堂层"},{"poiid":"B2094757D068A5F4459C","title":"八号线 人民广场站","lon":"121.475506038","lat":"31.2258020057","category":"36","category_name":"地铁站","address":"上海人民广场"},{"poiid":"B2094757D06FA2FB4899","title":"冰期时代(迪美店)","lon":"121.47475","lat":"31.22708","category":"113","category_name":"冷饮店","address":"黄浦区人民大道221号迪美购物中心225号商铺(近武胜路)"},{"poiid":"B2094757D068A2FF429B","title":"电信大楼","lon":"121.473292093","lat":"31.226889133","category":"46","category_name":"楼宇","address":"上海武胜路333号"},{"poiid":"B2094757D56DABF5419F","title":"中山公园龙之梦","lon":"121.47514343261719","lat":"31.227481631987086","category":"251","category_name":"出行住宿","address":"上海 上海市 中山公园龙之梦"},{"poiid":"B2094757D06FA7F5439A","title":"霓虹儿童广场(普安路店)","lon":"121.47625","lat":"31.22666","category":"128","category_name":"儿童用品店","address":"黄浦区普安路10号霓虹儿童广场内(近金陵中路)"},{"poiid":"B2094752D16BABFE499D","title":"tutti melon","lon":"121.475296","lat":"31.225388","category":"247","category_name":"餐饮美食","address":"k11"},{"poiid":"B2094757D068A7FA4792","title":"延中广场公园","lon":"121.474751441","lat":"31.2255222197","category":"196","category_name":"公园","address":"上海延安中路金陵中路间"},{"poiid":"B2094752D06FA6FF4098","title":"港丽K11店","lon":"121.474741","lat":"31.225224","category":"247","category_name":"餐饮美食","address":"淮海中路"},{"poiid":"B2094757D06FA7FE4198","title":"武胜路人民广场站(公交112,123,145,952,952B终)","lon":"121.474035682","lat":"31.2269005782","category":"38","category_name":"公交车站","address":"上海市黄浦区武胜路黄陂北路"},{"poiid":"B2094757D66DA4FD479B","title":"california fitness","lon":"121.475505738","lat":"31.2253271956","category":"500","category_name":"未知分类","address":"上海淮海中路无限度广场5楼"},{"poiid":"B2094750D26DA1FF459A","title":"上海广场（原无限度广场）","lon":"121.4739733622222","lat":"31.22735138333332","category":"119","category_name":"商场","address":"上海淮海中路138号"},{"poiid":"B2094757D068A4FA489A","title":"WHY BAR","lon":"121.47451","lat":"31.22449","category":"260","category_name":"其他","address":"卢湾区黄陂南路35号(近金陵路)"},{"poiid":"B2094750D26EA7F9409B","title":"蒂纳卡顿尔翻糖艺术蛋糕 Couture","lon":"121.475957","lat":"31.224848","category":"112","category_name":"糕饼店","address":"卢湾区淮海中路222号力宝广场B1楼(近嵩山路)"},{"poiid":"B2094757DB6FA5FA469D","title":"丽轩","lon":"121.47563","lat":"31.22419","category":"72","category_name":"广东菜","address":"卢湾区淮海中路222号力宝广场3楼(近嵩山路)"},{"poiid":"B2094655D36DA6FF4993","title":"金逸国际电影城","lon":"121.47591","lat":"31.22435","category":"178","category_name":"电影院","address":"上海海上海店"},{"poiid":"B2094750DB6DA7FB489B","title":"上海歌城","lon":"121.475082","lat":"31.2259","category":"170","category_name":"KTV","address":null},{"poiid":"B2094751D564ABFC4693","title":"上海大学","lon":"121.47591","lat":"31.22435","category":"253","category_name":"校园生活","address":"上大路99号"},{"poiid":"B2094750DB65ABFC419B","title":"rich baby","lon":"121.476661","lat":"31.225774","category":"500","category_name":"未知分类","address":null},{"poiid":"B2094753D26DA4FF4792","title":"Ninethirty","lon":"121.474739","lat":"31.225257","category":"500","category_name":"未知分类","address":"上海市 K11 306"},{"poiid":"B2094757D66CA0FD429C","title":"苏豪香港餐厅","lon":"121.47206","lat":"31.22226","category":"72","category_name":"广东菜","address":"卢湾区淮海中路398号世纪巴士大厦B1楼(近黄陂南路地铁站)"},{"poiid":"B2094750D26FA0FE479E","title":"宝万坊","lon":"121.47598028183","lat":"31.224545779642","category":"94","category_name":"西餐厅","address":"卢湾区淮海中路222号力宝广场3楼303A铺(近嵩山路)"},{"poiid":"B2094757D16AA5FD479D","title":"中区顺风大酒店","lon":"121.47668047","lat":"31.225791453","category":"75","category_name":"浙江菜","address":"上海黄陂北路227号3楼"},{"poiid":"B2094757D068A2FF4193","title":"雁荡大厦","lon":"121.476","lat":"31.2246","category":"46","category_name":"楼宇","address":"上海雁荡路107号"},{"poiid":"B2094757D064A7FE479A","title":"安薇塔 力宝店","lon":"121.475324271","lat":"31.2241227699","category":"500","category_name":"未知分类","address":"上海卢湾区淮海中路222号力宝广场B1-101"},{"poiid":"B2094751D564A0F8409F","title":"王鼎铁板烧精致料理","lon":"121.47591","lat":"31.22435","category":"247","category_name":"餐饮美食","address":"世博大道1368号1L M 0304"},{"poiid":"B2094757D068A3FC469D","title":"934终点站","lon":"121.476341","lat":"31.226147","category":"38","category_name":"公交车站","address":"上海普安路"},{"poiid":"B2094753D26DA0FD4298","title":"揽香","lon":"121.474487","lat":"31.22551","category":"247","category_name":"餐饮美食","address":"上海市 上海市淮海中路381号中环广场3楼"},{"poiid":"B2094752D269A2F4429A","title":"外婆家(华润时代广场店)","lon":"121.47591","lat":"31.22435","category":"500","category_name":"未知分类","address":"张扬路500号华润时代广场8楼"},{"poiid":"B2094751D565A0F4419E","title":"华东理工大学徐汇校区","lon":"121.47591","lat":"31.22435","category":"627","category_name":"一般地点标志","address":"梅陇路130号"},{"poiid":"B2094752D26BA6FC439D","title":"虹桥机场一号航站楼","lon":"121.47591","lat":"31.22435","category":"251","category_name":"出行住宿","address":"上海卢湾区虹桥机场"},{"poiid":"B2094751DA6AA7FF419E","title":"上海动物园","lon":"121.47591","lat":"31.22435","category":"500","category_name":"未知分类","address":null},{"poiid":"B2094751DA6EA3FA4098","title":"上海市，松江区","lon":"121.47591","lat":"31.22435","category":"500","category_name":"未知分类","address":"松江区"},{"poiid":"B2094751D569A7FE439F","title":"松江开元地中海","lon":"121.47591","lat":"31.22435","category":"500","category_name":"未知分类","address":null},{"poiid":"B2094751D464A0F4429C","title":"上海影城","lon":"121.47591","lat":"31.22435","category":"178","category_name":"电影院","address":null},{"poiid":"B2094750D56EA7F8439D","title":"梅塞德斯奔驰文化中心","lon":"121.474609","lat":"31.226078","category":"500","category_name":"未知分类","address":null},{"poiid":"B2094751D56BABFF4499","title":"周浦万达影城","lon":"121.47591","lat":"31.22435","category":"178","category_name":"电影院","address":"年家浜路"},{"poiid":"B2094751DA6CA7F8499B","title":"联洋大拇指广场","lon":"121.47591","lat":"31.22435","category":"247","category_name":"餐饮美食","address":"芳甸路199弄19号"},{"poiid":"B2094751DA6DA1FC4399","title":"芮欧百货","lon":"121.47591","lat":"31.22435","category":"119","category_name":"商场","address":"南京西路"},{"poiid":"B2094752D06BA0FF419C","title":"五角场","lon":"121.47591","lat":"31.22435","category":"500","category_name":"未知分类","address":"邯郸路"},{"poiid":"B2094751D46BABFA4999","title":"上海市青浦区","lon":"121.47591","lat":"31.22435","category":"500","category_name":"未知分类","address":null},{"poiid":"B2094757D06FA7FD419A","title":"西树泡芙(国金中心店)","lon":"121.4740912","lat":"31.227401666","category":"67","category_name":"甜品店","address":"上海浦东新区世纪大道8号国金中心商场LG2"},{"poiid":"B2094757D764A5F9499C","title":"赛百味 延安店 Subway","lon":"121.47609517407","lat":"31.227010181559","category":"94","category_name":"西餐厅","address":"黄浦区延安东路550号海洋大厦1楼(近湖北路)"},{"poiid":"B2094751DA64A7FB459B","title":"复旦大学附属儿科医院","lon":"121.47591","lat":"31.22435","category":"162","category_name":"医院","address":null},{"poiid":"B2094757D06FA3F8429C","title":"淮海路","lon":"121.46398412","lat":"31.222631868","category":"260","category_name":"其他","address":"上海淮海路"},{"poiid":"B2094757D66FA6FA489D","title":"满记甜品 迪美店","lon":"121.47513","lat":"31.22758","category":"67","category_name":"甜品店","address":"黄浦区武胜路218号迪美购物中心224-1店铺(近人民大道)"},{"poiid":"B2094757D06FA2FB479D","title":"延中绿地","lon":"121.47533607","lat":"31.225347868","category":"196","category_name":"公园","address":"上海黄浦区延安东路至延安中路(西藏南路至茂名南路)"},{"poiid":"B2094753D76FAAFA449C","title":"上海滩国泰旗舰店","lon":"121.466011","lat":"31.216125","category":"249","category_name":"购物服务","address":"淮海中路868号"},{"poiid":"B209475CD564A7F84292","title":"上海滩新天地店","lon":"121.47463","lat":"31.22164","category":"119","category_name":"商场","address":"\"太仓路181弄新天地北里15号\r\n\""},{"poiid":"B209475CD564A7F8439E","title":"上海滩中信泰富店","lon":"121.45602","lat":"31.22851","category":"119","category_name":"商场","address":"\"南京西路1168号中信泰富广场，店铺号221.\r\n\""},{"poiid":"B209475CD564A7F84392","title":"上海滩浦东香格里拉店","lon":"121.50058","lat":"31.23634","category":"119","category_name":"商场","address":"浦东富成路33号香格里拉酒店内大堂层"},{"poiid":"B2094757D068A5F4459C","title":"八号线 人民广场站","lon":"121.475506038","lat":"31.2258020057","category":"36","category_name":"地铁站","address":"上海人民广场"},{"poiid":"B2094757D06FA2FB4899","title":"冰期时代(迪美店)","lon":"121.47475","lat":"31.22708","category":"113","category_name":"冷饮店","address":"黄浦区人民大道221号迪美购物中心225号商铺(近武胜路)"},{"poiid":"B2094757D068A2FF429B","title":"电信大楼","lon":"121.473292093","lat":"31.226889133","category":"46","category_name":"楼宇","address":"上海武胜路333号"},{"poiid":"B2094757D56DABF5419F","title":"中山公园龙之梦","lon":"121.47514343261719","lat":"31.227481631987086","category":"251","category_name":"出行住宿","address":"上海 上海市 中山公园龙之梦"},{"poiid":"B2094757D06FA7F5439A","title":"霓虹儿童广场(普安路店)","lon":"121.47625","lat":"31.22666","category":"128","category_name":"儿童用品店","address":"黄浦区普安路10号霓虹儿童广场内(近金陵中路)"},{"poiid":"B2094752D16BABFE499D","title":"tutti melon","lon":"121.475296","lat":"31.225388","category":"247","category_name":"餐饮美食","address":"k11"},{"poiid":"B2094757D068A7FA4792","title":"延中广场公园","lon":"121.474751441","lat":"31.2255222197","category":"196","category_name":"公园","address":"上海延安中路金陵中路间"},{"poiid":"B2094752D06FA6FF4098","title":"港丽K11店","lon":"121.474741","lat":"31.225224","category":"247","category_name":"餐饮美食","address":"淮海中路"},{"poiid":"B2094757D06FA7FE4198","title":"武胜路人民广场站(公交112,123,145,952,952B终)","lon":"121.474035682","lat":"31.2269005782","category":"38","category_name":"公交车站","address":"上海市黄浦区武胜路黄陂北路"},{"poiid":"B2094757D66DA4FD479B","title":"california fitness","lon":"121.475505738","lat":"31.2253271956","category":"500","category_name":"未知分类","address":"上海淮海中路无限度广场5楼"},{"poiid":"B2094750D26DA1FF459A","title":"上海广场（原无限度广场）","lon":"121.4739733622222","lat":"31.22735138333332","category":"119","category_name":"商场","address":"上海淮海中路138号"},{"poiid":"B2094757D068A4FA489A","title":"WHY BAR","lon":"121.47451","lat":"31.22449","category":"260","category_name":"其他","address":"卢湾区黄陂南路35号(近金陵路)"},{"poiid":"B2094750D26EA7F9409B","title":"蒂纳卡顿尔翻糖艺术蛋糕 Couture","lon":"121.475957","lat":"31.224848","category":"112","category_name":"糕饼店","address":"卢湾区淮海中路222号力宝广场B1楼(近嵩山路)"},{"poiid":"B2094757DB6FA5FA469D","title":"丽轩","lon":"121.47563","lat":"31.22419","category":"72","category_name":"广东菜","address":"卢湾区淮海中路222号力宝广场3楼(近嵩山路)"},{"poiid":"B2094655D36DA6FF4993","title":"金逸国际电影城","lon":"121.47591","lat":"31.22435","category":"178","category_name":"电影院","address":"上海海上海店"},{"poiid":"B2094750DB6DA7FB489B","title":"上海歌城","lon":"121.475082","lat":"31.2259","category":"170","category_name":"KTV","address":null},{"poiid":"B2094751D564ABFC4693","title":"上海大学","lon":"121.47591","lat":"31.22435","category":"253","category_name":"校园生活","address":"上大路99号"},{"poiid":"B2094750DB65ABFC419B","title":"rich baby","lon":"121.476661","lat":"31.225774","category":"500","category_name":"未知分类","address":null},{"poiid":"B2094753D26DA4FF4792","title":"Ninethirty","lon":"121.474739","lat":"31.225257","category":"500","category_name":"未知分类","address":"上海市 K11 306"},{"poiid":"B2094757D66CA0FD429C","title":"苏豪香港餐厅","lon":"121.47206","lat":"31.22226","category":"72","category_name":"广东菜","address":"卢湾区淮海中路398号世纪巴士大厦B1楼(近黄陂南路地铁站)"},{"poiid":"B2094750D26FA0FE479E","title":"宝万坊","lon":"121.47598028183","lat":"31.224545779642","category":"94","category_name":"西餐厅","address":"卢湾区淮海中路222号力宝广场3楼303A铺(近嵩山路)"},{"poiid":"B2094757D16AA5FD479D","title":"中区顺风大酒店","lon":"121.47668047","lat":"31.225791453","category":"75","category_name":"浙江菜","address":"上海黄陂北路227号3楼"},{"poiid":"B2094757D068A2FF4193","title":"雁荡大厦","lon":"121.476","lat":"31.2246","category":"46","category_name":"楼宇","address":"上海雁荡路107号"},{"poiid":"B2094757D064A7FE479A","title":"安薇塔 力宝店","lon":"121.475324271","lat":"31.2241227699","category":"500","category_name":"未知分类","address":"上海卢湾区淮海中路222号力宝广场B1-101"},{"poiid":"B2094751D564A0F8409F","title":"王鼎铁板烧精致料理","lon":"121.47591","lat":"31.22435","category":"247","category_name":"餐饮美食","address":"世博大道1368号1L M 0304"},{"poiid":"B2094757D068A3FC469D","title":"934终点站","lon":"121.476341","lat":"31.226147","category":"38","category_name":"公交车站","address":"上海普安路"},{"poiid":"B2094753D26DA0FD4298","title":"揽香","lon":"121.474487","lat":"31.22551","category":"247","category_name":"餐饮美食","address":"上海市 上海市淮海中路381号中环广场3楼"},{"poiid":"B2094752D269A2F4429A","title":"外婆家(华润时代广场店)","lon":"121.47591","lat":"31.22435","category":"500","category_name":"未知分类","address":"张扬路500号华润时代广场8楼"},{"poiid":"B2094751D565A0F4419E","title":"华东理工大学徐汇校区","lon":"121.47591","lat":"31.22435","category":"627","category_name":"一般地点标志","address":"梅陇路130号"},{"poiid":"B2094752D26BA6FC439D","title":"虹桥机场一号航站楼","lon":"121.47591","lat":"31.22435","category":"251","category_name":"出行住宿","address":"上海卢湾区虹桥机场"},{"poiid":"B2094751DA6AA7FF419E","title":"上海动物园","lon":"121.47591","lat":"31.22435","category":"500","category_name":"未知分类","address":null},{"poiid":"B2094751DA6EA3FA4098","title":"上海市，松江区","lon":"121.47591","lat":"31.22435","category":"500","category_name":"未知分类","address":"松江区"},{"poiid":"B2094751D569A7FE439F","title":"松江开元地中海","lon":"121.47591","lat":"31.22435","category":"500","category_name":"未知分类","address":null},{"poiid":"B2094751D464A0F4429C","title":"上海影城","lon":"121.47591","lat":"31.22435","category":"178","category_name":"电影院","address":null},{"poiid":"B2094750D56EA7F8439D","title":"梅塞德斯奔驰文化中心","lon":"121.474609","lat":"31.226078","category":"500","category_name":"未知分类","address":null},{"poiid":"B2094751D56BABFF4499","title":"周浦万达影城","lon":"121.47591","lat":"31.22435","category":"178","category_name":"电影院","address":"年家浜路"},{"poiid":"B2094751DA6CA7F8499B","title":"联洋大拇指广场","lon":"121.47591","lat":"31.22435","category":"247","category_name":"餐饮美食","address":"芳甸路199弄19号"},{"poiid":"B2094751DA6DA1FC4399","title":"芮欧百货","lon":"121.47591","lat":"31.22435","category":"119","category_name":"商场","address":"南京西路"},{"poiid":"B2094752D06BA0FF419C","title":"五角场","lon":"121.47591","lat":"31.22435","category":"500","category_name":"未知分类","address":"邯郸路"},{"poiid":"B2094751D46BABFA4999","title":"上海市青浦区","lon":"121.47591","lat":"31.22435","category":"500","category_name":"未知分类","address":null},{"poiid":"B2094757D06FA7FD419A","title":"西树泡芙(国金中心店)","lon":"121.4740912","lat":"31.227401666","category":"67","category_name":"甜品店","address":"上海浦东新区世纪大道8号国金中心商场LG2"},{"poiid":"B2094757D764A5F9499C","title":"赛百味 延安店 Subway","lon":"121.47609517407","lat":"31.227010181559","category":"94","category_name":"西餐厅","address":"黄浦区延安东路550号海洋大厦1楼(近湖北路)"},{"poiid":"B2094751DA64A7FB459B","title":"复旦大学附属儿科医院","lon":"121.47591","lat":"31.22435","category":"162","category_name":"医院","address":null},{"poiid":"B2094757D06FA3F8429C","title":"淮海路","lon":"121.46398412","lat":"31.222631868","category":"260","category_name":"其他","address":"上海淮海路"},{"poiid":"B2094757D66FA6FA489D","title":"满记甜品 迪美店","lon":"121.47513","lat":"31.22758","category":"67","category_name":"甜品店","address":"黄浦区武胜路218号迪美购物中心224-1店铺(近人民大道)"},{"poiid":"B2094757D06FA2FB479D","title":"延中绿地","lon":"121.47533607","lat":"31.225347868","category":"196","category_name":"公园","address":"上海黄浦区延安东路至延安中路(西藏南路至茂名南路)"},{"poiid":"B2094753D76FAAFA449C","title":"上海滩国泰旗舰店","lon":"121.466011","lat":"31.216125","category":"249","category_name":"购物服务","address":"淮海中路868号"},{"poiid":"B209475CD564A7F84292","title":"上海滩新天地店","lon":"121.47463","lat":"31.22164","category":"119","category_name":"商场","address":"\"太仓路181弄新天地北里15号\r\n\""},{"poiid":"B209475CD564A7F8439E","title":"上海滩中信泰富店","lon":"121.45602","lat":"31.22851","category":"119","category_name":"商场","address":"\"南京西路1168号中信泰富广场，店铺号221.\r\n\""},{"poiid":"B209475CD564A7F84392","title":"上海滩浦东香格里拉店","lon":"121.50058","lat":"31.23634","category":"119","category_name":"商场","address":"浦东富成路33号香格里拉酒店内大堂层"},{"poiid":"B2094757D068A5F4459C","title":"八号线 人民广场站","lon":"121.475506038","lat":"31.2258020057","category":"36","category_name":"地铁站","address":"上海人民广场"},{"poiid":"B2094757D06FA2FB4899","title":"冰期时代(迪美店)","lon":"121.47475","lat":"31.22708","category":"113","category_name":"冷饮店","address":"黄浦区人民大道221号迪美购物中心225号商铺(近武胜路)"},{"poiid":"B2094757D068A2FF429B","title":"电信大楼","lon":"121.473292093","lat":"31.226889133","category":"46","category_name":"楼宇","address":"上海武胜路333号"},{"poiid":"B2094757D56DABF5419F","title":"中山公园龙之梦","lon":"121.47514343261719","lat":"31.227481631987086","category":"251","category_name":"出行住宿","address":"上海 上海市 中山公园龙之梦"},{"poiid":"B2094757D06FA7F5439A","title":"霓虹儿童广场(普安路店)","lon":"121.47625","lat":"31.22666","category":"128","category_name":"儿童用品店","address":"黄浦区普安路10号霓虹儿童广场内(近金陵中路)"},{"poiid":"B2094752D16BABFE499D","title":"tutti melon","lon":"121.475296","lat":"31.225388","category":"247","category_name":"餐饮美食","address":"k11"},{"poiid":"B2094757D068A7FA4792","title":"延中广场公园","lon":"121.474751441","lat":"31.2255222197","category":"196","category_name":"公园","address":"上海延安中路金陵中路间"},{"poiid":"B2094752D06FA6FF4098","title":"港丽K11店","lon":"121.474741","lat":"31.225224","category":"247","category_name":"餐饮美食","address":"淮海中路"},{"poiid":"B2094757D06FA7FE4198","title":"武胜路人民广场站(公交112,123,145,952,952B终)","lon":"121.474035682","lat":"31.2269005782","category":"38","category_name":"公交车站","address":"上海市黄浦区武胜路黄陂北路"},{"poiid":"B2094757D66DA4FD479B","title":"california fitness","lon":"121.475505738","lat":"31.2253271956","category":"500","category_name":"未知分类","address":"上海淮海中路无限度广场5楼"},{"poiid":"B2094750D26DA1FF459A","title":"上海广场（原无限度广场）","lon":"121.4739733622222","lat":"31.22735138333332","category":"119","category_name":"商场","address":"上海淮海中路138号"},{"poiid":"B2094757D068A4FA489A","title":"WHY BAR","lon":"121.47451","lat":"31.22449","category":"260","category_name":"其他","address":"卢湾区黄陂南路35号(近金陵路)"},{"poiid":"B2094750D26EA7F9409B","title":"蒂纳卡顿尔翻糖艺术蛋糕 Couture","lon":"121.475957","lat":"31.224848","category":"112","category_name":"糕饼店","address":"卢湾区淮海中路222号力宝广场B1楼(近嵩山路)"},{"poiid":"B2094757DB6FA5FA469D","title":"丽轩","lon":"121.47563","lat":"31.22419","category":"72","category_name":"广东菜","address":"卢湾区淮海中路222号力宝广场3楼(近嵩山路)"},{"poiid":"B2094655D36DA6FF4993","title":"金逸国际电影城","lon":"121.47591","lat":"31.22435","category":"178","category_name":"电影院","address":"上海海上海店"},{"poiid":"B2094750DB6DA7FB489B","title":"上海歌城","lon":"121.475082","lat":"31.2259","category":"170","category_name":"KTV","address":null},{"poiid":"B2094751D564ABFC4693","title":"上海大学","lon":"121.47591","lat":"31.22435","category":"253","category_name":"校园生活","address":"上大路99号"},{"poiid":"B2094750DB65ABFC419B","title":"rich baby","lon":"121.476661","lat":"31.225774","category":"500","category_name":"未知分类","address":null},{"poiid":"B2094753D26DA4FF4792","title":"Ninethirty","lon":"121.474739","lat":"31.225257","category":"500","category_name":"未知分类","address":"上海市 K11 306"},{"poiid":"B2094757D66CA0FD429C","title":"苏豪香港餐厅","lon":"121.47206","lat":"31.22226","category":"72","category_name":"广东菜","address":"卢湾区淮海中路398号世纪巴士大厦B1楼(近黄陂南路地铁站)"},{"poiid":"B2094750D26FA0FE479E","title":"宝万坊","lon":"121.47598028183","lat":"31.224545779642","category":"94","category_name":"西餐厅","address":"卢湾区淮海中路222号力宝广场3楼303A铺(近嵩山路)"},{"poiid":"B2094757D16AA5FD479D","title":"中区顺风大酒店","lon":"121.47668047","lat":"31.225791453","category":"75","category_name":"浙江菜","address":"上海黄陂北路227号3楼"},{"poiid":"B2094757D068A2FF4193","title":"雁荡大厦","lon":"121.476","lat":"31.2246","category":"46","category_name":"楼宇","address":"上海雁荡路107号"},{"poiid":"B2094757D064A7FE479A","title":"安薇塔 力宝店","lon":"121.475324271","lat":"31.2241227699","category":"500","category_name":"未知分类","address":"上海卢湾区淮海中路222号力宝广场B1-101"},{"poiid":"B2094751D564A0F8409F","title":"王鼎铁板烧精致料理","lon":"121.47591","lat":"31.22435","category":"247","category_name":"餐饮美食","address":"世博大道1368号1L M 0304"},{"poiid":"B2094757D068A3FC469D","title":"934终点站","lon":"121.476341","lat":"31.226147","category":"38","category_name":"公交车站","address":"上海普安路"},{"poiid":"B2094753D26DA0FD4298","title":"揽香","lon":"121.474487","lat":"31.22551","category":"247","category_name":"餐饮美食","address":"上海市 上海市淮海中路381号中环广场3楼"},{"poiid":"B2094752D269A2F4429A","title":"外婆家(华润时代广场店)","lon":"121.47591","lat":"31.22435","category":"500","category_name":"未知分类","address":"张扬路500号华润时代广场8楼"},{"poiid":"B2094751D565A0F4419E","title":"华东理工大学徐汇校区","lon":"121.47591","lat":"31.22435","category":"627","category_name":"一般地点标志","address":"梅陇路130号"},{"poiid":"B2094752D26BA6FC439D","title":"虹桥机场一号航站楼","lon":"121.47591","lat":"31.22435","category":"251","category_name":"出行住宿","address":"上海卢湾区虹桥机场"},{"poiid":"B2094751DA6AA7FF419E","title":"上海动物园","lon":"121.47591","lat":"31.22435","category":"500","category_name":"未知分类","address":null},{"poiid":"B2094751DA6EA3FA4098","title":"上海市，松江区","lon":"121.47591","lat":"31.22435","category":"500","category_name":"未知分类","address":"松江区"},{"poiid":"B2094751D569A7FE439F","title":"松江开元地中海","lon":"121.47591","lat":"31.22435","category":"500","category_name":"未知分类","address":null},{"poiid":"B2094751D464A0F4429C","title":"上海影城","lon":"121.47591","lat":"31.22435","category":"178","category_name":"电影院","address":null},{"poiid":"B2094750D56EA7F8439D","title":"梅塞德斯奔驰文化中心","lon":"121.474609","lat":"31.226078","category":"500","category_name":"未知分类","address":null},{"poiid":"B2094751D56BABFF4499","title":"周浦万达影城","lon":"121.47591","lat":"31.22435","category":"178","category_name":"电影院","address":"年家浜路"},{"poiid":"B2094751DA6CA7F8499B","title":"联洋大拇指广场","lon":"121.47591","lat":"31.22435","category":"247","category_name":"餐饮美食","address":"芳甸路199弄19号"},{"poiid":"B2094751DA6DA1FC4399","title":"芮欧百货","lon":"121.47591","lat":"31.22435","category":"119","category_name":"商场","address":"南京西路"},{"poiid":"B2094752D06BA0FF419C","title":"五角场","lon":"121.47591","lat":"31.22435","category":"500","category_name":"未知分类","address":"邯郸路"},{"poiid":"B2094751D46BABFA4999","title":"上海市青浦区","lon":"121.47591","lat":"31.22435","category":"500","category_name":"未知分类","address":null},{"poiid":"B2094757D06FA7FD419A","title":"西树泡芙(国金中心店)","lon":"121.4740912","lat":"31.227401666","category":"67","category_name":"甜品店","address":"上海浦东新区世纪大道8号国金中心商场LG2"},{"poiid":"B2094757D764A5F9499C","title":"赛百味 延安店 Subway","lon":"121.47609517407","lat":"31.227010181559","category":"94","category_name":"西餐厅","address":"黄浦区延安东路550号海洋大厦1楼(近湖北路)"},{"poiid":"B2094751DA64A7FB459B","title":"复旦大学附属儿科医院","lon":"121.47591","lat":"31.22435","category":"162","category_name":"医院","address":null}]