[{"poiid":"B2094654DB65A4F5409A","title":"上海市第六人民医院","lon":"121.42416","lat":"31.17854","category":"162","category_name":"医院","address":"徐汇区钦州北路133号第六人民医院住院部(近宜山路)"},{"poiid":"B2094655D26CABF54099","title":"神旺大酒店","lon":"121.42029","lat":"31.17613","category":"215","category_name":"三星级宾馆","address":"徐汇区宜山路650号(近柳州路)"},{"poiid":"B2094757D06FA3FF4398","title":"好乐迪量贩式KTV(田林店)","lon":"121.41871658","lat":"31.175177354","category":"170","category_name":"KTV","address":"徐汇区宜山路700号新宜街84幢4楼"},{"poiid":"B2094654D564A0F54798","title":"上海市第六人民医院住院部","lon":"121.42264","lat":"31.17899","category":"251","category_name":"出行住宿","address":"上海徐汇区钦州北路133号"},{"poiid":"B2094757D168AAF94499","title":"捞王 锅物料理","lon":"121.422751386","lat":"31.172621205","category":"86","category_name":"火锅店","address":"徐汇区柳州路545号(近田林东路)"},{"poiid":"B2094757D06FA6F84299","title":"三人行骨头王火锅(田林店)","lon":"121.42275","lat":"31.17367","category":"86","category_name":"火锅店","address":"徐汇区柳州路田林十三村5号(田林派出所对面)"},{"poiid":"B2094757D068A2F84393","title":"上海人家(徐汇店)","lon":"121.42376","lat":"31.17305","category":"76","category_name":"上海菜","address":"徐汇区柳州路531号(近田林东路)"},{"poiid":"B2094757D064AAF4429F","title":"上海市第六人民医院儿科急诊","lon":"121.423225938","lat":"31.1776702557","category":"162","category_name":"医院","address":"上海宜山路500号"},{"poiid":"B2094655D26EABFF4899","title":"上海第二医科大学市六临床医学院","lon":"121.4236","lat":"31.17909","category":"52","category_name":"高等院校","address":"徐汇区宜山路600"},{"poiid":"B2094654D564A7F84199","title":"上海市西南位育中学","lon":"121.42463","lat":"31.17729","category":"55","category_name":"中学","address":"徐汇区宜山路671号(近第六人民医院)"},{"poiid":"B2094757D06FA4F94399","title":"永和大王(宜山店)","lon":"121.424505","lat":"31.178279","category":"68","category_name":"快餐厅","address":"徐汇区宜山路637号(近市六医院)"},{"poiid":"B2094655D36CA1FD4993","title":"市六医院","lon":"121.42382","lat":"31.17768","category":"162","category_name":"医院","address":""},{"poiid":"B2094757D06FA3F84293","title":"上海市医疗急救中心","lon":"121.42219543","lat":"31.176525116","category":"162","category_name":"医院","address":"上海市徐汇区宜山路636号(近柳州路)"},{"poiid":"B2094654D56BAAFF499E","title":"浦原科技园","lon":"121.42460496969","lat":"31.174196043246","category":"45","category_name":"产业园区","address":"上海市徐汇区桂林路396号"},{"poiid":"B2094757D06FA7F5499E","title":"85度C(宜山店)","lon":"121.425654","lat":"31.180221","category":"112","category_name":"糕饼店","address":"徐汇区宜山路515号博库书城1楼(近中山西路)"},{"poiid":"B2094757D16BA5FC4098","title":"上海交通大学附属第六人民医院上海市糖尿病临床医学中心","lon":"121.421721586","lat":"31.1796084414","category":"162","category_name":"医院","address":"上海宜山路600号"},{"poiid":"B2094757D06AA3F84993","title":"宝燕一号","lon":"121.420493836","lat":"31.1756244136","category":"500","category_name":"未知分类","address":"上海宜山路700号84幢5楼"},{"poiid":"B2094655D36DA0FA4592","title":"宜山路市六医院","lon":"121.42305","lat":"31.17685","category":"162","category_name":"医院","address":""},{"poiid":"B2094751D36BA4FD459C","title":"上海交通大学医学院附属第六人民医院","lon":"121.4232271","lat":"31.1754075","category":"162","category_name":"医院","address":"宜山路600号"},{"poiid":"B2094757D06BA1F8409B","title":"潮品集","lon":"121.42081","lat":"31.1758","category":"72","category_name":"广东菜","address":"徐汇区宜山路650号神旺大酒店1楼(近柳州路)"},{"poiid":"B2094655D268A4FC4399","title":"汉庭快捷酒店上海宜山路店","lon":"121.42202","lat":"31.18059","category":"216","category_name":"经济型连锁酒店","address":"徐汇区钦州北路98号(市六医院对面)"},{"poiid":"B2094757D569A1FE4693","title":"欧记桂林米粉","lon":"121.423629","lat":"31.177","category":"68","category_name":"快餐厅","address":"徐汇区宜山路675号(六院急诊对面)"},{"poiid":"B2094757D065A1FA4398","title":"好樂迪","lon":"121.41850158","lat":"31.175576362","category":"500","category_name":"未知分类","address":"上海徐汇区宜山路700號"},{"poiid":"B2094654DB6BA7FB4293","title":"申德公寓","lon":"121.4218","lat":"31.176922","category":"47","category_name":"住宅区","address":"上海市徐汇区柳州路585号"},{"poiid":"B2094654DB6BA7FB479E","title":"心一代豆浆(宜山路)","lon":"121.4234","lat":"31.17697","category":"68","category_name":"快餐厅","address":"徐汇区宜山路675号(市六医院急诊处对面)"},{"poiid":"B2094757D16BA1FB489B","title":"世界茶饮","lon":"121.423911886","lat":"31.1777200045","category":"67","category_name":"甜品店","address":"上海宜山路"},{"poiid":"B2094751D268A0F54692","title":"青蛙老虎鱼","lon":"121.423164","lat":"31.17768","category":"71","category_name":"四川菜","address":"徐汇区宜山路643号(近钦州路)"},{"poiid":"B2094654D564A7F8409D","title":"兰州正宗牛肉拉面(上海市西南位育中学西)","lon":"121.42355","lat":"31.17704","category":"90","category_name":"清真餐馆","address":"宜山路673-2识别"},{"poiid":"B2094757D06BA5FB489B","title":"世纪大道二号线","lon":"121.422408586","lat":"31.1758893688","category":"500","category_name":"未知分类","address":"上海世纪大道"},{"poiid":"B2094757D064A4F4459A","title":"田林派出所","lon":"121.42239415","lat":"31.175819767","category":"609","category_name":"警察局","address":"上海田林14村120号"},{"poiid":"B2094757D465A1FA4499","title":"新亚大包 宜山店","lon":"121.42317742552","lat":"31.178025957083","category":"68","category_name":"快餐厅","address":"宜山路602号近钦州路近市六医院"},{"poiid":"B2094655D36CA1F8489D","title":"柳州路宜山路","lon":"121.42187","lat":"31.17534","category":"38","category_name":"公交车站","address":""},{"poiid":"B2094751D46AAAFA489B","title":"虹桥机场T2","lon":"121.424713","lat":"31.179031","category":"500","category_name":"未知分类","address":null},{"poiid":"B2094654DB65A5FA4092","title":"田林十村(柳州路)","lon":"121.42192","lat":"31.17498","category":"47","category_name":"住宅区","address":"徐汇区宜山路691弄(近宜山路地铁站)"},{"poiid":"B2094757DA65A5F4449F","title":"汉庭全季酒店（上海田林店）","lon":"121.4193964","lat":"31.175448494","category":"215","category_name":"三星级宾馆","address":"上海市徐汇区宜山路700号(近田林路)"},{"poiid":"B2094751D26BAAFC4793","title":"Laya Burger","lon":"121.425385","lat":"31.180466","category":"247","category_name":"餐饮美食","address":null},{"poiid":"B2094757D764A5F5409F","title":"长生源粥店 宜山路店","lon":"121.42461","lat":"31.17809","category":"68","category_name":"快餐厅","address":"徐汇区宜山路641号(近市六人民医院)"},{"poiid":"B2094655D26EA5FD429D","title":"花之林人文茶馆(田林店)","lon":"121.42397","lat":"31.17741","category":"66","category_name":"茶艺馆","address":"徐汇区宜山路669号"},{"poiid":"B2094757D568A6F84598","title":"沧浪亭市六医院店","lon":"121.4229431","lat":"31.17892389","category":"87","category_name":"特色／地方风味餐厅","address":"徐汇区宜山路600号市六医院(近钦州路)"},{"poiid":"B2094654D564A7F8409F","title":"东方幼儿园(上海市西南位育中学西南)","lon":"121.42378","lat":"31.1762","category":"57","category_name":"幼儿园","address":"徐汇区田林十四村27号(近宜山路)"},{"poiid":"B2094757D16AA7F94593","title":"三林塘菜馆","lon":"121.421371","lat":"31.175393","category":"247","category_name":"餐饮美食","address":"上海柳州路584号"},{"poiid":"B2094757D569A2FC419C","title":"味滋源宜山路店","lon":"121.4229431","lat":"31.17892389","category":"76","category_name":"上海菜","address":"徐汇区宜山路641号(近钦州路)"},{"poiid":"B2094757D16FA1FC409A","title":"上海市食品药品监督局","lon":"121.420798","lat":"31.179637","category":"500","category_name":"未知分类","address":"上海柳州路615号"},{"poiid":"B2094753D669A4F54392","title":"上海虹桥国际机场","lon":"121.424591","lat":"31.175897","category":"500","category_name":"未知分类","address":"上海市 上海市虹桥区"},{"poiid":"B2094757D568ABFD4592","title":"华京商务大厦","lon":"121.420963","lat":"31.18089654","category":"46","category_name":"楼宇","address":"上海市徐汇区钦州北路188号"},{"poiid":"B2094757D16DA2FC4199","title":"市六医院732路","lon":"121.422883","lat":"31.17896","category":"162","category_name":"医院","address":"上海第六人民医院宜山路"},{"poiid":"B2094654D564A7FD429A","title":"静安面包房华联专卖(宜山路)","lon":"121.42411","lat":"31.17771","category":"112","category_name":"糕饼店","address":"徐汇区宜山路665号(近华联超市)"},{"poiid":"B2094655D26DA7FE409F","title":"金丽广场小区(柳州路)","lon":"121.42074","lat":"31.17662","category":"47","category_name":"住宅区","address":"柳州路600弄137号"},{"poiid":"B2094654D564A7FC4699","title":"科健商务楼","lon":"121.42393","lat":"31.17826","category":"46","category_name":"楼宇","address":"宜山路608"},{"poiid":"B2094757D568AAF8469E","title":"田林十四村多层(南门)","lon":"121.4233438","lat":"31.17423276","category":"47","category_name":"住宅区","address":"中国上海市徐汇区"},{"poiid":"B2094654DB65A4F5409A","title":"上海市第六人民医院","lon":"121.42416","lat":"31.17854","category":"162","category_name":"医院","address":"徐汇区钦州北路133号第六人民医院住院部(近宜山路)"},{"poiid":"B2094655D26CABF54099","title":"神旺大酒店","lon":"121.42029","lat":"31.17613","category":"215","category_name":"三星级宾馆","address":"徐汇区宜山路650号(近柳州路)"},{"poiid":"B2094757D06FA3FF4398","title":"好乐迪量贩式KTV(田林店)","lon":"121.41871658","lat":"31.175177354","category":"170","category_name":"KTV","address":"徐汇区宜山路700号新宜街84幢4楼"},{"poiid":"B2094654D564A0F54798","title":"上海市第六人民医院住院部","lon":"121.42264","lat":"31.17899","category":"251","category_name":"出行住宿","address":"上海徐汇区钦州北路133号"},{"poiid":"B2094757D168AAF94499","title":"捞王 锅物料理","lon":"121.422751386","lat":"31.172621205","category":"86","category_name":"火锅店","address":"徐汇区柳州路545号(近田林东路)"},{"poiid":"B2094757D06FA6F84299","title":"三人行骨头王火锅(田林店)","lon":"121.42275","lat":"31.17367","category":"86","category_name":"火锅店","address":"徐汇区柳州路田林十三村5号(田林派出所对面)"},{"poiid":"B2094757D068A2F84393","title":"上海人家(徐汇店)","lon":"121.42376","lat":"31.17305","category":"76","category_name":"上海菜","address":"徐汇区柳州路531号(近田林东路)"},{"poiid":"B2094757D064AAF4429F","title":"上海市第六人民医院儿科急诊","lon":"121.423225938","lat":"31.1776702557","category":"162","category_name":"医院","address":"上海宜山路500号"},{"poiid":"B2094655D26EABFF4899","title":"上海第二医科大学市六临床医学院","lon":"121.4236","lat":"31.17909","category":"52","category_name":"高等院校","address":"徐汇区宜山路600"},{"poiid":"B2094654D564A7F84199","title":"上海市西南位育中学","lon":"121.42463","lat":"31.17729","category":"55","category_name":"中学","address":"徐汇区宜山路671号(近第六人民医院)"},{"poiid":"B2094757D06FA4F94399","title":"永和大王(宜山店)","lon":"121.424505","lat":"31.178279","category":"68","category_name":"快餐厅","address":"徐汇区宜山路637号(近市六医院)"},{"poiid":"B2094655D36CA1FD4993","title":"市六医院","lon":"121.42382","lat":"31.17768","category":"162","category_name":"医院","address":""},{"poiid":"B2094757D06FA3F84293","title":"上海市医疗急救中心","lon":"121.42219543","lat":"31.176525116","category":"162","category_name":"医院","address":"上海市徐汇区宜山路636号(近柳州路)"},{"poiid":"B2094654D56BAAFF499E","title":"浦原科技园","lon":"121.42460496969","lat":"31.174196043246","category":"45","category_name":"产业园区","address":"上海市徐汇区桂林路396号"},{"poiid":"B2094757D06FA7F5499E","title":"85度C(宜山店)","lon":"121.425654","lat":"31.180221","category":"112","category_name":"糕饼店","address":"徐汇区宜山路515号博库书城1楼(近中山西路)"},{"poiid":"B2094757D16BA5FC4098","title":"上海交通大学附属第六人民医院上海市糖尿病临床医学中心","lon":"121.421721586","lat":"31.1796084414","category":"162","category_name":"医院","address":"上海宜山路600号"},{"poiid":"B2094757D06AA3F84993","title":"宝燕一号","lon":"121.420493836","lat":"31.1756244136","category":"500","category_name":"未知分类","address":"上海宜山路700号84幢5楼"},{"poiid":"B2094655D36DA0FA4592","title":"宜山路市六医院","lon":"121.42305","lat":"31.17685","category":"162","category_name":"医院","address":""},{"poiid":"B2094751D36BA4FD459C","title":"上海交通大学医学院附属第六人民医院","lon":"121.4232271","lat":"31.1754075","category":"162","category_name":"医院","address":"宜山路600号"},{"poiid":"B2094757D06BA1F8409B","title":"潮品集","lon":"121.42081","lat":"31.1758","category":"72","category_name":"广东菜","address":"徐汇区宜山路650号神旺大酒店1楼(近柳州路)"},{"poiid":"B2094655D268A4FC4399","title":"汉庭快捷酒店上海宜山路店","lon":"121.42202","lat":"31.18059","category":"216","category_name":"经济型连锁酒店","address":"徐汇区钦州北路98号(市六医院对面)"},{"poiid":"B2094757D569A1FE4693","title":"欧记桂林米粉","lon":"121.423629","lat":"31.177","category":"68","category_name":"快餐厅","address":"徐汇区宜山路675号(六院急诊对面)"},{"poiid":"B2094757D065A1FA4398","title":"好樂迪","lon":"121.41850158","lat":"31.175576362","category":"500","category_name":"未知分类","address":"上海徐汇区宜山路700號"},{"poiid":"B2094654DB6BA7FB4293","title":"申德公寓","lon":"121.4218","lat":"31.176922","category":"47","category_name":"住宅区","address":"上海市徐汇区柳州路585号"},{"poiid":"B2094654DB6BA7FB479E","title":"心一代豆浆(宜山路)","lon":"121.4234","lat":"31.17697","category":"68","category_name":"快餐厅","address":"徐汇区宜山路675号(市六医院急诊处对面)"},{"poiid":"B2094757D16BA1FB489B","title":"世界茶饮","lon":"121.423911886","lat":"31.1777200045","category":"67","category_name":"甜品店","address":"上海宜山路"},{"poiid":"B2094751D268A0F54692","title":"青蛙老虎鱼","lon":"121.423164","lat":"31.17768","category":"71","category_name":"四川菜","address":"徐汇区宜山路643号(近钦州路)"},{"poiid":"B2094654D564A7F8409D","title":"兰州正宗牛肉拉面(上海市西南位育中学西)","lon":"121.42355","lat":"31.17704","category":"90","category_name":"清真餐馆","address":"宜山路673-2识别"},{"poiid":"B2094757D06BA5FB489B","title":"世纪大道二号线","lon":"121.422408586","lat":"31.1758893688","category":"500","category_name":"未知分类","address":"上海世纪大道"},{"poiid":"B2094757D064A4F4459A","title":"田林派出所","lon":"121.42239415","lat":"31.175819767","category":"609","category_name":"警察局","address":"上海田林14村120号"},{"poiid":"B2094757D465A1FA4499","title":"新亚大包 宜山店","lon":"121.42317742552","lat":"31.178025957083","category":"68","category_name":"快餐厅","address":"宜山路602号近钦州路近市六医院"},{"poiid":"B2094655D36CA1F8489D","title":"柳州路宜山路","lon":"121.42187","lat":"31.17534","category":"38","category_name":"公交车站","address":""},{"poiid":"B2094751D46AAAFA489B","title":"虹桥机场T2","lon":"121.424713","lat":"31.179031","category":"500","category_name":"未知分类","address":null},{"poiid":"B2094654DB65A5FA4092","title":"田林十村(柳州路)","lon":"121.42192","lat":"31.17498","category":"47","category_name":"住宅区","address":"徐汇区宜山路691弄(近宜山路地铁站)"},{"poiid":"B2094757DA65A5F4449F","title":"汉庭全季酒店（上海田林店）","lon":"121.4193964","lat":"31.175448494","category":"215","category_name":"三星级宾馆","address":"上海市徐汇区宜山路700号(近田林路)"},{"poiid":"B2094751D26BAAFC4793","title":"Laya Burger","lon":"121.425385","lat":"31.180466","category":"247","category_name":"餐饮美食","address":null},{"poiid":"B2094757D764A5F5409F","title":"长生源粥店 宜山路店","lon":"121.42461","lat":"31.17809","category":"68","category_name":"快餐厅","address":"徐汇区宜山路641号(近市六人民医院)"},{"poiid":"B2094655D26EA5FD429D","title":"花之林人文茶馆(田林店)","lon":"121.42397","lat":"31.17741","category":"66","category_name":"茶艺馆","address":"徐汇区宜山路669号"},{"poiid":"B2094757D568A6F84598","title":"沧浪亭市六医院店","lon":"121.4229431","lat":"31.17892389","category":"87","category_name":"特色／地方风味餐厅","address":"徐汇区宜山路600号市六医院(近钦州路)"},{"poiid":"B2094654D564A7F8409F","title":"东方幼儿园(上海市西南位育中学西南)","lon":"121.42378","lat":"31.1762","category":"57","category_name":"幼儿园","address":"徐汇区田林十四村27号(近宜山路)"},{"poiid":"B2094757D16AA7F94593","title":"三林塘菜馆","lon":"121.421371","lat":"31.175393","category":"247","category_name":"餐饮美食","address":"上海柳州路584号"},{"poiid":"B2094757D569A2FC419C","title":"味滋源宜山路店","lon":"121.4229431","lat":"31.17892389","category":"76","category_name":"上海菜","address":"徐汇区宜山路641号(近钦州路)"},{"poiid":"B2094757D16FA1FC409A","title":"上海市食品药品监督局","lon":"121.420798","lat":"31.179637","category":"500","category_name":"未知分类","address":"上海柳州路615号"},{"poiid":"B2094753D669A4F54392","title":"上海虹桥国际机场","lon":"121.424591","lat":"31.175897","category":"500","category_name":"未知分类","address":"上海市 上海市虹桥区"},{"poiid":"B2094757D568ABFD4592","title":"华京商务大厦","lon":"121.420963","lat":"31.18089654","category":"46","category_name":"楼宇","address":"上海市徐汇区钦州北路188号"},{"poiid":"B2094757D16DA2FC4199","title":"市六医院732路","lon":"121.422883","lat":"31.17896","category":"162","category_name":"医院","address":"上海第六人民医院宜山路"},{"poiid":"B2094654D564A7FD429A","title":"静安面包房华联专卖(宜山路)","lon":"121.42411","lat":"31.17771","category":"112","category_name":"糕饼店","address":"徐汇区宜山路665号(近华联超市)"},{"poiid":"B2094655D26DA7FE409F","title":"金丽广场小区(柳州路)","lon":"121.42074","lat":"31.17662","category":"47","category_name":"住宅区","address":"柳州路600弄137号"},{"poiid":"B2094654D564A7FC4699","title":"科健商务楼","lon":"121.42393","lat":"31.17826","category":"46","category_name":"楼宇","address":"宜山路608"},{"poiid":"B2094757D568AAF8469E","title":"田林十四村多层(南门)","lon":"121.4233438","lat":"31.17423276","category":"47","category_name":"住宅区","address":"中国上海市徐汇区"},{"poiid":"B2094654DB65A4F5409A","title":"上海市第六人民医院","lon":"121.42416","lat":"31.17854","category":"162","category_name":"医院","address":"徐汇区钦州北路133号第六人民医院住院部(近宜山路)"},{"poiid":"B2094655D26CABF54099","title":"神旺大酒店","lon":"121.42029","lat":"31.17613","category":"215","category_name":"三星级宾馆","address":"徐汇区宜山路650号(近柳州路)"},{"poiid":"B2094757D06FA3FF4398","title":"好乐迪量贩式KTV(田林店)","lon":"121.41871658","lat":"31.175177354","category":"170","category_name":"KTV","address":"徐汇区宜山路700号新宜街84幢4楼"},{"poiid":"B2094654D564A0F54798","title":"上海市第六人民医院住院部","lon":"121.42264","lat":"31.17899","category":"251","category_name":"出行住宿","address":"上海徐汇区钦州北路133号"},{"poiid":"B2094757D168AAF94499","title":"捞王 锅物料理","lon":"121.422751386","lat":"31.172621205","category":"86","category_name":"火锅店","address":"徐汇区柳州路545号(近田林东路)"},{"poiid":"B2094757D06FA6F84299","title":"三人行骨头王火锅(田林店)","lon":"121.42275","lat":"31.17367","category":"86","category_name":"火锅店","address":"徐汇区柳州路田林十三村5号(田林派出所对面)"},{"poiid":"B2094757D068A2F84393","title":"上海人家(徐汇店)","lon":"121.42376","lat":"31.17305","category":"76","category_name":"上海菜","address":"徐汇区柳州路531号(近田林东路)"},{"poiid":"B2094757D064AAF4429F","title":"上海市第六人民医院儿科急诊","lon":"121.423225938","lat":"31.1776702557","category":"162","category_name":"医院","address":"上海宜山路500号"},{"poiid":"B2094655D26EABFF4899","title":"上海第二医科大学市六临床医学院","lon":"121.4236","lat":"31.17909","category":"52","category_name":"高等院校","address":"徐汇区宜山路600"},{"poiid":"B2094654D564A7F84199","title":"上海市西南位育中学","lon":"121.42463","lat":"31.17729","category":"55","category_name":"中学","address":"徐汇区宜山路671号(近第六人民医院)"},{"poiid":"B2094757D06FA4F94399","title":"永和大王(宜山店)","lon":"121.424505","lat":"31.178279","category":"68","category_name":"快餐厅","address":"徐汇区宜山路637号(近市六医院)"},{"poiid":"B2094655D36CA1FD4993","title":"市六医院","lon":"121.42382","lat":"31.17768","category":"162","category_name":"医院","address":""},{"poiid":"B2094757D06FA3F84293","title":"上海市医疗急救中心","lon":"121.42219543","lat":"31.176525116","category":"162","category_name":"医院","address":"上海市徐汇区宜山路636号(近柳州路)"},{"poiid":"B2094654D56BAAFF499E","title":"浦原科技园","lon":"121.42460496969","lat":"31.174196043246","category":"45","category_name":"产业园区","address":"上海市徐汇区桂林路396号"},{"poiid":"B2094757D06FA7F5499E","title":"85度C(宜山店)","lon":"121.425654","lat":"31.180221","category":"112","category_name":"糕饼店","address":"徐汇区宜山路515号博库书城1楼(近中山西路)"},{"poiid":"B2094757D16BA5FC4098","title":"上海交通大学附属第六人民医院上海市糖尿病临床医学中心","lon":"121.421721586","lat":"31.1796084414","category":"162","category_name":"医院","address":"上海宜山路600号"},{"poiid":"B2094757D06AA3F84993","title":"宝燕一号","lon":"121.420493836","lat":"31.1756244136","category":"500","category_name":"未知分类","address":"上海宜山路700号84幢5楼"},{"poiid":"B2094655D36DA0FA4592","title":"宜山路市六医院","lon":"121.42305","lat":"31.17685","category":"162","category_name":"医院","address":""},{"poiid":"B2094751D36BA4FD459C","title":"上海交通大学医学院附属第六人民医院","lon":"121.4232271","lat":"31.1754075","category":"162","category_name":"医院","address":"宜山路600号"},{"poiid":"B2094757D06BA1F8409B","title":"潮品集","lon":"121.42081","lat":"31.1758","category":"72","category_name":"广东菜","address":"徐汇区宜山路650号神旺大酒店1楼(近柳州路)"},{"poiid":"B2094655D268A4FC4399","title":"汉庭快捷酒店上海宜山路店","lon":"121.42202","lat":"31.18059","category":"216","category_name":"经济型连锁酒店","address":"徐汇区钦州北路98号(市六医院对面)"},{"poiid":"B2094757D569A1FE4693","title":"欧记桂林米粉","lon":"121.423629","lat":"31.177","category":"68","category_name":"快餐厅","address":"徐汇区宜山路675号(六院急诊对面)"},{"poiid":"B2094757D065A1FA4398","title":"好樂迪","lon":"121.41850158","lat":"31.175576362","category":"500","category_name":"未知分类","address":"上海徐汇区宜山路700號"},{"poiid":"B2094654DB6BA7FB4293","title":"申德公寓","lon":"121.4218","lat":"31.176922","category":"47","category_name":"住宅区","address":"上海市徐汇区柳州路585号"},{"poiid":"B2094654DB6BA7FB479E","title":"心一代豆浆(宜山路)","lon":"121.4234","lat":"31.17697","category":"68","category_name":"快餐厅","address":"徐汇区宜山路675号(市六医院急诊处对面)"},{"poiid":"B2094757D16BA1FB489B","title":"世界茶饮","lon":"121.423911886","lat":"31.1777200045","category":"67","category_name":"甜品店","address":"上海宜山路"},{"poiid":"B2094751D268A0F54692","title":"青蛙老虎鱼","lon":"121.423164","lat":"31.17768","category":"71","category_name":"四川菜","address":"徐汇区宜山路643号(近钦州路)"},{"poiid":"B2094654D564A7F8409D","title":"兰州正宗牛肉拉面(上海市西南位育中学西)","lon":"121.42355","lat":"31.17704","category":"90","category_name":"清真餐馆","address":"宜山路673-2识别"},{"poiid":"B2094757D06BA5FB489B","title":"世纪大道二号线","lon":"121.422408586","lat":"31.1758893688","category":"500","category_name":"未知分类","address":"上海世纪大道"},{"poiid":"B2094757D064A4F4459A","title":"田林派出所","lon":"121.42239415","lat":"31.175819767","category":"609","category_name":"警察局","address":"上海田林14村120号"},{"poiid":"B2094757D465A1FA4499","title":"新亚大包 宜山店","lon":"121.42317742552","lat":"31.178025957083","category":"68","category_name":"快餐厅","address":"宜山路602号近钦州路近市六医院"},{"poiid":"B2094655D36CA1F8489D","title":"柳州路宜山路","lon":"121.42187","lat":"31.17534","category":"38","category_name":"公交车站","address":""},{"poiid":"B2094751D46AAAFA489B","title":"虹桥机场T2","lon":"121.424713","lat":"31.179031","category":"500","category_name":"未知分类","address":null},{"poiid":"B2094654DB65A5FA4092","title":"田林十村(柳州路)","lon":"121.42192","lat":"31.17498","category":"47","category_name":"住宅区","address":"徐汇区宜山路691弄(近宜山路地铁站)"},{"poiid":"B2094757DA65A5F4449F","title":"汉庭全季酒店（上海田林店）","lon":"121.4193964","lat":"31.175448494","category":"215","category_name":"三星级宾馆","address":"上海市徐汇区宜山路700号(近田林路)"},{"poiid":"B2094751D26BAAFC4793","title":"Laya Burger","lon":"121.425385","lat":"31.180466","category":"247","category_name":"餐饮美食","address":null},{"poiid":"B2094757D764A5F5409F","title":"长生源粥店 宜山路店","lon":"121.42461","lat":"31.17809","category":"68","category_name":"快餐厅","address":"徐汇区宜山路641号(近市六人民医院)"},{"poiid":"B2094655D26EA5FD429D","title":"花之林人文茶馆(田林店)","lon":"121.42397","lat":"31.17741","category":"66","category_name":"茶艺馆","address":"徐汇区宜山路669号"},{"poiid":"B2094757D568A6F84598","title":"沧浪亭市六医院店","lon":"121.4229431","lat":"31.17892389","category":"87","category_name":"特色／地方风味餐厅","address":"徐汇区宜山路600号市六医院(近钦州路)"},{"poiid":"B2094654D564A7F8409F","title":"东方幼儿园(上海市西南位育中学西南)","lon":"121.42378","lat":"31.1762","category":"57","category_name":"幼儿园","address":"徐汇区田林十四村27号(近宜山路)"},{"poiid":"B2094757D16AA7F94593","title":"三林塘菜馆","lon":"121.421371","lat":"31.175393","category":"247","category_name":"餐饮美食","address":"上海柳州路584号"},{"poiid":"B2094757D569A2FC419C","title":"味滋源宜山路店","lon":"121.4229431","lat":"31.17892389","category":"76","category_name":"上海菜","address":"徐汇区宜山路641号(近钦州路)"},{"poiid":"B2094757D16FA1FC409A","title":"上海市食品药品监督局","lon":"121.420798","lat":"31.179637","category":"500","category_name":"未知分类","address":"上海柳州路615号"},{"poiid":"B2094753D669A4F54392","title":"上海虹桥国际机场","lon":"121.424591","lat":"31.175897","category":"500","category_name":"未知分类","address":"上海市 上海市虹桥区"},{"poiid":"B2094757D568ABFD4592","title":"华京商务大厦","lon":"121.420963","lat":"31.18089654","category":"46","category_name":"楼宇","address":"上海市徐汇区钦州北路188号"},{"poiid":"B2094757D16DA2FC4199","title":"市六医院732路","lon":"121.422883","lat":"31.17896","category":"162","category_name":"医院","address":"上海第六人民医院宜山路"},{"poiid":"B2094654D564A7FD429A","title":"静安面包房华联专卖(宜山路)","lon":"121.42411","lat":"31.17771","category":"112","category_name":"糕饼店","address":"徐汇区宜山路665号(近华联超市)"},{"poiid":"B2094655D26DA7FE409F","title":"金丽广场小区(柳州路)","lon":"121.42074","lat":"31.17662","category":"47","category_name":"住宅区","address":"柳州路600弄137号"},{"poiid":"B2094654D564A7FC4699","title":"科健商务楼","lon":"121.42393","lat":"31.17826","category":"46","category_name":"楼宇","address":"宜山路608"},{"poiid":"B2094757D568AAF8469E","title":"田林十四村多层(南门)","lon":"121.4233438","lat":"31.17423276","category":"47","category_name":"住宅区","address":"中国上海市徐汇区"},{"poiid":"B2094654DB65A4F5409A","title":"上海市第六人民医院","lon":"121.42416","lat":"31.17854","category":"162","category_name":"医院","address":"徐汇区钦州北路133号第六人民医院住院部(近宜山路)"},{"poiid":"B2094655D26CABF54099","title":"神旺大酒店","lon":"121.42029","lat":"31.17613","category":"215","category_name":"三星级宾馆","address":"徐汇区宜山路650号(近柳州路)"},{"poiid":"B2094757D06FA3FF4398","title":"好乐迪量贩式KTV(田林店)","lon":"121.41871658","lat":"31.175177354","category":"170","category_name":"KTV","address":"徐汇区宜山路700号新宜街84幢4楼"},{"poiid":"B2094654D564A0F54798","title":"上海市第六人民医院住院部","lon":"121.42264","lat":"31.17899","category":"251","category_name":"出行住宿","address":"上海徐汇区钦州北路133号"},{"poiid":"B2094757D168AAF94499","title":"捞王 锅物料理","lon":"121.422751386","lat":"31.172621205","category":"86","category_name":"火锅店","address":"徐汇区柳州路545号(近田林东路)"},{"poiid":"B2094757D06FA6F84299","title":"三人行骨头王火锅(田林店)","lon":"121.42275","lat":"31.17367","category":"86","category_name":"火锅店","address":"徐汇区柳州路田林十三村5号(田林派出所对面)"},{"poiid":"B2094757D068A2F84393","title":"上海人家(徐汇店)","lon":"121.42376","lat":"31.17305","category":"76","category_name":"上海菜","address":"徐汇区柳州路531号(近田林东路)"},{"poiid":"B2094757D064AAF4429F","title":"上海市第六人民医院儿科急诊","lon":"121.423225938","lat":"31.1776702557","category":"162","category_name":"医院","address":"上海宜山路500号"},{"poiid":"B2094655D26EABFF4899","title":"上海第二医科大学市六临床医学院","lon":"121.4236","lat":"31.17909","category":"52","category_name":"高等院校","address":"徐汇区宜山路600"},{"poiid":"B2094654D564A7F84199","title":"上海市西南位育中学","lon":"121.42463","lat":"31.17729","category":"55","category_name":"中学","address":"徐汇区宜山路671号(近第六人民医院)"},{"poiid":"B2094757D06FA4F94399","title":"永和大王(宜山店)","lon":"121.424505","lat":"31.178279","category":"68","category_name":"快餐厅","address":"徐汇区宜山路637号(近市六医院)"},{"poiid":"B2094655D36CA1FD4993","title":"市六医院","lon":"121.42382","lat":"31.17768","category":"162","category_name":"医院","address":""},{"poiid":"B2094757D06FA3F84293","title":"上海市医疗急救中心","lon":"121.42219543","lat":"31.176525116","category":"162","category_name":"医院","address":"上海市徐汇区宜山路636号(近柳州路)"},{"poiid":"B2094654D56BAAFF499E","title":"浦原科技园","lon":"121.42460496969","lat":"31.174196043246","category":"45","category_name":"产业园区","address":"上海市徐汇区桂林路396号"},{"poiid":"B2094757D06FA7F5499E","title":"85度C(宜山店)","lon":"121.425654","lat":"31.180221","category":"112","category_name":"糕饼店","address":"徐汇区宜山路515号博库书城1楼(近中山西路)"},{"poiid":"B2094757D16BA5FC4098","title":"上海交通大学附属第六人民医院上海市糖尿病临床医学中心","lon":"121.421721586","lat":"31.1796084414","category":"162","category_name":"医院","address":"上海宜山路600号"},{"poiid":"B2094757D06AA3F84993","title":"宝燕一号","lon":"121.420493836","lat":"31.1756244136","category":"500","category_name":"未知分类","address":"上海宜山路700号84幢5楼"},{"poiid":"B2094655D36DA0FA4592","title":"宜山路市六医院","lon":"121.42305","lat":"31.17685","category":"162","category_name":"医院","address":""},{"poiid":"B2094751D36BA4FD459C","title":"上海交通大学医学院附属第六人民医院","lon":"121.4232271","lat":"31.1754075","category":"162","category_name":"医院","address":"宜山路600号"},{"poiid":"B2094757D06BA1F8409B","title":"潮品集","lon":"121.42081","lat":"31.1758","category":"72","category_name":"广东菜","address":"徐汇区宜山路650号神旺大酒店1楼(近柳州路)"},{"poiid":"B2094655D268A4FC4399","title":"汉庭快捷酒店上海宜山路店","lon":"121.42202","lat":"31.18059","category":"216","category_name":"经济型连锁酒店","address":"徐汇区钦州北路98号(市六医院对面)"},{"poiid":"B2094757D569A1FE4693","title":"欧记桂林米粉","lon":"121.423629","lat":"31.177","category":"68","category_name":"快餐厅","address":"徐汇区宜山路675号(六院急诊对面)"},{"poiid":"B2094757D065A1FA4398","title":"好樂迪","lon":"121.41850158","lat":"31.175576362","category":"500","category_name":"未知分类","address":"上海徐汇区宜山路700號"},{"poiid":"B2094654DB6BA7FB4293","title":"申德公寓","lon":"121.4218","lat":"31.176922","category":"47","category_name":"住宅区","address":"上海市徐汇区柳州路585号"},{"poiid":"B2094654DB6BA7FB479E","title":"心一代豆浆(宜山路)","lon":"121.4234","lat":"31.17697","category":"68","category_name":"快餐厅","address":"徐汇区宜山路675号(市六医院急诊处对面)"},{"poiid":"B2094757D16BA1FB489B","title":"世界茶饮","lon":"121.423911886","lat":"31.1777200045","category":"67","category_name":"甜品店","address":"上海宜山路"},{"poiid":"B2094751D268A0F54692","title":"青蛙老虎鱼","lon":"121.423164","lat":"31.17768","category":"71","category_name":"四川菜","address":"徐汇区宜山路643号(近钦州路)"},{"poiid":"B2094654D564A7F8409D","title":"兰州正宗牛肉拉面(上海市西南位育中学西)","lon":"121.42355","lat":"31.17704","category":"90","category_name":"清真餐馆","address":"宜山路673-2识别"},{"poiid":"B2094757D06BA5FB489B","title":"世纪大道二号线","lon":"121.422408586","lat":"31.1758893688","category":"500","category_name":"未知分类","address":"上海世纪大道"},{"poiid":"B2094757D064A4F4459A","title":"田林派出所","lon":"121.42239415","lat":"31.175819767","category":"609","category_name":"警察局","address":"上海田林14村120号"},{"poiid":"B2094757D465A1FA4499","title":"新亚大包 宜山店","lon":"121.42317742552","lat":"31.178025957083","category":"68","category_name":"快餐厅","address":"宜山路602号近钦州路近市六医院"},{"poiid":"B2094655D36CA1F8489D","title":"柳州路宜山路","lon":"121.42187","lat":"31.17534","category":"38","category_name":"公交车站","address":""},{"poiid":"B2094751D46AAAFA489B","title":"虹桥机场T2","lon":"121.424713","lat":"31.179031","category":"500","category_name":"未知分类","address":null},{"poiid":"B2094654DB65A5FA4092","title":"田林十村(柳州路)","lon":"121.42192","lat":"31.17498","category":"47","category_name":"住宅区","address":"徐汇区宜山路691弄(近宜山路地铁站)"},{"poiid":"B2094757DA65A5F4449F","title":"汉庭全季酒店（上海田林店）","lon":"121.4193964","lat":"31.175448494","category":"215","category_name":"三星级宾馆","address":"上海市徐汇区宜山路700号(近田林路)"},{"poiid":"B2094751D26BAAFC4793","title":"Laya Burger","lon":"121.425385","lat":"31.180466","category":"247","category_name":"餐饮美食","address":null},{"poiid":"B2094757D764A5F5409F","title":"长生源粥店 宜山路店","lon":"121.42461","lat":"31.17809","category":"68","category_name":"快餐厅","address":"徐汇区宜山路641号(近市六人民医院)"},{"poiid":"B2094655D26EA5FD429D","title":"花之林人文茶馆(田林店)","lon":"121.42397","lat":"31.17741","category":"66","category_name":"茶艺馆","address":"徐汇区宜山路669号"},{"poiid":"B2094757D568A6F84598","title":"沧浪亭市六医院店","lon":"121.4229431","lat":"31.17892389","category":"87","category_name":"特色／地方风味餐厅","address":"徐汇区宜山路600号市六医院(近钦州路)"},{"poiid":"B2094654D564A7F8409F","title":"东方幼儿园(上海市西南位育中学西南)","lon":"121.42378","lat":"31.1762","category":"57","category_name":"幼儿园","address":"徐汇区田林十四村27号(近宜山路)"},{"poiid":"B2094757D16AA7F94593","title":"三林塘菜馆","lon":"121.421371","lat":"31.175393","category":"247","category_name":"餐饮美食","address":"上海柳州路584号"},{"poiid":"B2094757D569A2FC419C","title":"味滋源宜山路店","lon":"121.4229431","lat":"31.17892389","category":"76","category_name":"上海菜","address":"徐汇区宜山路641号(近钦州路)"},{"poiid":"B2094757D16FA1FC409A","title":"上海市食品药品监督局","lon":"121.420798","lat":"31.179637","category":"500","category_name":"未知分类","address":"上海柳州路615号"},{"poiid":"B2094753D669A4F54392","title":"上海虹桥国际机场","lon":"121.424591","lat":"31.175897","category":"500","category_name":"未知分类","address":"上海市 上海市虹桥区"},{"poiid":"B2094757D568ABFD4592","title":"华京商务大厦","lon":"121.420963","lat":"31.18089654","category":"46","category_name":"楼宇","address":"上海市徐汇区钦州北路188号"},{"poiid":"B2094757D16DA2FC4199","title":"市六医院732路","lon":"121.422883","lat":"31.17896","category":"162","category_name":"医院","address":"上海第六人民医院宜山路"},{"poiid":"B2094654D564A7FD429A","title":"静安面包房华联专卖(宜山路)","lon":"121.42411","lat":"31.17771","category":"112","category_name":"糕饼店","address":"徐汇区宜山路665号(近华联超市)"},{"poiid":"B2094655D26DA7FE409F","title":"金丽广场小区(柳州路)","lon":"121.42074","lat":"31.17662","category":"47","category_name":"住宅区","address":"柳州路600弄137号"},{"poiid":"B2094654D564A7FC4699","title":"科健商务楼","lon":"121.42393","lat":"31.17826","category":"46","category_name":"楼宇","address":"宜山路608"},{"poiid":"B2094757D568AAF8469E","title":"田林十四村多层(南门)","lon":"121.4233438","lat":"31.17423276","category":"47","category_name":"住宅区","address":"中国上海市徐汇区"}]