[{"poiid":"B2094757D06FA2FB459F","title":"小肥羊(成山路店)","lon":"121.50605","lat":"31.17167","category":"86","category_name":"火锅店","address":"浦东新区成山路436号2楼(近云台路)"},{"poiid":"B2094757D06FA0FF419A","title":"浦东商场(成山店)","lon":"121.510218","lat":"31.170567","category":"119","category_name":"商场","address":"浦东新区成山路500号(近云台路)"},{"poiid":"B2094757D06FA2FF499A","title":"东明路地铁站","lon":"121.51076256","lat":"31.172632523","category":"36","category_name":"地铁站","address":"上海轨道交通 六号线 轨交东明路站 6"},{"poiid":"B2094757D06FA1F9469B","title":"DQ冰雪皇后(成山店)","lon":"121.507459","lat":"31.172098","category":"113","category_name":"冷饮店","address":"上海浦东新区锦尊路521号（近巴黎春天百货）"},{"poiid":"B2094757D06FABFF499A","title":"巴贝拉(成山路店)","lon":"121.50586","lat":"31.172","category":"94","category_name":"西餐厅","address":"浦东新区成山路436号3楼(近云台路)"},{"poiid":"B2094654DB69A5FF489A","title":"味千拉面(成山路店)","lon":"121.50584","lat":"31.17199","category":"95","category_name":"日本料理","address":"浦东新区成山路436号(近云台路)"},{"poiid":"B2094757D06FA4FE4899","title":"跃民海鲜船菜(成山路店)","lon":"121.50296","lat":"31.17199","category":"260","category_name":"其他","address":"浦东新区成山路345号(近洪山路)"},{"poiid":"B2094757D465A1F5489C","title":"肯德基 成山路店 KFC","lon":"121.507720054","lat":"31.172257793","category":"247","category_name":"餐饮美食","address":"浦东新区成山路432号(近云台路)"},{"poiid":"B2094757D069A5F5459B","title":"巴黎贝甜(成山店)","lon":"121.506628","lat":"31.172058","category":"67","category_name":"甜品店","address":"浦东新区成山路472号(近世纪联华)"},{"poiid":"B2094654DA69A3FA439E","title":"世纪联华(成山路)","lon":"121.50702","lat":"31.17208","category":"118","category_name":"超级市场","address":"浦东新区成山路480号(近云台路)"},{"poiid":"B2094655D26BA4FC4598","title":"格林豪泰酒店上海成山路店","lon":"121.50828","lat":"31.17208","category":"216","category_name":"经济型连锁酒店","address":"浦东新区成山路558-1号(东明路口)"},{"poiid":"B2094655D26DABFA4492","title":"上海浦东华美达花廷酒店","lon":"121.51438","lat":"31.17331","category":"250","category_name":"公园户外","address":"浦东新区成山路833号(近杨高南路)"},{"poiid":"B2094750D56FAAFD449D","title":"DQ冰雪皇后(浦东商场店)","lon":"121.507","lat":"31.1719","category":"113","category_name":"冷饮店","address":"浦东新区成山路500号浦东商场1楼(近云台路)"},{"poiid":"B2094750DB6CA2F44398","title":"鲜芋仙浦东成山店","lon":"121.505157","lat":"31.173311","category":"67","category_name":"甜品店","address":"浦东新区成山路462号浦东商场1楼A区(近云台路)"},{"poiid":"B2094757D16FA7FD489E","title":"浦东新区周家渡地段医院","lon":"121.508960738","lat":"31.1768931643","category":"162","category_name":"医院","address":"上海浦东新"},{"poiid":"B2094750DA64ABFF429C","title":"博宽羽毛球--杨思分部","lon":"121.51007","lat":"31.164768","category":"248","category_name":"生活娱乐","address":"浦东新区杨思路1371号(近东明路)"},{"poiid":"B2094757D069A3F84798","title":"四海游龙(成山路店)","lon":"121.50565","lat":"31.17149","category":"257","category_name":"中餐厅","address":"浦东新区成山路411号(云台路口)"},{"poiid":"B2094757D06BABF54493","title":"川新小区","lon":"121.509934","lat":"31.172234","category":"47","category_name":"住宅区","address":"上海成山路云莲路"},{"poiid":"B2094654DA6AA2F8409E","title":"云台二小区","lon":"121.50871","lat":"31.1753","category":"47","category_name":"住宅区","address":"昌里东路190弄1-36号"},{"poiid":"B2094655D26FA5FC409D","title":"恒大星级公寓(正门)","lon":"121.51098","lat":"31.1709","category":"47","category_name":"住宅区","address":"成山路668弄21-23、35-58号、648弄25-32号"},{"poiid":"B2094655D268A6F8499E","title":"周家渡川新小区","lon":"121.50862","lat":"31.17101","category":"47","category_name":"住宅区","address":"成山路544弄52支弄1-29号"},{"poiid":"B2094655D26DA7F8479E","title":"爵仕悦","lon":"121.513","lat":"31.1754","category":"47","category_name":"住宅区","address":"云台路529弄1-15号"},{"poiid":"B2094654DA6AA2F8449A","title":"颐品居(成山路)","lon":"121.50611","lat":"31.17247","category":"86","category_name":"火锅店","address":"浦东新区成山路439号(近云台路)"},{"poiid":"B2094654DA69A3FA419E","title":"成山小区","lon":"121.51216","lat":"31.171597","category":"47","category_name":"住宅区","address":"成山路668弄1-20,25-30"},{"poiid":"B2094757D169A7FD4099","title":"渔盛家宴","lon":"121.50596","lat":"31.17055","category":"76","category_name":"上海菜","address":"浦东新区云台路501号(近成山路)"},{"poiid":"B2094654DB6BABF54793","title":"上岛咖啡 成山路店 UBC Coffee","lon":"121.504735054","lat":"31.172151793","category":"260","category_name":"其他","address":"浦东新区成山路436号2楼(近云台路)"},{"poiid":"B2094757D169A1F94799","title":"金记麻辣烫","lon":"121.5102444","lat":"31.172370764","category":"68","category_name":"快餐厅","address":"浦东新区成山路608弄42支弄8号(近云莲路)"},{"poiid":"B2094757D16EA2FE4099","title":"恒大星级公寓","lon":"121.51075","lat":"31.169821","category":"500","category_name":"未知分类","address":"上海市长宁区延安西路1235弄"},{"poiid":"B2094757D06BA0FB469B","title":"成山路608弄","lon":"121.509734738","lat":"31.1696820109","category":"500","category_name":"未知分类","address":"上海市浦东新区云台路"},{"poiid":"B2094655D265A1FF419B","title":"喜士多便利(成山店)","lon":"121.50864","lat":"31.16958","category":"117","category_name":"便民商店/便利店","address":"浦东新区成山路588弄3号(成山路东明路)"},{"poiid":"B2094750D665A0F4409F","title":"千岛湖老淳野生鱼庄","lon":"121.506","lat":"31.1725","category":"87","category_name":"特色／地方风味餐厅","address":"浦东新区成山路419号(近云台路)"},{"poiid":"B2094654DA6AA2F8419E","title":"新亚大包 昌里店","lon":"121.509641054","lat":"31.175951793","category":"68","category_name":"快餐厅","address":"浦东新区东明路1096号(昌里东路口)"},{"poiid":"B2094654DA69A3FA4099","title":"秀博造型沙龙","lon":"121.50842","lat":"31.17109","category":"148","category_name":"美容美发店","address":""},{"poiid":"B2094757D465A4FC4699","title":"重庆鸡公煲 成山店","lon":"121.505971054","lat":"31.172516793","category":"71","category_name":"四川菜","address":"浦东新区成山路423号(近云台路)"},{"poiid":"B2094655D26FAAF94699","title":"浦东交警支队事故科东明事故受理点","lon":"121.50996","lat":"31.1744","category":"250","category_name":"公园户外","address":""},{"poiid":"B2094655D265A1F94592","title":"云台路商品住宅","lon":"121.50709","lat":"31.16869","category":"47","category_name":"住宅区","address":"云台路529弄"},{"poiid":"B2094654DA69A3FA409F","title":"苏雨美容美发规划店","lon":"121.50843","lat":"31.17105","category":"148","category_name":"美容美发店","address":""},{"poiid":"B2094757D064A6FB449B","title":"旺佳宠物诊所","lon":"121.50292214","lat":"31.172073596","category":"668","category_name":"诊所","address":"上海市浦东新区成山路365号"},{"poiid":"B2094654DB6BABF54798","title":"爵仕悦恒大国际公寓(西一号门)","lon":"121.5064","lat":"31.16894","category":"47","category_name":"住宅区","address":"上海市浦东新区云台路529弄"},{"poiid":"B2094655D26AA0F9489B","title":"地铁东明路站","lon":"121.51071","lat":"31.17265","category":"36","category_name":"地铁站","address":""},{"poiid":"B2094655D36CA5FF4093","title":"成山路东明路","lon":"121.5112","lat":"31.17274","category":"38","category_name":"公交车站","address":""},{"poiid":"B2094655D26FAAF9489C","title":"川新小区(东门)","lon":"121.51091","lat":"31.17111","category":"47","category_name":"住宅区","address":""},{"poiid":"B2094654DA6AA2F54393","title":"昌七小区(边门)","lon":"121.51373","lat":"31.17472","category":"47","category_name":"住宅区","address":"南码头路1675弄"},{"poiid":"B2094654DA69A3F94892","title":"展峰大楼","lon":"121.50853","lat":"31.17214","category":"47","category_name":"住宅区","address":"成山路558"},{"poiid":"B2094654DB64A3F8419C","title":"云二小区(南门)","lon":"121.50898","lat":"31.17275","category":"47","category_name":"住宅区","address":"成山路601弄1-25号"},{"poiid":"B2094757D068A4F5489F","title":"屈臣氏(成山店)","lon":"121.507462508","lat":"31.171992121","category":"122","category_name":"个人用品/化妆品店","address":"浦东新区成山路500号浦东商场1楼(近云台路)"},{"poiid":"B2094655D268A6F84999","title":"爵仕悦(南门)","lon":"121.50781","lat":"31.16875","category":"47","category_name":"住宅区","address":"云台路529弄"},{"poiid":"B2094655D268A6F54892","title":"川新小区(北一号门)","lon":"121.50993","lat":"31.17224","category":"47","category_name":"住宅区","address":""},{"poiid":"B2094757D069A1FB4393","title":"周家渡派出所","lon":"121.50838473","lat":"31.176638158","category":"609","category_name":"警察局","address":"昌里东路185号-1"},{"poiid":"B2094655D36CA5FE4993","title":"成山路云台路","lon":"121.506","lat":"31.17236","category":"38","category_name":"公交车站","address":""},{"poiid":"B2094757D06FA2FB459F","title":"小肥羊(成山路店)","lon":"121.50605","lat":"31.17167","category":"86","category_name":"火锅店","address":"浦东新区成山路436号2楼(近云台路)"},{"poiid":"B2094757D06FA0FF419A","title":"浦东商场(成山店)","lon":"121.510218","lat":"31.170567","category":"119","category_name":"商场","address":"浦东新区成山路500号(近云台路)"},{"poiid":"B2094757D06FA2FF499A","title":"东明路地铁站","lon":"121.51076256","lat":"31.172632523","category":"36","category_name":"地铁站","address":"上海轨道交通 六号线 轨交东明路站 6"},{"poiid":"B2094757D06FA1F9469B","title":"DQ冰雪皇后(成山店)","lon":"121.507459","lat":"31.172098","category":"113","category_name":"冷饮店","address":"上海浦东新区锦尊路521号（近巴黎春天百货）"},{"poiid":"B2094757D06FABFF499A","title":"巴贝拉(成山路店)","lon":"121.50586","lat":"31.172","category":"94","category_name":"西餐厅","address":"浦东新区成山路436号3楼(近云台路)"},{"poiid":"B2094654DB69A5FF489A","title":"味千拉面(成山路店)","lon":"121.50584","lat":"31.17199","category":"95","category_name":"日本料理","address":"浦东新区成山路436号(近云台路)"},{"poiid":"B2094757D06FA4FE4899","title":"跃民海鲜船菜(成山路店)","lon":"121.50296","lat":"31.17199","category":"260","category_name":"其他","address":"浦东新区成山路345号(近洪山路)"},{"poiid":"B2094757D465A1F5489C","title":"肯德基 成山路店 KFC","lon":"121.507720054","lat":"31.172257793","category":"247","category_name":"餐饮美食","address":"浦东新区成山路432号(近云台路)"},{"poiid":"B2094757D069A5F5459B","title":"巴黎贝甜(成山店)","lon":"121.506628","lat":"31.172058","category":"67","category_name":"甜品店","address":"浦东新区成山路472号(近世纪联华)"},{"poiid":"B2094654DA69A3FA439E","title":"世纪联华(成山路)","lon":"121.50702","lat":"31.17208","category":"118","category_name":"超级市场","address":"浦东新区成山路480号(近云台路)"},{"poiid":"B2094655D26BA4FC4598","title":"格林豪泰酒店上海成山路店","lon":"121.50828","lat":"31.17208","category":"216","category_name":"经济型连锁酒店","address":"浦东新区成山路558-1号(东明路口)"},{"poiid":"B2094655D26DABFA4492","title":"上海浦东华美达花廷酒店","lon":"121.51438","lat":"31.17331","category":"250","category_name":"公园户外","address":"浦东新区成山路833号(近杨高南路)"},{"poiid":"B2094750D56FAAFD449D","title":"DQ冰雪皇后(浦东商场店)","lon":"121.507","lat":"31.1719","category":"113","category_name":"冷饮店","address":"浦东新区成山路500号浦东商场1楼(近云台路)"},{"poiid":"B2094750DB6CA2F44398","title":"鲜芋仙浦东成山店","lon":"121.505157","lat":"31.173311","category":"67","category_name":"甜品店","address":"浦东新区成山路462号浦东商场1楼A区(近云台路)"},{"poiid":"B2094757D16FA7FD489E","title":"浦东新区周家渡地段医院","lon":"121.508960738","lat":"31.1768931643","category":"162","category_name":"医院","address":"上海浦东新"},{"poiid":"B2094750DA64ABFF429C","title":"博宽羽毛球--杨思分部","lon":"121.51007","lat":"31.164768","category":"248","category_name":"生活娱乐","address":"浦东新区杨思路1371号(近东明路)"},{"poiid":"B2094757D069A3F84798","title":"四海游龙(成山路店)","lon":"121.50565","lat":"31.17149","category":"257","category_name":"中餐厅","address":"浦东新区成山路411号(云台路口)"},{"poiid":"B2094757D06BABF54493","title":"川新小区","lon":"121.509934","lat":"31.172234","category":"47","category_name":"住宅区","address":"上海成山路云莲路"},{"poiid":"B2094654DA6AA2F8409E","title":"云台二小区","lon":"121.50871","lat":"31.1753","category":"47","category_name":"住宅区","address":"昌里东路190弄1-36号"},{"poiid":"B2094655D26FA5FC409D","title":"恒大星级公寓(正门)","lon":"121.51098","lat":"31.1709","category":"47","category_name":"住宅区","address":"成山路668弄21-23、35-58号、648弄25-32号"},{"poiid":"B2094655D268A6F8499E","title":"周家渡川新小区","lon":"121.50862","lat":"31.17101","category":"47","category_name":"住宅区","address":"成山路544弄52支弄1-29号"},{"poiid":"B2094655D26DA7F8479E","title":"爵仕悦","lon":"121.513","lat":"31.1754","category":"47","category_name":"住宅区","address":"云台路529弄1-15号"},{"poiid":"B2094654DA6AA2F8449A","title":"颐品居(成山路)","lon":"121.50611","lat":"31.17247","category":"86","category_name":"火锅店","address":"浦东新区成山路439号(近云台路)"},{"poiid":"B2094654DA69A3FA419E","title":"成山小区","lon":"121.51216","lat":"31.171597","category":"47","category_name":"住宅区","address":"成山路668弄1-20,25-30"},{"poiid":"B2094757D169A7FD4099","title":"渔盛家宴","lon":"121.50596","lat":"31.17055","category":"76","category_name":"上海菜","address":"浦东新区云台路501号(近成山路)"},{"poiid":"B2094654DB6BABF54793","title":"上岛咖啡 成山路店 UBC Coffee","lon":"121.504735054","lat":"31.172151793","category":"260","category_name":"其他","address":"浦东新区成山路436号2楼(近云台路)"},{"poiid":"B2094757D169A1F94799","title":"金记麻辣烫","lon":"121.5102444","lat":"31.172370764","category":"68","category_name":"快餐厅","address":"浦东新区成山路608弄42支弄8号(近云莲路)"},{"poiid":"B2094757D16EA2FE4099","title":"恒大星级公寓","lon":"121.51075","lat":"31.169821","category":"500","category_name":"未知分类","address":"上海市长宁区延安西路1235弄"},{"poiid":"B2094757D06BA0FB469B","title":"成山路608弄","lon":"121.509734738","lat":"31.1696820109","category":"500","category_name":"未知分类","address":"上海市浦东新区云台路"},{"poiid":"B2094655D265A1FF419B","title":"喜士多便利(成山店)","lon":"121.50864","lat":"31.16958","category":"117","category_name":"便民商店/便利店","address":"浦东新区成山路588弄3号(成山路东明路)"},{"poiid":"B2094750D665A0F4409F","title":"千岛湖老淳野生鱼庄","lon":"121.506","lat":"31.1725","category":"87","category_name":"特色／地方风味餐厅","address":"浦东新区成山路419号(近云台路)"},{"poiid":"B2094654DA6AA2F8419E","title":"新亚大包 昌里店","lon":"121.509641054","lat":"31.175951793","category":"68","category_name":"快餐厅","address":"浦东新区东明路1096号(昌里东路口)"},{"poiid":"B2094654DA69A3FA4099","title":"秀博造型沙龙","lon":"121.50842","lat":"31.17109","category":"148","category_name":"美容美发店","address":""},{"poiid":"B2094757D465A4FC4699","title":"重庆鸡公煲 成山店","lon":"121.505971054","lat":"31.172516793","category":"71","category_name":"四川菜","address":"浦东新区成山路423号(近云台路)"},{"poiid":"B2094655D26FAAF94699","title":"浦东交警支队事故科东明事故受理点","lon":"121.50996","lat":"31.1744","category":"250","category_name":"公园户外","address":""},{"poiid":"B2094655D265A1F94592","title":"云台路商品住宅","lon":"121.50709","lat":"31.16869","category":"47","category_name":"住宅区","address":"云台路529弄"},{"poiid":"B2094654DA69A3FA409F","title":"苏雨美容美发规划店","lon":"121.50843","lat":"31.17105","category":"148","category_name":"美容美发店","address":""},{"poiid":"B2094757D064A6FB449B","title":"旺佳宠物诊所","lon":"121.50292214","lat":"31.172073596","category":"668","category_name":"诊所","address":"上海市浦东新区成山路365号"},{"poiid":"B2094654DB6BABF54798","title":"爵仕悦恒大国际公寓(西一号门)","lon":"121.5064","lat":"31.16894","category":"47","category_name":"住宅区","address":"上海市浦东新区云台路529弄"},{"poiid":"B2094655D26AA0F9489B","title":"地铁东明路站","lon":"121.51071","lat":"31.17265","category":"36","category_name":"地铁站","address":""},{"poiid":"B2094655D36CA5FF4093","title":"成山路东明路","lon":"121.5112","lat":"31.17274","category":"38","category_name":"公交车站","address":""},{"poiid":"B2094655D26FAAF9489C","title":"川新小区(东门)","lon":"121.51091","lat":"31.17111","category":"47","category_name":"住宅区","address":""},{"poiid":"B2094654DA6AA2F54393","title":"昌七小区(边门)","lon":"121.51373","lat":"31.17472","category":"47","category_name":"住宅区","address":"南码头路1675弄"},{"poiid":"B2094654DA69A3F94892","title":"展峰大楼","lon":"121.50853","lat":"31.17214","category":"47","category_name":"住宅区","address":"成山路558"},{"poiid":"B2094654DB64A3F8419C","title":"云二小区(南门)","lon":"121.50898","lat":"31.17275","category":"47","category_name":"住宅区","address":"成山路601弄1-25号"},{"poiid":"B2094757D068A4F5489F","title":"屈臣氏(成山店)","lon":"121.507462508","lat":"31.171992121","category":"122","category_name":"个人用品/化妆品店","address":"浦东新区成山路500号浦东商场1楼(近云台路)"},{"poiid":"B2094655D268A6F84999","title":"爵仕悦(南门)","lon":"121.50781","lat":"31.16875","category":"47","category_name":"住宅区","address":"云台路529弄"},{"poiid":"B2094655D268A6F54892","title":"川新小区(北一号门)","lon":"121.50993","lat":"31.17224","category":"47","category_name":"住宅区","address":""},{"poiid":"B2094757D069A1FB4393","title":"周家渡派出所","lon":"121.50838473","lat":"31.176638158","category":"609","category_name":"警察局","address":"昌里东路185号-1"},{"poiid":"B2094655D36CA5FE4993","title":"成山路云台路","lon":"121.506","lat":"31.17236","category":"38","category_name":"公交车站","address":""},{"poiid":"B2094757D06FA2FB459F","title":"小肥羊(成山路店)","lon":"121.50605","lat":"31.17167","category":"86","category_name":"火锅店","address":"浦东新区成山路436号2楼(近云台路)"},{"poiid":"B2094757D06FA0FF419A","title":"浦东商场(成山店)","lon":"121.510218","lat":"31.170567","category":"119","category_name":"商场","address":"浦东新区成山路500号(近云台路)"},{"poiid":"B2094757D06FA2FF499A","title":"东明路地铁站","lon":"121.51076256","lat":"31.172632523","category":"36","category_name":"地铁站","address":"上海轨道交通 六号线 轨交东明路站 6"},{"poiid":"B2094757D06FA1F9469B","title":"DQ冰雪皇后(成山店)","lon":"121.507459","lat":"31.172098","category":"113","category_name":"冷饮店","address":"上海浦东新区锦尊路521号（近巴黎春天百货）"},{"poiid":"B2094757D06FABFF499A","title":"巴贝拉(成山路店)","lon":"121.50586","lat":"31.172","category":"94","category_name":"西餐厅","address":"浦东新区成山路436号3楼(近云台路)"},{"poiid":"B2094654DB69A5FF489A","title":"味千拉面(成山路店)","lon":"121.50584","lat":"31.17199","category":"95","category_name":"日本料理","address":"浦东新区成山路436号(近云台路)"},{"poiid":"B2094757D06FA4FE4899","title":"跃民海鲜船菜(成山路店)","lon":"121.50296","lat":"31.17199","category":"260","category_name":"其他","address":"浦东新区成山路345号(近洪山路)"},{"poiid":"B2094757D465A1F5489C","title":"肯德基 成山路店 KFC","lon":"121.507720054","lat":"31.172257793","category":"247","category_name":"餐饮美食","address":"浦东新区成山路432号(近云台路)"},{"poiid":"B2094757D069A5F5459B","title":"巴黎贝甜(成山店)","lon":"121.506628","lat":"31.172058","category":"67","category_name":"甜品店","address":"浦东新区成山路472号(近世纪联华)"},{"poiid":"B2094654DA69A3FA439E","title":"世纪联华(成山路)","lon":"121.50702","lat":"31.17208","category":"118","category_name":"超级市场","address":"浦东新区成山路480号(近云台路)"},{"poiid":"B2094655D26BA4FC4598","title":"格林豪泰酒店上海成山路店","lon":"121.50828","lat":"31.17208","category":"216","category_name":"经济型连锁酒店","address":"浦东新区成山路558-1号(东明路口)"},{"poiid":"B2094655D26DABFA4492","title":"上海浦东华美达花廷酒店","lon":"121.51438","lat":"31.17331","category":"250","category_name":"公园户外","address":"浦东新区成山路833号(近杨高南路)"},{"poiid":"B2094750D56FAAFD449D","title":"DQ冰雪皇后(浦东商场店)","lon":"121.507","lat":"31.1719","category":"113","category_name":"冷饮店","address":"浦东新区成山路500号浦东商场1楼(近云台路)"},{"poiid":"B2094750DB6CA2F44398","title":"鲜芋仙浦东成山店","lon":"121.505157","lat":"31.173311","category":"67","category_name":"甜品店","address":"浦东新区成山路462号浦东商场1楼A区(近云台路)"},{"poiid":"B2094757D16FA7FD489E","title":"浦东新区周家渡地段医院","lon":"121.508960738","lat":"31.1768931643","category":"162","category_name":"医院","address":"上海浦东新"},{"poiid":"B2094750DA64ABFF429C","title":"博宽羽毛球--杨思分部","lon":"121.51007","lat":"31.164768","category":"248","category_name":"生活娱乐","address":"浦东新区杨思路1371号(近东明路)"},{"poiid":"B2094757D069A3F84798","title":"四海游龙(成山路店)","lon":"121.50565","lat":"31.17149","category":"257","category_name":"中餐厅","address":"浦东新区成山路411号(云台路口)"},{"poiid":"B2094757D06BABF54493","title":"川新小区","lon":"121.509934","lat":"31.172234","category":"47","category_name":"住宅区","address":"上海成山路云莲路"},{"poiid":"B2094654DA6AA2F8409E","title":"云台二小区","lon":"121.50871","lat":"31.1753","category":"47","category_name":"住宅区","address":"昌里东路190弄1-36号"},{"poiid":"B2094655D26FA5FC409D","title":"恒大星级公寓(正门)","lon":"121.51098","lat":"31.1709","category":"47","category_name":"住宅区","address":"成山路668弄21-23、35-58号、648弄25-32号"},{"poiid":"B2094655D268A6F8499E","title":"周家渡川新小区","lon":"121.50862","lat":"31.17101","category":"47","category_name":"住宅区","address":"成山路544弄52支弄1-29号"},{"poiid":"B2094655D26DA7F8479E","title":"爵仕悦","lon":"121.513","lat":"31.1754","category":"47","category_name":"住宅区","address":"云台路529弄1-15号"},{"poiid":"B2094654DA6AA2F8449A","title":"颐品居(成山路)","lon":"121.50611","lat":"31.17247","category":"86","category_name":"火锅店","address":"浦东新区成山路439号(近云台路)"},{"poiid":"B2094654DA69A3FA419E","title":"成山小区","lon":"121.51216","lat":"31.171597","category":"47","category_name":"住宅区","address":"成山路668弄1-20,25-30"},{"poiid":"B2094757D169A7FD4099","title":"渔盛家宴","lon":"121.50596","lat":"31.17055","category":"76","category_name":"上海菜","address":"浦东新区云台路501号(近成山路)"},{"poiid":"B2094654DB6BABF54793","title":"上岛咖啡 成山路店 UBC Coffee","lon":"121.504735054","lat":"31.172151793","category":"260","category_name":"其他","address":"浦东新区成山路436号2楼(近云台路)"},{"poiid":"B2094757D169A1F94799","title":"金记麻辣烫","lon":"121.5102444","lat":"31.172370764","category":"68","category_name":"快餐厅","address":"浦东新区成山路608弄42支弄8号(近云莲路)"},{"poiid":"B2094757D16EA2FE4099","title":"恒大星级公寓","lon":"121.51075","lat":"31.169821","category":"500","category_name":"未知分类","address":"上海市长宁区延安西路1235弄"},{"poiid":"B2094757D06BA0FB469B","title":"成山路608弄","lon":"121.509734738","lat":"31.1696820109","category":"500","category_name":"未知分类","address":"上海市浦东新区云台路"},{"poiid":"B2094655D265A1FF419B","title":"喜士多便利(成山店)","lon":"121.50864","lat":"31.16958","category":"117","category_name":"便民商店/便利店","address":"浦东新区成山路588弄3号(成山路东明路)"},{"poiid":"B2094750D665A0F4409F","title":"千岛湖老淳野生鱼庄","lon":"121.506","lat":"31.1725","category":"87","category_name":"特色／地方风味餐厅","address":"浦东新区成山路419号(近云台路)"},{"poiid":"B2094654DA6AA2F8419E","title":"新亚大包 昌里店","lon":"121.509641054","lat":"31.175951793","category":"68","category_name":"快餐厅","address":"浦东新区东明路1096号(昌里东路口)"},{"poiid":"B2094654DA69A3FA4099","title":"秀博造型沙龙","lon":"121.50842","lat":"31.17109","category":"148","category_name":"美容美发店","address":""},{"poiid":"B2094757D465A4FC4699","title":"重庆鸡公煲 成山店","lon":"121.505971054","lat":"31.172516793","category":"71","category_name":"四川菜","address":"浦东新区成山路423号(近云台路)"},{"poiid":"B2094655D26FAAF94699","title":"浦东交警支队事故科东明事故受理点","lon":"121.50996","lat":"31.1744","category":"250","category_name":"公园户外","address":""},{"poiid":"B2094655D265A1F94592","title":"云台路商品住宅","lon":"121.50709","lat":"31.16869","category":"47","category_name":"住宅区","address":"云台路529弄"},{"poiid":"B2094654DA69A3FA409F","title":"苏雨美容美发规划店","lon":"121.50843","lat":"31.17105","category":"148","category_name":"美容美发店","address":""},{"poiid":"B2094757D064A6FB449B","title":"旺佳宠物诊所","lon":"121.50292214","lat":"31.172073596","category":"668","category_name":"诊所","address":"上海市浦东新区成山路365号"},{"poiid":"B2094654DB6BABF54798","title":"爵仕悦恒大国际公寓(西一号门)","lon":"121.5064","lat":"31.16894","category":"47","category_name":"住宅区","address":"上海市浦东新区云台路529弄"},{"poiid":"B2094655D26AA0F9489B","title":"地铁东明路站","lon":"121.51071","lat":"31.17265","category":"36","category_name":"地铁站","address":""},{"poiid":"B2094655D36CA5FF4093","title":"成山路东明路","lon":"121.5112","lat":"31.17274","category":"38","category_name":"公交车站","address":""},{"poiid":"B2094655D26FAAF9489C","title":"川新小区(东门)","lon":"121.51091","lat":"31.17111","category":"47","category_name":"住宅区","address":""},{"poiid":"B2094654DA6AA2F54393","title":"昌七小区(边门)","lon":"121.51373","lat":"31.17472","category":"47","category_name":"住宅区","address":"南码头路1675弄"},{"poiid":"B2094654DA69A3F94892","title":"展峰大楼","lon":"121.50853","lat":"31.17214","category":"47","category_name":"住宅区","address":"成山路558"},{"poiid":"B2094654DB64A3F8419C","title":"云二小区(南门)","lon":"121.50898","lat":"31.17275","category":"47","category_name":"住宅区","address":"成山路601弄1-25号"},{"poiid":"B2094757D068A4F5489F","title":"屈臣氏(成山店)","lon":"121.507462508","lat":"31.171992121","category":"122","category_name":"个人用品/化妆品店","address":"浦东新区成山路500号浦东商场1楼(近云台路)"},{"poiid":"B2094655D268A6F84999","title":"爵仕悦(南门)","lon":"121.50781","lat":"31.16875","category":"47","category_name":"住宅区","address":"云台路529弄"},{"poiid":"B2094655D268A6F54892","title":"川新小区(北一号门)","lon":"121.50993","lat":"31.17224","category":"47","category_name":"住宅区","address":""},{"poiid":"B2094757D069A1FB4393","title":"周家渡派出所","lon":"121.50838473","lat":"31.176638158","category":"609","category_name":"警察局","address":"昌里东路185号-1"},{"poiid":"B2094655D36CA5FE4993","title":"成山路云台路","lon":"121.506","lat":"31.17236","category":"38","category_name":"公交车站","address":""},{"poiid":"B2094757D06FA2FB459F","title":"小肥羊(成山路店)","lon":"121.50605","lat":"31.17167","category":"86","category_name":"火锅店","address":"浦东新区成山路436号2楼(近云台路)"},{"poiid":"B2094757D06FA0FF419A","title":"浦东商场(成山店)","lon":"121.510218","lat":"31.170567","category":"119","category_name":"商场","address":"浦东新区成山路500号(近云台路)"},{"poiid":"B2094757D06FA2FF499A","title":"东明路地铁站","lon":"121.51076256","lat":"31.172632523","category":"36","category_name":"地铁站","address":"上海轨道交通 六号线 轨交东明路站 6"},{"poiid":"B2094757D06FA1F9469B","title":"DQ冰雪皇后(成山店)","lon":"121.507459","lat":"31.172098","category":"113","category_name":"冷饮店","address":"上海浦东新区锦尊路521号（近巴黎春天百货）"},{"poiid":"B2094757D06FABFF499A","title":"巴贝拉(成山路店)","lon":"121.50586","lat":"31.172","category":"94","category_name":"西餐厅","address":"浦东新区成山路436号3楼(近云台路)"},{"poiid":"B2094654DB69A5FF489A","title":"味千拉面(成山路店)","lon":"121.50584","lat":"31.17199","category":"95","category_name":"日本料理","address":"浦东新区成山路436号(近云台路)"},{"poiid":"B2094757D06FA4FE4899","title":"跃民海鲜船菜(成山路店)","lon":"121.50296","lat":"31.17199","category":"260","category_name":"其他","address":"浦东新区成山路345号(近洪山路)"},{"poiid":"B2094757D465A1F5489C","title":"肯德基 成山路店 KFC","lon":"121.507720054","lat":"31.172257793","category":"247","category_name":"餐饮美食","address":"浦东新区成山路432号(近云台路)"},{"poiid":"B2094757D069A5F5459B","title":"巴黎贝甜(成山店)","lon":"121.506628","lat":"31.172058","category":"67","category_name":"甜品店","address":"浦东新区成山路472号(近世纪联华)"},{"poiid":"B2094654DA69A3FA439E","title":"世纪联华(成山路)","lon":"121.50702","lat":"31.17208","category":"118","category_name":"超级市场","address":"浦东新区成山路480号(近云台路)"},{"poiid":"B2094655D26BA4FC4598","title":"格林豪泰酒店上海成山路店","lon":"121.50828","lat":"31.17208","category":"216","category_name":"经济型连锁酒店","address":"浦东新区成山路558-1号(东明路口)"},{"poiid":"B2094655D26DABFA4492","title":"上海浦东华美达花廷酒店","lon":"121.51438","lat":"31.17331","category":"250","category_name":"公园户外","address":"浦东新区成山路833号(近杨高南路)"},{"poiid":"B2094750D56FAAFD449D","title":"DQ冰雪皇后(浦东商场店)","lon":"121.507","lat":"31.1719","category":"113","category_name":"冷饮店","address":"浦东新区成山路500号浦东商场1楼(近云台路)"},{"poiid":"B2094750DB6CA2F44398","title":"鲜芋仙浦东成山店","lon":"121.505157","lat":"31.173311","category":"67","category_name":"甜品店","address":"浦东新区成山路462号浦东商场1楼A区(近云台路)"},{"poiid":"B2094757D16FA7FD489E","title":"浦东新区周家渡地段医院","lon":"121.508960738","lat":"31.1768931643","category":"162","category_name":"医院","address":"上海浦东新"},{"poiid":"B2094750DA64ABFF429C","title":"博宽羽毛球--杨思分部","lon":"121.51007","lat":"31.164768","category":"248","category_name":"生活娱乐","address":"浦东新区杨思路1371号(近东明路)"},{"poiid":"B2094757D069A3F84798","title":"四海游龙(成山路店)","lon":"121.50565","lat":"31.17149","category":"257","category_name":"中餐厅","address":"浦东新区成山路411号(云台路口)"},{"poiid":"B2094757D06BABF54493","title":"川新小区","lon":"121.509934","lat":"31.172234","category":"47","category_name":"住宅区","address":"上海成山路云莲路"},{"poiid":"B2094654DA6AA2F8409E","title":"云台二小区","lon":"121.50871","lat":"31.1753","category":"47","category_name":"住宅区","address":"昌里东路190弄1-36号"},{"poiid":"B2094655D26FA5FC409D","title":"恒大星级公寓(正门)","lon":"121.51098","lat":"31.1709","category":"47","category_name":"住宅区","address":"成山路668弄21-23、35-58号、648弄25-32号"},{"poiid":"B2094655D268A6F8499E","title":"周家渡川新小区","lon":"121.50862","lat":"31.17101","category":"47","category_name":"住宅区","address":"成山路544弄52支弄1-29号"},{"poiid":"B2094655D26DA7F8479E","title":"爵仕悦","lon":"121.513","lat":"31.1754","category":"47","category_name":"住宅区","address":"云台路529弄1-15号"},{"poiid":"B2094654DA6AA2F8449A","title":"颐品居(成山路)","lon":"121.50611","lat":"31.17247","category":"86","category_name":"火锅店","address":"浦东新区成山路439号(近云台路)"},{"poiid":"B2094654DA69A3FA419E","title":"成山小区","lon":"121.51216","lat":"31.171597","category":"47","category_name":"住宅区","address":"成山路668弄1-20,25-30"},{"poiid":"B2094757D169A7FD4099","title":"渔盛家宴","lon":"121.50596","lat":"31.17055","category":"76","category_name":"上海菜","address":"浦东新区云台路501号(近成山路)"},{"poiid":"B2094654DB6BABF54793","title":"上岛咖啡 成山路店 UBC Coffee","lon":"121.504735054","lat":"31.172151793","category":"260","category_name":"其他","address":"浦东新区成山路436号2楼(近云台路)"},{"poiid":"B2094757D169A1F94799","title":"金记麻辣烫","lon":"121.5102444","lat":"31.172370764","category":"68","category_name":"快餐厅","address":"浦东新区成山路608弄42支弄8号(近云莲路)"},{"poiid":"B2094757D16EA2FE4099","title":"恒大星级公寓","lon":"121.51075","lat":"31.169821","category":"500","category_name":"未知分类","address":"上海市长宁区延安西路1235弄"},{"poiid":"B2094757D06BA0FB469B","title":"成山路608弄","lon":"121.509734738","lat":"31.1696820109","category":"500","category_name":"未知分类","address":"上海市浦东新区云台路"},{"poiid":"B2094655D265A1FF419B","title":"喜士多便利(成山店)","lon":"121.50864","lat":"31.16958","category":"117","category_name":"便民商店/便利店","address":"浦东新区成山路588弄3号(成山路东明路)"},{"poiid":"B2094750D665A0F4409F","title":"千岛湖老淳野生鱼庄","lon":"121.506","lat":"31.1725","category":"87","category_name":"特色／地方风味餐厅","address":"浦东新区成山路419号(近云台路)"},{"poiid":"B2094654DA6AA2F8419E","title":"新亚大包 昌里店","lon":"121.509641054","lat":"31.175951793","category":"68","category_name":"快餐厅","address":"浦东新区东明路1096号(昌里东路口)"},{"poiid":"B2094654DA69A3FA4099","title":"秀博造型沙龙","lon":"121.50842","lat":"31.17109","category":"148","category_name":"美容美发店","address":""},{"poiid":"B2094757D465A4FC4699","title":"重庆鸡公煲 成山店","lon":"121.505971054","lat":"31.172516793","category":"71","category_name":"四川菜","address":"浦东新区成山路423号(近云台路)"},{"poiid":"B2094655D26FAAF94699","title":"浦东交警支队事故科东明事故受理点","lon":"121.50996","lat":"31.1744","category":"250","category_name":"公园户外","address":""},{"poiid":"B2094655D265A1F94592","title":"云台路商品住宅","lon":"121.50709","lat":"31.16869","category":"47","category_name":"住宅区","address":"云台路529弄"},{"poiid":"B2094654DA69A3FA409F","title":"苏雨美容美发规划店","lon":"121.50843","lat":"31.17105","category":"148","category_name":"美容美发店","address":""},{"poiid":"B2094757D064A6FB449B","title":"旺佳宠物诊所","lon":"121.50292214","lat":"31.172073596","category":"668","category_name":"诊所","address":"上海市浦东新区成山路365号"},{"poiid":"B2094654DB6BABF54798","title":"爵仕悦恒大国际公寓(西一号门)","lon":"121.5064","lat":"31.16894","category":"47","category_name":"住宅区","address":"上海市浦东新区云台路529弄"},{"poiid":"B2094655D26AA0F9489B","title":"地铁东明路站","lon":"121.51071","lat":"31.17265","category":"36","category_name":"地铁站","address":""},{"poiid":"B2094655D36CA5FF4093","title":"成山路东明路","lon":"121.5112","lat":"31.17274","category":"38","category_name":"公交车站","address":""},{"poiid":"B2094655D26FAAF9489C","title":"川新小区(东门)","lon":"121.51091","lat":"31.17111","category":"47","category_name":"住宅区","address":""},{"poiid":"B2094654DA6AA2F54393","title":"昌七小区(边门)","lon":"121.51373","lat":"31.17472","category":"47","category_name":"住宅区","address":"南码头路1675弄"},{"poiid":"B2094654DA69A3F94892","title":"展峰大楼","lon":"121.50853","lat":"31.17214","category":"47","category_name":"住宅区","address":"成山路558"},{"poiid":"B2094654DB64A3F8419C","title":"云二小区(南门)","lon":"121.50898","lat":"31.17275","category":"47","category_name":"住宅区","address":"成山路601弄1-25号"},{"poiid":"B2094757D068A4F5489F","title":"屈臣氏(成山店)","lon":"121.507462508","lat":"31.171992121","category":"122","category_name":"个人用品/化妆品店","address":"浦东新区成山路500号浦东商场1楼(近云台路)"},{"poiid":"B2094655D268A6F84999","title":"爵仕悦(南门)","lon":"121.50781","lat":"31.16875","category":"47","category_name":"住宅区","address":"云台路529弄"},{"poiid":"B2094655D268A6F54892","title":"川新小区(北一号门)","lon":"121.50993","lat":"31.17224","category":"47","category_name":"住宅区","address":""},{"poiid":"B2094757D069A1FB4393","title":"周家渡派出所","lon":"121.50838473","lat":"31.176638158","category":"609","category_name":"警察局","address":"昌里东路185号-1"},{"poiid":"B2094655D36CA5FE4993","title":"成山路云台路","lon":"121.506","lat":"31.17236","category":"38","category_name":"公交车站","address":""}]