[{"poiid":"B2094757D06FA2F8449B","title":"东郊宾馆","lon":"121.603","lat":"31.2321","category":"213","category_name":"五星级宾馆","address":"浦东新区金科路1800号东郊宾馆内(近龙东大道)"},{"poiid":"B2094654DB64A3F9429C","title":"上海浦东软件园(郭守敬路)","lon":"121.59803","lat":"31.2104","category":"45","category_name":"产业园区","address":"上海浦东新区郭守敬路498号"},{"poiid":"B2094757D06FA3F8479A","title":"上海德国中心","lon":"121.586903","lat":"31.211596","category":"46","category_name":"楼宇","address":"浦东新区科苑路88号德国中心"},{"poiid":"B2094757D06FA7F94193","title":"中欧国际工商学院","lon":"121.59654","lat":"31.23702","category":"671","category_name":"高校中心点","address":"上海浦东新区红枫路699号  "},{"poiid":"B2094654DA6AA1FB429E","title":"浦东妇幼保健医院","lon":"121.59606","lat":"31.23841","category":"162","category_name":"医院","address":"浦东新区红枫路599号(近锦绣东路)"},{"poiid":"B2094757D06FA2F5449B","title":"张江创新园","lon":"121.59543194719","lat":"31.210169439571","category":"46","category_name":"楼宇","address":"上海市虹口区四川北路1318号"},{"poiid":"B2094654DA6AA7F54699","title":"上海张江高科技园区","lon":"121.58762","lat":"31.21184","category":"45","category_name":"产业园区","address":"浦东新区科苑路399号"},{"poiid":"B2094757D068A2FD499F","title":"汤臣高尔夫别墅","lon":"121.583691175","lat":"31.2121601084","category":"47","category_name":"住宅区","address":"上海市浦东新区龙东大道1号"},{"poiid":"B2094757D06FA7FD4999","title":"交行卡中心","lon":"121.58052","lat":"31.20865","category":"68","category_name":"快餐厅","address":"浦东新区松涛路80号(近张江地铁站)"},{"poiid":"B2094757D06FAAF5429D","title":"汤臣豪园二期","lon":"121.5911142171","lat":"31.215546554135","category":"47","category_name":"住宅区","address":"上海晨晖路825弄"},{"poiid":"B2094757D068A3FE4292","title":"罗氏制药","lon":"121.595334109","lat":"31.2138314147","category":"46","category_name":"楼宇","address":"上海浦东新区龙东大道1100号"},{"poiid":"B2094757D16CABF84093","title":"东郊宾馆宴会厅","lon":"121.59701","lat":"31.22565","category":"217","category_name":"旅馆招待所","address":"浦东新区金科路1800号东郊宾馆内(近龙乐大道)查看地图"},{"poiid":"B2094757D068A0F4499E","title":"惠普全球软件服务中心","lon":"121.60092563","lat":"31.212782197","category":"500","category_name":"未知分类","address":"上海金科路2557号"},{"poiid":"B2094654DB69ABF5489D","title":"星之健身(张江店)","lon":"121.58689","lat":"31.2108","category":"221","category_name":"健身中心","address":"浦东新区张江高科园区科苑路88号(近龙东大道)"},{"poiid":"B2094655D26EA5FD469E","title":"东郊宾馆自助餐厅","lon":"121.59707","lat":"31.22591","category":"268","category_name":"自助","address":"浦东新区金科路1800号东郊宾馆内(近龙东大道)"},{"poiid":"B2094757D06FA4F4459D","title":"汤臣高尔夫球场","lon":"121.58303475","lat":"31.211591496","category":"260","category_name":"其他","address":"中国上海浦东新区龙东大道1号"},{"poiid":"B2094655D26CA5FD499F","title":"华高新苑","lon":"121.593","lat":"31.2321","category":"47","category_name":"住宅区","address":"金高路1058弄1-40号"},{"poiid":"B2094757D16CA6FF4898","title":"Le Joli Bistro 周","lon":"121.597072","lat":"31.22591","category":"94","category_name":"西餐厅","address":"浦东新区金科路1800号东郊宾馆克拉克海奇俱乐部内"},{"poiid":"B2094757D06FA5F44699","title":"龙东大道","lon":"121.59431971","lat":"31.216365261","category":"260","category_name":"其他","address":"上海龙东大道"},{"poiid":"B2094757D469A0F4479E","title":"妃思酒吧 Face","lon":"121.59662","lat":"31.22587","category":"172","category_name":"酒吧","address":"金科路1800号东郊宾馆内近龙东大道"},{"poiid":"B2094750DB6FA1F5499E","title":"东郊国宾","lon":"121.595161","lat":"31.222635","category":"247","category_name":"餐饮美食","address":"金科路1800号"},{"poiid":"B2094654DA6AA5F44098","title":"上海市张江高科技园区","lon":"121.59851","lat":"31.21081","category":"45","category_name":"产业园区","address":"郭守敬路498"},{"poiid":"B2094655D36DA0F84993","title":"杨家镇","lon":"121.59553","lat":"31.21676","category":"38","category_name":"公交车站","address":"上海龙东大道122弄"},{"poiid":"B2094757D16AA3F84693","title":"汤臣别墅区","lon":"121.582292975","lat":"31.2247609328","category":"252","category_name":"楼宇机构","address":"上海市浦东新区龙东大道"},{"poiid":"B2094654DB65A5F9449E","title":"兰纳泰国餐厅(东郊宾馆店)","lon":"121.59707","lat":"31.22591","category":"99","category_name":"泰国／越南菜品餐厅","address":"浦东新区金科路1800号东郊宾馆内"},{"poiid":"B2094757D06AA1F84299","title":"资生堂(中国)培训中心","lon":"121.60113697","lat":"31.218220779","category":"500","category_name":"未知分类","address":"上海市浦东新区龙东大道1288号"},{"poiid":"B2094654DA6AA7F4429B","title":"GARDEN VILLA","lon":"121.59279","lat":"31.22044","category":"47","category_name":"住宅区","address":""},{"poiid":"B2094654DA6AA7F54898","title":"盛大网络 Office","lon":"121.59645","lat":"31.20979","category":"263","category_name":"公司","address":"浦东新区张江居里路208号(近李时珍路)"},{"poiid":"B2094757D068A6FD4393","title":"张江高科","lon":"121.599834735","lat":"31.2187130413","category":"500","category_name":"未知分类","address":"上海科苑路龙阳路"},{"poiid":"B2094654DB69A4F5449B","title":"克拉克海奇健身中心(东郊宾馆店)","lon":"121.59835","lat":"31.22242","category":"221","category_name":"健身中心","address":"浦东新区金科路1800号"},{"poiid":"B2094757D168A7FC4698","title":"东郊别墅","lon":"121.59857135","lat":"31.22588161","category":"47","category_name":"住宅区","address":"上海翠柏路699"},{"poiid":"B2094757D06AA0F84293","title":"凯顿酒店","lon":"121.59412","lat":"31.21041","category":"76","category_name":"上海菜","address":"浦东新区郭守敬路277号(近牛顿路)"},{"poiid":"B2094654DA6AA1F5489C","title":"汤臣豪园","lon":"121.58493","lat":"31.21121","category":"47","category_name":"住宅区","address":"上海市浦东新区张家浜路37号"},{"poiid":"B2094757D16CA1FC449F","title":"盛大在线","lon":"121.595577635","lat":"31.2200543227","category":"500","category_name":"未知分类","address":"上海浦东新区郭守敬路433号"},{"poiid":"B2094757D06AA4FA439B","title":"美再晨运动会馆(松涛路店)","lon":"121.58418","lat":"31.21005","category":"148","category_name":"美容美发店","address":"浦东新区松涛路251号(近碧波路)"},{"poiid":"B2094654DA6AA7F4429E","title":"夏丽超市(杨镇居民委员会残疾人协会北)","lon":"121.5951","lat":"31.21852","category":"118","category_name":"超级市场","address":""},{"poiid":"B2094655D264A0F84499","title":"合生东郊华品园","lon":"121.59937","lat":"31.223177","category":"47","category_name":"住宅区","address":"浦东新区翠柏路699弄"},{"poiid":"B2094757D16CA2FB499F","title":"凌阳大厦","lon":"121.59847259","lat":"31.226142883","category":"46","category_name":"楼宇","address":"上海浦东新区张江祖冲之路近金科路"},{"poiid":"B2094757D068ABF84893","title":"上海超级计算中心","lon":"121.600575","lat":"31.211526","category":"46","category_name":"楼宇","address":"上海浦东新区郭守敬路585号"},{"poiid":"B2094757D66EABF9449C","title":"巨鹿路242号","lon":"121.594692575","lat":"31.2284821198","category":"47","category_name":"住宅区","address":"上海巨鹿路242号"},{"poiid":"B2094654DA6AA1FA419B","title":"云间绿地别墅","lon":"121.57873","lat":"31.22948","category":"47","category_name":"住宅区","address":"锦绣东路418弄1-296号"},{"poiid":"B2094757D065A7FF439B","title":"维诗凯亚休闲俱乐部","lon":"121.58228","lat":"31.23295","category":"94","category_name":"西餐厅","address":"浦东新区云山路1988号(近明月路)查看地图"},{"poiid":"B2094751D569A0FF449B","title":"浦东国际机场","lon":"121.600019","lat":"31.224745","category":"500","category_name":"未知分类","address":null},{"poiid":"B2094654DA6AA1F4409E","title":"上海浦东三桥百花园","lon":"121.5997","lat":"31.22845","category":"196","category_name":"公园","address":""},{"poiid":"B2094757D068A0F44193","title":"Vizcaya Club Lounge","lon":"121.582017","lat":"31.233228","category":"67","category_name":"甜品店","address":"上海浦东新区云山路1988号(近明月路)"},{"poiid":"B2094750DA68A6F4469D","title":"张江高科德国中心","lon":"121.587496","lat":"31.212141","category":"46","category_name":"楼宇","address":"浦东新区科苑路88号"},{"poiid":"B2094757D16CA1FE439B","title":"张江","lon":"121.591663","lat":"31.212274","category":"500","category_name":"未知分类","address":"上海牛顿路"},{"poiid":"B2094654DA6AA6F4439B","title":"上海市公安局浦东分局交通警察支队五大队","lon":"121.60643","lat":"31.2189","category":"250","category_name":"公园户外","address":"龙东大道1920"},{"poiid":"B2094757D065ABFC4499","title":"奇华顿日用香精香料(上海)有限公司","lon":"121.59351521","lat":"31.212836643","category":"46","category_name":"楼宇","address":"上海张江高科技园区李时珍路298号"},{"poiid":"B2094757D16AA2FB4992","title":"网易","lon":"121.59510697","lat":"31.228367317","category":"500","category_name":"未知分类","address":"上海市浦东新区碧波路690号5号楼"},{"poiid":"B2094757D06FA2F8449B","title":"东郊宾馆","lon":"121.603","lat":"31.2321","category":"213","category_name":"五星级宾馆","address":"浦东新区金科路1800号东郊宾馆内(近龙东大道)"},{"poiid":"B2094654DB64A3F9429C","title":"上海浦东软件园(郭守敬路)","lon":"121.59803","lat":"31.2104","category":"45","category_name":"产业园区","address":"上海浦东新区郭守敬路498号"},{"poiid":"B2094757D06FA3F8479A","title":"上海德国中心","lon":"121.586903","lat":"31.211596","category":"46","category_name":"楼宇","address":"浦东新区科苑路88号德国中心"},{"poiid":"B2094757D06FA7F94193","title":"中欧国际工商学院","lon":"121.59654","lat":"31.23702","category":"671","category_name":"高校中心点","address":"上海浦东新区红枫路699号  "},{"poiid":"B2094654DA6AA1FB429E","title":"浦东妇幼保健医院","lon":"121.59606","lat":"31.23841","category":"162","category_name":"医院","address":"浦东新区红枫路599号(近锦绣东路)"},{"poiid":"B2094757D06FA2F5449B","title":"张江创新园","lon":"121.59543194719","lat":"31.210169439571","category":"46","category_name":"楼宇","address":"上海市虹口区四川北路1318号"},{"poiid":"B2094654DA6AA7F54699","title":"上海张江高科技园区","lon":"121.58762","lat":"31.21184","category":"45","category_name":"产业园区","address":"浦东新区科苑路399号"},{"poiid":"B2094757D068A2FD499F","title":"汤臣高尔夫别墅","lon":"121.583691175","lat":"31.2121601084","category":"47","category_name":"住宅区","address":"上海市浦东新区龙东大道1号"},{"poiid":"B2094757D06FA7FD4999","title":"交行卡中心","lon":"121.58052","lat":"31.20865","category":"68","category_name":"快餐厅","address":"浦东新区松涛路80号(近张江地铁站)"},{"poiid":"B2094757D06FAAF5429D","title":"汤臣豪园二期","lon":"121.5911142171","lat":"31.215546554135","category":"47","category_name":"住宅区","address":"上海晨晖路825弄"},{"poiid":"B2094757D068A3FE4292","title":"罗氏制药","lon":"121.595334109","lat":"31.2138314147","category":"46","category_name":"楼宇","address":"上海浦东新区龙东大道1100号"},{"poiid":"B2094757D16CABF84093","title":"东郊宾馆宴会厅","lon":"121.59701","lat":"31.22565","category":"217","category_name":"旅馆招待所","address":"浦东新区金科路1800号东郊宾馆内(近龙乐大道)查看地图"},{"poiid":"B2094757D068A0F4499E","title":"惠普全球软件服务中心","lon":"121.60092563","lat":"31.212782197","category":"500","category_name":"未知分类","address":"上海金科路2557号"},{"poiid":"B2094654DB69ABF5489D","title":"星之健身(张江店)","lon":"121.58689","lat":"31.2108","category":"221","category_name":"健身中心","address":"浦东新区张江高科园区科苑路88号(近龙东大道)"},{"poiid":"B2094655D26EA5FD469E","title":"东郊宾馆自助餐厅","lon":"121.59707","lat":"31.22591","category":"268","category_name":"自助","address":"浦东新区金科路1800号东郊宾馆内(近龙东大道)"},{"poiid":"B2094757D06FA4F4459D","title":"汤臣高尔夫球场","lon":"121.58303475","lat":"31.211591496","category":"260","category_name":"其他","address":"中国上海浦东新区龙东大道1号"},{"poiid":"B2094655D26CA5FD499F","title":"华高新苑","lon":"121.593","lat":"31.2321","category":"47","category_name":"住宅区","address":"金高路1058弄1-40号"},{"poiid":"B2094757D16CA6FF4898","title":"Le Joli Bistro 周","lon":"121.597072","lat":"31.22591","category":"94","category_name":"西餐厅","address":"浦东新区金科路1800号东郊宾馆克拉克海奇俱乐部内"},{"poiid":"B2094757D06FA5F44699","title":"龙东大道","lon":"121.59431971","lat":"31.216365261","category":"260","category_name":"其他","address":"上海龙东大道"},{"poiid":"B2094757D469A0F4479E","title":"妃思酒吧 Face","lon":"121.59662","lat":"31.22587","category":"172","category_name":"酒吧","address":"金科路1800号东郊宾馆内近龙东大道"},{"poiid":"B2094750DB6FA1F5499E","title":"东郊国宾","lon":"121.595161","lat":"31.222635","category":"247","category_name":"餐饮美食","address":"金科路1800号"},{"poiid":"B2094654DA6AA5F44098","title":"上海市张江高科技园区","lon":"121.59851","lat":"31.21081","category":"45","category_name":"产业园区","address":"郭守敬路498"},{"poiid":"B2094655D36DA0F84993","title":"杨家镇","lon":"121.59553","lat":"31.21676","category":"38","category_name":"公交车站","address":"上海龙东大道122弄"},{"poiid":"B2094757D16AA3F84693","title":"汤臣别墅区","lon":"121.582292975","lat":"31.2247609328","category":"252","category_name":"楼宇机构","address":"上海市浦东新区龙东大道"},{"poiid":"B2094654DB65A5F9449E","title":"兰纳泰国餐厅(东郊宾馆店)","lon":"121.59707","lat":"31.22591","category":"99","category_name":"泰国／越南菜品餐厅","address":"浦东新区金科路1800号东郊宾馆内"},{"poiid":"B2094757D06AA1F84299","title":"资生堂(中国)培训中心","lon":"121.60113697","lat":"31.218220779","category":"500","category_name":"未知分类","address":"上海市浦东新区龙东大道1288号"},{"poiid":"B2094654DA6AA7F4429B","title":"GARDEN VILLA","lon":"121.59279","lat":"31.22044","category":"47","category_name":"住宅区","address":""},{"poiid":"B2094654DA6AA7F54898","title":"盛大网络 Office","lon":"121.59645","lat":"31.20979","category":"263","category_name":"公司","address":"浦东新区张江居里路208号(近李时珍路)"},{"poiid":"B2094757D068A6FD4393","title":"张江高科","lon":"121.599834735","lat":"31.2187130413","category":"500","category_name":"未知分类","address":"上海科苑路龙阳路"},{"poiid":"B2094654DB69A4F5449B","title":"克拉克海奇健身中心(东郊宾馆店)","lon":"121.59835","lat":"31.22242","category":"221","category_name":"健身中心","address":"浦东新区金科路1800号"},{"poiid":"B2094757D168A7FC4698","title":"东郊别墅","lon":"121.59857135","lat":"31.22588161","category":"47","category_name":"住宅区","address":"上海翠柏路699"},{"poiid":"B2094757D06AA0F84293","title":"凯顿酒店","lon":"121.59412","lat":"31.21041","category":"76","category_name":"上海菜","address":"浦东新区郭守敬路277号(近牛顿路)"},{"poiid":"B2094654DA6AA1F5489C","title":"汤臣豪园","lon":"121.58493","lat":"31.21121","category":"47","category_name":"住宅区","address":"上海市浦东新区张家浜路37号"},{"poiid":"B2094757D16CA1FC449F","title":"盛大在线","lon":"121.595577635","lat":"31.2200543227","category":"500","category_name":"未知分类","address":"上海浦东新区郭守敬路433号"},{"poiid":"B2094757D06AA4FA439B","title":"美再晨运动会馆(松涛路店)","lon":"121.58418","lat":"31.21005","category":"148","category_name":"美容美发店","address":"浦东新区松涛路251号(近碧波路)"},{"poiid":"B2094654DA6AA7F4429E","title":"夏丽超市(杨镇居民委员会残疾人协会北)","lon":"121.5951","lat":"31.21852","category":"118","category_name":"超级市场","address":""},{"poiid":"B2094655D264A0F84499","title":"合生东郊华品园","lon":"121.59937","lat":"31.223177","category":"47","category_name":"住宅区","address":"浦东新区翠柏路699弄"},{"poiid":"B2094757D16CA2FB499F","title":"凌阳大厦","lon":"121.59847259","lat":"31.226142883","category":"46","category_name":"楼宇","address":"上海浦东新区张江祖冲之路近金科路"},{"poiid":"B2094757D068ABF84893","title":"上海超级计算中心","lon":"121.600575","lat":"31.211526","category":"46","category_name":"楼宇","address":"上海浦东新区郭守敬路585号"},{"poiid":"B2094757D66EABF9449C","title":"巨鹿路242号","lon":"121.594692575","lat":"31.2284821198","category":"47","category_name":"住宅区","address":"上海巨鹿路242号"},{"poiid":"B2094654DA6AA1FA419B","title":"云间绿地别墅","lon":"121.57873","lat":"31.22948","category":"47","category_name":"住宅区","address":"锦绣东路418弄1-296号"},{"poiid":"B2094757D065A7FF439B","title":"维诗凯亚休闲俱乐部","lon":"121.58228","lat":"31.23295","category":"94","category_name":"西餐厅","address":"浦东新区云山路1988号(近明月路)查看地图"},{"poiid":"B2094751D569A0FF449B","title":"浦东国际机场","lon":"121.600019","lat":"31.224745","category":"500","category_name":"未知分类","address":null},{"poiid":"B2094654DA6AA1F4409E","title":"上海浦东三桥百花园","lon":"121.5997","lat":"31.22845","category":"196","category_name":"公园","address":""},{"poiid":"B2094757D068A0F44193","title":"Vizcaya Club Lounge","lon":"121.582017","lat":"31.233228","category":"67","category_name":"甜品店","address":"上海浦东新区云山路1988号(近明月路)"},{"poiid":"B2094750DA68A6F4469D","title":"张江高科德国中心","lon":"121.587496","lat":"31.212141","category":"46","category_name":"楼宇","address":"浦东新区科苑路88号"},{"poiid":"B2094757D16CA1FE439B","title":"张江","lon":"121.591663","lat":"31.212274","category":"500","category_name":"未知分类","address":"上海牛顿路"},{"poiid":"B2094654DA6AA6F4439B","title":"上海市公安局浦东分局交通警察支队五大队","lon":"121.60643","lat":"31.2189","category":"250","category_name":"公园户外","address":"龙东大道1920"},{"poiid":"B2094757D065ABFC4499","title":"奇华顿日用香精香料(上海)有限公司","lon":"121.59351521","lat":"31.212836643","category":"46","category_name":"楼宇","address":"上海张江高科技园区李时珍路298号"},{"poiid":"B2094757D16AA2FB4992","title":"网易","lon":"121.59510697","lat":"31.228367317","category":"500","category_name":"未知分类","address":"上海市浦东新区碧波路690号5号楼"},{"poiid":"B2094757D06FA2F8449B","title":"东郊宾馆","lon":"121.603","lat":"31.2321","category":"213","category_name":"五星级宾馆","address":"浦东新区金科路1800号东郊宾馆内(近龙东大道)"},{"poiid":"B2094654DB64A3F9429C","title":"上海浦东软件园(郭守敬路)","lon":"121.59803","lat":"31.2104","category":"45","category_name":"产业园区","address":"上海浦东新区郭守敬路498号"},{"poiid":"B2094757D06FA3F8479A","title":"上海德国中心","lon":"121.586903","lat":"31.211596","category":"46","category_name":"楼宇","address":"浦东新区科苑路88号德国中心"},{"poiid":"B2094757D06FA7F94193","title":"中欧国际工商学院","lon":"121.59654","lat":"31.23702","category":"671","category_name":"高校中心点","address":"上海浦东新区红枫路699号  "},{"poiid":"B2094654DA6AA1FB429E","title":"浦东妇幼保健医院","lon":"121.59606","lat":"31.23841","category":"162","category_name":"医院","address":"浦东新区红枫路599号(近锦绣东路)"},{"poiid":"B2094757D06FA2F5449B","title":"张江创新园","lon":"121.59543194719","lat":"31.210169439571","category":"46","category_name":"楼宇","address":"上海市虹口区四川北路1318号"},{"poiid":"B2094654DA6AA7F54699","title":"上海张江高科技园区","lon":"121.58762","lat":"31.21184","category":"45","category_name":"产业园区","address":"浦东新区科苑路399号"},{"poiid":"B2094757D068A2FD499F","title":"汤臣高尔夫别墅","lon":"121.583691175","lat":"31.2121601084","category":"47","category_name":"住宅区","address":"上海市浦东新区龙东大道1号"},{"poiid":"B2094757D06FA7FD4999","title":"交行卡中心","lon":"121.58052","lat":"31.20865","category":"68","category_name":"快餐厅","address":"浦东新区松涛路80号(近张江地铁站)"},{"poiid":"B2094757D06FAAF5429D","title":"汤臣豪园二期","lon":"121.5911142171","lat":"31.215546554135","category":"47","category_name":"住宅区","address":"上海晨晖路825弄"},{"poiid":"B2094757D068A3FE4292","title":"罗氏制药","lon":"121.595334109","lat":"31.2138314147","category":"46","category_name":"楼宇","address":"上海浦东新区龙东大道1100号"},{"poiid":"B2094757D16CABF84093","title":"东郊宾馆宴会厅","lon":"121.59701","lat":"31.22565","category":"217","category_name":"旅馆招待所","address":"浦东新区金科路1800号东郊宾馆内(近龙乐大道)查看地图"},{"poiid":"B2094757D068A0F4499E","title":"惠普全球软件服务中心","lon":"121.60092563","lat":"31.212782197","category":"500","category_name":"未知分类","address":"上海金科路2557号"},{"poiid":"B2094654DB69ABF5489D","title":"星之健身(张江店)","lon":"121.58689","lat":"31.2108","category":"221","category_name":"健身中心","address":"浦东新区张江高科园区科苑路88号(近龙东大道)"},{"poiid":"B2094655D26EA5FD469E","title":"东郊宾馆自助餐厅","lon":"121.59707","lat":"31.22591","category":"268","category_name":"自助","address":"浦东新区金科路1800号东郊宾馆内(近龙东大道)"},{"poiid":"B2094757D06FA4F4459D","title":"汤臣高尔夫球场","lon":"121.58303475","lat":"31.211591496","category":"260","category_name":"其他","address":"中国上海浦东新区龙东大道1号"},{"poiid":"B2094655D26CA5FD499F","title":"华高新苑","lon":"121.593","lat":"31.2321","category":"47","category_name":"住宅区","address":"金高路1058弄1-40号"},{"poiid":"B2094757D16CA6FF4898","title":"Le Joli Bistro 周","lon":"121.597072","lat":"31.22591","category":"94","category_name":"西餐厅","address":"浦东新区金科路1800号东郊宾馆克拉克海奇俱乐部内"},{"poiid":"B2094757D06FA5F44699","title":"龙东大道","lon":"121.59431971","lat":"31.216365261","category":"260","category_name":"其他","address":"上海龙东大道"},{"poiid":"B2094757D469A0F4479E","title":"妃思酒吧 Face","lon":"121.59662","lat":"31.22587","category":"172","category_name":"酒吧","address":"金科路1800号东郊宾馆内近龙东大道"},{"poiid":"B2094750DB6FA1F5499E","title":"东郊国宾","lon":"121.595161","lat":"31.222635","category":"247","category_name":"餐饮美食","address":"金科路1800号"},{"poiid":"B2094654DA6AA5F44098","title":"上海市张江高科技园区","lon":"121.59851","lat":"31.21081","category":"45","category_name":"产业园区","address":"郭守敬路498"},{"poiid":"B2094655D36DA0F84993","title":"杨家镇","lon":"121.59553","lat":"31.21676","category":"38","category_name":"公交车站","address":"上海龙东大道122弄"},{"poiid":"B2094757D16AA3F84693","title":"汤臣别墅区","lon":"121.582292975","lat":"31.2247609328","category":"252","category_name":"楼宇机构","address":"上海市浦东新区龙东大道"},{"poiid":"B2094654DB65A5F9449E","title":"兰纳泰国餐厅(东郊宾馆店)","lon":"121.59707","lat":"31.22591","category":"99","category_name":"泰国／越南菜品餐厅","address":"浦东新区金科路1800号东郊宾馆内"},{"poiid":"B2094757D06AA1F84299","title":"资生堂(中国)培训中心","lon":"121.60113697","lat":"31.218220779","category":"500","category_name":"未知分类","address":"上海市浦东新区龙东大道1288号"},{"poiid":"B2094654DA6AA7F4429B","title":"GARDEN VILLA","lon":"121.59279","lat":"31.22044","category":"47","category_name":"住宅区","address":""},{"poiid":"B2094654DA6AA7F54898","title":"盛大网络 Office","lon":"121.59645","lat":"31.20979","category":"263","category_name":"公司","address":"浦东新区张江居里路208号(近李时珍路)"},{"poiid":"B2094757D068A6FD4393","title":"张江高科","lon":"121.599834735","lat":"31.2187130413","category":"500","category_name":"未知分类","address":"上海科苑路龙阳路"},{"poiid":"B2094654DB69A4F5449B","title":"克拉克海奇健身中心(东郊宾馆店)","lon":"121.59835","lat":"31.22242","category":"221","category_name":"健身中心","address":"浦东新区金科路1800号"},{"poiid":"B2094757D168A7FC4698","title":"东郊别墅","lon":"121.59857135","lat":"31.22588161","category":"47","category_name":"住宅区","address":"上海翠柏路699"},{"poiid":"B2094757D06AA0F84293","title":"凯顿酒店","lon":"121.59412","lat":"31.21041","category":"76","category_name":"上海菜","address":"浦东新区郭守敬路277号(近牛顿路)"},{"poiid":"B2094654DA6AA1F5489C","title":"汤臣豪园","lon":"121.58493","lat":"31.21121","category":"47","category_name":"住宅区","address":"上海市浦东新区张家浜路37号"},{"poiid":"B2094757D16CA1FC449F","title":"盛大在线","lon":"121.595577635","lat":"31.2200543227","category":"500","category_name":"未知分类","address":"上海浦东新区郭守敬路433号"},{"poiid":"B2094757D06AA4FA439B","title":"美再晨运动会馆(松涛路店)","lon":"121.58418","lat":"31.21005","category":"148","category_name":"美容美发店","address":"浦东新区松涛路251号(近碧波路)"},{"poiid":"B2094654DA6AA7F4429E","title":"夏丽超市(杨镇居民委员会残疾人协会北)","lon":"121.5951","lat":"31.21852","category":"118","category_name":"超级市场","address":""},{"poiid":"B2094655D264A0F84499","title":"合生东郊华品园","lon":"121.59937","lat":"31.223177","category":"47","category_name":"住宅区","address":"浦东新区翠柏路699弄"},{"poiid":"B2094757D16CA2FB499F","title":"凌阳大厦","lon":"121.59847259","lat":"31.226142883","category":"46","category_name":"楼宇","address":"上海浦东新区张江祖冲之路近金科路"},{"poiid":"B2094757D068ABF84893","title":"上海超级计算中心","lon":"121.600575","lat":"31.211526","category":"46","category_name":"楼宇","address":"上海浦东新区郭守敬路585号"},{"poiid":"B2094757D66EABF9449C","title":"巨鹿路242号","lon":"121.594692575","lat":"31.2284821198","category":"47","category_name":"住宅区","address":"上海巨鹿路242号"},{"poiid":"B2094654DA6AA1FA419B","title":"云间绿地别墅","lon":"121.57873","lat":"31.22948","category":"47","category_name":"住宅区","address":"锦绣东路418弄1-296号"},{"poiid":"B2094757D065A7FF439B","title":"维诗凯亚休闲俱乐部","lon":"121.58228","lat":"31.23295","category":"94","category_name":"西餐厅","address":"浦东新区云山路1988号(近明月路)查看地图"},{"poiid":"B2094751D569A0FF449B","title":"浦东国际机场","lon":"121.600019","lat":"31.224745","category":"500","category_name":"未知分类","address":null},{"poiid":"B2094654DA6AA1F4409E","title":"上海浦东三桥百花园","lon":"121.5997","lat":"31.22845","category":"196","category_name":"公园","address":""},{"poiid":"B2094757D068A0F44193","title":"Vizcaya Club Lounge","lon":"121.582017","lat":"31.233228","category":"67","category_name":"甜品店","address":"上海浦东新区云山路1988号(近明月路)"},{"poiid":"B2094750DA68A6F4469D","title":"张江高科德国中心","lon":"121.587496","lat":"31.212141","category":"46","category_name":"楼宇","address":"浦东新区科苑路88号"},{"poiid":"B2094757D16CA1FE439B","title":"张江","lon":"121.591663","lat":"31.212274","category":"500","category_name":"未知分类","address":"上海牛顿路"},{"poiid":"B2094654DA6AA6F4439B","title":"上海市公安局浦东分局交通警察支队五大队","lon":"121.60643","lat":"31.2189","category":"250","category_name":"公园户外","address":"龙东大道1920"},{"poiid":"B2094757D065ABFC4499","title":"奇华顿日用香精香料(上海)有限公司","lon":"121.59351521","lat":"31.212836643","category":"46","category_name":"楼宇","address":"上海张江高科技园区李时珍路298号"},{"poiid":"B2094757D16AA2FB4992","title":"网易","lon":"121.59510697","lat":"31.228367317","category":"500","category_name":"未知分类","address":"上海市浦东新区碧波路690号5号楼"},{"poiid":"B2094757D06FA2F8449B","title":"东郊宾馆","lon":"121.603","lat":"31.2321","category":"213","category_name":"五星级宾馆","address":"浦东新区金科路1800号东郊宾馆内(近龙东大道)"},{"poiid":"B2094654DB64A3F9429C","title":"上海浦东软件园(郭守敬路)","lon":"121.59803","lat":"31.2104","category":"45","category_name":"产业园区","address":"上海浦东新区郭守敬路498号"},{"poiid":"B2094757D06FA3F8479A","title":"上海德国中心","lon":"121.586903","lat":"31.211596","category":"46","category_name":"楼宇","address":"浦东新区科苑路88号德国中心"},{"poiid":"B2094757D06FA7F94193","title":"中欧国际工商学院","lon":"121.59654","lat":"31.23702","category":"671","category_name":"高校中心点","address":"上海浦东新区红枫路699号  "},{"poiid":"B2094654DA6AA1FB429E","title":"浦东妇幼保健医院","lon":"121.59606","lat":"31.23841","category":"162","category_name":"医院","address":"浦东新区红枫路599号(近锦绣东路)"},{"poiid":"B2094757D06FA2F5449B","title":"张江创新园","lon":"121.59543194719","lat":"31.210169439571","category":"46","category_name":"楼宇","address":"上海市虹口区四川北路1318号"},{"poiid":"B2094654DA6AA7F54699","title":"上海张江高科技园区","lon":"121.58762","lat":"31.21184","category":"45","category_name":"产业园区","address":"浦东新区科苑路399号"},{"poiid":"B2094757D068A2FD499F","title":"汤臣高尔夫别墅","lon":"121.583691175","lat":"31.2121601084","category":"47","category_name":"住宅区","address":"上海市浦东新区龙东大道1号"},{"poiid":"B2094757D06FA7FD4999","title":"交行卡中心","lon":"121.58052","lat":"31.20865","category":"68","category_name":"快餐厅","address":"浦东新区松涛路80号(近张江地铁站)"},{"poiid":"B2094757D06FAAF5429D","title":"汤臣豪园二期","lon":"121.5911142171","lat":"31.215546554135","category":"47","category_name":"住宅区","address":"上海晨晖路825弄"},{"poiid":"B2094757D068A3FE4292","title":"罗氏制药","lon":"121.595334109","lat":"31.2138314147","category":"46","category_name":"楼宇","address":"上海浦东新区龙东大道1100号"},{"poiid":"B2094757D16CABF84093","title":"东郊宾馆宴会厅","lon":"121.59701","lat":"31.22565","category":"217","category_name":"旅馆招待所","address":"浦东新区金科路1800号东郊宾馆内(近龙乐大道)查看地图"},{"poiid":"B2094757D068A0F4499E","title":"惠普全球软件服务中心","lon":"121.60092563","lat":"31.212782197","category":"500","category_name":"未知分类","address":"上海金科路2557号"},{"poiid":"B2094654DB69ABF5489D","title":"星之健身(张江店)","lon":"121.58689","lat":"31.2108","category":"221","category_name":"健身中心","address":"浦东新区张江高科园区科苑路88号(近龙东大道)"},{"poiid":"B2094655D26EA5FD469E","title":"东郊宾馆自助餐厅","lon":"121.59707","lat":"31.22591","category":"268","category_name":"自助","address":"浦东新区金科路1800号东郊宾馆内(近龙东大道)"},{"poiid":"B2094757D06FA4F4459D","title":"汤臣高尔夫球场","lon":"121.58303475","lat":"31.211591496","category":"260","category_name":"其他","address":"中国上海浦东新区龙东大道1号"},{"poiid":"B2094655D26CA5FD499F","title":"华高新苑","lon":"121.593","lat":"31.2321","category":"47","category_name":"住宅区","address":"金高路1058弄1-40号"},{"poiid":"B2094757D16CA6FF4898","title":"Le Joli Bistro 周","lon":"121.597072","lat":"31.22591","category":"94","category_name":"西餐厅","address":"浦东新区金科路1800号东郊宾馆克拉克海奇俱乐部内"},{"poiid":"B2094757D06FA5F44699","title":"龙东大道","lon":"121.59431971","lat":"31.216365261","category":"260","category_name":"其他","address":"上海龙东大道"},{"poiid":"B2094757D469A0F4479E","title":"妃思酒吧 Face","lon":"121.59662","lat":"31.22587","category":"172","category_name":"酒吧","address":"金科路1800号东郊宾馆内近龙东大道"},{"poiid":"B2094750DB6FA1F5499E","title":"东郊国宾","lon":"121.595161","lat":"31.222635","category":"247","category_name":"餐饮美食","address":"金科路1800号"},{"poiid":"B2094654DA6AA5F44098","title":"上海市张江高科技园区","lon":"121.59851","lat":"31.21081","category":"45","category_name":"产业园区","address":"郭守敬路498"},{"poiid":"B2094655D36DA0F84993","title":"杨家镇","lon":"121.59553","lat":"31.21676","category":"38","category_name":"公交车站","address":"上海龙东大道122弄"},{"poiid":"B2094757D16AA3F84693","title":"汤臣别墅区","lon":"121.582292975","lat":"31.2247609328","category":"252","category_name":"楼宇机构","address":"上海市浦东新区龙东大道"},{"poiid":"B2094654DB65A5F9449E","title":"兰纳泰国餐厅(东郊宾馆店)","lon":"121.59707","lat":"31.22591","category":"99","category_name":"泰国／越南菜品餐厅","address":"浦东新区金科路1800号东郊宾馆内"},{"poiid":"B2094757D06AA1F84299","title":"资生堂(中国)培训中心","lon":"121.60113697","lat":"31.218220779","category":"500","category_name":"未知分类","address":"上海市浦东新区龙东大道1288号"},{"poiid":"B2094654DA6AA7F4429B","title":"GARDEN VILLA","lon":"121.59279","lat":"31.22044","category":"47","category_name":"住宅区","address":""},{"poiid":"B2094654DA6AA7F54898","title":"盛大网络 Office","lon":"121.59645","lat":"31.20979","category":"263","category_name":"公司","address":"浦东新区张江居里路208号(近李时珍路)"},{"poiid":"B2094757D068A6FD4393","title":"张江高科","lon":"121.599834735","lat":"31.2187130413","category":"500","category_name":"未知分类","address":"上海科苑路龙阳路"},{"poiid":"B2094654DB69A4F5449B","title":"克拉克海奇健身中心(东郊宾馆店)","lon":"121.59835","lat":"31.22242","category":"221","category_name":"健身中心","address":"浦东新区金科路1800号"},{"poiid":"B2094757D168A7FC4698","title":"东郊别墅","lon":"121.59857135","lat":"31.22588161","category":"47","category_name":"住宅区","address":"上海翠柏路699"},{"poiid":"B2094757D06AA0F84293","title":"凯顿酒店","lon":"121.59412","lat":"31.21041","category":"76","category_name":"上海菜","address":"浦东新区郭守敬路277号(近牛顿路)"},{"poiid":"B2094654DA6AA1F5489C","title":"汤臣豪园","lon":"121.58493","lat":"31.21121","category":"47","category_name":"住宅区","address":"上海市浦东新区张家浜路37号"},{"poiid":"B2094757D16CA1FC449F","title":"盛大在线","lon":"121.595577635","lat":"31.2200543227","category":"500","category_name":"未知分类","address":"上海浦东新区郭守敬路433号"},{"poiid":"B2094757D06AA4FA439B","title":"美再晨运动会馆(松涛路店)","lon":"121.58418","lat":"31.21005","category":"148","category_name":"美容美发店","address":"浦东新区松涛路251号(近碧波路)"},{"poiid":"B2094654DA6AA7F4429E","title":"夏丽超市(杨镇居民委员会残疾人协会北)","lon":"121.5951","lat":"31.21852","category":"118","category_name":"超级市场","address":""},{"poiid":"B2094655D264A0F84499","title":"合生东郊华品园","lon":"121.59937","lat":"31.223177","category":"47","category_name":"住宅区","address":"浦东新区翠柏路699弄"},{"poiid":"B2094757D16CA2FB499F","title":"凌阳大厦","lon":"121.59847259","lat":"31.226142883","category":"46","category_name":"楼宇","address":"上海浦东新区张江祖冲之路近金科路"},{"poiid":"B2094757D068ABF84893","title":"上海超级计算中心","lon":"121.600575","lat":"31.211526","category":"46","category_name":"楼宇","address":"上海浦东新区郭守敬路585号"},{"poiid":"B2094757D66EABF9449C","title":"巨鹿路242号","lon":"121.594692575","lat":"31.2284821198","category":"47","category_name":"住宅区","address":"上海巨鹿路242号"},{"poiid":"B2094654DA6AA1FA419B","title":"云间绿地别墅","lon":"121.57873","lat":"31.22948","category":"47","category_name":"住宅区","address":"锦绣东路418弄1-296号"},{"poiid":"B2094757D065A7FF439B","title":"维诗凯亚休闲俱乐部","lon":"121.58228","lat":"31.23295","category":"94","category_name":"西餐厅","address":"浦东新区云山路1988号(近明月路)查看地图"},{"poiid":"B2094751D569A0FF449B","title":"浦东国际机场","lon":"121.600019","lat":"31.224745","category":"500","category_name":"未知分类","address":null},{"poiid":"B2094654DA6AA1F4409E","title":"上海浦东三桥百花园","lon":"121.5997","lat":"31.22845","category":"196","category_name":"公园","address":""},{"poiid":"B2094757D068A0F44193","title":"Vizcaya Club Lounge","lon":"121.582017","lat":"31.233228","category":"67","category_name":"甜品店","address":"上海浦东新区云山路1988号(近明月路)"},{"poiid":"B2094750DA68A6F4469D","title":"张江高科德国中心","lon":"121.587496","lat":"31.212141","category":"46","category_name":"楼宇","address":"浦东新区科苑路88号"},{"poiid":"B2094757D16CA1FE439B","title":"张江","lon":"121.591663","lat":"31.212274","category":"500","category_name":"未知分类","address":"上海牛顿路"},{"poiid":"B2094654DA6AA6F4439B","title":"上海市公安局浦东分局交通警察支队五大队","lon":"121.60643","lat":"31.2189","category":"250","category_name":"公园户外","address":"龙东大道1920"},{"poiid":"B2094757D065ABFC4499","title":"奇华顿日用香精香料(上海)有限公司","lon":"121.59351521","lat":"31.212836643","category":"46","category_name":"楼宇","address":"上海张江高科技园区李时珍路298号"},{"poiid":"B2094757D16AA2FB4992","title":"网易","lon":"121.59510697","lat":"31.228367317","category":"500","category_name":"未知分类","address":"上海市浦东新区碧波路690号5号楼"}]