[{"poiid":"B2094757D069A0FE449D","title":"花王世家","lon":"121.668112379","lat":"31.1260279959","category":"76","category_name":"上海菜","address":"浦东新区瓦屑村旗杆村958号(近葡萄路)"},{"poiid":"B2094757D065A4FE469F","title":"上海迪士尼项目工地","lon":"121.66061608","lat":"31.15002032","category":"500","category_name":"未知分类","address":"上海市浦东新区Ｓ２沪芦高速"},{"poiid":"B2094757D06BA2F5479D","title":"黄楼嘉缘休闲农庄","lon":"121.67767","lat":"31.15768","category":"76","category_name":"上海菜","address":"浦东新区川沙镇唐黄路155号(近A1唐黄路出口)"},{"poiid":"B2094655D36CA0F4439F","title":"黄楼镇","lon":"121.6705","lat":"31.16318","category":"38","category_name":"公交车站","address":""},{"poiid":"B2094655D26DA6FD419B","title":"赵行公园(黄赵路)","lon":"121.66418","lat":"31.14142","category":"196","category_name":"公园","address":"赵行中心村"},{"poiid":"B2094757D168A5FC4699","title":"爱心动物园","lon":"121.677571","lat":"31.151771","category":"500","category_name":"未知分类","address":"上海薇家"},{"poiid":"B2094655D36CA0FF4399","title":"金家村","lon":"121.67837","lat":"31.15612","category":"38","category_name":"公交车站","address":""},{"poiid":"B2094654DB6DA6FF4299","title":"杭州华联(川展路)","lon":"121.66979","lat":"31.15413","category":"118","category_name":"超级市场","address":""},{"poiid":"B2094655D26BA2F94999","title":"唐黄路","lon":"121.67626","lat":"31.15877","category":"38","category_name":"公交车站","address":""},{"poiid":"B2094757D16DA2FE449D","title":"陈桥村村委会","lon":"121.689964357","lat":"31.1429426623","category":"500","category_name":"未知分类","address":"上海南六公路"},{"poiid":"B2094753D164A7FC469F","title":"上海野生动物园","lon":"121.688671","lat":"31.148705","category":"500","category_name":"未知分类","address":"上海市 浦东新区南六公路"},{"poiid":"B2094655D36CA2FE489F","title":"旗杆","lon":"121.66084","lat":"31.15209","category":"38","category_name":"公交车站","address":""},{"poiid":"B2094655D36DA2FE439A","title":"人民桥","lon":"121.6682","lat":"31.13301","category":"250","category_name":"公园户外","address":""},{"poiid":"B2094757D06AAAF9499F","title":"汇之星奔驰4S店","lon":"121.6834259","lat":"31.154672622","category":"500","category_name":"未知分类","address":"上海南六公路1233弄"},{"poiid":"B2094655D36CA0F44392","title":"黄楼","lon":"121.67029","lat":"31.16313","category":"38","category_name":"公交车站","address":""},{"poiid":"B2094654DB6DA6FC4498","title":"浦东新区黄楼幼儿园","lon":"121.67042","lat":"31.16168","category":"57","category_name":"幼儿园","address":"浦东新区黄楼栏学路495号"},{"poiid":"B2094757D165A1F8479A","title":"吉祥馄饨(南桥店)","lon":"121.668402","lat":"31.162874","category":"247","category_name":"餐饮美食","address":"上海市浦东新区川沙新镇川黄路195号"},{"poiid":"B2094757D16AA3FB439A","title":"鼎鑫名流苑","lon":"121.669069","lat":"31.162963","category":"500","category_name":"未知分类","address":"上海市浦東新區川沙鎮川黃路"},{"poiid":"B2094654DB6DA6FC4098","title":"黄楼派出所","lon":"121.67116","lat":"31.16356","category":"609","category_name":"警察局","address":"川沙镇"},{"poiid":"B2094654DB65A4FE409A","title":"上海吉龙经济发展有限公司","lon":"121.66991","lat":"31.1622","category":"263","category_name":"公司","address":""},{"poiid":"B2094757D168A3FA459B","title":"界龙数码印刷","lon":"121.6685","lat":"31.1625","category":"500","category_name":"未知分类","address":"浦东新区川周路7077号"}]