[{"poiid":"B2094655D26AAAF44499","title":"红子鸡(澳门路店)","lon":"121.44482","lat":"31.2471","category":"72","category_name":"广东菜","address":"普陀区澳门路188号(近昌化路)"},{"poiid":"B2094654DA6CA6F84698","title":"上海市普陀区人民医院","lon":"121.44177","lat":"31.24562","category":"162","category_name":"医院","address":"普陀区江宁路1291号(近澳门路)"},{"poiid":"B2094757D06FA0FF4892","title":"月星家居(澳门路店)","lon":"121.44511","lat":"31.24682","category":"123","category_name":"家具建材市场","address":"普陀区澳门路168号(近昌化路)"},{"poiid":"B209475CD564A7F8439E","title":"上海滩中信泰富店","lon":"121.45602","lat":"31.22851","category":"119","category_name":"商场","address":"\"南京西路1168号中信泰富广场，店铺号221.\r\n\""},{"poiid":"B2094757D06AABF4469C","title":"江宁路澳门路","lon":"121.44116074","lat":"31.246652676","category":"250","category_name":"公园户外","address":"上海市普陀区江宁路澳门路"},{"poiid":"B2094757D068A5FF4093","title":"莫干山路涂鸦墙","lon":"121.44355495","lat":"31.249478668","category":"500","category_name":"未知分类","address":"上海市普陀区莫干山路"},{"poiid":"B2094757D069A6F54099","title":"中华1912文化创意产业园","lon":"121.440299","lat":"31.246047","category":"260","category_name":"其他","address":"上海普陀区澳门路477号"},{"poiid":"B2094757D06FA4FE479B","title":"东方罗玛经典浴场","lon":"121.44088","lat":"31.24721","category":"149","category_name":"洗浴推拿场所","address":"普陀区江宁路1420号(澳门路口)"},{"poiid":"B2094757D06FAAFD4793","title":"古都日式料理","lon":"121.442442742","lat":"31.246909673","category":"247","category_name":"餐饮美食","address":"澳门路339号(近江宁路)"},{"poiid":"B2094757D068A0FE469A","title":"富淳饭店(长寿路店)","lon":"121.44459","lat":"31.24345","category":"72","category_name":"广东菜","address":"普陀区长寿路59号友力国际大厦2-3楼(近昌化路)"},{"poiid":"B2094757D068AAFC4798","title":"夏面馆(澳门路店)","lon":"121.44184","lat":"31.24639","category":"68","category_name":"快餐厅","address":"普陀区澳门路337号(近江宁路)"},{"poiid":"B2094654D565AAFB4699","title":"宝华大厦","lon":"121.445","lat":"31.2455","category":"46","category_name":"楼宇","address":"上海市普陀区常德路1217号"},{"poiid":"B2094757D065A4FB499C","title":"音乐广场","lon":"121.444535586","lat":"31.2441457033","category":"500","category_name":"未知分类","address":"上海江宁路1220号近长寿路"},{"poiid":"B2094654DA6CA6F9469E","title":"河滨围城","lon":"121.44302","lat":"31.247782","category":"47","category_name":"住宅区","address":"上海市普陀区澳门路249号"},{"poiid":"B2094654DA6CA6FB4392","title":"中环商务大厦","lon":"121.443","lat":"31.2464","category":"46","category_name":"楼宇","address":"上海长寿路468号"},{"poiid":"B2094757D069A0FF469D","title":"浅水湾恺悦名城","lon":"121.44122259","lat":"31.248589515","category":"47","category_name":"住宅区","address":"上海普陀区澳门路330弄"},{"poiid":"B2094753D064A7F4459C","title":"翠华餐厅(长寿路店)","lon":"121.44301","lat":"31.24356","category":"72","category_name":"广东菜","address":"普陀区长寿路95号1-2楼(近陕西北路)"},{"poiid":"B2094757D16CA7F54999","title":"闸北区民政局(婚姻登记处)","lon":"121.446137766","lat":"31.2447066643","category":"263","category_name":"公司","address":"上海秣陵路80号3楼"},{"poiid":"B2094757D068A7FF499A","title":"百嘉盛大酒店","lon":"121.44230813","lat":"31.245816833","category":"260","category_name":"其他","address":"上海普陀区江宁路1286号(普陀路口)"},{"poiid":"B2094654D465A7FA419A","title":"小金捞上汤火锅料理","lon":"121.44468436778","lat":"31.247049753008","category":"86","category_name":"火锅店","address":"普陀区昌化路1200号(近莫干山路)"},{"poiid":"B2094654DA6CA6FF4192","title":"普陀区妇婴保健院","lon":"121.44202","lat":"31.24382","category":"162","category_name":"医院","address":"上海普陀区长寿路170号"},{"poiid":"B2094654DB69A6FA409A","title":"中远两湾城四期(璀璨天成)","lon":"121.44374","lat":"31.24952","category":"47","category_name":"住宅区","address":"普陀区中潭路41号"},{"poiid":"B2094757D46BA5FD4399","title":"村夫烤鱼 澳门路店","lon":"121.44433","lat":"31.24693","category":"269","category_name":"烧烤","address":"普陀区昌化路1019号(近澳门路)"},{"poiid":"B2094757D064ABF4489D","title":"秋水云庐","lon":"121.44679758","lat":"31.245626732","category":"47","category_name":"住宅区","address":"上海市普陀区长寿路28弄"},{"poiid":"B2094654DA6CA6F9459D","title":"佳佳大排档","lon":"121.440722054","lat":"31.246286793","category":"257","category_name":"中餐厅","address":"普陀区澳门路(月星家居对面)"},{"poiid":"B2094757D16CABF4409C","title":"段氏姐妹","lon":"121.441385586","lat":"31.2466607526","category":"500","category_name":"未知分类","address":"上海市陕西北路1306号"},{"poiid":"B2094750D464AAF94999","title":"红翼酒吧餐厅","lon":"121.440475","lat":"31.245855","category":"94","category_name":"西餐厅","address":"普陀区澳门路477弄中华1912创意园5栋1楼107室(近陕西北路)"},{"poiid":"B2094757D465A1FF489A","title":"普光饭店","lon":"121.44376006997","lat":"31.246784826925","category":"68","category_name":"快餐厅","address":"普陀区澳门路227号(近昌化路)"},{"poiid":"B2094757D66AA4F84293","title":"广和酒家","lon":"121.44440925838","lat":"31.247162442618","category":"68","category_name":"快餐厅","address":"普陀区昌化路984号(昌化路普陀路)"},{"poiid":"B2094757D66DA3F4439C","title":"东方罗马","lon":"121.441131586","lat":"31.2477197733","category":"500","category_name":"未知分类","address":"上海市普陀区光复西路"},{"poiid":"B2094757D66AA4F8459C","title":"小章饭店 澳门路店","lon":"121.44305360079","lat":"31.246720066867","category":"76","category_name":"上海菜","address":"普陀区澳门路335号(近江宁路)"},{"poiid":"B2094654DA6CA6F94799","title":"妙手湘湖南湘菜馆","lon":"121.44146416276","lat":"31.246605851753","category":"77","category_name":"湖南菜","address":"普陀区澳门路331号(近江宁路)"},{"poiid":"B2094654DA6CA6FF4399","title":"国脉大厦","lon":"121.44273","lat":"31.24448","category":"46","category_name":"楼宇","address":"黄浦区外滩23号,中山东一路,南京东路"},{"poiid":"B2094757D464ABF94298","title":"棒约翰比萨 江宁店 Papa John's Pizza","lon":"121.44304819331","lat":"31.244447002906","category":"94","category_name":"西餐厅","address":"普陀区江宁路1226号(近长寿路)"},{"poiid":"B2094654DB65A4F5429A","title":"必胜宅急送 澳门路店 Pizza Hut","lon":"121.442173054","lat":"31.246578793","category":"68","category_name":"快餐厅","address":"普陀区澳门路289-345号17幢1楼(近昌化路)"},{"poiid":"B2094752DB6BABFD4699","title":"小胖龙虾","lon":"121.443085","lat":"31.243896","category":"247","category_name":"餐饮美食","address":"上海市 江宁路140号"},{"poiid":"B2094654DA6CA6FB4799","title":"兴运大厦","lon":"121.443","lat":"31.2474","category":"46","category_name":"楼宇","address":"常德路1261-1273"},{"poiid":"B2094655D36CA5FA4292","title":"昌化路澳门路","lon":"121.44422","lat":"31.2479","category":"38","category_name":"公交车站","address":""},{"poiid":"B2094654DA6CA7F94392","title":"温州海鲜雁翎店","lon":"121.44459","lat":"31.24658","category":"88","category_name":"海鲜酒楼","address":""},{"poiid":"B2094752DA6CA4F5429A","title":"复旦大学","lon":"121.443138","lat":"31.2465","category":"671","category_name":"高校中心点","address":null},{"poiid":"B2094655D26EA5F54599","title":"东田果味绿茶坊","lon":"121.44323","lat":"31.24686","category":"66","category_name":"茶艺馆","address":"普陀区澳门路333号104号"},{"poiid":"B2094757D469A2F54693","title":"来必堡 澳门路店 Reboo Short order","lon":"121.442477054","lat":"31.246682793","category":"68","category_name":"快餐厅","address":"普陀区澳门路341号(近江宁路)"},{"poiid":"B2094757D06AABF5469E","title":"M50涂鸦墙","lon":"121.44417878","lat":"31.247331665","category":"260","category_name":"其他","address":"上海宝山区大场镇汶水路、沪太路"},{"poiid":"B2094757D06BA4FC499F","title":"福州路(上海文具一条街)","lon":"121.44385528","lat":"31.246913909","category":"500","category_name":"未知分类","address":"上海市黄浦区福州路"},{"poiid":"B2094757D16BAAF94893","title":"常德大厦","lon":"121.443","lat":"31.2473","category":"252","category_name":"楼宇机构","address":"上海市普陀区常德路239号"},{"poiid":"B2094757D065A5FB489B","title":"纺织博物馆","lon":"121.44565","lat":"31.24669","category":"500","category_name":"未知分类","address":"普陀区澳门路150号(澳门路昌化路)"},{"poiid":"B2094757D06FA0F4489A","title":"酒总酒店设备","lon":"121.441762","lat":"31.245922","category":"249","category_name":"购物服务","address":"上海普陀区澳门路345号(近江宁路)"},{"poiid":"B2094654DA6CA6F5449A","title":"顾正红纪念馆","lon":"121.44246","lat":"31.24722","category":"243","category_name":"纪念馆","address":"普陀区澳门路300号(陕西北路宜昌路)"},{"poiid":"B2094757D16FA0FF449D","title":"调频壹广场地下车库","lon":"121.444026886","lat":"31.2473697996","category":"500","category_name":"未知分类","address":"上海普陀区长寿路155号(近陕西北路)"},{"poiid":"B2094655D26DA0F9469B","title":"中国工商银行昌化路分理处","lon":"121.44416","lat":"31.24743","category":"150","category_name":"银行","address":"澳门路280"},{"poiid":"B2094655D26AAAF44499","title":"红子鸡(澳门路店)","lon":"121.44482","lat":"31.2471","category":"72","category_name":"广东菜","address":"普陀区澳门路188号(近昌化路)"},{"poiid":"B2094654DA6CA6F84698","title":"上海市普陀区人民医院","lon":"121.44177","lat":"31.24562","category":"162","category_name":"医院","address":"普陀区江宁路1291号(近澳门路)"},{"poiid":"B2094757D06FA0FF4892","title":"月星家居(澳门路店)","lon":"121.44511","lat":"31.24682","category":"123","category_name":"家具建材市场","address":"普陀区澳门路168号(近昌化路)"},{"poiid":"B209475CD564A7F8439E","title":"上海滩中信泰富店","lon":"121.45602","lat":"31.22851","category":"119","category_name":"商场","address":"\"南京西路1168号中信泰富广场，店铺号221.\r\n\""},{"poiid":"B2094757D06AABF4469C","title":"江宁路澳门路","lon":"121.44116074","lat":"31.246652676","category":"250","category_name":"公园户外","address":"上海市普陀区江宁路澳门路"},{"poiid":"B2094757D068A5FF4093","title":"莫干山路涂鸦墙","lon":"121.44355495","lat":"31.249478668","category":"500","category_name":"未知分类","address":"上海市普陀区莫干山路"},{"poiid":"B2094757D069A6F54099","title":"中华1912文化创意产业园","lon":"121.440299","lat":"31.246047","category":"260","category_name":"其他","address":"上海普陀区澳门路477号"},{"poiid":"B2094757D06FA4FE479B","title":"东方罗玛经典浴场","lon":"121.44088","lat":"31.24721","category":"149","category_name":"洗浴推拿场所","address":"普陀区江宁路1420号(澳门路口)"},{"poiid":"B2094757D06FAAFD4793","title":"古都日式料理","lon":"121.442442742","lat":"31.246909673","category":"247","category_name":"餐饮美食","address":"澳门路339号(近江宁路)"},{"poiid":"B2094757D068A0FE469A","title":"富淳饭店(长寿路店)","lon":"121.44459","lat":"31.24345","category":"72","category_name":"广东菜","address":"普陀区长寿路59号友力国际大厦2-3楼(近昌化路)"},{"poiid":"B2094757D068AAFC4798","title":"夏面馆(澳门路店)","lon":"121.44184","lat":"31.24639","category":"68","category_name":"快餐厅","address":"普陀区澳门路337号(近江宁路)"},{"poiid":"B2094654D565AAFB4699","title":"宝华大厦","lon":"121.445","lat":"31.2455","category":"46","category_name":"楼宇","address":"上海市普陀区常德路1217号"},{"poiid":"B2094757D065A4FB499C","title":"音乐广场","lon":"121.444535586","lat":"31.2441457033","category":"500","category_name":"未知分类","address":"上海江宁路1220号近长寿路"},{"poiid":"B2094654DA6CA6F9469E","title":"河滨围城","lon":"121.44302","lat":"31.247782","category":"47","category_name":"住宅区","address":"上海市普陀区澳门路249号"},{"poiid":"B2094654DA6CA6FB4392","title":"中环商务大厦","lon":"121.443","lat":"31.2464","category":"46","category_name":"楼宇","address":"上海长寿路468号"},{"poiid":"B2094757D069A0FF469D","title":"浅水湾恺悦名城","lon":"121.44122259","lat":"31.248589515","category":"47","category_name":"住宅区","address":"上海普陀区澳门路330弄"},{"poiid":"B2094753D064A7F4459C","title":"翠华餐厅(长寿路店)","lon":"121.44301","lat":"31.24356","category":"72","category_name":"广东菜","address":"普陀区长寿路95号1-2楼(近陕西北路)"},{"poiid":"B2094757D16CA7F54999","title":"闸北区民政局(婚姻登记处)","lon":"121.446137766","lat":"31.2447066643","category":"263","category_name":"公司","address":"上海秣陵路80号3楼"},{"poiid":"B2094757D068A7FF499A","title":"百嘉盛大酒店","lon":"121.44230813","lat":"31.245816833","category":"260","category_name":"其他","address":"上海普陀区江宁路1286号(普陀路口)"},{"poiid":"B2094654D465A7FA419A","title":"小金捞上汤火锅料理","lon":"121.44468436778","lat":"31.247049753008","category":"86","category_name":"火锅店","address":"普陀区昌化路1200号(近莫干山路)"},{"poiid":"B2094654DA6CA6FF4192","title":"普陀区妇婴保健院","lon":"121.44202","lat":"31.24382","category":"162","category_name":"医院","address":"上海普陀区长寿路170号"},{"poiid":"B2094654DB69A6FA409A","title":"中远两湾城四期(璀璨天成)","lon":"121.44374","lat":"31.24952","category":"47","category_name":"住宅区","address":"普陀区中潭路41号"},{"poiid":"B2094757D46BA5FD4399","title":"村夫烤鱼 澳门路店","lon":"121.44433","lat":"31.24693","category":"269","category_name":"烧烤","address":"普陀区昌化路1019号(近澳门路)"},{"poiid":"B2094757D064ABF4489D","title":"秋水云庐","lon":"121.44679758","lat":"31.245626732","category":"47","category_name":"住宅区","address":"上海市普陀区长寿路28弄"},{"poiid":"B2094654DA6CA6F9459D","title":"佳佳大排档","lon":"121.440722054","lat":"31.246286793","category":"257","category_name":"中餐厅","address":"普陀区澳门路(月星家居对面)"},{"poiid":"B2094757D16CABF4409C","title":"段氏姐妹","lon":"121.441385586","lat":"31.2466607526","category":"500","category_name":"未知分类","address":"上海市陕西北路1306号"},{"poiid":"B2094750D464AAF94999","title":"红翼酒吧餐厅","lon":"121.440475","lat":"31.245855","category":"94","category_name":"西餐厅","address":"普陀区澳门路477弄中华1912创意园5栋1楼107室(近陕西北路)"},{"poiid":"B2094757D465A1FF489A","title":"普光饭店","lon":"121.44376006997","lat":"31.246784826925","category":"68","category_name":"快餐厅","address":"普陀区澳门路227号(近昌化路)"},{"poiid":"B2094757D66AA4F84293","title":"广和酒家","lon":"121.44440925838","lat":"31.247162442618","category":"68","category_name":"快餐厅","address":"普陀区昌化路984号(昌化路普陀路)"},{"poiid":"B2094757D66DA3F4439C","title":"东方罗马","lon":"121.441131586","lat":"31.2477197733","category":"500","category_name":"未知分类","address":"上海市普陀区光复西路"},{"poiid":"B2094757D66AA4F8459C","title":"小章饭店 澳门路店","lon":"121.44305360079","lat":"31.246720066867","category":"76","category_name":"上海菜","address":"普陀区澳门路335号(近江宁路)"},{"poiid":"B2094654DA6CA6F94799","title":"妙手湘湖南湘菜馆","lon":"121.44146416276","lat":"31.246605851753","category":"77","category_name":"湖南菜","address":"普陀区澳门路331号(近江宁路)"},{"poiid":"B2094654DA6CA6FF4399","title":"国脉大厦","lon":"121.44273","lat":"31.24448","category":"46","category_name":"楼宇","address":"黄浦区外滩23号,中山东一路,南京东路"},{"poiid":"B2094757D464ABF94298","title":"棒约翰比萨 江宁店 Papa John's Pizza","lon":"121.44304819331","lat":"31.244447002906","category":"94","category_name":"西餐厅","address":"普陀区江宁路1226号(近长寿路)"},{"poiid":"B2094654DB65A4F5429A","title":"必胜宅急送 澳门路店 Pizza Hut","lon":"121.442173054","lat":"31.246578793","category":"68","category_name":"快餐厅","address":"普陀区澳门路289-345号17幢1楼(近昌化路)"},{"poiid":"B2094752DB6BABFD4699","title":"小胖龙虾","lon":"121.443085","lat":"31.243896","category":"247","category_name":"餐饮美食","address":"上海市 江宁路140号"},{"poiid":"B2094654DA6CA6FB4799","title":"兴运大厦","lon":"121.443","lat":"31.2474","category":"46","category_name":"楼宇","address":"常德路1261-1273"},{"poiid":"B2094655D36CA5FA4292","title":"昌化路澳门路","lon":"121.44422","lat":"31.2479","category":"38","category_name":"公交车站","address":""},{"poiid":"B2094654DA6CA7F94392","title":"温州海鲜雁翎店","lon":"121.44459","lat":"31.24658","category":"88","category_name":"海鲜酒楼","address":""},{"poiid":"B2094752DA6CA4F5429A","title":"复旦大学","lon":"121.443138","lat":"31.2465","category":"671","category_name":"高校中心点","address":null},{"poiid":"B2094655D26EA5F54599","title":"东田果味绿茶坊","lon":"121.44323","lat":"31.24686","category":"66","category_name":"茶艺馆","address":"普陀区澳门路333号104号"},{"poiid":"B2094757D469A2F54693","title":"来必堡 澳门路店 Reboo Short order","lon":"121.442477054","lat":"31.246682793","category":"68","category_name":"快餐厅","address":"普陀区澳门路341号(近江宁路)"},{"poiid":"B2094757D06AABF5469E","title":"M50涂鸦墙","lon":"121.44417878","lat":"31.247331665","category":"260","category_name":"其他","address":"上海宝山区大场镇汶水路、沪太路"},{"poiid":"B2094757D06BA4FC499F","title":"福州路(上海文具一条街)","lon":"121.44385528","lat":"31.246913909","category":"500","category_name":"未知分类","address":"上海市黄浦区福州路"},{"poiid":"B2094757D16BAAF94893","title":"常德大厦","lon":"121.443","lat":"31.2473","category":"252","category_name":"楼宇机构","address":"上海市普陀区常德路239号"},{"poiid":"B2094757D065A5FB489B","title":"纺织博物馆","lon":"121.44565","lat":"31.24669","category":"500","category_name":"未知分类","address":"普陀区澳门路150号(澳门路昌化路)"},{"poiid":"B2094757D06FA0F4489A","title":"酒总酒店设备","lon":"121.441762","lat":"31.245922","category":"249","category_name":"购物服务","address":"上海普陀区澳门路345号(近江宁路)"},{"poiid":"B2094654DA6CA6F5449A","title":"顾正红纪念馆","lon":"121.44246","lat":"31.24722","category":"243","category_name":"纪念馆","address":"普陀区澳门路300号(陕西北路宜昌路)"},{"poiid":"B2094757D16FA0FF449D","title":"调频壹广场地下车库","lon":"121.444026886","lat":"31.2473697996","category":"500","category_name":"未知分类","address":"上海普陀区长寿路155号(近陕西北路)"},{"poiid":"B2094655D26DA0F9469B","title":"中国工商银行昌化路分理处","lon":"121.44416","lat":"31.24743","category":"150","category_name":"银行","address":"澳门路280"},{"poiid":"B2094655D26AAAF44499","title":"红子鸡(澳门路店)","lon":"121.44482","lat":"31.2471","category":"72","category_name":"广东菜","address":"普陀区澳门路188号(近昌化路)"},{"poiid":"B2094654DA6CA6F84698","title":"上海市普陀区人民医院","lon":"121.44177","lat":"31.24562","category":"162","category_name":"医院","address":"普陀区江宁路1291号(近澳门路)"},{"poiid":"B2094757D06FA0FF4892","title":"月星家居(澳门路店)","lon":"121.44511","lat":"31.24682","category":"123","category_name":"家具建材市场","address":"普陀区澳门路168号(近昌化路)"},{"poiid":"B209475CD564A7F8439E","title":"上海滩中信泰富店","lon":"121.45602","lat":"31.22851","category":"119","category_name":"商场","address":"\"南京西路1168号中信泰富广场，店铺号221.\r\n\""},{"poiid":"B2094757D06AABF4469C","title":"江宁路澳门路","lon":"121.44116074","lat":"31.246652676","category":"250","category_name":"公园户外","address":"上海市普陀区江宁路澳门路"},{"poiid":"B2094757D068A5FF4093","title":"莫干山路涂鸦墙","lon":"121.44355495","lat":"31.249478668","category":"500","category_name":"未知分类","address":"上海市普陀区莫干山路"},{"poiid":"B2094757D069A6F54099","title":"中华1912文化创意产业园","lon":"121.440299","lat":"31.246047","category":"260","category_name":"其他","address":"上海普陀区澳门路477号"},{"poiid":"B2094757D06FA4FE479B","title":"东方罗玛经典浴场","lon":"121.44088","lat":"31.24721","category":"149","category_name":"洗浴推拿场所","address":"普陀区江宁路1420号(澳门路口)"},{"poiid":"B2094757D06FAAFD4793","title":"古都日式料理","lon":"121.442442742","lat":"31.246909673","category":"247","category_name":"餐饮美食","address":"澳门路339号(近江宁路)"},{"poiid":"B2094757D068A0FE469A","title":"富淳饭店(长寿路店)","lon":"121.44459","lat":"31.24345","category":"72","category_name":"广东菜","address":"普陀区长寿路59号友力国际大厦2-3楼(近昌化路)"},{"poiid":"B2094757D068AAFC4798","title":"夏面馆(澳门路店)","lon":"121.44184","lat":"31.24639","category":"68","category_name":"快餐厅","address":"普陀区澳门路337号(近江宁路)"},{"poiid":"B2094654D565AAFB4699","title":"宝华大厦","lon":"121.445","lat":"31.2455","category":"46","category_name":"楼宇","address":"上海市普陀区常德路1217号"},{"poiid":"B2094757D065A4FB499C","title":"音乐广场","lon":"121.444535586","lat":"31.2441457033","category":"500","category_name":"未知分类","address":"上海江宁路1220号近长寿路"},{"poiid":"B2094654DA6CA6F9469E","title":"河滨围城","lon":"121.44302","lat":"31.247782","category":"47","category_name":"住宅区","address":"上海市普陀区澳门路249号"},{"poiid":"B2094654DA6CA6FB4392","title":"中环商务大厦","lon":"121.443","lat":"31.2464","category":"46","category_name":"楼宇","address":"上海长寿路468号"},{"poiid":"B2094757D069A0FF469D","title":"浅水湾恺悦名城","lon":"121.44122259","lat":"31.248589515","category":"47","category_name":"住宅区","address":"上海普陀区澳门路330弄"},{"poiid":"B2094753D064A7F4459C","title":"翠华餐厅(长寿路店)","lon":"121.44301","lat":"31.24356","category":"72","category_name":"广东菜","address":"普陀区长寿路95号1-2楼(近陕西北路)"},{"poiid":"B2094757D16CA7F54999","title":"闸北区民政局(婚姻登记处)","lon":"121.446137766","lat":"31.2447066643","category":"263","category_name":"公司","address":"上海秣陵路80号3楼"},{"poiid":"B2094757D068A7FF499A","title":"百嘉盛大酒店","lon":"121.44230813","lat":"31.245816833","category":"260","category_name":"其他","address":"上海普陀区江宁路1286号(普陀路口)"},{"poiid":"B2094654D465A7FA419A","title":"小金捞上汤火锅料理","lon":"121.44468436778","lat":"31.247049753008","category":"86","category_name":"火锅店","address":"普陀区昌化路1200号(近莫干山路)"},{"poiid":"B2094654DA6CA6FF4192","title":"普陀区妇婴保健院","lon":"121.44202","lat":"31.24382","category":"162","category_name":"医院","address":"上海普陀区长寿路170号"},{"poiid":"B2094654DB69A6FA409A","title":"中远两湾城四期(璀璨天成)","lon":"121.44374","lat":"31.24952","category":"47","category_name":"住宅区","address":"普陀区中潭路41号"},{"poiid":"B2094757D46BA5FD4399","title":"村夫烤鱼 澳门路店","lon":"121.44433","lat":"31.24693","category":"269","category_name":"烧烤","address":"普陀区昌化路1019号(近澳门路)"},{"poiid":"B2094757D064ABF4489D","title":"秋水云庐","lon":"121.44679758","lat":"31.245626732","category":"47","category_name":"住宅区","address":"上海市普陀区长寿路28弄"},{"poiid":"B2094654DA6CA6F9459D","title":"佳佳大排档","lon":"121.440722054","lat":"31.246286793","category":"257","category_name":"中餐厅","address":"普陀区澳门路(月星家居对面)"},{"poiid":"B2094757D16CABF4409C","title":"段氏姐妹","lon":"121.441385586","lat":"31.2466607526","category":"500","category_name":"未知分类","address":"上海市陕西北路1306号"},{"poiid":"B2094750D464AAF94999","title":"红翼酒吧餐厅","lon":"121.440475","lat":"31.245855","category":"94","category_name":"西餐厅","address":"普陀区澳门路477弄中华1912创意园5栋1楼107室(近陕西北路)"},{"poiid":"B2094757D465A1FF489A","title":"普光饭店","lon":"121.44376006997","lat":"31.246784826925","category":"68","category_name":"快餐厅","address":"普陀区澳门路227号(近昌化路)"},{"poiid":"B2094757D66AA4F84293","title":"广和酒家","lon":"121.44440925838","lat":"31.247162442618","category":"68","category_name":"快餐厅","address":"普陀区昌化路984号(昌化路普陀路)"},{"poiid":"B2094757D66DA3F4439C","title":"东方罗马","lon":"121.441131586","lat":"31.2477197733","category":"500","category_name":"未知分类","address":"上海市普陀区光复西路"},{"poiid":"B2094757D66AA4F8459C","title":"小章饭店 澳门路店","lon":"121.44305360079","lat":"31.246720066867","category":"76","category_name":"上海菜","address":"普陀区澳门路335号(近江宁路)"},{"poiid":"B2094654DA6CA6F94799","title":"妙手湘湖南湘菜馆","lon":"121.44146416276","lat":"31.246605851753","category":"77","category_name":"湖南菜","address":"普陀区澳门路331号(近江宁路)"},{"poiid":"B2094654DA6CA6FF4399","title":"国脉大厦","lon":"121.44273","lat":"31.24448","category":"46","category_name":"楼宇","address":"黄浦区外滩23号,中山东一路,南京东路"},{"poiid":"B2094757D464ABF94298","title":"棒约翰比萨 江宁店 Papa John's Pizza","lon":"121.44304819331","lat":"31.244447002906","category":"94","category_name":"西餐厅","address":"普陀区江宁路1226号(近长寿路)"},{"poiid":"B2094654DB65A4F5429A","title":"必胜宅急送 澳门路店 Pizza Hut","lon":"121.442173054","lat":"31.246578793","category":"68","category_name":"快餐厅","address":"普陀区澳门路289-345号17幢1楼(近昌化路)"},{"poiid":"B2094752DB6BABFD4699","title":"小胖龙虾","lon":"121.443085","lat":"31.243896","category":"247","category_name":"餐饮美食","address":"上海市 江宁路140号"},{"poiid":"B2094654DA6CA6FB4799","title":"兴运大厦","lon":"121.443","lat":"31.2474","category":"46","category_name":"楼宇","address":"常德路1261-1273"},{"poiid":"B2094655D36CA5FA4292","title":"昌化路澳门路","lon":"121.44422","lat":"31.2479","category":"38","category_name":"公交车站","address":""},{"poiid":"B2094654DA6CA7F94392","title":"温州海鲜雁翎店","lon":"121.44459","lat":"31.24658","category":"88","category_name":"海鲜酒楼","address":""},{"poiid":"B2094752DA6CA4F5429A","title":"复旦大学","lon":"121.443138","lat":"31.2465","category":"671","category_name":"高校中心点","address":null},{"poiid":"B2094655D26EA5F54599","title":"东田果味绿茶坊","lon":"121.44323","lat":"31.24686","category":"66","category_name":"茶艺馆","address":"普陀区澳门路333号104号"},{"poiid":"B2094757D469A2F54693","title":"来必堡 澳门路店 Reboo Short order","lon":"121.442477054","lat":"31.246682793","category":"68","category_name":"快餐厅","address":"普陀区澳门路341号(近江宁路)"},{"poiid":"B2094757D06AABF5469E","title":"M50涂鸦墙","lon":"121.44417878","lat":"31.247331665","category":"260","category_name":"其他","address":"上海宝山区大场镇汶水路、沪太路"},{"poiid":"B2094757D06BA4FC499F","title":"福州路(上海文具一条街)","lon":"121.44385528","lat":"31.246913909","category":"500","category_name":"未知分类","address":"上海市黄浦区福州路"},{"poiid":"B2094757D16BAAF94893","title":"常德大厦","lon":"121.443","lat":"31.2473","category":"252","category_name":"楼宇机构","address":"上海市普陀区常德路239号"},{"poiid":"B2094757D065A5FB489B","title":"纺织博物馆","lon":"121.44565","lat":"31.24669","category":"500","category_name":"未知分类","address":"普陀区澳门路150号(澳门路昌化路)"},{"poiid":"B2094757D06FA0F4489A","title":"酒总酒店设备","lon":"121.441762","lat":"31.245922","category":"249","category_name":"购物服务","address":"上海普陀区澳门路345号(近江宁路)"},{"poiid":"B2094654DA6CA6F5449A","title":"顾正红纪念馆","lon":"121.44246","lat":"31.24722","category":"243","category_name":"纪念馆","address":"普陀区澳门路300号(陕西北路宜昌路)"},{"poiid":"B2094757D16FA0FF449D","title":"调频壹广场地下车库","lon":"121.444026886","lat":"31.2473697996","category":"500","category_name":"未知分类","address":"上海普陀区长寿路155号(近陕西北路)"},{"poiid":"B2094655D26DA0F9469B","title":"中国工商银行昌化路分理处","lon":"121.44416","lat":"31.24743","category":"150","category_name":"银行","address":"澳门路280"},{"poiid":"B2094655D26AAAF44499","title":"红子鸡(澳门路店)","lon":"121.44482","lat":"31.2471","category":"72","category_name":"广东菜","address":"普陀区澳门路188号(近昌化路)"},{"poiid":"B2094654DA6CA6F84698","title":"上海市普陀区人民医院","lon":"121.44177","lat":"31.24562","category":"162","category_name":"医院","address":"普陀区江宁路1291号(近澳门路)"},{"poiid":"B2094757D06FA0FF4892","title":"月星家居(澳门路店)","lon":"121.44511","lat":"31.24682","category":"123","category_name":"家具建材市场","address":"普陀区澳门路168号(近昌化路)"},{"poiid":"B209475CD564A7F8439E","title":"上海滩中信泰富店","lon":"121.45602","lat":"31.22851","category":"119","category_name":"商场","address":"\"南京西路1168号中信泰富广场，店铺号221.\r\n\""},{"poiid":"B2094757D06AABF4469C","title":"江宁路澳门路","lon":"121.44116074","lat":"31.246652676","category":"250","category_name":"公园户外","address":"上海市普陀区江宁路澳门路"},{"poiid":"B2094757D068A5FF4093","title":"莫干山路涂鸦墙","lon":"121.44355495","lat":"31.249478668","category":"500","category_name":"未知分类","address":"上海市普陀区莫干山路"},{"poiid":"B2094757D069A6F54099","title":"中华1912文化创意产业园","lon":"121.440299","lat":"31.246047","category":"260","category_name":"其他","address":"上海普陀区澳门路477号"},{"poiid":"B2094757D06FA4FE479B","title":"东方罗玛经典浴场","lon":"121.44088","lat":"31.24721","category":"149","category_name":"洗浴推拿场所","address":"普陀区江宁路1420号(澳门路口)"},{"poiid":"B2094757D06FAAFD4793","title":"古都日式料理","lon":"121.442442742","lat":"31.246909673","category":"247","category_name":"餐饮美食","address":"澳门路339号(近江宁路)"},{"poiid":"B2094757D068A0FE469A","title":"富淳饭店(长寿路店)","lon":"121.44459","lat":"31.24345","category":"72","category_name":"广东菜","address":"普陀区长寿路59号友力国际大厦2-3楼(近昌化路)"},{"poiid":"B2094757D068AAFC4798","title":"夏面馆(澳门路店)","lon":"121.44184","lat":"31.24639","category":"68","category_name":"快餐厅","address":"普陀区澳门路337号(近江宁路)"},{"poiid":"B2094654D565AAFB4699","title":"宝华大厦","lon":"121.445","lat":"31.2455","category":"46","category_name":"楼宇","address":"上海市普陀区常德路1217号"},{"poiid":"B2094757D065A4FB499C","title":"音乐广场","lon":"121.444535586","lat":"31.2441457033","category":"500","category_name":"未知分类","address":"上海江宁路1220号近长寿路"},{"poiid":"B2094654DA6CA6F9469E","title":"河滨围城","lon":"121.44302","lat":"31.247782","category":"47","category_name":"住宅区","address":"上海市普陀区澳门路249号"},{"poiid":"B2094654DA6CA6FB4392","title":"中环商务大厦","lon":"121.443","lat":"31.2464","category":"46","category_name":"楼宇","address":"上海长寿路468号"},{"poiid":"B2094757D069A0FF469D","title":"浅水湾恺悦名城","lon":"121.44122259","lat":"31.248589515","category":"47","category_name":"住宅区","address":"上海普陀区澳门路330弄"},{"poiid":"B2094753D064A7F4459C","title":"翠华餐厅(长寿路店)","lon":"121.44301","lat":"31.24356","category":"72","category_name":"广东菜","address":"普陀区长寿路95号1-2楼(近陕西北路)"},{"poiid":"B2094757D16CA7F54999","title":"闸北区民政局(婚姻登记处)","lon":"121.446137766","lat":"31.2447066643","category":"263","category_name":"公司","address":"上海秣陵路80号3楼"},{"poiid":"B2094757D068A7FF499A","title":"百嘉盛大酒店","lon":"121.44230813","lat":"31.245816833","category":"260","category_name":"其他","address":"上海普陀区江宁路1286号(普陀路口)"},{"poiid":"B2094654D465A7FA419A","title":"小金捞上汤火锅料理","lon":"121.44468436778","lat":"31.247049753008","category":"86","category_name":"火锅店","address":"普陀区昌化路1200号(近莫干山路)"},{"poiid":"B2094654DA6CA6FF4192","title":"普陀区妇婴保健院","lon":"121.44202","lat":"31.24382","category":"162","category_name":"医院","address":"上海普陀区长寿路170号"},{"poiid":"B2094654DB69A6FA409A","title":"中远两湾城四期(璀璨天成)","lon":"121.44374","lat":"31.24952","category":"47","category_name":"住宅区","address":"普陀区中潭路41号"},{"poiid":"B2094757D46BA5FD4399","title":"村夫烤鱼 澳门路店","lon":"121.44433","lat":"31.24693","category":"269","category_name":"烧烤","address":"普陀区昌化路1019号(近澳门路)"},{"poiid":"B2094757D064ABF4489D","title":"秋水云庐","lon":"121.44679758","lat":"31.245626732","category":"47","category_name":"住宅区","address":"上海市普陀区长寿路28弄"},{"poiid":"B2094654DA6CA6F9459D","title":"佳佳大排档","lon":"121.440722054","lat":"31.246286793","category":"257","category_name":"中餐厅","address":"普陀区澳门路(月星家居对面)"},{"poiid":"B2094757D16CABF4409C","title":"段氏姐妹","lon":"121.441385586","lat":"31.2466607526","category":"500","category_name":"未知分类","address":"上海市陕西北路1306号"},{"poiid":"B2094750D464AAF94999","title":"红翼酒吧餐厅","lon":"121.440475","lat":"31.245855","category":"94","category_name":"西餐厅","address":"普陀区澳门路477弄中华1912创意园5栋1楼107室(近陕西北路)"},{"poiid":"B2094757D465A1FF489A","title":"普光饭店","lon":"121.44376006997","lat":"31.246784826925","category":"68","category_name":"快餐厅","address":"普陀区澳门路227号(近昌化路)"},{"poiid":"B2094757D66AA4F84293","title":"广和酒家","lon":"121.44440925838","lat":"31.247162442618","category":"68","category_name":"快餐厅","address":"普陀区昌化路984号(昌化路普陀路)"},{"poiid":"B2094757D66DA3F4439C","title":"东方罗马","lon":"121.441131586","lat":"31.2477197733","category":"500","category_name":"未知分类","address":"上海市普陀区光复西路"},{"poiid":"B2094757D66AA4F8459C","title":"小章饭店 澳门路店","lon":"121.44305360079","lat":"31.246720066867","category":"76","category_name":"上海菜","address":"普陀区澳门路335号(近江宁路)"},{"poiid":"B2094654DA6CA6F94799","title":"妙手湘湖南湘菜馆","lon":"121.44146416276","lat":"31.246605851753","category":"77","category_name":"湖南菜","address":"普陀区澳门路331号(近江宁路)"},{"poiid":"B2094654DA6CA6FF4399","title":"国脉大厦","lon":"121.44273","lat":"31.24448","category":"46","category_name":"楼宇","address":"黄浦区外滩23号,中山东一路,南京东路"},{"poiid":"B2094757D464ABF94298","title":"棒约翰比萨 江宁店 Papa John's Pizza","lon":"121.44304819331","lat":"31.244447002906","category":"94","category_name":"西餐厅","address":"普陀区江宁路1226号(近长寿路)"},{"poiid":"B2094654DB65A4F5429A","title":"必胜宅急送 澳门路店 Pizza Hut","lon":"121.442173054","lat":"31.246578793","category":"68","category_name":"快餐厅","address":"普陀区澳门路289-345号17幢1楼(近昌化路)"},{"poiid":"B2094752DB6BABFD4699","title":"小胖龙虾","lon":"121.443085","lat":"31.243896","category":"247","category_name":"餐饮美食","address":"上海市 江宁路140号"},{"poiid":"B2094654DA6CA6FB4799","title":"兴运大厦","lon":"121.443","lat":"31.2474","category":"46","category_name":"楼宇","address":"常德路1261-1273"},{"poiid":"B2094655D36CA5FA4292","title":"昌化路澳门路","lon":"121.44422","lat":"31.2479","category":"38","category_name":"公交车站","address":""},{"poiid":"B2094654DA6CA7F94392","title":"温州海鲜雁翎店","lon":"121.44459","lat":"31.24658","category":"88","category_name":"海鲜酒楼","address":""},{"poiid":"B2094752DA6CA4F5429A","title":"复旦大学","lon":"121.443138","lat":"31.2465","category":"671","category_name":"高校中心点","address":null},{"poiid":"B2094655D26EA5F54599","title":"东田果味绿茶坊","lon":"121.44323","lat":"31.24686","category":"66","category_name":"茶艺馆","address":"普陀区澳门路333号104号"},{"poiid":"B2094757D469A2F54693","title":"来必堡 澳门路店 Reboo Short order","lon":"121.442477054","lat":"31.246682793","category":"68","category_name":"快餐厅","address":"普陀区澳门路341号(近江宁路)"},{"poiid":"B2094757D06AABF5469E","title":"M50涂鸦墙","lon":"121.44417878","lat":"31.247331665","category":"260","category_name":"其他","address":"上海宝山区大场镇汶水路、沪太路"},{"poiid":"B2094757D06BA4FC499F","title":"福州路(上海文具一条街)","lon":"121.44385528","lat":"31.246913909","category":"500","category_name":"未知分类","address":"上海市黄浦区福州路"},{"poiid":"B2094757D16BAAF94893","title":"常德大厦","lon":"121.443","lat":"31.2473","category":"252","category_name":"楼宇机构","address":"上海市普陀区常德路239号"},{"poiid":"B2094757D065A5FB489B","title":"纺织博物馆","lon":"121.44565","lat":"31.24669","category":"500","category_name":"未知分类","address":"普陀区澳门路150号(澳门路昌化路)"},{"poiid":"B2094757D06FA0F4489A","title":"酒总酒店设备","lon":"121.441762","lat":"31.245922","category":"249","category_name":"购物服务","address":"上海普陀区澳门路345号(近江宁路)"},{"poiid":"B2094654DA6CA6F5449A","title":"顾正红纪念馆","lon":"121.44246","lat":"31.24722","category":"243","category_name":"纪念馆","address":"普陀区澳门路300号(陕西北路宜昌路)"},{"poiid":"B2094757D16FA0FF449D","title":"调频壹广场地下车库","lon":"121.444026886","lat":"31.2473697996","category":"500","category_name":"未知分类","address":"上海普陀区长寿路155号(近陕西北路)"},{"poiid":"B2094655D26DA0F9469B","title":"中国工商银行昌化路分理处","lon":"121.44416","lat":"31.24743","category":"150","category_name":"银行","address":"澳门路280"}]