[{"poiid":"B2094655D26BA2F5439C","title":"浦东市民中心","lon":"121.54692","lat":"31.22326","category":"38","category_name":"公交车站","address":"合欢路2号"},{"poiid":"B2094654DA69A3FE4792","title":"上海东方艺术中心(Shanghai Oriental Art Center)","lon":"121.54141","lat":"31.22273","category":"180","category_name":"剧场","address":"上海浦东新区丁香路425号(近世纪大道)"},{"poiid":"B2094654DA69A3FF4898","title":"上海市公安局出入境管理局","lon":"121.54994","lat":"31.22182","category":"252","category_name":"楼宇机构","address":"浦东新区民生路1500"},{"poiid":"B2094654DA69A3FF4899","title":"上海浦东展览馆","lon":"121.54872","lat":"31.22144","category":"183","category_name":"展览馆","address":"浦东新区合欢路201号(迎春路口)"},{"poiid":"B2094654DB6AA6F8409B","title":"上海淳大万丽酒店","lon":"121.55226","lat":"31.22385","category":"213","category_name":"五星级宾馆","address":"浦东新区长柳路100号(近迎春路)"},{"poiid":"B2094654DA69A2F54798","title":"世纪皇冠假日酒店","lon":"121.55118","lat":"31.22346","category":"213","category_name":"五星级宾馆","address":"浦东新区民生路1433号(近迎春路)"},{"poiid":"B2094757D06FA2FA429A","title":"上海东方艺术中心Shanghai Oriental Art Center","lon":"121.54141842189642","lat":"31.22291030374493","category":"179","category_name":"音乐厅","address":"上海浦东新区丁香路425号"},{"poiid":"B2094757D06AA3F84792","title":"浦东新区民政局","lon":"121.546454","lat":"31.224071","category":"500","category_name":"未知分类","address":"上海合欢路2号"},{"poiid":"B2094757D06EAAFA449A","title":"上海科技馆地铁站","lon":"121.54296","lat":"31.219458","category":"36","category_name":"地铁站","address":"上海轨道交通 二号线 轨交上海科技馆站 2"},{"poiid":"B2094757D06FA6F54999","title":"东怡大酒店","lon":"121.54299542","lat":"31.22411864","category":"217","category_name":"旅馆招待所","address":"浦东新区丁香路555号(东方艺术中心旁)"},{"poiid":"B2094757D06FA0F44798","title":"上海浦东出入境检验检疫局","lon":"121.54857635","lat":"31.225637435","category":"500","category_name":"未知分类","address":"上海民生路1208号"},{"poiid":"B2094654DB6BAAFC499A","title":"证大五道口广场","lon":"121.55026","lat":"31.22629","category":"45","category_name":"产业园区","address":"浦东新区民生路1199弄"},{"poiid":"B2094655D36DA0F8489F","title":"杨高中路地铁站","lon":"121.5487","lat":"31.22704","category":"36","category_name":"地铁站","address":"上海轨道交通 九号线 轨交杨高中路站 9"},{"poiid":"B2094655D26BA2F54398","title":"浦东新区办公中心","lon":"121.54511","lat":"31.22245","category":"38","category_name":"公交车站","address":""},{"poiid":"B2094654DA69A3FE489F","title":"浦东新区人民法院","lon":"121.54447","lat":"31.22483","category":"608","category_name":"法院","address":"上海市浦东新区丁香路611号"},{"poiid":"B2094757D068A0F44198","title":"上海东方艺术中心-演奏厅(Shanghai Oriental Art Center - Performance Hall)","lon":"121.541374736","lat":"31.2227814309","category":"260","category_name":"其他","address":"上海浦东新区丁香路425号"},{"poiid":"B2094757D069A3FE479C","title":"宝燕壹号","lon":"121.550677","lat":"31.224298","category":"75","category_name":"浙江菜","address":"浦东新区民生路1399号太平人寿大厦1-2楼(近丁香路)"},{"poiid":"B2094757D068A3FD439B","title":"上海人家精作坊(汇商店)","lon":"121.54943","lat":"31.22415","category":"76","category_name":"上海菜","address":"浦东新区民生路1286号汇商大厦3-4楼(丁香路口)"},{"poiid":"B2094757D068A0F4479C","title":"上海移动浦东大楼","lon":"121.549956738","lat":"31.2248151847","category":"500","category_name":"未知分类","address":"上海迎春路670号"},{"poiid":"B2094757D068A1F54693","title":"浦东新区青少年活动中心","lon":"121.54725","lat":"31.22036","category":"249","category_name":"购物服务","address":"上海浦东新区迎春路318号  "},{"poiid":"B2094757D06FAAFD499A","title":"中国银联","lon":"121.5502","lat":"31.22055","category":"46","category_name":"楼宇","address":"浦东新区含笑路36号银联大厦(含笑路民生路)"},{"poiid":"B2094757D068A1FD409D","title":"和记小菜精菜坊","lon":"121.55141","lat":"31.22311","category":"76","category_name":"上海菜","address":"浦东新区民生路1433号世纪皇冠酒店3楼(近迎春路)"},{"poiid":"B2094757D16CA6FE409B","title":"世纪皇冠假日酒店咖啡园","lon":"121.551","lat":"31.22299","category":"268","category_name":"自助","address":"浦东新区民生路1433号上海世纪皇冠假日酒店1楼大堂(迎春路口)"},{"poiid":"B2094757D069A7F8409B","title":"浦东新区公安分局","lon":"121.54691967","lat":"31.224898359","category":"500","category_name":"未知分类","address":"上海浦东新区丁香路655号"},{"poiid":"B2094757D16CAAFB419C","title":"上海银监局","lon":"121.54826773","lat":"31.224110169","category":"500","category_name":"未知分类","address":"上海合欢路35号"},{"poiid":"B2094757D664A2FC419A","title":"天家 浦东店","lon":"121.55253955661","lat":"31.225538360007","category":"95","category_name":"日本料理","address":"浦东新区长柳路105号(长柳路迎春路)"},{"poiid":"B2094757D069A0FB4392","title":"民生路杨高中路","lon":"121.54730074","lat":"31.227248106","category":"500","category_name":"未知分类","address":"上海民生路杨高中路"},{"poiid":"B2094757D068A4F4489B","title":"上海移动民生大楼","lon":"121.55168467","lat":"31.2229133452","category":"46","category_name":"楼宇","address":"上海迎春路670号"},{"poiid":"B2094757D16DABF8489C","title":"浦东新区政府大楼一号楼","lon":"121.544685364","lat":"31.2216567993","category":"500","category_name":"未知分类","address":"上海锦带路22号"},{"poiid":"B2094655D26EA2FF4192","title":"法国餐馆巴黎上海","lon":"121.54141","lat":"31.22273","category":"97","category_name":"法式菜品餐厅","address":"浦东新区丁香路425号上海东方艺术中心B1楼(近世纪大道)"},{"poiid":"B2094654DA69A2F44893","title":"太平人寿大厦","lon":"121.55068","lat":"31.22429","category":"46","category_name":"楼宇","address":"闸北区江场西路395号"},{"poiid":"B2094655D26EA2F4409C","title":"长荣大厦","lon":"121.55006","lat":"31.22619","category":"46","category_name":"楼宇","address":"民生路1199弄证大五道口广场2号楼(南楼)"},{"poiid":"B2094757D66CA7FA409F","title":"中国证监会上海证监局","lon":"121.54776273","lat":"31.22228513","category":"500","category_name":"未知分类","address":"上海市浦东新区迎春路555号"},{"poiid":"B2094751D36CA5FD479C","title":"四季亭(民生路店)","lon":"121.55096","lat":"31.22329","category":"95","category_name":"日本料理","address":"浦东新区民生路1433号世纪皇冠假日酒店2楼(近迎春路路口)"},{"poiid":"B2094757D169A3FD489F","title":"世纪公园游乐园草坪","lon":"121.552391238","lat":"31.2227846414","category":"196","category_name":"公园","address":"上海世纪公园"},{"poiid":"B2094757D068A6F4459A","title":"富淳饭店(联洋店)","lon":"121.55282","lat":"31.22336","category":"72","category_name":"广东菜","address":"浦东新区长柳路100号淳大万丽酒店3楼(近迎春路)"},{"poiid":"B2094757D069A5FF4398","title":"出入境管理局咖啡厅","lon":"121.549943794","lat":"31.2217617086","category":"260","category_name":"其他","address":"浦东新区民生路1500号上海出入境管理局1楼(含笑路民生路)"},{"poiid":"B2094757D069A2FF419B","title":"上海市工商行政管理局浦东新区分局","lon":"121.544212738","lat":"31.2269792308","category":"250","category_name":"公园户外","address":"上海浦东新区杨高中路2900号(近桃林路)"},{"poiid":"B2094750D669A3F9499D","title":"古北汤馆","lon":"121.552215","lat":"31.224241","category":"247","category_name":"餐饮美食","address":"浦东新区长柳路58号(近迎春路)"},{"poiid":"B2094655D268ABFD469A","title":"上海海事法院","lon":"121.5491","lat":"31.223","category":"608","category_name":"法院","address":"迎春路567号"},{"poiid":"B2094757D16EA7FF479F","title":"上海音乐烟花节","lon":"121.54709373","lat":"31.224774183","category":"500","category_name":"未知分类","address":"上海世纪公园"},{"poiid":"B2094655D36CA6F44799","title":"丁香路合欢路","lon":"121.54483","lat":"31.22438","category":"38","category_name":"公交车站","address":""},{"poiid":"B2094750D364ABFA489A","title":"上海新国际会展中心","lon":"121.550224","lat":"31.223012","category":"500","category_name":"未知分类","address":"浦东"},{"poiid":"B2094757D168AAFE4399","title":"浦东新区档案馆食堂","lon":"121.54724","lat":"31.22285","category":"68","category_name":"快餐厅","address":"上海浦东新区合欢路201号B1楼  "},{"poiid":"B2094757D16EA7FE469B","title":"世纪皇冠假日酒店宴会厅","lon":"121.55053","lat":"31.22346","category":"76","category_name":"上海菜","address":"民生路1433号世纪皇冠假日酒店5楼(近迎春路)"},{"poiid":"B2094757D06EAAF8469A","title":"上海东方体育中心","lon":"121.544721","lat":"31.221959","category":"220","category_name":"运动场所","address":"上海浦东新区耀体路701号"},{"poiid":"B2094757D568ABF44293","title":"同润商务园","lon":"121.547843","lat":"31.224555","category":"46","category_name":"楼宇","address":"浦东区丁香路716号"},{"poiid":"B2094750D56DA7F4499A","title":"星巴克（宏嘉大厦店）","lon":"121.550765","lat":"31.223958","category":"247","category_name":"餐饮美食","address":"福山路388号"},{"poiid":"B2094752D26DA1FE419D","title":"御龙宴","lon":"121.54935","lat":"31.22479","category":"247","category_name":"餐饮美食","address":"浦东新区杨高中路(近南洋径路)"},{"poiid":"B2094654DA69A2F5479E","title":"中国移动旗舰店","lon":"121.55132","lat":"31.22282","category":"151","category_name":"电讯营业厅","address":"上海市浦东新区,迎春路670号(近民生路)"},{"poiid":"B2094655D26BA2F5439C","title":"浦东市民中心","lon":"121.54692","lat":"31.22326","category":"38","category_name":"公交车站","address":"合欢路2号"},{"poiid":"B2094654DA69A3FE4792","title":"上海东方艺术中心(Shanghai Oriental Art Center)","lon":"121.54141","lat":"31.22273","category":"180","category_name":"剧场","address":"上海浦东新区丁香路425号(近世纪大道)"},{"poiid":"B2094654DA69A3FF4898","title":"上海市公安局出入境管理局","lon":"121.54994","lat":"31.22182","category":"252","category_name":"楼宇机构","address":"浦东新区民生路1500"},{"poiid":"B2094654DA69A3FF4899","title":"上海浦东展览馆","lon":"121.54872","lat":"31.22144","category":"183","category_name":"展览馆","address":"浦东新区合欢路201号(迎春路口)"},{"poiid":"B2094654DB6AA6F8409B","title":"上海淳大万丽酒店","lon":"121.55226","lat":"31.22385","category":"213","category_name":"五星级宾馆","address":"浦东新区长柳路100号(近迎春路)"},{"poiid":"B2094654DA69A2F54798","title":"世纪皇冠假日酒店","lon":"121.55118","lat":"31.22346","category":"213","category_name":"五星级宾馆","address":"浦东新区民生路1433号(近迎春路)"},{"poiid":"B2094757D06FA2FA429A","title":"上海东方艺术中心Shanghai Oriental Art Center","lon":"121.54141842189642","lat":"31.22291030374493","category":"179","category_name":"音乐厅","address":"上海浦东新区丁香路425号"},{"poiid":"B2094757D06AA3F84792","title":"浦东新区民政局","lon":"121.546454","lat":"31.224071","category":"500","category_name":"未知分类","address":"上海合欢路2号"},{"poiid":"B2094757D06EAAFA449A","title":"上海科技馆地铁站","lon":"121.54296","lat":"31.219458","category":"36","category_name":"地铁站","address":"上海轨道交通 二号线 轨交上海科技馆站 2"},{"poiid":"B2094757D06FA6F54999","title":"东怡大酒店","lon":"121.54299542","lat":"31.22411864","category":"217","category_name":"旅馆招待所","address":"浦东新区丁香路555号(东方艺术中心旁)"},{"poiid":"B2094757D06FA0F44798","title":"上海浦东出入境检验检疫局","lon":"121.54857635","lat":"31.225637435","category":"500","category_name":"未知分类","address":"上海民生路1208号"},{"poiid":"B2094654DB6BAAFC499A","title":"证大五道口广场","lon":"121.55026","lat":"31.22629","category":"45","category_name":"产业园区","address":"浦东新区民生路1199弄"},{"poiid":"B2094655D36DA0F8489F","title":"杨高中路地铁站","lon":"121.5487","lat":"31.22704","category":"36","category_name":"地铁站","address":"上海轨道交通 九号线 轨交杨高中路站 9"},{"poiid":"B2094655D26BA2F54398","title":"浦东新区办公中心","lon":"121.54511","lat":"31.22245","category":"38","category_name":"公交车站","address":""},{"poiid":"B2094654DA69A3FE489F","title":"浦东新区人民法院","lon":"121.54447","lat":"31.22483","category":"608","category_name":"法院","address":"上海市浦东新区丁香路611号"},{"poiid":"B2094757D068A0F44198","title":"上海东方艺术中心-演奏厅(Shanghai Oriental Art Center - Performance Hall)","lon":"121.541374736","lat":"31.2227814309","category":"260","category_name":"其他","address":"上海浦东新区丁香路425号"},{"poiid":"B2094757D069A3FE479C","title":"宝燕壹号","lon":"121.550677","lat":"31.224298","category":"75","category_name":"浙江菜","address":"浦东新区民生路1399号太平人寿大厦1-2楼(近丁香路)"},{"poiid":"B2094757D068A3FD439B","title":"上海人家精作坊(汇商店)","lon":"121.54943","lat":"31.22415","category":"76","category_name":"上海菜","address":"浦东新区民生路1286号汇商大厦3-4楼(丁香路口)"},{"poiid":"B2094757D068A0F4479C","title":"上海移动浦东大楼","lon":"121.549956738","lat":"31.2248151847","category":"500","category_name":"未知分类","address":"上海迎春路670号"},{"poiid":"B2094757D068A1F54693","title":"浦东新区青少年活动中心","lon":"121.54725","lat":"31.22036","category":"249","category_name":"购物服务","address":"上海浦东新区迎春路318号  "},{"poiid":"B2094757D06FAAFD499A","title":"中国银联","lon":"121.5502","lat":"31.22055","category":"46","category_name":"楼宇","address":"浦东新区含笑路36号银联大厦(含笑路民生路)"},{"poiid":"B2094757D068A1FD409D","title":"和记小菜精菜坊","lon":"121.55141","lat":"31.22311","category":"76","category_name":"上海菜","address":"浦东新区民生路1433号世纪皇冠酒店3楼(近迎春路)"},{"poiid":"B2094757D16CA6FE409B","title":"世纪皇冠假日酒店咖啡园","lon":"121.551","lat":"31.22299","category":"268","category_name":"自助","address":"浦东新区民生路1433号上海世纪皇冠假日酒店1楼大堂(迎春路口)"},{"poiid":"B2094757D069A7F8409B","title":"浦东新区公安分局","lon":"121.54691967","lat":"31.224898359","category":"500","category_name":"未知分类","address":"上海浦东新区丁香路655号"},{"poiid":"B2094757D16CAAFB419C","title":"上海银监局","lon":"121.54826773","lat":"31.224110169","category":"500","category_name":"未知分类","address":"上海合欢路35号"},{"poiid":"B2094757D664A2FC419A","title":"天家 浦东店","lon":"121.55253955661","lat":"31.225538360007","category":"95","category_name":"日本料理","address":"浦东新区长柳路105号(长柳路迎春路)"},{"poiid":"B2094757D069A0FB4392","title":"民生路杨高中路","lon":"121.54730074","lat":"31.227248106","category":"500","category_name":"未知分类","address":"上海民生路杨高中路"},{"poiid":"B2094757D068A4F4489B","title":"上海移动民生大楼","lon":"121.55168467","lat":"31.2229133452","category":"46","category_name":"楼宇","address":"上海迎春路670号"},{"poiid":"B2094757D16DABF8489C","title":"浦东新区政府大楼一号楼","lon":"121.544685364","lat":"31.2216567993","category":"500","category_name":"未知分类","address":"上海锦带路22号"},{"poiid":"B2094655D26EA2FF4192","title":"法国餐馆巴黎上海","lon":"121.54141","lat":"31.22273","category":"97","category_name":"法式菜品餐厅","address":"浦东新区丁香路425号上海东方艺术中心B1楼(近世纪大道)"},{"poiid":"B2094654DA69A2F44893","title":"太平人寿大厦","lon":"121.55068","lat":"31.22429","category":"46","category_name":"楼宇","address":"闸北区江场西路395号"},{"poiid":"B2094655D26EA2F4409C","title":"长荣大厦","lon":"121.55006","lat":"31.22619","category":"46","category_name":"楼宇","address":"民生路1199弄证大五道口广场2号楼(南楼)"},{"poiid":"B2094757D66CA7FA409F","title":"中国证监会上海证监局","lon":"121.54776273","lat":"31.22228513","category":"500","category_name":"未知分类","address":"上海市浦东新区迎春路555号"},{"poiid":"B2094751D36CA5FD479C","title":"四季亭(民生路店)","lon":"121.55096","lat":"31.22329","category":"95","category_name":"日本料理","address":"浦东新区民生路1433号世纪皇冠假日酒店2楼(近迎春路路口)"},{"poiid":"B2094757D169A3FD489F","title":"世纪公园游乐园草坪","lon":"121.552391238","lat":"31.2227846414","category":"196","category_name":"公园","address":"上海世纪公园"},{"poiid":"B2094757D068A6F4459A","title":"富淳饭店(联洋店)","lon":"121.55282","lat":"31.22336","category":"72","category_name":"广东菜","address":"浦东新区长柳路100号淳大万丽酒店3楼(近迎春路)"},{"poiid":"B2094757D069A5FF4398","title":"出入境管理局咖啡厅","lon":"121.549943794","lat":"31.2217617086","category":"260","category_name":"其他","address":"浦东新区民生路1500号上海出入境管理局1楼(含笑路民生路)"},{"poiid":"B2094757D069A2FF419B","title":"上海市工商行政管理局浦东新区分局","lon":"121.544212738","lat":"31.2269792308","category":"250","category_name":"公园户外","address":"上海浦东新区杨高中路2900号(近桃林路)"},{"poiid":"B2094750D669A3F9499D","title":"古北汤馆","lon":"121.552215","lat":"31.224241","category":"247","category_name":"餐饮美食","address":"浦东新区长柳路58号(近迎春路)"},{"poiid":"B2094655D268ABFD469A","title":"上海海事法院","lon":"121.5491","lat":"31.223","category":"608","category_name":"法院","address":"迎春路567号"},{"poiid":"B2094757D16EA7FF479F","title":"上海音乐烟花节","lon":"121.54709373","lat":"31.224774183","category":"500","category_name":"未知分类","address":"上海世纪公园"},{"poiid":"B2094655D36CA6F44799","title":"丁香路合欢路","lon":"121.54483","lat":"31.22438","category":"38","category_name":"公交车站","address":""},{"poiid":"B2094750D364ABFA489A","title":"上海新国际会展中心","lon":"121.550224","lat":"31.223012","category":"500","category_name":"未知分类","address":"浦东"},{"poiid":"B2094757D168AAFE4399","title":"浦东新区档案馆食堂","lon":"121.54724","lat":"31.22285","category":"68","category_name":"快餐厅","address":"上海浦东新区合欢路201号B1楼  "},{"poiid":"B2094757D16EA7FE469B","title":"世纪皇冠假日酒店宴会厅","lon":"121.55053","lat":"31.22346","category":"76","category_name":"上海菜","address":"民生路1433号世纪皇冠假日酒店5楼(近迎春路)"},{"poiid":"B2094757D06EAAF8469A","title":"上海东方体育中心","lon":"121.544721","lat":"31.221959","category":"220","category_name":"运动场所","address":"上海浦东新区耀体路701号"},{"poiid":"B2094757D568ABF44293","title":"同润商务园","lon":"121.547843","lat":"31.224555","category":"46","category_name":"楼宇","address":"浦东区丁香路716号"},{"poiid":"B2094750D56DA7F4499A","title":"星巴克（宏嘉大厦店）","lon":"121.550765","lat":"31.223958","category":"247","category_name":"餐饮美食","address":"福山路388号"},{"poiid":"B2094752D26DA1FE419D","title":"御龙宴","lon":"121.54935","lat":"31.22479","category":"247","category_name":"餐饮美食","address":"浦东新区杨高中路(近南洋径路)"},{"poiid":"B2094654DA69A2F5479E","title":"中国移动旗舰店","lon":"121.55132","lat":"31.22282","category":"151","category_name":"电讯营业厅","address":"上海市浦东新区,迎春路670号(近民生路)"},{"poiid":"B2094655D26BA2F5439C","title":"浦东市民中心","lon":"121.54692","lat":"31.22326","category":"38","category_name":"公交车站","address":"合欢路2号"},{"poiid":"B2094654DA69A3FE4792","title":"上海东方艺术中心(Shanghai Oriental Art Center)","lon":"121.54141","lat":"31.22273","category":"180","category_name":"剧场","address":"上海浦东新区丁香路425号(近世纪大道)"},{"poiid":"B2094654DA69A3FF4898","title":"上海市公安局出入境管理局","lon":"121.54994","lat":"31.22182","category":"252","category_name":"楼宇机构","address":"浦东新区民生路1500"},{"poiid":"B2094654DA69A3FF4899","title":"上海浦东展览馆","lon":"121.54872","lat":"31.22144","category":"183","category_name":"展览馆","address":"浦东新区合欢路201号(迎春路口)"},{"poiid":"B2094654DB6AA6F8409B","title":"上海淳大万丽酒店","lon":"121.55226","lat":"31.22385","category":"213","category_name":"五星级宾馆","address":"浦东新区长柳路100号(近迎春路)"},{"poiid":"B2094654DA69A2F54798","title":"世纪皇冠假日酒店","lon":"121.55118","lat":"31.22346","category":"213","category_name":"五星级宾馆","address":"浦东新区民生路1433号(近迎春路)"},{"poiid":"B2094757D06FA2FA429A","title":"上海东方艺术中心Shanghai Oriental Art Center","lon":"121.54141842189642","lat":"31.22291030374493","category":"179","category_name":"音乐厅","address":"上海浦东新区丁香路425号"},{"poiid":"B2094757D06AA3F84792","title":"浦东新区民政局","lon":"121.546454","lat":"31.224071","category":"500","category_name":"未知分类","address":"上海合欢路2号"},{"poiid":"B2094757D06EAAFA449A","title":"上海科技馆地铁站","lon":"121.54296","lat":"31.219458","category":"36","category_name":"地铁站","address":"上海轨道交通 二号线 轨交上海科技馆站 2"},{"poiid":"B2094757D06FA6F54999","title":"东怡大酒店","lon":"121.54299542","lat":"31.22411864","category":"217","category_name":"旅馆招待所","address":"浦东新区丁香路555号(东方艺术中心旁)"},{"poiid":"B2094757D06FA0F44798","title":"上海浦东出入境检验检疫局","lon":"121.54857635","lat":"31.225637435","category":"500","category_name":"未知分类","address":"上海民生路1208号"},{"poiid":"B2094654DB6BAAFC499A","title":"证大五道口广场","lon":"121.55026","lat":"31.22629","category":"45","category_name":"产业园区","address":"浦东新区民生路1199弄"},{"poiid":"B2094655D36DA0F8489F","title":"杨高中路地铁站","lon":"121.5487","lat":"31.22704","category":"36","category_name":"地铁站","address":"上海轨道交通 九号线 轨交杨高中路站 9"},{"poiid":"B2094655D26BA2F54398","title":"浦东新区办公中心","lon":"121.54511","lat":"31.22245","category":"38","category_name":"公交车站","address":""},{"poiid":"B2094654DA69A3FE489F","title":"浦东新区人民法院","lon":"121.54447","lat":"31.22483","category":"608","category_name":"法院","address":"上海市浦东新区丁香路611号"},{"poiid":"B2094757D068A0F44198","title":"上海东方艺术中心-演奏厅(Shanghai Oriental Art Center - Performance Hall)","lon":"121.541374736","lat":"31.2227814309","category":"260","category_name":"其他","address":"上海浦东新区丁香路425号"},{"poiid":"B2094757D069A3FE479C","title":"宝燕壹号","lon":"121.550677","lat":"31.224298","category":"75","category_name":"浙江菜","address":"浦东新区民生路1399号太平人寿大厦1-2楼(近丁香路)"},{"poiid":"B2094757D068A3FD439B","title":"上海人家精作坊(汇商店)","lon":"121.54943","lat":"31.22415","category":"76","category_name":"上海菜","address":"浦东新区民生路1286号汇商大厦3-4楼(丁香路口)"},{"poiid":"B2094757D068A0F4479C","title":"上海移动浦东大楼","lon":"121.549956738","lat":"31.2248151847","category":"500","category_name":"未知分类","address":"上海迎春路670号"},{"poiid":"B2094757D068A1F54693","title":"浦东新区青少年活动中心","lon":"121.54725","lat":"31.22036","category":"249","category_name":"购物服务","address":"上海浦东新区迎春路318号  "},{"poiid":"B2094757D06FAAFD499A","title":"中国银联","lon":"121.5502","lat":"31.22055","category":"46","category_name":"楼宇","address":"浦东新区含笑路36号银联大厦(含笑路民生路)"},{"poiid":"B2094757D068A1FD409D","title":"和记小菜精菜坊","lon":"121.55141","lat":"31.22311","category":"76","category_name":"上海菜","address":"浦东新区民生路1433号世纪皇冠酒店3楼(近迎春路)"},{"poiid":"B2094757D16CA6FE409B","title":"世纪皇冠假日酒店咖啡园","lon":"121.551","lat":"31.22299","category":"268","category_name":"自助","address":"浦东新区民生路1433号上海世纪皇冠假日酒店1楼大堂(迎春路口)"},{"poiid":"B2094757D069A7F8409B","title":"浦东新区公安分局","lon":"121.54691967","lat":"31.224898359","category":"500","category_name":"未知分类","address":"上海浦东新区丁香路655号"},{"poiid":"B2094757D16CAAFB419C","title":"上海银监局","lon":"121.54826773","lat":"31.224110169","category":"500","category_name":"未知分类","address":"上海合欢路35号"},{"poiid":"B2094757D664A2FC419A","title":"天家 浦东店","lon":"121.55253955661","lat":"31.225538360007","category":"95","category_name":"日本料理","address":"浦东新区长柳路105号(长柳路迎春路)"},{"poiid":"B2094757D069A0FB4392","title":"民生路杨高中路","lon":"121.54730074","lat":"31.227248106","category":"500","category_name":"未知分类","address":"上海民生路杨高中路"},{"poiid":"B2094757D068A4F4489B","title":"上海移动民生大楼","lon":"121.55168467","lat":"31.2229133452","category":"46","category_name":"楼宇","address":"上海迎春路670号"},{"poiid":"B2094757D16DABF8489C","title":"浦东新区政府大楼一号楼","lon":"121.544685364","lat":"31.2216567993","category":"500","category_name":"未知分类","address":"上海锦带路22号"},{"poiid":"B2094655D26EA2FF4192","title":"法国餐馆巴黎上海","lon":"121.54141","lat":"31.22273","category":"97","category_name":"法式菜品餐厅","address":"浦东新区丁香路425号上海东方艺术中心B1楼(近世纪大道)"},{"poiid":"B2094654DA69A2F44893","title":"太平人寿大厦","lon":"121.55068","lat":"31.22429","category":"46","category_name":"楼宇","address":"闸北区江场西路395号"},{"poiid":"B2094655D26EA2F4409C","title":"长荣大厦","lon":"121.55006","lat":"31.22619","category":"46","category_name":"楼宇","address":"民生路1199弄证大五道口广场2号楼(南楼)"},{"poiid":"B2094757D66CA7FA409F","title":"中国证监会上海证监局","lon":"121.54776273","lat":"31.22228513","category":"500","category_name":"未知分类","address":"上海市浦东新区迎春路555号"},{"poiid":"B2094751D36CA5FD479C","title":"四季亭(民生路店)","lon":"121.55096","lat":"31.22329","category":"95","category_name":"日本料理","address":"浦东新区民生路1433号世纪皇冠假日酒店2楼(近迎春路路口)"},{"poiid":"B2094757D169A3FD489F","title":"世纪公园游乐园草坪","lon":"121.552391238","lat":"31.2227846414","category":"196","category_name":"公园","address":"上海世纪公园"},{"poiid":"B2094757D068A6F4459A","title":"富淳饭店(联洋店)","lon":"121.55282","lat":"31.22336","category":"72","category_name":"广东菜","address":"浦东新区长柳路100号淳大万丽酒店3楼(近迎春路)"},{"poiid":"B2094757D069A5FF4398","title":"出入境管理局咖啡厅","lon":"121.549943794","lat":"31.2217617086","category":"260","category_name":"其他","address":"浦东新区民生路1500号上海出入境管理局1楼(含笑路民生路)"},{"poiid":"B2094757D069A2FF419B","title":"上海市工商行政管理局浦东新区分局","lon":"121.544212738","lat":"31.2269792308","category":"250","category_name":"公园户外","address":"上海浦东新区杨高中路2900号(近桃林路)"},{"poiid":"B2094750D669A3F9499D","title":"古北汤馆","lon":"121.552215","lat":"31.224241","category":"247","category_name":"餐饮美食","address":"浦东新区长柳路58号(近迎春路)"},{"poiid":"B2094655D268ABFD469A","title":"上海海事法院","lon":"121.5491","lat":"31.223","category":"608","category_name":"法院","address":"迎春路567号"},{"poiid":"B2094757D16EA7FF479F","title":"上海音乐烟花节","lon":"121.54709373","lat":"31.224774183","category":"500","category_name":"未知分类","address":"上海世纪公园"},{"poiid":"B2094655D36CA6F44799","title":"丁香路合欢路","lon":"121.54483","lat":"31.22438","category":"38","category_name":"公交车站","address":""},{"poiid":"B2094750D364ABFA489A","title":"上海新国际会展中心","lon":"121.550224","lat":"31.223012","category":"500","category_name":"未知分类","address":"浦东"},{"poiid":"B2094757D168AAFE4399","title":"浦东新区档案馆食堂","lon":"121.54724","lat":"31.22285","category":"68","category_name":"快餐厅","address":"上海浦东新区合欢路201号B1楼  "},{"poiid":"B2094757D16EA7FE469B","title":"世纪皇冠假日酒店宴会厅","lon":"121.55053","lat":"31.22346","category":"76","category_name":"上海菜","address":"民生路1433号世纪皇冠假日酒店5楼(近迎春路)"},{"poiid":"B2094757D06EAAF8469A","title":"上海东方体育中心","lon":"121.544721","lat":"31.221959","category":"220","category_name":"运动场所","address":"上海浦东新区耀体路701号"},{"poiid":"B2094757D568ABF44293","title":"同润商务园","lon":"121.547843","lat":"31.224555","category":"46","category_name":"楼宇","address":"浦东区丁香路716号"},{"poiid":"B2094750D56DA7F4499A","title":"星巴克（宏嘉大厦店）","lon":"121.550765","lat":"31.223958","category":"247","category_name":"餐饮美食","address":"福山路388号"},{"poiid":"B2094752D26DA1FE419D","title":"御龙宴","lon":"121.54935","lat":"31.22479","category":"247","category_name":"餐饮美食","address":"浦东新区杨高中路(近南洋径路)"},{"poiid":"B2094654DA69A2F5479E","title":"中国移动旗舰店","lon":"121.55132","lat":"31.22282","category":"151","category_name":"电讯营业厅","address":"上海市浦东新区,迎春路670号(近民生路)"},{"poiid":"B2094655D26BA2F5439C","title":"浦东市民中心","lon":"121.54692","lat":"31.22326","category":"38","category_name":"公交车站","address":"合欢路2号"},{"poiid":"B2094654DA69A3FE4792","title":"上海东方艺术中心(Shanghai Oriental Art Center)","lon":"121.54141","lat":"31.22273","category":"180","category_name":"剧场","address":"上海浦东新区丁香路425号(近世纪大道)"},{"poiid":"B2094654DA69A3FF4898","title":"上海市公安局出入境管理局","lon":"121.54994","lat":"31.22182","category":"252","category_name":"楼宇机构","address":"浦东新区民生路1500"},{"poiid":"B2094654DA69A3FF4899","title":"上海浦东展览馆","lon":"121.54872","lat":"31.22144","category":"183","category_name":"展览馆","address":"浦东新区合欢路201号(迎春路口)"},{"poiid":"B2094654DB6AA6F8409B","title":"上海淳大万丽酒店","lon":"121.55226","lat":"31.22385","category":"213","category_name":"五星级宾馆","address":"浦东新区长柳路100号(近迎春路)"},{"poiid":"B2094654DA69A2F54798","title":"世纪皇冠假日酒店","lon":"121.55118","lat":"31.22346","category":"213","category_name":"五星级宾馆","address":"浦东新区民生路1433号(近迎春路)"},{"poiid":"B2094757D06FA2FA429A","title":"上海东方艺术中心Shanghai Oriental Art Center","lon":"121.54141842189642","lat":"31.22291030374493","category":"179","category_name":"音乐厅","address":"上海浦东新区丁香路425号"},{"poiid":"B2094757D06AA3F84792","title":"浦东新区民政局","lon":"121.546454","lat":"31.224071","category":"500","category_name":"未知分类","address":"上海合欢路2号"},{"poiid":"B2094757D06EAAFA449A","title":"上海科技馆地铁站","lon":"121.54296","lat":"31.219458","category":"36","category_name":"地铁站","address":"上海轨道交通 二号线 轨交上海科技馆站 2"},{"poiid":"B2094757D06FA6F54999","title":"东怡大酒店","lon":"121.54299542","lat":"31.22411864","category":"217","category_name":"旅馆招待所","address":"浦东新区丁香路555号(东方艺术中心旁)"},{"poiid":"B2094757D06FA0F44798","title":"上海浦东出入境检验检疫局","lon":"121.54857635","lat":"31.225637435","category":"500","category_name":"未知分类","address":"上海民生路1208号"},{"poiid":"B2094654DB6BAAFC499A","title":"证大五道口广场","lon":"121.55026","lat":"31.22629","category":"45","category_name":"产业园区","address":"浦东新区民生路1199弄"},{"poiid":"B2094655D36DA0F8489F","title":"杨高中路地铁站","lon":"121.5487","lat":"31.22704","category":"36","category_name":"地铁站","address":"上海轨道交通 九号线 轨交杨高中路站 9"},{"poiid":"B2094655D26BA2F54398","title":"浦东新区办公中心","lon":"121.54511","lat":"31.22245","category":"38","category_name":"公交车站","address":""},{"poiid":"B2094654DA69A3FE489F","title":"浦东新区人民法院","lon":"121.54447","lat":"31.22483","category":"608","category_name":"法院","address":"上海市浦东新区丁香路611号"},{"poiid":"B2094757D068A0F44198","title":"上海东方艺术中心-演奏厅(Shanghai Oriental Art Center - Performance Hall)","lon":"121.541374736","lat":"31.2227814309","category":"260","category_name":"其他","address":"上海浦东新区丁香路425号"},{"poiid":"B2094757D069A3FE479C","title":"宝燕壹号","lon":"121.550677","lat":"31.224298","category":"75","category_name":"浙江菜","address":"浦东新区民生路1399号太平人寿大厦1-2楼(近丁香路)"},{"poiid":"B2094757D068A3FD439B","title":"上海人家精作坊(汇商店)","lon":"121.54943","lat":"31.22415","category":"76","category_name":"上海菜","address":"浦东新区民生路1286号汇商大厦3-4楼(丁香路口)"},{"poiid":"B2094757D068A0F4479C","title":"上海移动浦东大楼","lon":"121.549956738","lat":"31.2248151847","category":"500","category_name":"未知分类","address":"上海迎春路670号"},{"poiid":"B2094757D068A1F54693","title":"浦东新区青少年活动中心","lon":"121.54725","lat":"31.22036","category":"249","category_name":"购物服务","address":"上海浦东新区迎春路318号  "},{"poiid":"B2094757D06FAAFD499A","title":"中国银联","lon":"121.5502","lat":"31.22055","category":"46","category_name":"楼宇","address":"浦东新区含笑路36号银联大厦(含笑路民生路)"},{"poiid":"B2094757D068A1FD409D","title":"和记小菜精菜坊","lon":"121.55141","lat":"31.22311","category":"76","category_name":"上海菜","address":"浦东新区民生路1433号世纪皇冠酒店3楼(近迎春路)"},{"poiid":"B2094757D16CA6FE409B","title":"世纪皇冠假日酒店咖啡园","lon":"121.551","lat":"31.22299","category":"268","category_name":"自助","address":"浦东新区民生路1433号上海世纪皇冠假日酒店1楼大堂(迎春路口)"},{"poiid":"B2094757D069A7F8409B","title":"浦东新区公安分局","lon":"121.54691967","lat":"31.224898359","category":"500","category_name":"未知分类","address":"上海浦东新区丁香路655号"},{"poiid":"B2094757D16CAAFB419C","title":"上海银监局","lon":"121.54826773","lat":"31.224110169","category":"500","category_name":"未知分类","address":"上海合欢路35号"},{"poiid":"B2094757D664A2FC419A","title":"天家 浦东店","lon":"121.55253955661","lat":"31.225538360007","category":"95","category_name":"日本料理","address":"浦东新区长柳路105号(长柳路迎春路)"},{"poiid":"B2094757D069A0FB4392","title":"民生路杨高中路","lon":"121.54730074","lat":"31.227248106","category":"500","category_name":"未知分类","address":"上海民生路杨高中路"},{"poiid":"B2094757D068A4F4489B","title":"上海移动民生大楼","lon":"121.55168467","lat":"31.2229133452","category":"46","category_name":"楼宇","address":"上海迎春路670号"},{"poiid":"B2094757D16DABF8489C","title":"浦东新区政府大楼一号楼","lon":"121.544685364","lat":"31.2216567993","category":"500","category_name":"未知分类","address":"上海锦带路22号"},{"poiid":"B2094655D26EA2FF4192","title":"法国餐馆巴黎上海","lon":"121.54141","lat":"31.22273","category":"97","category_name":"法式菜品餐厅","address":"浦东新区丁香路425号上海东方艺术中心B1楼(近世纪大道)"},{"poiid":"B2094654DA69A2F44893","title":"太平人寿大厦","lon":"121.55068","lat":"31.22429","category":"46","category_name":"楼宇","address":"闸北区江场西路395号"},{"poiid":"B2094655D26EA2F4409C","title":"长荣大厦","lon":"121.55006","lat":"31.22619","category":"46","category_name":"楼宇","address":"民生路1199弄证大五道口广场2号楼(南楼)"},{"poiid":"B2094757D66CA7FA409F","title":"中国证监会上海证监局","lon":"121.54776273","lat":"31.22228513","category":"500","category_name":"未知分类","address":"上海市浦东新区迎春路555号"},{"poiid":"B2094751D36CA5FD479C","title":"四季亭(民生路店)","lon":"121.55096","lat":"31.22329","category":"95","category_name":"日本料理","address":"浦东新区民生路1433号世纪皇冠假日酒店2楼(近迎春路路口)"},{"poiid":"B2094757D169A3FD489F","title":"世纪公园游乐园草坪","lon":"121.552391238","lat":"31.2227846414","category":"196","category_name":"公园","address":"上海世纪公园"},{"poiid":"B2094757D068A6F4459A","title":"富淳饭店(联洋店)","lon":"121.55282","lat":"31.22336","category":"72","category_name":"广东菜","address":"浦东新区长柳路100号淳大万丽酒店3楼(近迎春路)"},{"poiid":"B2094757D069A5FF4398","title":"出入境管理局咖啡厅","lon":"121.549943794","lat":"31.2217617086","category":"260","category_name":"其他","address":"浦东新区民生路1500号上海出入境管理局1楼(含笑路民生路)"},{"poiid":"B2094757D069A2FF419B","title":"上海市工商行政管理局浦东新区分局","lon":"121.544212738","lat":"31.2269792308","category":"250","category_name":"公园户外","address":"上海浦东新区杨高中路2900号(近桃林路)"},{"poiid":"B2094750D669A3F9499D","title":"古北汤馆","lon":"121.552215","lat":"31.224241","category":"247","category_name":"餐饮美食","address":"浦东新区长柳路58号(近迎春路)"},{"poiid":"B2094655D268ABFD469A","title":"上海海事法院","lon":"121.5491","lat":"31.223","category":"608","category_name":"法院","address":"迎春路567号"},{"poiid":"B2094757D16EA7FF479F","title":"上海音乐烟花节","lon":"121.54709373","lat":"31.224774183","category":"500","category_name":"未知分类","address":"上海世纪公园"},{"poiid":"B2094655D36CA6F44799","title":"丁香路合欢路","lon":"121.54483","lat":"31.22438","category":"38","category_name":"公交车站","address":""},{"poiid":"B2094750D364ABFA489A","title":"上海新国际会展中心","lon":"121.550224","lat":"31.223012","category":"500","category_name":"未知分类","address":"浦东"},{"poiid":"B2094757D168AAFE4399","title":"浦东新区档案馆食堂","lon":"121.54724","lat":"31.22285","category":"68","category_name":"快餐厅","address":"上海浦东新区合欢路201号B1楼  "},{"poiid":"B2094757D16EA7FE469B","title":"世纪皇冠假日酒店宴会厅","lon":"121.55053","lat":"31.22346","category":"76","category_name":"上海菜","address":"民生路1433号世纪皇冠假日酒店5楼(近迎春路)"},{"poiid":"B2094757D06EAAF8469A","title":"上海东方体育中心","lon":"121.544721","lat":"31.221959","category":"220","category_name":"运动场所","address":"上海浦东新区耀体路701号"},{"poiid":"B2094757D568ABF44293","title":"同润商务园","lon":"121.547843","lat":"31.224555","category":"46","category_name":"楼宇","address":"浦东区丁香路716号"},{"poiid":"B2094750D56DA7F4499A","title":"星巴克（宏嘉大厦店）","lon":"121.550765","lat":"31.223958","category":"247","category_name":"餐饮美食","address":"福山路388号"},{"poiid":"B2094752D26DA1FE419D","title":"御龙宴","lon":"121.54935","lat":"31.22479","category":"247","category_name":"餐饮美食","address":"浦东新区杨高中路(近南洋径路)"},{"poiid":"B2094654DA69A2F5479E","title":"中国移动旗舰店","lon":"121.55132","lat":"31.22282","category":"151","category_name":"电讯营业厅","address":"上海市浦东新区,迎春路670号(近民生路)"}]