[{"poiid":"B2094654DB6DA5F5479E","title":"上海天马山赛车运动俱乐部","lon":"121.11988","lat":"31.07748","category":"220","category_name":"运动场所","address":"沈砖公路3000号"},{"poiid":"B2094655D36CA2FD459D","title":"G1501天马收费站","lon":"121.12634","lat":"31.07959","category":"267","category_name":"收费站","address":"上海近天马赛车场"},{"poiid":"B2094757D068AAF5499E","title":"天马山公墓","lon":"121.12014","lat":"31.07722","category":"620","category_name":"丧葬","address":"松江区佘山镇沈砖公路3555号(昆港公路沈砖公路)"},{"poiid":"B2094655D265A6FE4593","title":"A30天马立交桥","lon":"121.12385","lat":"31.08184","category":"250","category_name":"公园户外","address":""},{"poiid":"B2094654DB6DA4FB479A","title":"上海天虹针织制帽有限公司","lon":"121.1338","lat":"31.07659","category":"263","category_name":"公司","address":"天九路286号"},{"poiid":"B2094654DB6DA4FF469E","title":"上海333赛车俱乐部","lon":"121.13887","lat":"31.07591","category":"220","category_name":"运动场所","address":"天马山镇"},{"poiid":"B2094654DB6DA5F44792","title":"中国盆景艺术文化村","lon":"121.11132","lat":"31.07789","category":"248","category_name":"生活娱乐","address":"沈砖公路2888号"},{"poiid":"B2094654DB6DA4FE429E","title":"上海赢发","lon":"121.13787","lat":"31.07836","category":"248","category_name":"生活娱乐","address":"新宅路666"},{"poiid":"B2094654DB6DA4FB4599","title":"醉仙楼酒店","lon":"121.14305","lat":"31.06928","category":"257","category_name":"中餐厅","address":"天马山镇"},{"poiid":"B2094654DB6DA4F9499D","title":"中国电信天马营业处","lon":"121.14363","lat":"31.06921","category":"151","category_name":"电讯营业厅","address":"新宅路63号"},{"poiid":"B2094654DB69A7FA459C","title":"邮政储蓄天马支所","lon":"121.14189","lat":"31.06874","category":"150","category_name":"银行","address":"松江区天马镇天新路36号"}]