[{"poiid":"B2094757D068ABFE4599","title":"中信广场","lon":"121.49155956183","lat":"31.253803450588","category":"46","category_name":"楼宇","address":"虹口区四川北路859号(近海宁路)"},{"poiid":"B2094655D26AABFA469C","title":"上海九龙宾馆","lon":"121.49209","lat":"31.25397","category":"250","category_name":"公园户外","address":"上海虹口区溧阳路601号(近吴淞路)"},{"poiid":"B2094757DB6CA4FB4993","title":"外滩公馆","lon":"121.494","lat":"31.25196","category":"76","category_name":"上海菜","address":"虹口区东余杭路275弄3号(近梧州路)"},{"poiid":"B209475CD564A7F84392","title":"上海滩浦东香格里拉店","lon":"121.50058","lat":"31.23634","category":"119","category_name":"商场","address":"浦东富成路33号香格里拉酒店内大堂层"},{"poiid":"B2094757D16AA5FC4392","title":"1933老杨坊—空中剧场","lon":"121.492348103","lat":"31.2545270902","category":"500","category_name":"未知分类","address":"上海市虹口区沙径路10号1933老杨坊四楼"},{"poiid":"B2094757D66DA3FF499F","title":"1933","lon":"121.492579103","lat":"31.2544390883","category":"500","category_name":"未知分类","address":"上海市虹口区四平路"},{"poiid":"B2094757D068A3F5469E","title":"海员医院(东长治路分院)","lon":"121.498129972","lat":"31.250511409","category":"162","category_name":"医院","address":"上海虹口区东长治路505号"},{"poiid":"B2094757D068A1FE499B","title":"浦江名邸","lon":"121.49659","lat":"31.255047","category":"47","category_name":"住宅区","address":"广西北路246号百米香榭商业街南区260"},{"poiid":"B2094654D56DABFE499C","title":"宝矿国际大厦","lon":"121.497534","lat":"31.254199","category":"46","category_name":"楼宇","address":"上海市虹口区吴淞路218号"},{"poiid":"B2094655D26BABFF4098","title":"名江七星城","lon":"121.49435","lat":"31.251509","category":"47","category_name":"住宅区","address":"上海市虹口区东汉阳路309弄"},{"poiid":"B2094654DB6AA7FE459F","title":"豪龙阁舟山渔村(周家嘴路店)","lon":"121.49253","lat":"31.25324","category":"75","category_name":"浙江菜","address":"虹口区周家嘴路2号(溧阳路口)"},{"poiid":"B2094654DB6BA3F8449D","title":"定豪沈家门海鲜酒楼","lon":"121.49484","lat":"31.24854","category":"75","category_name":"浙江菜","address":"虹口区东长治路310号(近溧阳路)"},{"poiid":"B2094757D068A2F84593","title":"白金府邸","lon":"121.49451","lat":"31.250563","category":"252","category_name":"楼宇机构","address":"虹口区旅顺路199弄"},{"poiid":"B2094757D16AA2FB449B","title":"上海市第一人民医院12F","lon":"121.4913274","lat":"31.25310036","category":"162","category_name":"医院","address":"上海海宁路100号"},{"poiid":"B2094654DA6FA6FE429B","title":"恒升半岛国际中心","lon":"121.49564983911","lat":"31.252855823114","category":"46","category_name":"楼宇","address":"上海市虹口区吴淞路205号"},{"poiid":"B2094757D16CA7FE429E","title":"崇明私房菜","lon":"121.494195403","lat":"31.2537960749","category":"76","category_name":"上海菜","address":"虹口区周家嘴路328号(近新建路)"},{"poiid":"B2094655D26BA2F9479E","title":"唐山路新建路","lon":"121.49753","lat":"31.25193","category":"38","category_name":"公交车站","address":""},{"poiid":"B2094752D765A7FD4099","title":"顺风大酒店","lon":"121.492684","lat":"31.252119","category":"247","category_name":"餐饮美食","address":"虹口区汉阳路88号1-3楼"},{"poiid":"B2094654D56DA4F5429B","title":"京世造型·美容(东汉阳路)","lon":"121.49536","lat":"31.25139","category":"148","category_name":"美容美发店","address":""},{"poiid":"B2094757D06BA3F44599","title":"英腾国际健身中心","lon":"121.4947","lat":"31.25091","category":"148","category_name":"美容美发店","address":"虹口区东汉阳路309弄17号名江七星城会所(近宇泰公寓)"},{"poiid":"B2094757D068A2F5499E","title":"新亚大包(海宁路店)","lon":"121.49153","lat":"31.25322","category":"68","category_name":"快餐厅","address":"虹口区海宁路6-8号(近九龙路)"},{"poiid":"B2094654D56DAAFE449C","title":"中皇广场","lon":"121.49439","lat":"31.25442","category":"47","category_name":"住宅区","address":"中皇广场(中皇.外滩)位于虹口周家嘴路(近金田路,梧州路)"},{"poiid":"B2094757D66DA4FF4692","title":"唐山路商丘路烧烤摊","lon":"121.4960231","lat":"31.251600029","category":"68","category_name":"快餐厅","address":"虹口区商丘路"},{"poiid":"B2094750D26AA2F5429E","title":"蓝村路地铁站","lon":"121.495605","lat":"31.252359","category":"36","category_name":"地铁站","address":null},{"poiid":"B2094654DB64A6FB499F","title":"如家快捷酒店(上海北外滩店)","lon":"121.49597","lat":"31.25448","category":"216","category_name":"经济型连锁酒店","address":"上海市虹口区周家嘴路345号(近金田路)"},{"poiid":"B2094654D56DA4F5409C","title":"翠花上酸菜","lon":"121.49343","lat":"31.2511","category":"82","category_name":"东北菜","address":"虹口区梧州路19号(近东汉阳路)"},{"poiid":"B2094654D56DA4F4489D","title":"骨头汤大碗面","lon":"121.49342","lat":"31.25248","category":"68","category_name":"快餐厅","address":"虹口区梧州路97号(近周家嘴路)"},{"poiid":"B2094655D26FA6F54598","title":"上海市虹口区提篮桥地段医院","lon":"121.49478","lat":"31.251","category":"162","category_name":"医院","address":"虹口区东汉阳路246号"},{"poiid":"B2094655D36CA6FB4599","title":"东汉阳路梧州路","lon":"121.49453","lat":"31.25106","category":"38","category_name":"公交车站","address":""},{"poiid":"B2094654D56DA4F54199","title":"名江七星城(边门)","lon":"121.49432","lat":"31.25149","category":"47","category_name":"住宅区","address":"东汉阳路309弄1-17号"},{"poiid":"B209475DDB64ABFA4993","title":"canil狗窝","lon":"121.496696","lat":"31.252607","category":"247","category_name":"餐饮美食","address":"上海市 溧阳路611号1933老场坊1-109室(近海宁路)"},{"poiid":"B2094757D069A6FB479F","title":"提篮桥派出所","lon":"121.49167714","lat":"31.25245795","category":"609","category_name":"警察局","address":"上海九龙路475号"},{"poiid":"B2094654D56DA4F4489A","title":"梧州路馒头店","lon":"121.4934","lat":"31.25278","category":"68","category_name":"快餐厅","address":"虹口区梧州路117号"},{"poiid":"B2094750D768A3FE439D","title":"川子小小店","lon":"121.493","lat":"31.2504","category":"68","category_name":"快餐厅","address":"虹口区溧阳路347号(东汉阳路口)"},{"poiid":"B2094654D56DA4F5429E","title":"快客No.6606","lon":"121.49588","lat":"31.25155","category":"117","category_name":"便民商店/便利店","address":"东汉阳路343"},{"poiid":"B2094654D56DA4F54993","title":"上海市虹口区东余杭路幼儿园","lon":"121.49711","lat":"31.2523","category":"57","category_name":"幼儿园","address":"东汉阳路453"},{"poiid":"B2094654D56DABFD439D","title":"前进住宅小区","lon":"121.49414","lat":"31.25297","category":"47","category_name":"住宅区","address":"周家嘴路86弄1-24号"},{"poiid":"B2094752D165A2FB4299","title":"新华保险大厦","lon":"121.494843","lat":"31.250205","category":"252","category_name":"楼宇机构","address":"东大名路558号"},{"poiid":"B2094654D56DABFD439B","title":"东余杭路第一小学分校","lon":"121.49372","lat":"31.25225","category":"56","category_name":"小学","address":"梧州路110号"},{"poiid":"B2094757D46DABF8449E","title":"清馔房","lon":"121.4937405","lat":"31.2498914","category":"76","category_name":"上海菜","address":"虹口区西安路58号(近旅顺路)"},{"poiid":"B2094752D268AAFE4699","title":"1933老场房","lon":"121.495553","lat":"31.252595","category":"248","category_name":"生活娱乐","address":"上海市虹口区沙泾路"},{"poiid":"B209475DD76EA3F4489F","title":"金牌外婆家国金中心店","lon":"121.495743","lat":"31.250378","category":"257","category_name":"中餐厅","address":"浦东新区世纪大道8号上海国金中心内LG2层55号(近陆家嘴东路)"},{"poiid":"B2094757D16BA2F94499","title":"中国银行(旅顺路支行)","lon":"121.494612103","lat":"31.2510500175","category":"150","category_name":"银行","address":"虹口区东汉阳路285号(东汉阳路旅顺路)"},{"poiid":"B2094757D06BABF94893","title":"京世汉阳路店","lon":"121.494824103","lat":"31.2511650199","category":"500","category_name":"未知分类","address":"上海市虹口区东汉阳路333号"},{"poiid":"B2094757D065A5F4459C","title":"17路周家嘴路新建路站","lon":"121.494636536","lat":"31.2534046173","category":"38","category_name":"公交车站","address":"上海市虹口区周家嘴路近新建路"},{"poiid":"B2094757D06AA5FB4698","title":"红意意大利餐厅","lon":"121.4919041","lat":"31.25405408","category":"500","category_name":"未知分类","address":"1933老场坊 上海市虹口区虬江路"},{"poiid":"B2094757D164A6FD4799","title":"克丽缇娜(东汉阳店)","lon":"121.495284","lat":"31.251378","category":"148","category_name":"美容美发店","address":"上海东汉阳路315号"},{"poiid":"B2094757D168A3F9489D","title":"虹口中学（旧址）","lon":"121.4922202","lat":"31.25138609","category":"55","category_name":"中学","address":"上海武进路86号"},{"poiid":"B2094757D16BA7F4459A","title":"Josie's Base","lon":"121.494096103","lat":"31.2521170398","category":"500","category_name":"未知分类","address":"上海市虹口区新建路"},{"poiid":"B2094655D26FA6FF4298","title":"春阳住宅小区","lon":"121.49282","lat":"31.252275","category":"47","category_name":"住宅区","address":"东余杭路211弄"},{"poiid":"B2094757D068ABFE4599","title":"中信广场","lon":"121.49155956183","lat":"31.253803450588","category":"46","category_name":"楼宇","address":"虹口区四川北路859号(近海宁路)"},{"poiid":"B2094655D26AABFA469C","title":"上海九龙宾馆","lon":"121.49209","lat":"31.25397","category":"250","category_name":"公园户外","address":"上海虹口区溧阳路601号(近吴淞路)"},{"poiid":"B2094757DB6CA4FB4993","title":"外滩公馆","lon":"121.494","lat":"31.25196","category":"76","category_name":"上海菜","address":"虹口区东余杭路275弄3号(近梧州路)"},{"poiid":"B209475CD564A7F84392","title":"上海滩浦东香格里拉店","lon":"121.50058","lat":"31.23634","category":"119","category_name":"商场","address":"浦东富成路33号香格里拉酒店内大堂层"},{"poiid":"B2094757D16AA5FC4392","title":"1933老杨坊—空中剧场","lon":"121.492348103","lat":"31.2545270902","category":"500","category_name":"未知分类","address":"上海市虹口区沙径路10号1933老杨坊四楼"},{"poiid":"B2094757D66DA3FF499F","title":"1933","lon":"121.492579103","lat":"31.2544390883","category":"500","category_name":"未知分类","address":"上海市虹口区四平路"},{"poiid":"B2094757D068A3F5469E","title":"海员医院(东长治路分院)","lon":"121.498129972","lat":"31.250511409","category":"162","category_name":"医院","address":"上海虹口区东长治路505号"},{"poiid":"B2094757D068A1FE499B","title":"浦江名邸","lon":"121.49659","lat":"31.255047","category":"47","category_name":"住宅区","address":"广西北路246号百米香榭商业街南区260"},{"poiid":"B2094654D56DABFE499C","title":"宝矿国际大厦","lon":"121.497534","lat":"31.254199","category":"46","category_name":"楼宇","address":"上海市虹口区吴淞路218号"},{"poiid":"B2094655D26BABFF4098","title":"名江七星城","lon":"121.49435","lat":"31.251509","category":"47","category_name":"住宅区","address":"上海市虹口区东汉阳路309弄"},{"poiid":"B2094654DB6AA7FE459F","title":"豪龙阁舟山渔村(周家嘴路店)","lon":"121.49253","lat":"31.25324","category":"75","category_name":"浙江菜","address":"虹口区周家嘴路2号(溧阳路口)"},{"poiid":"B2094654DB6BA3F8449D","title":"定豪沈家门海鲜酒楼","lon":"121.49484","lat":"31.24854","category":"75","category_name":"浙江菜","address":"虹口区东长治路310号(近溧阳路)"},{"poiid":"B2094757D068A2F84593","title":"白金府邸","lon":"121.49451","lat":"31.250563","category":"252","category_name":"楼宇机构","address":"虹口区旅顺路199弄"},{"poiid":"B2094757D16AA2FB449B","title":"上海市第一人民医院12F","lon":"121.4913274","lat":"31.25310036","category":"162","category_name":"医院","address":"上海海宁路100号"},{"poiid":"B2094654DA6FA6FE429B","title":"恒升半岛国际中心","lon":"121.49564983911","lat":"31.252855823114","category":"46","category_name":"楼宇","address":"上海市虹口区吴淞路205号"},{"poiid":"B2094757D16CA7FE429E","title":"崇明私房菜","lon":"121.494195403","lat":"31.2537960749","category":"76","category_name":"上海菜","address":"虹口区周家嘴路328号(近新建路)"},{"poiid":"B2094655D26BA2F9479E","title":"唐山路新建路","lon":"121.49753","lat":"31.25193","category":"38","category_name":"公交车站","address":""},{"poiid":"B2094752D765A7FD4099","title":"顺风大酒店","lon":"121.492684","lat":"31.252119","category":"247","category_name":"餐饮美食","address":"虹口区汉阳路88号1-3楼"},{"poiid":"B2094654D56DA4F5429B","title":"京世造型·美容(东汉阳路)","lon":"121.49536","lat":"31.25139","category":"148","category_name":"美容美发店","address":""},{"poiid":"B2094757D06BA3F44599","title":"英腾国际健身中心","lon":"121.4947","lat":"31.25091","category":"148","category_name":"美容美发店","address":"虹口区东汉阳路309弄17号名江七星城会所(近宇泰公寓)"},{"poiid":"B2094757D068A2F5499E","title":"新亚大包(海宁路店)","lon":"121.49153","lat":"31.25322","category":"68","category_name":"快餐厅","address":"虹口区海宁路6-8号(近九龙路)"},{"poiid":"B2094654D56DAAFE449C","title":"中皇广场","lon":"121.49439","lat":"31.25442","category":"47","category_name":"住宅区","address":"中皇广场(中皇.外滩)位于虹口周家嘴路(近金田路,梧州路)"},{"poiid":"B2094757D66DA4FF4692","title":"唐山路商丘路烧烤摊","lon":"121.4960231","lat":"31.251600029","category":"68","category_name":"快餐厅","address":"虹口区商丘路"},{"poiid":"B2094750D26AA2F5429E","title":"蓝村路地铁站","lon":"121.495605","lat":"31.252359","category":"36","category_name":"地铁站","address":null},{"poiid":"B2094654DB64A6FB499F","title":"如家快捷酒店(上海北外滩店)","lon":"121.49597","lat":"31.25448","category":"216","category_name":"经济型连锁酒店","address":"上海市虹口区周家嘴路345号(近金田路)"},{"poiid":"B2094654D56DA4F5409C","title":"翠花上酸菜","lon":"121.49343","lat":"31.2511","category":"82","category_name":"东北菜","address":"虹口区梧州路19号(近东汉阳路)"},{"poiid":"B2094654D56DA4F4489D","title":"骨头汤大碗面","lon":"121.49342","lat":"31.25248","category":"68","category_name":"快餐厅","address":"虹口区梧州路97号(近周家嘴路)"},{"poiid":"B2094655D26FA6F54598","title":"上海市虹口区提篮桥地段医院","lon":"121.49478","lat":"31.251","category":"162","category_name":"医院","address":"虹口区东汉阳路246号"},{"poiid":"B2094655D36CA6FB4599","title":"东汉阳路梧州路","lon":"121.49453","lat":"31.25106","category":"38","category_name":"公交车站","address":""},{"poiid":"B2094654D56DA4F54199","title":"名江七星城(边门)","lon":"121.49432","lat":"31.25149","category":"47","category_name":"住宅区","address":"东汉阳路309弄1-17号"},{"poiid":"B209475DDB64ABFA4993","title":"canil狗窝","lon":"121.496696","lat":"31.252607","category":"247","category_name":"餐饮美食","address":"上海市 溧阳路611号1933老场坊1-109室(近海宁路)"},{"poiid":"B2094757D069A6FB479F","title":"提篮桥派出所","lon":"121.49167714","lat":"31.25245795","category":"609","category_name":"警察局","address":"上海九龙路475号"},{"poiid":"B2094654D56DA4F4489A","title":"梧州路馒头店","lon":"121.4934","lat":"31.25278","category":"68","category_name":"快餐厅","address":"虹口区梧州路117号"},{"poiid":"B2094750D768A3FE439D","title":"川子小小店","lon":"121.493","lat":"31.2504","category":"68","category_name":"快餐厅","address":"虹口区溧阳路347号(东汉阳路口)"},{"poiid":"B2094654D56DA4F5429E","title":"快客No.6606","lon":"121.49588","lat":"31.25155","category":"117","category_name":"便民商店/便利店","address":"东汉阳路343"},{"poiid":"B2094654D56DA4F54993","title":"上海市虹口区东余杭路幼儿园","lon":"121.49711","lat":"31.2523","category":"57","category_name":"幼儿园","address":"东汉阳路453"},{"poiid":"B2094654D56DABFD439D","title":"前进住宅小区","lon":"121.49414","lat":"31.25297","category":"47","category_name":"住宅区","address":"周家嘴路86弄1-24号"},{"poiid":"B2094752D165A2FB4299","title":"新华保险大厦","lon":"121.494843","lat":"31.250205","category":"252","category_name":"楼宇机构","address":"东大名路558号"},{"poiid":"B2094654D56DABFD439B","title":"东余杭路第一小学分校","lon":"121.49372","lat":"31.25225","category":"56","category_name":"小学","address":"梧州路110号"},{"poiid":"B2094757D46DABF8449E","title":"清馔房","lon":"121.4937405","lat":"31.2498914","category":"76","category_name":"上海菜","address":"虹口区西安路58号(近旅顺路)"},{"poiid":"B2094752D268AAFE4699","title":"1933老场房","lon":"121.495553","lat":"31.252595","category":"248","category_name":"生活娱乐","address":"上海市虹口区沙泾路"},{"poiid":"B209475DD76EA3F4489F","title":"金牌外婆家国金中心店","lon":"121.495743","lat":"31.250378","category":"257","category_name":"中餐厅","address":"浦东新区世纪大道8号上海国金中心内LG2层55号(近陆家嘴东路)"},{"poiid":"B2094757D16BA2F94499","title":"中国银行(旅顺路支行)","lon":"121.494612103","lat":"31.2510500175","category":"150","category_name":"银行","address":"虹口区东汉阳路285号(东汉阳路旅顺路)"},{"poiid":"B2094757D06BABF94893","title":"京世汉阳路店","lon":"121.494824103","lat":"31.2511650199","category":"500","category_name":"未知分类","address":"上海市虹口区东汉阳路333号"},{"poiid":"B2094757D065A5F4459C","title":"17路周家嘴路新建路站","lon":"121.494636536","lat":"31.2534046173","category":"38","category_name":"公交车站","address":"上海市虹口区周家嘴路近新建路"},{"poiid":"B2094757D06AA5FB4698","title":"红意意大利餐厅","lon":"121.4919041","lat":"31.25405408","category":"500","category_name":"未知分类","address":"1933老场坊 上海市虹口区虬江路"},{"poiid":"B2094757D164A6FD4799","title":"克丽缇娜(东汉阳店)","lon":"121.495284","lat":"31.251378","category":"148","category_name":"美容美发店","address":"上海东汉阳路315号"},{"poiid":"B2094757D168A3F9489D","title":"虹口中学（旧址）","lon":"121.4922202","lat":"31.25138609","category":"55","category_name":"中学","address":"上海武进路86号"},{"poiid":"B2094757D16BA7F4459A","title":"Josie's Base","lon":"121.494096103","lat":"31.2521170398","category":"500","category_name":"未知分类","address":"上海市虹口区新建路"},{"poiid":"B2094655D26FA6FF4298","title":"春阳住宅小区","lon":"121.49282","lat":"31.252275","category":"47","category_name":"住宅区","address":"东余杭路211弄"},{"poiid":"B2094757D068ABFE4599","title":"中信广场","lon":"121.49155956183","lat":"31.253803450588","category":"46","category_name":"楼宇","address":"虹口区四川北路859号(近海宁路)"},{"poiid":"B2094655D26AABFA469C","title":"上海九龙宾馆","lon":"121.49209","lat":"31.25397","category":"250","category_name":"公园户外","address":"上海虹口区溧阳路601号(近吴淞路)"},{"poiid":"B2094757DB6CA4FB4993","title":"外滩公馆","lon":"121.494","lat":"31.25196","category":"76","category_name":"上海菜","address":"虹口区东余杭路275弄3号(近梧州路)"},{"poiid":"B209475CD564A7F84392","title":"上海滩浦东香格里拉店","lon":"121.50058","lat":"31.23634","category":"119","category_name":"商场","address":"浦东富成路33号香格里拉酒店内大堂层"},{"poiid":"B2094757D16AA5FC4392","title":"1933老杨坊—空中剧场","lon":"121.492348103","lat":"31.2545270902","category":"500","category_name":"未知分类","address":"上海市虹口区沙径路10号1933老杨坊四楼"},{"poiid":"B2094757D66DA3FF499F","title":"1933","lon":"121.492579103","lat":"31.2544390883","category":"500","category_name":"未知分类","address":"上海市虹口区四平路"},{"poiid":"B2094757D068A3F5469E","title":"海员医院(东长治路分院)","lon":"121.498129972","lat":"31.250511409","category":"162","category_name":"医院","address":"上海虹口区东长治路505号"},{"poiid":"B2094757D068A1FE499B","title":"浦江名邸","lon":"121.49659","lat":"31.255047","category":"47","category_name":"住宅区","address":"广西北路246号百米香榭商业街南区260"},{"poiid":"B2094654D56DABFE499C","title":"宝矿国际大厦","lon":"121.497534","lat":"31.254199","category":"46","category_name":"楼宇","address":"上海市虹口区吴淞路218号"},{"poiid":"B2094655D26BABFF4098","title":"名江七星城","lon":"121.49435","lat":"31.251509","category":"47","category_name":"住宅区","address":"上海市虹口区东汉阳路309弄"},{"poiid":"B2094654DB6AA7FE459F","title":"豪龙阁舟山渔村(周家嘴路店)","lon":"121.49253","lat":"31.25324","category":"75","category_name":"浙江菜","address":"虹口区周家嘴路2号(溧阳路口)"},{"poiid":"B2094654DB6BA3F8449D","title":"定豪沈家门海鲜酒楼","lon":"121.49484","lat":"31.24854","category":"75","category_name":"浙江菜","address":"虹口区东长治路310号(近溧阳路)"},{"poiid":"B2094757D068A2F84593","title":"白金府邸","lon":"121.49451","lat":"31.250563","category":"252","category_name":"楼宇机构","address":"虹口区旅顺路199弄"},{"poiid":"B2094757D16AA2FB449B","title":"上海市第一人民医院12F","lon":"121.4913274","lat":"31.25310036","category":"162","category_name":"医院","address":"上海海宁路100号"},{"poiid":"B2094654DA6FA6FE429B","title":"恒升半岛国际中心","lon":"121.49564983911","lat":"31.252855823114","category":"46","category_name":"楼宇","address":"上海市虹口区吴淞路205号"},{"poiid":"B2094757D16CA7FE429E","title":"崇明私房菜","lon":"121.494195403","lat":"31.2537960749","category":"76","category_name":"上海菜","address":"虹口区周家嘴路328号(近新建路)"},{"poiid":"B2094655D26BA2F9479E","title":"唐山路新建路","lon":"121.49753","lat":"31.25193","category":"38","category_name":"公交车站","address":""},{"poiid":"B2094752D765A7FD4099","title":"顺风大酒店","lon":"121.492684","lat":"31.252119","category":"247","category_name":"餐饮美食","address":"虹口区汉阳路88号1-3楼"},{"poiid":"B2094654D56DA4F5429B","title":"京世造型·美容(东汉阳路)","lon":"121.49536","lat":"31.25139","category":"148","category_name":"美容美发店","address":""},{"poiid":"B2094757D06BA3F44599","title":"英腾国际健身中心","lon":"121.4947","lat":"31.25091","category":"148","category_name":"美容美发店","address":"虹口区东汉阳路309弄17号名江七星城会所(近宇泰公寓)"},{"poiid":"B2094757D068A2F5499E","title":"新亚大包(海宁路店)","lon":"121.49153","lat":"31.25322","category":"68","category_name":"快餐厅","address":"虹口区海宁路6-8号(近九龙路)"},{"poiid":"B2094654D56DAAFE449C","title":"中皇广场","lon":"121.49439","lat":"31.25442","category":"47","category_name":"住宅区","address":"中皇广场(中皇.外滩)位于虹口周家嘴路(近金田路,梧州路)"},{"poiid":"B2094757D66DA4FF4692","title":"唐山路商丘路烧烤摊","lon":"121.4960231","lat":"31.251600029","category":"68","category_name":"快餐厅","address":"虹口区商丘路"},{"poiid":"B2094750D26AA2F5429E","title":"蓝村路地铁站","lon":"121.495605","lat":"31.252359","category":"36","category_name":"地铁站","address":null},{"poiid":"B2094654DB64A6FB499F","title":"如家快捷酒店(上海北外滩店)","lon":"121.49597","lat":"31.25448","category":"216","category_name":"经济型连锁酒店","address":"上海市虹口区周家嘴路345号(近金田路)"},{"poiid":"B2094654D56DA4F5409C","title":"翠花上酸菜","lon":"121.49343","lat":"31.2511","category":"82","category_name":"东北菜","address":"虹口区梧州路19号(近东汉阳路)"},{"poiid":"B2094654D56DA4F4489D","title":"骨头汤大碗面","lon":"121.49342","lat":"31.25248","category":"68","category_name":"快餐厅","address":"虹口区梧州路97号(近周家嘴路)"},{"poiid":"B2094655D26FA6F54598","title":"上海市虹口区提篮桥地段医院","lon":"121.49478","lat":"31.251","category":"162","category_name":"医院","address":"虹口区东汉阳路246号"},{"poiid":"B2094655D36CA6FB4599","title":"东汉阳路梧州路","lon":"121.49453","lat":"31.25106","category":"38","category_name":"公交车站","address":""},{"poiid":"B2094654D56DA4F54199","title":"名江七星城(边门)","lon":"121.49432","lat":"31.25149","category":"47","category_name":"住宅区","address":"东汉阳路309弄1-17号"},{"poiid":"B209475DDB64ABFA4993","title":"canil狗窝","lon":"121.496696","lat":"31.252607","category":"247","category_name":"餐饮美食","address":"上海市 溧阳路611号1933老场坊1-109室(近海宁路)"},{"poiid":"B2094757D069A6FB479F","title":"提篮桥派出所","lon":"121.49167714","lat":"31.25245795","category":"609","category_name":"警察局","address":"上海九龙路475号"},{"poiid":"B2094654D56DA4F4489A","title":"梧州路馒头店","lon":"121.4934","lat":"31.25278","category":"68","category_name":"快餐厅","address":"虹口区梧州路117号"},{"poiid":"B2094750D768A3FE439D","title":"川子小小店","lon":"121.493","lat":"31.2504","category":"68","category_name":"快餐厅","address":"虹口区溧阳路347号(东汉阳路口)"},{"poiid":"B2094654D56DA4F5429E","title":"快客No.6606","lon":"121.49588","lat":"31.25155","category":"117","category_name":"便民商店/便利店","address":"东汉阳路343"},{"poiid":"B2094654D56DA4F54993","title":"上海市虹口区东余杭路幼儿园","lon":"121.49711","lat":"31.2523","category":"57","category_name":"幼儿园","address":"东汉阳路453"},{"poiid":"B2094654D56DABFD439D","title":"前进住宅小区","lon":"121.49414","lat":"31.25297","category":"47","category_name":"住宅区","address":"周家嘴路86弄1-24号"},{"poiid":"B2094752D165A2FB4299","title":"新华保险大厦","lon":"121.494843","lat":"31.250205","category":"252","category_name":"楼宇机构","address":"东大名路558号"},{"poiid":"B2094654D56DABFD439B","title":"东余杭路第一小学分校","lon":"121.49372","lat":"31.25225","category":"56","category_name":"小学","address":"梧州路110号"},{"poiid":"B2094757D46DABF8449E","title":"清馔房","lon":"121.4937405","lat":"31.2498914","category":"76","category_name":"上海菜","address":"虹口区西安路58号(近旅顺路)"},{"poiid":"B2094752D268AAFE4699","title":"1933老场房","lon":"121.495553","lat":"31.252595","category":"248","category_name":"生活娱乐","address":"上海市虹口区沙泾路"},{"poiid":"B209475DD76EA3F4489F","title":"金牌外婆家国金中心店","lon":"121.495743","lat":"31.250378","category":"257","category_name":"中餐厅","address":"浦东新区世纪大道8号上海国金中心内LG2层55号(近陆家嘴东路)"},{"poiid":"B2094757D16BA2F94499","title":"中国银行(旅顺路支行)","lon":"121.494612103","lat":"31.2510500175","category":"150","category_name":"银行","address":"虹口区东汉阳路285号(东汉阳路旅顺路)"},{"poiid":"B2094757D06BABF94893","title":"京世汉阳路店","lon":"121.494824103","lat":"31.2511650199","category":"500","category_name":"未知分类","address":"上海市虹口区东汉阳路333号"},{"poiid":"B2094757D065A5F4459C","title":"17路周家嘴路新建路站","lon":"121.494636536","lat":"31.2534046173","category":"38","category_name":"公交车站","address":"上海市虹口区周家嘴路近新建路"},{"poiid":"B2094757D06AA5FB4698","title":"红意意大利餐厅","lon":"121.4919041","lat":"31.25405408","category":"500","category_name":"未知分类","address":"1933老场坊 上海市虹口区虬江路"},{"poiid":"B2094757D164A6FD4799","title":"克丽缇娜(东汉阳店)","lon":"121.495284","lat":"31.251378","category":"148","category_name":"美容美发店","address":"上海东汉阳路315号"},{"poiid":"B2094757D168A3F9489D","title":"虹口中学（旧址）","lon":"121.4922202","lat":"31.25138609","category":"55","category_name":"中学","address":"上海武进路86号"},{"poiid":"B2094757D16BA7F4459A","title":"Josie's Base","lon":"121.494096103","lat":"31.2521170398","category":"500","category_name":"未知分类","address":"上海市虹口区新建路"},{"poiid":"B2094655D26FA6FF4298","title":"春阳住宅小区","lon":"121.49282","lat":"31.252275","category":"47","category_name":"住宅区","address":"东余杭路211弄"},{"poiid":"B2094757D068ABFE4599","title":"中信广场","lon":"121.49155956183","lat":"31.253803450588","category":"46","category_name":"楼宇","address":"虹口区四川北路859号(近海宁路)"},{"poiid":"B2094655D26AABFA469C","title":"上海九龙宾馆","lon":"121.49209","lat":"31.25397","category":"250","category_name":"公园户外","address":"上海虹口区溧阳路601号(近吴淞路)"},{"poiid":"B2094757DB6CA4FB4993","title":"外滩公馆","lon":"121.494","lat":"31.25196","category":"76","category_name":"上海菜","address":"虹口区东余杭路275弄3号(近梧州路)"},{"poiid":"B209475CD564A7F84392","title":"上海滩浦东香格里拉店","lon":"121.50058","lat":"31.23634","category":"119","category_name":"商场","address":"浦东富成路33号香格里拉酒店内大堂层"},{"poiid":"B2094757D16AA5FC4392","title":"1933老杨坊—空中剧场","lon":"121.492348103","lat":"31.2545270902","category":"500","category_name":"未知分类","address":"上海市虹口区沙径路10号1933老杨坊四楼"},{"poiid":"B2094757D66DA3FF499F","title":"1933","lon":"121.492579103","lat":"31.2544390883","category":"500","category_name":"未知分类","address":"上海市虹口区四平路"},{"poiid":"B2094757D068A3F5469E","title":"海员医院(东长治路分院)","lon":"121.498129972","lat":"31.250511409","category":"162","category_name":"医院","address":"上海虹口区东长治路505号"},{"poiid":"B2094757D068A1FE499B","title":"浦江名邸","lon":"121.49659","lat":"31.255047","category":"47","category_name":"住宅区","address":"广西北路246号百米香榭商业街南区260"},{"poiid":"B2094654D56DABFE499C","title":"宝矿国际大厦","lon":"121.497534","lat":"31.254199","category":"46","category_name":"楼宇","address":"上海市虹口区吴淞路218号"},{"poiid":"B2094655D26BABFF4098","title":"名江七星城","lon":"121.49435","lat":"31.251509","category":"47","category_name":"住宅区","address":"上海市虹口区东汉阳路309弄"},{"poiid":"B2094654DB6AA7FE459F","title":"豪龙阁舟山渔村(周家嘴路店)","lon":"121.49253","lat":"31.25324","category":"75","category_name":"浙江菜","address":"虹口区周家嘴路2号(溧阳路口)"},{"poiid":"B2094654DB6BA3F8449D","title":"定豪沈家门海鲜酒楼","lon":"121.49484","lat":"31.24854","category":"75","category_name":"浙江菜","address":"虹口区东长治路310号(近溧阳路)"},{"poiid":"B2094757D068A2F84593","title":"白金府邸","lon":"121.49451","lat":"31.250563","category":"252","category_name":"楼宇机构","address":"虹口区旅顺路199弄"},{"poiid":"B2094757D16AA2FB449B","title":"上海市第一人民医院12F","lon":"121.4913274","lat":"31.25310036","category":"162","category_name":"医院","address":"上海海宁路100号"},{"poiid":"B2094654DA6FA6FE429B","title":"恒升半岛国际中心","lon":"121.49564983911","lat":"31.252855823114","category":"46","category_name":"楼宇","address":"上海市虹口区吴淞路205号"},{"poiid":"B2094757D16CA7FE429E","title":"崇明私房菜","lon":"121.494195403","lat":"31.2537960749","category":"76","category_name":"上海菜","address":"虹口区周家嘴路328号(近新建路)"},{"poiid":"B2094655D26BA2F9479E","title":"唐山路新建路","lon":"121.49753","lat":"31.25193","category":"38","category_name":"公交车站","address":""},{"poiid":"B2094752D765A7FD4099","title":"顺风大酒店","lon":"121.492684","lat":"31.252119","category":"247","category_name":"餐饮美食","address":"虹口区汉阳路88号1-3楼"},{"poiid":"B2094654D56DA4F5429B","title":"京世造型·美容(东汉阳路)","lon":"121.49536","lat":"31.25139","category":"148","category_name":"美容美发店","address":""},{"poiid":"B2094757D06BA3F44599","title":"英腾国际健身中心","lon":"121.4947","lat":"31.25091","category":"148","category_name":"美容美发店","address":"虹口区东汉阳路309弄17号名江七星城会所(近宇泰公寓)"},{"poiid":"B2094757D068A2F5499E","title":"新亚大包(海宁路店)","lon":"121.49153","lat":"31.25322","category":"68","category_name":"快餐厅","address":"虹口区海宁路6-8号(近九龙路)"},{"poiid":"B2094654D56DAAFE449C","title":"中皇广场","lon":"121.49439","lat":"31.25442","category":"47","category_name":"住宅区","address":"中皇广场(中皇.外滩)位于虹口周家嘴路(近金田路,梧州路)"},{"poiid":"B2094757D66DA4FF4692","title":"唐山路商丘路烧烤摊","lon":"121.4960231","lat":"31.251600029","category":"68","category_name":"快餐厅","address":"虹口区商丘路"},{"poiid":"B2094750D26AA2F5429E","title":"蓝村路地铁站","lon":"121.495605","lat":"31.252359","category":"36","category_name":"地铁站","address":null},{"poiid":"B2094654DB64A6FB499F","title":"如家快捷酒店(上海北外滩店)","lon":"121.49597","lat":"31.25448","category":"216","category_name":"经济型连锁酒店","address":"上海市虹口区周家嘴路345号(近金田路)"},{"poiid":"B2094654D56DA4F5409C","title":"翠花上酸菜","lon":"121.49343","lat":"31.2511","category":"82","category_name":"东北菜","address":"虹口区梧州路19号(近东汉阳路)"},{"poiid":"B2094654D56DA4F4489D","title":"骨头汤大碗面","lon":"121.49342","lat":"31.25248","category":"68","category_name":"快餐厅","address":"虹口区梧州路97号(近周家嘴路)"},{"poiid":"B2094655D26FA6F54598","title":"上海市虹口区提篮桥地段医院","lon":"121.49478","lat":"31.251","category":"162","category_name":"医院","address":"虹口区东汉阳路246号"},{"poiid":"B2094655D36CA6FB4599","title":"东汉阳路梧州路","lon":"121.49453","lat":"31.25106","category":"38","category_name":"公交车站","address":""},{"poiid":"B2094654D56DA4F54199","title":"名江七星城(边门)","lon":"121.49432","lat":"31.25149","category":"47","category_name":"住宅区","address":"东汉阳路309弄1-17号"},{"poiid":"B209475DDB64ABFA4993","title":"canil狗窝","lon":"121.496696","lat":"31.252607","category":"247","category_name":"餐饮美食","address":"上海市 溧阳路611号1933老场坊1-109室(近海宁路)"},{"poiid":"B2094757D069A6FB479F","title":"提篮桥派出所","lon":"121.49167714","lat":"31.25245795","category":"609","category_name":"警察局","address":"上海九龙路475号"},{"poiid":"B2094654D56DA4F4489A","title":"梧州路馒头店","lon":"121.4934","lat":"31.25278","category":"68","category_name":"快餐厅","address":"虹口区梧州路117号"},{"poiid":"B2094750D768A3FE439D","title":"川子小小店","lon":"121.493","lat":"31.2504","category":"68","category_name":"快餐厅","address":"虹口区溧阳路347号(东汉阳路口)"},{"poiid":"B2094654D56DA4F5429E","title":"快客No.6606","lon":"121.49588","lat":"31.25155","category":"117","category_name":"便民商店/便利店","address":"东汉阳路343"},{"poiid":"B2094654D56DA4F54993","title":"上海市虹口区东余杭路幼儿园","lon":"121.49711","lat":"31.2523","category":"57","category_name":"幼儿园","address":"东汉阳路453"},{"poiid":"B2094654D56DABFD439D","title":"前进住宅小区","lon":"121.49414","lat":"31.25297","category":"47","category_name":"住宅区","address":"周家嘴路86弄1-24号"},{"poiid":"B2094752D165A2FB4299","title":"新华保险大厦","lon":"121.494843","lat":"31.250205","category":"252","category_name":"楼宇机构","address":"东大名路558号"},{"poiid":"B2094654D56DABFD439B","title":"东余杭路第一小学分校","lon":"121.49372","lat":"31.25225","category":"56","category_name":"小学","address":"梧州路110号"},{"poiid":"B2094757D46DABF8449E","title":"清馔房","lon":"121.4937405","lat":"31.2498914","category":"76","category_name":"上海菜","address":"虹口区西安路58号(近旅顺路)"},{"poiid":"B2094752D268AAFE4699","title":"1933老场房","lon":"121.495553","lat":"31.252595","category":"248","category_name":"生活娱乐","address":"上海市虹口区沙泾路"},{"poiid":"B209475DD76EA3F4489F","title":"金牌外婆家国金中心店","lon":"121.495743","lat":"31.250378","category":"257","category_name":"中餐厅","address":"浦东新区世纪大道8号上海国金中心内LG2层55号(近陆家嘴东路)"},{"poiid":"B2094757D16BA2F94499","title":"中国银行(旅顺路支行)","lon":"121.494612103","lat":"31.2510500175","category":"150","category_name":"银行","address":"虹口区东汉阳路285号(东汉阳路旅顺路)"},{"poiid":"B2094757D06BABF94893","title":"京世汉阳路店","lon":"121.494824103","lat":"31.2511650199","category":"500","category_name":"未知分类","address":"上海市虹口区东汉阳路333号"},{"poiid":"B2094757D065A5F4459C","title":"17路周家嘴路新建路站","lon":"121.494636536","lat":"31.2534046173","category":"38","category_name":"公交车站","address":"上海市虹口区周家嘴路近新建路"},{"poiid":"B2094757D06AA5FB4698","title":"红意意大利餐厅","lon":"121.4919041","lat":"31.25405408","category":"500","category_name":"未知分类","address":"1933老场坊 上海市虹口区虬江路"},{"poiid":"B2094757D164A6FD4799","title":"克丽缇娜(东汉阳店)","lon":"121.495284","lat":"31.251378","category":"148","category_name":"美容美发店","address":"上海东汉阳路315号"},{"poiid":"B2094757D168A3F9489D","title":"虹口中学（旧址）","lon":"121.4922202","lat":"31.25138609","category":"55","category_name":"中学","address":"上海武进路86号"},{"poiid":"B2094757D16BA7F4459A","title":"Josie's Base","lon":"121.494096103","lat":"31.2521170398","category":"500","category_name":"未知分类","address":"上海市虹口区新建路"},{"poiid":"B2094655D26FA6FF4298","title":"春阳住宅小区","lon":"121.49282","lat":"31.252275","category":"47","category_name":"住宅区","address":"东余杭路211弄"}]