[{"poiid":"B2094654D56DAAF94092","title":"上海市第一人民医院","lon":"121.48928","lat":"31.25335","category":"162","category_name":"医院","address":"上海ShanghaiHongkouSichuan North Rd"},{"poiid":"B2094654D56EA1FD4198","title":"海底捞火锅(森林湾大厦西南)","lon":"121.4878","lat":"31.25103","category":"86","category_name":"火锅店","address":""},{"poiid":"B2094750D66DA2FB4192","title":"Central Perk 老友记主题咖啡馆","lon":"121.488609","lat":"31.253501","category":"260","category_name":"其他","address":"虹口区哈尔滨路160号1913老洋行A105号(近1933创意园)"},{"poiid":"B209475CD564A7F84392","title":"上海滩浦东香格里拉店","lon":"121.50058","lat":"31.23634","category":"119","category_name":"商场","address":"浦东富成路33号香格里拉酒店内大堂层"},{"poiid":"B2094757D06FA1FF429C","title":"海宁路吴淞路","lon":"121.48706817","lat":"31.251310348","category":"46","category_name":"楼宇","address":"上海海宁路吴淞路"},{"poiid":"B2094750D669A4F54093","title":"唛歌时尚KTV（虹口店）","lon":"121.485252","lat":"31.252166","category":"248","category_name":"生活娱乐","address":"武进路289号海泰时代大厦三楼"},{"poiid":"B2094757D06FA3F8459A","title":"香港永祥烧腊餐厅(虹口店)","lon":"121.48678","lat":"31.25126","category":"72","category_name":"广东菜","address":"虹口区乍浦路423号(北海宁路口)"},{"poiid":"B2094750DA65A5FB479C","title":"中信泰富申虹广场","lon":"121.484619","lat":"31.252653","category":"249","category_name":"购物服务","address":"虹口区四川北路1350号(近武进路)"},{"poiid":"B2094654D56DAAF94093","title":"上海交通大学附属第一人民医院","lon":"121.48927","lat":"31.25335","category":"162","category_name":"医院","address":"海宁路100号"},{"poiid":"B2094757D76EA3FB4198","title":"好好栗子店 海宁总店","lon":"121.488088054","lat":"31.251880793","category":"648","category_name":"零食","address":"虹口区北海宁路63路终点站旁(吴淞路口)"},{"poiid":"B2094655D265A1FF4592","title":"小南国(海宁路店)","lon":"121.48832","lat":"31.25122","category":"257","category_name":"中餐厅","address":"虹口区海宁路263号森林湾大厦3楼(近乍浦路)"},{"poiid":"B2094757D06FA3F54793","title":"侬好蛙干锅传奇(乍浦路店)","lon":"121.48702","lat":"31.25089","category":"71","category_name":"四川菜","address":"虹口区乍浦路408号(近海宁路)"},{"poiid":"B2094750D665ABF94499","title":"盘熟里","lon":"121.486","lat":"31.2522","category":"96","category_name":"韩国料理","address":"虹口区武进路255号乙铺(近乍浦路)"},{"poiid":"B2094750D464A6F8469B","title":"唛歌时尚KTV(四川北路店)","lon":"121.485076","lat":"31.252168","category":"170","category_name":"KTV","address":"虹口区武进路289号海泰时代大厦3楼(近四川北路)"},{"poiid":"B2094757D469A5F9429A","title":"刘锡安大师奥灶面","lon":"121.48711555","lat":"31.25376686","category":"68","category_name":"快餐厅","address":"虹口区武进路255号(近海泰国际大厦)"},{"poiid":"B2094757D069A0FE4998","title":"上海市第一人民医院门诊检验科","lon":"121.4885612","lat":"31.253051659","category":"162","category_name":"医院","address":"上海武进路85号5号楼1楼"},{"poiid":"B2094654D56EA3F4429F","title":"鱼林岛金龙火锅","lon":"121.4874637049","lat":"31.253117704965","category":"86","category_name":"火锅店","address":"虹口区武进路183号(近吴淞路)"},{"poiid":"B2094757D068A2FD449F","title":"永和大王(武进路店)","lon":"121.485382","lat":"31.251675","category":"68","category_name":"快餐厅","address":"虹口区武进路289号海泰时代大厦内(近四川北路)"},{"poiid":"B2094757DB6FA4F54092","title":"鼓浪屿的风（三颗龙眼树）","lon":"121.484672","lat":"31.252915","category":"148","category_name":"美容美发店","address":"昆山路128号"},{"poiid":"B2094751DA6BA2FC419D","title":"顺风北外滩店","lon":"121.486372","lat":"31.250989","category":"75","category_name":"浙江菜","address":"虹口区汉阳路88号(近吴淞路)"},{"poiid":"B2094757D06FA6FB4499","title":"红宝石(武进路店)","lon":"121.48538208","lat":"31.251674652","category":"67","category_name":"甜品店","address":"虹口区武进路289号(四川北路口)"},{"poiid":"B2094654D56EA3F4419A","title":"富祥面馆","lon":"121.486188054","lat":"31.252480793","category":"68","category_name":"快餐厅","address":"虹口区武进路244号(近乍浦路)"},{"poiid":"B2094750DA6FA7F54293","title":"friends主题咖啡店","lon":"121.487365","lat":"31.252862","category":"247","category_name":"餐饮美食","address":"虹口区哈尔滨路160号1913老洋行A105号(近1933创意园"},{"poiid":"B2094757D069ABF9499E","title":"永祥烧腊餐厅(兄弟楼)","lon":"121.487063","lat":"31.251815","category":"72","category_name":"广东菜","address":"虹口区北海宁路76号(近吴淞路)"},{"poiid":"B2094757D068ABFF409D","title":"锡缘无锡小笼馆 北海宁路店","lon":"121.487075054","lat":"31.251334793","category":"68","category_name":"快餐厅","address":"虹口区北海宁路64号(近乍浦路)"},{"poiid":"B2094752D264ABF84798","title":"盘熟里-韩国欢聚餐厅","lon":"121.485826","lat":"31.252583","category":"247","category_name":"餐饮美食","address":"虹口区武进路255号乙区"},{"poiid":"B2094750DA68A5F84193","title":"Q先生真人密室","lon":"121.485969","lat":"31.251867","category":"248","category_name":"生活娱乐","address":"虹口区武进路289号海泰时代大厦1425室(近四川北路)"},{"poiid":"B2094757D16EA5FA4998","title":"小洋葱餐厅","lon":"121.487007054","lat":"31.253508793","category":"68","category_name":"快餐厅","address":"虹口区吴淞路598号(近哈尔滨路)"},{"poiid":"B2094757D16CA6F44298","title":"吴淞路海宁路车站17.854.25.13.等","lon":"121.4877459","lat":"31.253154361","category":"38","category_name":"公交车站","address":"上海吴淞路海宁路"},{"poiid":"B2094654D56EA3F44293","title":"五芳面馆 武进路","lon":"121.48663621002","lat":"31.252493840359","category":"68","category_name":"快餐厅","address":"虹口区武进路169号(近吴淞路)"},{"poiid":"B209475CDA6EAAF84398","title":"年代秀饭堂","lon":"121.487297","lat":"31.256315","category":"247","category_name":"餐饮美食","address":"上海市 虹口区四川北路1689号嘉杰国际广场401"},{"poiid":"B209475CD66AABFF4498","title":"四川北路公园","lon":"121.487014","lat":"31.253913","category":"500","category_name":"未知分类","address":"上海市 四川北路1468号横水路口"},{"poiid":"B2094757D06BA2F8419B","title":"上海消防总队虹口支队虹口分队","lon":"121.4878059","lat":"31.2531177","category":"500","category_name":"未知分类","address":"上海虹口区吴淞路560号(武进路路口)"},{"poiid":"B2094750D76DABFF4599","title":"新炳记蚝庄","lon":"121.487","lat":"31.2519","category":"72","category_name":"广东菜","address":"虹口区乍浦路430号(近北海宁路)"},{"poiid":"B209475CD26DA1FD4399","title":"星巴克","lon":"121.484954","lat":"31.253139","category":"500","category_name":"未知分类","address":"上海市 四川北路1350号中信泰富申虹广场1楼(近武进路)"},{"poiid":"B2094655D26BA2FC469D","title":"吴淞路海宁路","lon":"121.48789","lat":"31.25144","category":"38","category_name":"公交车站","address":"上海吴淞路529号"},{"poiid":"B2094654DB6BA3FA429A","title":"格林豪泰(四川北路快捷酒店)","lon":"121.48583","lat":"31.25217","category":"216","category_name":"经济型连锁酒店","address":"上海市虹口区武进路255号（近四川北路）"},{"poiid":"B2094757D66EA5FA4292","title":"老北京涮羊肉","lon":"121.4881461","lat":"31.253520069","category":"247","category_name":"餐饮美食","address":"上海市虹口区厚德路"},{"poiid":"B2094654DB69A0F9409B","title":"宋记香辣蟹(虹口店)","lon":"121.48702","lat":"31.25265","category":"257","category_name":"中餐厅","address":"虹口区武进路183号"},{"poiid":"B209475CD06AA2FC449B","title":"海底捞火锅店 海宁路店","lon":"121.48781","lat":"31.25117","category":"86","category_name":"火锅店","address":"海宁路263号2楼(吴淞路乍浦路间)"},{"poiid":"B2094757D064A7F8409A","title":"刘锡安奥灶面","lon":"121.4863421","lat":"31.251396024","category":"75","category_name":"浙江菜","address":"上海武进路255号近乍浦路"},{"poiid":"B2094654D56EA3F4429C","title":"欧贝拉(武进路)","lon":"121.48714","lat":"31.2527","category":"112","category_name":"糕饼店","address":"虹口区武进路169号(近吴淞路)"},{"poiid":"B2094757D06AA0F44498","title":"吉祥馄饨(海宁店)","lon":"121.487462","lat":"31.251931","category":"68","category_name":"快餐厅","address":"闸北区海宁路244号(近乍浦路)"},{"poiid":"B2094654D56EA3F44693","title":"大南面饭馆","lon":"121.48718099662","lat":"31.251111218921","category":"68","category_name":"快餐厅","address":"虹口区北海宁路64号102室(近乍浦路)"},{"poiid":"B2094654D56EA2FB4199","title":"上海民生中医门诊部","lon":"121.48669","lat":"31.25455","category":"162","category_name":"医院","address":"四平路"},{"poiid":"B2094757D769A4F5479F","title":"顺旺基 乍浦路店","lon":"121.486488","lat":"31.252085","category":"68","category_name":"快餐厅","address":"虹口区乍浦路480号(近武进路)"},{"poiid":"B2094757D16CA5FC429F","title":"948终点站","lon":"121.487483","lat":"31.251974","category":"38","category_name":"公交车站","address":"上海北海宁路吴淞路"},{"poiid":"B2094757D76EABF5479A","title":"正宗山东炒米糖","lon":"121.487881","lat":"31.252083","category":"68","category_name":"快餐厅","address":"虹口区北海宁路29号(近好好栗子)"},{"poiid":"B2094654D56EA3F4469C","title":"小辣椒酒家","lon":"121.48699","lat":"31.25176","category":"71","category_name":"四川菜","address":"虹口区北海宁路78号(近海宁路)"},{"poiid":"B2094753D765A7F54092","title":"点点心(海宁路店)","lon":"121.484771","lat":"31.252542","category":"247","category_name":"餐饮美食","address":"上海市 海宁路307号"},{"poiid":"B2094654D56DAAF94092","title":"上海市第一人民医院","lon":"121.48928","lat":"31.25335","category":"162","category_name":"医院","address":"上海ShanghaiHongkouSichuan North Rd"},{"poiid":"B2094654D56EA1FD4198","title":"海底捞火锅(森林湾大厦西南)","lon":"121.4878","lat":"31.25103","category":"86","category_name":"火锅店","address":""},{"poiid":"B2094750D66DA2FB4192","title":"Central Perk 老友记主题咖啡馆","lon":"121.488609","lat":"31.253501","category":"260","category_name":"其他","address":"虹口区哈尔滨路160号1913老洋行A105号(近1933创意园)"},{"poiid":"B209475CD564A7F84392","title":"上海滩浦东香格里拉店","lon":"121.50058","lat":"31.23634","category":"119","category_name":"商场","address":"浦东富成路33号香格里拉酒店内大堂层"},{"poiid":"B2094757D06FA1FF429C","title":"海宁路吴淞路","lon":"121.48706817","lat":"31.251310348","category":"46","category_name":"楼宇","address":"上海海宁路吴淞路"},{"poiid":"B2094750D669A4F54093","title":"唛歌时尚KTV（虹口店）","lon":"121.485252","lat":"31.252166","category":"248","category_name":"生活娱乐","address":"武进路289号海泰时代大厦三楼"},{"poiid":"B2094757D06FA3F8459A","title":"香港永祥烧腊餐厅(虹口店)","lon":"121.48678","lat":"31.25126","category":"72","category_name":"广东菜","address":"虹口区乍浦路423号(北海宁路口)"},{"poiid":"B2094750DA65A5FB479C","title":"中信泰富申虹广场","lon":"121.484619","lat":"31.252653","category":"249","category_name":"购物服务","address":"虹口区四川北路1350号(近武进路)"},{"poiid":"B2094654D56DAAF94093","title":"上海交通大学附属第一人民医院","lon":"121.48927","lat":"31.25335","category":"162","category_name":"医院","address":"海宁路100号"},{"poiid":"B2094757D76EA3FB4198","title":"好好栗子店 海宁总店","lon":"121.488088054","lat":"31.251880793","category":"648","category_name":"零食","address":"虹口区北海宁路63路终点站旁(吴淞路口)"},{"poiid":"B2094655D265A1FF4592","title":"小南国(海宁路店)","lon":"121.48832","lat":"31.25122","category":"257","category_name":"中餐厅","address":"虹口区海宁路263号森林湾大厦3楼(近乍浦路)"},{"poiid":"B2094757D06FA3F54793","title":"侬好蛙干锅传奇(乍浦路店)","lon":"121.48702","lat":"31.25089","category":"71","category_name":"四川菜","address":"虹口区乍浦路408号(近海宁路)"},{"poiid":"B2094750D665ABF94499","title":"盘熟里","lon":"121.486","lat":"31.2522","category":"96","category_name":"韩国料理","address":"虹口区武进路255号乙铺(近乍浦路)"},{"poiid":"B2094750D464A6F8469B","title":"唛歌时尚KTV(四川北路店)","lon":"121.485076","lat":"31.252168","category":"170","category_name":"KTV","address":"虹口区武进路289号海泰时代大厦3楼(近四川北路)"},{"poiid":"B2094757D469A5F9429A","title":"刘锡安大师奥灶面","lon":"121.48711555","lat":"31.25376686","category":"68","category_name":"快餐厅","address":"虹口区武进路255号(近海泰国际大厦)"},{"poiid":"B2094757D069A0FE4998","title":"上海市第一人民医院门诊检验科","lon":"121.4885612","lat":"31.253051659","category":"162","category_name":"医院","address":"上海武进路85号5号楼1楼"},{"poiid":"B2094654D56EA3F4429F","title":"鱼林岛金龙火锅","lon":"121.4874637049","lat":"31.253117704965","category":"86","category_name":"火锅店","address":"虹口区武进路183号(近吴淞路)"},{"poiid":"B2094757D068A2FD449F","title":"永和大王(武进路店)","lon":"121.485382","lat":"31.251675","category":"68","category_name":"快餐厅","address":"虹口区武进路289号海泰时代大厦内(近四川北路)"},{"poiid":"B2094757DB6FA4F54092","title":"鼓浪屿的风（三颗龙眼树）","lon":"121.484672","lat":"31.252915","category":"148","category_name":"美容美发店","address":"昆山路128号"},{"poiid":"B2094751DA6BA2FC419D","title":"顺风北外滩店","lon":"121.486372","lat":"31.250989","category":"75","category_name":"浙江菜","address":"虹口区汉阳路88号(近吴淞路)"},{"poiid":"B2094757D06FA6FB4499","title":"红宝石(武进路店)","lon":"121.48538208","lat":"31.251674652","category":"67","category_name":"甜品店","address":"虹口区武进路289号(四川北路口)"},{"poiid":"B2094654D56EA3F4419A","title":"富祥面馆","lon":"121.486188054","lat":"31.252480793","category":"68","category_name":"快餐厅","address":"虹口区武进路244号(近乍浦路)"},{"poiid":"B2094750DA6FA7F54293","title":"friends主题咖啡店","lon":"121.487365","lat":"31.252862","category":"247","category_name":"餐饮美食","address":"虹口区哈尔滨路160号1913老洋行A105号(近1933创意园"},{"poiid":"B2094757D069ABF9499E","title":"永祥烧腊餐厅(兄弟楼)","lon":"121.487063","lat":"31.251815","category":"72","category_name":"广东菜","address":"虹口区北海宁路76号(近吴淞路)"},{"poiid":"B2094757D068ABFF409D","title":"锡缘无锡小笼馆 北海宁路店","lon":"121.487075054","lat":"31.251334793","category":"68","category_name":"快餐厅","address":"虹口区北海宁路64号(近乍浦路)"},{"poiid":"B2094752D264ABF84798","title":"盘熟里-韩国欢聚餐厅","lon":"121.485826","lat":"31.252583","category":"247","category_name":"餐饮美食","address":"虹口区武进路255号乙区"},{"poiid":"B2094750DA68A5F84193","title":"Q先生真人密室","lon":"121.485969","lat":"31.251867","category":"248","category_name":"生活娱乐","address":"虹口区武进路289号海泰时代大厦1425室(近四川北路)"},{"poiid":"B2094757D16EA5FA4998","title":"小洋葱餐厅","lon":"121.487007054","lat":"31.253508793","category":"68","category_name":"快餐厅","address":"虹口区吴淞路598号(近哈尔滨路)"},{"poiid":"B2094757D16CA6F44298","title":"吴淞路海宁路车站17.854.25.13.等","lon":"121.4877459","lat":"31.253154361","category":"38","category_name":"公交车站","address":"上海吴淞路海宁路"},{"poiid":"B2094654D56EA3F44293","title":"五芳面馆 武进路","lon":"121.48663621002","lat":"31.252493840359","category":"68","category_name":"快餐厅","address":"虹口区武进路169号(近吴淞路)"},{"poiid":"B209475CDA6EAAF84398","title":"年代秀饭堂","lon":"121.487297","lat":"31.256315","category":"247","category_name":"餐饮美食","address":"上海市 虹口区四川北路1689号嘉杰国际广场401"},{"poiid":"B209475CD66AABFF4498","title":"四川北路公园","lon":"121.487014","lat":"31.253913","category":"500","category_name":"未知分类","address":"上海市 四川北路1468号横水路口"},{"poiid":"B2094757D06BA2F8419B","title":"上海消防总队虹口支队虹口分队","lon":"121.4878059","lat":"31.2531177","category":"500","category_name":"未知分类","address":"上海虹口区吴淞路560号(武进路路口)"},{"poiid":"B2094750D76DABFF4599","title":"新炳记蚝庄","lon":"121.487","lat":"31.2519","category":"72","category_name":"广东菜","address":"虹口区乍浦路430号(近北海宁路)"},{"poiid":"B209475CD26DA1FD4399","title":"星巴克","lon":"121.484954","lat":"31.253139","category":"500","category_name":"未知分类","address":"上海市 四川北路1350号中信泰富申虹广场1楼(近武进路)"},{"poiid":"B2094655D26BA2FC469D","title":"吴淞路海宁路","lon":"121.48789","lat":"31.25144","category":"38","category_name":"公交车站","address":"上海吴淞路529号"},{"poiid":"B2094654DB6BA3FA429A","title":"格林豪泰(四川北路快捷酒店)","lon":"121.48583","lat":"31.25217","category":"216","category_name":"经济型连锁酒店","address":"上海市虹口区武进路255号（近四川北路）"},{"poiid":"B2094757D66EA5FA4292","title":"老北京涮羊肉","lon":"121.4881461","lat":"31.253520069","category":"247","category_name":"餐饮美食","address":"上海市虹口区厚德路"},{"poiid":"B2094654DB69A0F9409B","title":"宋记香辣蟹(虹口店)","lon":"121.48702","lat":"31.25265","category":"257","category_name":"中餐厅","address":"虹口区武进路183号"},{"poiid":"B209475CD06AA2FC449B","title":"海底捞火锅店 海宁路店","lon":"121.48781","lat":"31.25117","category":"86","category_name":"火锅店","address":"海宁路263号2楼(吴淞路乍浦路间)"},{"poiid":"B2094757D064A7F8409A","title":"刘锡安奥灶面","lon":"121.4863421","lat":"31.251396024","category":"75","category_name":"浙江菜","address":"上海武进路255号近乍浦路"},{"poiid":"B2094654D56EA3F4429C","title":"欧贝拉(武进路)","lon":"121.48714","lat":"31.2527","category":"112","category_name":"糕饼店","address":"虹口区武进路169号(近吴淞路)"},{"poiid":"B2094757D06AA0F44498","title":"吉祥馄饨(海宁店)","lon":"121.487462","lat":"31.251931","category":"68","category_name":"快餐厅","address":"闸北区海宁路244号(近乍浦路)"},{"poiid":"B2094654D56EA3F44693","title":"大南面饭馆","lon":"121.48718099662","lat":"31.251111218921","category":"68","category_name":"快餐厅","address":"虹口区北海宁路64号102室(近乍浦路)"},{"poiid":"B2094654D56EA2FB4199","title":"上海民生中医门诊部","lon":"121.48669","lat":"31.25455","category":"162","category_name":"医院","address":"四平路"},{"poiid":"B2094757D769A4F5479F","title":"顺旺基 乍浦路店","lon":"121.486488","lat":"31.252085","category":"68","category_name":"快餐厅","address":"虹口区乍浦路480号(近武进路)"},{"poiid":"B2094757D16CA5FC429F","title":"948终点站","lon":"121.487483","lat":"31.251974","category":"38","category_name":"公交车站","address":"上海北海宁路吴淞路"},{"poiid":"B2094757D76EABF5479A","title":"正宗山东炒米糖","lon":"121.487881","lat":"31.252083","category":"68","category_name":"快餐厅","address":"虹口区北海宁路29号(近好好栗子)"},{"poiid":"B2094654D56EA3F4469C","title":"小辣椒酒家","lon":"121.48699","lat":"31.25176","category":"71","category_name":"四川菜","address":"虹口区北海宁路78号(近海宁路)"},{"poiid":"B2094753D765A7F54092","title":"点点心(海宁路店)","lon":"121.484771","lat":"31.252542","category":"247","category_name":"餐饮美食","address":"上海市 海宁路307号"},{"poiid":"B2094654D56DAAF94092","title":"上海市第一人民医院","lon":"121.48928","lat":"31.25335","category":"162","category_name":"医院","address":"上海ShanghaiHongkouSichuan North Rd"},{"poiid":"B2094654D56EA1FD4198","title":"海底捞火锅(森林湾大厦西南)","lon":"121.4878","lat":"31.25103","category":"86","category_name":"火锅店","address":""},{"poiid":"B2094750D66DA2FB4192","title":"Central Perk 老友记主题咖啡馆","lon":"121.488609","lat":"31.253501","category":"260","category_name":"其他","address":"虹口区哈尔滨路160号1913老洋行A105号(近1933创意园)"},{"poiid":"B209475CD564A7F84392","title":"上海滩浦东香格里拉店","lon":"121.50058","lat":"31.23634","category":"119","category_name":"商场","address":"浦东富成路33号香格里拉酒店内大堂层"},{"poiid":"B2094757D06FA1FF429C","title":"海宁路吴淞路","lon":"121.48706817","lat":"31.251310348","category":"46","category_name":"楼宇","address":"上海海宁路吴淞路"},{"poiid":"B2094750D669A4F54093","title":"唛歌时尚KTV（虹口店）","lon":"121.485252","lat":"31.252166","category":"248","category_name":"生活娱乐","address":"武进路289号海泰时代大厦三楼"},{"poiid":"B2094757D06FA3F8459A","title":"香港永祥烧腊餐厅(虹口店)","lon":"121.48678","lat":"31.25126","category":"72","category_name":"广东菜","address":"虹口区乍浦路423号(北海宁路口)"},{"poiid":"B2094750DA65A5FB479C","title":"中信泰富申虹广场","lon":"121.484619","lat":"31.252653","category":"249","category_name":"购物服务","address":"虹口区四川北路1350号(近武进路)"},{"poiid":"B2094654D56DAAF94093","title":"上海交通大学附属第一人民医院","lon":"121.48927","lat":"31.25335","category":"162","category_name":"医院","address":"海宁路100号"},{"poiid":"B2094757D76EA3FB4198","title":"好好栗子店 海宁总店","lon":"121.488088054","lat":"31.251880793","category":"648","category_name":"零食","address":"虹口区北海宁路63路终点站旁(吴淞路口)"},{"poiid":"B2094655D265A1FF4592","title":"小南国(海宁路店)","lon":"121.48832","lat":"31.25122","category":"257","category_name":"中餐厅","address":"虹口区海宁路263号森林湾大厦3楼(近乍浦路)"},{"poiid":"B2094757D06FA3F54793","title":"侬好蛙干锅传奇(乍浦路店)","lon":"121.48702","lat":"31.25089","category":"71","category_name":"四川菜","address":"虹口区乍浦路408号(近海宁路)"},{"poiid":"B2094750D665ABF94499","title":"盘熟里","lon":"121.486","lat":"31.2522","category":"96","category_name":"韩国料理","address":"虹口区武进路255号乙铺(近乍浦路)"},{"poiid":"B2094750D464A6F8469B","title":"唛歌时尚KTV(四川北路店)","lon":"121.485076","lat":"31.252168","category":"170","category_name":"KTV","address":"虹口区武进路289号海泰时代大厦3楼(近四川北路)"},{"poiid":"B2094757D469A5F9429A","title":"刘锡安大师奥灶面","lon":"121.48711555","lat":"31.25376686","category":"68","category_name":"快餐厅","address":"虹口区武进路255号(近海泰国际大厦)"},{"poiid":"B2094757D069A0FE4998","title":"上海市第一人民医院门诊检验科","lon":"121.4885612","lat":"31.253051659","category":"162","category_name":"医院","address":"上海武进路85号5号楼1楼"},{"poiid":"B2094654D56EA3F4429F","title":"鱼林岛金龙火锅","lon":"121.4874637049","lat":"31.253117704965","category":"86","category_name":"火锅店","address":"虹口区武进路183号(近吴淞路)"},{"poiid":"B2094757D068A2FD449F","title":"永和大王(武进路店)","lon":"121.485382","lat":"31.251675","category":"68","category_name":"快餐厅","address":"虹口区武进路289号海泰时代大厦内(近四川北路)"},{"poiid":"B2094757DB6FA4F54092","title":"鼓浪屿的风（三颗龙眼树）","lon":"121.484672","lat":"31.252915","category":"148","category_name":"美容美发店","address":"昆山路128号"},{"poiid":"B2094751DA6BA2FC419D","title":"顺风北外滩店","lon":"121.486372","lat":"31.250989","category":"75","category_name":"浙江菜","address":"虹口区汉阳路88号(近吴淞路)"},{"poiid":"B2094757D06FA6FB4499","title":"红宝石(武进路店)","lon":"121.48538208","lat":"31.251674652","category":"67","category_name":"甜品店","address":"虹口区武进路289号(四川北路口)"},{"poiid":"B2094654D56EA3F4419A","title":"富祥面馆","lon":"121.486188054","lat":"31.252480793","category":"68","category_name":"快餐厅","address":"虹口区武进路244号(近乍浦路)"},{"poiid":"B2094750DA6FA7F54293","title":"friends主题咖啡店","lon":"121.487365","lat":"31.252862","category":"247","category_name":"餐饮美食","address":"虹口区哈尔滨路160号1913老洋行A105号(近1933创意园"},{"poiid":"B2094757D069ABF9499E","title":"永祥烧腊餐厅(兄弟楼)","lon":"121.487063","lat":"31.251815","category":"72","category_name":"广东菜","address":"虹口区北海宁路76号(近吴淞路)"},{"poiid":"B2094757D068ABFF409D","title":"锡缘无锡小笼馆 北海宁路店","lon":"121.487075054","lat":"31.251334793","category":"68","category_name":"快餐厅","address":"虹口区北海宁路64号(近乍浦路)"},{"poiid":"B2094752D264ABF84798","title":"盘熟里-韩国欢聚餐厅","lon":"121.485826","lat":"31.252583","category":"247","category_name":"餐饮美食","address":"虹口区武进路255号乙区"},{"poiid":"B2094750DA68A5F84193","title":"Q先生真人密室","lon":"121.485969","lat":"31.251867","category":"248","category_name":"生活娱乐","address":"虹口区武进路289号海泰时代大厦1425室(近四川北路)"},{"poiid":"B2094757D16EA5FA4998","title":"小洋葱餐厅","lon":"121.487007054","lat":"31.253508793","category":"68","category_name":"快餐厅","address":"虹口区吴淞路598号(近哈尔滨路)"},{"poiid":"B2094757D16CA6F44298","title":"吴淞路海宁路车站17.854.25.13.等","lon":"121.4877459","lat":"31.253154361","category":"38","category_name":"公交车站","address":"上海吴淞路海宁路"},{"poiid":"B2094654D56EA3F44293","title":"五芳面馆 武进路","lon":"121.48663621002","lat":"31.252493840359","category":"68","category_name":"快餐厅","address":"虹口区武进路169号(近吴淞路)"},{"poiid":"B209475CDA6EAAF84398","title":"年代秀饭堂","lon":"121.487297","lat":"31.256315","category":"247","category_name":"餐饮美食","address":"上海市 虹口区四川北路1689号嘉杰国际广场401"},{"poiid":"B209475CD66AABFF4498","title":"四川北路公园","lon":"121.487014","lat":"31.253913","category":"500","category_name":"未知分类","address":"上海市 四川北路1468号横水路口"},{"poiid":"B2094757D06BA2F8419B","title":"上海消防总队虹口支队虹口分队","lon":"121.4878059","lat":"31.2531177","category":"500","category_name":"未知分类","address":"上海虹口区吴淞路560号(武进路路口)"},{"poiid":"B2094750D76DABFF4599","title":"新炳记蚝庄","lon":"121.487","lat":"31.2519","category":"72","category_name":"广东菜","address":"虹口区乍浦路430号(近北海宁路)"},{"poiid":"B209475CD26DA1FD4399","title":"星巴克","lon":"121.484954","lat":"31.253139","category":"500","category_name":"未知分类","address":"上海市 四川北路1350号中信泰富申虹广场1楼(近武进路)"},{"poiid":"B2094655D26BA2FC469D","title":"吴淞路海宁路","lon":"121.48789","lat":"31.25144","category":"38","category_name":"公交车站","address":"上海吴淞路529号"},{"poiid":"B2094654DB6BA3FA429A","title":"格林豪泰(四川北路快捷酒店)","lon":"121.48583","lat":"31.25217","category":"216","category_name":"经济型连锁酒店","address":"上海市虹口区武进路255号（近四川北路）"},{"poiid":"B2094757D66EA5FA4292","title":"老北京涮羊肉","lon":"121.4881461","lat":"31.253520069","category":"247","category_name":"餐饮美食","address":"上海市虹口区厚德路"},{"poiid":"B2094654DB69A0F9409B","title":"宋记香辣蟹(虹口店)","lon":"121.48702","lat":"31.25265","category":"257","category_name":"中餐厅","address":"虹口区武进路183号"},{"poiid":"B209475CD06AA2FC449B","title":"海底捞火锅店 海宁路店","lon":"121.48781","lat":"31.25117","category":"86","category_name":"火锅店","address":"海宁路263号2楼(吴淞路乍浦路间)"},{"poiid":"B2094757D064A7F8409A","title":"刘锡安奥灶面","lon":"121.4863421","lat":"31.251396024","category":"75","category_name":"浙江菜","address":"上海武进路255号近乍浦路"},{"poiid":"B2094654D56EA3F4429C","title":"欧贝拉(武进路)","lon":"121.48714","lat":"31.2527","category":"112","category_name":"糕饼店","address":"虹口区武进路169号(近吴淞路)"},{"poiid":"B2094757D06AA0F44498","title":"吉祥馄饨(海宁店)","lon":"121.487462","lat":"31.251931","category":"68","category_name":"快餐厅","address":"闸北区海宁路244号(近乍浦路)"},{"poiid":"B2094654D56EA3F44693","title":"大南面饭馆","lon":"121.48718099662","lat":"31.251111218921","category":"68","category_name":"快餐厅","address":"虹口区北海宁路64号102室(近乍浦路)"},{"poiid":"B2094654D56EA2FB4199","title":"上海民生中医门诊部","lon":"121.48669","lat":"31.25455","category":"162","category_name":"医院","address":"四平路"},{"poiid":"B2094757D769A4F5479F","title":"顺旺基 乍浦路店","lon":"121.486488","lat":"31.252085","category":"68","category_name":"快餐厅","address":"虹口区乍浦路480号(近武进路)"},{"poiid":"B2094757D16CA5FC429F","title":"948终点站","lon":"121.487483","lat":"31.251974","category":"38","category_name":"公交车站","address":"上海北海宁路吴淞路"},{"poiid":"B2094757D76EABF5479A","title":"正宗山东炒米糖","lon":"121.487881","lat":"31.252083","category":"68","category_name":"快餐厅","address":"虹口区北海宁路29号(近好好栗子)"},{"poiid":"B2094654D56EA3F4469C","title":"小辣椒酒家","lon":"121.48699","lat":"31.25176","category":"71","category_name":"四川菜","address":"虹口区北海宁路78号(近海宁路)"},{"poiid":"B2094753D765A7F54092","title":"点点心(海宁路店)","lon":"121.484771","lat":"31.252542","category":"247","category_name":"餐饮美食","address":"上海市 海宁路307号"},{"poiid":"B2094654D56DAAF94092","title":"上海市第一人民医院","lon":"121.48928","lat":"31.25335","category":"162","category_name":"医院","address":"上海ShanghaiHongkouSichuan North Rd"},{"poiid":"B2094654D56EA1FD4198","title":"海底捞火锅(森林湾大厦西南)","lon":"121.4878","lat":"31.25103","category":"86","category_name":"火锅店","address":""},{"poiid":"B2094750D66DA2FB4192","title":"Central Perk 老友记主题咖啡馆","lon":"121.488609","lat":"31.253501","category":"260","category_name":"其他","address":"虹口区哈尔滨路160号1913老洋行A105号(近1933创意园)"},{"poiid":"B209475CD564A7F84392","title":"上海滩浦东香格里拉店","lon":"121.50058","lat":"31.23634","category":"119","category_name":"商场","address":"浦东富成路33号香格里拉酒店内大堂层"},{"poiid":"B2094757D06FA1FF429C","title":"海宁路吴淞路","lon":"121.48706817","lat":"31.251310348","category":"46","category_name":"楼宇","address":"上海海宁路吴淞路"},{"poiid":"B2094750D669A4F54093","title":"唛歌时尚KTV（虹口店）","lon":"121.485252","lat":"31.252166","category":"248","category_name":"生活娱乐","address":"武进路289号海泰时代大厦三楼"},{"poiid":"B2094757D06FA3F8459A","title":"香港永祥烧腊餐厅(虹口店)","lon":"121.48678","lat":"31.25126","category":"72","category_name":"广东菜","address":"虹口区乍浦路423号(北海宁路口)"},{"poiid":"B2094750DA65A5FB479C","title":"中信泰富申虹广场","lon":"121.484619","lat":"31.252653","category":"249","category_name":"购物服务","address":"虹口区四川北路1350号(近武进路)"},{"poiid":"B2094654D56DAAF94093","title":"上海交通大学附属第一人民医院","lon":"121.48927","lat":"31.25335","category":"162","category_name":"医院","address":"海宁路100号"},{"poiid":"B2094757D76EA3FB4198","title":"好好栗子店 海宁总店","lon":"121.488088054","lat":"31.251880793","category":"648","category_name":"零食","address":"虹口区北海宁路63路终点站旁(吴淞路口)"},{"poiid":"B2094655D265A1FF4592","title":"小南国(海宁路店)","lon":"121.48832","lat":"31.25122","category":"257","category_name":"中餐厅","address":"虹口区海宁路263号森林湾大厦3楼(近乍浦路)"},{"poiid":"B2094757D06FA3F54793","title":"侬好蛙干锅传奇(乍浦路店)","lon":"121.48702","lat":"31.25089","category":"71","category_name":"四川菜","address":"虹口区乍浦路408号(近海宁路)"},{"poiid":"B2094750D665ABF94499","title":"盘熟里","lon":"121.486","lat":"31.2522","category":"96","category_name":"韩国料理","address":"虹口区武进路255号乙铺(近乍浦路)"},{"poiid":"B2094750D464A6F8469B","title":"唛歌时尚KTV(四川北路店)","lon":"121.485076","lat":"31.252168","category":"170","category_name":"KTV","address":"虹口区武进路289号海泰时代大厦3楼(近四川北路)"},{"poiid":"B2094757D469A5F9429A","title":"刘锡安大师奥灶面","lon":"121.48711555","lat":"31.25376686","category":"68","category_name":"快餐厅","address":"虹口区武进路255号(近海泰国际大厦)"},{"poiid":"B2094757D069A0FE4998","title":"上海市第一人民医院门诊检验科","lon":"121.4885612","lat":"31.253051659","category":"162","category_name":"医院","address":"上海武进路85号5号楼1楼"},{"poiid":"B2094654D56EA3F4429F","title":"鱼林岛金龙火锅","lon":"121.4874637049","lat":"31.253117704965","category":"86","category_name":"火锅店","address":"虹口区武进路183号(近吴淞路)"},{"poiid":"B2094757D068A2FD449F","title":"永和大王(武进路店)","lon":"121.485382","lat":"31.251675","category":"68","category_name":"快餐厅","address":"虹口区武进路289号海泰时代大厦内(近四川北路)"},{"poiid":"B2094757DB6FA4F54092","title":"鼓浪屿的风（三颗龙眼树）","lon":"121.484672","lat":"31.252915","category":"148","category_name":"美容美发店","address":"昆山路128号"},{"poiid":"B2094751DA6BA2FC419D","title":"顺风北外滩店","lon":"121.486372","lat":"31.250989","category":"75","category_name":"浙江菜","address":"虹口区汉阳路88号(近吴淞路)"},{"poiid":"B2094757D06FA6FB4499","title":"红宝石(武进路店)","lon":"121.48538208","lat":"31.251674652","category":"67","category_name":"甜品店","address":"虹口区武进路289号(四川北路口)"},{"poiid":"B2094654D56EA3F4419A","title":"富祥面馆","lon":"121.486188054","lat":"31.252480793","category":"68","category_name":"快餐厅","address":"虹口区武进路244号(近乍浦路)"},{"poiid":"B2094750DA6FA7F54293","title":"friends主题咖啡店","lon":"121.487365","lat":"31.252862","category":"247","category_name":"餐饮美食","address":"虹口区哈尔滨路160号1913老洋行A105号(近1933创意园"},{"poiid":"B2094757D069ABF9499E","title":"永祥烧腊餐厅(兄弟楼)","lon":"121.487063","lat":"31.251815","category":"72","category_name":"广东菜","address":"虹口区北海宁路76号(近吴淞路)"},{"poiid":"B2094757D068ABFF409D","title":"锡缘无锡小笼馆 北海宁路店","lon":"121.487075054","lat":"31.251334793","category":"68","category_name":"快餐厅","address":"虹口区北海宁路64号(近乍浦路)"},{"poiid":"B2094752D264ABF84798","title":"盘熟里-韩国欢聚餐厅","lon":"121.485826","lat":"31.252583","category":"247","category_name":"餐饮美食","address":"虹口区武进路255号乙区"},{"poiid":"B2094750DA68A5F84193","title":"Q先生真人密室","lon":"121.485969","lat":"31.251867","category":"248","category_name":"生活娱乐","address":"虹口区武进路289号海泰时代大厦1425室(近四川北路)"},{"poiid":"B2094757D16EA5FA4998","title":"小洋葱餐厅","lon":"121.487007054","lat":"31.253508793","category":"68","category_name":"快餐厅","address":"虹口区吴淞路598号(近哈尔滨路)"},{"poiid":"B2094757D16CA6F44298","title":"吴淞路海宁路车站17.854.25.13.等","lon":"121.4877459","lat":"31.253154361","category":"38","category_name":"公交车站","address":"上海吴淞路海宁路"},{"poiid":"B2094654D56EA3F44293","title":"五芳面馆 武进路","lon":"121.48663621002","lat":"31.252493840359","category":"68","category_name":"快餐厅","address":"虹口区武进路169号(近吴淞路)"},{"poiid":"B209475CDA6EAAF84398","title":"年代秀饭堂","lon":"121.487297","lat":"31.256315","category":"247","category_name":"餐饮美食","address":"上海市 虹口区四川北路1689号嘉杰国际广场401"},{"poiid":"B209475CD66AABFF4498","title":"四川北路公园","lon":"121.487014","lat":"31.253913","category":"500","category_name":"未知分类","address":"上海市 四川北路1468号横水路口"},{"poiid":"B2094757D06BA2F8419B","title":"上海消防总队虹口支队虹口分队","lon":"121.4878059","lat":"31.2531177","category":"500","category_name":"未知分类","address":"上海虹口区吴淞路560号(武进路路口)"},{"poiid":"B2094750D76DABFF4599","title":"新炳记蚝庄","lon":"121.487","lat":"31.2519","category":"72","category_name":"广东菜","address":"虹口区乍浦路430号(近北海宁路)"},{"poiid":"B209475CD26DA1FD4399","title":"星巴克","lon":"121.484954","lat":"31.253139","category":"500","category_name":"未知分类","address":"上海市 四川北路1350号中信泰富申虹广场1楼(近武进路)"},{"poiid":"B2094655D26BA2FC469D","title":"吴淞路海宁路","lon":"121.48789","lat":"31.25144","category":"38","category_name":"公交车站","address":"上海吴淞路529号"},{"poiid":"B2094654DB6BA3FA429A","title":"格林豪泰(四川北路快捷酒店)","lon":"121.48583","lat":"31.25217","category":"216","category_name":"经济型连锁酒店","address":"上海市虹口区武进路255号（近四川北路）"},{"poiid":"B2094757D66EA5FA4292","title":"老北京涮羊肉","lon":"121.4881461","lat":"31.253520069","category":"247","category_name":"餐饮美食","address":"上海市虹口区厚德路"},{"poiid":"B2094654DB69A0F9409B","title":"宋记香辣蟹(虹口店)","lon":"121.48702","lat":"31.25265","category":"257","category_name":"中餐厅","address":"虹口区武进路183号"},{"poiid":"B209475CD06AA2FC449B","title":"海底捞火锅店 海宁路店","lon":"121.48781","lat":"31.25117","category":"86","category_name":"火锅店","address":"海宁路263号2楼(吴淞路乍浦路间)"},{"poiid":"B2094757D064A7F8409A","title":"刘锡安奥灶面","lon":"121.4863421","lat":"31.251396024","category":"75","category_name":"浙江菜","address":"上海武进路255号近乍浦路"},{"poiid":"B2094654D56EA3F4429C","title":"欧贝拉(武进路)","lon":"121.48714","lat":"31.2527","category":"112","category_name":"糕饼店","address":"虹口区武进路169号(近吴淞路)"},{"poiid":"B2094757D06AA0F44498","title":"吉祥馄饨(海宁店)","lon":"121.487462","lat":"31.251931","category":"68","category_name":"快餐厅","address":"闸北区海宁路244号(近乍浦路)"},{"poiid":"B2094654D56EA3F44693","title":"大南面饭馆","lon":"121.48718099662","lat":"31.251111218921","category":"68","category_name":"快餐厅","address":"虹口区北海宁路64号102室(近乍浦路)"},{"poiid":"B2094654D56EA2FB4199","title":"上海民生中医门诊部","lon":"121.48669","lat":"31.25455","category":"162","category_name":"医院","address":"四平路"},{"poiid":"B2094757D769A4F5479F","title":"顺旺基 乍浦路店","lon":"121.486488","lat":"31.252085","category":"68","category_name":"快餐厅","address":"虹口区乍浦路480号(近武进路)"},{"poiid":"B2094757D16CA5FC429F","title":"948终点站","lon":"121.487483","lat":"31.251974","category":"38","category_name":"公交车站","address":"上海北海宁路吴淞路"},{"poiid":"B2094757D76EABF5479A","title":"正宗山东炒米糖","lon":"121.487881","lat":"31.252083","category":"68","category_name":"快餐厅","address":"虹口区北海宁路29号(近好好栗子)"},{"poiid":"B2094654D56EA3F4469C","title":"小辣椒酒家","lon":"121.48699","lat":"31.25176","category":"71","category_name":"四川菜","address":"虹口区北海宁路78号(近海宁路)"},{"poiid":"B2094753D765A7F54092","title":"点点心(海宁路店)","lon":"121.484771","lat":"31.252542","category":"247","category_name":"餐饮美食","address":"上海市 海宁路307号"}]