[{"poiid":"B2094757D169A6FA489C","title":"魔都","lon":"121.48171873","lat":"31.169546008","category":"500","category_name":"未知分类","address":"上海"},{"poiid":"B2094757D06FA1FF449C","title":"第一妇婴保健院(耀华路分院)","lon":"121.48462","lat":"31.17282","category":"162","category_name":"医院","address":"浦东新区耀华路391号(近长清路)"},{"poiid":"B2094757D068A5FE4898","title":"德州路西营路","lon":"121.4845341","lat":"31.1669071","category":"260","category_name":"其他","address":"上海德州路西营路"},{"poiid":"B2094757D06FA1F8499F","title":"富春小笼(耀华路店)","lon":"121.48261334","lat":"31.172451763","category":"68","category_name":"快餐厅","address":"浦东新区耀华路492号(近卢浦大桥)"},{"poiid":"B2094757D06FAAF4459D","title":"耀華路","lon":"121.48446655","lat":"31.174270629","category":"500","category_name":"未知分类","address":"上海耀華路"},{"poiid":"B2094654DB65A6FA4592","title":"新世纪花苑(南门)","lon":"121.48059","lat":"31.17204","category":"656","category_name":"大门","address":"耀华路579弄1-127号"},{"poiid":"B2094757D16BA1F5419E","title":"麦盛莉","lon":"121.48261173","lat":"31.172518071","category":"249","category_name":"购物服务","address":"上海市浦东新区通耀路"},{"poiid":"B2094757D06FA6FC4199","title":"大富贵酒楼(西营店)","lon":"121.48444","lat":"31.16675","category":"76","category_name":"上海菜","address":"浦东新区西营路140号(近德州路)"},{"poiid":"B2094757D06AA1F8459F","title":"卢浦大桥耀华路下匝道","lon":"121.481870571","lat":"31.1688133424","category":"500","category_name":"未知分类","address":"上海耀华路西营路"},{"poiid":"B2094757D068A7FD4893","title":"济阳公园","lon":"121.47993589","lat":"31.169316816","category":"196","category_name":"公园","address":"浦东新区耀华路600号(济阳路口)"},{"poiid":"B2094757D06FA2FA4293","title":"后滩地铁站","lon":"121.46936755","lat":"31.174126931","category":"36","category_name":"地铁站","address":"上海轨道交通 七号线 轨交后滩站 7"},{"poiid":"B2094757D069A7FF4598","title":"上海世博园冰雕艺术展","lon":"121.469558038","lat":"31.1745844152","category":"500","category_name":"未知分类","address":"浦东新区世博大道1200号梅赛德斯奔驰文化中心"},{"poiid":"B2094655D26BA2FF4798","title":"通耀路耀龙路","lon":"121.4746","lat":"31.16836","category":"38","category_name":"公交车站","address":""},{"poiid":"B2094757D06FA6F5459C","title":"打浦路隧道","lon":"121.48451","lat":"31.17358","category":"500","category_name":"未知分类","address":"上海长青路耀华路"},{"poiid":"B2094757D168ABFD4293","title":"龙耀路隧道","lon":"121.476461","lat":"31.166906","category":"500","category_name":"未知分类","address":"上海市浦东新区龙耀路段"},{"poiid":"B2094750D26CA4FF489F","title":"日月光","lon":"121.480506","lat":"31.167711","category":"500","category_name":"未知分类","address":"日月光"},{"poiid":"B2094757D06FAAF4429D","title":"麦盛莉(耀华店)","lon":"121.4763831","lat":"31.176898854","category":"76","category_name":"上海菜","address":"浦东新区耀华路488号(西营路口)"},{"poiid":"B2094654DB6BA5FB4599","title":"上海市申江两岸开发建设投资集团","lon":"121.47288","lat":"31.16833","category":"263","category_name":"公司","address":"耀华路699"},{"poiid":"B2094757D66DA6F9499D","title":"四川北路桥","lon":"121.47620473","lat":"31.166596056","category":"500","category_name":"未知分类","address":"上海四川北路苏州河"},{"poiid":"B2094655D26FA6F54993","title":"济阳三村","lon":"121.48139","lat":"31.16656","category":"47","category_name":"住宅区","address":"德州路465弄"},{"poiid":"B2094757D16FABF84098","title":"新世纪花苑三期","lon":"121.48117573","lat":"31.175086125","category":"47","category_name":"住宅区","address":"上海市杨浦区杭州路66弄"},{"poiid":"B2094654DA6DA6F4469F","title":"上海市第二轻工业学校分部","lon":"121.47637","lat":"31.1714","category":"54","category_name":"职业技术学校","address":"耀华支路14"},{"poiid":"B2094751D46BA4F5409A","title":"七年八班","lon":"121.4810861","lat":"31.1688818","category":"247","category_name":"餐饮美食","address":"长清路"},{"poiid":"B2094757D068A5F8489D","title":"上钢七村","lon":"121.48531","lat":"31.172562","category":"47","category_name":"住宅区","address":"长清路63弄"},{"poiid":"B2094757D06BA7FB499B","title":"济阳新村","lon":"121.481516361","lat":"31.1692341526","category":"47","category_name":"住宅区","address":"上海耀华路"},{"poiid":"B2094654DA6DA6F4479B","title":"大顾饮食店","lon":"121.4761","lat":"31.1719","category":"257","category_name":"中餐厅","address":""},{"poiid":"B2094757D16CA6FF499D","title":"西营路成山路","lon":"121.48375873","lat":"31.169918015","category":"500","category_name":"未知分类","address":"上海西营路成山路"},{"poiid":"B2094757D069A0FB449E","title":"济阳路德州路","lon":"121.481116","lat":"31.166044","category":"500","category_name":"未知分类","address":"上海济阳路近德州路"},{"poiid":"B2094757D164A7F84899","title":"梅园苏州汤包馆","lon":"121.482910638","lat":"31.1690608977","category":"68","category_name":"快餐厅","address":"浦东新区西营路56号(近成山路)"},{"poiid":"B2094655D26FAAF4439A","title":"济阳二村","lon":"121.48161","lat":"31.170979","category":"47","category_name":"住宅区","address":"耀华路550弄"},{"poiid":"B2094757D168ABFC4598","title":"上海克虏伯不锈钢有限公司","lon":"121.476977","lat":"31.174015","category":"46","category_name":"楼宇","address":"上海雪野西路101号"},{"poiid":"B2094757D16AA3FF469C","title":"早餐很重要！","lon":"121.47877893","lat":"31.17062143","category":"500","category_name":"未知分类","address":"上海饭桌边"},{"poiid":"B2094753D164A0F9499F","title":"华东理工大学","lon":"121.471017","lat":"31.160169","category":"500","category_name":"未知分类","address":"上海市 上海市徐汇区梅陇路130号"},{"poiid":"B2094757D16DA0FB4799","title":"沫府","lon":"121.48142473","lat":"31.167577966","category":"247","category_name":"餐饮美食","address":"上海市浦东新区耀华路"},{"poiid":"B2094753D26EA2F4429B","title":"南京西路","lon":"121.474813","lat":"31.173199","category":"500","category_name":"未知分类","address":"上海市 南京西路"},{"poiid":"B2094655D26AA0F9469C","title":"地铁浦江耀华站","lon":"121.47117","lat":"31.17349","category":"36","category_name":"地铁站","address":""},{"poiid":"B2094654DA68A2F44699","title":"济阳一村","lon":"121.48282","lat":"31.16599","category":"47","category_name":"住宅区","address":"德州路436号"},{"poiid":"B2094655D265A7F8489E","title":"川杨河桥","lon":"121.48162","lat":"31.163","category":"250","category_name":"公园户外","address":"上海长清路西营路"},{"poiid":"B2094654DA68A2F4419D","title":"耀华幼儿园","lon":"121.48131","lat":"31.17114","category":"57","category_name":"幼儿园","address":"浦东新区耀华路550弄1号"},{"poiid":"B2094753D668A2F8429E","title":"虹口龙之梦","lon":"121.481583","lat":"31.17323","category":"500","category_name":"未知分类","address":"上海市 虹口区"},{"poiid":"B2094750DB65A6FD4399","title":"宅里厢","lon":"121.48397","lat":"31.169673","category":"76","category_name":"上海菜","address":"浦东新区西营路70-92号"},{"poiid":"B2094757D068A3FF409F","title":"德州七村","lon":"121.48602","lat":"31.166298","category":"252","category_name":"楼宇机构","address":"上海浦东新区德州路380弄"},{"poiid":"B2094757D16CA4F5479C","title":"同里粥庄","lon":"121.477101071","lat":"31.1742154407","category":"247","category_name":"餐饮美食","address":"上海上南路894号(近昌里路)"},{"poiid":"B2094654DA68A2F4489C","title":"德州四村","lon":"121.48619","lat":"31.169117","category":"47","category_name":"住宅区","address":"上海市浦东新区西营路"},{"poiid":"B2094752D56AABF44693","title":"世博展览馆","lon":"121.476251","lat":"31.172501","category":"627","category_name":"一般地点标志","address":null},{"poiid":"B2094654DB65A1F5479F","title":"苏式面馆","lon":"121.48334","lat":"31.17072","category":"68","category_name":"快餐厅","address":"浦东新区西营路56号(近西营路菜场)"},{"poiid":"B2094757D76AA7FA449A","title":"梁记龙虾","lon":"121.484222","lat":"31.166972","category":"68","category_name":"快餐厅","address":"浦东新区德州路395号(近西营路)"},{"poiid":"B2094757D069A5FD4493","title":"救恩堂","lon":"121.48392","lat":"31.17312","category":"245","category_name":"教堂","address":"浦东新区耀华路439号(近西营路)"},{"poiid":"B2094757D168A7FC4592","title":"梅园苏州汤包","lon":"121.482812538","lat":"31.1687178904","category":"247","category_name":"餐饮美食","address":"上海西营路56号"},{"poiid":"B2094655D26FA5FF409F","title":"联城花苑","lon":"121.48121","lat":"31.17263","category":"47","category_name":"住宅区","address":"耀华路555弄1-18号"},{"poiid":"B2094757D169A6FA489C","title":"魔都","lon":"121.48171873","lat":"31.169546008","category":"500","category_name":"未知分类","address":"上海"},{"poiid":"B2094757D06FA1FF449C","title":"第一妇婴保健院(耀华路分院)","lon":"121.48462","lat":"31.17282","category":"162","category_name":"医院","address":"浦东新区耀华路391号(近长清路)"},{"poiid":"B2094757D068A5FE4898","title":"德州路西营路","lon":"121.4845341","lat":"31.1669071","category":"260","category_name":"其他","address":"上海德州路西营路"},{"poiid":"B2094757D06FA1F8499F","title":"富春小笼(耀华路店)","lon":"121.48261334","lat":"31.172451763","category":"68","category_name":"快餐厅","address":"浦东新区耀华路492号(近卢浦大桥)"},{"poiid":"B2094757D06FAAF4459D","title":"耀華路","lon":"121.48446655","lat":"31.174270629","category":"500","category_name":"未知分类","address":"上海耀華路"},{"poiid":"B2094654DB65A6FA4592","title":"新世纪花苑(南门)","lon":"121.48059","lat":"31.17204","category":"656","category_name":"大门","address":"耀华路579弄1-127号"},{"poiid":"B2094757D16BA1F5419E","title":"麦盛莉","lon":"121.48261173","lat":"31.172518071","category":"249","category_name":"购物服务","address":"上海市浦东新区通耀路"},{"poiid":"B2094757D06FA6FC4199","title":"大富贵酒楼(西营店)","lon":"121.48444","lat":"31.16675","category":"76","category_name":"上海菜","address":"浦东新区西营路140号(近德州路)"},{"poiid":"B2094757D06AA1F8459F","title":"卢浦大桥耀华路下匝道","lon":"121.481870571","lat":"31.1688133424","category":"500","category_name":"未知分类","address":"上海耀华路西营路"},{"poiid":"B2094757D068A7FD4893","title":"济阳公园","lon":"121.47993589","lat":"31.169316816","category":"196","category_name":"公园","address":"浦东新区耀华路600号(济阳路口)"},{"poiid":"B2094757D06FA2FA4293","title":"后滩地铁站","lon":"121.46936755","lat":"31.174126931","category":"36","category_name":"地铁站","address":"上海轨道交通 七号线 轨交后滩站 7"},{"poiid":"B2094757D069A7FF4598","title":"上海世博园冰雕艺术展","lon":"121.469558038","lat":"31.1745844152","category":"500","category_name":"未知分类","address":"浦东新区世博大道1200号梅赛德斯奔驰文化中心"},{"poiid":"B2094655D26BA2FF4798","title":"通耀路耀龙路","lon":"121.4746","lat":"31.16836","category":"38","category_name":"公交车站","address":""},{"poiid":"B2094757D06FA6F5459C","title":"打浦路隧道","lon":"121.48451","lat":"31.17358","category":"500","category_name":"未知分类","address":"上海长青路耀华路"},{"poiid":"B2094757D168ABFD4293","title":"龙耀路隧道","lon":"121.476461","lat":"31.166906","category":"500","category_name":"未知分类","address":"上海市浦东新区龙耀路段"},{"poiid":"B2094750D26CA4FF489F","title":"日月光","lon":"121.480506","lat":"31.167711","category":"500","category_name":"未知分类","address":"日月光"},{"poiid":"B2094757D06FAAF4429D","title":"麦盛莉(耀华店)","lon":"121.4763831","lat":"31.176898854","category":"76","category_name":"上海菜","address":"浦东新区耀华路488号(西营路口)"},{"poiid":"B2094654DB6BA5FB4599","title":"上海市申江两岸开发建设投资集团","lon":"121.47288","lat":"31.16833","category":"263","category_name":"公司","address":"耀华路699"},{"poiid":"B2094757D66DA6F9499D","title":"四川北路桥","lon":"121.47620473","lat":"31.166596056","category":"500","category_name":"未知分类","address":"上海四川北路苏州河"},{"poiid":"B2094655D26FA6F54993","title":"济阳三村","lon":"121.48139","lat":"31.16656","category":"47","category_name":"住宅区","address":"德州路465弄"},{"poiid":"B2094757D16FABF84098","title":"新世纪花苑三期","lon":"121.48117573","lat":"31.175086125","category":"47","category_name":"住宅区","address":"上海市杨浦区杭州路66弄"},{"poiid":"B2094654DA6DA6F4469F","title":"上海市第二轻工业学校分部","lon":"121.47637","lat":"31.1714","category":"54","category_name":"职业技术学校","address":"耀华支路14"},{"poiid":"B2094751D46BA4F5409A","title":"七年八班","lon":"121.4810861","lat":"31.1688818","category":"247","category_name":"餐饮美食","address":"长清路"},{"poiid":"B2094757D068A5F8489D","title":"上钢七村","lon":"121.48531","lat":"31.172562","category":"47","category_name":"住宅区","address":"长清路63弄"},{"poiid":"B2094757D06BA7FB499B","title":"济阳新村","lon":"121.481516361","lat":"31.1692341526","category":"47","category_name":"住宅区","address":"上海耀华路"},{"poiid":"B2094654DA6DA6F4479B","title":"大顾饮食店","lon":"121.4761","lat":"31.1719","category":"257","category_name":"中餐厅","address":""},{"poiid":"B2094757D16CA6FF499D","title":"西营路成山路","lon":"121.48375873","lat":"31.169918015","category":"500","category_name":"未知分类","address":"上海西营路成山路"},{"poiid":"B2094757D069A0FB449E","title":"济阳路德州路","lon":"121.481116","lat":"31.166044","category":"500","category_name":"未知分类","address":"上海济阳路近德州路"},{"poiid":"B2094757D164A7F84899","title":"梅园苏州汤包馆","lon":"121.482910638","lat":"31.1690608977","category":"68","category_name":"快餐厅","address":"浦东新区西营路56号(近成山路)"},{"poiid":"B2094655D26FAAF4439A","title":"济阳二村","lon":"121.48161","lat":"31.170979","category":"47","category_name":"住宅区","address":"耀华路550弄"},{"poiid":"B2094757D168ABFC4598","title":"上海克虏伯不锈钢有限公司","lon":"121.476977","lat":"31.174015","category":"46","category_name":"楼宇","address":"上海雪野西路101号"},{"poiid":"B2094757D16AA3FF469C","title":"早餐很重要！","lon":"121.47877893","lat":"31.17062143","category":"500","category_name":"未知分类","address":"上海饭桌边"},{"poiid":"B2094753D164A0F9499F","title":"华东理工大学","lon":"121.471017","lat":"31.160169","category":"500","category_name":"未知分类","address":"上海市 上海市徐汇区梅陇路130号"},{"poiid":"B2094757D16DA0FB4799","title":"沫府","lon":"121.48142473","lat":"31.167577966","category":"247","category_name":"餐饮美食","address":"上海市浦东新区耀华路"},{"poiid":"B2094753D26EA2F4429B","title":"南京西路","lon":"121.474813","lat":"31.173199","category":"500","category_name":"未知分类","address":"上海市 南京西路"},{"poiid":"B2094655D26AA0F9469C","title":"地铁浦江耀华站","lon":"121.47117","lat":"31.17349","category":"36","category_name":"地铁站","address":""},{"poiid":"B2094654DA68A2F44699","title":"济阳一村","lon":"121.48282","lat":"31.16599","category":"47","category_name":"住宅区","address":"德州路436号"},{"poiid":"B2094655D265A7F8489E","title":"川杨河桥","lon":"121.48162","lat":"31.163","category":"250","category_name":"公园户外","address":"上海长清路西营路"},{"poiid":"B2094654DA68A2F4419D","title":"耀华幼儿园","lon":"121.48131","lat":"31.17114","category":"57","category_name":"幼儿园","address":"浦东新区耀华路550弄1号"},{"poiid":"B2094753D668A2F8429E","title":"虹口龙之梦","lon":"121.481583","lat":"31.17323","category":"500","category_name":"未知分类","address":"上海市 虹口区"},{"poiid":"B2094750DB65A6FD4399","title":"宅里厢","lon":"121.48397","lat":"31.169673","category":"76","category_name":"上海菜","address":"浦东新区西营路70-92号"},{"poiid":"B2094757D068A3FF409F","title":"德州七村","lon":"121.48602","lat":"31.166298","category":"252","category_name":"楼宇机构","address":"上海浦东新区德州路380弄"},{"poiid":"B2094757D16CA4F5479C","title":"同里粥庄","lon":"121.477101071","lat":"31.1742154407","category":"247","category_name":"餐饮美食","address":"上海上南路894号(近昌里路)"},{"poiid":"B2094654DA68A2F4489C","title":"德州四村","lon":"121.48619","lat":"31.169117","category":"47","category_name":"住宅区","address":"上海市浦东新区西营路"},{"poiid":"B2094752D56AABF44693","title":"世博展览馆","lon":"121.476251","lat":"31.172501","category":"627","category_name":"一般地点标志","address":null},{"poiid":"B2094654DB65A1F5479F","title":"苏式面馆","lon":"121.48334","lat":"31.17072","category":"68","category_name":"快餐厅","address":"浦东新区西营路56号(近西营路菜场)"},{"poiid":"B2094757D76AA7FA449A","title":"梁记龙虾","lon":"121.484222","lat":"31.166972","category":"68","category_name":"快餐厅","address":"浦东新区德州路395号(近西营路)"},{"poiid":"B2094757D069A5FD4493","title":"救恩堂","lon":"121.48392","lat":"31.17312","category":"245","category_name":"教堂","address":"浦东新区耀华路439号(近西营路)"},{"poiid":"B2094757D168A7FC4592","title":"梅园苏州汤包","lon":"121.482812538","lat":"31.1687178904","category":"247","category_name":"餐饮美食","address":"上海西营路56号"},{"poiid":"B2094655D26FA5FF409F","title":"联城花苑","lon":"121.48121","lat":"31.17263","category":"47","category_name":"住宅区","address":"耀华路555弄1-18号"},{"poiid":"B2094757D169A6FA489C","title":"魔都","lon":"121.48171873","lat":"31.169546008","category":"500","category_name":"未知分类","address":"上海"},{"poiid":"B2094757D06FA1FF449C","title":"第一妇婴保健院(耀华路分院)","lon":"121.48462","lat":"31.17282","category":"162","category_name":"医院","address":"浦东新区耀华路391号(近长清路)"},{"poiid":"B2094757D068A5FE4898","title":"德州路西营路","lon":"121.4845341","lat":"31.1669071","category":"260","category_name":"其他","address":"上海德州路西营路"},{"poiid":"B2094757D06FA1F8499F","title":"富春小笼(耀华路店)","lon":"121.48261334","lat":"31.172451763","category":"68","category_name":"快餐厅","address":"浦东新区耀华路492号(近卢浦大桥)"},{"poiid":"B2094757D06FAAF4459D","title":"耀華路","lon":"121.48446655","lat":"31.174270629","category":"500","category_name":"未知分类","address":"上海耀華路"},{"poiid":"B2094654DB65A6FA4592","title":"新世纪花苑(南门)","lon":"121.48059","lat":"31.17204","category":"656","category_name":"大门","address":"耀华路579弄1-127号"},{"poiid":"B2094757D16BA1F5419E","title":"麦盛莉","lon":"121.48261173","lat":"31.172518071","category":"249","category_name":"购物服务","address":"上海市浦东新区通耀路"},{"poiid":"B2094757D06FA6FC4199","title":"大富贵酒楼(西营店)","lon":"121.48444","lat":"31.16675","category":"76","category_name":"上海菜","address":"浦东新区西营路140号(近德州路)"},{"poiid":"B2094757D06AA1F8459F","title":"卢浦大桥耀华路下匝道","lon":"121.481870571","lat":"31.1688133424","category":"500","category_name":"未知分类","address":"上海耀华路西营路"},{"poiid":"B2094757D068A7FD4893","title":"济阳公园","lon":"121.47993589","lat":"31.169316816","category":"196","category_name":"公园","address":"浦东新区耀华路600号(济阳路口)"},{"poiid":"B2094757D06FA2FA4293","title":"后滩地铁站","lon":"121.46936755","lat":"31.174126931","category":"36","category_name":"地铁站","address":"上海轨道交通 七号线 轨交后滩站 7"},{"poiid":"B2094757D069A7FF4598","title":"上海世博园冰雕艺术展","lon":"121.469558038","lat":"31.1745844152","category":"500","category_name":"未知分类","address":"浦东新区世博大道1200号梅赛德斯奔驰文化中心"},{"poiid":"B2094655D26BA2FF4798","title":"通耀路耀龙路","lon":"121.4746","lat":"31.16836","category":"38","category_name":"公交车站","address":""},{"poiid":"B2094757D06FA6F5459C","title":"打浦路隧道","lon":"121.48451","lat":"31.17358","category":"500","category_name":"未知分类","address":"上海长青路耀华路"},{"poiid":"B2094757D168ABFD4293","title":"龙耀路隧道","lon":"121.476461","lat":"31.166906","category":"500","category_name":"未知分类","address":"上海市浦东新区龙耀路段"},{"poiid":"B2094750D26CA4FF489F","title":"日月光","lon":"121.480506","lat":"31.167711","category":"500","category_name":"未知分类","address":"日月光"},{"poiid":"B2094757D06FAAF4429D","title":"麦盛莉(耀华店)","lon":"121.4763831","lat":"31.176898854","category":"76","category_name":"上海菜","address":"浦东新区耀华路488号(西营路口)"},{"poiid":"B2094654DB6BA5FB4599","title":"上海市申江两岸开发建设投资集团","lon":"121.47288","lat":"31.16833","category":"263","category_name":"公司","address":"耀华路699"},{"poiid":"B2094757D66DA6F9499D","title":"四川北路桥","lon":"121.47620473","lat":"31.166596056","category":"500","category_name":"未知分类","address":"上海四川北路苏州河"},{"poiid":"B2094655D26FA6F54993","title":"济阳三村","lon":"121.48139","lat":"31.16656","category":"47","category_name":"住宅区","address":"德州路465弄"},{"poiid":"B2094757D16FABF84098","title":"新世纪花苑三期","lon":"121.48117573","lat":"31.175086125","category":"47","category_name":"住宅区","address":"上海市杨浦区杭州路66弄"},{"poiid":"B2094654DA6DA6F4469F","title":"上海市第二轻工业学校分部","lon":"121.47637","lat":"31.1714","category":"54","category_name":"职业技术学校","address":"耀华支路14"},{"poiid":"B2094751D46BA4F5409A","title":"七年八班","lon":"121.4810861","lat":"31.1688818","category":"247","category_name":"餐饮美食","address":"长清路"},{"poiid":"B2094757D068A5F8489D","title":"上钢七村","lon":"121.48531","lat":"31.172562","category":"47","category_name":"住宅区","address":"长清路63弄"},{"poiid":"B2094757D06BA7FB499B","title":"济阳新村","lon":"121.481516361","lat":"31.1692341526","category":"47","category_name":"住宅区","address":"上海耀华路"},{"poiid":"B2094654DA6DA6F4479B","title":"大顾饮食店","lon":"121.4761","lat":"31.1719","category":"257","category_name":"中餐厅","address":""},{"poiid":"B2094757D16CA6FF499D","title":"西营路成山路","lon":"121.48375873","lat":"31.169918015","category":"500","category_name":"未知分类","address":"上海西营路成山路"},{"poiid":"B2094757D069A0FB449E","title":"济阳路德州路","lon":"121.481116","lat":"31.166044","category":"500","category_name":"未知分类","address":"上海济阳路近德州路"},{"poiid":"B2094757D164A7F84899","title":"梅园苏州汤包馆","lon":"121.482910638","lat":"31.1690608977","category":"68","category_name":"快餐厅","address":"浦东新区西营路56号(近成山路)"},{"poiid":"B2094655D26FAAF4439A","title":"济阳二村","lon":"121.48161","lat":"31.170979","category":"47","category_name":"住宅区","address":"耀华路550弄"},{"poiid":"B2094757D168ABFC4598","title":"上海克虏伯不锈钢有限公司","lon":"121.476977","lat":"31.174015","category":"46","category_name":"楼宇","address":"上海雪野西路101号"},{"poiid":"B2094757D16AA3FF469C","title":"早餐很重要！","lon":"121.47877893","lat":"31.17062143","category":"500","category_name":"未知分类","address":"上海饭桌边"},{"poiid":"B2094753D164A0F9499F","title":"华东理工大学","lon":"121.471017","lat":"31.160169","category":"500","category_name":"未知分类","address":"上海市 上海市徐汇区梅陇路130号"},{"poiid":"B2094757D16DA0FB4799","title":"沫府","lon":"121.48142473","lat":"31.167577966","category":"247","category_name":"餐饮美食","address":"上海市浦东新区耀华路"},{"poiid":"B2094753D26EA2F4429B","title":"南京西路","lon":"121.474813","lat":"31.173199","category":"500","category_name":"未知分类","address":"上海市 南京西路"},{"poiid":"B2094655D26AA0F9469C","title":"地铁浦江耀华站","lon":"121.47117","lat":"31.17349","category":"36","category_name":"地铁站","address":""},{"poiid":"B2094654DA68A2F44699","title":"济阳一村","lon":"121.48282","lat":"31.16599","category":"47","category_name":"住宅区","address":"德州路436号"},{"poiid":"B2094655D265A7F8489E","title":"川杨河桥","lon":"121.48162","lat":"31.163","category":"250","category_name":"公园户外","address":"上海长清路西营路"},{"poiid":"B2094654DA68A2F4419D","title":"耀华幼儿园","lon":"121.48131","lat":"31.17114","category":"57","category_name":"幼儿园","address":"浦东新区耀华路550弄1号"},{"poiid":"B2094753D668A2F8429E","title":"虹口龙之梦","lon":"121.481583","lat":"31.17323","category":"500","category_name":"未知分类","address":"上海市 虹口区"},{"poiid":"B2094750DB65A6FD4399","title":"宅里厢","lon":"121.48397","lat":"31.169673","category":"76","category_name":"上海菜","address":"浦东新区西营路70-92号"},{"poiid":"B2094757D068A3FF409F","title":"德州七村","lon":"121.48602","lat":"31.166298","category":"252","category_name":"楼宇机构","address":"上海浦东新区德州路380弄"},{"poiid":"B2094757D16CA4F5479C","title":"同里粥庄","lon":"121.477101071","lat":"31.1742154407","category":"247","category_name":"餐饮美食","address":"上海上南路894号(近昌里路)"},{"poiid":"B2094654DA68A2F4489C","title":"德州四村","lon":"121.48619","lat":"31.169117","category":"47","category_name":"住宅区","address":"上海市浦东新区西营路"},{"poiid":"B2094752D56AABF44693","title":"世博展览馆","lon":"121.476251","lat":"31.172501","category":"627","category_name":"一般地点标志","address":null},{"poiid":"B2094654DB65A1F5479F","title":"苏式面馆","lon":"121.48334","lat":"31.17072","category":"68","category_name":"快餐厅","address":"浦东新区西营路56号(近西营路菜场)"},{"poiid":"B2094757D76AA7FA449A","title":"梁记龙虾","lon":"121.484222","lat":"31.166972","category":"68","category_name":"快餐厅","address":"浦东新区德州路395号(近西营路)"},{"poiid":"B2094757D069A5FD4493","title":"救恩堂","lon":"121.48392","lat":"31.17312","category":"245","category_name":"教堂","address":"浦东新区耀华路439号(近西营路)"},{"poiid":"B2094757D168A7FC4592","title":"梅园苏州汤包","lon":"121.482812538","lat":"31.1687178904","category":"247","category_name":"餐饮美食","address":"上海西营路56号"},{"poiid":"B2094655D26FA5FF409F","title":"联城花苑","lon":"121.48121","lat":"31.17263","category":"47","category_name":"住宅区","address":"耀华路555弄1-18号"},{"poiid":"B2094757D169A6FA489C","title":"魔都","lon":"121.48171873","lat":"31.169546008","category":"500","category_name":"未知分类","address":"上海"},{"poiid":"B2094757D06FA1FF449C","title":"第一妇婴保健院(耀华路分院)","lon":"121.48462","lat":"31.17282","category":"162","category_name":"医院","address":"浦东新区耀华路391号(近长清路)"},{"poiid":"B2094757D068A5FE4898","title":"德州路西营路","lon":"121.4845341","lat":"31.1669071","category":"260","category_name":"其他","address":"上海德州路西营路"},{"poiid":"B2094757D06FA1F8499F","title":"富春小笼(耀华路店)","lon":"121.48261334","lat":"31.172451763","category":"68","category_name":"快餐厅","address":"浦东新区耀华路492号(近卢浦大桥)"},{"poiid":"B2094757D06FAAF4459D","title":"耀華路","lon":"121.48446655","lat":"31.174270629","category":"500","category_name":"未知分类","address":"上海耀華路"},{"poiid":"B2094654DB65A6FA4592","title":"新世纪花苑(南门)","lon":"121.48059","lat":"31.17204","category":"656","category_name":"大门","address":"耀华路579弄1-127号"},{"poiid":"B2094757D16BA1F5419E","title":"麦盛莉","lon":"121.48261173","lat":"31.172518071","category":"249","category_name":"购物服务","address":"上海市浦东新区通耀路"},{"poiid":"B2094757D06FA6FC4199","title":"大富贵酒楼(西营店)","lon":"121.48444","lat":"31.16675","category":"76","category_name":"上海菜","address":"浦东新区西营路140号(近德州路)"},{"poiid":"B2094757D06AA1F8459F","title":"卢浦大桥耀华路下匝道","lon":"121.481870571","lat":"31.1688133424","category":"500","category_name":"未知分类","address":"上海耀华路西营路"},{"poiid":"B2094757D068A7FD4893","title":"济阳公园","lon":"121.47993589","lat":"31.169316816","category":"196","category_name":"公园","address":"浦东新区耀华路600号(济阳路口)"},{"poiid":"B2094757D06FA2FA4293","title":"后滩地铁站","lon":"121.46936755","lat":"31.174126931","category":"36","category_name":"地铁站","address":"上海轨道交通 七号线 轨交后滩站 7"},{"poiid":"B2094757D069A7FF4598","title":"上海世博园冰雕艺术展","lon":"121.469558038","lat":"31.1745844152","category":"500","category_name":"未知分类","address":"浦东新区世博大道1200号梅赛德斯奔驰文化中心"},{"poiid":"B2094655D26BA2FF4798","title":"通耀路耀龙路","lon":"121.4746","lat":"31.16836","category":"38","category_name":"公交车站","address":""},{"poiid":"B2094757D06FA6F5459C","title":"打浦路隧道","lon":"121.48451","lat":"31.17358","category":"500","category_name":"未知分类","address":"上海长青路耀华路"},{"poiid":"B2094757D168ABFD4293","title":"龙耀路隧道","lon":"121.476461","lat":"31.166906","category":"500","category_name":"未知分类","address":"上海市浦东新区龙耀路段"},{"poiid":"B2094750D26CA4FF489F","title":"日月光","lon":"121.480506","lat":"31.167711","category":"500","category_name":"未知分类","address":"日月光"},{"poiid":"B2094757D06FAAF4429D","title":"麦盛莉(耀华店)","lon":"121.4763831","lat":"31.176898854","category":"76","category_name":"上海菜","address":"浦东新区耀华路488号(西营路口)"},{"poiid":"B2094654DB6BA5FB4599","title":"上海市申江两岸开发建设投资集团","lon":"121.47288","lat":"31.16833","category":"263","category_name":"公司","address":"耀华路699"},{"poiid":"B2094757D66DA6F9499D","title":"四川北路桥","lon":"121.47620473","lat":"31.166596056","category":"500","category_name":"未知分类","address":"上海四川北路苏州河"},{"poiid":"B2094655D26FA6F54993","title":"济阳三村","lon":"121.48139","lat":"31.16656","category":"47","category_name":"住宅区","address":"德州路465弄"},{"poiid":"B2094757D16FABF84098","title":"新世纪花苑三期","lon":"121.48117573","lat":"31.175086125","category":"47","category_name":"住宅区","address":"上海市杨浦区杭州路66弄"},{"poiid":"B2094654DA6DA6F4469F","title":"上海市第二轻工业学校分部","lon":"121.47637","lat":"31.1714","category":"54","category_name":"职业技术学校","address":"耀华支路14"},{"poiid":"B2094751D46BA4F5409A","title":"七年八班","lon":"121.4810861","lat":"31.1688818","category":"247","category_name":"餐饮美食","address":"长清路"},{"poiid":"B2094757D068A5F8489D","title":"上钢七村","lon":"121.48531","lat":"31.172562","category":"47","category_name":"住宅区","address":"长清路63弄"},{"poiid":"B2094757D06BA7FB499B","title":"济阳新村","lon":"121.481516361","lat":"31.1692341526","category":"47","category_name":"住宅区","address":"上海耀华路"},{"poiid":"B2094654DA6DA6F4479B","title":"大顾饮食店","lon":"121.4761","lat":"31.1719","category":"257","category_name":"中餐厅","address":""},{"poiid":"B2094757D16CA6FF499D","title":"西营路成山路","lon":"121.48375873","lat":"31.169918015","category":"500","category_name":"未知分类","address":"上海西营路成山路"},{"poiid":"B2094757D069A0FB449E","title":"济阳路德州路","lon":"121.481116","lat":"31.166044","category":"500","category_name":"未知分类","address":"上海济阳路近德州路"},{"poiid":"B2094757D164A7F84899","title":"梅园苏州汤包馆","lon":"121.482910638","lat":"31.1690608977","category":"68","category_name":"快餐厅","address":"浦东新区西营路56号(近成山路)"},{"poiid":"B2094655D26FAAF4439A","title":"济阳二村","lon":"121.48161","lat":"31.170979","category":"47","category_name":"住宅区","address":"耀华路550弄"},{"poiid":"B2094757D168ABFC4598","title":"上海克虏伯不锈钢有限公司","lon":"121.476977","lat":"31.174015","category":"46","category_name":"楼宇","address":"上海雪野西路101号"},{"poiid":"B2094757D16AA3FF469C","title":"早餐很重要！","lon":"121.47877893","lat":"31.17062143","category":"500","category_name":"未知分类","address":"上海饭桌边"},{"poiid":"B2094753D164A0F9499F","title":"华东理工大学","lon":"121.471017","lat":"31.160169","category":"500","category_name":"未知分类","address":"上海市 上海市徐汇区梅陇路130号"},{"poiid":"B2094757D16DA0FB4799","title":"沫府","lon":"121.48142473","lat":"31.167577966","category":"247","category_name":"餐饮美食","address":"上海市浦东新区耀华路"},{"poiid":"B2094753D26EA2F4429B","title":"南京西路","lon":"121.474813","lat":"31.173199","category":"500","category_name":"未知分类","address":"上海市 南京西路"},{"poiid":"B2094655D26AA0F9469C","title":"地铁浦江耀华站","lon":"121.47117","lat":"31.17349","category":"36","category_name":"地铁站","address":""},{"poiid":"B2094654DA68A2F44699","title":"济阳一村","lon":"121.48282","lat":"31.16599","category":"47","category_name":"住宅区","address":"德州路436号"},{"poiid":"B2094655D265A7F8489E","title":"川杨河桥","lon":"121.48162","lat":"31.163","category":"250","category_name":"公园户外","address":"上海长清路西营路"},{"poiid":"B2094654DA68A2F4419D","title":"耀华幼儿园","lon":"121.48131","lat":"31.17114","category":"57","category_name":"幼儿园","address":"浦东新区耀华路550弄1号"},{"poiid":"B2094753D668A2F8429E","title":"虹口龙之梦","lon":"121.481583","lat":"31.17323","category":"500","category_name":"未知分类","address":"上海市 虹口区"},{"poiid":"B2094750DB65A6FD4399","title":"宅里厢","lon":"121.48397","lat":"31.169673","category":"76","category_name":"上海菜","address":"浦东新区西营路70-92号"},{"poiid":"B2094757D068A3FF409F","title":"德州七村","lon":"121.48602","lat":"31.166298","category":"252","category_name":"楼宇机构","address":"上海浦东新区德州路380弄"},{"poiid":"B2094757D16CA4F5479C","title":"同里粥庄","lon":"121.477101071","lat":"31.1742154407","category":"247","category_name":"餐饮美食","address":"上海上南路894号(近昌里路)"},{"poiid":"B2094654DA68A2F4489C","title":"德州四村","lon":"121.48619","lat":"31.169117","category":"47","category_name":"住宅区","address":"上海市浦东新区西营路"},{"poiid":"B2094752D56AABF44693","title":"世博展览馆","lon":"121.476251","lat":"31.172501","category":"627","category_name":"一般地点标志","address":null},{"poiid":"B2094654DB65A1F5479F","title":"苏式面馆","lon":"121.48334","lat":"31.17072","category":"68","category_name":"快餐厅","address":"浦东新区西营路56号(近西营路菜场)"},{"poiid":"B2094757D76AA7FA449A","title":"梁记龙虾","lon":"121.484222","lat":"31.166972","category":"68","category_name":"快餐厅","address":"浦东新区德州路395号(近西营路)"},{"poiid":"B2094757D069A5FD4493","title":"救恩堂","lon":"121.48392","lat":"31.17312","category":"245","category_name":"教堂","address":"浦东新区耀华路439号(近西营路)"},{"poiid":"B2094757D168A7FC4592","title":"梅园苏州汤包","lon":"121.482812538","lat":"31.1687178904","category":"247","category_name":"餐饮美食","address":"上海西营路56号"},{"poiid":"B2094655D26FA5FF409F","title":"联城花苑","lon":"121.48121","lat":"31.17263","category":"47","category_name":"住宅区","address":"耀华路555弄1-18号"}]