[{"poiid":"B2094654DA6DA4F44792","title":"复旦大学附属眼耳鼻喉科医院(汾阳路总院)","lon":"121.45335","lat":"31.20955","category":"191","category_name":"科研机构","address":"上海徐汇区汾阳路83号(太原路口)"},{"poiid":"B2094757D06FA7FF479A","title":"仙炙轩(汾阳路店)","lon":"121.452714142","lat":"31.2095961951","category":"269","category_name":"烧烤","address":"徐汇区汾阳路150号(近桃江路)"},{"poiid":"B2094757D06EAAFC449B","title":"串串香麻辣烫(襄阳路店)","lon":"121.45859","lat":"31.20867","category":"68","category_name":"快餐厅","address":"徐汇区襄阳南路311号(近永嘉路)"},{"poiid":"B2094753D76FAAFA449C","title":"上海滩国泰旗舰店","lon":"121.466011","lat":"31.216125","category":"249","category_name":"购物服务","address":"淮海中路868号"},{"poiid":"B209475CD564A7F84292","title":"上海滩新天地店","lon":"121.47463","lat":"31.22164","category":"119","category_name":"商场","address":"\"太仓路181弄新天地北里15号\r\n\""},{"poiid":"B209475CD564A7F8439E","title":"上海滩中信泰富店","lon":"121.45602","lat":"31.22851","category":"119","category_name":"商场","address":"\"南京西路1168号中信泰富广场，店铺号221.\r\n\""},{"poiid":"B2094757D06BA7F54593","title":"五官科医院特约耳鼻喉科门诊","lon":"121.453332","lat":"31.20965","category":"162","category_name":"医院","address":"上海徐汇区汾阳路83号3楼(太原路口)"},{"poiid":"B2094655D36DA1F44793","title":"襄阳南路永嘉路","lon":"121.45791","lat":"31.20864","category":"38","category_name":"公交车站","address":""},{"poiid":"B2094654DB69A5F9449A","title":"星巴克(汾阳路店)","lon":"121.4530533","lat":"31.2097278","category":"65","category_name":"咖啡厅","address":"徐汇区汾阳路138号1楼03单元(太原路)"},{"poiid":"B2094757D068A1F8429A","title":"熠盛粤味","lon":"121.457178","lat":"31.210503","category":"72","category_name":"广东菜","address":"徐汇区永康路132号(近襄阳南路)"},{"poiid":"B2094654DB6AA7FB479E","title":"罗斯福顶级牛排馆","lon":"121.45432","lat":"31.20603","category":"94","category_name":"西餐厅","address":"徐汇区太原路160号太原别墅瑞金宾馆内(近永嘉路)"},{"poiid":"B2094654DA6DA6F94298","title":"大可堂普洱会所","lon":"121.45772","lat":"31.20758","category":"260","category_name":"其他","address":"徐汇区襄阳南路388弄25号(近永嘉路)"},{"poiid":"B2094757D069A3F54799","title":"El Patio","lon":"121.45368458","lat":"31.210532045","category":"94","category_name":"西餐厅","address":"徐汇区汾阳路110号(近太原路)"},{"poiid":"B2094750D665A0FA409D","title":"水稻咖啡","lon":"121.456","lat":"31.208","category":"260","category_name":"其他","address":"徐汇区永嘉路394号(近太原路)"},{"poiid":"B2094654DA6DA6F8439A","title":"上海市第二中学","lon":"121.45536","lat":"31.21034","category":"55","category_name":"中学","address":"徐汇区永康路200号(近太原路)"},{"poiid":"B2094757D06FA6FC439D","title":"宝莱纳贝可利面包","lon":"121.45267563","lat":"31.209468642","category":"67","category_name":"甜品店","address":"徐汇区汾阳路150号(近桃江路)"},{"poiid":"B2094757D06AA3FB4292","title":"上海工艺美术博物馆","lon":"121.45460284","lat":"31.210373083","category":"182","category_name":"博物馆","address":"徐汇区汾阳路79号(永康路与太原路之间)"},{"poiid":"B2094654DA6DA6F8479B","title":"点石斋小宴","lon":"121.45729","lat":"31.20882","category":"76","category_name":"上海菜","address":"徐汇区永嘉路320号(近襄阳南路)"},{"poiid":"B2094757D468A4FE439C","title":"埃哇餐厅 汾阳路店 AURA","lon":"121.454274","lat":"31.2113792","category":"94","category_name":"西餐厅","address":"徐汇区汾阳路64弄4号(近复兴中路)"},{"poiid":"B2094757D068A6F8449D","title":"邮电医院南部","lon":"121.45559842","lat":"31.211518436","category":"162","category_name":"医院","address":"徐汇区复兴中路1315号(近汾阳路)"},{"poiid":"B2094757D16AA1FA469F","title":"永康里","lon":"121.45614","lat":"31.20967","category":"76","category_name":"上海菜","address":"徐汇区永康路(近襄阳路)"},{"poiid":"B2094757D068AAFA4999","title":"猫咖啡 Cat cafe bliss","lon":"121.45400997","lat":"31.209424931","category":"260","category_name":"其他","address":"徐汇区太原路8弄1号2楼(近汾阳路)"},{"poiid":"B2094757D068A3FC4398","title":"轻科大厦","lon":"121.452919","lat":"31.209844589","category":"46","category_name":"楼宇","address":"西城区金融街A区3号地南部"},{"poiid":"B2094750DB68A0FB4492","title":"上海五官科医院","lon":"121.45819","lat":"31.210149","category":"162","category_name":"医院","address":"徐汇区汾阳路83号"},{"poiid":"B2094750D76EA6FC439C","title":"游者","lon":"121.457","lat":"31.2087","category":"95","category_name":"日本料理","address":"徐汇区永嘉路335号(近襄阳路)"},{"poiid":"B2094757D06EAAFD4392","title":"磨咕咖啡馆 mogoo cafe","lon":"121.454309054","lat":"31.211203793","category":"260","category_name":"其他","address":"徐汇区汾阳路77号(近音乐学院)"},{"poiid":"B209475DDA6DA2FF4098","title":"Ditto","lon":"121.45583153","lat":"31.2090393","category":"247","category_name":"餐饮美食","address":"上海市徐汇区太原路63弄6号"},{"poiid":"B2094750DB64A6F84193","title":"复旦大学眼耳喉鼻科医院","lon":"121.456497","lat":"31.207393","category":"162","category_name":"医院","address":null},{"poiid":"B2094654DA6DA4F44899","title":"上海市红十字眼耳鼻喉科医院","lon":"121.45334","lat":"31.20954","category":"162","category_name":"医院","address":"汾阳路83"},{"poiid":"B2094757D069A6FB4192","title":"The Chalet","lon":"121.45457","lat":"31.20623","category":"500","category_name":"未知分类","address":"上海徐汇区永嘉路385弄(近太原路)  "},{"poiid":"B2094757D06AA3FA489E","title":"小荧星艺校(尚街校区)","lon":"121.457245738","lat":"31.2069285447","category":"500","category_name":"未知分类","address":"上海卢湾区建国西路283号(近嘉善路)"},{"poiid":"B2094654DA6DA6F8459F","title":"太原小区","lon":"121.45556","lat":"31.209095","category":"47","category_name":"住宅区","address":"太原路25弄1-14号,83弄2-4号,63弄1-9号,45弄1-10号"},{"poiid":"B2094757D16DA6F8459F","title":"中国中学","lon":"121.456","lat":"31.20754","category":"55","category_name":"中学","address":"上海徐汇区永嘉路388号(近太原路)  "},{"poiid":"B2094655D265A5FF479B","title":"正蕃小筑","lon":"121.45565","lat":"31.20829","category":"47","category_name":"住宅区","address":"永嘉路396弄1-8号"},{"poiid":"B2094654DA6DA6F8469B","title":"上海中国中学","lon":"121.45536","lat":"31.20827","category":"55","category_name":"中学","address":"徐汇区永嘉路388号(近太原路)"},{"poiid":"B2094757D16EA7FA469D","title":"乔家栅食府","lon":"121.457663373","lat":"31.2089027357","category":"68","category_name":"快餐厅","address":"徐汇区襄阳南路336号(近永嘉路)"},{"poiid":"B2094655D26BA2FA439C","title":"太原路永嘉路","lon":"121.45407","lat":"31.20982","category":"38","category_name":"公交车站","address":""},{"poiid":"B2094757D068A1FE439A","title":"永太小区","lon":"121.45662","lat":"31.209164","category":"47","category_name":"住宅区","address":"上海永嘉路356弄"},{"poiid":"B2094757D464A5F9479A","title":"哈尔滨刘记饺子馆 永康店","lon":"121.454622054","lat":"31.209675793","category":"82","category_name":"东北菜","address":"徐汇区永康路207号(太原路口)"},{"poiid":"B2094757D464A5F9479B","title":"哈尔滨刘记饺子馆 永嘉路店","lon":"121.456988054","lat":"31.208580793","category":"82","category_name":"东北菜","address":"徐汇区永嘉路297号(近嘉善路)"},{"poiid":"B2094654DA6DA6F9499D","title":"皇宫爆烤鸭","lon":"121.457991054","lat":"31.208769793","category":"68","category_name":"快餐厅","address":"徐汇区襄阳南路311号(近永嘉路)"},{"poiid":"B2094757DB6EA6FE4898","title":"上海客堂间精品酒店","lon":"121.455813","lat":"31.207727","category":"213","category_name":"五星级宾馆","address":"上海市徐汇区永嘉路335号(近襄阳南路)"},{"poiid":"B2094655D26BAAFE4293","title":"正蕃小筑(南门)","lon":"121.45565","lat":"31.20793","category":"47","category_name":"住宅区","address":"永嘉路396弄1-8号"},{"poiid":"B2094654DA6DA6F84592","title":"中国中学操场","lon":"121.45523","lat":"31.20794","category":"55","category_name":"中学","address":"永嘉路398"},{"poiid":"B2094654DA6DA6F84593","title":"中国中学实验室","lon":"121.45523","lat":"31.20795","category":"55","category_name":"中学","address":"永嘉路398"},{"poiid":"B2094654DB6BA5FB4298","title":"向阳小学","lon":"121.45718","lat":"31.20754","category":"56","category_name":"小学","address":"徐汇区襄阳南路388弄15号(近永嘉路)"},{"poiid":"B2094655D36DA0F4409C","title":"永嘉路襄阳路","lon":"121.45706","lat":"31.20862","category":"38","category_name":"公交车站","address":""},{"poiid":"B2094757D06FA5FF469B","title":"乐弗涯亚洲餐厅","lon":"121.45746374","lat":"31.208731608","category":"110","category_name":"其他亚洲菜","address":"上海卢湾区永嘉路335号(近襄阳南路)"},{"poiid":"B2094654DA6DA4FB469C","title":"天平街道社区卫生服务中心","lon":"121.45476","lat":"31.20681","category":"162","category_name":"医院","address":"徐汇区太原路110号(近永嘉路)"},{"poiid":"B2094654DA6DA6F84298","title":"上海工艺美术博物馆多功能厅","lon":"121.4546","lat":"31.21037","category":"182","category_name":"博物馆","address":"汾阳路79"},{"poiid":"B2094654DA6DA4F44792","title":"复旦大学附属眼耳鼻喉科医院(汾阳路总院)","lon":"121.45335","lat":"31.20955","category":"191","category_name":"科研机构","address":"上海徐汇区汾阳路83号(太原路口)"},{"poiid":"B2094757D06FA7FF479A","title":"仙炙轩(汾阳路店)","lon":"121.452714142","lat":"31.2095961951","category":"269","category_name":"烧烤","address":"徐汇区汾阳路150号(近桃江路)"},{"poiid":"B2094757D06EAAFC449B","title":"串串香麻辣烫(襄阳路店)","lon":"121.45859","lat":"31.20867","category":"68","category_name":"快餐厅","address":"徐汇区襄阳南路311号(近永嘉路)"},{"poiid":"B2094753D76FAAFA449C","title":"上海滩国泰旗舰店","lon":"121.466011","lat":"31.216125","category":"249","category_name":"购物服务","address":"淮海中路868号"},{"poiid":"B209475CD564A7F84292","title":"上海滩新天地店","lon":"121.47463","lat":"31.22164","category":"119","category_name":"商场","address":"\"太仓路181弄新天地北里15号\r\n\""},{"poiid":"B209475CD564A7F8439E","title":"上海滩中信泰富店","lon":"121.45602","lat":"31.22851","category":"119","category_name":"商场","address":"\"南京西路1168号中信泰富广场，店铺号221.\r\n\""},{"poiid":"B2094757D06BA7F54593","title":"五官科医院特约耳鼻喉科门诊","lon":"121.453332","lat":"31.20965","category":"162","category_name":"医院","address":"上海徐汇区汾阳路83号3楼(太原路口)"},{"poiid":"B2094655D36DA1F44793","title":"襄阳南路永嘉路","lon":"121.45791","lat":"31.20864","category":"38","category_name":"公交车站","address":""},{"poiid":"B2094654DB69A5F9449A","title":"星巴克(汾阳路店)","lon":"121.4530533","lat":"31.2097278","category":"65","category_name":"咖啡厅","address":"徐汇区汾阳路138号1楼03单元(太原路)"},{"poiid":"B2094757D068A1F8429A","title":"熠盛粤味","lon":"121.457178","lat":"31.210503","category":"72","category_name":"广东菜","address":"徐汇区永康路132号(近襄阳南路)"},{"poiid":"B2094654DB6AA7FB479E","title":"罗斯福顶级牛排馆","lon":"121.45432","lat":"31.20603","category":"94","category_name":"西餐厅","address":"徐汇区太原路160号太原别墅瑞金宾馆内(近永嘉路)"},{"poiid":"B2094654DA6DA6F94298","title":"大可堂普洱会所","lon":"121.45772","lat":"31.20758","category":"260","category_name":"其他","address":"徐汇区襄阳南路388弄25号(近永嘉路)"},{"poiid":"B2094757D069A3F54799","title":"El Patio","lon":"121.45368458","lat":"31.210532045","category":"94","category_name":"西餐厅","address":"徐汇区汾阳路110号(近太原路)"},{"poiid":"B2094750D665A0FA409D","title":"水稻咖啡","lon":"121.456","lat":"31.208","category":"260","category_name":"其他","address":"徐汇区永嘉路394号(近太原路)"},{"poiid":"B2094654DA6DA6F8439A","title":"上海市第二中学","lon":"121.45536","lat":"31.21034","category":"55","category_name":"中学","address":"徐汇区永康路200号(近太原路)"},{"poiid":"B2094757D06FA6FC439D","title":"宝莱纳贝可利面包","lon":"121.45267563","lat":"31.209468642","category":"67","category_name":"甜品店","address":"徐汇区汾阳路150号(近桃江路)"},{"poiid":"B2094757D06AA3FB4292","title":"上海工艺美术博物馆","lon":"121.45460284","lat":"31.210373083","category":"182","category_name":"博物馆","address":"徐汇区汾阳路79号(永康路与太原路之间)"},{"poiid":"B2094654DA6DA6F8479B","title":"点石斋小宴","lon":"121.45729","lat":"31.20882","category":"76","category_name":"上海菜","address":"徐汇区永嘉路320号(近襄阳南路)"},{"poiid":"B2094757D468A4FE439C","title":"埃哇餐厅 汾阳路店 AURA","lon":"121.454274","lat":"31.2113792","category":"94","category_name":"西餐厅","address":"徐汇区汾阳路64弄4号(近复兴中路)"},{"poiid":"B2094757D068A6F8449D","title":"邮电医院南部","lon":"121.45559842","lat":"31.211518436","category":"162","category_name":"医院","address":"徐汇区复兴中路1315号(近汾阳路)"},{"poiid":"B2094757D16AA1FA469F","title":"永康里","lon":"121.45614","lat":"31.20967","category":"76","category_name":"上海菜","address":"徐汇区永康路(近襄阳路)"},{"poiid":"B2094757D068AAFA4999","title":"猫咖啡 Cat cafe bliss","lon":"121.45400997","lat":"31.209424931","category":"260","category_name":"其他","address":"徐汇区太原路8弄1号2楼(近汾阳路)"},{"poiid":"B2094757D068A3FC4398","title":"轻科大厦","lon":"121.452919","lat":"31.209844589","category":"46","category_name":"楼宇","address":"西城区金融街A区3号地南部"},{"poiid":"B2094750DB68A0FB4492","title":"上海五官科医院","lon":"121.45819","lat":"31.210149","category":"162","category_name":"医院","address":"徐汇区汾阳路83号"},{"poiid":"B2094750D76EA6FC439C","title":"游者","lon":"121.457","lat":"31.2087","category":"95","category_name":"日本料理","address":"徐汇区永嘉路335号(近襄阳路)"},{"poiid":"B2094757D06EAAFD4392","title":"磨咕咖啡馆 mogoo cafe","lon":"121.454309054","lat":"31.211203793","category":"260","category_name":"其他","address":"徐汇区汾阳路77号(近音乐学院)"},{"poiid":"B209475DDA6DA2FF4098","title":"Ditto","lon":"121.45583153","lat":"31.2090393","category":"247","category_name":"餐饮美食","address":"上海市徐汇区太原路63弄6号"},{"poiid":"B2094750DB64A6F84193","title":"复旦大学眼耳喉鼻科医院","lon":"121.456497","lat":"31.207393","category":"162","category_name":"医院","address":null},{"poiid":"B2094654DA6DA4F44899","title":"上海市红十字眼耳鼻喉科医院","lon":"121.45334","lat":"31.20954","category":"162","category_name":"医院","address":"汾阳路83"},{"poiid":"B2094757D069A6FB4192","title":"The Chalet","lon":"121.45457","lat":"31.20623","category":"500","category_name":"未知分类","address":"上海徐汇区永嘉路385弄(近太原路)  "},{"poiid":"B2094757D06AA3FA489E","title":"小荧星艺校(尚街校区)","lon":"121.457245738","lat":"31.2069285447","category":"500","category_name":"未知分类","address":"上海卢湾区建国西路283号(近嘉善路)"},{"poiid":"B2094654DA6DA6F8459F","title":"太原小区","lon":"121.45556","lat":"31.209095","category":"47","category_name":"住宅区","address":"太原路25弄1-14号,83弄2-4号,63弄1-9号,45弄1-10号"},{"poiid":"B2094757D16DA6F8459F","title":"中国中学","lon":"121.456","lat":"31.20754","category":"55","category_name":"中学","address":"上海徐汇区永嘉路388号(近太原路)  "},{"poiid":"B2094655D265A5FF479B","title":"正蕃小筑","lon":"121.45565","lat":"31.20829","category":"47","category_name":"住宅区","address":"永嘉路396弄1-8号"},{"poiid":"B2094654DA6DA6F8469B","title":"上海中国中学","lon":"121.45536","lat":"31.20827","category":"55","category_name":"中学","address":"徐汇区永嘉路388号(近太原路)"},{"poiid":"B2094757D16EA7FA469D","title":"乔家栅食府","lon":"121.457663373","lat":"31.2089027357","category":"68","category_name":"快餐厅","address":"徐汇区襄阳南路336号(近永嘉路)"},{"poiid":"B2094655D26BA2FA439C","title":"太原路永嘉路","lon":"121.45407","lat":"31.20982","category":"38","category_name":"公交车站","address":""},{"poiid":"B2094757D068A1FE439A","title":"永太小区","lon":"121.45662","lat":"31.209164","category":"47","category_name":"住宅区","address":"上海永嘉路356弄"},{"poiid":"B2094757D464A5F9479A","title":"哈尔滨刘记饺子馆 永康店","lon":"121.454622054","lat":"31.209675793","category":"82","category_name":"东北菜","address":"徐汇区永康路207号(太原路口)"},{"poiid":"B2094757D464A5F9479B","title":"哈尔滨刘记饺子馆 永嘉路店","lon":"121.456988054","lat":"31.208580793","category":"82","category_name":"东北菜","address":"徐汇区永嘉路297号(近嘉善路)"},{"poiid":"B2094654DA6DA6F9499D","title":"皇宫爆烤鸭","lon":"121.457991054","lat":"31.208769793","category":"68","category_name":"快餐厅","address":"徐汇区襄阳南路311号(近永嘉路)"},{"poiid":"B2094757DB6EA6FE4898","title":"上海客堂间精品酒店","lon":"121.455813","lat":"31.207727","category":"213","category_name":"五星级宾馆","address":"上海市徐汇区永嘉路335号(近襄阳南路)"},{"poiid":"B2094655D26BAAFE4293","title":"正蕃小筑(南门)","lon":"121.45565","lat":"31.20793","category":"47","category_name":"住宅区","address":"永嘉路396弄1-8号"},{"poiid":"B2094654DA6DA6F84592","title":"中国中学操场","lon":"121.45523","lat":"31.20794","category":"55","category_name":"中学","address":"永嘉路398"},{"poiid":"B2094654DA6DA6F84593","title":"中国中学实验室","lon":"121.45523","lat":"31.20795","category":"55","category_name":"中学","address":"永嘉路398"},{"poiid":"B2094654DB6BA5FB4298","title":"向阳小学","lon":"121.45718","lat":"31.20754","category":"56","category_name":"小学","address":"徐汇区襄阳南路388弄15号(近永嘉路)"},{"poiid":"B2094655D36DA0F4409C","title":"永嘉路襄阳路","lon":"121.45706","lat":"31.20862","category":"38","category_name":"公交车站","address":""},{"poiid":"B2094757D06FA5FF469B","title":"乐弗涯亚洲餐厅","lon":"121.45746374","lat":"31.208731608","category":"110","category_name":"其他亚洲菜","address":"上海卢湾区永嘉路335号(近襄阳南路)"},{"poiid":"B2094654DA6DA4FB469C","title":"天平街道社区卫生服务中心","lon":"121.45476","lat":"31.20681","category":"162","category_name":"医院","address":"徐汇区太原路110号(近永嘉路)"},{"poiid":"B2094654DA6DA6F84298","title":"上海工艺美术博物馆多功能厅","lon":"121.4546","lat":"31.21037","category":"182","category_name":"博物馆","address":"汾阳路79"},{"poiid":"B2094654DA6DA4F44792","title":"复旦大学附属眼耳鼻喉科医院(汾阳路总院)","lon":"121.45335","lat":"31.20955","category":"191","category_name":"科研机构","address":"上海徐汇区汾阳路83号(太原路口)"},{"poiid":"B2094757D06FA7FF479A","title":"仙炙轩(汾阳路店)","lon":"121.452714142","lat":"31.2095961951","category":"269","category_name":"烧烤","address":"徐汇区汾阳路150号(近桃江路)"},{"poiid":"B2094757D06EAAFC449B","title":"串串香麻辣烫(襄阳路店)","lon":"121.45859","lat":"31.20867","category":"68","category_name":"快餐厅","address":"徐汇区襄阳南路311号(近永嘉路)"},{"poiid":"B2094753D76FAAFA449C","title":"上海滩国泰旗舰店","lon":"121.466011","lat":"31.216125","category":"249","category_name":"购物服务","address":"淮海中路868号"},{"poiid":"B209475CD564A7F84292","title":"上海滩新天地店","lon":"121.47463","lat":"31.22164","category":"119","category_name":"商场","address":"\"太仓路181弄新天地北里15号\r\n\""},{"poiid":"B209475CD564A7F8439E","title":"上海滩中信泰富店","lon":"121.45602","lat":"31.22851","category":"119","category_name":"商场","address":"\"南京西路1168号中信泰富广场，店铺号221.\r\n\""},{"poiid":"B2094757D06BA7F54593","title":"五官科医院特约耳鼻喉科门诊","lon":"121.453332","lat":"31.20965","category":"162","category_name":"医院","address":"上海徐汇区汾阳路83号3楼(太原路口)"},{"poiid":"B2094655D36DA1F44793","title":"襄阳南路永嘉路","lon":"121.45791","lat":"31.20864","category":"38","category_name":"公交车站","address":""},{"poiid":"B2094654DB69A5F9449A","title":"星巴克(汾阳路店)","lon":"121.4530533","lat":"31.2097278","category":"65","category_name":"咖啡厅","address":"徐汇区汾阳路138号1楼03单元(太原路)"},{"poiid":"B2094757D068A1F8429A","title":"熠盛粤味","lon":"121.457178","lat":"31.210503","category":"72","category_name":"广东菜","address":"徐汇区永康路132号(近襄阳南路)"},{"poiid":"B2094654DB6AA7FB479E","title":"罗斯福顶级牛排馆","lon":"121.45432","lat":"31.20603","category":"94","category_name":"西餐厅","address":"徐汇区太原路160号太原别墅瑞金宾馆内(近永嘉路)"},{"poiid":"B2094654DA6DA6F94298","title":"大可堂普洱会所","lon":"121.45772","lat":"31.20758","category":"260","category_name":"其他","address":"徐汇区襄阳南路388弄25号(近永嘉路)"},{"poiid":"B2094757D069A3F54799","title":"El Patio","lon":"121.45368458","lat":"31.210532045","category":"94","category_name":"西餐厅","address":"徐汇区汾阳路110号(近太原路)"},{"poiid":"B2094750D665A0FA409D","title":"水稻咖啡","lon":"121.456","lat":"31.208","category":"260","category_name":"其他","address":"徐汇区永嘉路394号(近太原路)"},{"poiid":"B2094654DA6DA6F8439A","title":"上海市第二中学","lon":"121.45536","lat":"31.21034","category":"55","category_name":"中学","address":"徐汇区永康路200号(近太原路)"},{"poiid":"B2094757D06FA6FC439D","title":"宝莱纳贝可利面包","lon":"121.45267563","lat":"31.209468642","category":"67","category_name":"甜品店","address":"徐汇区汾阳路150号(近桃江路)"},{"poiid":"B2094757D06AA3FB4292","title":"上海工艺美术博物馆","lon":"121.45460284","lat":"31.210373083","category":"182","category_name":"博物馆","address":"徐汇区汾阳路79号(永康路与太原路之间)"},{"poiid":"B2094654DA6DA6F8479B","title":"点石斋小宴","lon":"121.45729","lat":"31.20882","category":"76","category_name":"上海菜","address":"徐汇区永嘉路320号(近襄阳南路)"},{"poiid":"B2094757D468A4FE439C","title":"埃哇餐厅 汾阳路店 AURA","lon":"121.454274","lat":"31.2113792","category":"94","category_name":"西餐厅","address":"徐汇区汾阳路64弄4号(近复兴中路)"},{"poiid":"B2094757D068A6F8449D","title":"邮电医院南部","lon":"121.45559842","lat":"31.211518436","category":"162","category_name":"医院","address":"徐汇区复兴中路1315号(近汾阳路)"},{"poiid":"B2094757D16AA1FA469F","title":"永康里","lon":"121.45614","lat":"31.20967","category":"76","category_name":"上海菜","address":"徐汇区永康路(近襄阳路)"},{"poiid":"B2094757D068AAFA4999","title":"猫咖啡 Cat cafe bliss","lon":"121.45400997","lat":"31.209424931","category":"260","category_name":"其他","address":"徐汇区太原路8弄1号2楼(近汾阳路)"},{"poiid":"B2094757D068A3FC4398","title":"轻科大厦","lon":"121.452919","lat":"31.209844589","category":"46","category_name":"楼宇","address":"西城区金融街A区3号地南部"},{"poiid":"B2094750DB68A0FB4492","title":"上海五官科医院","lon":"121.45819","lat":"31.210149","category":"162","category_name":"医院","address":"徐汇区汾阳路83号"},{"poiid":"B2094750D76EA6FC439C","title":"游者","lon":"121.457","lat":"31.2087","category":"95","category_name":"日本料理","address":"徐汇区永嘉路335号(近襄阳路)"},{"poiid":"B2094757D06EAAFD4392","title":"磨咕咖啡馆 mogoo cafe","lon":"121.454309054","lat":"31.211203793","category":"260","category_name":"其他","address":"徐汇区汾阳路77号(近音乐学院)"},{"poiid":"B209475DDA6DA2FF4098","title":"Ditto","lon":"121.45583153","lat":"31.2090393","category":"247","category_name":"餐饮美食","address":"上海市徐汇区太原路63弄6号"},{"poiid":"B2094750DB64A6F84193","title":"复旦大学眼耳喉鼻科医院","lon":"121.456497","lat":"31.207393","category":"162","category_name":"医院","address":null},{"poiid":"B2094654DA6DA4F44899","title":"上海市红十字眼耳鼻喉科医院","lon":"121.45334","lat":"31.20954","category":"162","category_name":"医院","address":"汾阳路83"},{"poiid":"B2094757D069A6FB4192","title":"The Chalet","lon":"121.45457","lat":"31.20623","category":"500","category_name":"未知分类","address":"上海徐汇区永嘉路385弄(近太原路)  "},{"poiid":"B2094757D06AA3FA489E","title":"小荧星艺校(尚街校区)","lon":"121.457245738","lat":"31.2069285447","category":"500","category_name":"未知分类","address":"上海卢湾区建国西路283号(近嘉善路)"},{"poiid":"B2094654DA6DA6F8459F","title":"太原小区","lon":"121.45556","lat":"31.209095","category":"47","category_name":"住宅区","address":"太原路25弄1-14号,83弄2-4号,63弄1-9号,45弄1-10号"},{"poiid":"B2094757D16DA6F8459F","title":"中国中学","lon":"121.456","lat":"31.20754","category":"55","category_name":"中学","address":"上海徐汇区永嘉路388号(近太原路)  "},{"poiid":"B2094655D265A5FF479B","title":"正蕃小筑","lon":"121.45565","lat":"31.20829","category":"47","category_name":"住宅区","address":"永嘉路396弄1-8号"},{"poiid":"B2094654DA6DA6F8469B","title":"上海中国中学","lon":"121.45536","lat":"31.20827","category":"55","category_name":"中学","address":"徐汇区永嘉路388号(近太原路)"},{"poiid":"B2094757D16EA7FA469D","title":"乔家栅食府","lon":"121.457663373","lat":"31.2089027357","category":"68","category_name":"快餐厅","address":"徐汇区襄阳南路336号(近永嘉路)"},{"poiid":"B2094655D26BA2FA439C","title":"太原路永嘉路","lon":"121.45407","lat":"31.20982","category":"38","category_name":"公交车站","address":""},{"poiid":"B2094757D068A1FE439A","title":"永太小区","lon":"121.45662","lat":"31.209164","category":"47","category_name":"住宅区","address":"上海永嘉路356弄"},{"poiid":"B2094757D464A5F9479A","title":"哈尔滨刘记饺子馆 永康店","lon":"121.454622054","lat":"31.209675793","category":"82","category_name":"东北菜","address":"徐汇区永康路207号(太原路口)"},{"poiid":"B2094757D464A5F9479B","title":"哈尔滨刘记饺子馆 永嘉路店","lon":"121.456988054","lat":"31.208580793","category":"82","category_name":"东北菜","address":"徐汇区永嘉路297号(近嘉善路)"},{"poiid":"B2094654DA6DA6F9499D","title":"皇宫爆烤鸭","lon":"121.457991054","lat":"31.208769793","category":"68","category_name":"快餐厅","address":"徐汇区襄阳南路311号(近永嘉路)"},{"poiid":"B2094757DB6EA6FE4898","title":"上海客堂间精品酒店","lon":"121.455813","lat":"31.207727","category":"213","category_name":"五星级宾馆","address":"上海市徐汇区永嘉路335号(近襄阳南路)"},{"poiid":"B2094655D26BAAFE4293","title":"正蕃小筑(南门)","lon":"121.45565","lat":"31.20793","category":"47","category_name":"住宅区","address":"永嘉路396弄1-8号"},{"poiid":"B2094654DA6DA6F84592","title":"中国中学操场","lon":"121.45523","lat":"31.20794","category":"55","category_name":"中学","address":"永嘉路398"},{"poiid":"B2094654DA6DA6F84593","title":"中国中学实验室","lon":"121.45523","lat":"31.20795","category":"55","category_name":"中学","address":"永嘉路398"},{"poiid":"B2094654DB6BA5FB4298","title":"向阳小学","lon":"121.45718","lat":"31.20754","category":"56","category_name":"小学","address":"徐汇区襄阳南路388弄15号(近永嘉路)"},{"poiid":"B2094655D36DA0F4409C","title":"永嘉路襄阳路","lon":"121.45706","lat":"31.20862","category":"38","category_name":"公交车站","address":""},{"poiid":"B2094757D06FA5FF469B","title":"乐弗涯亚洲餐厅","lon":"121.45746374","lat":"31.208731608","category":"110","category_name":"其他亚洲菜","address":"上海卢湾区永嘉路335号(近襄阳南路)"},{"poiid":"B2094654DA6DA4FB469C","title":"天平街道社区卫生服务中心","lon":"121.45476","lat":"31.20681","category":"162","category_name":"医院","address":"徐汇区太原路110号(近永嘉路)"},{"poiid":"B2094654DA6DA6F84298","title":"上海工艺美术博物馆多功能厅","lon":"121.4546","lat":"31.21037","category":"182","category_name":"博物馆","address":"汾阳路79"},{"poiid":"B2094654DA6DA4F44792","title":"复旦大学附属眼耳鼻喉科医院(汾阳路总院)","lon":"121.45335","lat":"31.20955","category":"191","category_name":"科研机构","address":"上海徐汇区汾阳路83号(太原路口)"},{"poiid":"B2094757D06FA7FF479A","title":"仙炙轩(汾阳路店)","lon":"121.452714142","lat":"31.2095961951","category":"269","category_name":"烧烤","address":"徐汇区汾阳路150号(近桃江路)"},{"poiid":"B2094757D06EAAFC449B","title":"串串香麻辣烫(襄阳路店)","lon":"121.45859","lat":"31.20867","category":"68","category_name":"快餐厅","address":"徐汇区襄阳南路311号(近永嘉路)"},{"poiid":"B2094753D76FAAFA449C","title":"上海滩国泰旗舰店","lon":"121.466011","lat":"31.216125","category":"249","category_name":"购物服务","address":"淮海中路868号"},{"poiid":"B209475CD564A7F84292","title":"上海滩新天地店","lon":"121.47463","lat":"31.22164","category":"119","category_name":"商场","address":"\"太仓路181弄新天地北里15号\r\n\""},{"poiid":"B209475CD564A7F8439E","title":"上海滩中信泰富店","lon":"121.45602","lat":"31.22851","category":"119","category_name":"商场","address":"\"南京西路1168号中信泰富广场，店铺号221.\r\n\""},{"poiid":"B2094757D06BA7F54593","title":"五官科医院特约耳鼻喉科门诊","lon":"121.453332","lat":"31.20965","category":"162","category_name":"医院","address":"上海徐汇区汾阳路83号3楼(太原路口)"},{"poiid":"B2094655D36DA1F44793","title":"襄阳南路永嘉路","lon":"121.45791","lat":"31.20864","category":"38","category_name":"公交车站","address":""},{"poiid":"B2094654DB69A5F9449A","title":"星巴克(汾阳路店)","lon":"121.4530533","lat":"31.2097278","category":"65","category_name":"咖啡厅","address":"徐汇区汾阳路138号1楼03单元(太原路)"},{"poiid":"B2094757D068A1F8429A","title":"熠盛粤味","lon":"121.457178","lat":"31.210503","category":"72","category_name":"广东菜","address":"徐汇区永康路132号(近襄阳南路)"},{"poiid":"B2094654DB6AA7FB479E","title":"罗斯福顶级牛排馆","lon":"121.45432","lat":"31.20603","category":"94","category_name":"西餐厅","address":"徐汇区太原路160号太原别墅瑞金宾馆内(近永嘉路)"},{"poiid":"B2094654DA6DA6F94298","title":"大可堂普洱会所","lon":"121.45772","lat":"31.20758","category":"260","category_name":"其他","address":"徐汇区襄阳南路388弄25号(近永嘉路)"},{"poiid":"B2094757D069A3F54799","title":"El Patio","lon":"121.45368458","lat":"31.210532045","category":"94","category_name":"西餐厅","address":"徐汇区汾阳路110号(近太原路)"},{"poiid":"B2094750D665A0FA409D","title":"水稻咖啡","lon":"121.456","lat":"31.208","category":"260","category_name":"其他","address":"徐汇区永嘉路394号(近太原路)"},{"poiid":"B2094654DA6DA6F8439A","title":"上海市第二中学","lon":"121.45536","lat":"31.21034","category":"55","category_name":"中学","address":"徐汇区永康路200号(近太原路)"},{"poiid":"B2094757D06FA6FC439D","title":"宝莱纳贝可利面包","lon":"121.45267563","lat":"31.209468642","category":"67","category_name":"甜品店","address":"徐汇区汾阳路150号(近桃江路)"},{"poiid":"B2094757D06AA3FB4292","title":"上海工艺美术博物馆","lon":"121.45460284","lat":"31.210373083","category":"182","category_name":"博物馆","address":"徐汇区汾阳路79号(永康路与太原路之间)"},{"poiid":"B2094654DA6DA6F8479B","title":"点石斋小宴","lon":"121.45729","lat":"31.20882","category":"76","category_name":"上海菜","address":"徐汇区永嘉路320号(近襄阳南路)"},{"poiid":"B2094757D468A4FE439C","title":"埃哇餐厅 汾阳路店 AURA","lon":"121.454274","lat":"31.2113792","category":"94","category_name":"西餐厅","address":"徐汇区汾阳路64弄4号(近复兴中路)"},{"poiid":"B2094757D068A6F8449D","title":"邮电医院南部","lon":"121.45559842","lat":"31.211518436","category":"162","category_name":"医院","address":"徐汇区复兴中路1315号(近汾阳路)"},{"poiid":"B2094757D16AA1FA469F","title":"永康里","lon":"121.45614","lat":"31.20967","category":"76","category_name":"上海菜","address":"徐汇区永康路(近襄阳路)"},{"poiid":"B2094757D068AAFA4999","title":"猫咖啡 Cat cafe bliss","lon":"121.45400997","lat":"31.209424931","category":"260","category_name":"其他","address":"徐汇区太原路8弄1号2楼(近汾阳路)"},{"poiid":"B2094757D068A3FC4398","title":"轻科大厦","lon":"121.452919","lat":"31.209844589","category":"46","category_name":"楼宇","address":"西城区金融街A区3号地南部"},{"poiid":"B2094750DB68A0FB4492","title":"上海五官科医院","lon":"121.45819","lat":"31.210149","category":"162","category_name":"医院","address":"徐汇区汾阳路83号"},{"poiid":"B2094750D76EA6FC439C","title":"游者","lon":"121.457","lat":"31.2087","category":"95","category_name":"日本料理","address":"徐汇区永嘉路335号(近襄阳路)"},{"poiid":"B2094757D06EAAFD4392","title":"磨咕咖啡馆 mogoo cafe","lon":"121.454309054","lat":"31.211203793","category":"260","category_name":"其他","address":"徐汇区汾阳路77号(近音乐学院)"},{"poiid":"B209475DDA6DA2FF4098","title":"Ditto","lon":"121.45583153","lat":"31.2090393","category":"247","category_name":"餐饮美食","address":"上海市徐汇区太原路63弄6号"},{"poiid":"B2094750DB64A6F84193","title":"复旦大学眼耳喉鼻科医院","lon":"121.456497","lat":"31.207393","category":"162","category_name":"医院","address":null},{"poiid":"B2094654DA6DA4F44899","title":"上海市红十字眼耳鼻喉科医院","lon":"121.45334","lat":"31.20954","category":"162","category_name":"医院","address":"汾阳路83"},{"poiid":"B2094757D069A6FB4192","title":"The Chalet","lon":"121.45457","lat":"31.20623","category":"500","category_name":"未知分类","address":"上海徐汇区永嘉路385弄(近太原路)  "},{"poiid":"B2094757D06AA3FA489E","title":"小荧星艺校(尚街校区)","lon":"121.457245738","lat":"31.2069285447","category":"500","category_name":"未知分类","address":"上海卢湾区建国西路283号(近嘉善路)"},{"poiid":"B2094654DA6DA6F8459F","title":"太原小区","lon":"121.45556","lat":"31.209095","category":"47","category_name":"住宅区","address":"太原路25弄1-14号,83弄2-4号,63弄1-9号,45弄1-10号"},{"poiid":"B2094757D16DA6F8459F","title":"中国中学","lon":"121.456","lat":"31.20754","category":"55","category_name":"中学","address":"上海徐汇区永嘉路388号(近太原路)  "},{"poiid":"B2094655D265A5FF479B","title":"正蕃小筑","lon":"121.45565","lat":"31.20829","category":"47","category_name":"住宅区","address":"永嘉路396弄1-8号"},{"poiid":"B2094654DA6DA6F8469B","title":"上海中国中学","lon":"121.45536","lat":"31.20827","category":"55","category_name":"中学","address":"徐汇区永嘉路388号(近太原路)"},{"poiid":"B2094757D16EA7FA469D","title":"乔家栅食府","lon":"121.457663373","lat":"31.2089027357","category":"68","category_name":"快餐厅","address":"徐汇区襄阳南路336号(近永嘉路)"},{"poiid":"B2094655D26BA2FA439C","title":"太原路永嘉路","lon":"121.45407","lat":"31.20982","category":"38","category_name":"公交车站","address":""},{"poiid":"B2094757D068A1FE439A","title":"永太小区","lon":"121.45662","lat":"31.209164","category":"47","category_name":"住宅区","address":"上海永嘉路356弄"},{"poiid":"B2094757D464A5F9479A","title":"哈尔滨刘记饺子馆 永康店","lon":"121.454622054","lat":"31.209675793","category":"82","category_name":"东北菜","address":"徐汇区永康路207号(太原路口)"},{"poiid":"B2094757D464A5F9479B","title":"哈尔滨刘记饺子馆 永嘉路店","lon":"121.456988054","lat":"31.208580793","category":"82","category_name":"东北菜","address":"徐汇区永嘉路297号(近嘉善路)"},{"poiid":"B2094654DA6DA6F9499D","title":"皇宫爆烤鸭","lon":"121.457991054","lat":"31.208769793","category":"68","category_name":"快餐厅","address":"徐汇区襄阳南路311号(近永嘉路)"},{"poiid":"B2094757DB6EA6FE4898","title":"上海客堂间精品酒店","lon":"121.455813","lat":"31.207727","category":"213","category_name":"五星级宾馆","address":"上海市徐汇区永嘉路335号(近襄阳南路)"},{"poiid":"B2094655D26BAAFE4293","title":"正蕃小筑(南门)","lon":"121.45565","lat":"31.20793","category":"47","category_name":"住宅区","address":"永嘉路396弄1-8号"},{"poiid":"B2094654DA6DA6F84592","title":"中国中学操场","lon":"121.45523","lat":"31.20794","category":"55","category_name":"中学","address":"永嘉路398"},{"poiid":"B2094654DA6DA6F84593","title":"中国中学实验室","lon":"121.45523","lat":"31.20795","category":"55","category_name":"中学","address":"永嘉路398"},{"poiid":"B2094654DB6BA5FB4298","title":"向阳小学","lon":"121.45718","lat":"31.20754","category":"56","category_name":"小学","address":"徐汇区襄阳南路388弄15号(近永嘉路)"},{"poiid":"B2094655D36DA0F4409C","title":"永嘉路襄阳路","lon":"121.45706","lat":"31.20862","category":"38","category_name":"公交车站","address":""},{"poiid":"B2094757D06FA5FF469B","title":"乐弗涯亚洲餐厅","lon":"121.45746374","lat":"31.208731608","category":"110","category_name":"其他亚洲菜","address":"上海卢湾区永嘉路335号(近襄阳南路)"},{"poiid":"B2094654DA6DA4FB469C","title":"天平街道社区卫生服务中心","lon":"121.45476","lat":"31.20681","category":"162","category_name":"医院","address":"徐汇区太原路110号(近永嘉路)"},{"poiid":"B2094654DA6DA6F84298","title":"上海工艺美术博物馆多功能厅","lon":"121.4546","lat":"31.21037","category":"182","category_name":"博物馆","address":"汾阳路79"}]