[{"poiid":"B2094757D16EA1FB449A","title":"广达生活区","lon":"121.291232","lat":"31.023805","category":"500","category_name":"未知分类","address":"上海松江区南乐路168号"},{"poiid":"B2094654DB6EA5F8439E","title":"松江出口加工区","lon":"121.27671","lat":"31.01018","category":"45","category_name":"产业园区","address":"松江区松卫北路"},{"poiid":"B2094654DB6EA4FE439E","title":"国基电子(上海)有限公司","lon":"121.27592","lat":"31.00873","category":"263","category_name":"公司","address":""},{"poiid":"B2094757D06AA6F44498","title":"阿胖鲁肉饭(松江店)","lon":"121.25749","lat":"31.017","category":"91","category_name":"台湾菜","address":"松江区荣乐东路1825号(近爱丽雅花苑)"},{"poiid":"B2094757D06AAAF54592","title":"丰喜园","lon":"121.29149","lat":"31.02353","category":"91","category_name":"台湾菜","address":"松江区松江南乐路168号"},{"poiid":"B2094654DB6EA4FE409B","title":"达丰电脑","lon":"121.294","lat":"31.01862","category":"263","category_name":"公司","address":""},{"poiid":"B2094654DB6EA4FE439F","title":"富士康科技集团教育训练中心","lon":"121.27508","lat":"31.00833","category":"253","category_name":"校园生活","address":""},{"poiid":"B2094654DB64A0FE449D","title":"上海恩梯恩精密机电有限公司","lon":"121.27457","lat":"31.01361","category":"263","category_name":"公司","address":"南乐路666"},{"poiid":"B2094655D36CA0F5479D","title":"华阳桥","lon":"121.28466","lat":"31.00144","category":"38","category_name":"公交车站","address":""},{"poiid":"B2094654DB69A5FF4292","title":"莫泰168连锁旅店(松卫北路店)","lon":"121.26164","lat":"31.02169","category":"216","category_name":"经济型连锁酒店","address":"松江区松卫北路860-868号(松卫北路荣乐东路)"},{"poiid":"B2094654DB6EA4FE4393","title":"鸿川小吃","lon":"121.2739","lat":"31.00633","category":"68","category_name":"快餐厅","address":""},{"poiid":"B2094757DA69A1F44493","title":"上海宝景星诚松江宝马店","lon":"121.26778578453","lat":"31.002702536255","category":"639","category_name":"汽车交通类公司","address":"北松公路7168号 (近松卫北路)"},{"poiid":"B2094757D165A0FB489C","title":"比亚迪","lon":"121.288011","lat":"30.998819","category":"500","category_name":"未知分类","address":"上海市松江区香泾路999号"},{"poiid":"B2094654DB64A0FE439C","title":"如家快捷酒店(上海松江工业区店)","lon":"121.26161","lat":"31.02251","category":"216","category_name":"经济型连锁酒店","address":"上海市松江区松卫北路679号（松卫汽配城旁）"},{"poiid":"B2094757D66DAAFD4598","title":"荣乐东路东兴路","lon":"121.274723103","lat":"31.0223965408","category":"46","category_name":"楼宇","address":"上海市松江区东宝路"},{"poiid":"B2094757D169A3FE4993","title":"企福天地","lon":"121.262777","lat":"31.019279","category":"46","category_name":"楼宇","address":"上海松江区松卫北路665号"},{"poiid":"B2094757D16AA1FF4898","title":"汉庭快捷酒店(松江店)","lon":"121.262321798","lat":"31.017702782","category":"217","category_name":"旅馆招待所","address":"松江区荣乐东路605号(近西林北路)"},{"poiid":"B2094654DB6EA5F84393","title":"国民淀粉工业(上海)有限公司","lon":"121.27204","lat":"31.01542","category":"263","category_name":"公司","address":""},{"poiid":"B2094654DB6EA6FF4498","title":"华阳桥学校(北区)","lon":"121.28226","lat":"31.00516","category":"55","category_name":"中学","address":"松江区华阳街80号"},{"poiid":"B2094654DB6EA4FF4193","title":"华玲商场","lon":"121.28365","lat":"31.00467","category":"119","category_name":"商场","address":"华阳街67"},{"poiid":"B2094655D268A0FE459D","title":"东禅古寺","lon":"121.26488","lat":"31.0079","category":"244","category_name":"寺庙道观","address":"东门村657"},{"poiid":"B2094654DB6EA4FF409D","title":"香溢农家菜","lon":"121.28256","lat":"31.0042","category":"257","category_name":"中餐厅","address":""},{"poiid":"B2094654DB6EA4FD489F","title":"上海松江出口加工区(南乐路)","lon":"121.28393","lat":"31.02042","category":"263","category_name":"公司","address":"南乐路309弄5号"},{"poiid":"B2094654DB6EA4FC429E","title":"罗伊尔工业园","lon":"121.28504","lat":"31.0178","category":"45","category_name":"产业园区","address":"西泖泾路175"},{"poiid":"B2094654DB6EA4FF4699","title":"松江区车墩镇社区学校","lon":"121.28524","lat":"31.00558","category":"55","category_name":"中学","address":""},{"poiid":"B2094654DB6EA4FF4698","title":"松江区车墩丰华中学","lon":"121.28526","lat":"31.00558","category":"55","category_name":"中学","address":""},{"poiid":"B2094654DB6EA6FB449B","title":"上海金亚地板","lon":"121.26908","lat":"31.00592","category":"123","category_name":"家具建材市场","address":"沪松销售中心41幢23-26号"},{"poiid":"B2094654DB6EA6FF449A","title":"华阳桥学校(南区)","lon":"121.28244","lat":"31.00287","category":"55","category_name":"中学","address":""},{"poiid":"B2094750DB64AAFC4898","title":"上海虹桥高铁站","lon":"121.279502","lat":"31.022146","category":"500","category_name":"未知分类","address":null},{"poiid":"B2094654DB6EA4F84398","title":"箭牌糖类(上海)有限公司","lon":"121.27291","lat":"31.01952","category":"263","category_name":"公司","address":"松胜路188号"},{"poiid":"B2094655D265AAFB4398","title":"兴欣花苑","lon":"121.28201","lat":"31.00306","category":"47","category_name":"住宅区","address":"新场镇朝阳路1弄"},{"poiid":"B2094655D36CA0FA439F","title":"加工园区","lon":"121.26808","lat":"31.01957","category":"38","category_name":"公交车站","address":""},{"poiid":"B2094654DB6EA6FD4799","title":"上海新志快餐有限公司(华长公路)","lon":"121.27733","lat":"31.00095","category":"257","category_name":"中餐厅","address":""},{"poiid":"B2094654DB6EA4FA449C","title":"秋野人家","lon":"121.26508","lat":"31.00576","category":"257","category_name":"中餐厅","address":"华阳镇"},{"poiid":"B2094654DB6EA6FB459A","title":"金朝阳陶瓷(沪松销售中心)","lon":"121.26756","lat":"31.00598","category":"123","category_name":"家具建材市场","address":""},{"poiid":"B2094654DB6EA4F4419E","title":"茸联苑","lon":"121.25815","lat":"31.006504","category":"47","category_name":"住宅区","address":"环城路204弄65支弄"},{"poiid":"B2094757D168AAF44192","title":"南乐路","lon":"121.27880076","lat":"31.023081422","category":"500","category_name":"未知分类","address":"上海南乐路1276弄200"},{"poiid":"B2094655D268A5F5469E","title":"华阳中心苑二期(东门)","lon":"121.26508","lat":"31.00566","category":"47","category_name":"住宅区","address":""},{"poiid":"B2094757D168A5F84993","title":"蓝天东区","lon":"121.259547","lat":"31.015865","category":"252","category_name":"楼宇机构","address":"上海松江区荣乐东路蓝天东区"},{"poiid":"B2094654DB6EA4FF479A","title":"上海市地方税务局松江区分局第五税务所","lon":"121.28488","lat":"31.00284","category":"250","category_name":"公园户外","address":""},{"poiid":"B2094655D269A4F94292","title":"上海松江九华汽车","lon":"121.26228","lat":"31.01708","category":"158","category_name":"汽车销售","address":"上海市松江区松卫北路1189号（靠近荣乐东路）"},{"poiid":"B2094757D06BA3F9459F","title":"松江出口加工区2号门","lon":"121.2671641","lat":"31.01874846","category":"500","category_name":"未知分类","address":"上海松江出口加工区南乐路"},{"poiid":"B2094654DB6EA4F8419E","title":"上海高士线业有限公司","lon":"121.27021","lat":"31.0189","category":"263","category_name":"公司","address":"宝胜路9号"},{"poiid":"B2094757D168A1F4479B","title":"千岛湖山水人家农家菜","lon":"121.261438103","lat":"31.0197784829","category":"75","category_name":"浙江菜","address":"松江区松卫北路806号1-2楼"},{"poiid":"B2094655D268A0FE4592","title":"东禅古寺(南门)","lon":"121.26492","lat":"31.00776","category":"679","category_name":"楼宇机构","address":"东门村657"},{"poiid":"B2094654DB6EA4F8419F","title":"泰格包装(上海)有限公司","lon":"121.27024","lat":"31.0195","category":"263","category_name":"公司","address":"宝胜路10号"},{"poiid":"B2094757D66CA0FF479E","title":"金月海大饭店","lon":"121.261783103","lat":"31.0207705048","category":"72","category_name":"广东菜","address":"松江区松卫北路789号(近荣乐东路)"},{"poiid":"B2094654DB6EA6FE469F","title":"华阳桥邮政所","lon":"121.28501","lat":"31.00489","category":"248","category_name":"生活娱乐","address":"松江区华阳街4号"},{"poiid":"B2094654DB6EA4F84198","title":"依视路","lon":"121.26979","lat":"31.02005","category":"263","category_name":"公司","address":"荣乐东路557"},{"poiid":"B2094654DB6EA6FF469F","title":"福建沙县小吃(华阳中心苑东)","lon":"121.26868","lat":"31.00078","category":"68","category_name":"快餐厅","address":""},{"poiid":"B2094757D16EA1FB449A","title":"广达生活区","lon":"121.291232","lat":"31.023805","category":"500","category_name":"未知分类","address":"上海松江区南乐路168号"},{"poiid":"B2094654DB6EA5F8439E","title":"松江出口加工区","lon":"121.27671","lat":"31.01018","category":"45","category_name":"产业园区","address":"松江区松卫北路"},{"poiid":"B2094654DB6EA4FE439E","title":"国基电子(上海)有限公司","lon":"121.27592","lat":"31.00873","category":"263","category_name":"公司","address":""},{"poiid":"B2094757D06AA6F44498","title":"阿胖鲁肉饭(松江店)","lon":"121.25749","lat":"31.017","category":"91","category_name":"台湾菜","address":"松江区荣乐东路1825号(近爱丽雅花苑)"},{"poiid":"B2094757D06AAAF54592","title":"丰喜园","lon":"121.29149","lat":"31.02353","category":"91","category_name":"台湾菜","address":"松江区松江南乐路168号"},{"poiid":"B2094654DB6EA4FE409B","title":"达丰电脑","lon":"121.294","lat":"31.01862","category":"263","category_name":"公司","address":""},{"poiid":"B2094654DB6EA4FE439F","title":"富士康科技集团教育训练中心","lon":"121.27508","lat":"31.00833","category":"253","category_name":"校园生活","address":""},{"poiid":"B2094654DB64A0FE449D","title":"上海恩梯恩精密机电有限公司","lon":"121.27457","lat":"31.01361","category":"263","category_name":"公司","address":"南乐路666"},{"poiid":"B2094655D36CA0F5479D","title":"华阳桥","lon":"121.28466","lat":"31.00144","category":"38","category_name":"公交车站","address":""},{"poiid":"B2094654DB69A5FF4292","title":"莫泰168连锁旅店(松卫北路店)","lon":"121.26164","lat":"31.02169","category":"216","category_name":"经济型连锁酒店","address":"松江区松卫北路860-868号(松卫北路荣乐东路)"},{"poiid":"B2094654DB6EA4FE4393","title":"鸿川小吃","lon":"121.2739","lat":"31.00633","category":"68","category_name":"快餐厅","address":""},{"poiid":"B2094757DA69A1F44493","title":"上海宝景星诚松江宝马店","lon":"121.26778578453","lat":"31.002702536255","category":"639","category_name":"汽车交通类公司","address":"北松公路7168号 (近松卫北路)"},{"poiid":"B2094757D165A0FB489C","title":"比亚迪","lon":"121.288011","lat":"30.998819","category":"500","category_name":"未知分类","address":"上海市松江区香泾路999号"},{"poiid":"B2094654DB64A0FE439C","title":"如家快捷酒店(上海松江工业区店)","lon":"121.26161","lat":"31.02251","category":"216","category_name":"经济型连锁酒店","address":"上海市松江区松卫北路679号（松卫汽配城旁）"},{"poiid":"B2094757D66DAAFD4598","title":"荣乐东路东兴路","lon":"121.274723103","lat":"31.0223965408","category":"46","category_name":"楼宇","address":"上海市松江区东宝路"},{"poiid":"B2094757D169A3FE4993","title":"企福天地","lon":"121.262777","lat":"31.019279","category":"46","category_name":"楼宇","address":"上海松江区松卫北路665号"},{"poiid":"B2094757D16AA1FF4898","title":"汉庭快捷酒店(松江店)","lon":"121.262321798","lat":"31.017702782","category":"217","category_name":"旅馆招待所","address":"松江区荣乐东路605号(近西林北路)"},{"poiid":"B2094654DB6EA5F84393","title":"国民淀粉工业(上海)有限公司","lon":"121.27204","lat":"31.01542","category":"263","category_name":"公司","address":""},{"poiid":"B2094654DB6EA6FF4498","title":"华阳桥学校(北区)","lon":"121.28226","lat":"31.00516","category":"55","category_name":"中学","address":"松江区华阳街80号"},{"poiid":"B2094654DB6EA4FF4193","title":"华玲商场","lon":"121.28365","lat":"31.00467","category":"119","category_name":"商场","address":"华阳街67"},{"poiid":"B2094655D268A0FE459D","title":"东禅古寺","lon":"121.26488","lat":"31.0079","category":"244","category_name":"寺庙道观","address":"东门村657"},{"poiid":"B2094654DB6EA4FF409D","title":"香溢农家菜","lon":"121.28256","lat":"31.0042","category":"257","category_name":"中餐厅","address":""},{"poiid":"B2094654DB6EA4FD489F","title":"上海松江出口加工区(南乐路)","lon":"121.28393","lat":"31.02042","category":"263","category_name":"公司","address":"南乐路309弄5号"},{"poiid":"B2094654DB6EA4FC429E","title":"罗伊尔工业园","lon":"121.28504","lat":"31.0178","category":"45","category_name":"产业园区","address":"西泖泾路175"},{"poiid":"B2094654DB6EA4FF4699","title":"松江区车墩镇社区学校","lon":"121.28524","lat":"31.00558","category":"55","category_name":"中学","address":""},{"poiid":"B2094654DB6EA4FF4698","title":"松江区车墩丰华中学","lon":"121.28526","lat":"31.00558","category":"55","category_name":"中学","address":""},{"poiid":"B2094654DB6EA6FB449B","title":"上海金亚地板","lon":"121.26908","lat":"31.00592","category":"123","category_name":"家具建材市场","address":"沪松销售中心41幢23-26号"},{"poiid":"B2094654DB6EA6FF449A","title":"华阳桥学校(南区)","lon":"121.28244","lat":"31.00287","category":"55","category_name":"中学","address":""},{"poiid":"B2094750DB64AAFC4898","title":"上海虹桥高铁站","lon":"121.279502","lat":"31.022146","category":"500","category_name":"未知分类","address":null},{"poiid":"B2094654DB6EA4F84398","title":"箭牌糖类(上海)有限公司","lon":"121.27291","lat":"31.01952","category":"263","category_name":"公司","address":"松胜路188号"},{"poiid":"B2094655D265AAFB4398","title":"兴欣花苑","lon":"121.28201","lat":"31.00306","category":"47","category_name":"住宅区","address":"新场镇朝阳路1弄"},{"poiid":"B2094655D36CA0FA439F","title":"加工园区","lon":"121.26808","lat":"31.01957","category":"38","category_name":"公交车站","address":""},{"poiid":"B2094654DB6EA6FD4799","title":"上海新志快餐有限公司(华长公路)","lon":"121.27733","lat":"31.00095","category":"257","category_name":"中餐厅","address":""},{"poiid":"B2094654DB6EA4FA449C","title":"秋野人家","lon":"121.26508","lat":"31.00576","category":"257","category_name":"中餐厅","address":"华阳镇"},{"poiid":"B2094654DB6EA6FB459A","title":"金朝阳陶瓷(沪松销售中心)","lon":"121.26756","lat":"31.00598","category":"123","category_name":"家具建材市场","address":""},{"poiid":"B2094654DB6EA4F4419E","title":"茸联苑","lon":"121.25815","lat":"31.006504","category":"47","category_name":"住宅区","address":"环城路204弄65支弄"},{"poiid":"B2094757D168AAF44192","title":"南乐路","lon":"121.27880076","lat":"31.023081422","category":"500","category_name":"未知分类","address":"上海南乐路1276弄200"},{"poiid":"B2094655D268A5F5469E","title":"华阳中心苑二期(东门)","lon":"121.26508","lat":"31.00566","category":"47","category_name":"住宅区","address":""},{"poiid":"B2094757D168A5F84993","title":"蓝天东区","lon":"121.259547","lat":"31.015865","category":"252","category_name":"楼宇机构","address":"上海松江区荣乐东路蓝天东区"},{"poiid":"B2094654DB6EA4FF479A","title":"上海市地方税务局松江区分局第五税务所","lon":"121.28488","lat":"31.00284","category":"250","category_name":"公园户外","address":""},{"poiid":"B2094655D269A4F94292","title":"上海松江九华汽车","lon":"121.26228","lat":"31.01708","category":"158","category_name":"汽车销售","address":"上海市松江区松卫北路1189号（靠近荣乐东路）"},{"poiid":"B2094757D06BA3F9459F","title":"松江出口加工区2号门","lon":"121.2671641","lat":"31.01874846","category":"500","category_name":"未知分类","address":"上海松江出口加工区南乐路"},{"poiid":"B2094654DB6EA4F8419E","title":"上海高士线业有限公司","lon":"121.27021","lat":"31.0189","category":"263","category_name":"公司","address":"宝胜路9号"},{"poiid":"B2094757D168A1F4479B","title":"千岛湖山水人家农家菜","lon":"121.261438103","lat":"31.0197784829","category":"75","category_name":"浙江菜","address":"松江区松卫北路806号1-2楼"},{"poiid":"B2094655D268A0FE4592","title":"东禅古寺(南门)","lon":"121.26492","lat":"31.00776","category":"679","category_name":"楼宇机构","address":"东门村657"},{"poiid":"B2094654DB6EA4F8419F","title":"泰格包装(上海)有限公司","lon":"121.27024","lat":"31.0195","category":"263","category_name":"公司","address":"宝胜路10号"},{"poiid":"B2094757D66CA0FF479E","title":"金月海大饭店","lon":"121.261783103","lat":"31.0207705048","category":"72","category_name":"广东菜","address":"松江区松卫北路789号(近荣乐东路)"},{"poiid":"B2094654DB6EA6FE469F","title":"华阳桥邮政所","lon":"121.28501","lat":"31.00489","category":"248","category_name":"生活娱乐","address":"松江区华阳街4号"},{"poiid":"B2094654DB6EA4F84198","title":"依视路","lon":"121.26979","lat":"31.02005","category":"263","category_name":"公司","address":"荣乐东路557"},{"poiid":"B2094654DB6EA6FF469F","title":"福建沙县小吃(华阳中心苑东)","lon":"121.26868","lat":"31.00078","category":"68","category_name":"快餐厅","address":""},{"poiid":"B2094757D16EA1FB449A","title":"广达生活区","lon":"121.291232","lat":"31.023805","category":"500","category_name":"未知分类","address":"上海松江区南乐路168号"},{"poiid":"B2094654DB6EA5F8439E","title":"松江出口加工区","lon":"121.27671","lat":"31.01018","category":"45","category_name":"产业园区","address":"松江区松卫北路"},{"poiid":"B2094654DB6EA4FE439E","title":"国基电子(上海)有限公司","lon":"121.27592","lat":"31.00873","category":"263","category_name":"公司","address":""},{"poiid":"B2094757D06AA6F44498","title":"阿胖鲁肉饭(松江店)","lon":"121.25749","lat":"31.017","category":"91","category_name":"台湾菜","address":"松江区荣乐东路1825号(近爱丽雅花苑)"},{"poiid":"B2094757D06AAAF54592","title":"丰喜园","lon":"121.29149","lat":"31.02353","category":"91","category_name":"台湾菜","address":"松江区松江南乐路168号"},{"poiid":"B2094654DB6EA4FE409B","title":"达丰电脑","lon":"121.294","lat":"31.01862","category":"263","category_name":"公司","address":""},{"poiid":"B2094654DB6EA4FE439F","title":"富士康科技集团教育训练中心","lon":"121.27508","lat":"31.00833","category":"253","category_name":"校园生活","address":""},{"poiid":"B2094654DB64A0FE449D","title":"上海恩梯恩精密机电有限公司","lon":"121.27457","lat":"31.01361","category":"263","category_name":"公司","address":"南乐路666"},{"poiid":"B2094655D36CA0F5479D","title":"华阳桥","lon":"121.28466","lat":"31.00144","category":"38","category_name":"公交车站","address":""},{"poiid":"B2094654DB69A5FF4292","title":"莫泰168连锁旅店(松卫北路店)","lon":"121.26164","lat":"31.02169","category":"216","category_name":"经济型连锁酒店","address":"松江区松卫北路860-868号(松卫北路荣乐东路)"},{"poiid":"B2094654DB6EA4FE4393","title":"鸿川小吃","lon":"121.2739","lat":"31.00633","category":"68","category_name":"快餐厅","address":""},{"poiid":"B2094757DA69A1F44493","title":"上海宝景星诚松江宝马店","lon":"121.26778578453","lat":"31.002702536255","category":"639","category_name":"汽车交通类公司","address":"北松公路7168号 (近松卫北路)"},{"poiid":"B2094757D165A0FB489C","title":"比亚迪","lon":"121.288011","lat":"30.998819","category":"500","category_name":"未知分类","address":"上海市松江区香泾路999号"},{"poiid":"B2094654DB64A0FE439C","title":"如家快捷酒店(上海松江工业区店)","lon":"121.26161","lat":"31.02251","category":"216","category_name":"经济型连锁酒店","address":"上海市松江区松卫北路679号（松卫汽配城旁）"},{"poiid":"B2094757D66DAAFD4598","title":"荣乐东路东兴路","lon":"121.274723103","lat":"31.0223965408","category":"46","category_name":"楼宇","address":"上海市松江区东宝路"},{"poiid":"B2094757D169A3FE4993","title":"企福天地","lon":"121.262777","lat":"31.019279","category":"46","category_name":"楼宇","address":"上海松江区松卫北路665号"},{"poiid":"B2094757D16AA1FF4898","title":"汉庭快捷酒店(松江店)","lon":"121.262321798","lat":"31.017702782","category":"217","category_name":"旅馆招待所","address":"松江区荣乐东路605号(近西林北路)"},{"poiid":"B2094654DB6EA5F84393","title":"国民淀粉工业(上海)有限公司","lon":"121.27204","lat":"31.01542","category":"263","category_name":"公司","address":""},{"poiid":"B2094654DB6EA6FF4498","title":"华阳桥学校(北区)","lon":"121.28226","lat":"31.00516","category":"55","category_name":"中学","address":"松江区华阳街80号"},{"poiid":"B2094654DB6EA4FF4193","title":"华玲商场","lon":"121.28365","lat":"31.00467","category":"119","category_name":"商场","address":"华阳街67"},{"poiid":"B2094655D268A0FE459D","title":"东禅古寺","lon":"121.26488","lat":"31.0079","category":"244","category_name":"寺庙道观","address":"东门村657"},{"poiid":"B2094654DB6EA4FF409D","title":"香溢农家菜","lon":"121.28256","lat":"31.0042","category":"257","category_name":"中餐厅","address":""},{"poiid":"B2094654DB6EA4FD489F","title":"上海松江出口加工区(南乐路)","lon":"121.28393","lat":"31.02042","category":"263","category_name":"公司","address":"南乐路309弄5号"},{"poiid":"B2094654DB6EA4FC429E","title":"罗伊尔工业园","lon":"121.28504","lat":"31.0178","category":"45","category_name":"产业园区","address":"西泖泾路175"},{"poiid":"B2094654DB6EA4FF4699","title":"松江区车墩镇社区学校","lon":"121.28524","lat":"31.00558","category":"55","category_name":"中学","address":""},{"poiid":"B2094654DB6EA4FF4698","title":"松江区车墩丰华中学","lon":"121.28526","lat":"31.00558","category":"55","category_name":"中学","address":""},{"poiid":"B2094654DB6EA6FB449B","title":"上海金亚地板","lon":"121.26908","lat":"31.00592","category":"123","category_name":"家具建材市场","address":"沪松销售中心41幢23-26号"},{"poiid":"B2094654DB6EA6FF449A","title":"华阳桥学校(南区)","lon":"121.28244","lat":"31.00287","category":"55","category_name":"中学","address":""},{"poiid":"B2094750DB64AAFC4898","title":"上海虹桥高铁站","lon":"121.279502","lat":"31.022146","category":"500","category_name":"未知分类","address":null},{"poiid":"B2094654DB6EA4F84398","title":"箭牌糖类(上海)有限公司","lon":"121.27291","lat":"31.01952","category":"263","category_name":"公司","address":"松胜路188号"},{"poiid":"B2094655D265AAFB4398","title":"兴欣花苑","lon":"121.28201","lat":"31.00306","category":"47","category_name":"住宅区","address":"新场镇朝阳路1弄"},{"poiid":"B2094655D36CA0FA439F","title":"加工园区","lon":"121.26808","lat":"31.01957","category":"38","category_name":"公交车站","address":""},{"poiid":"B2094654DB6EA6FD4799","title":"上海新志快餐有限公司(华长公路)","lon":"121.27733","lat":"31.00095","category":"257","category_name":"中餐厅","address":""},{"poiid":"B2094654DB6EA4FA449C","title":"秋野人家","lon":"121.26508","lat":"31.00576","category":"257","category_name":"中餐厅","address":"华阳镇"},{"poiid":"B2094654DB6EA6FB459A","title":"金朝阳陶瓷(沪松销售中心)","lon":"121.26756","lat":"31.00598","category":"123","category_name":"家具建材市场","address":""},{"poiid":"B2094654DB6EA4F4419E","title":"茸联苑","lon":"121.25815","lat":"31.006504","category":"47","category_name":"住宅区","address":"环城路204弄65支弄"},{"poiid":"B2094757D168AAF44192","title":"南乐路","lon":"121.27880076","lat":"31.023081422","category":"500","category_name":"未知分类","address":"上海南乐路1276弄200"},{"poiid":"B2094655D268A5F5469E","title":"华阳中心苑二期(东门)","lon":"121.26508","lat":"31.00566","category":"47","category_name":"住宅区","address":""},{"poiid":"B2094757D168A5F84993","title":"蓝天东区","lon":"121.259547","lat":"31.015865","category":"252","category_name":"楼宇机构","address":"上海松江区荣乐东路蓝天东区"},{"poiid":"B2094654DB6EA4FF479A","title":"上海市地方税务局松江区分局第五税务所","lon":"121.28488","lat":"31.00284","category":"250","category_name":"公园户外","address":""},{"poiid":"B2094655D269A4F94292","title":"上海松江九华汽车","lon":"121.26228","lat":"31.01708","category":"158","category_name":"汽车销售","address":"上海市松江区松卫北路1189号（靠近荣乐东路）"},{"poiid":"B2094757D06BA3F9459F","title":"松江出口加工区2号门","lon":"121.2671641","lat":"31.01874846","category":"500","category_name":"未知分类","address":"上海松江出口加工区南乐路"},{"poiid":"B2094654DB6EA4F8419E","title":"上海高士线业有限公司","lon":"121.27021","lat":"31.0189","category":"263","category_name":"公司","address":"宝胜路9号"},{"poiid":"B2094757D168A1F4479B","title":"千岛湖山水人家农家菜","lon":"121.261438103","lat":"31.0197784829","category":"75","category_name":"浙江菜","address":"松江区松卫北路806号1-2楼"},{"poiid":"B2094655D268A0FE4592","title":"东禅古寺(南门)","lon":"121.26492","lat":"31.00776","category":"679","category_name":"楼宇机构","address":"东门村657"},{"poiid":"B2094654DB6EA4F8419F","title":"泰格包装(上海)有限公司","lon":"121.27024","lat":"31.0195","category":"263","category_name":"公司","address":"宝胜路10号"},{"poiid":"B2094757D66CA0FF479E","title":"金月海大饭店","lon":"121.261783103","lat":"31.0207705048","category":"72","category_name":"广东菜","address":"松江区松卫北路789号(近荣乐东路)"},{"poiid":"B2094654DB6EA6FE469F","title":"华阳桥邮政所","lon":"121.28501","lat":"31.00489","category":"248","category_name":"生活娱乐","address":"松江区华阳街4号"},{"poiid":"B2094654DB6EA4F84198","title":"依视路","lon":"121.26979","lat":"31.02005","category":"263","category_name":"公司","address":"荣乐东路557"},{"poiid":"B2094654DB6EA6FF469F","title":"福建沙县小吃(华阳中心苑东)","lon":"121.26868","lat":"31.00078","category":"68","category_name":"快餐厅","address":""}]