[{"poiid":"B2094654DB64A6FD4593","title":"大光明电影院","lon":"121.47128","lat":"31.23298","category":"178","category_name":"电影院","address":"黄浦区南京西路216号(黄河路南京西路)"},{"poiid":"B2094654DA68A3FD419B","title":"佳家汤包 黄河店","lon":"121.47105017344","lat":"31.233958297842","category":"68","category_name":"快餐厅","address":"黄浦区黄河路90号(近凤阳路)"},{"poiid":"B2094757DA6EABFF499A","title":"爆爆椒香辣虾干锅三绝(人民广场店)","lon":"121.470959999998","lat":"31.2325700000003","category":"71","category_name":"四川菜","address":"黄浦区南京西路258号世茂商都5楼(近黄河路)"},{"poiid":"B2094753D76FAAFA449C","title":"上海滩国泰旗舰店","lon":"121.466011","lat":"31.216125","category":"249","category_name":"购物服务","address":"淮海中路868号"},{"poiid":"B209475CD564A7F84292","title":"上海滩新天地店","lon":"121.47463","lat":"31.22164","category":"119","category_name":"商场","address":"\"太仓路181弄新天地北里15号\r\n\""},{"poiid":"B209475CD564A7F8439E","title":"上海滩中信泰富店","lon":"121.45602","lat":"31.22851","category":"119","category_name":"商场","address":"\"南京西路1168号中信泰富广场，店铺号221.\r\n\""},{"poiid":"B209475CD564A7F84392","title":"上海滩浦东香格里拉店","lon":"121.50058","lat":"31.23634","category":"119","category_name":"商场","address":"浦东富成路33号香格里拉酒店内大堂层"},{"poiid":"B2094757D06EAAFD4292","title":"老克勒上海菜 南京西路店","lon":"121.47031","lat":"31.23222","category":"76","category_name":"上海菜","address":"黄浦区南京西路288号创兴金融中心2楼(近新昌路)"},{"poiid":"B2094757D06FA3F5439B","title":"香港仔码头茶餐厅(凤阳店)","lon":"121.47068","lat":"31.23366","category":"72","category_name":"广东菜","address":"黄浦区凤阳路280号(近黄河路)"},{"poiid":"B2094757D06FA3F94293","title":"悦来酒家","lon":"121.47086","lat":"31.23386","category":"76","category_name":"上海菜","address":"黄浦区黄河路81号(近凤阳路)"},{"poiid":"B2094654DA6FAAF54499","title":"苔圣园(黄浦店)","lon":"121.47105","lat":"31.23409","category":"76","category_name":"上海菜","address":"黄浦区黄河路50号(近凤阳路)"},{"poiid":"B2094757D06FA1F4489F","title":"黄河路美食街","lon":"121.47142","lat":"31.23348","category":"68","category_name":"快餐厅","address":"黄浦区黄河路(近新闸路)"},{"poiid":"B2094757D06FA5FF4098","title":"金八仙","lon":"121.47112","lat":"31.23428","category":"76","category_name":"上海菜","address":"上海黄浦区黄河路96-98号(近凤阳路)"},{"poiid":"B2094757D06FA7F9469B","title":"粤味馆(黃河路店)","lon":"121.47027","lat":"31.23506","category":"72","category_name":"广东菜","address":"黄浦区黄河路147号(近北京西路)"},{"poiid":"B2094757D06FA1F9479C","title":"国际饭店西饼屋(黄河路店)","lon":"121.471436532","lat":"31.233682045","category":"112","category_name":"糕饼店","address":"黄浦区黄河路28号国际饭店内"},{"poiid":"B2094757D06FA3FE469D","title":"旺旺大厦","lon":"121.469","lat":"31.234","category":"46","category_name":"楼宇","address":"丰台学城海鹰路1号,3号"},{"poiid":"B2094654DA68A3FD409C","title":"乾隆美食","lon":"121.4711458394","lat":"31.234298079704","category":"76","category_name":"上海菜","address":"黄浦区黄河路72-76号(凤阳路口)"},{"poiid":"B2094757D06FA6FF4598","title":"晶采世纪大厦","lon":"121.468","lat":"31.2329","category":"46","category_name":"楼宇","address":"珠江新城华穗路与华利路交汇处"},{"poiid":"B2094654DA68A3FD4398","title":"香港仔码头靓汤馆","lon":"121.4703","lat":"31.23564","category":"72","category_name":"广东菜","address":"黄浦区黄河路158号(近北京西路)"},{"poiid":"B2094750D568A3FE4098","title":"星巴克(西藏中路二店)","lon":"121.47","lat":"31.2353","category":"260","category_name":"其他","address":"黄浦区西藏中路289号(近九江路)"},{"poiid":"B2094757DB68A5FF449C","title":"上海 来福士","lon":"121.4678278181757","lat":"31.23394058782101","category":"247","category_name":"餐饮美食","address":"人民广场"},{"poiid":"B2094757DB6EA5FB4499","title":"上海歌城","lon":"121.4693981230476","lat":"31.23629277055158","category":"170","category_name":"KTV","address":"人民广场"},{"poiid":"B2094757D569A2FA4792","title":"雅科空中花园酒吧","lon":"121.4712956","lat":"31.23302417","category":"172","category_name":"酒吧","address":"南京西路216号大光明影院3层"},{"poiid":"B2094757D06FA1FB439D","title":"85度C(南京西店)","lon":"121.471330475","lat":"31.2330760642","category":"112","category_name":"糕饼店","address":"黄浦区南京西路226号(近黄河路)"},{"poiid":"B2094757D06AA5F54592","title":"世贸商都","lon":"121.470635","lat":"31.232439","category":"119","category_name":"商场","address":"上海南京西路258号"},{"poiid":"B2094757DB6DA3F4449D","title":"三人行","lon":"121.469367","lat":"31.233615","category":"247","category_name":"餐饮美食","address":"世贸百联店"},{"poiid":"B2094757D664A6F9459E","title":"沪上一家辣肉面馆 黄河路店","lon":"121.470459054","lat":"31.235120793","category":"68","category_name":"快餐厅","address":"黄浦区黄河路142号(近牯岭路)"},{"poiid":"B2094654DB64A7F9419C","title":"大富豪 黄浦店","lon":"121.46970399676","lat":"31.235602779757","category":"76","category_name":"上海菜","address":"虹口区山西北路388号(近河南北路)"},{"poiid":"B2094654DA68A3FD4593","title":"半岛酒楼(黄河路)","lon":"121.47071","lat":"31.23435","category":"76","category_name":"上海菜","address":"黄浦区黄河路95号(近凤阳路)"},{"poiid":"B2094757D065A7F44593","title":"日月光中心 OLIVE DES OLIVE","lon":"121.46757623","lat":"31.232956358","category":"500","category_name":"未知分类","address":"上海打浦桥"},{"poiid":"B2094750D664ABFD409A","title":"功德林素食餐厅","lon":"121.471","lat":"31.2335","category":"89","category_name":"中式素餐馆","address":"黄浦区黄河路21号鸿祥大厦1楼"},{"poiid":"B2094752DA65A2FD439E","title":"上海明天广场JW万豪酒店","lon":"121.46729","lat":"31.233113","category":"500","category_name":"未知分类","address":"上海市 南京西路399号"},{"poiid":"B2094654DA68A3FC469C","title":"智富广场","lon":"121.46977","lat":"31.23286","category":"46","category_name":"楼宇","address":"上海新昌路80号"},{"poiid":"B2094757D069A6F94492","title":"月星苏州羊肉面馆","lon":"121.46972985789","lat":"31.236689665784","category":"68","category_name":"快餐厅","address":"黄浦区黄河路207号(近北京西路)"},{"poiid":"B2094654DA68A3FC4893","title":"盛鑫面馆","lon":"121.470061054","lat":"31.233492793","category":"68","category_name":"快餐厅","address":"黄浦区凤阳路311号(近黄河路)"},{"poiid":"B2094655D265A0F8459D","title":"老克勒","lon":"121.471","lat":"31.23423","category":"86","category_name":"火锅店","address":"黄河路82"},{"poiid":"B2094757DB6DA3FD4792","title":"迪美·芋贵人","lon":"121.469672","lat":"31.232782","category":"247","category_name":"餐饮美食","address":"人民广场·地下迪美"},{"poiid":"B2094750DA6CABF54899","title":"地铁一号线","lon":"121.470108","lat":"31.233215","category":"500","category_name":"未知分类","address":null},{"poiid":"B2094757D069ABFD409C","title":"人民广场上海歌城","lon":"121.470956","lat":"31.232594","category":"500","category_name":"未知分类","address":"上海人民广场"},{"poiid":"B2094757D069A2F4419E","title":"嘉厨小馆 新昌路店","lon":"121.469033","lat":"31.233784","category":"257","category_name":"中餐厅","address":"黄浦区新昌路77号(凤阳路新昌路)"},{"poiid":"B2094757D06FA3FC4693","title":"杯子布丁(来福士店)","lon":"121.47049944","lat":"31.232727132","category":"67","category_name":"甜品店","address":"黄浦区西藏中路268号来福士广场B1楼(近福州路)"},{"poiid":"B2094757D069AAFC439D","title":"蜀千鸡公煲","lon":"121.47117","lat":"31.23415","category":"71","category_name":"四川菜","address":"黄浦区黄河路84号(近凤阳路)"},{"poiid":"B2094757D068A1FE409A","title":"超级鸡车 黄河路店 Super Gcar","lon":"121.470598","lat":"31.234792","category":"68","category_name":"快餐厅","address":"黄浦区黄河路108号(近北京西路)"},{"poiid":"B2094757DB6EA5FE459B","title":"好乐迪","lon":"121.469367","lat":"31.233615","category":"248","category_name":"生活娱乐","address":"南京路"},{"poiid":"B2094757D464A0F44192","title":"清梅居","lon":"121.46937633246","lat":"31.233360397111","category":"86","category_name":"火锅店","address":"黄浦区凤阳路313号(近新昌路)"},{"poiid":"B2094757D069A3F4439E","title":"永顺和苏州汤包馆(黄河路店)","lon":"121.470466","lat":"31.234799","category":"68","category_name":"快餐厅","address":"黄浦区黄河路111号(定兴路黄河路)"},{"poiid":"B2094757D16EA3F5499E","title":"包旺锅贴黄河路店","lon":"121.46999043","lat":"31.235496912","category":"68","category_name":"快餐厅","address":"黄浦区黄河路120号(近北京西路)"},{"poiid":"B2094757D069A6F9479A","title":"兴泰小吃","lon":"121.470393","lat":"31.235161","category":"76","category_name":"上海菜","address":"黄浦区黄河路137号(定兴路黄河路)"},{"poiid":"B2094654DA68A3FD4698","title":"黄腾酒家","lon":"121.47060436151","lat":"31.234015382097","category":"76","category_name":"上海菜","address":"黄浦区黄河路69-73号(近凤阳路)"},{"poiid":"B2094757D06FA4FC4298","title":"华盛大公馆","lon":"121.46709","lat":"31.234617","category":"47","category_name":"住宅区","address":"上海黄浦区北京西路355弄1-2号"},{"poiid":"B2094654DB64A6FD4593","title":"大光明电影院","lon":"121.47128","lat":"31.23298","category":"178","category_name":"电影院","address":"黄浦区南京西路216号(黄河路南京西路)"},{"poiid":"B2094654DA68A3FD419B","title":"佳家汤包 黄河店","lon":"121.47105017344","lat":"31.233958297842","category":"68","category_name":"快餐厅","address":"黄浦区黄河路90号(近凤阳路)"},{"poiid":"B2094757DA6EABFF499A","title":"爆爆椒香辣虾干锅三绝(人民广场店)","lon":"121.470959999998","lat":"31.2325700000003","category":"71","category_name":"四川菜","address":"黄浦区南京西路258号世茂商都5楼(近黄河路)"},{"poiid":"B2094753D76FAAFA449C","title":"上海滩国泰旗舰店","lon":"121.466011","lat":"31.216125","category":"249","category_name":"购物服务","address":"淮海中路868号"},{"poiid":"B209475CD564A7F84292","title":"上海滩新天地店","lon":"121.47463","lat":"31.22164","category":"119","category_name":"商场","address":"\"太仓路181弄新天地北里15号\r\n\""},{"poiid":"B209475CD564A7F8439E","title":"上海滩中信泰富店","lon":"121.45602","lat":"31.22851","category":"119","category_name":"商场","address":"\"南京西路1168号中信泰富广场，店铺号221.\r\n\""},{"poiid":"B209475CD564A7F84392","title":"上海滩浦东香格里拉店","lon":"121.50058","lat":"31.23634","category":"119","category_name":"商场","address":"浦东富成路33号香格里拉酒店内大堂层"},{"poiid":"B2094757D06EAAFD4292","title":"老克勒上海菜 南京西路店","lon":"121.47031","lat":"31.23222","category":"76","category_name":"上海菜","address":"黄浦区南京西路288号创兴金融中心2楼(近新昌路)"},{"poiid":"B2094757D06FA3F5439B","title":"香港仔码头茶餐厅(凤阳店)","lon":"121.47068","lat":"31.23366","category":"72","category_name":"广东菜","address":"黄浦区凤阳路280号(近黄河路)"},{"poiid":"B2094757D06FA3F94293","title":"悦来酒家","lon":"121.47086","lat":"31.23386","category":"76","category_name":"上海菜","address":"黄浦区黄河路81号(近凤阳路)"},{"poiid":"B2094654DA6FAAF54499","title":"苔圣园(黄浦店)","lon":"121.47105","lat":"31.23409","category":"76","category_name":"上海菜","address":"黄浦区黄河路50号(近凤阳路)"},{"poiid":"B2094757D06FA1F4489F","title":"黄河路美食街","lon":"121.47142","lat":"31.23348","category":"68","category_name":"快餐厅","address":"黄浦区黄河路(近新闸路)"},{"poiid":"B2094757D06FA5FF4098","title":"金八仙","lon":"121.47112","lat":"31.23428","category":"76","category_name":"上海菜","address":"上海黄浦区黄河路96-98号(近凤阳路)"},{"poiid":"B2094757D06FA7F9469B","title":"粤味馆(黃河路店)","lon":"121.47027","lat":"31.23506","category":"72","category_name":"广东菜","address":"黄浦区黄河路147号(近北京西路)"},{"poiid":"B2094757D06FA1F9479C","title":"国际饭店西饼屋(黄河路店)","lon":"121.471436532","lat":"31.233682045","category":"112","category_name":"糕饼店","address":"黄浦区黄河路28号国际饭店内"},{"poiid":"B2094757D06FA3FE469D","title":"旺旺大厦","lon":"121.469","lat":"31.234","category":"46","category_name":"楼宇","address":"丰台学城海鹰路1号,3号"},{"poiid":"B2094654DA68A3FD409C","title":"乾隆美食","lon":"121.4711458394","lat":"31.234298079704","category":"76","category_name":"上海菜","address":"黄浦区黄河路72-76号(凤阳路口)"},{"poiid":"B2094757D06FA6FF4598","title":"晶采世纪大厦","lon":"121.468","lat":"31.2329","category":"46","category_name":"楼宇","address":"珠江新城华穗路与华利路交汇处"},{"poiid":"B2094654DA68A3FD4398","title":"香港仔码头靓汤馆","lon":"121.4703","lat":"31.23564","category":"72","category_name":"广东菜","address":"黄浦区黄河路158号(近北京西路)"},{"poiid":"B2094750D568A3FE4098","title":"星巴克(西藏中路二店)","lon":"121.47","lat":"31.2353","category":"260","category_name":"其他","address":"黄浦区西藏中路289号(近九江路)"},{"poiid":"B2094757DB68A5FF449C","title":"上海 来福士","lon":"121.4678278181757","lat":"31.23394058782101","category":"247","category_name":"餐饮美食","address":"人民广场"},{"poiid":"B2094757DB6EA5FB4499","title":"上海歌城","lon":"121.4693981230476","lat":"31.23629277055158","category":"170","category_name":"KTV","address":"人民广场"},{"poiid":"B2094757D569A2FA4792","title":"雅科空中花园酒吧","lon":"121.4712956","lat":"31.23302417","category":"172","category_name":"酒吧","address":"南京西路216号大光明影院3层"},{"poiid":"B2094757D06FA1FB439D","title":"85度C(南京西店)","lon":"121.471330475","lat":"31.2330760642","category":"112","category_name":"糕饼店","address":"黄浦区南京西路226号(近黄河路)"},{"poiid":"B2094757D06AA5F54592","title":"世贸商都","lon":"121.470635","lat":"31.232439","category":"119","category_name":"商场","address":"上海南京西路258号"},{"poiid":"B2094757DB6DA3F4449D","title":"三人行","lon":"121.469367","lat":"31.233615","category":"247","category_name":"餐饮美食","address":"世贸百联店"},{"poiid":"B2094757D664A6F9459E","title":"沪上一家辣肉面馆 黄河路店","lon":"121.470459054","lat":"31.235120793","category":"68","category_name":"快餐厅","address":"黄浦区黄河路142号(近牯岭路)"},{"poiid":"B2094654DB64A7F9419C","title":"大富豪 黄浦店","lon":"121.46970399676","lat":"31.235602779757","category":"76","category_name":"上海菜","address":"虹口区山西北路388号(近河南北路)"},{"poiid":"B2094654DA68A3FD4593","title":"半岛酒楼(黄河路)","lon":"121.47071","lat":"31.23435","category":"76","category_name":"上海菜","address":"黄浦区黄河路95号(近凤阳路)"},{"poiid":"B2094757D065A7F44593","title":"日月光中心 OLIVE DES OLIVE","lon":"121.46757623","lat":"31.232956358","category":"500","category_name":"未知分类","address":"上海打浦桥"},{"poiid":"B2094750D664ABFD409A","title":"功德林素食餐厅","lon":"121.471","lat":"31.2335","category":"89","category_name":"中式素餐馆","address":"黄浦区黄河路21号鸿祥大厦1楼"},{"poiid":"B2094752DA65A2FD439E","title":"上海明天广场JW万豪酒店","lon":"121.46729","lat":"31.233113","category":"500","category_name":"未知分类","address":"上海市 南京西路399号"},{"poiid":"B2094654DA68A3FC469C","title":"智富广场","lon":"121.46977","lat":"31.23286","category":"46","category_name":"楼宇","address":"上海新昌路80号"},{"poiid":"B2094757D069A6F94492","title":"月星苏州羊肉面馆","lon":"121.46972985789","lat":"31.236689665784","category":"68","category_name":"快餐厅","address":"黄浦区黄河路207号(近北京西路)"},{"poiid":"B2094654DA68A3FC4893","title":"盛鑫面馆","lon":"121.470061054","lat":"31.233492793","category":"68","category_name":"快餐厅","address":"黄浦区凤阳路311号(近黄河路)"},{"poiid":"B2094655D265A0F8459D","title":"老克勒","lon":"121.471","lat":"31.23423","category":"86","category_name":"火锅店","address":"黄河路82"},{"poiid":"B2094757DB6DA3FD4792","title":"迪美·芋贵人","lon":"121.469672","lat":"31.232782","category":"247","category_name":"餐饮美食","address":"人民广场·地下迪美"},{"poiid":"B2094750DA6CABF54899","title":"地铁一号线","lon":"121.470108","lat":"31.233215","category":"500","category_name":"未知分类","address":null},{"poiid":"B2094757D069ABFD409C","title":"人民广场上海歌城","lon":"121.470956","lat":"31.232594","category":"500","category_name":"未知分类","address":"上海人民广场"},{"poiid":"B2094757D069A2F4419E","title":"嘉厨小馆 新昌路店","lon":"121.469033","lat":"31.233784","category":"257","category_name":"中餐厅","address":"黄浦区新昌路77号(凤阳路新昌路)"},{"poiid":"B2094757D06FA3FC4693","title":"杯子布丁(来福士店)","lon":"121.47049944","lat":"31.232727132","category":"67","category_name":"甜品店","address":"黄浦区西藏中路268号来福士广场B1楼(近福州路)"},{"poiid":"B2094757D069AAFC439D","title":"蜀千鸡公煲","lon":"121.47117","lat":"31.23415","category":"71","category_name":"四川菜","address":"黄浦区黄河路84号(近凤阳路)"},{"poiid":"B2094757D068A1FE409A","title":"超级鸡车 黄河路店 Super Gcar","lon":"121.470598","lat":"31.234792","category":"68","category_name":"快餐厅","address":"黄浦区黄河路108号(近北京西路)"},{"poiid":"B2094757DB6EA5FE459B","title":"好乐迪","lon":"121.469367","lat":"31.233615","category":"248","category_name":"生活娱乐","address":"南京路"},{"poiid":"B2094757D464A0F44192","title":"清梅居","lon":"121.46937633246","lat":"31.233360397111","category":"86","category_name":"火锅店","address":"黄浦区凤阳路313号(近新昌路)"},{"poiid":"B2094757D069A3F4439E","title":"永顺和苏州汤包馆(黄河路店)","lon":"121.470466","lat":"31.234799","category":"68","category_name":"快餐厅","address":"黄浦区黄河路111号(定兴路黄河路)"},{"poiid":"B2094757D16EA3F5499E","title":"包旺锅贴黄河路店","lon":"121.46999043","lat":"31.235496912","category":"68","category_name":"快餐厅","address":"黄浦区黄河路120号(近北京西路)"},{"poiid":"B2094757D069A6F9479A","title":"兴泰小吃","lon":"121.470393","lat":"31.235161","category":"76","category_name":"上海菜","address":"黄浦区黄河路137号(定兴路黄河路)"},{"poiid":"B2094654DA68A3FD4698","title":"黄腾酒家","lon":"121.47060436151","lat":"31.234015382097","category":"76","category_name":"上海菜","address":"黄浦区黄河路69-73号(近凤阳路)"},{"poiid":"B2094757D06FA4FC4298","title":"华盛大公馆","lon":"121.46709","lat":"31.234617","category":"47","category_name":"住宅区","address":"上海黄浦区北京西路355弄1-2号"},{"poiid":"B2094654DB64A6FD4593","title":"大光明电影院","lon":"121.47128","lat":"31.23298","category":"178","category_name":"电影院","address":"黄浦区南京西路216号(黄河路南京西路)"},{"poiid":"B2094654DA68A3FD419B","title":"佳家汤包 黄河店","lon":"121.47105017344","lat":"31.233958297842","category":"68","category_name":"快餐厅","address":"黄浦区黄河路90号(近凤阳路)"},{"poiid":"B2094757DA6EABFF499A","title":"爆爆椒香辣虾干锅三绝(人民广场店)","lon":"121.470959999998","lat":"31.2325700000003","category":"71","category_name":"四川菜","address":"黄浦区南京西路258号世茂商都5楼(近黄河路)"},{"poiid":"B2094753D76FAAFA449C","title":"上海滩国泰旗舰店","lon":"121.466011","lat":"31.216125","category":"249","category_name":"购物服务","address":"淮海中路868号"},{"poiid":"B209475CD564A7F84292","title":"上海滩新天地店","lon":"121.47463","lat":"31.22164","category":"119","category_name":"商场","address":"\"太仓路181弄新天地北里15号\r\n\""},{"poiid":"B209475CD564A7F8439E","title":"上海滩中信泰富店","lon":"121.45602","lat":"31.22851","category":"119","category_name":"商场","address":"\"南京西路1168号中信泰富广场，店铺号221.\r\n\""},{"poiid":"B209475CD564A7F84392","title":"上海滩浦东香格里拉店","lon":"121.50058","lat":"31.23634","category":"119","category_name":"商场","address":"浦东富成路33号香格里拉酒店内大堂层"},{"poiid":"B2094757D06EAAFD4292","title":"老克勒上海菜 南京西路店","lon":"121.47031","lat":"31.23222","category":"76","category_name":"上海菜","address":"黄浦区南京西路288号创兴金融中心2楼(近新昌路)"},{"poiid":"B2094757D06FA3F5439B","title":"香港仔码头茶餐厅(凤阳店)","lon":"121.47068","lat":"31.23366","category":"72","category_name":"广东菜","address":"黄浦区凤阳路280号(近黄河路)"},{"poiid":"B2094757D06FA3F94293","title":"悦来酒家","lon":"121.47086","lat":"31.23386","category":"76","category_name":"上海菜","address":"黄浦区黄河路81号(近凤阳路)"},{"poiid":"B2094654DA6FAAF54499","title":"苔圣园(黄浦店)","lon":"121.47105","lat":"31.23409","category":"76","category_name":"上海菜","address":"黄浦区黄河路50号(近凤阳路)"},{"poiid":"B2094757D06FA1F4489F","title":"黄河路美食街","lon":"121.47142","lat":"31.23348","category":"68","category_name":"快餐厅","address":"黄浦区黄河路(近新闸路)"},{"poiid":"B2094757D06FA5FF4098","title":"金八仙","lon":"121.47112","lat":"31.23428","category":"76","category_name":"上海菜","address":"上海黄浦区黄河路96-98号(近凤阳路)"},{"poiid":"B2094757D06FA7F9469B","title":"粤味馆(黃河路店)","lon":"121.47027","lat":"31.23506","category":"72","category_name":"广东菜","address":"黄浦区黄河路147号(近北京西路)"},{"poiid":"B2094757D06FA1F9479C","title":"国际饭店西饼屋(黄河路店)","lon":"121.471436532","lat":"31.233682045","category":"112","category_name":"糕饼店","address":"黄浦区黄河路28号国际饭店内"},{"poiid":"B2094757D06FA3FE469D","title":"旺旺大厦","lon":"121.469","lat":"31.234","category":"46","category_name":"楼宇","address":"丰台学城海鹰路1号,3号"},{"poiid":"B2094654DA68A3FD409C","title":"乾隆美食","lon":"121.4711458394","lat":"31.234298079704","category":"76","category_name":"上海菜","address":"黄浦区黄河路72-76号(凤阳路口)"},{"poiid":"B2094757D06FA6FF4598","title":"晶采世纪大厦","lon":"121.468","lat":"31.2329","category":"46","category_name":"楼宇","address":"珠江新城华穗路与华利路交汇处"},{"poiid":"B2094654DA68A3FD4398","title":"香港仔码头靓汤馆","lon":"121.4703","lat":"31.23564","category":"72","category_name":"广东菜","address":"黄浦区黄河路158号(近北京西路)"},{"poiid":"B2094750D568A3FE4098","title":"星巴克(西藏中路二店)","lon":"121.47","lat":"31.2353","category":"260","category_name":"其他","address":"黄浦区西藏中路289号(近九江路)"},{"poiid":"B2094757DB68A5FF449C","title":"上海 来福士","lon":"121.4678278181757","lat":"31.23394058782101","category":"247","category_name":"餐饮美食","address":"人民广场"},{"poiid":"B2094757DB6EA5FB4499","title":"上海歌城","lon":"121.4693981230476","lat":"31.23629277055158","category":"170","category_name":"KTV","address":"人民广场"},{"poiid":"B2094757D569A2FA4792","title":"雅科空中花园酒吧","lon":"121.4712956","lat":"31.23302417","category":"172","category_name":"酒吧","address":"南京西路216号大光明影院3层"},{"poiid":"B2094757D06FA1FB439D","title":"85度C(南京西店)","lon":"121.471330475","lat":"31.2330760642","category":"112","category_name":"糕饼店","address":"黄浦区南京西路226号(近黄河路)"},{"poiid":"B2094757D06AA5F54592","title":"世贸商都","lon":"121.470635","lat":"31.232439","category":"119","category_name":"商场","address":"上海南京西路258号"},{"poiid":"B2094757DB6DA3F4449D","title":"三人行","lon":"121.469367","lat":"31.233615","category":"247","category_name":"餐饮美食","address":"世贸百联店"},{"poiid":"B2094757D664A6F9459E","title":"沪上一家辣肉面馆 黄河路店","lon":"121.470459054","lat":"31.235120793","category":"68","category_name":"快餐厅","address":"黄浦区黄河路142号(近牯岭路)"},{"poiid":"B2094654DB64A7F9419C","title":"大富豪 黄浦店","lon":"121.46970399676","lat":"31.235602779757","category":"76","category_name":"上海菜","address":"虹口区山西北路388号(近河南北路)"},{"poiid":"B2094654DA68A3FD4593","title":"半岛酒楼(黄河路)","lon":"121.47071","lat":"31.23435","category":"76","category_name":"上海菜","address":"黄浦区黄河路95号(近凤阳路)"},{"poiid":"B2094757D065A7F44593","title":"日月光中心 OLIVE DES OLIVE","lon":"121.46757623","lat":"31.232956358","category":"500","category_name":"未知分类","address":"上海打浦桥"},{"poiid":"B2094750D664ABFD409A","title":"功德林素食餐厅","lon":"121.471","lat":"31.2335","category":"89","category_name":"中式素餐馆","address":"黄浦区黄河路21号鸿祥大厦1楼"},{"poiid":"B2094752DA65A2FD439E","title":"上海明天广场JW万豪酒店","lon":"121.46729","lat":"31.233113","category":"500","category_name":"未知分类","address":"上海市 南京西路399号"},{"poiid":"B2094654DA68A3FC469C","title":"智富广场","lon":"121.46977","lat":"31.23286","category":"46","category_name":"楼宇","address":"上海新昌路80号"},{"poiid":"B2094757D069A6F94492","title":"月星苏州羊肉面馆","lon":"121.46972985789","lat":"31.236689665784","category":"68","category_name":"快餐厅","address":"黄浦区黄河路207号(近北京西路)"},{"poiid":"B2094654DA68A3FC4893","title":"盛鑫面馆","lon":"121.470061054","lat":"31.233492793","category":"68","category_name":"快餐厅","address":"黄浦区凤阳路311号(近黄河路)"},{"poiid":"B2094655D265A0F8459D","title":"老克勒","lon":"121.471","lat":"31.23423","category":"86","category_name":"火锅店","address":"黄河路82"},{"poiid":"B2094757DB6DA3FD4792","title":"迪美·芋贵人","lon":"121.469672","lat":"31.232782","category":"247","category_name":"餐饮美食","address":"人民广场·地下迪美"},{"poiid":"B2094750DA6CABF54899","title":"地铁一号线","lon":"121.470108","lat":"31.233215","category":"500","category_name":"未知分类","address":null},{"poiid":"B2094757D069ABFD409C","title":"人民广场上海歌城","lon":"121.470956","lat":"31.232594","category":"500","category_name":"未知分类","address":"上海人民广场"},{"poiid":"B2094757D069A2F4419E","title":"嘉厨小馆 新昌路店","lon":"121.469033","lat":"31.233784","category":"257","category_name":"中餐厅","address":"黄浦区新昌路77号(凤阳路新昌路)"},{"poiid":"B2094757D06FA3FC4693","title":"杯子布丁(来福士店)","lon":"121.47049944","lat":"31.232727132","category":"67","category_name":"甜品店","address":"黄浦区西藏中路268号来福士广场B1楼(近福州路)"},{"poiid":"B2094757D069AAFC439D","title":"蜀千鸡公煲","lon":"121.47117","lat":"31.23415","category":"71","category_name":"四川菜","address":"黄浦区黄河路84号(近凤阳路)"},{"poiid":"B2094757D068A1FE409A","title":"超级鸡车 黄河路店 Super Gcar","lon":"121.470598","lat":"31.234792","category":"68","category_name":"快餐厅","address":"黄浦区黄河路108号(近北京西路)"},{"poiid":"B2094757DB6EA5FE459B","title":"好乐迪","lon":"121.469367","lat":"31.233615","category":"248","category_name":"生活娱乐","address":"南京路"},{"poiid":"B2094757D464A0F44192","title":"清梅居","lon":"121.46937633246","lat":"31.233360397111","category":"86","category_name":"火锅店","address":"黄浦区凤阳路313号(近新昌路)"},{"poiid":"B2094757D069A3F4439E","title":"永顺和苏州汤包馆(黄河路店)","lon":"121.470466","lat":"31.234799","category":"68","category_name":"快餐厅","address":"黄浦区黄河路111号(定兴路黄河路)"},{"poiid":"B2094757D16EA3F5499E","title":"包旺锅贴黄河路店","lon":"121.46999043","lat":"31.235496912","category":"68","category_name":"快餐厅","address":"黄浦区黄河路120号(近北京西路)"},{"poiid":"B2094757D069A6F9479A","title":"兴泰小吃","lon":"121.470393","lat":"31.235161","category":"76","category_name":"上海菜","address":"黄浦区黄河路137号(定兴路黄河路)"},{"poiid":"B2094654DA68A3FD4698","title":"黄腾酒家","lon":"121.47060436151","lat":"31.234015382097","category":"76","category_name":"上海菜","address":"黄浦区黄河路69-73号(近凤阳路)"},{"poiid":"B2094757D06FA4FC4298","title":"华盛大公馆","lon":"121.46709","lat":"31.234617","category":"47","category_name":"住宅区","address":"上海黄浦区北京西路355弄1-2号"},{"poiid":"B2094654DB64A6FD4593","title":"大光明电影院","lon":"121.47128","lat":"31.23298","category":"178","category_name":"电影院","address":"黄浦区南京西路216号(黄河路南京西路)"},{"poiid":"B2094654DA68A3FD419B","title":"佳家汤包 黄河店","lon":"121.47105017344","lat":"31.233958297842","category":"68","category_name":"快餐厅","address":"黄浦区黄河路90号(近凤阳路)"},{"poiid":"B2094757DA6EABFF499A","title":"爆爆椒香辣虾干锅三绝(人民广场店)","lon":"121.470959999998","lat":"31.2325700000003","category":"71","category_name":"四川菜","address":"黄浦区南京西路258号世茂商都5楼(近黄河路)"},{"poiid":"B2094753D76FAAFA449C","title":"上海滩国泰旗舰店","lon":"121.466011","lat":"31.216125","category":"249","category_name":"购物服务","address":"淮海中路868号"},{"poiid":"B209475CD564A7F84292","title":"上海滩新天地店","lon":"121.47463","lat":"31.22164","category":"119","category_name":"商场","address":"\"太仓路181弄新天地北里15号\r\n\""},{"poiid":"B209475CD564A7F8439E","title":"上海滩中信泰富店","lon":"121.45602","lat":"31.22851","category":"119","category_name":"商场","address":"\"南京西路1168号中信泰富广场，店铺号221.\r\n\""},{"poiid":"B209475CD564A7F84392","title":"上海滩浦东香格里拉店","lon":"121.50058","lat":"31.23634","category":"119","category_name":"商场","address":"浦东富成路33号香格里拉酒店内大堂层"},{"poiid":"B2094757D06EAAFD4292","title":"老克勒上海菜 南京西路店","lon":"121.47031","lat":"31.23222","category":"76","category_name":"上海菜","address":"黄浦区南京西路288号创兴金融中心2楼(近新昌路)"},{"poiid":"B2094757D06FA3F5439B","title":"香港仔码头茶餐厅(凤阳店)","lon":"121.47068","lat":"31.23366","category":"72","category_name":"广东菜","address":"黄浦区凤阳路280号(近黄河路)"},{"poiid":"B2094757D06FA3F94293","title":"悦来酒家","lon":"121.47086","lat":"31.23386","category":"76","category_name":"上海菜","address":"黄浦区黄河路81号(近凤阳路)"},{"poiid":"B2094654DA6FAAF54499","title":"苔圣园(黄浦店)","lon":"121.47105","lat":"31.23409","category":"76","category_name":"上海菜","address":"黄浦区黄河路50号(近凤阳路)"},{"poiid":"B2094757D06FA1F4489F","title":"黄河路美食街","lon":"121.47142","lat":"31.23348","category":"68","category_name":"快餐厅","address":"黄浦区黄河路(近新闸路)"},{"poiid":"B2094757D06FA5FF4098","title":"金八仙","lon":"121.47112","lat":"31.23428","category":"76","category_name":"上海菜","address":"上海黄浦区黄河路96-98号(近凤阳路)"},{"poiid":"B2094757D06FA7F9469B","title":"粤味馆(黃河路店)","lon":"121.47027","lat":"31.23506","category":"72","category_name":"广东菜","address":"黄浦区黄河路147号(近北京西路)"},{"poiid":"B2094757D06FA1F9479C","title":"国际饭店西饼屋(黄河路店)","lon":"121.471436532","lat":"31.233682045","category":"112","category_name":"糕饼店","address":"黄浦区黄河路28号国际饭店内"},{"poiid":"B2094757D06FA3FE469D","title":"旺旺大厦","lon":"121.469","lat":"31.234","category":"46","category_name":"楼宇","address":"丰台学城海鹰路1号,3号"},{"poiid":"B2094654DA68A3FD409C","title":"乾隆美食","lon":"121.4711458394","lat":"31.234298079704","category":"76","category_name":"上海菜","address":"黄浦区黄河路72-76号(凤阳路口)"},{"poiid":"B2094757D06FA6FF4598","title":"晶采世纪大厦","lon":"121.468","lat":"31.2329","category":"46","category_name":"楼宇","address":"珠江新城华穗路与华利路交汇处"},{"poiid":"B2094654DA68A3FD4398","title":"香港仔码头靓汤馆","lon":"121.4703","lat":"31.23564","category":"72","category_name":"广东菜","address":"黄浦区黄河路158号(近北京西路)"},{"poiid":"B2094750D568A3FE4098","title":"星巴克(西藏中路二店)","lon":"121.47","lat":"31.2353","category":"260","category_name":"其他","address":"黄浦区西藏中路289号(近九江路)"},{"poiid":"B2094757DB68A5FF449C","title":"上海 来福士","lon":"121.4678278181757","lat":"31.23394058782101","category":"247","category_name":"餐饮美食","address":"人民广场"},{"poiid":"B2094757DB6EA5FB4499","title":"上海歌城","lon":"121.4693981230476","lat":"31.23629277055158","category":"170","category_name":"KTV","address":"人民广场"},{"poiid":"B2094757D569A2FA4792","title":"雅科空中花园酒吧","lon":"121.4712956","lat":"31.23302417","category":"172","category_name":"酒吧","address":"南京西路216号大光明影院3层"},{"poiid":"B2094757D06FA1FB439D","title":"85度C(南京西店)","lon":"121.471330475","lat":"31.2330760642","category":"112","category_name":"糕饼店","address":"黄浦区南京西路226号(近黄河路)"},{"poiid":"B2094757D06AA5F54592","title":"世贸商都","lon":"121.470635","lat":"31.232439","category":"119","category_name":"商场","address":"上海南京西路258号"},{"poiid":"B2094757DB6DA3F4449D","title":"三人行","lon":"121.469367","lat":"31.233615","category":"247","category_name":"餐饮美食","address":"世贸百联店"},{"poiid":"B2094757D664A6F9459E","title":"沪上一家辣肉面馆 黄河路店","lon":"121.470459054","lat":"31.235120793","category":"68","category_name":"快餐厅","address":"黄浦区黄河路142号(近牯岭路)"},{"poiid":"B2094654DB64A7F9419C","title":"大富豪 黄浦店","lon":"121.46970399676","lat":"31.235602779757","category":"76","category_name":"上海菜","address":"虹口区山西北路388号(近河南北路)"},{"poiid":"B2094654DA68A3FD4593","title":"半岛酒楼(黄河路)","lon":"121.47071","lat":"31.23435","category":"76","category_name":"上海菜","address":"黄浦区黄河路95号(近凤阳路)"},{"poiid":"B2094757D065A7F44593","title":"日月光中心 OLIVE DES OLIVE","lon":"121.46757623","lat":"31.232956358","category":"500","category_name":"未知分类","address":"上海打浦桥"},{"poiid":"B2094750D664ABFD409A","title":"功德林素食餐厅","lon":"121.471","lat":"31.2335","category":"89","category_name":"中式素餐馆","address":"黄浦区黄河路21号鸿祥大厦1楼"},{"poiid":"B2094752DA65A2FD439E","title":"上海明天广场JW万豪酒店","lon":"121.46729","lat":"31.233113","category":"500","category_name":"未知分类","address":"上海市 南京西路399号"},{"poiid":"B2094654DA68A3FC469C","title":"智富广场","lon":"121.46977","lat":"31.23286","category":"46","category_name":"楼宇","address":"上海新昌路80号"},{"poiid":"B2094757D069A6F94492","title":"月星苏州羊肉面馆","lon":"121.46972985789","lat":"31.236689665784","category":"68","category_name":"快餐厅","address":"黄浦区黄河路207号(近北京西路)"},{"poiid":"B2094654DA68A3FC4893","title":"盛鑫面馆","lon":"121.470061054","lat":"31.233492793","category":"68","category_name":"快餐厅","address":"黄浦区凤阳路311号(近黄河路)"},{"poiid":"B2094655D265A0F8459D","title":"老克勒","lon":"121.471","lat":"31.23423","category":"86","category_name":"火锅店","address":"黄河路82"},{"poiid":"B2094757DB6DA3FD4792","title":"迪美·芋贵人","lon":"121.469672","lat":"31.232782","category":"247","category_name":"餐饮美食","address":"人民广场·地下迪美"},{"poiid":"B2094750DA6CABF54899","title":"地铁一号线","lon":"121.470108","lat":"31.233215","category":"500","category_name":"未知分类","address":null},{"poiid":"B2094757D069ABFD409C","title":"人民广场上海歌城","lon":"121.470956","lat":"31.232594","category":"500","category_name":"未知分类","address":"上海人民广场"},{"poiid":"B2094757D069A2F4419E","title":"嘉厨小馆 新昌路店","lon":"121.469033","lat":"31.233784","category":"257","category_name":"中餐厅","address":"黄浦区新昌路77号(凤阳路新昌路)"},{"poiid":"B2094757D06FA3FC4693","title":"杯子布丁(来福士店)","lon":"121.47049944","lat":"31.232727132","category":"67","category_name":"甜品店","address":"黄浦区西藏中路268号来福士广场B1楼(近福州路)"},{"poiid":"B2094757D069AAFC439D","title":"蜀千鸡公煲","lon":"121.47117","lat":"31.23415","category":"71","category_name":"四川菜","address":"黄浦区黄河路84号(近凤阳路)"},{"poiid":"B2094757D068A1FE409A","title":"超级鸡车 黄河路店 Super Gcar","lon":"121.470598","lat":"31.234792","category":"68","category_name":"快餐厅","address":"黄浦区黄河路108号(近北京西路)"},{"poiid":"B2094757DB6EA5FE459B","title":"好乐迪","lon":"121.469367","lat":"31.233615","category":"248","category_name":"生活娱乐","address":"南京路"},{"poiid":"B2094757D464A0F44192","title":"清梅居","lon":"121.46937633246","lat":"31.233360397111","category":"86","category_name":"火锅店","address":"黄浦区凤阳路313号(近新昌路)"},{"poiid":"B2094757D069A3F4439E","title":"永顺和苏州汤包馆(黄河路店)","lon":"121.470466","lat":"31.234799","category":"68","category_name":"快餐厅","address":"黄浦区黄河路111号(定兴路黄河路)"},{"poiid":"B2094757D16EA3F5499E","title":"包旺锅贴黄河路店","lon":"121.46999043","lat":"31.235496912","category":"68","category_name":"快餐厅","address":"黄浦区黄河路120号(近北京西路)"},{"poiid":"B2094757D069A6F9479A","title":"兴泰小吃","lon":"121.470393","lat":"31.235161","category":"76","category_name":"上海菜","address":"黄浦区黄河路137号(定兴路黄河路)"},{"poiid":"B2094654DA68A3FD4698","title":"黄腾酒家","lon":"121.47060436151","lat":"31.234015382097","category":"76","category_name":"上海菜","address":"黄浦区黄河路69-73号(近凤阳路)"},{"poiid":"B2094757D06FA4FC4298","title":"华盛大公馆","lon":"121.46709","lat":"31.234617","category":"47","category_name":"住宅区","address":"上海黄浦区北京西路355弄1-2号"},{"poiid":"B2094654DB64A6FD4593","title":"大光明电影院","lon":"121.47128","lat":"31.23298","category":"178","category_name":"电影院","address":"黄浦区南京西路216号(黄河路南京西路)"},{"poiid":"B2094654DA68A3FD419B","title":"佳家汤包 黄河店","lon":"121.47105017344","lat":"31.233958297842","category":"68","category_name":"快餐厅","address":"黄浦区黄河路90号(近凤阳路)"},{"poiid":"B2094757DA6EABFF499A","title":"爆爆椒香辣虾干锅三绝(人民广场店)","lon":"121.470959999998","lat":"31.2325700000003","category":"71","category_name":"四川菜","address":"黄浦区南京西路258号世茂商都5楼(近黄河路)"},{"poiid":"B2094753D76FAAFA449C","title":"上海滩国泰旗舰店","lon":"121.466011","lat":"31.216125","category":"249","category_name":"购物服务","address":"淮海中路868号"},{"poiid":"B209475CD564A7F84292","title":"上海滩新天地店","lon":"121.47463","lat":"31.22164","category":"119","category_name":"商场","address":"\"太仓路181弄新天地北里15号\r\n\""},{"poiid":"B209475CD564A7F8439E","title":"上海滩中信泰富店","lon":"121.45602","lat":"31.22851","category":"119","category_name":"商场","address":"\"南京西路1168号中信泰富广场，店铺号221.\r\n\""},{"poiid":"B209475CD564A7F84392","title":"上海滩浦东香格里拉店","lon":"121.50058","lat":"31.23634","category":"119","category_name":"商场","address":"浦东富成路33号香格里拉酒店内大堂层"},{"poiid":"B2094757D06EAAFD4292","title":"老克勒上海菜 南京西路店","lon":"121.47031","lat":"31.23222","category":"76","category_name":"上海菜","address":"黄浦区南京西路288号创兴金融中心2楼(近新昌路)"},{"poiid":"B2094757D06FA3F5439B","title":"香港仔码头茶餐厅(凤阳店)","lon":"121.47068","lat":"31.23366","category":"72","category_name":"广东菜","address":"黄浦区凤阳路280号(近黄河路)"},{"poiid":"B2094757D06FA3F94293","title":"悦来酒家","lon":"121.47086","lat":"31.23386","category":"76","category_name":"上海菜","address":"黄浦区黄河路81号(近凤阳路)"},{"poiid":"B2094654DA6FAAF54499","title":"苔圣园(黄浦店)","lon":"121.47105","lat":"31.23409","category":"76","category_name":"上海菜","address":"黄浦区黄河路50号(近凤阳路)"},{"poiid":"B2094757D06FA1F4489F","title":"黄河路美食街","lon":"121.47142","lat":"31.23348","category":"68","category_name":"快餐厅","address":"黄浦区黄河路(近新闸路)"},{"poiid":"B2094757D06FA5FF4098","title":"金八仙","lon":"121.47112","lat":"31.23428","category":"76","category_name":"上海菜","address":"上海黄浦区黄河路96-98号(近凤阳路)"},{"poiid":"B2094757D06FA7F9469B","title":"粤味馆(黃河路店)","lon":"121.47027","lat":"31.23506","category":"72","category_name":"广东菜","address":"黄浦区黄河路147号(近北京西路)"},{"poiid":"B2094757D06FA1F9479C","title":"国际饭店西饼屋(黄河路店)","lon":"121.471436532","lat":"31.233682045","category":"112","category_name":"糕饼店","address":"黄浦区黄河路28号国际饭店内"},{"poiid":"B2094757D06FA3FE469D","title":"旺旺大厦","lon":"121.469","lat":"31.234","category":"46","category_name":"楼宇","address":"丰台学城海鹰路1号,3号"},{"poiid":"B2094654DA68A3FD409C","title":"乾隆美食","lon":"121.4711458394","lat":"31.234298079704","category":"76","category_name":"上海菜","address":"黄浦区黄河路72-76号(凤阳路口)"},{"poiid":"B2094757D06FA6FF4598","title":"晶采世纪大厦","lon":"121.468","lat":"31.2329","category":"46","category_name":"楼宇","address":"珠江新城华穗路与华利路交汇处"},{"poiid":"B2094654DA68A3FD4398","title":"香港仔码头靓汤馆","lon":"121.4703","lat":"31.23564","category":"72","category_name":"广东菜","address":"黄浦区黄河路158号(近北京西路)"},{"poiid":"B2094750D568A3FE4098","title":"星巴克(西藏中路二店)","lon":"121.47","lat":"31.2353","category":"260","category_name":"其他","address":"黄浦区西藏中路289号(近九江路)"},{"poiid":"B2094757DB68A5FF449C","title":"上海 来福士","lon":"121.4678278181757","lat":"31.23394058782101","category":"247","category_name":"餐饮美食","address":"人民广场"},{"poiid":"B2094757DB6EA5FB4499","title":"上海歌城","lon":"121.4693981230476","lat":"31.23629277055158","category":"170","category_name":"KTV","address":"人民广场"},{"poiid":"B2094757D569A2FA4792","title":"雅科空中花园酒吧","lon":"121.4712956","lat":"31.23302417","category":"172","category_name":"酒吧","address":"南京西路216号大光明影院3层"},{"poiid":"B2094757D06FA1FB439D","title":"85度C(南京西店)","lon":"121.471330475","lat":"31.2330760642","category":"112","category_name":"糕饼店","address":"黄浦区南京西路226号(近黄河路)"},{"poiid":"B2094757D06AA5F54592","title":"世贸商都","lon":"121.470635","lat":"31.232439","category":"119","category_name":"商场","address":"上海南京西路258号"},{"poiid":"B2094757DB6DA3F4449D","title":"三人行","lon":"121.469367","lat":"31.233615","category":"247","category_name":"餐饮美食","address":"世贸百联店"},{"poiid":"B2094757D664A6F9459E","title":"沪上一家辣肉面馆 黄河路店","lon":"121.470459054","lat":"31.235120793","category":"68","category_name":"快餐厅","address":"黄浦区黄河路142号(近牯岭路)"},{"poiid":"B2094654DB64A7F9419C","title":"大富豪 黄浦店","lon":"121.46970399676","lat":"31.235602779757","category":"76","category_name":"上海菜","address":"虹口区山西北路388号(近河南北路)"},{"poiid":"B2094654DA68A3FD4593","title":"半岛酒楼(黄河路)","lon":"121.47071","lat":"31.23435","category":"76","category_name":"上海菜","address":"黄浦区黄河路95号(近凤阳路)"},{"poiid":"B2094757D065A7F44593","title":"日月光中心 OLIVE DES OLIVE","lon":"121.46757623","lat":"31.232956358","category":"500","category_name":"未知分类","address":"上海打浦桥"},{"poiid":"B2094750D664ABFD409A","title":"功德林素食餐厅","lon":"121.471","lat":"31.2335","category":"89","category_name":"中式素餐馆","address":"黄浦区黄河路21号鸿祥大厦1楼"},{"poiid":"B2094752DA65A2FD439E","title":"上海明天广场JW万豪酒店","lon":"121.46729","lat":"31.233113","category":"500","category_name":"未知分类","address":"上海市 南京西路399号"},{"poiid":"B2094654DA68A3FC469C","title":"智富广场","lon":"121.46977","lat":"31.23286","category":"46","category_name":"楼宇","address":"上海新昌路80号"},{"poiid":"B2094757D069A6F94492","title":"月星苏州羊肉面馆","lon":"121.46972985789","lat":"31.236689665784","category":"68","category_name":"快餐厅","address":"黄浦区黄河路207号(近北京西路)"},{"poiid":"B2094654DA68A3FC4893","title":"盛鑫面馆","lon":"121.470061054","lat":"31.233492793","category":"68","category_name":"快餐厅","address":"黄浦区凤阳路311号(近黄河路)"},{"poiid":"B2094655D265A0F8459D","title":"老克勒","lon":"121.471","lat":"31.23423","category":"86","category_name":"火锅店","address":"黄河路82"},{"poiid":"B2094757DB6DA3FD4792","title":"迪美·芋贵人","lon":"121.469672","lat":"31.232782","category":"247","category_name":"餐饮美食","address":"人民广场·地下迪美"},{"poiid":"B2094750DA6CABF54899","title":"地铁一号线","lon":"121.470108","lat":"31.233215","category":"500","category_name":"未知分类","address":null},{"poiid":"B2094757D069ABFD409C","title":"人民广场上海歌城","lon":"121.470956","lat":"31.232594","category":"500","category_name":"未知分类","address":"上海人民广场"},{"poiid":"B2094757D069A2F4419E","title":"嘉厨小馆 新昌路店","lon":"121.469033","lat":"31.233784","category":"257","category_name":"中餐厅","address":"黄浦区新昌路77号(凤阳路新昌路)"},{"poiid":"B2094757D06FA3FC4693","title":"杯子布丁(来福士店)","lon":"121.47049944","lat":"31.232727132","category":"67","category_name":"甜品店","address":"黄浦区西藏中路268号来福士广场B1楼(近福州路)"},{"poiid":"B2094757D069AAFC439D","title":"蜀千鸡公煲","lon":"121.47117","lat":"31.23415","category":"71","category_name":"四川菜","address":"黄浦区黄河路84号(近凤阳路)"},{"poiid":"B2094757D068A1FE409A","title":"超级鸡车 黄河路店 Super Gcar","lon":"121.470598","lat":"31.234792","category":"68","category_name":"快餐厅","address":"黄浦区黄河路108号(近北京西路)"},{"poiid":"B2094757DB6EA5FE459B","title":"好乐迪","lon":"121.469367","lat":"31.233615","category":"248","category_name":"生活娱乐","address":"南京路"},{"poiid":"B2094757D464A0F44192","title":"清梅居","lon":"121.46937633246","lat":"31.233360397111","category":"86","category_name":"火锅店","address":"黄浦区凤阳路313号(近新昌路)"},{"poiid":"B2094757D069A3F4439E","title":"永顺和苏州汤包馆(黄河路店)","lon":"121.470466","lat":"31.234799","category":"68","category_name":"快餐厅","address":"黄浦区黄河路111号(定兴路黄河路)"},{"poiid":"B2094757D16EA3F5499E","title":"包旺锅贴黄河路店","lon":"121.46999043","lat":"31.235496912","category":"68","category_name":"快餐厅","address":"黄浦区黄河路120号(近北京西路)"},{"poiid":"B2094757D069A6F9479A","title":"兴泰小吃","lon":"121.470393","lat":"31.235161","category":"76","category_name":"上海菜","address":"黄浦区黄河路137号(定兴路黄河路)"},{"poiid":"B2094654DA68A3FD4698","title":"黄腾酒家","lon":"121.47060436151","lat":"31.234015382097","category":"76","category_name":"上海菜","address":"黄浦区黄河路69-73号(近凤阳路)"},{"poiid":"B2094757D06FA4FC4298","title":"华盛大公馆","lon":"121.46709","lat":"31.234617","category":"47","category_name":"住宅区","address":"上海黄浦区北京西路355弄1-2号"}]