[{"poiid":"B2094757D06BA7FE489E","title":"金领国际","lon":"121.680493","lat":"31.253423","category":"252","category_name":"楼宇机构","address":"浦东新区川沙路1666号"},{"poiid":"B2094757D064A4FD489F","title":"兴业银行","lon":"121.66909638","lat":"31.247178922","category":"150","category_name":"银行","address":"上海来安路500号"},{"poiid":"B2094757D66EA1F8459A","title":"招商银行信用卡中心","lon":"121.67261178","lat":"31.247633065","category":"150","category_name":"银行","address":"上海华东路来安路"},{"poiid":"B2094757D16CA1FF419E","title":"龚路","lon":"121.684123","lat":"31.261737","category":"500","category_name":"未知分类","address":"上海市浦东新区川沙路816号(金海路口)"},{"poiid":"B2094757DA64A3FF4192","title":"恒生商业广场","lon":"121.680043","lat":"31.241123","category":"252","category_name":"楼宇机构","address":"浦东新区上丰路(近金枫公园)"},{"poiid":"B2094757D069AAF94393","title":"万科蓝山别墅","lon":"121.6731491","lat":"31.269880294","category":"47","category_name":"住宅区","address":"中国上海市浦东新区金海路3333弄"},{"poiid":"B2094757D064A6FB469D","title":"同馨苑","lon":"121.684","lat":"31.2496","category":"252","category_name":"楼宇机构","address":"云雅路337号等单号"},{"poiid":"B2094757D06AA3F5459D","title":"交通银行总行培训中心","lon":"121.6644523","lat":"31.240514098","category":"253","category_name":"校园生活","address":"上海浦东新区上丰路1211号"},{"poiid":"B2094757D16EA4F9479D","title":"上海期货交易所","lon":"121.679198747","lat":"31.2485499627","category":"263","category_name":"公司","address":"上海来安路996号"},{"poiid":"B2094655D36CA6F54999","title":"大湾","lon":"121.68476","lat":"31.24371","category":"38","category_name":"公交车站","address":""},{"poiid":"B2094654DA6BA1FF4492","title":"同景苑","lon":"121.67756","lat":"31.24457","category":"47","category_name":"住宅区","address":"上海云雅路400弄"},{"poiid":"B2094655D36CA6FD4699","title":"龚华路龚丰路","lon":"121.68848","lat":"31.25777","category":"38","category_name":"公交车站","address":""},{"poiid":"B2094757D06AA1F8419C","title":"中国银行信息中心","lon":"121.665528295","lat":"31.2408610664","category":"500","category_name":"未知分类","address":"上海卡园一路88号"},{"poiid":"B2094654DA6AAAFE489C","title":"金盛佳苑","lon":"121.68645","lat":"31.242142","category":"47","category_name":"住宅区","address":"胜利路30弄"},{"poiid":"B2094654DA6AAAFE4798","title":"鑫港苑","lon":"121.68105","lat":"31.241295","category":"47","category_name":"住宅区","address":"上海浦东新区虹盛路250弄"},{"poiid":"B2094757D065A2FB4993","title":"川沙路 虹星路","lon":"121.682857","lat":"31.249544","category":"500","category_name":"未知分类","address":"上海川沙路,虹星路"},{"poiid":"B2094654D569A3FF499B","title":"曹路镇卫生院","lon":"121.68266","lat":"31.25825","category":"162","category_name":"医院","address":"曹路镇"},{"poiid":"B2094752D764A7FE489B","title":"浦东机场","lon":"121.676849","lat":"31.250944","category":"500","category_name":"未知分类","address":null},{"poiid":"B2094655D36CA5FE4092","title":"川沙路龚路公路","lon":"121.67843","lat":"31.26137","category":"38","category_name":"公交车站","address":""},{"poiid":"B2094753D26AA0FA409D","title":"上海农商银行数据处理中心","lon":"121.678359","lat":"31.250948","category":"500","category_name":"未知分类","address":"上海市 锦绣东路川沙路"},{"poiid":"B2094655D26BA4F44493","title":"银丰苑","lon":"121.68941","lat":"31.266304","category":"47","category_name":"住宅区","address":"上海市浦东新区银峰路199弄1-164号"},{"poiid":"B2094757D16BA3F8419B","title":"天长墓园","lon":"121.68140845","lat":"31.2666481506","category":"500","category_name":"未知分类","address":"上海金海路"},{"poiid":"B2094757D16BA7FD439F","title":"爵鼎鸡(龚路店)","lon":"121.68375745","lat":"31.263124074","category":"87","category_name":"特色／地方风味餐厅","address":"浦东新区龚华路479弄龚路新城旁(近龚丰路)"},{"poiid":"B2094757D069A6FC489C","title":"东亚中国数据中心","lon":"121.67157721","lat":"31.248456963","category":"500","category_name":"未知分类","address":"上海瑞昌路277号A栋"},{"poiid":"B2094757D16EA3F44792","title":"曹路镇社区事务受理服务中心","lon":"121.683161","lat":"31.256356","category":"500","category_name":"未知分类","address":"上海龚丰路85号"},{"poiid":"B2094654D569A2FD479E","title":"生大别墅C区","lon":"121.68296","lat":"31.25757","category":"47","category_name":"住宅区","address":""},{"poiid":"B2094750DB65A2F5429E","title":"肯德基(恒生广场店)","lon":"121.680969","lat":"31.239988","category":"68","category_name":"快餐厅","address":"浦东新区上丰路1772-1784号1楼恒生商业广场内(近王港路)"},{"poiid":"B2094757D064ABF8429D","title":"睿翔园","lon":"121.67597898","lat":"31.247565363","category":"500","category_name":"未知分类","address":"上海浦发集中作业中心"},{"poiid":"B2094654D569A2F54392","title":"上海浦东预拌混凝土有限公司","lon":"121.68204","lat":"31.25452","category":"263","category_name":"公司","address":"川沙路1601"},{"poiid":"B2094757D46EA5F54699","title":"NORTHERN诺森 龚华路店","lon":"121.6867239","lat":"31.2601424","category":"112","category_name":"糕饼店","address":"浦东新区龚华路426号"},{"poiid":"B2094757D66CABFD439E","title":"来安路","lon":"121.67494508","lat":"31.247729467","category":"500","category_name":"未知分类","address":"上海市浦东新区卡园二路116号9幢3楼"},{"poiid":"B2094757D065A3FA419A","title":"全家超市(兴业银行卡中心食堂)","lon":"121.6725157","lat":"31.2471225","category":"118","category_name":"超级市场","address":"上海市浦东新区来安路"},{"poiid":"B2094654D569A2F54399","title":"徽宁酒家","lon":"121.68392","lat":"31.24925","category":"257","category_name":"中餐厅","address":""},{"poiid":"B2094654DA6AAAFE479B","title":"金枫公寓","lon":"121.68266","lat":"31.238955","category":"47","category_name":"住宅区","address":"虹盛东路39弄"},{"poiid":"B2094753D66CABFA4398","title":"维也纳酒店(上海浦东新区曹路店)","lon":"121.677605","lat":"31.261948","category":"215","category_name":"三星级宾馆","address":"川沙路1218号"},{"poiid":"B2094654D569A2FD409B","title":"钢垒钢材","lon":"121.68321","lat":"31.24943","category":"123","category_name":"家具建材市场","address":"川沙路1739号"},{"poiid":"B2094757D66FA2FA429F","title":"共和新路共康路","lon":"121.67999975","lat":"31.25875598","category":"500","category_name":"未知分类","address":"上海共康路地铁站"},{"poiid":"B2094757D769A7FB4898","title":"湘色满园","lon":"121.677368054","lat":"31.243344793","category":"77","category_name":"湖南菜","address":"浦东新区云雅路356号(近王巷路)"},{"poiid":"B2094655D36CA7FD419D","title":"华东路来安路","lon":"121.66877","lat":"31.24412","category":"38","category_name":"公交车站","address":""},{"poiid":"B2094655D26BA2FE439A","title":"王港","lon":"121.68574","lat":"31.23727","category":"38","category_name":"公交车站","address":""},{"poiid":"B2094655D36DA2FB4493","title":"宋家宅桥","lon":"121.67903","lat":"31.24619","category":"250","category_name":"公园户外","address":""},{"poiid":"B2094757D16FA7FF409A","title":"金枫公园","lon":"121.68068","lat":"31.24207","category":"196","category_name":"公园","address":"浦东新区虹盛路(近彩雅路)"},{"poiid":"B2094757D16FA0FF479D","title":"草莓园","lon":"121.67886","lat":"31.26078","category":"260","category_name":"其他","address":"上海浦东新区龚路支路(近人行天桥)  "},{"poiid":"B2094757D76EA3FE439D","title":"来伊份 龚华路店","lon":"121.68682","lat":"31.26064","category":"68","category_name":"快餐厅","address":"浦东新区龚华路100号(近龚兴路)"},{"poiid":"B2094655D265A6F54799","title":"玛戈隆特古瓷文化产业园","lon":"121.66962","lat":"31.26194","category":"45","category_name":"产业园区","address":"瑞祥路68号"},{"poiid":"B2094654D569A2FE4292","title":"上海第二工业大学附属龚路中学","lon":"121.67911","lat":"31.26514","category":"55","category_name":"中学","address":""},{"poiid":"B2094750DA69AAFA469D","title":"大湾名苑","lon":"121.692224","lat":"31.252076","category":"47","category_name":"住宅区","address":"浦东新区川沙路2015弄"},{"poiid":"B2094654D569A3F8459E","title":"龚华公寓","lon":"121.68587","lat":"31.260445","category":"47","category_name":"住宅区","address":"龚华路406弄"},{"poiid":"B2094753D664A4F4449D","title":"山珍王国","lon":"121.682327","lat":"31.246904","category":"500","category_name":"未知分类","address":"上海市 上海市浦东新区乐昌路109号"},{"poiid":"B2094757D469A2FE4792","title":"重庆鸡公煲 云雅路店","lon":"121.675284054","lat":"31.242577793","category":"71","category_name":"四川菜","address":"云雅路349号近王港路"},{"poiid":"B2094757D06BA7FE489E","title":"金领国际","lon":"121.680493","lat":"31.253423","category":"252","category_name":"楼宇机构","address":"浦东新区川沙路1666号"},{"poiid":"B2094757D064A4FD489F","title":"兴业银行","lon":"121.66909638","lat":"31.247178922","category":"150","category_name":"银行","address":"上海来安路500号"},{"poiid":"B2094757D66EA1F8459A","title":"招商银行信用卡中心","lon":"121.67261178","lat":"31.247633065","category":"150","category_name":"银行","address":"上海华东路来安路"},{"poiid":"B2094757D16CA1FF419E","title":"龚路","lon":"121.684123","lat":"31.261737","category":"500","category_name":"未知分类","address":"上海市浦东新区川沙路816号(金海路口)"},{"poiid":"B2094757DA64A3FF4192","title":"恒生商业广场","lon":"121.680043","lat":"31.241123","category":"252","category_name":"楼宇机构","address":"浦东新区上丰路(近金枫公园)"},{"poiid":"B2094757D069AAF94393","title":"万科蓝山别墅","lon":"121.6731491","lat":"31.269880294","category":"47","category_name":"住宅区","address":"中国上海市浦东新区金海路3333弄"},{"poiid":"B2094757D064A6FB469D","title":"同馨苑","lon":"121.684","lat":"31.2496","category":"252","category_name":"楼宇机构","address":"云雅路337号等单号"},{"poiid":"B2094757D06AA3F5459D","title":"交通银行总行培训中心","lon":"121.6644523","lat":"31.240514098","category":"253","category_name":"校园生活","address":"上海浦东新区上丰路1211号"},{"poiid":"B2094757D16EA4F9479D","title":"上海期货交易所","lon":"121.679198747","lat":"31.2485499627","category":"263","category_name":"公司","address":"上海来安路996号"},{"poiid":"B2094655D36CA6F54999","title":"大湾","lon":"121.68476","lat":"31.24371","category":"38","category_name":"公交车站","address":""},{"poiid":"B2094654DA6BA1FF4492","title":"同景苑","lon":"121.67756","lat":"31.24457","category":"47","category_name":"住宅区","address":"上海云雅路400弄"},{"poiid":"B2094655D36CA6FD4699","title":"龚华路龚丰路","lon":"121.68848","lat":"31.25777","category":"38","category_name":"公交车站","address":""},{"poiid":"B2094757D06AA1F8419C","title":"中国银行信息中心","lon":"121.665528295","lat":"31.2408610664","category":"500","category_name":"未知分类","address":"上海卡园一路88号"},{"poiid":"B2094654DA6AAAFE489C","title":"金盛佳苑","lon":"121.68645","lat":"31.242142","category":"47","category_name":"住宅区","address":"胜利路30弄"},{"poiid":"B2094654DA6AAAFE4798","title":"鑫港苑","lon":"121.68105","lat":"31.241295","category":"47","category_name":"住宅区","address":"上海浦东新区虹盛路250弄"},{"poiid":"B2094757D065A2FB4993","title":"川沙路 虹星路","lon":"121.682857","lat":"31.249544","category":"500","category_name":"未知分类","address":"上海川沙路,虹星路"},{"poiid":"B2094654D569A3FF499B","title":"曹路镇卫生院","lon":"121.68266","lat":"31.25825","category":"162","category_name":"医院","address":"曹路镇"},{"poiid":"B2094752D764A7FE489B","title":"浦东机场","lon":"121.676849","lat":"31.250944","category":"500","category_name":"未知分类","address":null},{"poiid":"B2094655D36CA5FE4092","title":"川沙路龚路公路","lon":"121.67843","lat":"31.26137","category":"38","category_name":"公交车站","address":""},{"poiid":"B2094753D26AA0FA409D","title":"上海农商银行数据处理中心","lon":"121.678359","lat":"31.250948","category":"500","category_name":"未知分类","address":"上海市 锦绣东路川沙路"},{"poiid":"B2094655D26BA4F44493","title":"银丰苑","lon":"121.68941","lat":"31.266304","category":"47","category_name":"住宅区","address":"上海市浦东新区银峰路199弄1-164号"},{"poiid":"B2094757D16BA3F8419B","title":"天长墓园","lon":"121.68140845","lat":"31.2666481506","category":"500","category_name":"未知分类","address":"上海金海路"},{"poiid":"B2094757D16BA7FD439F","title":"爵鼎鸡(龚路店)","lon":"121.68375745","lat":"31.263124074","category":"87","category_name":"特色／地方风味餐厅","address":"浦东新区龚华路479弄龚路新城旁(近龚丰路)"},{"poiid":"B2094757D069A6FC489C","title":"东亚中国数据中心","lon":"121.67157721","lat":"31.248456963","category":"500","category_name":"未知分类","address":"上海瑞昌路277号A栋"},{"poiid":"B2094757D16EA3F44792","title":"曹路镇社区事务受理服务中心","lon":"121.683161","lat":"31.256356","category":"500","category_name":"未知分类","address":"上海龚丰路85号"},{"poiid":"B2094654D569A2FD479E","title":"生大别墅C区","lon":"121.68296","lat":"31.25757","category":"47","category_name":"住宅区","address":""},{"poiid":"B2094750DB65A2F5429E","title":"肯德基(恒生广场店)","lon":"121.680969","lat":"31.239988","category":"68","category_name":"快餐厅","address":"浦东新区上丰路1772-1784号1楼恒生商业广场内(近王港路)"},{"poiid":"B2094757D064ABF8429D","title":"睿翔园","lon":"121.67597898","lat":"31.247565363","category":"500","category_name":"未知分类","address":"上海浦发集中作业中心"},{"poiid":"B2094654D569A2F54392","title":"上海浦东预拌混凝土有限公司","lon":"121.68204","lat":"31.25452","category":"263","category_name":"公司","address":"川沙路1601"},{"poiid":"B2094757D46EA5F54699","title":"NORTHERN诺森 龚华路店","lon":"121.6867239","lat":"31.2601424","category":"112","category_name":"糕饼店","address":"浦东新区龚华路426号"},{"poiid":"B2094757D66CABFD439E","title":"来安路","lon":"121.67494508","lat":"31.247729467","category":"500","category_name":"未知分类","address":"上海市浦东新区卡园二路116号9幢3楼"},{"poiid":"B2094757D065A3FA419A","title":"全家超市(兴业银行卡中心食堂)","lon":"121.6725157","lat":"31.2471225","category":"118","category_name":"超级市场","address":"上海市浦东新区来安路"},{"poiid":"B2094654D569A2F54399","title":"徽宁酒家","lon":"121.68392","lat":"31.24925","category":"257","category_name":"中餐厅","address":""},{"poiid":"B2094654DA6AAAFE479B","title":"金枫公寓","lon":"121.68266","lat":"31.238955","category":"47","category_name":"住宅区","address":"虹盛东路39弄"},{"poiid":"B2094753D66CABFA4398","title":"维也纳酒店(上海浦东新区曹路店)","lon":"121.677605","lat":"31.261948","category":"215","category_name":"三星级宾馆","address":"川沙路1218号"},{"poiid":"B2094654D569A2FD409B","title":"钢垒钢材","lon":"121.68321","lat":"31.24943","category":"123","category_name":"家具建材市场","address":"川沙路1739号"},{"poiid":"B2094757D66FA2FA429F","title":"共和新路共康路","lon":"121.67999975","lat":"31.25875598","category":"500","category_name":"未知分类","address":"上海共康路地铁站"},{"poiid":"B2094757D769A7FB4898","title":"湘色满园","lon":"121.677368054","lat":"31.243344793","category":"77","category_name":"湖南菜","address":"浦东新区云雅路356号(近王巷路)"},{"poiid":"B2094655D36CA7FD419D","title":"华东路来安路","lon":"121.66877","lat":"31.24412","category":"38","category_name":"公交车站","address":""},{"poiid":"B2094655D26BA2FE439A","title":"王港","lon":"121.68574","lat":"31.23727","category":"38","category_name":"公交车站","address":""},{"poiid":"B2094655D36DA2FB4493","title":"宋家宅桥","lon":"121.67903","lat":"31.24619","category":"250","category_name":"公园户外","address":""},{"poiid":"B2094757D16FA7FF409A","title":"金枫公园","lon":"121.68068","lat":"31.24207","category":"196","category_name":"公园","address":"浦东新区虹盛路(近彩雅路)"},{"poiid":"B2094757D16FA0FF479D","title":"草莓园","lon":"121.67886","lat":"31.26078","category":"260","category_name":"其他","address":"上海浦东新区龚路支路(近人行天桥)  "},{"poiid":"B2094757D76EA3FE439D","title":"来伊份 龚华路店","lon":"121.68682","lat":"31.26064","category":"68","category_name":"快餐厅","address":"浦东新区龚华路100号(近龚兴路)"},{"poiid":"B2094655D265A6F54799","title":"玛戈隆特古瓷文化产业园","lon":"121.66962","lat":"31.26194","category":"45","category_name":"产业园区","address":"瑞祥路68号"},{"poiid":"B2094654D569A2FE4292","title":"上海第二工业大学附属龚路中学","lon":"121.67911","lat":"31.26514","category":"55","category_name":"中学","address":""},{"poiid":"B2094750DA69AAFA469D","title":"大湾名苑","lon":"121.692224","lat":"31.252076","category":"47","category_name":"住宅区","address":"浦东新区川沙路2015弄"},{"poiid":"B2094654D569A3F8459E","title":"龚华公寓","lon":"121.68587","lat":"31.260445","category":"47","category_name":"住宅区","address":"龚华路406弄"},{"poiid":"B2094753D664A4F4449D","title":"山珍王国","lon":"121.682327","lat":"31.246904","category":"500","category_name":"未知分类","address":"上海市 上海市浦东新区乐昌路109号"},{"poiid":"B2094757D469A2FE4792","title":"重庆鸡公煲 云雅路店","lon":"121.675284054","lat":"31.242577793","category":"71","category_name":"四川菜","address":"云雅路349号近王港路"},{"poiid":"B2094757D06BA7FE489E","title":"金领国际","lon":"121.680493","lat":"31.253423","category":"252","category_name":"楼宇机构","address":"浦东新区川沙路1666号"},{"poiid":"B2094757D064A4FD489F","title":"兴业银行","lon":"121.66909638","lat":"31.247178922","category":"150","category_name":"银行","address":"上海来安路500号"},{"poiid":"B2094757D66EA1F8459A","title":"招商银行信用卡中心","lon":"121.67261178","lat":"31.247633065","category":"150","category_name":"银行","address":"上海华东路来安路"},{"poiid":"B2094757D16CA1FF419E","title":"龚路","lon":"121.684123","lat":"31.261737","category":"500","category_name":"未知分类","address":"上海市浦东新区川沙路816号(金海路口)"},{"poiid":"B2094757DA64A3FF4192","title":"恒生商业广场","lon":"121.680043","lat":"31.241123","category":"252","category_name":"楼宇机构","address":"浦东新区上丰路(近金枫公园)"},{"poiid":"B2094757D069AAF94393","title":"万科蓝山别墅","lon":"121.6731491","lat":"31.269880294","category":"47","category_name":"住宅区","address":"中国上海市浦东新区金海路3333弄"},{"poiid":"B2094757D064A6FB469D","title":"同馨苑","lon":"121.684","lat":"31.2496","category":"252","category_name":"楼宇机构","address":"云雅路337号等单号"},{"poiid":"B2094757D06AA3F5459D","title":"交通银行总行培训中心","lon":"121.6644523","lat":"31.240514098","category":"253","category_name":"校园生活","address":"上海浦东新区上丰路1211号"},{"poiid":"B2094757D16EA4F9479D","title":"上海期货交易所","lon":"121.679198747","lat":"31.2485499627","category":"263","category_name":"公司","address":"上海来安路996号"},{"poiid":"B2094655D36CA6F54999","title":"大湾","lon":"121.68476","lat":"31.24371","category":"38","category_name":"公交车站","address":""},{"poiid":"B2094654DA6BA1FF4492","title":"同景苑","lon":"121.67756","lat":"31.24457","category":"47","category_name":"住宅区","address":"上海云雅路400弄"},{"poiid":"B2094655D36CA6FD4699","title":"龚华路龚丰路","lon":"121.68848","lat":"31.25777","category":"38","category_name":"公交车站","address":""},{"poiid":"B2094757D06AA1F8419C","title":"中国银行信息中心","lon":"121.665528295","lat":"31.2408610664","category":"500","category_name":"未知分类","address":"上海卡园一路88号"},{"poiid":"B2094654DA6AAAFE489C","title":"金盛佳苑","lon":"121.68645","lat":"31.242142","category":"47","category_name":"住宅区","address":"胜利路30弄"},{"poiid":"B2094654DA6AAAFE4798","title":"鑫港苑","lon":"121.68105","lat":"31.241295","category":"47","category_name":"住宅区","address":"上海浦东新区虹盛路250弄"},{"poiid":"B2094757D065A2FB4993","title":"川沙路 虹星路","lon":"121.682857","lat":"31.249544","category":"500","category_name":"未知分类","address":"上海川沙路,虹星路"},{"poiid":"B2094654D569A3FF499B","title":"曹路镇卫生院","lon":"121.68266","lat":"31.25825","category":"162","category_name":"医院","address":"曹路镇"},{"poiid":"B2094752D764A7FE489B","title":"浦东机场","lon":"121.676849","lat":"31.250944","category":"500","category_name":"未知分类","address":null},{"poiid":"B2094655D36CA5FE4092","title":"川沙路龚路公路","lon":"121.67843","lat":"31.26137","category":"38","category_name":"公交车站","address":""},{"poiid":"B2094753D26AA0FA409D","title":"上海农商银行数据处理中心","lon":"121.678359","lat":"31.250948","category":"500","category_name":"未知分类","address":"上海市 锦绣东路川沙路"},{"poiid":"B2094655D26BA4F44493","title":"银丰苑","lon":"121.68941","lat":"31.266304","category":"47","category_name":"住宅区","address":"上海市浦东新区银峰路199弄1-164号"},{"poiid":"B2094757D16BA3F8419B","title":"天长墓园","lon":"121.68140845","lat":"31.2666481506","category":"500","category_name":"未知分类","address":"上海金海路"},{"poiid":"B2094757D16BA7FD439F","title":"爵鼎鸡(龚路店)","lon":"121.68375745","lat":"31.263124074","category":"87","category_name":"特色／地方风味餐厅","address":"浦东新区龚华路479弄龚路新城旁(近龚丰路)"},{"poiid":"B2094757D069A6FC489C","title":"东亚中国数据中心","lon":"121.67157721","lat":"31.248456963","category":"500","category_name":"未知分类","address":"上海瑞昌路277号A栋"},{"poiid":"B2094757D16EA3F44792","title":"曹路镇社区事务受理服务中心","lon":"121.683161","lat":"31.256356","category":"500","category_name":"未知分类","address":"上海龚丰路85号"},{"poiid":"B2094654D569A2FD479E","title":"生大别墅C区","lon":"121.68296","lat":"31.25757","category":"47","category_name":"住宅区","address":""},{"poiid":"B2094750DB65A2F5429E","title":"肯德基(恒生广场店)","lon":"121.680969","lat":"31.239988","category":"68","category_name":"快餐厅","address":"浦东新区上丰路1772-1784号1楼恒生商业广场内(近王港路)"},{"poiid":"B2094757D064ABF8429D","title":"睿翔园","lon":"121.67597898","lat":"31.247565363","category":"500","category_name":"未知分类","address":"上海浦发集中作业中心"},{"poiid":"B2094654D569A2F54392","title":"上海浦东预拌混凝土有限公司","lon":"121.68204","lat":"31.25452","category":"263","category_name":"公司","address":"川沙路1601"},{"poiid":"B2094757D46EA5F54699","title":"NORTHERN诺森 龚华路店","lon":"121.6867239","lat":"31.2601424","category":"112","category_name":"糕饼店","address":"浦东新区龚华路426号"},{"poiid":"B2094757D66CABFD439E","title":"来安路","lon":"121.67494508","lat":"31.247729467","category":"500","category_name":"未知分类","address":"上海市浦东新区卡园二路116号9幢3楼"},{"poiid":"B2094757D065A3FA419A","title":"全家超市(兴业银行卡中心食堂)","lon":"121.6725157","lat":"31.2471225","category":"118","category_name":"超级市场","address":"上海市浦东新区来安路"},{"poiid":"B2094654D569A2F54399","title":"徽宁酒家","lon":"121.68392","lat":"31.24925","category":"257","category_name":"中餐厅","address":""},{"poiid":"B2094654DA6AAAFE479B","title":"金枫公寓","lon":"121.68266","lat":"31.238955","category":"47","category_name":"住宅区","address":"虹盛东路39弄"},{"poiid":"B2094753D66CABFA4398","title":"维也纳酒店(上海浦东新区曹路店)","lon":"121.677605","lat":"31.261948","category":"215","category_name":"三星级宾馆","address":"川沙路1218号"},{"poiid":"B2094654D569A2FD409B","title":"钢垒钢材","lon":"121.68321","lat":"31.24943","category":"123","category_name":"家具建材市场","address":"川沙路1739号"},{"poiid":"B2094757D66FA2FA429F","title":"共和新路共康路","lon":"121.67999975","lat":"31.25875598","category":"500","category_name":"未知分类","address":"上海共康路地铁站"},{"poiid":"B2094757D769A7FB4898","title":"湘色满园","lon":"121.677368054","lat":"31.243344793","category":"77","category_name":"湖南菜","address":"浦东新区云雅路356号(近王巷路)"},{"poiid":"B2094655D36CA7FD419D","title":"华东路来安路","lon":"121.66877","lat":"31.24412","category":"38","category_name":"公交车站","address":""},{"poiid":"B2094655D26BA2FE439A","title":"王港","lon":"121.68574","lat":"31.23727","category":"38","category_name":"公交车站","address":""},{"poiid":"B2094655D36DA2FB4493","title":"宋家宅桥","lon":"121.67903","lat":"31.24619","category":"250","category_name":"公园户外","address":""},{"poiid":"B2094757D16FA7FF409A","title":"金枫公园","lon":"121.68068","lat":"31.24207","category":"196","category_name":"公园","address":"浦东新区虹盛路(近彩雅路)"},{"poiid":"B2094757D16FA0FF479D","title":"草莓园","lon":"121.67886","lat":"31.26078","category":"260","category_name":"其他","address":"上海浦东新区龚路支路(近人行天桥)  "},{"poiid":"B2094757D76EA3FE439D","title":"来伊份 龚华路店","lon":"121.68682","lat":"31.26064","category":"68","category_name":"快餐厅","address":"浦东新区龚华路100号(近龚兴路)"},{"poiid":"B2094655D265A6F54799","title":"玛戈隆特古瓷文化产业园","lon":"121.66962","lat":"31.26194","category":"45","category_name":"产业园区","address":"瑞祥路68号"},{"poiid":"B2094654D569A2FE4292","title":"上海第二工业大学附属龚路中学","lon":"121.67911","lat":"31.26514","category":"55","category_name":"中学","address":""},{"poiid":"B2094750DA69AAFA469D","title":"大湾名苑","lon":"121.692224","lat":"31.252076","category":"47","category_name":"住宅区","address":"浦东新区川沙路2015弄"},{"poiid":"B2094654D569A3F8459E","title":"龚华公寓","lon":"121.68587","lat":"31.260445","category":"47","category_name":"住宅区","address":"龚华路406弄"},{"poiid":"B2094753D664A4F4449D","title":"山珍王国","lon":"121.682327","lat":"31.246904","category":"500","category_name":"未知分类","address":"上海市 上海市浦东新区乐昌路109号"},{"poiid":"B2094757D469A2FE4792","title":"重庆鸡公煲 云雅路店","lon":"121.675284054","lat":"31.242577793","category":"71","category_name":"四川菜","address":"云雅路349号近王港路"},{"poiid":"B2094757D06BA7FE489E","title":"金领国际","lon":"121.680493","lat":"31.253423","category":"252","category_name":"楼宇机构","address":"浦东新区川沙路1666号"},{"poiid":"B2094757D064A4FD489F","title":"兴业银行","lon":"121.66909638","lat":"31.247178922","category":"150","category_name":"银行","address":"上海来安路500号"},{"poiid":"B2094757D66EA1F8459A","title":"招商银行信用卡中心","lon":"121.67261178","lat":"31.247633065","category":"150","category_name":"银行","address":"上海华东路来安路"},{"poiid":"B2094757D16CA1FF419E","title":"龚路","lon":"121.684123","lat":"31.261737","category":"500","category_name":"未知分类","address":"上海市浦东新区川沙路816号(金海路口)"},{"poiid":"B2094757DA64A3FF4192","title":"恒生商业广场","lon":"121.680043","lat":"31.241123","category":"252","category_name":"楼宇机构","address":"浦东新区上丰路(近金枫公园)"},{"poiid":"B2094757D069AAF94393","title":"万科蓝山别墅","lon":"121.6731491","lat":"31.269880294","category":"47","category_name":"住宅区","address":"中国上海市浦东新区金海路3333弄"},{"poiid":"B2094757D064A6FB469D","title":"同馨苑","lon":"121.684","lat":"31.2496","category":"252","category_name":"楼宇机构","address":"云雅路337号等单号"},{"poiid":"B2094757D06AA3F5459D","title":"交通银行总行培训中心","lon":"121.6644523","lat":"31.240514098","category":"253","category_name":"校园生活","address":"上海浦东新区上丰路1211号"},{"poiid":"B2094757D16EA4F9479D","title":"上海期货交易所","lon":"121.679198747","lat":"31.2485499627","category":"263","category_name":"公司","address":"上海来安路996号"},{"poiid":"B2094655D36CA6F54999","title":"大湾","lon":"121.68476","lat":"31.24371","category":"38","category_name":"公交车站","address":""},{"poiid":"B2094654DA6BA1FF4492","title":"同景苑","lon":"121.67756","lat":"31.24457","category":"47","category_name":"住宅区","address":"上海云雅路400弄"},{"poiid":"B2094655D36CA6FD4699","title":"龚华路龚丰路","lon":"121.68848","lat":"31.25777","category":"38","category_name":"公交车站","address":""},{"poiid":"B2094757D06AA1F8419C","title":"中国银行信息中心","lon":"121.665528295","lat":"31.2408610664","category":"500","category_name":"未知分类","address":"上海卡园一路88号"},{"poiid":"B2094654DA6AAAFE489C","title":"金盛佳苑","lon":"121.68645","lat":"31.242142","category":"47","category_name":"住宅区","address":"胜利路30弄"},{"poiid":"B2094654DA6AAAFE4798","title":"鑫港苑","lon":"121.68105","lat":"31.241295","category":"47","category_name":"住宅区","address":"上海浦东新区虹盛路250弄"},{"poiid":"B2094757D065A2FB4993","title":"川沙路 虹星路","lon":"121.682857","lat":"31.249544","category":"500","category_name":"未知分类","address":"上海川沙路,虹星路"},{"poiid":"B2094654D569A3FF499B","title":"曹路镇卫生院","lon":"121.68266","lat":"31.25825","category":"162","category_name":"医院","address":"曹路镇"},{"poiid":"B2094752D764A7FE489B","title":"浦东机场","lon":"121.676849","lat":"31.250944","category":"500","category_name":"未知分类","address":null},{"poiid":"B2094655D36CA5FE4092","title":"川沙路龚路公路","lon":"121.67843","lat":"31.26137","category":"38","category_name":"公交车站","address":""},{"poiid":"B2094753D26AA0FA409D","title":"上海农商银行数据处理中心","lon":"121.678359","lat":"31.250948","category":"500","category_name":"未知分类","address":"上海市 锦绣东路川沙路"},{"poiid":"B2094655D26BA4F44493","title":"银丰苑","lon":"121.68941","lat":"31.266304","category":"47","category_name":"住宅区","address":"上海市浦东新区银峰路199弄1-164号"},{"poiid":"B2094757D16BA3F8419B","title":"天长墓园","lon":"121.68140845","lat":"31.2666481506","category":"500","category_name":"未知分类","address":"上海金海路"},{"poiid":"B2094757D16BA7FD439F","title":"爵鼎鸡(龚路店)","lon":"121.68375745","lat":"31.263124074","category":"87","category_name":"特色／地方风味餐厅","address":"浦东新区龚华路479弄龚路新城旁(近龚丰路)"},{"poiid":"B2094757D069A6FC489C","title":"东亚中国数据中心","lon":"121.67157721","lat":"31.248456963","category":"500","category_name":"未知分类","address":"上海瑞昌路277号A栋"},{"poiid":"B2094757D16EA3F44792","title":"曹路镇社区事务受理服务中心","lon":"121.683161","lat":"31.256356","category":"500","category_name":"未知分类","address":"上海龚丰路85号"},{"poiid":"B2094654D569A2FD479E","title":"生大别墅C区","lon":"121.68296","lat":"31.25757","category":"47","category_name":"住宅区","address":""},{"poiid":"B2094750DB65A2F5429E","title":"肯德基(恒生广场店)","lon":"121.680969","lat":"31.239988","category":"68","category_name":"快餐厅","address":"浦东新区上丰路1772-1784号1楼恒生商业广场内(近王港路)"},{"poiid":"B2094757D064ABF8429D","title":"睿翔园","lon":"121.67597898","lat":"31.247565363","category":"500","category_name":"未知分类","address":"上海浦发集中作业中心"},{"poiid":"B2094654D569A2F54392","title":"上海浦东预拌混凝土有限公司","lon":"121.68204","lat":"31.25452","category":"263","category_name":"公司","address":"川沙路1601"},{"poiid":"B2094757D46EA5F54699","title":"NORTHERN诺森 龚华路店","lon":"121.6867239","lat":"31.2601424","category":"112","category_name":"糕饼店","address":"浦东新区龚华路426号"},{"poiid":"B2094757D66CABFD439E","title":"来安路","lon":"121.67494508","lat":"31.247729467","category":"500","category_name":"未知分类","address":"上海市浦东新区卡园二路116号9幢3楼"},{"poiid":"B2094757D065A3FA419A","title":"全家超市(兴业银行卡中心食堂)","lon":"121.6725157","lat":"31.2471225","category":"118","category_name":"超级市场","address":"上海市浦东新区来安路"},{"poiid":"B2094654D569A2F54399","title":"徽宁酒家","lon":"121.68392","lat":"31.24925","category":"257","category_name":"中餐厅","address":""},{"poiid":"B2094654DA6AAAFE479B","title":"金枫公寓","lon":"121.68266","lat":"31.238955","category":"47","category_name":"住宅区","address":"虹盛东路39弄"},{"poiid":"B2094753D66CABFA4398","title":"维也纳酒店(上海浦东新区曹路店)","lon":"121.677605","lat":"31.261948","category":"215","category_name":"三星级宾馆","address":"川沙路1218号"},{"poiid":"B2094654D569A2FD409B","title":"钢垒钢材","lon":"121.68321","lat":"31.24943","category":"123","category_name":"家具建材市场","address":"川沙路1739号"},{"poiid":"B2094757D66FA2FA429F","title":"共和新路共康路","lon":"121.67999975","lat":"31.25875598","category":"500","category_name":"未知分类","address":"上海共康路地铁站"},{"poiid":"B2094757D769A7FB4898","title":"湘色满园","lon":"121.677368054","lat":"31.243344793","category":"77","category_name":"湖南菜","address":"浦东新区云雅路356号(近王巷路)"},{"poiid":"B2094655D36CA7FD419D","title":"华东路来安路","lon":"121.66877","lat":"31.24412","category":"38","category_name":"公交车站","address":""},{"poiid":"B2094655D26BA2FE439A","title":"王港","lon":"121.68574","lat":"31.23727","category":"38","category_name":"公交车站","address":""},{"poiid":"B2094655D36DA2FB4493","title":"宋家宅桥","lon":"121.67903","lat":"31.24619","category":"250","category_name":"公园户外","address":""},{"poiid":"B2094757D16FA7FF409A","title":"金枫公园","lon":"121.68068","lat":"31.24207","category":"196","category_name":"公园","address":"浦东新区虹盛路(近彩雅路)"},{"poiid":"B2094757D16FA0FF479D","title":"草莓园","lon":"121.67886","lat":"31.26078","category":"260","category_name":"其他","address":"上海浦东新区龚路支路(近人行天桥)  "},{"poiid":"B2094757D76EA3FE439D","title":"来伊份 龚华路店","lon":"121.68682","lat":"31.26064","category":"68","category_name":"快餐厅","address":"浦东新区龚华路100号(近龚兴路)"},{"poiid":"B2094655D265A6F54799","title":"玛戈隆特古瓷文化产业园","lon":"121.66962","lat":"31.26194","category":"45","category_name":"产业园区","address":"瑞祥路68号"},{"poiid":"B2094654D569A2FE4292","title":"上海第二工业大学附属龚路中学","lon":"121.67911","lat":"31.26514","category":"55","category_name":"中学","address":""},{"poiid":"B2094750DA69AAFA469D","title":"大湾名苑","lon":"121.692224","lat":"31.252076","category":"47","category_name":"住宅区","address":"浦东新区川沙路2015弄"},{"poiid":"B2094654D569A3F8459E","title":"龚华公寓","lon":"121.68587","lat":"31.260445","category":"47","category_name":"住宅区","address":"龚华路406弄"},{"poiid":"B2094753D664A4F4449D","title":"山珍王国","lon":"121.682327","lat":"31.246904","category":"500","category_name":"未知分类","address":"上海市 上海市浦东新区乐昌路109号"},{"poiid":"B2094757D469A2FE4792","title":"重庆鸡公煲 云雅路店","lon":"121.675284054","lat":"31.242577793","category":"71","category_name":"四川菜","address":"云雅路349号近王港路"}]