[{"poiid":"B2094654DB65A6FA429E","title":"上海长途客运南站","lon":"121.43361","lat":"31.15276","category":"35","category_name":"长途汽车站","address":"徐汇区石龙路666号(近柳州路)"},{"poiid":"B2094655D26FA6F9429E","title":"星巴克(上海南站店)","lon":"121.429487","lat":"31.153302","category":"65","category_name":"咖啡厅","address":"徐汇区沪闵路9001-3号盛泰购物中心南商场1-B27号铺(近上海南站)"},{"poiid":"B2094757D06FA1F84399","title":"上海南站候车室","lon":"121.43352508","lat":"31.152164459","category":"22","category_name":"火车站","address":"上海南站"},{"poiid":"B2094757D06AA5F54593","title":"三号线上海南站站","lon":"121.432209286","lat":"31.1515143928","category":"500","category_name":"未知分类","address":"上海南站南广场"},{"poiid":"B2094757D06EAAFE409E","title":"上海南站地铁站","lon":"121.430219","lat":"31.154675","category":"36","category_name":"地铁站","address":"上海轨道交通 一号线 三号线 轨交上海南站站 轻轨 1 3"},{"poiid":"B2094757D06FA6FE459E","title":"盛泰时尚购物中心(原银泰)","lon":"121.430518","lat":"31.152855","category":"119","category_name":"商场","address":"徐汇区老沪闵路289号上海南站下沉式广场南广场/北广场"},{"poiid":"B2094757D469A0FB429C","title":"肯德基 上海南站店 KFC","lon":"121.434433054","lat":"31.153030793","category":"68","category_name":"快餐厅","address":"石龙路750-3号银泰购物中心南2-A1近龙川北路"},{"poiid":"B2094655D26EABFA479D","title":"上海航空酒店","lon":"121.43123","lat":"31.14832","category":"214","category_name":"四星级宾馆","address":"上海市徐汇区石龙路951号(近老沪闵路)"},{"poiid":"B2094757D06FA0FA459B","title":"麦当劳(上海南站一店)","lon":"121.43123","lat":"31.15208","category":"68","category_name":"快餐厅","address":"徐汇区石龙路750-3号银泰购物中心南2-A21(近上海南站)  "},{"poiid":"B2094757D568A0FF449F","title":"上海南站南北广场","lon":"121.4294872","lat":"31.15330222","category":"22","category_name":"火车站","address":"老沪闵路289号"},{"poiid":"B2094757D06FA7FA429F","title":"金牛苑","lon":"121.43311","lat":"31.150234","category":"47","category_name":"住宅区","address":"金牛苑位于徐汇老沪闵路420弄"},{"poiid":"B2094757D06FA5F44492","title":"呷哺呷哺 徐汇盛泰店","lon":"121.43451","lat":"31.153133","category":"86","category_name":"火锅店","address":"徐汇区石龙路750号-3号地B2楼A区2-A5号商铺(近石龙路)"},{"poiid":"B2094757D06FA0F5469A","title":"上海南站银泰百货","lon":"121.43099427","lat":"31.152147088","category":"119","category_name":"商场","address":"上海南站"},{"poiid":"B2094757D06FA4FC4092","title":"老妈米线(上海南站店)","lon":"121.43118","lat":"31.15151","category":"86","category_name":"火锅店","address":"徐汇区石龙路750号银泰购物中心南广场B2楼(近上海南站)  "},{"poiid":"B2094757D06AA7F94292","title":"德林酸菜鱼(罗城路店)","lon":"121.435704","lat":"31.152392","category":"86","category_name":"火锅店","address":"上海市徐汇区罗城路429号"},{"poiid":"B2094757D068A6FC4393","title":"味千拉面(上海南站店)","lon":"121.43151","lat":"31.15191","category":"95","category_name":"日本料理","address":"徐汇区沪闵路9001-3号银泰购物中心南商场2-A6号(近上海南站)"},{"poiid":"B2094757D06BA3FC4592","title":"桔子摄影","lon":"121.43903099","lat":"31.154246876","category":"500","category_name":"未知分类","address":"上海市徐汇区石龙路411弄18号3楼"},{"poiid":"B2094757D169AAFA4199","title":"龙川北路罗城路","lon":"121.43387658","lat":"31.149576855","category":"500","category_name":"未知分类","address":"上海龙川北路罗城路"},{"poiid":"B2094750D06CA1FD429C","title":"新石器烤肉","lon":"121.43589","lat":"31.15396","category":"68","category_name":"快餐厅","address":"徐汇区石龙路750号上海南站地下商场南馆B2楼A区南2-A16铺"},{"poiid":"B2094757D464A4F9499D","title":"禾绿回转寿司 上海南站店","lon":"121.434433054","lat":"31.153030793","category":"95","category_name":"日本料理","address":"徐汇区沪闵路9001-3号银泰购物中心南商场2-A15号铺(近上海南站)"},{"poiid":"B2094750DA6AA4FB4998","title":"上海南站金山铁路达到出发处","lon":"121.428573","lat":"31.151111","category":"251","category_name":"出行住宿","address":null},{"poiid":"B2094654DB6CA1F4489D","title":"豪享来上海沪闵店","lon":"121.429","lat":"31.149","category":"247","category_name":"餐饮美食","address":"上海市徐汇区老沪闵路660号"},{"poiid":"B2094757D66BA6FD4892","title":"鼎中鼎澳门豆捞 石龙路店","lon":"121.433741054","lat":"31.151547793","category":"86","category_name":"火锅店","address":"徐汇区石龙路853-859号(近上海南站)"},{"poiid":"B2094654DB64A2F94793","title":"华东花苑","lon":"121.43641","lat":"31.149044","category":"47","category_name":"住宅区","address":"地铁明珠苑位于闵行莘建东路198弄"},{"poiid":"B2094655D26FA6FA4993","title":"莫泰168上海南站店","lon":"121.43196","lat":"31.14934","category":"216","category_name":"经济型连锁酒店","address":"上海市徐汇区石龙路839号（火车南站南广场的对面）"},{"poiid":"B2094757D06BA6FC4298","title":"上海汽车南站","lon":"121.43401","lat":"31.152771","category":"35","category_name":"长途汽车站","address":"上海市徐汇区石龙路666号"},{"poiid":"B2094757D068A2F5449E","title":"酷圣石 上海南站店 Cold Stone Creamery","lon":"121.434433054","lat":"31.153030793","category":"67","category_name":"甜品店","address":"徐汇区沪闵路9001-3号盛泰购物中心南商场1-B14号铺(近上海南站)"},{"poiid":"B2094757D465A7F5419A","title":"巴贝拉 上海南站店 Babela's Kitchen","lon":"121.434433054","lat":"31.153030793","category":"247","category_name":"餐饮美食","address":"石龙路750-3号银泰购物中心南2-A17近龙川北路"},{"poiid":"B2094757D76AA6FD429A","title":"欧凯萨铁板烧","lon":"121.43377685547","lat":"31.151927947998","category":"269","category_name":"烧烤","address":"徐汇区沪闵路9001-3号银泰购物中心南商场2-A10号商铺(近上海南站)"},{"poiid":"B2094757D06AA1FE419C","title":"罗城路700弄","lon":"121.435179617","lat":"31.1499577837","category":"500","category_name":"未知分类","address":"上海罗城路700弄"},{"poiid":"B2094757D464ABF84393","title":"吉野家 上海南站店","lon":"121.434433054","lat":"31.153019793","category":"95","category_name":"日本料理","address":"徐汇区沪闵路9001-3号银泰购物中心南商场内(近上海南站)"},{"poiid":"B2094757DB68AAF9499B","title":"小杨生煎(南站店)","lon":"121.43025093127449","lat":"31.15485663026557","category":"257","category_name":"中餐厅","address":"徐汇区沪闵路9001-3号上海南站北广场B1楼"},{"poiid":"B2094757D06AA6F8429F","title":"徐汇区科技幼儿园","lon":"121.428773586","lat":"31.1493918514","category":"57","category_name":"幼儿园","address":"徐汇区嘉陵路28号"},{"poiid":"B2094654DB6CA1F44399","title":"上海市西南模范中学","lon":"121.43412","lat":"31.14635","category":"55","category_name":"中学","address":"上海徐汇区百色路汇成一村67号"},{"poiid":"B2094757D06FA5FB4893","title":"85度C(南馆店)","lon":"121.43178","lat":"31.15075","category":"67","category_name":"甜品店","address":"徐汇区石龙路750号上海南站地下商场南馆B1楼B区1-B3"},{"poiid":"B2094655D26FA3F9469D","title":"上海南站南广场(B1东南进站口)","lon":"121.43043","lat":"31.15282","category":"22","category_name":"火车站","address":""},{"poiid":"B2094757D464ABF94498","title":"棒约翰比萨 上海南站店 Papa John's Pizza","lon":"121.434433054","lat":"31.153030793","category":"94","category_name":"西餐厅","address":"徐汇区石龙路750-3号银泰购物中心南2-A8号(近上海南站)"},{"poiid":"B2094757D168A1F54893","title":"华东理工大学东门","lon":"121.43288958","lat":"31.15085588","category":"500","category_name":"未知分类","address":"上海市徐汇区老沪闵路"},{"poiid":"B2094654DB69A5F5459A","title":"格林豪泰酒店(南站店)","lon":"121.42987","lat":"31.14758","category":"216","category_name":"经济型连锁酒店","address":"徐汇区石龙路987号(近上海南站)"},{"poiid":"B2094757D465A6FA489A","title":"天香麻辣工坊","lon":"121.434433054","lat":"31.153030793","category":"247","category_name":"餐饮美食","address":"徐汇区沪闵路9001-3号银泰购物中心南商场B1楼(近上海南站)"},{"poiid":"B2094654DA65A6FD4499","title":"海之杰大酒店","lon":"121.43341","lat":"31.15207","category":"250","category_name":"公园户外","address":"徐汇区石龙路728号(近上海南站)"},{"poiid":"B2094757D065A7F44398","title":"DQ冰雪皇后(南站二店)","lon":"121.43157","lat":"31.1529","category":"113","category_name":"冷饮店","address":"徐汇区上海南站站厅层C-105号"},{"poiid":"B2094757D16FA2F5499A","title":"新疆喀什烤肉王","lon":"121.438118586","lat":"31.1503038692","category":"90","category_name":"清真餐馆","address":"徐汇区罗城路403号(近龙川路)"},{"poiid":"B2094757D66DA1FC469F","title":"伊娃烘焙坊","lon":"121.433611586","lat":"31.1527439168","category":"112","category_name":"糕饼店","address":"徐汇区石龙路666号"},{"poiid":"B2094757D069A1F54499","title":"潮汕粥道","lon":"121.43175","lat":"31.14925","category":"68","category_name":"快餐厅","address":"徐汇区石龙路855号2楼"},{"poiid":"B2094757D168A0F8439F","title":"85度C(南站北广场店)","lon":"121.4325","lat":"31.152","category":"112","category_name":"糕饼店","address":"徐汇区地铁一号线上海南站地下商场北馆B1楼C区1-C2-3号(近石龙路)"},{"poiid":"B2094757D665A3FC499B","title":"阿东麻辣烫","lon":"121.4311","lat":"31.1496","category":"68","category_name":"快餐厅","address":"徐汇区石龙路844号(近上海南站)"},{"poiid":"B2094757D16AABFB4199","title":"龙腾大道","lon":"121.43878058","lat":"31.150743877","category":"500","category_name":"未知分类","address":"上海市徐汇区龙腾大道"},{"poiid":"B2094454D268A7FD459A","title":"龙猫咖啡1号店","lon":"121.439781","lat":"31.151071","category":"247","category_name":"餐饮美食","address":"上海市 上海市石龙路581号"},{"poiid":"B2094654DA65A6FD449A","title":"上海南站(南门)","lon":"121.43005","lat":"31.1526","category":"22","category_name":"火车站","address":""},{"poiid":"B2094654DB65A6FA429E","title":"上海长途客运南站","lon":"121.43361","lat":"31.15276","category":"35","category_name":"长途汽车站","address":"徐汇区石龙路666号(近柳州路)"},{"poiid":"B2094655D26FA6F9429E","title":"星巴克(上海南站店)","lon":"121.429487","lat":"31.153302","category":"65","category_name":"咖啡厅","address":"徐汇区沪闵路9001-3号盛泰购物中心南商场1-B27号铺(近上海南站)"},{"poiid":"B2094757D06FA1F84399","title":"上海南站候车室","lon":"121.43352508","lat":"31.152164459","category":"22","category_name":"火车站","address":"上海南站"},{"poiid":"B2094757D06AA5F54593","title":"三号线上海南站站","lon":"121.432209286","lat":"31.1515143928","category":"500","category_name":"未知分类","address":"上海南站南广场"},{"poiid":"B2094757D06EAAFE409E","title":"上海南站地铁站","lon":"121.430219","lat":"31.154675","category":"36","category_name":"地铁站","address":"上海轨道交通 一号线 三号线 轨交上海南站站 轻轨 1 3"},{"poiid":"B2094757D06FA6FE459E","title":"盛泰时尚购物中心(原银泰)","lon":"121.430518","lat":"31.152855","category":"119","category_name":"商场","address":"徐汇区老沪闵路289号上海南站下沉式广场南广场/北广场"},{"poiid":"B2094757D469A0FB429C","title":"肯德基 上海南站店 KFC","lon":"121.434433054","lat":"31.153030793","category":"68","category_name":"快餐厅","address":"石龙路750-3号银泰购物中心南2-A1近龙川北路"},{"poiid":"B2094655D26EABFA479D","title":"上海航空酒店","lon":"121.43123","lat":"31.14832","category":"214","category_name":"四星级宾馆","address":"上海市徐汇区石龙路951号(近老沪闵路)"},{"poiid":"B2094757D06FA0FA459B","title":"麦当劳(上海南站一店)","lon":"121.43123","lat":"31.15208","category":"68","category_name":"快餐厅","address":"徐汇区石龙路750-3号银泰购物中心南2-A21(近上海南站)  "},{"poiid":"B2094757D568A0FF449F","title":"上海南站南北广场","lon":"121.4294872","lat":"31.15330222","category":"22","category_name":"火车站","address":"老沪闵路289号"},{"poiid":"B2094757D06FA7FA429F","title":"金牛苑","lon":"121.43311","lat":"31.150234","category":"47","category_name":"住宅区","address":"金牛苑位于徐汇老沪闵路420弄"},{"poiid":"B2094757D06FA5F44492","title":"呷哺呷哺 徐汇盛泰店","lon":"121.43451","lat":"31.153133","category":"86","category_name":"火锅店","address":"徐汇区石龙路750号-3号地B2楼A区2-A5号商铺(近石龙路)"},{"poiid":"B2094757D06FA0F5469A","title":"上海南站银泰百货","lon":"121.43099427","lat":"31.152147088","category":"119","category_name":"商场","address":"上海南站"},{"poiid":"B2094757D06FA4FC4092","title":"老妈米线(上海南站店)","lon":"121.43118","lat":"31.15151","category":"86","category_name":"火锅店","address":"徐汇区石龙路750号银泰购物中心南广场B2楼(近上海南站)  "},{"poiid":"B2094757D06AA7F94292","title":"德林酸菜鱼(罗城路店)","lon":"121.435704","lat":"31.152392","category":"86","category_name":"火锅店","address":"上海市徐汇区罗城路429号"},{"poiid":"B2094757D068A6FC4393","title":"味千拉面(上海南站店)","lon":"121.43151","lat":"31.15191","category":"95","category_name":"日本料理","address":"徐汇区沪闵路9001-3号银泰购物中心南商场2-A6号(近上海南站)"},{"poiid":"B2094757D06BA3FC4592","title":"桔子摄影","lon":"121.43903099","lat":"31.154246876","category":"500","category_name":"未知分类","address":"上海市徐汇区石龙路411弄18号3楼"},{"poiid":"B2094757D169AAFA4199","title":"龙川北路罗城路","lon":"121.43387658","lat":"31.149576855","category":"500","category_name":"未知分类","address":"上海龙川北路罗城路"},{"poiid":"B2094750D06CA1FD429C","title":"新石器烤肉","lon":"121.43589","lat":"31.15396","category":"68","category_name":"快餐厅","address":"徐汇区石龙路750号上海南站地下商场南馆B2楼A区南2-A16铺"},{"poiid":"B2094757D464A4F9499D","title":"禾绿回转寿司 上海南站店","lon":"121.434433054","lat":"31.153030793","category":"95","category_name":"日本料理","address":"徐汇区沪闵路9001-3号银泰购物中心南商场2-A15号铺(近上海南站)"},{"poiid":"B2094750DA6AA4FB4998","title":"上海南站金山铁路达到出发处","lon":"121.428573","lat":"31.151111","category":"251","category_name":"出行住宿","address":null},{"poiid":"B2094654DB6CA1F4489D","title":"豪享来上海沪闵店","lon":"121.429","lat":"31.149","category":"247","category_name":"餐饮美食","address":"上海市徐汇区老沪闵路660号"},{"poiid":"B2094757D66BA6FD4892","title":"鼎中鼎澳门豆捞 石龙路店","lon":"121.433741054","lat":"31.151547793","category":"86","category_name":"火锅店","address":"徐汇区石龙路853-859号(近上海南站)"},{"poiid":"B2094654DB64A2F94793","title":"华东花苑","lon":"121.43641","lat":"31.149044","category":"47","category_name":"住宅区","address":"地铁明珠苑位于闵行莘建东路198弄"},{"poiid":"B2094655D26FA6FA4993","title":"莫泰168上海南站店","lon":"121.43196","lat":"31.14934","category":"216","category_name":"经济型连锁酒店","address":"上海市徐汇区石龙路839号（火车南站南广场的对面）"},{"poiid":"B2094757D06BA6FC4298","title":"上海汽车南站","lon":"121.43401","lat":"31.152771","category":"35","category_name":"长途汽车站","address":"上海市徐汇区石龙路666号"},{"poiid":"B2094757D068A2F5449E","title":"酷圣石 上海南站店 Cold Stone Creamery","lon":"121.434433054","lat":"31.153030793","category":"67","category_name":"甜品店","address":"徐汇区沪闵路9001-3号盛泰购物中心南商场1-B14号铺(近上海南站)"},{"poiid":"B2094757D465A7F5419A","title":"巴贝拉 上海南站店 Babela's Kitchen","lon":"121.434433054","lat":"31.153030793","category":"247","category_name":"餐饮美食","address":"石龙路750-3号银泰购物中心南2-A17近龙川北路"},{"poiid":"B2094757D76AA6FD429A","title":"欧凯萨铁板烧","lon":"121.43377685547","lat":"31.151927947998","category":"269","category_name":"烧烤","address":"徐汇区沪闵路9001-3号银泰购物中心南商场2-A10号商铺(近上海南站)"},{"poiid":"B2094757D06AA1FE419C","title":"罗城路700弄","lon":"121.435179617","lat":"31.1499577837","category":"500","category_name":"未知分类","address":"上海罗城路700弄"},{"poiid":"B2094757D464ABF84393","title":"吉野家 上海南站店","lon":"121.434433054","lat":"31.153019793","category":"95","category_name":"日本料理","address":"徐汇区沪闵路9001-3号银泰购物中心南商场内(近上海南站)"},{"poiid":"B2094757DB68AAF9499B","title":"小杨生煎(南站店)","lon":"121.43025093127449","lat":"31.15485663026557","category":"257","category_name":"中餐厅","address":"徐汇区沪闵路9001-3号上海南站北广场B1楼"},{"poiid":"B2094757D06AA6F8429F","title":"徐汇区科技幼儿园","lon":"121.428773586","lat":"31.1493918514","category":"57","category_name":"幼儿园","address":"徐汇区嘉陵路28号"},{"poiid":"B2094654DB6CA1F44399","title":"上海市西南模范中学","lon":"121.43412","lat":"31.14635","category":"55","category_name":"中学","address":"上海徐汇区百色路汇成一村67号"},{"poiid":"B2094757D06FA5FB4893","title":"85度C(南馆店)","lon":"121.43178","lat":"31.15075","category":"67","category_name":"甜品店","address":"徐汇区石龙路750号上海南站地下商场南馆B1楼B区1-B3"},{"poiid":"B2094655D26FA3F9469D","title":"上海南站南广场(B1东南进站口)","lon":"121.43043","lat":"31.15282","category":"22","category_name":"火车站","address":""},{"poiid":"B2094757D464ABF94498","title":"棒约翰比萨 上海南站店 Papa John's Pizza","lon":"121.434433054","lat":"31.153030793","category":"94","category_name":"西餐厅","address":"徐汇区石龙路750-3号银泰购物中心南2-A8号(近上海南站)"},{"poiid":"B2094757D168A1F54893","title":"华东理工大学东门","lon":"121.43288958","lat":"31.15085588","category":"500","category_name":"未知分类","address":"上海市徐汇区老沪闵路"},{"poiid":"B2094654DB69A5F5459A","title":"格林豪泰酒店(南站店)","lon":"121.42987","lat":"31.14758","category":"216","category_name":"经济型连锁酒店","address":"徐汇区石龙路987号(近上海南站)"},{"poiid":"B2094757D465A6FA489A","title":"天香麻辣工坊","lon":"121.434433054","lat":"31.153030793","category":"247","category_name":"餐饮美食","address":"徐汇区沪闵路9001-3号银泰购物中心南商场B1楼(近上海南站)"},{"poiid":"B2094654DA65A6FD4499","title":"海之杰大酒店","lon":"121.43341","lat":"31.15207","category":"250","category_name":"公园户外","address":"徐汇区石龙路728号(近上海南站)"},{"poiid":"B2094757D065A7F44398","title":"DQ冰雪皇后(南站二店)","lon":"121.43157","lat":"31.1529","category":"113","category_name":"冷饮店","address":"徐汇区上海南站站厅层C-105号"},{"poiid":"B2094757D16FA2F5499A","title":"新疆喀什烤肉王","lon":"121.438118586","lat":"31.1503038692","category":"90","category_name":"清真餐馆","address":"徐汇区罗城路403号(近龙川路)"},{"poiid":"B2094757D66DA1FC469F","title":"伊娃烘焙坊","lon":"121.433611586","lat":"31.1527439168","category":"112","category_name":"糕饼店","address":"徐汇区石龙路666号"},{"poiid":"B2094757D069A1F54499","title":"潮汕粥道","lon":"121.43175","lat":"31.14925","category":"68","category_name":"快餐厅","address":"徐汇区石龙路855号2楼"},{"poiid":"B2094757D168A0F8439F","title":"85度C(南站北广场店)","lon":"121.4325","lat":"31.152","category":"112","category_name":"糕饼店","address":"徐汇区地铁一号线上海南站地下商场北馆B1楼C区1-C2-3号(近石龙路)"},{"poiid":"B2094757D665A3FC499B","title":"阿东麻辣烫","lon":"121.4311","lat":"31.1496","category":"68","category_name":"快餐厅","address":"徐汇区石龙路844号(近上海南站)"},{"poiid":"B2094757D16AABFB4199","title":"龙腾大道","lon":"121.43878058","lat":"31.150743877","category":"500","category_name":"未知分类","address":"上海市徐汇区龙腾大道"},{"poiid":"B2094454D268A7FD459A","title":"龙猫咖啡1号店","lon":"121.439781","lat":"31.151071","category":"247","category_name":"餐饮美食","address":"上海市 上海市石龙路581号"},{"poiid":"B2094654DA65A6FD449A","title":"上海南站(南门)","lon":"121.43005","lat":"31.1526","category":"22","category_name":"火车站","address":""},{"poiid":"B2094654DB65A6FA429E","title":"上海长途客运南站","lon":"121.43361","lat":"31.15276","category":"35","category_name":"长途汽车站","address":"徐汇区石龙路666号(近柳州路)"},{"poiid":"B2094655D26FA6F9429E","title":"星巴克(上海南站店)","lon":"121.429487","lat":"31.153302","category":"65","category_name":"咖啡厅","address":"徐汇区沪闵路9001-3号盛泰购物中心南商场1-B27号铺(近上海南站)"},{"poiid":"B2094757D06FA1F84399","title":"上海南站候车室","lon":"121.43352508","lat":"31.152164459","category":"22","category_name":"火车站","address":"上海南站"},{"poiid":"B2094757D06AA5F54593","title":"三号线上海南站站","lon":"121.432209286","lat":"31.1515143928","category":"500","category_name":"未知分类","address":"上海南站南广场"},{"poiid":"B2094757D06EAAFE409E","title":"上海南站地铁站","lon":"121.430219","lat":"31.154675","category":"36","category_name":"地铁站","address":"上海轨道交通 一号线 三号线 轨交上海南站站 轻轨 1 3"},{"poiid":"B2094757D06FA6FE459E","title":"盛泰时尚购物中心(原银泰)","lon":"121.430518","lat":"31.152855","category":"119","category_name":"商场","address":"徐汇区老沪闵路289号上海南站下沉式广场南广场/北广场"},{"poiid":"B2094757D469A0FB429C","title":"肯德基 上海南站店 KFC","lon":"121.434433054","lat":"31.153030793","category":"68","category_name":"快餐厅","address":"石龙路750-3号银泰购物中心南2-A1近龙川北路"},{"poiid":"B2094655D26EABFA479D","title":"上海航空酒店","lon":"121.43123","lat":"31.14832","category":"214","category_name":"四星级宾馆","address":"上海市徐汇区石龙路951号(近老沪闵路)"},{"poiid":"B2094757D06FA0FA459B","title":"麦当劳(上海南站一店)","lon":"121.43123","lat":"31.15208","category":"68","category_name":"快餐厅","address":"徐汇区石龙路750-3号银泰购物中心南2-A21(近上海南站)  "},{"poiid":"B2094757D568A0FF449F","title":"上海南站南北广场","lon":"121.4294872","lat":"31.15330222","category":"22","category_name":"火车站","address":"老沪闵路289号"},{"poiid":"B2094757D06FA7FA429F","title":"金牛苑","lon":"121.43311","lat":"31.150234","category":"47","category_name":"住宅区","address":"金牛苑位于徐汇老沪闵路420弄"},{"poiid":"B2094757D06FA5F44492","title":"呷哺呷哺 徐汇盛泰店","lon":"121.43451","lat":"31.153133","category":"86","category_name":"火锅店","address":"徐汇区石龙路750号-3号地B2楼A区2-A5号商铺(近石龙路)"},{"poiid":"B2094757D06FA0F5469A","title":"上海南站银泰百货","lon":"121.43099427","lat":"31.152147088","category":"119","category_name":"商场","address":"上海南站"},{"poiid":"B2094757D06FA4FC4092","title":"老妈米线(上海南站店)","lon":"121.43118","lat":"31.15151","category":"86","category_name":"火锅店","address":"徐汇区石龙路750号银泰购物中心南广场B2楼(近上海南站)  "},{"poiid":"B2094757D06AA7F94292","title":"德林酸菜鱼(罗城路店)","lon":"121.435704","lat":"31.152392","category":"86","category_name":"火锅店","address":"上海市徐汇区罗城路429号"},{"poiid":"B2094757D068A6FC4393","title":"味千拉面(上海南站店)","lon":"121.43151","lat":"31.15191","category":"95","category_name":"日本料理","address":"徐汇区沪闵路9001-3号银泰购物中心南商场2-A6号(近上海南站)"},{"poiid":"B2094757D06BA3FC4592","title":"桔子摄影","lon":"121.43903099","lat":"31.154246876","category":"500","category_name":"未知分类","address":"上海市徐汇区石龙路411弄18号3楼"},{"poiid":"B2094757D169AAFA4199","title":"龙川北路罗城路","lon":"121.43387658","lat":"31.149576855","category":"500","category_name":"未知分类","address":"上海龙川北路罗城路"},{"poiid":"B2094750D06CA1FD429C","title":"新石器烤肉","lon":"121.43589","lat":"31.15396","category":"68","category_name":"快餐厅","address":"徐汇区石龙路750号上海南站地下商场南馆B2楼A区南2-A16铺"},{"poiid":"B2094757D464A4F9499D","title":"禾绿回转寿司 上海南站店","lon":"121.434433054","lat":"31.153030793","category":"95","category_name":"日本料理","address":"徐汇区沪闵路9001-3号银泰购物中心南商场2-A15号铺(近上海南站)"},{"poiid":"B2094750DA6AA4FB4998","title":"上海南站金山铁路达到出发处","lon":"121.428573","lat":"31.151111","category":"251","category_name":"出行住宿","address":null},{"poiid":"B2094654DB6CA1F4489D","title":"豪享来上海沪闵店","lon":"121.429","lat":"31.149","category":"247","category_name":"餐饮美食","address":"上海市徐汇区老沪闵路660号"},{"poiid":"B2094757D66BA6FD4892","title":"鼎中鼎澳门豆捞 石龙路店","lon":"121.433741054","lat":"31.151547793","category":"86","category_name":"火锅店","address":"徐汇区石龙路853-859号(近上海南站)"},{"poiid":"B2094654DB64A2F94793","title":"华东花苑","lon":"121.43641","lat":"31.149044","category":"47","category_name":"住宅区","address":"地铁明珠苑位于闵行莘建东路198弄"},{"poiid":"B2094655D26FA6FA4993","title":"莫泰168上海南站店","lon":"121.43196","lat":"31.14934","category":"216","category_name":"经济型连锁酒店","address":"上海市徐汇区石龙路839号（火车南站南广场的对面）"},{"poiid":"B2094757D06BA6FC4298","title":"上海汽车南站","lon":"121.43401","lat":"31.152771","category":"35","category_name":"长途汽车站","address":"上海市徐汇区石龙路666号"},{"poiid":"B2094757D068A2F5449E","title":"酷圣石 上海南站店 Cold Stone Creamery","lon":"121.434433054","lat":"31.153030793","category":"67","category_name":"甜品店","address":"徐汇区沪闵路9001-3号盛泰购物中心南商场1-B14号铺(近上海南站)"},{"poiid":"B2094757D465A7F5419A","title":"巴贝拉 上海南站店 Babela's Kitchen","lon":"121.434433054","lat":"31.153030793","category":"247","category_name":"餐饮美食","address":"石龙路750-3号银泰购物中心南2-A17近龙川北路"},{"poiid":"B2094757D76AA6FD429A","title":"欧凯萨铁板烧","lon":"121.43377685547","lat":"31.151927947998","category":"269","category_name":"烧烤","address":"徐汇区沪闵路9001-3号银泰购物中心南商场2-A10号商铺(近上海南站)"},{"poiid":"B2094757D06AA1FE419C","title":"罗城路700弄","lon":"121.435179617","lat":"31.1499577837","category":"500","category_name":"未知分类","address":"上海罗城路700弄"},{"poiid":"B2094757D464ABF84393","title":"吉野家 上海南站店","lon":"121.434433054","lat":"31.153019793","category":"95","category_name":"日本料理","address":"徐汇区沪闵路9001-3号银泰购物中心南商场内(近上海南站)"},{"poiid":"B2094757DB68AAF9499B","title":"小杨生煎(南站店)","lon":"121.43025093127449","lat":"31.15485663026557","category":"257","category_name":"中餐厅","address":"徐汇区沪闵路9001-3号上海南站北广场B1楼"},{"poiid":"B2094757D06AA6F8429F","title":"徐汇区科技幼儿园","lon":"121.428773586","lat":"31.1493918514","category":"57","category_name":"幼儿园","address":"徐汇区嘉陵路28号"},{"poiid":"B2094654DB6CA1F44399","title":"上海市西南模范中学","lon":"121.43412","lat":"31.14635","category":"55","category_name":"中学","address":"上海徐汇区百色路汇成一村67号"},{"poiid":"B2094757D06FA5FB4893","title":"85度C(南馆店)","lon":"121.43178","lat":"31.15075","category":"67","category_name":"甜品店","address":"徐汇区石龙路750号上海南站地下商场南馆B1楼B区1-B3"},{"poiid":"B2094655D26FA3F9469D","title":"上海南站南广场(B1东南进站口)","lon":"121.43043","lat":"31.15282","category":"22","category_name":"火车站","address":""},{"poiid":"B2094757D464ABF94498","title":"棒约翰比萨 上海南站店 Papa John's Pizza","lon":"121.434433054","lat":"31.153030793","category":"94","category_name":"西餐厅","address":"徐汇区石龙路750-3号银泰购物中心南2-A8号(近上海南站)"},{"poiid":"B2094757D168A1F54893","title":"华东理工大学东门","lon":"121.43288958","lat":"31.15085588","category":"500","category_name":"未知分类","address":"上海市徐汇区老沪闵路"},{"poiid":"B2094654DB69A5F5459A","title":"格林豪泰酒店(南站店)","lon":"121.42987","lat":"31.14758","category":"216","category_name":"经济型连锁酒店","address":"徐汇区石龙路987号(近上海南站)"},{"poiid":"B2094757D465A6FA489A","title":"天香麻辣工坊","lon":"121.434433054","lat":"31.153030793","category":"247","category_name":"餐饮美食","address":"徐汇区沪闵路9001-3号银泰购物中心南商场B1楼(近上海南站)"},{"poiid":"B2094654DA65A6FD4499","title":"海之杰大酒店","lon":"121.43341","lat":"31.15207","category":"250","category_name":"公园户外","address":"徐汇区石龙路728号(近上海南站)"},{"poiid":"B2094757D065A7F44398","title":"DQ冰雪皇后(南站二店)","lon":"121.43157","lat":"31.1529","category":"113","category_name":"冷饮店","address":"徐汇区上海南站站厅层C-105号"},{"poiid":"B2094757D16FA2F5499A","title":"新疆喀什烤肉王","lon":"121.438118586","lat":"31.1503038692","category":"90","category_name":"清真餐馆","address":"徐汇区罗城路403号(近龙川路)"},{"poiid":"B2094757D66DA1FC469F","title":"伊娃烘焙坊","lon":"121.433611586","lat":"31.1527439168","category":"112","category_name":"糕饼店","address":"徐汇区石龙路666号"},{"poiid":"B2094757D069A1F54499","title":"潮汕粥道","lon":"121.43175","lat":"31.14925","category":"68","category_name":"快餐厅","address":"徐汇区石龙路855号2楼"},{"poiid":"B2094757D168A0F8439F","title":"85度C(南站北广场店)","lon":"121.4325","lat":"31.152","category":"112","category_name":"糕饼店","address":"徐汇区地铁一号线上海南站地下商场北馆B1楼C区1-C2-3号(近石龙路)"},{"poiid":"B2094757D665A3FC499B","title":"阿东麻辣烫","lon":"121.4311","lat":"31.1496","category":"68","category_name":"快餐厅","address":"徐汇区石龙路844号(近上海南站)"},{"poiid":"B2094757D16AABFB4199","title":"龙腾大道","lon":"121.43878058","lat":"31.150743877","category":"500","category_name":"未知分类","address":"上海市徐汇区龙腾大道"},{"poiid":"B2094454D268A7FD459A","title":"龙猫咖啡1号店","lon":"121.439781","lat":"31.151071","category":"247","category_name":"餐饮美食","address":"上海市 上海市石龙路581号"},{"poiid":"B2094654DA65A6FD449A","title":"上海南站(南门)","lon":"121.43005","lat":"31.1526","category":"22","category_name":"火车站","address":""},{"poiid":"B2094654DB65A6FA429E","title":"上海长途客运南站","lon":"121.43361","lat":"31.15276","category":"35","category_name":"长途汽车站","address":"徐汇区石龙路666号(近柳州路)"},{"poiid":"B2094655D26FA6F9429E","title":"星巴克(上海南站店)","lon":"121.429487","lat":"31.153302","category":"65","category_name":"咖啡厅","address":"徐汇区沪闵路9001-3号盛泰购物中心南商场1-B27号铺(近上海南站)"},{"poiid":"B2094757D06FA1F84399","title":"上海南站候车室","lon":"121.43352508","lat":"31.152164459","category":"22","category_name":"火车站","address":"上海南站"},{"poiid":"B2094757D06AA5F54593","title":"三号线上海南站站","lon":"121.432209286","lat":"31.1515143928","category":"500","category_name":"未知分类","address":"上海南站南广场"},{"poiid":"B2094757D06EAAFE409E","title":"上海南站地铁站","lon":"121.430219","lat":"31.154675","category":"36","category_name":"地铁站","address":"上海轨道交通 一号线 三号线 轨交上海南站站 轻轨 1 3"},{"poiid":"B2094757D06FA6FE459E","title":"盛泰时尚购物中心(原银泰)","lon":"121.430518","lat":"31.152855","category":"119","category_name":"商场","address":"徐汇区老沪闵路289号上海南站下沉式广场南广场/北广场"},{"poiid":"B2094757D469A0FB429C","title":"肯德基 上海南站店 KFC","lon":"121.434433054","lat":"31.153030793","category":"68","category_name":"快餐厅","address":"石龙路750-3号银泰购物中心南2-A1近龙川北路"},{"poiid":"B2094655D26EABFA479D","title":"上海航空酒店","lon":"121.43123","lat":"31.14832","category":"214","category_name":"四星级宾馆","address":"上海市徐汇区石龙路951号(近老沪闵路)"},{"poiid":"B2094757D06FA0FA459B","title":"麦当劳(上海南站一店)","lon":"121.43123","lat":"31.15208","category":"68","category_name":"快餐厅","address":"徐汇区石龙路750-3号银泰购物中心南2-A21(近上海南站)  "},{"poiid":"B2094757D568A0FF449F","title":"上海南站南北广场","lon":"121.4294872","lat":"31.15330222","category":"22","category_name":"火车站","address":"老沪闵路289号"},{"poiid":"B2094757D06FA7FA429F","title":"金牛苑","lon":"121.43311","lat":"31.150234","category":"47","category_name":"住宅区","address":"金牛苑位于徐汇老沪闵路420弄"},{"poiid":"B2094757D06FA5F44492","title":"呷哺呷哺 徐汇盛泰店","lon":"121.43451","lat":"31.153133","category":"86","category_name":"火锅店","address":"徐汇区石龙路750号-3号地B2楼A区2-A5号商铺(近石龙路)"},{"poiid":"B2094757D06FA0F5469A","title":"上海南站银泰百货","lon":"121.43099427","lat":"31.152147088","category":"119","category_name":"商场","address":"上海南站"},{"poiid":"B2094757D06FA4FC4092","title":"老妈米线(上海南站店)","lon":"121.43118","lat":"31.15151","category":"86","category_name":"火锅店","address":"徐汇区石龙路750号银泰购物中心南广场B2楼(近上海南站)  "},{"poiid":"B2094757D06AA7F94292","title":"德林酸菜鱼(罗城路店)","lon":"121.435704","lat":"31.152392","category":"86","category_name":"火锅店","address":"上海市徐汇区罗城路429号"},{"poiid":"B2094757D068A6FC4393","title":"味千拉面(上海南站店)","lon":"121.43151","lat":"31.15191","category":"95","category_name":"日本料理","address":"徐汇区沪闵路9001-3号银泰购物中心南商场2-A6号(近上海南站)"},{"poiid":"B2094757D06BA3FC4592","title":"桔子摄影","lon":"121.43903099","lat":"31.154246876","category":"500","category_name":"未知分类","address":"上海市徐汇区石龙路411弄18号3楼"},{"poiid":"B2094757D169AAFA4199","title":"龙川北路罗城路","lon":"121.43387658","lat":"31.149576855","category":"500","category_name":"未知分类","address":"上海龙川北路罗城路"},{"poiid":"B2094750D06CA1FD429C","title":"新石器烤肉","lon":"121.43589","lat":"31.15396","category":"68","category_name":"快餐厅","address":"徐汇区石龙路750号上海南站地下商场南馆B2楼A区南2-A16铺"},{"poiid":"B2094757D464A4F9499D","title":"禾绿回转寿司 上海南站店","lon":"121.434433054","lat":"31.153030793","category":"95","category_name":"日本料理","address":"徐汇区沪闵路9001-3号银泰购物中心南商场2-A15号铺(近上海南站)"},{"poiid":"B2094750DA6AA4FB4998","title":"上海南站金山铁路达到出发处","lon":"121.428573","lat":"31.151111","category":"251","category_name":"出行住宿","address":null},{"poiid":"B2094654DB6CA1F4489D","title":"豪享来上海沪闵店","lon":"121.429","lat":"31.149","category":"247","category_name":"餐饮美食","address":"上海市徐汇区老沪闵路660号"},{"poiid":"B2094757D66BA6FD4892","title":"鼎中鼎澳门豆捞 石龙路店","lon":"121.433741054","lat":"31.151547793","category":"86","category_name":"火锅店","address":"徐汇区石龙路853-859号(近上海南站)"},{"poiid":"B2094654DB64A2F94793","title":"华东花苑","lon":"121.43641","lat":"31.149044","category":"47","category_name":"住宅区","address":"地铁明珠苑位于闵行莘建东路198弄"},{"poiid":"B2094655D26FA6FA4993","title":"莫泰168上海南站店","lon":"121.43196","lat":"31.14934","category":"216","category_name":"经济型连锁酒店","address":"上海市徐汇区石龙路839号（火车南站南广场的对面）"},{"poiid":"B2094757D06BA6FC4298","title":"上海汽车南站","lon":"121.43401","lat":"31.152771","category":"35","category_name":"长途汽车站","address":"上海市徐汇区石龙路666号"},{"poiid":"B2094757D068A2F5449E","title":"酷圣石 上海南站店 Cold Stone Creamery","lon":"121.434433054","lat":"31.153030793","category":"67","category_name":"甜品店","address":"徐汇区沪闵路9001-3号盛泰购物中心南商场1-B14号铺(近上海南站)"},{"poiid":"B2094757D465A7F5419A","title":"巴贝拉 上海南站店 Babela's Kitchen","lon":"121.434433054","lat":"31.153030793","category":"247","category_name":"餐饮美食","address":"石龙路750-3号银泰购物中心南2-A17近龙川北路"},{"poiid":"B2094757D76AA6FD429A","title":"欧凯萨铁板烧","lon":"121.43377685547","lat":"31.151927947998","category":"269","category_name":"烧烤","address":"徐汇区沪闵路9001-3号银泰购物中心南商场2-A10号商铺(近上海南站)"},{"poiid":"B2094757D06AA1FE419C","title":"罗城路700弄","lon":"121.435179617","lat":"31.1499577837","category":"500","category_name":"未知分类","address":"上海罗城路700弄"},{"poiid":"B2094757D464ABF84393","title":"吉野家 上海南站店","lon":"121.434433054","lat":"31.153019793","category":"95","category_name":"日本料理","address":"徐汇区沪闵路9001-3号银泰购物中心南商场内(近上海南站)"},{"poiid":"B2094757DB68AAF9499B","title":"小杨生煎(南站店)","lon":"121.43025093127449","lat":"31.15485663026557","category":"257","category_name":"中餐厅","address":"徐汇区沪闵路9001-3号上海南站北广场B1楼"},{"poiid":"B2094757D06AA6F8429F","title":"徐汇区科技幼儿园","lon":"121.428773586","lat":"31.1493918514","category":"57","category_name":"幼儿园","address":"徐汇区嘉陵路28号"},{"poiid":"B2094654DB6CA1F44399","title":"上海市西南模范中学","lon":"121.43412","lat":"31.14635","category":"55","category_name":"中学","address":"上海徐汇区百色路汇成一村67号"},{"poiid":"B2094757D06FA5FB4893","title":"85度C(南馆店)","lon":"121.43178","lat":"31.15075","category":"67","category_name":"甜品店","address":"徐汇区石龙路750号上海南站地下商场南馆B1楼B区1-B3"},{"poiid":"B2094655D26FA3F9469D","title":"上海南站南广场(B1东南进站口)","lon":"121.43043","lat":"31.15282","category":"22","category_name":"火车站","address":""},{"poiid":"B2094757D464ABF94498","title":"棒约翰比萨 上海南站店 Papa John's Pizza","lon":"121.434433054","lat":"31.153030793","category":"94","category_name":"西餐厅","address":"徐汇区石龙路750-3号银泰购物中心南2-A8号(近上海南站)"},{"poiid":"B2094757D168A1F54893","title":"华东理工大学东门","lon":"121.43288958","lat":"31.15085588","category":"500","category_name":"未知分类","address":"上海市徐汇区老沪闵路"},{"poiid":"B2094654DB69A5F5459A","title":"格林豪泰酒店(南站店)","lon":"121.42987","lat":"31.14758","category":"216","category_name":"经济型连锁酒店","address":"徐汇区石龙路987号(近上海南站)"},{"poiid":"B2094757D465A6FA489A","title":"天香麻辣工坊","lon":"121.434433054","lat":"31.153030793","category":"247","category_name":"餐饮美食","address":"徐汇区沪闵路9001-3号银泰购物中心南商场B1楼(近上海南站)"},{"poiid":"B2094654DA65A6FD4499","title":"海之杰大酒店","lon":"121.43341","lat":"31.15207","category":"250","category_name":"公园户外","address":"徐汇区石龙路728号(近上海南站)"},{"poiid":"B2094757D065A7F44398","title":"DQ冰雪皇后(南站二店)","lon":"121.43157","lat":"31.1529","category":"113","category_name":"冷饮店","address":"徐汇区上海南站站厅层C-105号"},{"poiid":"B2094757D16FA2F5499A","title":"新疆喀什烤肉王","lon":"121.438118586","lat":"31.1503038692","category":"90","category_name":"清真餐馆","address":"徐汇区罗城路403号(近龙川路)"},{"poiid":"B2094757D66DA1FC469F","title":"伊娃烘焙坊","lon":"121.433611586","lat":"31.1527439168","category":"112","category_name":"糕饼店","address":"徐汇区石龙路666号"},{"poiid":"B2094757D069A1F54499","title":"潮汕粥道","lon":"121.43175","lat":"31.14925","category":"68","category_name":"快餐厅","address":"徐汇区石龙路855号2楼"},{"poiid":"B2094757D168A0F8439F","title":"85度C(南站北广场店)","lon":"121.4325","lat":"31.152","category":"112","category_name":"糕饼店","address":"徐汇区地铁一号线上海南站地下商场北馆B1楼C区1-C2-3号(近石龙路)"},{"poiid":"B2094757D665A3FC499B","title":"阿东麻辣烫","lon":"121.4311","lat":"31.1496","category":"68","category_name":"快餐厅","address":"徐汇区石龙路844号(近上海南站)"},{"poiid":"B2094757D16AABFB4199","title":"龙腾大道","lon":"121.43878058","lat":"31.150743877","category":"500","category_name":"未知分类","address":"上海市徐汇区龙腾大道"},{"poiid":"B2094454D268A7FD459A","title":"龙猫咖啡1号店","lon":"121.439781","lat":"31.151071","category":"247","category_name":"餐饮美食","address":"上海市 上海市石龙路581号"},{"poiid":"B2094654DA65A6FD449A","title":"上海南站(南门)","lon":"121.43005","lat":"31.1526","category":"22","category_name":"火车站","address":""}]