[{"poiid":"B2094757DA69A3F44592","title":"甲泰餐厅","lon":"121.48598641005","lat":"31.239524260517","category":"99","category_name":"泰国／越南菜品餐厅","address":"黄浦区宁波路51号(近江西中路)"},{"poiid":"B2094757D06FA2F8489D","title":"外滩源","lon":"121.488115","lat":"31.241531","category":"260","category_name":"其他","address":"上海黄浦区中山东一路33号"},{"poiid":"B2094757D06FA2F44099","title":"绿雅酒家","lon":"121.48623","lat":"31.23976","category":"76","category_name":"上海菜","address":"上海黄浦区江西中路372号(近宁波路)  "},{"poiid":"B209475CD564A7F84292","title":"上海滩新天地店","lon":"121.47463","lat":"31.22164","category":"119","category_name":"商场","address":"\"太仓路181弄新天地北里15号\r\n\""},{"poiid":"B209475CD564A7F84392","title":"上海滩浦东香格里拉店","lon":"121.50058","lat":"31.23634","category":"119","category_name":"商场","address":"浦东富成路33号香格里拉酒店内大堂层"},{"poiid":"B2094654DA6FA4F5409B","title":"曼哈顿(外滩)商务酒店","lon":"121.48818","lat":"31.23942","category":"250","category_name":"公园户外","address":"黄浦区滇池路81-85号"},{"poiid":"B2094757DB6CA6FD419A","title":"Cuvve","lon":"121.485513","lat":"31.240501","category":"248","category_name":"生活娱乐","address":"外灘十八號"},{"poiid":"B2094757DB68A5F44399","title":"慧公馆 外滩源店 Maison De L'Hui-waitanyuan","lon":"121.48823","lat":"31.24116","category":"72","category_name":"广东菜","address":"黄浦区圆明园路97号安培大楼3-4楼(近外白渡桥)"},{"poiid":"B2094753D26AA3F94493","title":"THE LITTLE BLACK JACKET摄影展","lon":"121.487498","lat":"31.241128","category":"183","category_name":"展览馆","address":"上海市 虎丘路14号中实大楼 洛克•外滩源"},{"poiid":"B2094654DB6BABFD479B","title":"明堂上海旅行者青年旅舍","lon":"121.48529","lat":"31.24161","category":"218","category_name":"青年旅舍","address":"黄浦区江西中路450号(近北京东路)"},{"poiid":"B2094752D56EA0FF4498","title":"Deli & Leisure","lon":"121.488318","lat":"31.239285","category":"247","category_name":"餐饮美食","address":null},{"poiid":"B2094654DB69A4FE439E","title":"莫泰168连锁旅店(外滩店)","lon":"121.48634","lat":"31.23979","category":"216","category_name":"经济型连锁酒店","address":"上海黄浦区宁波路50号（近江西中路口）"},{"poiid":"B2094757D06FABF5429F","title":"新发记港式茶餐厅","lon":"121.4876","lat":"31.23866","category":"72","category_name":"广东菜","address":"上海黄浦区四川中路417号(近南京东路)"},{"poiid":"B2094750D26EA2FA419A","title":"辉哥火锅圆明园路店","lon":"121.488487","lat":"31.241041","category":"86","category_name":"火锅店","address":"黄浦区圆明园路115号洛克外滩源(近北京东路)"},{"poiid":"B2094654DA6FA4FB4598","title":"申华金融大厦","lon":"121.48691","lat":"31.23962","category":"46","category_name":"楼宇","address":"浦东临港新城主城区申港大道200号"},{"poiid":"B2094757DA6FA3F5499C","title":"金装大家乐茶餐厅(南京东路店)","lon":"121.487614100001","lat":"31.2384557","category":"72","category_name":"广东菜","address":"黄浦区南京东路300号名人购物中心3楼(近苹果南京路旗舰店)"},{"poiid":"B2094757D068A1FD489D","title":"亚洲大厦","lon":"121.485","lat":"31.2397","category":"46","category_name":"楼宇","address":"松江区工业区鼎源路广富林路路口"},{"poiid":"B2094751D364A7FA419F","title":"星巴克外滩店","lon":"121.485804","lat":"31.242252","category":"247","category_name":"餐饮美食","address":"外滩"},{"poiid":"B2094655D264A6FE4299","title":"益丰大厦","lon":"121.48848","lat":"31.24032","category":"46","category_name":"楼宇","address":""},{"poiid":"B2094757D06AA3F4419E","title":"豪享来上海四川中路店","lon":"121.4872","lat":"31.2407","category":"247","category_name":"餐饮美食","address":"上海市黄浦区四川中路470号"},{"poiid":"B209475DD664A4FF439E","title":"Light＆salt","lon":"121.488258","lat":"31.24172","category":"247","category_name":"餐饮美食","address":"上海市 黄浦区圆明园路133号6楼"},{"poiid":"B2094654DA6FA4FF459D","title":"宝龙大酒楼","lon":"121.48596793288","lat":"31.240782833756","category":"72","category_name":"广东菜","address":"黄浦区北京东路230号(近河南中路)"},{"poiid":"B2094654DA6FA0FB469F","title":"汇金大厦","lon":"121.48732391965","lat":"31.240035306526","category":"46","category_name":"楼宇","address":"丰台学城海鹰路1号,3号"},{"poiid":"B2094757D069A0FE4599","title":"三林塘馄饨店","lon":"121.48568504662","lat":"31.240624646304","category":"68","category_name":"快餐厅","address":"黄浦区江西中路416号(北京东路口)"},{"poiid":"B2094654DA6FA0F8429E","title":"中悦大楼","lon":"121.488","lat":"31.2401","category":"46","category_name":"楼宇","address":"上海市杨浦区国泰路11号"},{"poiid":"B2094757D064ABFE4899","title":"中国银行外滩多媒体教室","lon":"121.48706973","lat":"31.23868248","category":"500","category_name":"未知分类","address":"上海滇池路74号540室"},{"poiid":"B2094757D468A6FB4899","title":"85度C 宁波路店","lon":"121.484141054","lat":"31.239500793","category":"112","category_name":"糕饼店","address":"黄浦区河南中路521-3号(宁波路口)"},{"poiid":"B2094757D568A2FB4692","title":"外滩新界","lon":"121.4883339","lat":"31.23850806","category":"47","category_name":"住宅区","address":"黄浦区南京东路61号"},{"poiid":"B2094757D568A5FA4798","title":"锦江之星旅馆(上海外滩滨江店)","lon":"121.486266999998","lat":"31.2424470000003","category":"216","category_name":"经济型连锁酒店","address":"上海市黄浦区四川中路630号(近香港路口)"},{"poiid":"B2094655D36CA5F5419D","title":"北京东路四川中路","lon":"121.48625","lat":"31.24066","category":"38","category_name":"公交车站","address":"上海北京东路四川中路"},{"poiid":"B209475CD46DA4F94199","title":"微热山丘","lon":"121.488395","lat":"31.241212","category":"500","category_name":"未知分类","address":"上海市 园明园路133号"},{"poiid":"B2094750D26FABFE4898","title":"muse1","lon":"121.485687","lat":"31.240003","category":"500","category_name":"未知分类","address":"北京东路圆明圆路"},{"poiid":"B2094753D16DA1FA4492","title":"外滩和平饭店","lon":"121.486209","lat":"31.240235","category":"247","category_name":"餐饮美食","address":"上海市 外滩和平饭店"},{"poiid":"B2094654DA6FA4F4419A","title":"浦光中学","lon":"121.4862","lat":"31.24195","category":"55","category_name":"中学","address":"上海黄浦区四川中路599号(近河南拉面馆)"},{"poiid":"B2094757D16DA3FA469C","title":"大块头面菜馆","lon":"121.485606738","lat":"31.2383654735","category":"68","category_name":"快餐厅","address":"黄浦区宁波路190号(近河南中路)"},{"poiid":"B2094655D26FA6FB4898","title":"美伦大楼","lon":"121.48694","lat":"31.23808","category":"46","category_name":"楼宇","address":"昌平区回龙观镇国际信息产业基地高新二街"},{"poiid":"B2094654DB69A6FE4693","title":"滇池大楼","lon":"121.48584","lat":"31.24007","category":"46","category_name":"楼宇","address":"昌平区回龙观镇国际信息产业基地高新二街"},{"poiid":"B2094654DA6FA4FF449A","title":"宁波小区","lon":"121.48452","lat":"31.239851","category":"47","category_name":"住宅区","address":"上海宁波路120号"},{"poiid":"B2094757D66BA0FA459D","title":"上味馆南翔小笼 四川中路店","lon":"121.48675","lat":"31.24045","category":"247","category_name":"餐饮美食","address":"黄浦区四川中路504号(近北京东路)"},{"poiid":"B2094757D06AA7F5469B","title":"外滩街道社区事务受理服务中心","lon":"121.484199","lat":"31.240043","category":"252","category_name":"楼宇机构","address":"上海河南中路568号"},{"poiid":"B2094757D068A7FB4998","title":"协进大楼","lon":"121.488130726","lat":"31.2416575359","category":"260","category_name":"其他","address":"上海圆明园路169号 近北京东路"},{"poiid":"B2094655D26BA7FE429E","title":"中实大楼","lon":"121.48753","lat":"31.24073","category":"46","category_name":"楼宇","address":"北京东路130号"},{"poiid":"B2094655D268ABFE4098","title":"中央商场","lon":"121.4876","lat":"31.23832","category":"119","category_name":"商场","address":"黄浦区南京东路119号B楼1室(南京东路四川中路)"},{"poiid":"B2094757D469A7FC4693","title":"田仓米粉 四川中路店","lon":"121.487229054","lat":"31.239221793","category":"68","category_name":"快餐厅","address":"黄浦区四川中路429号(近南京东路)"},{"poiid":"B2094757D16FAAFF489D","title":"滇池路","lon":"121.488587738","lat":"31.2387532817","category":"500","category_name":"未知分类","address":"上海56号"},{"poiid":"B2094654DA6FA4F44293","title":"中国工商银行上海市黄浦支行","lon":"121.48806","lat":"31.23813","category":"150","category_name":"银行","address":"黄浦区南京东路99号四川中路口(南京东路四川中路)"},{"poiid":"B2094655D26BA2FB4993","title":"四川中路香港路","lon":"121.48635","lat":"31.24187","category":"38","category_name":"公交车站","address":"上海市闸北区北苏州路"},{"poiid":"B2094757D16BABF9449A","title":"江西中路","lon":"121.48410263","lat":"31.239679301","category":"500","category_name":"未知分类","address":"上海江西中路"},{"poiid":"B2094655D36CA0F8499E","title":"江西中路北京东路","lon":"121.48574","lat":"31.24011","category":"38","category_name":"公交车站","address":""},{"poiid":"B2094654DA6FA4F4479F","title":"工联大厦","lon":"121.48802","lat":"31.23879","category":"46","category_name":"楼宇","address":"上海市长宁区延安西路889号"},{"poiid":"B2094757DA69A3F44592","title":"甲泰餐厅","lon":"121.48598641005","lat":"31.239524260517","category":"99","category_name":"泰国／越南菜品餐厅","address":"黄浦区宁波路51号(近江西中路)"},{"poiid":"B2094757D06FA2F8489D","title":"外滩源","lon":"121.488115","lat":"31.241531","category":"260","category_name":"其他","address":"上海黄浦区中山东一路33号"},{"poiid":"B2094757D06FA2F44099","title":"绿雅酒家","lon":"121.48623","lat":"31.23976","category":"76","category_name":"上海菜","address":"上海黄浦区江西中路372号(近宁波路)  "},{"poiid":"B209475CD564A7F84292","title":"上海滩新天地店","lon":"121.47463","lat":"31.22164","category":"119","category_name":"商场","address":"\"太仓路181弄新天地北里15号\r\n\""},{"poiid":"B209475CD564A7F84392","title":"上海滩浦东香格里拉店","lon":"121.50058","lat":"31.23634","category":"119","category_name":"商场","address":"浦东富成路33号香格里拉酒店内大堂层"},{"poiid":"B2094654DA6FA4F5409B","title":"曼哈顿(外滩)商务酒店","lon":"121.48818","lat":"31.23942","category":"250","category_name":"公园户外","address":"黄浦区滇池路81-85号"},{"poiid":"B2094757DB6CA6FD419A","title":"Cuvve","lon":"121.485513","lat":"31.240501","category":"248","category_name":"生活娱乐","address":"外灘十八號"},{"poiid":"B2094757DB68A5F44399","title":"慧公馆 外滩源店 Maison De L'Hui-waitanyuan","lon":"121.48823","lat":"31.24116","category":"72","category_name":"广东菜","address":"黄浦区圆明园路97号安培大楼3-4楼(近外白渡桥)"},{"poiid":"B2094753D26AA3F94493","title":"THE LITTLE BLACK JACKET摄影展","lon":"121.487498","lat":"31.241128","category":"183","category_name":"展览馆","address":"上海市 虎丘路14号中实大楼 洛克•外滩源"},{"poiid":"B2094654DB6BABFD479B","title":"明堂上海旅行者青年旅舍","lon":"121.48529","lat":"31.24161","category":"218","category_name":"青年旅舍","address":"黄浦区江西中路450号(近北京东路)"},{"poiid":"B2094752D56EA0FF4498","title":"Deli & Leisure","lon":"121.488318","lat":"31.239285","category":"247","category_name":"餐饮美食","address":null},{"poiid":"B2094654DB69A4FE439E","title":"莫泰168连锁旅店(外滩店)","lon":"121.48634","lat":"31.23979","category":"216","category_name":"经济型连锁酒店","address":"上海黄浦区宁波路50号（近江西中路口）"},{"poiid":"B2094757D06FABF5429F","title":"新发记港式茶餐厅","lon":"121.4876","lat":"31.23866","category":"72","category_name":"广东菜","address":"上海黄浦区四川中路417号(近南京东路)"},{"poiid":"B2094750D26EA2FA419A","title":"辉哥火锅圆明园路店","lon":"121.488487","lat":"31.241041","category":"86","category_name":"火锅店","address":"黄浦区圆明园路115号洛克外滩源(近北京东路)"},{"poiid":"B2094654DA6FA4FB4598","title":"申华金融大厦","lon":"121.48691","lat":"31.23962","category":"46","category_name":"楼宇","address":"浦东临港新城主城区申港大道200号"},{"poiid":"B2094757DA6FA3F5499C","title":"金装大家乐茶餐厅(南京东路店)","lon":"121.487614100001","lat":"31.2384557","category":"72","category_name":"广东菜","address":"黄浦区南京东路300号名人购物中心3楼(近苹果南京路旗舰店)"},{"poiid":"B2094757D068A1FD489D","title":"亚洲大厦","lon":"121.485","lat":"31.2397","category":"46","category_name":"楼宇","address":"松江区工业区鼎源路广富林路路口"},{"poiid":"B2094751D364A7FA419F","title":"星巴克外滩店","lon":"121.485804","lat":"31.242252","category":"247","category_name":"餐饮美食","address":"外滩"},{"poiid":"B2094655D264A6FE4299","title":"益丰大厦","lon":"121.48848","lat":"31.24032","category":"46","category_name":"楼宇","address":""},{"poiid":"B2094757D06AA3F4419E","title":"豪享来上海四川中路店","lon":"121.4872","lat":"31.2407","category":"247","category_name":"餐饮美食","address":"上海市黄浦区四川中路470号"},{"poiid":"B209475DD664A4FF439E","title":"Light＆salt","lon":"121.488258","lat":"31.24172","category":"247","category_name":"餐饮美食","address":"上海市 黄浦区圆明园路133号6楼"},{"poiid":"B2094654DA6FA4FF459D","title":"宝龙大酒楼","lon":"121.48596793288","lat":"31.240782833756","category":"72","category_name":"广东菜","address":"黄浦区北京东路230号(近河南中路)"},{"poiid":"B2094654DA6FA0FB469F","title":"汇金大厦","lon":"121.48732391965","lat":"31.240035306526","category":"46","category_name":"楼宇","address":"丰台学城海鹰路1号,3号"},{"poiid":"B2094757D069A0FE4599","title":"三林塘馄饨店","lon":"121.48568504662","lat":"31.240624646304","category":"68","category_name":"快餐厅","address":"黄浦区江西中路416号(北京东路口)"},{"poiid":"B2094654DA6FA0F8429E","title":"中悦大楼","lon":"121.488","lat":"31.2401","category":"46","category_name":"楼宇","address":"上海市杨浦区国泰路11号"},{"poiid":"B2094757D064ABFE4899","title":"中国银行外滩多媒体教室","lon":"121.48706973","lat":"31.23868248","category":"500","category_name":"未知分类","address":"上海滇池路74号540室"},{"poiid":"B2094757D468A6FB4899","title":"85度C 宁波路店","lon":"121.484141054","lat":"31.239500793","category":"112","category_name":"糕饼店","address":"黄浦区河南中路521-3号(宁波路口)"},{"poiid":"B2094757D568A2FB4692","title":"外滩新界","lon":"121.4883339","lat":"31.23850806","category":"47","category_name":"住宅区","address":"黄浦区南京东路61号"},{"poiid":"B2094757D568A5FA4798","title":"锦江之星旅馆(上海外滩滨江店)","lon":"121.486266999998","lat":"31.2424470000003","category":"216","category_name":"经济型连锁酒店","address":"上海市黄浦区四川中路630号(近香港路口)"},{"poiid":"B2094655D36CA5F5419D","title":"北京东路四川中路","lon":"121.48625","lat":"31.24066","category":"38","category_name":"公交车站","address":"上海北京东路四川中路"},{"poiid":"B209475CD46DA4F94199","title":"微热山丘","lon":"121.488395","lat":"31.241212","category":"500","category_name":"未知分类","address":"上海市 园明园路133号"},{"poiid":"B2094750D26FABFE4898","title":"muse1","lon":"121.485687","lat":"31.240003","category":"500","category_name":"未知分类","address":"北京东路圆明圆路"},{"poiid":"B2094753D16DA1FA4492","title":"外滩和平饭店","lon":"121.486209","lat":"31.240235","category":"247","category_name":"餐饮美食","address":"上海市 外滩和平饭店"},{"poiid":"B2094654DA6FA4F4419A","title":"浦光中学","lon":"121.4862","lat":"31.24195","category":"55","category_name":"中学","address":"上海黄浦区四川中路599号(近河南拉面馆)"},{"poiid":"B2094757D16DA3FA469C","title":"大块头面菜馆","lon":"121.485606738","lat":"31.2383654735","category":"68","category_name":"快餐厅","address":"黄浦区宁波路190号(近河南中路)"},{"poiid":"B2094655D26FA6FB4898","title":"美伦大楼","lon":"121.48694","lat":"31.23808","category":"46","category_name":"楼宇","address":"昌平区回龙观镇国际信息产业基地高新二街"},{"poiid":"B2094654DB69A6FE4693","title":"滇池大楼","lon":"121.48584","lat":"31.24007","category":"46","category_name":"楼宇","address":"昌平区回龙观镇国际信息产业基地高新二街"},{"poiid":"B2094654DA6FA4FF449A","title":"宁波小区","lon":"121.48452","lat":"31.239851","category":"47","category_name":"住宅区","address":"上海宁波路120号"},{"poiid":"B2094757D66BA0FA459D","title":"上味馆南翔小笼 四川中路店","lon":"121.48675","lat":"31.24045","category":"247","category_name":"餐饮美食","address":"黄浦区四川中路504号(近北京东路)"},{"poiid":"B2094757D06AA7F5469B","title":"外滩街道社区事务受理服务中心","lon":"121.484199","lat":"31.240043","category":"252","category_name":"楼宇机构","address":"上海河南中路568号"},{"poiid":"B2094757D068A7FB4998","title":"协进大楼","lon":"121.488130726","lat":"31.2416575359","category":"260","category_name":"其他","address":"上海圆明园路169号 近北京东路"},{"poiid":"B2094655D26BA7FE429E","title":"中实大楼","lon":"121.48753","lat":"31.24073","category":"46","category_name":"楼宇","address":"北京东路130号"},{"poiid":"B2094655D268ABFE4098","title":"中央商场","lon":"121.4876","lat":"31.23832","category":"119","category_name":"商场","address":"黄浦区南京东路119号B楼1室(南京东路四川中路)"},{"poiid":"B2094757D469A7FC4693","title":"田仓米粉 四川中路店","lon":"121.487229054","lat":"31.239221793","category":"68","category_name":"快餐厅","address":"黄浦区四川中路429号(近南京东路)"},{"poiid":"B2094757D16FAAFF489D","title":"滇池路","lon":"121.488587738","lat":"31.2387532817","category":"500","category_name":"未知分类","address":"上海56号"},{"poiid":"B2094654DA6FA4F44293","title":"中国工商银行上海市黄浦支行","lon":"121.48806","lat":"31.23813","category":"150","category_name":"银行","address":"黄浦区南京东路99号四川中路口(南京东路四川中路)"},{"poiid":"B2094655D26BA2FB4993","title":"四川中路香港路","lon":"121.48635","lat":"31.24187","category":"38","category_name":"公交车站","address":"上海市闸北区北苏州路"},{"poiid":"B2094757D16BABF9449A","title":"江西中路","lon":"121.48410263","lat":"31.239679301","category":"500","category_name":"未知分类","address":"上海江西中路"},{"poiid":"B2094655D36CA0F8499E","title":"江西中路北京东路","lon":"121.48574","lat":"31.24011","category":"38","category_name":"公交车站","address":""},{"poiid":"B2094654DA6FA4F4479F","title":"工联大厦","lon":"121.48802","lat":"31.23879","category":"46","category_name":"楼宇","address":"上海市长宁区延安西路889号"},{"poiid":"B2094757DA69A3F44592","title":"甲泰餐厅","lon":"121.48598641005","lat":"31.239524260517","category":"99","category_name":"泰国／越南菜品餐厅","address":"黄浦区宁波路51号(近江西中路)"},{"poiid":"B2094757D06FA2F8489D","title":"外滩源","lon":"121.488115","lat":"31.241531","category":"260","category_name":"其他","address":"上海黄浦区中山东一路33号"},{"poiid":"B2094757D06FA2F44099","title":"绿雅酒家","lon":"121.48623","lat":"31.23976","category":"76","category_name":"上海菜","address":"上海黄浦区江西中路372号(近宁波路)  "},{"poiid":"B209475CD564A7F84292","title":"上海滩新天地店","lon":"121.47463","lat":"31.22164","category":"119","category_name":"商场","address":"\"太仓路181弄新天地北里15号\r\n\""},{"poiid":"B209475CD564A7F84392","title":"上海滩浦东香格里拉店","lon":"121.50058","lat":"31.23634","category":"119","category_name":"商场","address":"浦东富成路33号香格里拉酒店内大堂层"},{"poiid":"B2094654DA6FA4F5409B","title":"曼哈顿(外滩)商务酒店","lon":"121.48818","lat":"31.23942","category":"250","category_name":"公园户外","address":"黄浦区滇池路81-85号"},{"poiid":"B2094757DB6CA6FD419A","title":"Cuvve","lon":"121.485513","lat":"31.240501","category":"248","category_name":"生活娱乐","address":"外灘十八號"},{"poiid":"B2094757DB68A5F44399","title":"慧公馆 外滩源店 Maison De L'Hui-waitanyuan","lon":"121.48823","lat":"31.24116","category":"72","category_name":"广东菜","address":"黄浦区圆明园路97号安培大楼3-4楼(近外白渡桥)"},{"poiid":"B2094753D26AA3F94493","title":"THE LITTLE BLACK JACKET摄影展","lon":"121.487498","lat":"31.241128","category":"183","category_name":"展览馆","address":"上海市 虎丘路14号中实大楼 洛克•外滩源"},{"poiid":"B2094654DB6BABFD479B","title":"明堂上海旅行者青年旅舍","lon":"121.48529","lat":"31.24161","category":"218","category_name":"青年旅舍","address":"黄浦区江西中路450号(近北京东路)"},{"poiid":"B2094752D56EA0FF4498","title":"Deli & Leisure","lon":"121.488318","lat":"31.239285","category":"247","category_name":"餐饮美食","address":null},{"poiid":"B2094654DB69A4FE439E","title":"莫泰168连锁旅店(外滩店)","lon":"121.48634","lat":"31.23979","category":"216","category_name":"经济型连锁酒店","address":"上海黄浦区宁波路50号（近江西中路口）"},{"poiid":"B2094757D06FABF5429F","title":"新发记港式茶餐厅","lon":"121.4876","lat":"31.23866","category":"72","category_name":"广东菜","address":"上海黄浦区四川中路417号(近南京东路)"},{"poiid":"B2094750D26EA2FA419A","title":"辉哥火锅圆明园路店","lon":"121.488487","lat":"31.241041","category":"86","category_name":"火锅店","address":"黄浦区圆明园路115号洛克外滩源(近北京东路)"},{"poiid":"B2094654DA6FA4FB4598","title":"申华金融大厦","lon":"121.48691","lat":"31.23962","category":"46","category_name":"楼宇","address":"浦东临港新城主城区申港大道200号"},{"poiid":"B2094757DA6FA3F5499C","title":"金装大家乐茶餐厅(南京东路店)","lon":"121.487614100001","lat":"31.2384557","category":"72","category_name":"广东菜","address":"黄浦区南京东路300号名人购物中心3楼(近苹果南京路旗舰店)"},{"poiid":"B2094757D068A1FD489D","title":"亚洲大厦","lon":"121.485","lat":"31.2397","category":"46","category_name":"楼宇","address":"松江区工业区鼎源路广富林路路口"},{"poiid":"B2094751D364A7FA419F","title":"星巴克外滩店","lon":"121.485804","lat":"31.242252","category":"247","category_name":"餐饮美食","address":"外滩"},{"poiid":"B2094655D264A6FE4299","title":"益丰大厦","lon":"121.48848","lat":"31.24032","category":"46","category_name":"楼宇","address":""},{"poiid":"B2094757D06AA3F4419E","title":"豪享来上海四川中路店","lon":"121.4872","lat":"31.2407","category":"247","category_name":"餐饮美食","address":"上海市黄浦区四川中路470号"},{"poiid":"B209475DD664A4FF439E","title":"Light＆salt","lon":"121.488258","lat":"31.24172","category":"247","category_name":"餐饮美食","address":"上海市 黄浦区圆明园路133号6楼"},{"poiid":"B2094654DA6FA4FF459D","title":"宝龙大酒楼","lon":"121.48596793288","lat":"31.240782833756","category":"72","category_name":"广东菜","address":"黄浦区北京东路230号(近河南中路)"},{"poiid":"B2094654DA6FA0FB469F","title":"汇金大厦","lon":"121.48732391965","lat":"31.240035306526","category":"46","category_name":"楼宇","address":"丰台学城海鹰路1号,3号"},{"poiid":"B2094757D069A0FE4599","title":"三林塘馄饨店","lon":"121.48568504662","lat":"31.240624646304","category":"68","category_name":"快餐厅","address":"黄浦区江西中路416号(北京东路口)"},{"poiid":"B2094654DA6FA0F8429E","title":"中悦大楼","lon":"121.488","lat":"31.2401","category":"46","category_name":"楼宇","address":"上海市杨浦区国泰路11号"},{"poiid":"B2094757D064ABFE4899","title":"中国银行外滩多媒体教室","lon":"121.48706973","lat":"31.23868248","category":"500","category_name":"未知分类","address":"上海滇池路74号540室"},{"poiid":"B2094757D468A6FB4899","title":"85度C 宁波路店","lon":"121.484141054","lat":"31.239500793","category":"112","category_name":"糕饼店","address":"黄浦区河南中路521-3号(宁波路口)"},{"poiid":"B2094757D568A2FB4692","title":"外滩新界","lon":"121.4883339","lat":"31.23850806","category":"47","category_name":"住宅区","address":"黄浦区南京东路61号"},{"poiid":"B2094757D568A5FA4798","title":"锦江之星旅馆(上海外滩滨江店)","lon":"121.486266999998","lat":"31.2424470000003","category":"216","category_name":"经济型连锁酒店","address":"上海市黄浦区四川中路630号(近香港路口)"},{"poiid":"B2094655D36CA5F5419D","title":"北京东路四川中路","lon":"121.48625","lat":"31.24066","category":"38","category_name":"公交车站","address":"上海北京东路四川中路"},{"poiid":"B209475CD46DA4F94199","title":"微热山丘","lon":"121.488395","lat":"31.241212","category":"500","category_name":"未知分类","address":"上海市 园明园路133号"},{"poiid":"B2094750D26FABFE4898","title":"muse1","lon":"121.485687","lat":"31.240003","category":"500","category_name":"未知分类","address":"北京东路圆明圆路"},{"poiid":"B2094753D16DA1FA4492","title":"外滩和平饭店","lon":"121.486209","lat":"31.240235","category":"247","category_name":"餐饮美食","address":"上海市 外滩和平饭店"},{"poiid":"B2094654DA6FA4F4419A","title":"浦光中学","lon":"121.4862","lat":"31.24195","category":"55","category_name":"中学","address":"上海黄浦区四川中路599号(近河南拉面馆)"},{"poiid":"B2094757D16DA3FA469C","title":"大块头面菜馆","lon":"121.485606738","lat":"31.2383654735","category":"68","category_name":"快餐厅","address":"黄浦区宁波路190号(近河南中路)"},{"poiid":"B2094655D26FA6FB4898","title":"美伦大楼","lon":"121.48694","lat":"31.23808","category":"46","category_name":"楼宇","address":"昌平区回龙观镇国际信息产业基地高新二街"},{"poiid":"B2094654DB69A6FE4693","title":"滇池大楼","lon":"121.48584","lat":"31.24007","category":"46","category_name":"楼宇","address":"昌平区回龙观镇国际信息产业基地高新二街"},{"poiid":"B2094654DA6FA4FF449A","title":"宁波小区","lon":"121.48452","lat":"31.239851","category":"47","category_name":"住宅区","address":"上海宁波路120号"},{"poiid":"B2094757D66BA0FA459D","title":"上味馆南翔小笼 四川中路店","lon":"121.48675","lat":"31.24045","category":"247","category_name":"餐饮美食","address":"黄浦区四川中路504号(近北京东路)"},{"poiid":"B2094757D06AA7F5469B","title":"外滩街道社区事务受理服务中心","lon":"121.484199","lat":"31.240043","category":"252","category_name":"楼宇机构","address":"上海河南中路568号"},{"poiid":"B2094757D068A7FB4998","title":"协进大楼","lon":"121.488130726","lat":"31.2416575359","category":"260","category_name":"其他","address":"上海圆明园路169号 近北京东路"},{"poiid":"B2094655D26BA7FE429E","title":"中实大楼","lon":"121.48753","lat":"31.24073","category":"46","category_name":"楼宇","address":"北京东路130号"},{"poiid":"B2094655D268ABFE4098","title":"中央商场","lon":"121.4876","lat":"31.23832","category":"119","category_name":"商场","address":"黄浦区南京东路119号B楼1室(南京东路四川中路)"},{"poiid":"B2094757D469A7FC4693","title":"田仓米粉 四川中路店","lon":"121.487229054","lat":"31.239221793","category":"68","category_name":"快餐厅","address":"黄浦区四川中路429号(近南京东路)"},{"poiid":"B2094757D16FAAFF489D","title":"滇池路","lon":"121.488587738","lat":"31.2387532817","category":"500","category_name":"未知分类","address":"上海56号"},{"poiid":"B2094654DA6FA4F44293","title":"中国工商银行上海市黄浦支行","lon":"121.48806","lat":"31.23813","category":"150","category_name":"银行","address":"黄浦区南京东路99号四川中路口(南京东路四川中路)"},{"poiid":"B2094655D26BA2FB4993","title":"四川中路香港路","lon":"121.48635","lat":"31.24187","category":"38","category_name":"公交车站","address":"上海市闸北区北苏州路"},{"poiid":"B2094757D16BABF9449A","title":"江西中路","lon":"121.48410263","lat":"31.239679301","category":"500","category_name":"未知分类","address":"上海江西中路"},{"poiid":"B2094655D36CA0F8499E","title":"江西中路北京东路","lon":"121.48574","lat":"31.24011","category":"38","category_name":"公交车站","address":""},{"poiid":"B2094654DA6FA4F4479F","title":"工联大厦","lon":"121.48802","lat":"31.23879","category":"46","category_name":"楼宇","address":"上海市长宁区延安西路889号"},{"poiid":"B2094757DA69A3F44592","title":"甲泰餐厅","lon":"121.48598641005","lat":"31.239524260517","category":"99","category_name":"泰国／越南菜品餐厅","address":"黄浦区宁波路51号(近江西中路)"},{"poiid":"B2094757D06FA2F8489D","title":"外滩源","lon":"121.488115","lat":"31.241531","category":"260","category_name":"其他","address":"上海黄浦区中山东一路33号"},{"poiid":"B2094757D06FA2F44099","title":"绿雅酒家","lon":"121.48623","lat":"31.23976","category":"76","category_name":"上海菜","address":"上海黄浦区江西中路372号(近宁波路)  "},{"poiid":"B209475CD564A7F84292","title":"上海滩新天地店","lon":"121.47463","lat":"31.22164","category":"119","category_name":"商场","address":"\"太仓路181弄新天地北里15号\r\n\""},{"poiid":"B209475CD564A7F84392","title":"上海滩浦东香格里拉店","lon":"121.50058","lat":"31.23634","category":"119","category_name":"商场","address":"浦东富成路33号香格里拉酒店内大堂层"},{"poiid":"B2094654DA6FA4F5409B","title":"曼哈顿(外滩)商务酒店","lon":"121.48818","lat":"31.23942","category":"250","category_name":"公园户外","address":"黄浦区滇池路81-85号"},{"poiid":"B2094757DB6CA6FD419A","title":"Cuvve","lon":"121.485513","lat":"31.240501","category":"248","category_name":"生活娱乐","address":"外灘十八號"},{"poiid":"B2094757DB68A5F44399","title":"慧公馆 外滩源店 Maison De L'Hui-waitanyuan","lon":"121.48823","lat":"31.24116","category":"72","category_name":"广东菜","address":"黄浦区圆明园路97号安培大楼3-4楼(近外白渡桥)"},{"poiid":"B2094753D26AA3F94493","title":"THE LITTLE BLACK JACKET摄影展","lon":"121.487498","lat":"31.241128","category":"183","category_name":"展览馆","address":"上海市 虎丘路14号中实大楼 洛克•外滩源"},{"poiid":"B2094654DB6BABFD479B","title":"明堂上海旅行者青年旅舍","lon":"121.48529","lat":"31.24161","category":"218","category_name":"青年旅舍","address":"黄浦区江西中路450号(近北京东路)"},{"poiid":"B2094752D56EA0FF4498","title":"Deli & Leisure","lon":"121.488318","lat":"31.239285","category":"247","category_name":"餐饮美食","address":null},{"poiid":"B2094654DB69A4FE439E","title":"莫泰168连锁旅店(外滩店)","lon":"121.48634","lat":"31.23979","category":"216","category_name":"经济型连锁酒店","address":"上海黄浦区宁波路50号（近江西中路口）"},{"poiid":"B2094757D06FABF5429F","title":"新发记港式茶餐厅","lon":"121.4876","lat":"31.23866","category":"72","category_name":"广东菜","address":"上海黄浦区四川中路417号(近南京东路)"},{"poiid":"B2094750D26EA2FA419A","title":"辉哥火锅圆明园路店","lon":"121.488487","lat":"31.241041","category":"86","category_name":"火锅店","address":"黄浦区圆明园路115号洛克外滩源(近北京东路)"},{"poiid":"B2094654DA6FA4FB4598","title":"申华金融大厦","lon":"121.48691","lat":"31.23962","category":"46","category_name":"楼宇","address":"浦东临港新城主城区申港大道200号"},{"poiid":"B2094757DA6FA3F5499C","title":"金装大家乐茶餐厅(南京东路店)","lon":"121.487614100001","lat":"31.2384557","category":"72","category_name":"广东菜","address":"黄浦区南京东路300号名人购物中心3楼(近苹果南京路旗舰店)"},{"poiid":"B2094757D068A1FD489D","title":"亚洲大厦","lon":"121.485","lat":"31.2397","category":"46","category_name":"楼宇","address":"松江区工业区鼎源路广富林路路口"},{"poiid":"B2094751D364A7FA419F","title":"星巴克外滩店","lon":"121.485804","lat":"31.242252","category":"247","category_name":"餐饮美食","address":"外滩"},{"poiid":"B2094655D264A6FE4299","title":"益丰大厦","lon":"121.48848","lat":"31.24032","category":"46","category_name":"楼宇","address":""},{"poiid":"B2094757D06AA3F4419E","title":"豪享来上海四川中路店","lon":"121.4872","lat":"31.2407","category":"247","category_name":"餐饮美食","address":"上海市黄浦区四川中路470号"},{"poiid":"B209475DD664A4FF439E","title":"Light＆salt","lon":"121.488258","lat":"31.24172","category":"247","category_name":"餐饮美食","address":"上海市 黄浦区圆明园路133号6楼"},{"poiid":"B2094654DA6FA4FF459D","title":"宝龙大酒楼","lon":"121.48596793288","lat":"31.240782833756","category":"72","category_name":"广东菜","address":"黄浦区北京东路230号(近河南中路)"},{"poiid":"B2094654DA6FA0FB469F","title":"汇金大厦","lon":"121.48732391965","lat":"31.240035306526","category":"46","category_name":"楼宇","address":"丰台学城海鹰路1号,3号"},{"poiid":"B2094757D069A0FE4599","title":"三林塘馄饨店","lon":"121.48568504662","lat":"31.240624646304","category":"68","category_name":"快餐厅","address":"黄浦区江西中路416号(北京东路口)"},{"poiid":"B2094654DA6FA0F8429E","title":"中悦大楼","lon":"121.488","lat":"31.2401","category":"46","category_name":"楼宇","address":"上海市杨浦区国泰路11号"},{"poiid":"B2094757D064ABFE4899","title":"中国银行外滩多媒体教室","lon":"121.48706973","lat":"31.23868248","category":"500","category_name":"未知分类","address":"上海滇池路74号540室"},{"poiid":"B2094757D468A6FB4899","title":"85度C 宁波路店","lon":"121.484141054","lat":"31.239500793","category":"112","category_name":"糕饼店","address":"黄浦区河南中路521-3号(宁波路口)"},{"poiid":"B2094757D568A2FB4692","title":"外滩新界","lon":"121.4883339","lat":"31.23850806","category":"47","category_name":"住宅区","address":"黄浦区南京东路61号"},{"poiid":"B2094757D568A5FA4798","title":"锦江之星旅馆(上海外滩滨江店)","lon":"121.486266999998","lat":"31.2424470000003","category":"216","category_name":"经济型连锁酒店","address":"上海市黄浦区四川中路630号(近香港路口)"},{"poiid":"B2094655D36CA5F5419D","title":"北京东路四川中路","lon":"121.48625","lat":"31.24066","category":"38","category_name":"公交车站","address":"上海北京东路四川中路"},{"poiid":"B209475CD46DA4F94199","title":"微热山丘","lon":"121.488395","lat":"31.241212","category":"500","category_name":"未知分类","address":"上海市 园明园路133号"},{"poiid":"B2094750D26FABFE4898","title":"muse1","lon":"121.485687","lat":"31.240003","category":"500","category_name":"未知分类","address":"北京东路圆明圆路"},{"poiid":"B2094753D16DA1FA4492","title":"外滩和平饭店","lon":"121.486209","lat":"31.240235","category":"247","category_name":"餐饮美食","address":"上海市 外滩和平饭店"},{"poiid":"B2094654DA6FA4F4419A","title":"浦光中学","lon":"121.4862","lat":"31.24195","category":"55","category_name":"中学","address":"上海黄浦区四川中路599号(近河南拉面馆)"},{"poiid":"B2094757D16DA3FA469C","title":"大块头面菜馆","lon":"121.485606738","lat":"31.2383654735","category":"68","category_name":"快餐厅","address":"黄浦区宁波路190号(近河南中路)"},{"poiid":"B2094655D26FA6FB4898","title":"美伦大楼","lon":"121.48694","lat":"31.23808","category":"46","category_name":"楼宇","address":"昌平区回龙观镇国际信息产业基地高新二街"},{"poiid":"B2094654DB69A6FE4693","title":"滇池大楼","lon":"121.48584","lat":"31.24007","category":"46","category_name":"楼宇","address":"昌平区回龙观镇国际信息产业基地高新二街"},{"poiid":"B2094654DA6FA4FF449A","title":"宁波小区","lon":"121.48452","lat":"31.239851","category":"47","category_name":"住宅区","address":"上海宁波路120号"},{"poiid":"B2094757D66BA0FA459D","title":"上味馆南翔小笼 四川中路店","lon":"121.48675","lat":"31.24045","category":"247","category_name":"餐饮美食","address":"黄浦区四川中路504号(近北京东路)"},{"poiid":"B2094757D06AA7F5469B","title":"外滩街道社区事务受理服务中心","lon":"121.484199","lat":"31.240043","category":"252","category_name":"楼宇机构","address":"上海河南中路568号"},{"poiid":"B2094757D068A7FB4998","title":"协进大楼","lon":"121.488130726","lat":"31.2416575359","category":"260","category_name":"其他","address":"上海圆明园路169号 近北京东路"},{"poiid":"B2094655D26BA7FE429E","title":"中实大楼","lon":"121.48753","lat":"31.24073","category":"46","category_name":"楼宇","address":"北京东路130号"},{"poiid":"B2094655D268ABFE4098","title":"中央商场","lon":"121.4876","lat":"31.23832","category":"119","category_name":"商场","address":"黄浦区南京东路119号B楼1室(南京东路四川中路)"},{"poiid":"B2094757D469A7FC4693","title":"田仓米粉 四川中路店","lon":"121.487229054","lat":"31.239221793","category":"68","category_name":"快餐厅","address":"黄浦区四川中路429号(近南京东路)"},{"poiid":"B2094757D16FAAFF489D","title":"滇池路","lon":"121.488587738","lat":"31.2387532817","category":"500","category_name":"未知分类","address":"上海56号"},{"poiid":"B2094654DA6FA4F44293","title":"中国工商银行上海市黄浦支行","lon":"121.48806","lat":"31.23813","category":"150","category_name":"银行","address":"黄浦区南京东路99号四川中路口(南京东路四川中路)"},{"poiid":"B2094655D26BA2FB4993","title":"四川中路香港路","lon":"121.48635","lat":"31.24187","category":"38","category_name":"公交车站","address":"上海市闸北区北苏州路"},{"poiid":"B2094757D16BABF9449A","title":"江西中路","lon":"121.48410263","lat":"31.239679301","category":"500","category_name":"未知分类","address":"上海江西中路"},{"poiid":"B2094655D36CA0F8499E","title":"江西中路北京东路","lon":"121.48574","lat":"31.24011","category":"38","category_name":"公交车站","address":""},{"poiid":"B2094654DA6FA4F4479F","title":"工联大厦","lon":"121.48802","lat":"31.23879","category":"46","category_name":"楼宇","address":"上海市长宁区延安西路889号"},{"poiid":"B2094757DA69A3F44592","title":"甲泰餐厅","lon":"121.48598641005","lat":"31.239524260517","category":"99","category_name":"泰国／越南菜品餐厅","address":"黄浦区宁波路51号(近江西中路)"},{"poiid":"B2094757D06FA2F8489D","title":"外滩源","lon":"121.488115","lat":"31.241531","category":"260","category_name":"其他","address":"上海黄浦区中山东一路33号"},{"poiid":"B2094757D06FA2F44099","title":"绿雅酒家","lon":"121.48623","lat":"31.23976","category":"76","category_name":"上海菜","address":"上海黄浦区江西中路372号(近宁波路)  "},{"poiid":"B209475CD564A7F84292","title":"上海滩新天地店","lon":"121.47463","lat":"31.22164","category":"119","category_name":"商场","address":"\"太仓路181弄新天地北里15号\r\n\""},{"poiid":"B209475CD564A7F84392","title":"上海滩浦东香格里拉店","lon":"121.50058","lat":"31.23634","category":"119","category_name":"商场","address":"浦东富成路33号香格里拉酒店内大堂层"},{"poiid":"B2094654DA6FA4F5409B","title":"曼哈顿(外滩)商务酒店","lon":"121.48818","lat":"31.23942","category":"250","category_name":"公园户外","address":"黄浦区滇池路81-85号"},{"poiid":"B2094757DB6CA6FD419A","title":"Cuvve","lon":"121.485513","lat":"31.240501","category":"248","category_name":"生活娱乐","address":"外灘十八號"},{"poiid":"B2094757DB68A5F44399","title":"慧公馆 外滩源店 Maison De L'Hui-waitanyuan","lon":"121.48823","lat":"31.24116","category":"72","category_name":"广东菜","address":"黄浦区圆明园路97号安培大楼3-4楼(近外白渡桥)"},{"poiid":"B2094753D26AA3F94493","title":"THE LITTLE BLACK JACKET摄影展","lon":"121.487498","lat":"31.241128","category":"183","category_name":"展览馆","address":"上海市 虎丘路14号中实大楼 洛克•外滩源"},{"poiid":"B2094654DB6BABFD479B","title":"明堂上海旅行者青年旅舍","lon":"121.48529","lat":"31.24161","category":"218","category_name":"青年旅舍","address":"黄浦区江西中路450号(近北京东路)"},{"poiid":"B2094752D56EA0FF4498","title":"Deli & Leisure","lon":"121.488318","lat":"31.239285","category":"247","category_name":"餐饮美食","address":null},{"poiid":"B2094654DB69A4FE439E","title":"莫泰168连锁旅店(外滩店)","lon":"121.48634","lat":"31.23979","category":"216","category_name":"经济型连锁酒店","address":"上海黄浦区宁波路50号（近江西中路口）"},{"poiid":"B2094757D06FABF5429F","title":"新发记港式茶餐厅","lon":"121.4876","lat":"31.23866","category":"72","category_name":"广东菜","address":"上海黄浦区四川中路417号(近南京东路)"},{"poiid":"B2094750D26EA2FA419A","title":"辉哥火锅圆明园路店","lon":"121.488487","lat":"31.241041","category":"86","category_name":"火锅店","address":"黄浦区圆明园路115号洛克外滩源(近北京东路)"},{"poiid":"B2094654DA6FA4FB4598","title":"申华金融大厦","lon":"121.48691","lat":"31.23962","category":"46","category_name":"楼宇","address":"浦东临港新城主城区申港大道200号"},{"poiid":"B2094757DA6FA3F5499C","title":"金装大家乐茶餐厅(南京东路店)","lon":"121.487614100001","lat":"31.2384557","category":"72","category_name":"广东菜","address":"黄浦区南京东路300号名人购物中心3楼(近苹果南京路旗舰店)"},{"poiid":"B2094757D068A1FD489D","title":"亚洲大厦","lon":"121.485","lat":"31.2397","category":"46","category_name":"楼宇","address":"松江区工业区鼎源路广富林路路口"},{"poiid":"B2094751D364A7FA419F","title":"星巴克外滩店","lon":"121.485804","lat":"31.242252","category":"247","category_name":"餐饮美食","address":"外滩"},{"poiid":"B2094655D264A6FE4299","title":"益丰大厦","lon":"121.48848","lat":"31.24032","category":"46","category_name":"楼宇","address":""},{"poiid":"B2094757D06AA3F4419E","title":"豪享来上海四川中路店","lon":"121.4872","lat":"31.2407","category":"247","category_name":"餐饮美食","address":"上海市黄浦区四川中路470号"},{"poiid":"B209475DD664A4FF439E","title":"Light＆salt","lon":"121.488258","lat":"31.24172","category":"247","category_name":"餐饮美食","address":"上海市 黄浦区圆明园路133号6楼"},{"poiid":"B2094654DA6FA4FF459D","title":"宝龙大酒楼","lon":"121.48596793288","lat":"31.240782833756","category":"72","category_name":"广东菜","address":"黄浦区北京东路230号(近河南中路)"},{"poiid":"B2094654DA6FA0FB469F","title":"汇金大厦","lon":"121.48732391965","lat":"31.240035306526","category":"46","category_name":"楼宇","address":"丰台学城海鹰路1号,3号"},{"poiid":"B2094757D069A0FE4599","title":"三林塘馄饨店","lon":"121.48568504662","lat":"31.240624646304","category":"68","category_name":"快餐厅","address":"黄浦区江西中路416号(北京东路口)"},{"poiid":"B2094654DA6FA0F8429E","title":"中悦大楼","lon":"121.488","lat":"31.2401","category":"46","category_name":"楼宇","address":"上海市杨浦区国泰路11号"},{"poiid":"B2094757D064ABFE4899","title":"中国银行外滩多媒体教室","lon":"121.48706973","lat":"31.23868248","category":"500","category_name":"未知分类","address":"上海滇池路74号540室"},{"poiid":"B2094757D468A6FB4899","title":"85度C 宁波路店","lon":"121.484141054","lat":"31.239500793","category":"112","category_name":"糕饼店","address":"黄浦区河南中路521-3号(宁波路口)"},{"poiid":"B2094757D568A2FB4692","title":"外滩新界","lon":"121.4883339","lat":"31.23850806","category":"47","category_name":"住宅区","address":"黄浦区南京东路61号"},{"poiid":"B2094757D568A5FA4798","title":"锦江之星旅馆(上海外滩滨江店)","lon":"121.486266999998","lat":"31.2424470000003","category":"216","category_name":"经济型连锁酒店","address":"上海市黄浦区四川中路630号(近香港路口)"},{"poiid":"B2094655D36CA5F5419D","title":"北京东路四川中路","lon":"121.48625","lat":"31.24066","category":"38","category_name":"公交车站","address":"上海北京东路四川中路"},{"poiid":"B209475CD46DA4F94199","title":"微热山丘","lon":"121.488395","lat":"31.241212","category":"500","category_name":"未知分类","address":"上海市 园明园路133号"},{"poiid":"B2094750D26FABFE4898","title":"muse1","lon":"121.485687","lat":"31.240003","category":"500","category_name":"未知分类","address":"北京东路圆明圆路"},{"poiid":"B2094753D16DA1FA4492","title":"外滩和平饭店","lon":"121.486209","lat":"31.240235","category":"247","category_name":"餐饮美食","address":"上海市 外滩和平饭店"},{"poiid":"B2094654DA6FA4F4419A","title":"浦光中学","lon":"121.4862","lat":"31.24195","category":"55","category_name":"中学","address":"上海黄浦区四川中路599号(近河南拉面馆)"},{"poiid":"B2094757D16DA3FA469C","title":"大块头面菜馆","lon":"121.485606738","lat":"31.2383654735","category":"68","category_name":"快餐厅","address":"黄浦区宁波路190号(近河南中路)"},{"poiid":"B2094655D26FA6FB4898","title":"美伦大楼","lon":"121.48694","lat":"31.23808","category":"46","category_name":"楼宇","address":"昌平区回龙观镇国际信息产业基地高新二街"},{"poiid":"B2094654DB69A6FE4693","title":"滇池大楼","lon":"121.48584","lat":"31.24007","category":"46","category_name":"楼宇","address":"昌平区回龙观镇国际信息产业基地高新二街"},{"poiid":"B2094654DA6FA4FF449A","title":"宁波小区","lon":"121.48452","lat":"31.239851","category":"47","category_name":"住宅区","address":"上海宁波路120号"},{"poiid":"B2094757D66BA0FA459D","title":"上味馆南翔小笼 四川中路店","lon":"121.48675","lat":"31.24045","category":"247","category_name":"餐饮美食","address":"黄浦区四川中路504号(近北京东路)"},{"poiid":"B2094757D06AA7F5469B","title":"外滩街道社区事务受理服务中心","lon":"121.484199","lat":"31.240043","category":"252","category_name":"楼宇机构","address":"上海河南中路568号"},{"poiid":"B2094757D068A7FB4998","title":"协进大楼","lon":"121.488130726","lat":"31.2416575359","category":"260","category_name":"其他","address":"上海圆明园路169号 近北京东路"},{"poiid":"B2094655D26BA7FE429E","title":"中实大楼","lon":"121.48753","lat":"31.24073","category":"46","category_name":"楼宇","address":"北京东路130号"},{"poiid":"B2094655D268ABFE4098","title":"中央商场","lon":"121.4876","lat":"31.23832","category":"119","category_name":"商场","address":"黄浦区南京东路119号B楼1室(南京东路四川中路)"},{"poiid":"B2094757D469A7FC4693","title":"田仓米粉 四川中路店","lon":"121.487229054","lat":"31.239221793","category":"68","category_name":"快餐厅","address":"黄浦区四川中路429号(近南京东路)"},{"poiid":"B2094757D16FAAFF489D","title":"滇池路","lon":"121.488587738","lat":"31.2387532817","category":"500","category_name":"未知分类","address":"上海56号"},{"poiid":"B2094654DA6FA4F44293","title":"中国工商银行上海市黄浦支行","lon":"121.48806","lat":"31.23813","category":"150","category_name":"银行","address":"黄浦区南京东路99号四川中路口(南京东路四川中路)"},{"poiid":"B2094655D26BA2FB4993","title":"四川中路香港路","lon":"121.48635","lat":"31.24187","category":"38","category_name":"公交车站","address":"上海市闸北区北苏州路"},{"poiid":"B2094757D16BABF9449A","title":"江西中路","lon":"121.48410263","lat":"31.239679301","category":"500","category_name":"未知分类","address":"上海江西中路"},{"poiid":"B2094655D36CA0F8499E","title":"江西中路北京东路","lon":"121.48574","lat":"31.24011","category":"38","category_name":"公交车站","address":""},{"poiid":"B2094654DA6FA4F4479F","title":"工联大厦","lon":"121.48802","lat":"31.23879","category":"46","category_name":"楼宇","address":"上海市长宁区延安西路889号"}]