[{"poiid":"B2094655D26BA2F54698","title":"浦东机场","lon":"121.80565","lat":"31.15022","category":"21","category_name":"飞机场","address":"浦东新区启航路900号浦东国际机场内"},{"poiid":"B2094655D26EA2FB479F","title":"上海浦东国际机场2号航站楼(出发)","lon":"121.809","lat":"31.1504","category":"21","category_name":"飞机场","address":"浦东新区迎宾大道6000号"},{"poiid":"B2094757D06EAAFC409D","title":"浦东机场T2国际到达","lon":"121.808185603","lat":"31.1505426571","category":"21","category_name":"飞机场","address":"上海浦东国际机场2号航站楼国际到达"},{"poiid":"B2094757D06EABF5409B","title":"上海浦东国际机场T2航站楼","lon":"121.80919526","lat":"31.151345391","category":"21","category_name":"飞机场","address":"上海浦东新区浦东机场路2号航站楼T2"},{"poiid":"B2094757D069A5F4479D","title":"浦東國際機場T2國際出發","lon":"121.806715692","lat":"31.1515566176","category":"21","category_name":"飞机场","address":"上海浦東"},{"poiid":"B2094757D06EAAFA4598","title":"浦东机场T2国际出发","lon":"121.81086599","lat":"31.151086707","category":"21","category_name":"飞机场","address":"上海浦东国际机场2号航站楼国际出发"},{"poiid":"B2094757D06FA0FB4298","title":"浦东机场T2国内出发","lon":"121.808987992","lat":"31.1517827225","category":"21","category_name":"飞机场","address":"上海浦东国际机场2号航站楼国内出发"},{"poiid":"B2094757D06FA7FD4992","title":"浦东国际机场T1候机楼","lon":"121.80430099","lat":"31.149924682","category":"21","category_name":"飞机场","address":"上海市浦东新区浦东机场路"},{"poiid":"B2094757D06FA2FD449B","title":"浦东机场T2国内到达","lon":"121.80737304","lat":"31.15092633","category":"21","category_name":"飞机场","address":"上海浦东国际机场2号航站楼国内到达"},{"poiid":"B2094757D06EAAFF429A","title":"上海浦东国际机场T1航站楼","lon":"121.803742544","lat":"31.1519827455","category":"21","category_name":"飞机场","address":"浦东新区启航路900号浦东国际机场一号航站楼"},{"poiid":"B2094654DB64A1FB4893","title":"浦东国际机场1号航站楼(到达)","lon":"121.80293","lat":"31.14983","category":"21","category_name":"飞机场","address":"上海浦东国际机场1号航站楼国内到达"},{"poiid":"B2094757D06EAAF84492","title":"浦东机场T1国内出发","lon":"121.80222231","lat":"31.1499032523","category":"21","category_name":"飞机场","address":"上海浦东国际机场1号航站楼国内出发"},{"poiid":"B2094757D66FA6FB419D","title":"浦东机场T1国际出发","lon":"121.801738087","lat":"31.1505004751","category":"21","category_name":"飞机场","address":"上海浦东国际机场1号航站楼国际出发"},{"poiid":"B2094757D06EAAF5449A","title":"浦东机场T1国际到达","lon":"121.803197209","lat":"31.1495455568","category":"21","category_name":"飞机场","address":"上海浦东国际机场1号航站楼国际到达"},{"poiid":"B2094757D06EAAF9419D","title":"浦东机场T2停机坪","lon":"121.80417871","lat":"31.1509691","category":"21","category_name":"飞机场","address":"上海浦东国际机场2号航站楼停机坪"},{"poiid":"B2094757D064A2FE4793","title":"浦东国际机场国内到达","lon":"121.80095","lat":"31.148818","category":"21","category_name":"飞机场","address":"上海市,浦东新区,浦东机场路"},{"poiid":"B2094757D16AA1F8429C","title":"浦东国际机场T1候机楼23号登机口","lon":"121.803447263","lat":"31.144462061","category":"21","category_name":"飞机场","address":"上海浦东国际机场"},{"poiid":"B2094757D16DA3FF489E","title":"浦东国际机场T2航站楼VIP69贵宾室","lon":"121.808766595","lat":"31.1528650127","category":"21","category_name":"飞机场","address":"上海浦东国际机场T2航站楼"},{"poiid":"B2094757D069A1F9439B","title":"浦东国际机场T2航站楼南航贵宾休息室70号","lon":"121.80950803","lat":"31.154599063","category":"21","category_name":"飞机场","address":"浦东新区启航路900号浦东机场第二航站楼(近机场中路)"},{"poiid":"B2094757D06EAAFC449C","title":"日上免税行(浦东机场店)","lon":"121.81009699","lat":"31.151344713","category":"122","category_name":"个人用品/化妆品店","address":"上海浦东新区浦东国际机场1号2号航站楼  "},{"poiid":"B2094757D068ABFE439F","title":"浦东国际机场T1航站楼21号头等舱休息室","lon":"121.80338721","lat":"31.14506997","category":"21","category_name":"飞机场","address":"上海浦东"},{"poiid":"B2094757D06FA3FF4699","title":"磁浮浦东国际机场站","lon":"121.805852085","lat":"31.1504579043","category":"36","category_name":"地铁站","address":"上海磁浮线 磁悬浮 浦东机场"},{"poiid":"B2094757D06FA2FE4192","title":"浦东机场T2航站楼上航贵宾休息室","lon":"121.81072526","lat":"31.151787182","category":"21","category_name":"飞机场","address":"上海浦东机场T2航站楼77号贵宾休息室"},{"poiid":"B2094757D06AA4FB429D","title":"浦东机场VVIP  H区贵宾室","lon":"121.807616092","lat":"31.1529869487","category":"21","category_name":"飞机场","address":"上海浦东机场t2航站楼到达"},{"poiid":"B2094757D06BA4FC4592","title":"浦东机场T2 90#国航贵宾室","lon":"121.81288726","lat":"31.145820091","category":"21","category_name":"飞机场","address":"上海市浦东新区浦东机场路"},{"poiid":"B2094757D06FA7F44893","title":"味千拉面(浦东机场店)","lon":"121.810311992","lat":"31.1511987098","category":"257","category_name":"中餐厅","address":"浦东新区浦东国际机场T2航站楼国际出发大厅2楼"},{"poiid":"B2094757D16EA0FF459D","title":"浦东机场T2航站楼C93登机口","lon":"121.814272263","lat":"31.1464331049","category":"21","category_name":"飞机场","address":"上海市浦东新区浦东机场路"},{"poiid":"B2094757D16CA3FB409C","title":"浦东机场C92登机口","lon":"121.812817263","lat":"31.1460130955","category":"21","category_name":"飞机场","address":"上海市浦东新区浦东机场路"},{"poiid":"B2094757D069A4F8419C","title":"浦东机场T2航站楼上航86号贵宾室","lon":"121.81161399","lat":"31.149716677","category":"21","category_name":"飞机场","address":"上海浦东机场T2航站楼上航86号贵宾室"},{"poiid":"B2094757D66EA3FD4398","title":"上海浦东机场1号航站楼24号登机口","lon":"121.80360026","lat":"31.144175054","category":"500","category_name":"未知分类","address":"南京上海市浦东新区浦东机场"},{"poiid":"B2094757D06BA1F54893","title":"大众空港宾馆","lon":"121.80261299","lat":"31.151113707","category":"217","category_name":"旅馆招待所","address":"上海市浦东机场迎宾大道6001号"},{"poiid":"B2094757D06FA0FD4598","title":"浦东国际机场地铁站","lon":"121.80582683","lat":"31.150475671","category":"36","category_name":"地铁站","address":"上海轨道交通 二号线 磁悬浮 轨交浦东国际机场站 2"},{"poiid":"B2094757DA6EA7F5459B","title":"汉堡王(浦东机场一店)","lon":"121.806964874265","lat":"31.1518543859263","category":"247","category_name":"餐饮美食","address":"浦东新区浦东国际机场T2航站楼国际到达2A"},{"poiid":"B2094757D16CA0FE4392","title":"浦东国际机场T2航站楼C90号登机口","lon":"121.812702263","lat":"31.145809091","category":"21","category_name":"飞机场","address":"上海浦东国际机场T2航站楼C90号登机口"},{"poiid":"B2094757D16FA5FC4593","title":"浦東國際機場 C85登機口","lon":"121.81188162","lat":"31.148242768","category":"500","category_name":"未知分类","address":"上海浦東國際機場 C85登機口"},{"poiid":"B2094757D06AA7FC429F","title":"浦东机场塔台","lon":"121.80378883","lat":"31.143676233","category":"21","category_name":"飞机场","address":"上海浦东国际机场信道一号"},{"poiid":"B2094757D064A4FC439C","title":"浦东机场T2航站楼头等舱休息室","lon":"121.81071599","lat":"31.151278711","category":"21","category_name":"飞机场","address":"上海市浦东新区浦东机场路"},{"poiid":"B2094757D16BA2F8499C","title":"浦东国际机场22号休息室","lon":"121.803817563","lat":"31.1448091687","category":"21","category_name":"飞机场","address":"上海浦东国际机场22号休息室"},{"poiid":"B2094757D06BAAFF489E","title":"浦东国际机场21号休息室","lon":"121.80315801","lat":"31.145282887","category":"21","category_name":"飞机场","address":"上海浦东国际机场T121号登机口"},{"poiid":"B2094757D16EA0FD469E","title":"浦东机场T2D84号登机口","lon":"121.81208558","lat":"31.148201418","category":"21","category_name":"飞机场","address":"上海浦东机场"},{"poiid":"B2094757D66EA2FC439E","title":"浦东机场一号航站楼16号登机口","lon":"121.801817499","lat":"31.1484420536","category":"21","category_name":"飞机场","address":"上海浦东机场"},{"poiid":"B2094757D165A7FB409C","title":"上海浦东机场2号航站楼73号vip休息厅","lon":"121.80964939","lat":"31.151076907","category":"21","category_name":"飞机场","address":"上海上海浦东机场2号航站楼73号vip休息厅"},{"poiid":"B2094757D068A7FA4293","title":"肯德基浦东机场店","lon":"121.805901","lat":"31.149949","category":"68","category_name":"快餐厅","address":"浦东新区浦东机场北步行道"},{"poiid":"B2094654DB64ABFE499B","title":"莫泰168连锁旅店(浦东机场店)","lon":"121.80595","lat":"31.15063","category":"216","category_name":"经济型连锁酒店","address":"浦东新区浦东迎宾大道6001号"},{"poiid":"B2094655D265ABF4479D","title":"东方既白(浦东机场店)","lon":"121.80491","lat":"31.15276","category":"68","category_name":"快餐厅","address":"浦东新区浦东国际机场磁悬浮车站2楼(近肯德基)"},{"poiid":"B2094757D164A2F4449F","title":"浦东国际机场T1航站楼16号登机口","lon":"121.806289673","lat":"31.145608902","category":"21","category_name":"飞机场","address":"上海浦东新区启航路900号T1航站楼"},{"poiid":"B2094655D26EA5F84893","title":"沙龙餐厅","lon":"121.80793","lat":"31.1502","category":"95","category_name":"日本料理","address":"浦东新区浦东国际机场T1航站楼2-3楼"},{"poiid":"B2094655D26BA2F5469A","title":"浦东机场侯机楼站","lon":"121.80533","lat":"31.1511","category":"38","category_name":"公交车站","address":"上海浦东新区浦东国际机场"},{"poiid":"B2094757D06AA6F4449B","title":"豪普生达 Hope Star","lon":"121.80402569","lat":"31.15098163","category":"500","category_name":"未知分类","address":"上海浦东机场1号航站楼2层"},{"poiid":"B2094757D169A1FB4399","title":"浦东机场T2候机楼D88登机口","lon":"121.81106299","lat":"31.1507547","category":"21","category_name":"飞机场","address":"上海市浦东新区浦东机场路"},{"poiid":"B2094655D26BA2F54698","title":"浦东机场","lon":"121.80565","lat":"31.15022","category":"21","category_name":"飞机场","address":"浦东新区启航路900号浦东国际机场内"},{"poiid":"B2094655D26EA2FB479F","title":"上海浦东国际机场2号航站楼(出发)","lon":"121.809","lat":"31.1504","category":"21","category_name":"飞机场","address":"浦东新区迎宾大道6000号"},{"poiid":"B2094757D06EAAFC409D","title":"浦东机场T2国际到达","lon":"121.808185603","lat":"31.1505426571","category":"21","category_name":"飞机场","address":"上海浦东国际机场2号航站楼国际到达"},{"poiid":"B2094757D06EABF5409B","title":"上海浦东国际机场T2航站楼","lon":"121.80919526","lat":"31.151345391","category":"21","category_name":"飞机场","address":"上海浦东新区浦东机场路2号航站楼T2"},{"poiid":"B2094757D069A5F4479D","title":"浦東國際機場T2國際出發","lon":"121.806715692","lat":"31.1515566176","category":"21","category_name":"飞机场","address":"上海浦東"},{"poiid":"B2094757D06EAAFA4598","title":"浦东机场T2国际出发","lon":"121.81086599","lat":"31.151086707","category":"21","category_name":"飞机场","address":"上海浦东国际机场2号航站楼国际出发"},{"poiid":"B2094757D06FA0FB4298","title":"浦东机场T2国内出发","lon":"121.808987992","lat":"31.1517827225","category":"21","category_name":"飞机场","address":"上海浦东国际机场2号航站楼国内出发"},{"poiid":"B2094757D06FA7FD4992","title":"浦东国际机场T1候机楼","lon":"121.80430099","lat":"31.149924682","category":"21","category_name":"飞机场","address":"上海市浦东新区浦东机场路"},{"poiid":"B2094757D06FA2FD449B","title":"浦东机场T2国内到达","lon":"121.80737304","lat":"31.15092633","category":"21","category_name":"飞机场","address":"上海浦东国际机场2号航站楼国内到达"},{"poiid":"B2094757D06EAAFF429A","title":"上海浦东国际机场T1航站楼","lon":"121.803742544","lat":"31.1519827455","category":"21","category_name":"飞机场","address":"浦东新区启航路900号浦东国际机场一号航站楼"},{"poiid":"B2094654DB64A1FB4893","title":"浦东国际机场1号航站楼(到达)","lon":"121.80293","lat":"31.14983","category":"21","category_name":"飞机场","address":"上海浦东国际机场1号航站楼国内到达"},{"poiid":"B2094757D06EAAF84492","title":"浦东机场T1国内出发","lon":"121.80222231","lat":"31.1499032523","category":"21","category_name":"飞机场","address":"上海浦东国际机场1号航站楼国内出发"},{"poiid":"B2094757D66FA6FB419D","title":"浦东机场T1国际出发","lon":"121.801738087","lat":"31.1505004751","category":"21","category_name":"飞机场","address":"上海浦东国际机场1号航站楼国际出发"},{"poiid":"B2094757D06EAAF5449A","title":"浦东机场T1国际到达","lon":"121.803197209","lat":"31.1495455568","category":"21","category_name":"飞机场","address":"上海浦东国际机场1号航站楼国际到达"},{"poiid":"B2094757D06EAAF9419D","title":"浦东机场T2停机坪","lon":"121.80417871","lat":"31.1509691","category":"21","category_name":"飞机场","address":"上海浦东国际机场2号航站楼停机坪"},{"poiid":"B2094757D064A2FE4793","title":"浦东国际机场国内到达","lon":"121.80095","lat":"31.148818","category":"21","category_name":"飞机场","address":"上海市,浦东新区,浦东机场路"},{"poiid":"B2094757D16AA1F8429C","title":"浦东国际机场T1候机楼23号登机口","lon":"121.803447263","lat":"31.144462061","category":"21","category_name":"飞机场","address":"上海浦东国际机场"},{"poiid":"B2094757D16DA3FF489E","title":"浦东国际机场T2航站楼VIP69贵宾室","lon":"121.808766595","lat":"31.1528650127","category":"21","category_name":"飞机场","address":"上海浦东国际机场T2航站楼"},{"poiid":"B2094757D069A1F9439B","title":"浦东国际机场T2航站楼南航贵宾休息室70号","lon":"121.80950803","lat":"31.154599063","category":"21","category_name":"飞机场","address":"浦东新区启航路900号浦东机场第二航站楼(近机场中路)"},{"poiid":"B2094757D06EAAFC449C","title":"日上免税行(浦东机场店)","lon":"121.81009699","lat":"31.151344713","category":"122","category_name":"个人用品/化妆品店","address":"上海浦东新区浦东国际机场1号2号航站楼  "},{"poiid":"B2094757D068ABFE439F","title":"浦东国际机场T1航站楼21号头等舱休息室","lon":"121.80338721","lat":"31.14506997","category":"21","category_name":"飞机场","address":"上海浦东"},{"poiid":"B2094757D06FA3FF4699","title":"磁浮浦东国际机场站","lon":"121.805852085","lat":"31.1504579043","category":"36","category_name":"地铁站","address":"上海磁浮线 磁悬浮 浦东机场"},{"poiid":"B2094757D06FA2FE4192","title":"浦东机场T2航站楼上航贵宾休息室","lon":"121.81072526","lat":"31.151787182","category":"21","category_name":"飞机场","address":"上海浦东机场T2航站楼77号贵宾休息室"},{"poiid":"B2094757D06AA4FB429D","title":"浦东机场VVIP  H区贵宾室","lon":"121.807616092","lat":"31.1529869487","category":"21","category_name":"飞机场","address":"上海浦东机场t2航站楼到达"},{"poiid":"B2094757D06BA4FC4592","title":"浦东机场T2 90#国航贵宾室","lon":"121.81288726","lat":"31.145820091","category":"21","category_name":"飞机场","address":"上海市浦东新区浦东机场路"},{"poiid":"B2094757D06FA7F44893","title":"味千拉面(浦东机场店)","lon":"121.810311992","lat":"31.1511987098","category":"257","category_name":"中餐厅","address":"浦东新区浦东国际机场T2航站楼国际出发大厅2楼"},{"poiid":"B2094757D16EA0FF459D","title":"浦东机场T2航站楼C93登机口","lon":"121.814272263","lat":"31.1464331049","category":"21","category_name":"飞机场","address":"上海市浦东新区浦东机场路"},{"poiid":"B2094757D16CA3FB409C","title":"浦东机场C92登机口","lon":"121.812817263","lat":"31.1460130955","category":"21","category_name":"飞机场","address":"上海市浦东新区浦东机场路"},{"poiid":"B2094757D069A4F8419C","title":"浦东机场T2航站楼上航86号贵宾室","lon":"121.81161399","lat":"31.149716677","category":"21","category_name":"飞机场","address":"上海浦东机场T2航站楼上航86号贵宾室"},{"poiid":"B2094757D66EA3FD4398","title":"上海浦东机场1号航站楼24号登机口","lon":"121.80360026","lat":"31.144175054","category":"500","category_name":"未知分类","address":"南京上海市浦东新区浦东机场"},{"poiid":"B2094757D06BA1F54893","title":"大众空港宾馆","lon":"121.80261299","lat":"31.151113707","category":"217","category_name":"旅馆招待所","address":"上海市浦东机场迎宾大道6001号"},{"poiid":"B2094757D06FA0FD4598","title":"浦东国际机场地铁站","lon":"121.80582683","lat":"31.150475671","category":"36","category_name":"地铁站","address":"上海轨道交通 二号线 磁悬浮 轨交浦东国际机场站 2"},{"poiid":"B2094757DA6EA7F5459B","title":"汉堡王(浦东机场一店)","lon":"121.806964874265","lat":"31.1518543859263","category":"247","category_name":"餐饮美食","address":"浦东新区浦东国际机场T2航站楼国际到达2A"},{"poiid":"B2094757D16CA0FE4392","title":"浦东国际机场T2航站楼C90号登机口","lon":"121.812702263","lat":"31.145809091","category":"21","category_name":"飞机场","address":"上海浦东国际机场T2航站楼C90号登机口"},{"poiid":"B2094757D16FA5FC4593","title":"浦東國際機場 C85登機口","lon":"121.81188162","lat":"31.148242768","category":"500","category_name":"未知分类","address":"上海浦東國際機場 C85登機口"},{"poiid":"B2094757D06AA7FC429F","title":"浦东机场塔台","lon":"121.80378883","lat":"31.143676233","category":"21","category_name":"飞机场","address":"上海浦东国际机场信道一号"},{"poiid":"B2094757D064A4FC439C","title":"浦东机场T2航站楼头等舱休息室","lon":"121.81071599","lat":"31.151278711","category":"21","category_name":"飞机场","address":"上海市浦东新区浦东机场路"},{"poiid":"B2094757D16BA2F8499C","title":"浦东国际机场22号休息室","lon":"121.803817563","lat":"31.1448091687","category":"21","category_name":"飞机场","address":"上海浦东国际机场22号休息室"},{"poiid":"B2094757D06BAAFF489E","title":"浦东国际机场21号休息室","lon":"121.80315801","lat":"31.145282887","category":"21","category_name":"飞机场","address":"上海浦东国际机场T121号登机口"},{"poiid":"B2094757D16EA0FD469E","title":"浦东机场T2D84号登机口","lon":"121.81208558","lat":"31.148201418","category":"21","category_name":"飞机场","address":"上海浦东机场"},{"poiid":"B2094757D66EA2FC439E","title":"浦东机场一号航站楼16号登机口","lon":"121.801817499","lat":"31.1484420536","category":"21","category_name":"飞机场","address":"上海浦东机场"},{"poiid":"B2094757D165A7FB409C","title":"上海浦东机场2号航站楼73号vip休息厅","lon":"121.80964939","lat":"31.151076907","category":"21","category_name":"飞机场","address":"上海上海浦东机场2号航站楼73号vip休息厅"},{"poiid":"B2094757D068A7FA4293","title":"肯德基浦东机场店","lon":"121.805901","lat":"31.149949","category":"68","category_name":"快餐厅","address":"浦东新区浦东机场北步行道"},{"poiid":"B2094654DB64ABFE499B","title":"莫泰168连锁旅店(浦东机场店)","lon":"121.80595","lat":"31.15063","category":"216","category_name":"经济型连锁酒店","address":"浦东新区浦东迎宾大道6001号"},{"poiid":"B2094655D265ABF4479D","title":"东方既白(浦东机场店)","lon":"121.80491","lat":"31.15276","category":"68","category_name":"快餐厅","address":"浦东新区浦东国际机场磁悬浮车站2楼(近肯德基)"},{"poiid":"B2094757D164A2F4449F","title":"浦东国际机场T1航站楼16号登机口","lon":"121.806289673","lat":"31.145608902","category":"21","category_name":"飞机场","address":"上海浦东新区启航路900号T1航站楼"},{"poiid":"B2094655D26EA5F84893","title":"沙龙餐厅","lon":"121.80793","lat":"31.1502","category":"95","category_name":"日本料理","address":"浦东新区浦东国际机场T1航站楼2-3楼"},{"poiid":"B2094655D26BA2F5469A","title":"浦东机场侯机楼站","lon":"121.80533","lat":"31.1511","category":"38","category_name":"公交车站","address":"上海浦东新区浦东国际机场"},{"poiid":"B2094757D06AA6F4449B","title":"豪普生达 Hope Star","lon":"121.80402569","lat":"31.15098163","category":"500","category_name":"未知分类","address":"上海浦东机场1号航站楼2层"},{"poiid":"B2094757D169A1FB4399","title":"浦东机场T2候机楼D88登机口","lon":"121.81106299","lat":"31.1507547","category":"21","category_name":"飞机场","address":"上海市浦东新区浦东机场路"},{"poiid":"B2094655D26BA2F54698","title":"浦东机场","lon":"121.80565","lat":"31.15022","category":"21","category_name":"飞机场","address":"浦东新区启航路900号浦东国际机场内"},{"poiid":"B2094655D26EA2FB479F","title":"上海浦东国际机场2号航站楼(出发)","lon":"121.809","lat":"31.1504","category":"21","category_name":"飞机场","address":"浦东新区迎宾大道6000号"},{"poiid":"B2094757D06EAAFC409D","title":"浦东机场T2国际到达","lon":"121.808185603","lat":"31.1505426571","category":"21","category_name":"飞机场","address":"上海浦东国际机场2号航站楼国际到达"},{"poiid":"B2094757D06EABF5409B","title":"上海浦东国际机场T2航站楼","lon":"121.80919526","lat":"31.151345391","category":"21","category_name":"飞机场","address":"上海浦东新区浦东机场路2号航站楼T2"},{"poiid":"B2094757D069A5F4479D","title":"浦東國際機場T2國際出發","lon":"121.806715692","lat":"31.1515566176","category":"21","category_name":"飞机场","address":"上海浦東"},{"poiid":"B2094757D06EAAFA4598","title":"浦东机场T2国际出发","lon":"121.81086599","lat":"31.151086707","category":"21","category_name":"飞机场","address":"上海浦东国际机场2号航站楼国际出发"},{"poiid":"B2094757D06FA0FB4298","title":"浦东机场T2国内出发","lon":"121.808987992","lat":"31.1517827225","category":"21","category_name":"飞机场","address":"上海浦东国际机场2号航站楼国内出发"},{"poiid":"B2094757D06FA7FD4992","title":"浦东国际机场T1候机楼","lon":"121.80430099","lat":"31.149924682","category":"21","category_name":"飞机场","address":"上海市浦东新区浦东机场路"},{"poiid":"B2094757D06FA2FD449B","title":"浦东机场T2国内到达","lon":"121.80737304","lat":"31.15092633","category":"21","category_name":"飞机场","address":"上海浦东国际机场2号航站楼国内到达"},{"poiid":"B2094757D06EAAFF429A","title":"上海浦东国际机场T1航站楼","lon":"121.803742544","lat":"31.1519827455","category":"21","category_name":"飞机场","address":"浦东新区启航路900号浦东国际机场一号航站楼"},{"poiid":"B2094654DB64A1FB4893","title":"浦东国际机场1号航站楼(到达)","lon":"121.80293","lat":"31.14983","category":"21","category_name":"飞机场","address":"上海浦东国际机场1号航站楼国内到达"},{"poiid":"B2094757D06EAAF84492","title":"浦东机场T1国内出发","lon":"121.80222231","lat":"31.1499032523","category":"21","category_name":"飞机场","address":"上海浦东国际机场1号航站楼国内出发"},{"poiid":"B2094757D66FA6FB419D","title":"浦东机场T1国际出发","lon":"121.801738087","lat":"31.1505004751","category":"21","category_name":"飞机场","address":"上海浦东国际机场1号航站楼国际出发"},{"poiid":"B2094757D06EAAF5449A","title":"浦东机场T1国际到达","lon":"121.803197209","lat":"31.1495455568","category":"21","category_name":"飞机场","address":"上海浦东国际机场1号航站楼国际到达"},{"poiid":"B2094757D06EAAF9419D","title":"浦东机场T2停机坪","lon":"121.80417871","lat":"31.1509691","category":"21","category_name":"飞机场","address":"上海浦东国际机场2号航站楼停机坪"},{"poiid":"B2094757D064A2FE4793","title":"浦东国际机场国内到达","lon":"121.80095","lat":"31.148818","category":"21","category_name":"飞机场","address":"上海市,浦东新区,浦东机场路"},{"poiid":"B2094757D16AA1F8429C","title":"浦东国际机场T1候机楼23号登机口","lon":"121.803447263","lat":"31.144462061","category":"21","category_name":"飞机场","address":"上海浦东国际机场"},{"poiid":"B2094757D16DA3FF489E","title":"浦东国际机场T2航站楼VIP69贵宾室","lon":"121.808766595","lat":"31.1528650127","category":"21","category_name":"飞机场","address":"上海浦东国际机场T2航站楼"},{"poiid":"B2094757D069A1F9439B","title":"浦东国际机场T2航站楼南航贵宾休息室70号","lon":"121.80950803","lat":"31.154599063","category":"21","category_name":"飞机场","address":"浦东新区启航路900号浦东机场第二航站楼(近机场中路)"},{"poiid":"B2094757D06EAAFC449C","title":"日上免税行(浦东机场店)","lon":"121.81009699","lat":"31.151344713","category":"122","category_name":"个人用品/化妆品店","address":"上海浦东新区浦东国际机场1号2号航站楼  "},{"poiid":"B2094757D068ABFE439F","title":"浦东国际机场T1航站楼21号头等舱休息室","lon":"121.80338721","lat":"31.14506997","category":"21","category_name":"飞机场","address":"上海浦东"},{"poiid":"B2094757D06FA3FF4699","title":"磁浮浦东国际机场站","lon":"121.805852085","lat":"31.1504579043","category":"36","category_name":"地铁站","address":"上海磁浮线 磁悬浮 浦东机场"},{"poiid":"B2094757D06FA2FE4192","title":"浦东机场T2航站楼上航贵宾休息室","lon":"121.81072526","lat":"31.151787182","category":"21","category_name":"飞机场","address":"上海浦东机场T2航站楼77号贵宾休息室"},{"poiid":"B2094757D06AA4FB429D","title":"浦东机场VVIP  H区贵宾室","lon":"121.807616092","lat":"31.1529869487","category":"21","category_name":"飞机场","address":"上海浦东机场t2航站楼到达"},{"poiid":"B2094757D06BA4FC4592","title":"浦东机场T2 90#国航贵宾室","lon":"121.81288726","lat":"31.145820091","category":"21","category_name":"飞机场","address":"上海市浦东新区浦东机场路"},{"poiid":"B2094757D06FA7F44893","title":"味千拉面(浦东机场店)","lon":"121.810311992","lat":"31.1511987098","category":"257","category_name":"中餐厅","address":"浦东新区浦东国际机场T2航站楼国际出发大厅2楼"},{"poiid":"B2094757D16EA0FF459D","title":"浦东机场T2航站楼C93登机口","lon":"121.814272263","lat":"31.1464331049","category":"21","category_name":"飞机场","address":"上海市浦东新区浦东机场路"},{"poiid":"B2094757D16CA3FB409C","title":"浦东机场C92登机口","lon":"121.812817263","lat":"31.1460130955","category":"21","category_name":"飞机场","address":"上海市浦东新区浦东机场路"},{"poiid":"B2094757D069A4F8419C","title":"浦东机场T2航站楼上航86号贵宾室","lon":"121.81161399","lat":"31.149716677","category":"21","category_name":"飞机场","address":"上海浦东机场T2航站楼上航86号贵宾室"},{"poiid":"B2094757D66EA3FD4398","title":"上海浦东机场1号航站楼24号登机口","lon":"121.80360026","lat":"31.144175054","category":"500","category_name":"未知分类","address":"南京上海市浦东新区浦东机场"},{"poiid":"B2094757D06BA1F54893","title":"大众空港宾馆","lon":"121.80261299","lat":"31.151113707","category":"217","category_name":"旅馆招待所","address":"上海市浦东机场迎宾大道6001号"},{"poiid":"B2094757D06FA0FD4598","title":"浦东国际机场地铁站","lon":"121.80582683","lat":"31.150475671","category":"36","category_name":"地铁站","address":"上海轨道交通 二号线 磁悬浮 轨交浦东国际机场站 2"},{"poiid":"B2094757DA6EA7F5459B","title":"汉堡王(浦东机场一店)","lon":"121.806964874265","lat":"31.1518543859263","category":"247","category_name":"餐饮美食","address":"浦东新区浦东国际机场T2航站楼国际到达2A"},{"poiid":"B2094757D16CA0FE4392","title":"浦东国际机场T2航站楼C90号登机口","lon":"121.812702263","lat":"31.145809091","category":"21","category_name":"飞机场","address":"上海浦东国际机场T2航站楼C90号登机口"},{"poiid":"B2094757D16FA5FC4593","title":"浦東國際機場 C85登機口","lon":"121.81188162","lat":"31.148242768","category":"500","category_name":"未知分类","address":"上海浦東國際機場 C85登機口"},{"poiid":"B2094757D06AA7FC429F","title":"浦东机场塔台","lon":"121.80378883","lat":"31.143676233","category":"21","category_name":"飞机场","address":"上海浦东国际机场信道一号"},{"poiid":"B2094757D064A4FC439C","title":"浦东机场T2航站楼头等舱休息室","lon":"121.81071599","lat":"31.151278711","category":"21","category_name":"飞机场","address":"上海市浦东新区浦东机场路"},{"poiid":"B2094757D16BA2F8499C","title":"浦东国际机场22号休息室","lon":"121.803817563","lat":"31.1448091687","category":"21","category_name":"飞机场","address":"上海浦东国际机场22号休息室"},{"poiid":"B2094757D06BAAFF489E","title":"浦东国际机场21号休息室","lon":"121.80315801","lat":"31.145282887","category":"21","category_name":"飞机场","address":"上海浦东国际机场T121号登机口"},{"poiid":"B2094757D16EA0FD469E","title":"浦东机场T2D84号登机口","lon":"121.81208558","lat":"31.148201418","category":"21","category_name":"飞机场","address":"上海浦东机场"},{"poiid":"B2094757D66EA2FC439E","title":"浦东机场一号航站楼16号登机口","lon":"121.801817499","lat":"31.1484420536","category":"21","category_name":"飞机场","address":"上海浦东机场"},{"poiid":"B2094757D165A7FB409C","title":"上海浦东机场2号航站楼73号vip休息厅","lon":"121.80964939","lat":"31.151076907","category":"21","category_name":"飞机场","address":"上海上海浦东机场2号航站楼73号vip休息厅"},{"poiid":"B2094757D068A7FA4293","title":"肯德基浦东机场店","lon":"121.805901","lat":"31.149949","category":"68","category_name":"快餐厅","address":"浦东新区浦东机场北步行道"},{"poiid":"B2094654DB64ABFE499B","title":"莫泰168连锁旅店(浦东机场店)","lon":"121.80595","lat":"31.15063","category":"216","category_name":"经济型连锁酒店","address":"浦东新区浦东迎宾大道6001号"},{"poiid":"B2094655D265ABF4479D","title":"东方既白(浦东机场店)","lon":"121.80491","lat":"31.15276","category":"68","category_name":"快餐厅","address":"浦东新区浦东国际机场磁悬浮车站2楼(近肯德基)"},{"poiid":"B2094757D164A2F4449F","title":"浦东国际机场T1航站楼16号登机口","lon":"121.806289673","lat":"31.145608902","category":"21","category_name":"飞机场","address":"上海浦东新区启航路900号T1航站楼"},{"poiid":"B2094655D26EA5F84893","title":"沙龙餐厅","lon":"121.80793","lat":"31.1502","category":"95","category_name":"日本料理","address":"浦东新区浦东国际机场T1航站楼2-3楼"},{"poiid":"B2094655D26BA2F5469A","title":"浦东机场侯机楼站","lon":"121.80533","lat":"31.1511","category":"38","category_name":"公交车站","address":"上海浦东新区浦东国际机场"},{"poiid":"B2094757D06AA6F4449B","title":"豪普生达 Hope Star","lon":"121.80402569","lat":"31.15098163","category":"500","category_name":"未知分类","address":"上海浦东机场1号航站楼2层"},{"poiid":"B2094757D169A1FB4399","title":"浦东机场T2候机楼D88登机口","lon":"121.81106299","lat":"31.1507547","category":"21","category_name":"飞机场","address":"上海市浦东新区浦东机场路"},{"poiid":"B2094655D26BA2F54698","title":"浦东机场","lon":"121.80565","lat":"31.15022","category":"21","category_name":"飞机场","address":"浦东新区启航路900号浦东国际机场内"},{"poiid":"B2094655D26EA2FB479F","title":"上海浦东国际机场2号航站楼(出发)","lon":"121.809","lat":"31.1504","category":"21","category_name":"飞机场","address":"浦东新区迎宾大道6000号"},{"poiid":"B2094757D06EAAFC409D","title":"浦东机场T2国际到达","lon":"121.808185603","lat":"31.1505426571","category":"21","category_name":"飞机场","address":"上海浦东国际机场2号航站楼国际到达"},{"poiid":"B2094757D06EABF5409B","title":"上海浦东国际机场T2航站楼","lon":"121.80919526","lat":"31.151345391","category":"21","category_name":"飞机场","address":"上海浦东新区浦东机场路2号航站楼T2"},{"poiid":"B2094757D069A5F4479D","title":"浦東國際機場T2國際出發","lon":"121.806715692","lat":"31.1515566176","category":"21","category_name":"飞机场","address":"上海浦東"},{"poiid":"B2094757D06EAAFA4598","title":"浦东机场T2国际出发","lon":"121.81086599","lat":"31.151086707","category":"21","category_name":"飞机场","address":"上海浦东国际机场2号航站楼国际出发"},{"poiid":"B2094757D06FA0FB4298","title":"浦东机场T2国内出发","lon":"121.808987992","lat":"31.1517827225","category":"21","category_name":"飞机场","address":"上海浦东国际机场2号航站楼国内出发"},{"poiid":"B2094757D06FA7FD4992","title":"浦东国际机场T1候机楼","lon":"121.80430099","lat":"31.149924682","category":"21","category_name":"飞机场","address":"上海市浦东新区浦东机场路"},{"poiid":"B2094757D06FA2FD449B","title":"浦东机场T2国内到达","lon":"121.80737304","lat":"31.15092633","category":"21","category_name":"飞机场","address":"上海浦东国际机场2号航站楼国内到达"},{"poiid":"B2094757D06EAAFF429A","title":"上海浦东国际机场T1航站楼","lon":"121.803742544","lat":"31.1519827455","category":"21","category_name":"飞机场","address":"浦东新区启航路900号浦东国际机场一号航站楼"},{"poiid":"B2094654DB64A1FB4893","title":"浦东国际机场1号航站楼(到达)","lon":"121.80293","lat":"31.14983","category":"21","category_name":"飞机场","address":"上海浦东国际机场1号航站楼国内到达"},{"poiid":"B2094757D06EAAF84492","title":"浦东机场T1国内出发","lon":"121.80222231","lat":"31.1499032523","category":"21","category_name":"飞机场","address":"上海浦东国际机场1号航站楼国内出发"},{"poiid":"B2094757D66FA6FB419D","title":"浦东机场T1国际出发","lon":"121.801738087","lat":"31.1505004751","category":"21","category_name":"飞机场","address":"上海浦东国际机场1号航站楼国际出发"},{"poiid":"B2094757D06EAAF5449A","title":"浦东机场T1国际到达","lon":"121.803197209","lat":"31.1495455568","category":"21","category_name":"飞机场","address":"上海浦东国际机场1号航站楼国际到达"},{"poiid":"B2094757D06EAAF9419D","title":"浦东机场T2停机坪","lon":"121.80417871","lat":"31.1509691","category":"21","category_name":"飞机场","address":"上海浦东国际机场2号航站楼停机坪"},{"poiid":"B2094757D064A2FE4793","title":"浦东国际机场国内到达","lon":"121.80095","lat":"31.148818","category":"21","category_name":"飞机场","address":"上海市,浦东新区,浦东机场路"},{"poiid":"B2094757D16AA1F8429C","title":"浦东国际机场T1候机楼23号登机口","lon":"121.803447263","lat":"31.144462061","category":"21","category_name":"飞机场","address":"上海浦东国际机场"},{"poiid":"B2094757D16DA3FF489E","title":"浦东国际机场T2航站楼VIP69贵宾室","lon":"121.808766595","lat":"31.1528650127","category":"21","category_name":"飞机场","address":"上海浦东国际机场T2航站楼"},{"poiid":"B2094757D069A1F9439B","title":"浦东国际机场T2航站楼南航贵宾休息室70号","lon":"121.80950803","lat":"31.154599063","category":"21","category_name":"飞机场","address":"浦东新区启航路900号浦东机场第二航站楼(近机场中路)"},{"poiid":"B2094757D06EAAFC449C","title":"日上免税行(浦东机场店)","lon":"121.81009699","lat":"31.151344713","category":"122","category_name":"个人用品/化妆品店","address":"上海浦东新区浦东国际机场1号2号航站楼  "},{"poiid":"B2094757D068ABFE439F","title":"浦东国际机场T1航站楼21号头等舱休息室","lon":"121.80338721","lat":"31.14506997","category":"21","category_name":"飞机场","address":"上海浦东"},{"poiid":"B2094757D06FA3FF4699","title":"磁浮浦东国际机场站","lon":"121.805852085","lat":"31.1504579043","category":"36","category_name":"地铁站","address":"上海磁浮线 磁悬浮 浦东机场"},{"poiid":"B2094757D06FA2FE4192","title":"浦东机场T2航站楼上航贵宾休息室","lon":"121.81072526","lat":"31.151787182","category":"21","category_name":"飞机场","address":"上海浦东机场T2航站楼77号贵宾休息室"},{"poiid":"B2094757D06AA4FB429D","title":"浦东机场VVIP  H区贵宾室","lon":"121.807616092","lat":"31.1529869487","category":"21","category_name":"飞机场","address":"上海浦东机场t2航站楼到达"},{"poiid":"B2094757D06BA4FC4592","title":"浦东机场T2 90#国航贵宾室","lon":"121.81288726","lat":"31.145820091","category":"21","category_name":"飞机场","address":"上海市浦东新区浦东机场路"},{"poiid":"B2094757D06FA7F44893","title":"味千拉面(浦东机场店)","lon":"121.810311992","lat":"31.1511987098","category":"257","category_name":"中餐厅","address":"浦东新区浦东国际机场T2航站楼国际出发大厅2楼"},{"poiid":"B2094757D16EA0FF459D","title":"浦东机场T2航站楼C93登机口","lon":"121.814272263","lat":"31.1464331049","category":"21","category_name":"飞机场","address":"上海市浦东新区浦东机场路"},{"poiid":"B2094757D16CA3FB409C","title":"浦东机场C92登机口","lon":"121.812817263","lat":"31.1460130955","category":"21","category_name":"飞机场","address":"上海市浦东新区浦东机场路"},{"poiid":"B2094757D069A4F8419C","title":"浦东机场T2航站楼上航86号贵宾室","lon":"121.81161399","lat":"31.149716677","category":"21","category_name":"飞机场","address":"上海浦东机场T2航站楼上航86号贵宾室"},{"poiid":"B2094757D66EA3FD4398","title":"上海浦东机场1号航站楼24号登机口","lon":"121.80360026","lat":"31.144175054","category":"500","category_name":"未知分类","address":"南京上海市浦东新区浦东机场"},{"poiid":"B2094757D06BA1F54893","title":"大众空港宾馆","lon":"121.80261299","lat":"31.151113707","category":"217","category_name":"旅馆招待所","address":"上海市浦东机场迎宾大道6001号"},{"poiid":"B2094757D06FA0FD4598","title":"浦东国际机场地铁站","lon":"121.80582683","lat":"31.150475671","category":"36","category_name":"地铁站","address":"上海轨道交通 二号线 磁悬浮 轨交浦东国际机场站 2"},{"poiid":"B2094757DA6EA7F5459B","title":"汉堡王(浦东机场一店)","lon":"121.806964874265","lat":"31.1518543859263","category":"247","category_name":"餐饮美食","address":"浦东新区浦东国际机场T2航站楼国际到达2A"},{"poiid":"B2094757D16CA0FE4392","title":"浦东国际机场T2航站楼C90号登机口","lon":"121.812702263","lat":"31.145809091","category":"21","category_name":"飞机场","address":"上海浦东国际机场T2航站楼C90号登机口"},{"poiid":"B2094757D16FA5FC4593","title":"浦東國際機場 C85登機口","lon":"121.81188162","lat":"31.148242768","category":"500","category_name":"未知分类","address":"上海浦東國際機場 C85登機口"},{"poiid":"B2094757D06AA7FC429F","title":"浦东机场塔台","lon":"121.80378883","lat":"31.143676233","category":"21","category_name":"飞机场","address":"上海浦东国际机场信道一号"},{"poiid":"B2094757D064A4FC439C","title":"浦东机场T2航站楼头等舱休息室","lon":"121.81071599","lat":"31.151278711","category":"21","category_name":"飞机场","address":"上海市浦东新区浦东机场路"},{"poiid":"B2094757D16BA2F8499C","title":"浦东国际机场22号休息室","lon":"121.803817563","lat":"31.1448091687","category":"21","category_name":"飞机场","address":"上海浦东国际机场22号休息室"},{"poiid":"B2094757D06BAAFF489E","title":"浦东国际机场21号休息室","lon":"121.80315801","lat":"31.145282887","category":"21","category_name":"飞机场","address":"上海浦东国际机场T121号登机口"},{"poiid":"B2094757D16EA0FD469E","title":"浦东机场T2D84号登机口","lon":"121.81208558","lat":"31.148201418","category":"21","category_name":"飞机场","address":"上海浦东机场"},{"poiid":"B2094757D66EA2FC439E","title":"浦东机场一号航站楼16号登机口","lon":"121.801817499","lat":"31.1484420536","category":"21","category_name":"飞机场","address":"上海浦东机场"},{"poiid":"B2094757D165A7FB409C","title":"上海浦东机场2号航站楼73号vip休息厅","lon":"121.80964939","lat":"31.151076907","category":"21","category_name":"飞机场","address":"上海上海浦东机场2号航站楼73号vip休息厅"},{"poiid":"B2094757D068A7FA4293","title":"肯德基浦东机场店","lon":"121.805901","lat":"31.149949","category":"68","category_name":"快餐厅","address":"浦东新区浦东机场北步行道"},{"poiid":"B2094654DB64ABFE499B","title":"莫泰168连锁旅店(浦东机场店)","lon":"121.80595","lat":"31.15063","category":"216","category_name":"经济型连锁酒店","address":"浦东新区浦东迎宾大道6001号"},{"poiid":"B2094655D265ABF4479D","title":"东方既白(浦东机场店)","lon":"121.80491","lat":"31.15276","category":"68","category_name":"快餐厅","address":"浦东新区浦东国际机场磁悬浮车站2楼(近肯德基)"},{"poiid":"B2094757D164A2F4449F","title":"浦东国际机场T1航站楼16号登机口","lon":"121.806289673","lat":"31.145608902","category":"21","category_name":"飞机场","address":"上海浦东新区启航路900号T1航站楼"},{"poiid":"B2094655D26EA5F84893","title":"沙龙餐厅","lon":"121.80793","lat":"31.1502","category":"95","category_name":"日本料理","address":"浦东新区浦东国际机场T1航站楼2-3楼"},{"poiid":"B2094655D26BA2F5469A","title":"浦东机场侯机楼站","lon":"121.80533","lat":"31.1511","category":"38","category_name":"公交车站","address":"上海浦东新区浦东国际机场"},{"poiid":"B2094757D06AA6F4449B","title":"豪普生达 Hope Star","lon":"121.80402569","lat":"31.15098163","category":"500","category_name":"未知分类","address":"上海浦东机场1号航站楼2层"},{"poiid":"B2094757D169A1FB4399","title":"浦东机场T2候机楼D88登机口","lon":"121.81106299","lat":"31.1507547","category":"21","category_name":"飞机场","address":"上海市浦东新区浦东机场路"}]