[{"poiid":"B2094654DA6EA0FB439D","title":"上海文庙","lon":"121.48657","lat":"31.21693","category":"244","category_name":"寺庙道观","address":"上海市黄浦区文庙路215号"},{"poiid":"B2094757D068A6F8469A","title":"婚姻登记处(黄浦区登记处)","lon":"121.49044443","lat":"31.214748925","category":"46","category_name":"楼宇","address":"黄浦区中华路1011号(近学前街)查看地图"},{"poiid":"B2094654DA6EA0FB429E","title":"孔乙己酒家","lon":"121.48838","lat":"31.21819","category":"75","category_name":"浙江菜","address":"黄浦区学宫街36号(近老西门文庙)"},{"poiid":"B2094753D76FAAFA449C","title":"上海滩国泰旗舰店","lon":"121.466011","lat":"31.216125","category":"249","category_name":"购物服务","address":"淮海中路868号"},{"poiid":"B209475CD564A7F84292","title":"上海滩新天地店","lon":"121.47463","lat":"31.22164","category":"119","category_name":"商场","address":"\"太仓路181弄新天地北里15号\r\n\""},{"poiid":"B209475CD564A7F84392","title":"上海滩浦东香格里拉店","lon":"121.50058","lat":"31.23634","category":"119","category_name":"商场","address":"浦东富成路33号香格里拉酒店内大堂层"},{"poiid":"B2094757D168A6FD499E","title":"蓬萊路","lon":"121.49024373","lat":"31.217709033","category":"500","category_name":"未知分类","address":"上海市黄浦區蓬萊路"},{"poiid":"B2094757D068A7F4429D","title":"南开大厦","lon":"121.49065","lat":"31.217077","category":"46","category_name":"楼宇","address":"浦东新区金湘路225弄"},{"poiid":"B2094654DA6EA0FA409B","title":"上海市敬业中学","lon":"121.48822","lat":"31.21711","category":"55","category_name":"中学","address":"上海黄浦区蓬莱路345号  "},{"poiid":"B2094654DB6BA4FE4793","title":"豪享来上海大兴街店","lon":"121.4885","lat":"31.214","category":"247","category_name":"餐饮美食","address":"上海市黄浦区大兴街26-30号"},{"poiid":"B2094757D069A2F4419B","title":"园林大厦","lon":"121.48939228085","lat":"31.215035569363","category":"46","category_name":"楼宇","address":"北一环与亳州路交叉口(庐阳区政府对面)"},{"poiid":"B2094655D26EA7FE479E","title":"红宝石中华路店","lon":"121.48735","lat":"31.21607","category":"67","category_name":"甜品店","address":"黄浦区蓬莱路426号(中华路口)"},{"poiid":"B2094655D268A4F54493","title":"黄浦区敬业游泳馆","lon":"121.49069","lat":"31.21562","category":"231","category_name":"游泳馆","address":"黄浦区尚文路183号(尚文路迎勋北路)"},{"poiid":"B2094654DB6BA4FE4998","title":"上海市第十中学","lon":"121.48866","lat":"31.21608","category":"55","category_name":"中学","address":"永宁街25"},{"poiid":"B2094757D069AAFF429E","title":"新梅居(中华路店)","lon":"121.487682738","lat":"31.2151629791","category":"86","category_name":"火锅店","address":"黄浦区中华路1160号(近永宁街)"},{"poiid":"B2094757D16EAAF4499C","title":"滄海苑","lon":"121.48937503","lat":"31.216520808","category":"252","category_name":"楼宇机构","address":"沧海苑位于黄浦学前街111号"},{"poiid":"B2094757D16CA7FC479D","title":"老西门地段医院","lon":"121.489300738","lat":"31.2166863448","category":"162","category_name":"医院","address":"上海学前街"},{"poiid":"B2094757D06BA0FB409D","title":"东北农家饺子村","lon":"121.487563","lat":"31.215112","category":"82","category_name":"东北菜","address":"黄浦区黄家阙路79号"},{"poiid":"B2094654DA6EA0F4499F","title":"老西门街道社区卫生服务中心","lon":"121.48928","lat":"31.21659","category":"162","category_name":"医院","address":"学前街81"},{"poiid":"B2094757D16EAAFD4892","title":"文庙老道前街骨头汤","lon":"121.48902","lat":"31.21714","category":"257","category_name":"中餐厅","address":"黄浦区文庙路233号(近老道前街)"},{"poiid":"B2094757D069A4FD499B","title":"燕山楼烧烤","lon":"121.49052","lat":"31.21522","category":"68","category_name":"快餐厅","address":"黄浦区黄家阙路180号(近中华路)"},{"poiid":"B2094750D768A6FA4093","title":"噫寿司","lon":"121.488","lat":"31.2176","category":"95","category_name":"日本料理","address":"黄浦区文庙路235号(近中华路)"},{"poiid":"B2094654DA68A0F44199","title":"紫宇大楼","lon":"121.489","lat":"31.2163","category":"46","category_name":"楼宇","address":"制造局路27号"},{"poiid":"B2094757D66AA6F94398","title":"黄浦象山海鲜馆","lon":"121.48920434293","lat":"31.214798295002","category":"75","category_name":"浙江菜","address":"黄浦区中华路1117号(近尚文路)"},{"poiid":"B2094757D069A5FE429C","title":"京世美容美发连锁机构(中华店)","lon":"121.48845","lat":"31.21476","category":"148","category_name":"美容美发店","address":"上海黄浦区中华路1142号(近大兴街)"},{"poiid":"B2094757DA6EABF4429A","title":"超级鸡车(蓬莱路店)","lon":"121.488144","lat":"31.2165260000003","category":"68","category_name":"快餐厅","address":"黄浦区蓬莱路374号(近蓬莱路中华路)"},{"poiid":"B2094655D26FA7FB4799","title":"老西门街道社区卫生服务中心(南门)","lon":"121.48944","lat":"31.21666","category":"162","category_name":"医院","address":""},{"poiid":"B2094654DA6EA0FE459D","title":"惠德大厦","lon":"121.48741","lat":"31.21555","category":"46","category_name":"楼宇","address":"朝阳华威桥东北角"},{"poiid":"B2094757D16FA2FB4993","title":"文庙飘香烤鸡翅","lon":"121.48822","lat":"31.21715","category":"68","category_name":"快餐厅","address":"黄浦区文庙路(老道前街文庙路)"},{"poiid":"B2094654DA6EA0F4489C","title":"上海致南职业技能培训学校","lon":"121.48913","lat":"31.21683","category":"54","category_name":"职业技术学校","address":"学前街77号莽原宾馆202室"},{"poiid":"B2094757D16DA2FB459C","title":"文庙路奶茶","lon":"121.48823","lat":"31.21701","category":"67","category_name":"甜品店","address":"上海黄浦区文庙路西北狼烧烤旁  "},{"poiid":"B2094757D568AAFF429C","title":"蓬莱电影院","lon":"121.4899439","lat":"31.216175","category":"178","category_name":"电影院","address":"学前街111号"},{"poiid":"B2094757D66CA2F44793","title":"克里斯汀（陆家浜路店）","lon":"121.488943738","lat":"31.2159969968","category":"247","category_name":"餐饮美食","address":"上海陆家浜路1086号"},{"poiid":"B2094655D26BA7FC4399","title":"上海黄浦区蓬莱老年公寓","lon":"121.48898","lat":"31.21645","category":"207","category_name":"度假疗养场所","address":"学前街66-68"},{"poiid":"B2094757D169A7F9489B","title":"前往愛人的心裡","lon":"121.489099","lat":"31.216442","category":"500","category_name":"未知分类","address":"上海世界之大"},{"poiid":"B2094654DA6EA0FF489D","title":"荷花池第二幼儿园","lon":"121.4896","lat":"31.21569","category":"57","category_name":"幼儿园","address":"黄浦区学前街136号(学前街一粟街)"},{"poiid":"B2094654DA6EA0F4499B","title":"上海黄浦区银星艺术进修学校","lon":"121.48913","lat":"31.21683","category":"53","category_name":"成人教育","address":"学前街77号莽原宾馆2层"},{"poiid":"B2094750D76DA2F44493","title":"文庙面馆","lon":"121.488","lat":"31.2174","category":"68","category_name":"快餐厅","address":"黄浦区老道前街55号(近文庙路)"},{"poiid":"B2094654DA6EA0FF489B","title":"上海市黄浦区梅溪小学","lon":"121.48921","lat":"31.21547","category":"56","category_name":"小学","address":"永宁街20号"},{"poiid":"B2094757D66BA7FE459A","title":"老北京王府井烤鸭","lon":"121.48757","lat":"31.216047","category":"68","category_name":"快餐厅","address":"黄浦区中华路1160号(近狼来了火锅店)"},{"poiid":"B2094757D468A5FB469C","title":"阿平面馆","lon":"121.49074","lat":"31.21517","category":"68","category_name":"快餐厅","address":"黄浦区尚文路243号(近中华路)"},{"poiid":"B2094751DA6EA6FE409A","title":"上海体育场","lon":"121.4908603","lat":"31.2169628","category":"500","category_name":"未知分类","address":null},{"poiid":"B2094757D66CA0F4499F","title":"平利公寓","lon":"121.489637738","lat":"31.215302982","category":"47","category_name":"住宅区","address":"平阳绿家园位于闵行龙茗路888号顾戴路口"},{"poiid":"B2094655D268A0F5499B","title":"蓬莱路303弄小区(南门)","lon":"121.48912","lat":"31.21719","category":"47","category_name":"住宅区","address":"蓬莱路303弄1-36号"},{"poiid":"B2094757D66BA4FC449E","title":"和怡美老象山海鲜","lon":"121.488140054","lat":"31.214310793","category":"75","category_name":"浙江菜","address":"黄浦区黄家厥路(近大吉路)"},{"poiid":"B2094750D76DA2F4439D","title":"文庙菜饭(文庙路店)","lon":"121.487","lat":"31.2168","category":"68","category_name":"快餐厅","address":"黄浦区文庙路282号(中华路口)"},{"poiid":"B2094654DB6BA4FE4893","title":"小西门小区","lon":"121.48809","lat":"31.216133","category":"47","category_name":"住宅区","address":"蓬莱路388弄1-59号"},{"poiid":"B2094750D768A6F9489F","title":"路边馄饨滩","lon":"121.49","lat":"31.2171","category":"68","category_name":"快餐厅","address":"黄浦区先棉祠街(近河南南路)"},{"poiid":"B2094654DB6BA4FF4092","title":"广东仔章鱼小丸子","lon":"121.48854","lat":"31.21764","category":"68","category_name":"快餐厅","address":"黄浦区文庙路231号"},{"poiid":"B2094655D26FA7FA459A","title":"上海市敬业中学(南门)","lon":"121.48838","lat":"31.21689","category":"678","category_name":"学校大门","address":"蓬莱路345"},{"poiid":"B2094654DA6EA0FB439D","title":"上海文庙","lon":"121.48657","lat":"31.21693","category":"244","category_name":"寺庙道观","address":"上海市黄浦区文庙路215号"},{"poiid":"B2094757D068A6F8469A","title":"婚姻登记处(黄浦区登记处)","lon":"121.49044443","lat":"31.214748925","category":"46","category_name":"楼宇","address":"黄浦区中华路1011号(近学前街)查看地图"},{"poiid":"B2094654DA6EA0FB429E","title":"孔乙己酒家","lon":"121.48838","lat":"31.21819","category":"75","category_name":"浙江菜","address":"黄浦区学宫街36号(近老西门文庙)"},{"poiid":"B2094753D76FAAFA449C","title":"上海滩国泰旗舰店","lon":"121.466011","lat":"31.216125","category":"249","category_name":"购物服务","address":"淮海中路868号"},{"poiid":"B209475CD564A7F84292","title":"上海滩新天地店","lon":"121.47463","lat":"31.22164","category":"119","category_name":"商场","address":"\"太仓路181弄新天地北里15号\r\n\""},{"poiid":"B209475CD564A7F84392","title":"上海滩浦东香格里拉店","lon":"121.50058","lat":"31.23634","category":"119","category_name":"商场","address":"浦东富成路33号香格里拉酒店内大堂层"},{"poiid":"B2094757D168A6FD499E","title":"蓬萊路","lon":"121.49024373","lat":"31.217709033","category":"500","category_name":"未知分类","address":"上海市黄浦區蓬萊路"},{"poiid":"B2094757D068A7F4429D","title":"南开大厦","lon":"121.49065","lat":"31.217077","category":"46","category_name":"楼宇","address":"浦东新区金湘路225弄"},{"poiid":"B2094654DA6EA0FA409B","title":"上海市敬业中学","lon":"121.48822","lat":"31.21711","category":"55","category_name":"中学","address":"上海黄浦区蓬莱路345号  "},{"poiid":"B2094654DB6BA4FE4793","title":"豪享来上海大兴街店","lon":"121.4885","lat":"31.214","category":"247","category_name":"餐饮美食","address":"上海市黄浦区大兴街26-30号"},{"poiid":"B2094757D069A2F4419B","title":"园林大厦","lon":"121.48939228085","lat":"31.215035569363","category":"46","category_name":"楼宇","address":"北一环与亳州路交叉口(庐阳区政府对面)"},{"poiid":"B2094655D26EA7FE479E","title":"红宝石中华路店","lon":"121.48735","lat":"31.21607","category":"67","category_name":"甜品店","address":"黄浦区蓬莱路426号(中华路口)"},{"poiid":"B2094655D268A4F54493","title":"黄浦区敬业游泳馆","lon":"121.49069","lat":"31.21562","category":"231","category_name":"游泳馆","address":"黄浦区尚文路183号(尚文路迎勋北路)"},{"poiid":"B2094654DB6BA4FE4998","title":"上海市第十中学","lon":"121.48866","lat":"31.21608","category":"55","category_name":"中学","address":"永宁街25"},{"poiid":"B2094757D069AAFF429E","title":"新梅居(中华路店)","lon":"121.487682738","lat":"31.2151629791","category":"86","category_name":"火锅店","address":"黄浦区中华路1160号(近永宁街)"},{"poiid":"B2094757D16EAAF4499C","title":"滄海苑","lon":"121.48937503","lat":"31.216520808","category":"252","category_name":"楼宇机构","address":"沧海苑位于黄浦学前街111号"},{"poiid":"B2094757D16CA7FC479D","title":"老西门地段医院","lon":"121.489300738","lat":"31.2166863448","category":"162","category_name":"医院","address":"上海学前街"},{"poiid":"B2094757D06BA0FB409D","title":"东北农家饺子村","lon":"121.487563","lat":"31.215112","category":"82","category_name":"东北菜","address":"黄浦区黄家阙路79号"},{"poiid":"B2094654DA6EA0F4499F","title":"老西门街道社区卫生服务中心","lon":"121.48928","lat":"31.21659","category":"162","category_name":"医院","address":"学前街81"},{"poiid":"B2094757D16EAAFD4892","title":"文庙老道前街骨头汤","lon":"121.48902","lat":"31.21714","category":"257","category_name":"中餐厅","address":"黄浦区文庙路233号(近老道前街)"},{"poiid":"B2094757D069A4FD499B","title":"燕山楼烧烤","lon":"121.49052","lat":"31.21522","category":"68","category_name":"快餐厅","address":"黄浦区黄家阙路180号(近中华路)"},{"poiid":"B2094750D768A6FA4093","title":"噫寿司","lon":"121.488","lat":"31.2176","category":"95","category_name":"日本料理","address":"黄浦区文庙路235号(近中华路)"},{"poiid":"B2094654DA68A0F44199","title":"紫宇大楼","lon":"121.489","lat":"31.2163","category":"46","category_name":"楼宇","address":"制造局路27号"},{"poiid":"B2094757D66AA6F94398","title":"黄浦象山海鲜馆","lon":"121.48920434293","lat":"31.214798295002","category":"75","category_name":"浙江菜","address":"黄浦区中华路1117号(近尚文路)"},{"poiid":"B2094757D069A5FE429C","title":"京世美容美发连锁机构(中华店)","lon":"121.48845","lat":"31.21476","category":"148","category_name":"美容美发店","address":"上海黄浦区中华路1142号(近大兴街)"},{"poiid":"B2094757DA6EABF4429A","title":"超级鸡车(蓬莱路店)","lon":"121.488144","lat":"31.2165260000003","category":"68","category_name":"快餐厅","address":"黄浦区蓬莱路374号(近蓬莱路中华路)"},{"poiid":"B2094655D26FA7FB4799","title":"老西门街道社区卫生服务中心(南门)","lon":"121.48944","lat":"31.21666","category":"162","category_name":"医院","address":""},{"poiid":"B2094654DA6EA0FE459D","title":"惠德大厦","lon":"121.48741","lat":"31.21555","category":"46","category_name":"楼宇","address":"朝阳华威桥东北角"},{"poiid":"B2094757D16FA2FB4993","title":"文庙飘香烤鸡翅","lon":"121.48822","lat":"31.21715","category":"68","category_name":"快餐厅","address":"黄浦区文庙路(老道前街文庙路)"},{"poiid":"B2094654DA6EA0F4489C","title":"上海致南职业技能培训学校","lon":"121.48913","lat":"31.21683","category":"54","category_name":"职业技术学校","address":"学前街77号莽原宾馆202室"},{"poiid":"B2094757D16DA2FB459C","title":"文庙路奶茶","lon":"121.48823","lat":"31.21701","category":"67","category_name":"甜品店","address":"上海黄浦区文庙路西北狼烧烤旁  "},{"poiid":"B2094757D568AAFF429C","title":"蓬莱电影院","lon":"121.4899439","lat":"31.216175","category":"178","category_name":"电影院","address":"学前街111号"},{"poiid":"B2094757D66CA2F44793","title":"克里斯汀（陆家浜路店）","lon":"121.488943738","lat":"31.2159969968","category":"247","category_name":"餐饮美食","address":"上海陆家浜路1086号"},{"poiid":"B2094655D26BA7FC4399","title":"上海黄浦区蓬莱老年公寓","lon":"121.48898","lat":"31.21645","category":"207","category_name":"度假疗养场所","address":"学前街66-68"},{"poiid":"B2094757D169A7F9489B","title":"前往愛人的心裡","lon":"121.489099","lat":"31.216442","category":"500","category_name":"未知分类","address":"上海世界之大"},{"poiid":"B2094654DA6EA0FF489D","title":"荷花池第二幼儿园","lon":"121.4896","lat":"31.21569","category":"57","category_name":"幼儿园","address":"黄浦区学前街136号(学前街一粟街)"},{"poiid":"B2094654DA6EA0F4499B","title":"上海黄浦区银星艺术进修学校","lon":"121.48913","lat":"31.21683","category":"53","category_name":"成人教育","address":"学前街77号莽原宾馆2层"},{"poiid":"B2094750D76DA2F44493","title":"文庙面馆","lon":"121.488","lat":"31.2174","category":"68","category_name":"快餐厅","address":"黄浦区老道前街55号(近文庙路)"},{"poiid":"B2094654DA6EA0FF489B","title":"上海市黄浦区梅溪小学","lon":"121.48921","lat":"31.21547","category":"56","category_name":"小学","address":"永宁街20号"},{"poiid":"B2094757D66BA7FE459A","title":"老北京王府井烤鸭","lon":"121.48757","lat":"31.216047","category":"68","category_name":"快餐厅","address":"黄浦区中华路1160号(近狼来了火锅店)"},{"poiid":"B2094757D468A5FB469C","title":"阿平面馆","lon":"121.49074","lat":"31.21517","category":"68","category_name":"快餐厅","address":"黄浦区尚文路243号(近中华路)"},{"poiid":"B2094751DA6EA6FE409A","title":"上海体育场","lon":"121.4908603","lat":"31.2169628","category":"500","category_name":"未知分类","address":null},{"poiid":"B2094757D66CA0F4499F","title":"平利公寓","lon":"121.489637738","lat":"31.215302982","category":"47","category_name":"住宅区","address":"平阳绿家园位于闵行龙茗路888号顾戴路口"},{"poiid":"B2094655D268A0F5499B","title":"蓬莱路303弄小区(南门)","lon":"121.48912","lat":"31.21719","category":"47","category_name":"住宅区","address":"蓬莱路303弄1-36号"},{"poiid":"B2094757D66BA4FC449E","title":"和怡美老象山海鲜","lon":"121.488140054","lat":"31.214310793","category":"75","category_name":"浙江菜","address":"黄浦区黄家厥路(近大吉路)"},{"poiid":"B2094750D76DA2F4439D","title":"文庙菜饭(文庙路店)","lon":"121.487","lat":"31.2168","category":"68","category_name":"快餐厅","address":"黄浦区文庙路282号(中华路口)"},{"poiid":"B2094654DB6BA4FE4893","title":"小西门小区","lon":"121.48809","lat":"31.216133","category":"47","category_name":"住宅区","address":"蓬莱路388弄1-59号"},{"poiid":"B2094750D768A6F9489F","title":"路边馄饨滩","lon":"121.49","lat":"31.2171","category":"68","category_name":"快餐厅","address":"黄浦区先棉祠街(近河南南路)"},{"poiid":"B2094654DB6BA4FF4092","title":"广东仔章鱼小丸子","lon":"121.48854","lat":"31.21764","category":"68","category_name":"快餐厅","address":"黄浦区文庙路231号"},{"poiid":"B2094655D26FA7FA459A","title":"上海市敬业中学(南门)","lon":"121.48838","lat":"31.21689","category":"678","category_name":"学校大门","address":"蓬莱路345"},{"poiid":"B2094654DA6EA0FB439D","title":"上海文庙","lon":"121.48657","lat":"31.21693","category":"244","category_name":"寺庙道观","address":"上海市黄浦区文庙路215号"},{"poiid":"B2094757D068A6F8469A","title":"婚姻登记处(黄浦区登记处)","lon":"121.49044443","lat":"31.214748925","category":"46","category_name":"楼宇","address":"黄浦区中华路1011号(近学前街)查看地图"},{"poiid":"B2094654DA6EA0FB429E","title":"孔乙己酒家","lon":"121.48838","lat":"31.21819","category":"75","category_name":"浙江菜","address":"黄浦区学宫街36号(近老西门文庙)"},{"poiid":"B2094753D76FAAFA449C","title":"上海滩国泰旗舰店","lon":"121.466011","lat":"31.216125","category":"249","category_name":"购物服务","address":"淮海中路868号"},{"poiid":"B209475CD564A7F84292","title":"上海滩新天地店","lon":"121.47463","lat":"31.22164","category":"119","category_name":"商场","address":"\"太仓路181弄新天地北里15号\r\n\""},{"poiid":"B209475CD564A7F84392","title":"上海滩浦东香格里拉店","lon":"121.50058","lat":"31.23634","category":"119","category_name":"商场","address":"浦东富成路33号香格里拉酒店内大堂层"},{"poiid":"B2094757D168A6FD499E","title":"蓬萊路","lon":"121.49024373","lat":"31.217709033","category":"500","category_name":"未知分类","address":"上海市黄浦區蓬萊路"},{"poiid":"B2094757D068A7F4429D","title":"南开大厦","lon":"121.49065","lat":"31.217077","category":"46","category_name":"楼宇","address":"浦东新区金湘路225弄"},{"poiid":"B2094654DA6EA0FA409B","title":"上海市敬业中学","lon":"121.48822","lat":"31.21711","category":"55","category_name":"中学","address":"上海黄浦区蓬莱路345号  "},{"poiid":"B2094654DB6BA4FE4793","title":"豪享来上海大兴街店","lon":"121.4885","lat":"31.214","category":"247","category_name":"餐饮美食","address":"上海市黄浦区大兴街26-30号"},{"poiid":"B2094757D069A2F4419B","title":"园林大厦","lon":"121.48939228085","lat":"31.215035569363","category":"46","category_name":"楼宇","address":"北一环与亳州路交叉口(庐阳区政府对面)"},{"poiid":"B2094655D26EA7FE479E","title":"红宝石中华路店","lon":"121.48735","lat":"31.21607","category":"67","category_name":"甜品店","address":"黄浦区蓬莱路426号(中华路口)"},{"poiid":"B2094655D268A4F54493","title":"黄浦区敬业游泳馆","lon":"121.49069","lat":"31.21562","category":"231","category_name":"游泳馆","address":"黄浦区尚文路183号(尚文路迎勋北路)"},{"poiid":"B2094654DB6BA4FE4998","title":"上海市第十中学","lon":"121.48866","lat":"31.21608","category":"55","category_name":"中学","address":"永宁街25"},{"poiid":"B2094757D069AAFF429E","title":"新梅居(中华路店)","lon":"121.487682738","lat":"31.2151629791","category":"86","category_name":"火锅店","address":"黄浦区中华路1160号(近永宁街)"},{"poiid":"B2094757D16EAAF4499C","title":"滄海苑","lon":"121.48937503","lat":"31.216520808","category":"252","category_name":"楼宇机构","address":"沧海苑位于黄浦学前街111号"},{"poiid":"B2094757D16CA7FC479D","title":"老西门地段医院","lon":"121.489300738","lat":"31.2166863448","category":"162","category_name":"医院","address":"上海学前街"},{"poiid":"B2094757D06BA0FB409D","title":"东北农家饺子村","lon":"121.487563","lat":"31.215112","category":"82","category_name":"东北菜","address":"黄浦区黄家阙路79号"},{"poiid":"B2094654DA6EA0F4499F","title":"老西门街道社区卫生服务中心","lon":"121.48928","lat":"31.21659","category":"162","category_name":"医院","address":"学前街81"},{"poiid":"B2094757D16EAAFD4892","title":"文庙老道前街骨头汤","lon":"121.48902","lat":"31.21714","category":"257","category_name":"中餐厅","address":"黄浦区文庙路233号(近老道前街)"},{"poiid":"B2094757D069A4FD499B","title":"燕山楼烧烤","lon":"121.49052","lat":"31.21522","category":"68","category_name":"快餐厅","address":"黄浦区黄家阙路180号(近中华路)"},{"poiid":"B2094750D768A6FA4093","title":"噫寿司","lon":"121.488","lat":"31.2176","category":"95","category_name":"日本料理","address":"黄浦区文庙路235号(近中华路)"},{"poiid":"B2094654DA68A0F44199","title":"紫宇大楼","lon":"121.489","lat":"31.2163","category":"46","category_name":"楼宇","address":"制造局路27号"},{"poiid":"B2094757D66AA6F94398","title":"黄浦象山海鲜馆","lon":"121.48920434293","lat":"31.214798295002","category":"75","category_name":"浙江菜","address":"黄浦区中华路1117号(近尚文路)"},{"poiid":"B2094757D069A5FE429C","title":"京世美容美发连锁机构(中华店)","lon":"121.48845","lat":"31.21476","category":"148","category_name":"美容美发店","address":"上海黄浦区中华路1142号(近大兴街)"},{"poiid":"B2094757DA6EABF4429A","title":"超级鸡车(蓬莱路店)","lon":"121.488144","lat":"31.2165260000003","category":"68","category_name":"快餐厅","address":"黄浦区蓬莱路374号(近蓬莱路中华路)"},{"poiid":"B2094655D26FA7FB4799","title":"老西门街道社区卫生服务中心(南门)","lon":"121.48944","lat":"31.21666","category":"162","category_name":"医院","address":""},{"poiid":"B2094654DA6EA0FE459D","title":"惠德大厦","lon":"121.48741","lat":"31.21555","category":"46","category_name":"楼宇","address":"朝阳华威桥东北角"},{"poiid":"B2094757D16FA2FB4993","title":"文庙飘香烤鸡翅","lon":"121.48822","lat":"31.21715","category":"68","category_name":"快餐厅","address":"黄浦区文庙路(老道前街文庙路)"},{"poiid":"B2094654DA6EA0F4489C","title":"上海致南职业技能培训学校","lon":"121.48913","lat":"31.21683","category":"54","category_name":"职业技术学校","address":"学前街77号莽原宾馆202室"},{"poiid":"B2094757D16DA2FB459C","title":"文庙路奶茶","lon":"121.48823","lat":"31.21701","category":"67","category_name":"甜品店","address":"上海黄浦区文庙路西北狼烧烤旁  "},{"poiid":"B2094757D568AAFF429C","title":"蓬莱电影院","lon":"121.4899439","lat":"31.216175","category":"178","category_name":"电影院","address":"学前街111号"},{"poiid":"B2094757D66CA2F44793","title":"克里斯汀（陆家浜路店）","lon":"121.488943738","lat":"31.2159969968","category":"247","category_name":"餐饮美食","address":"上海陆家浜路1086号"},{"poiid":"B2094655D26BA7FC4399","title":"上海黄浦区蓬莱老年公寓","lon":"121.48898","lat":"31.21645","category":"207","category_name":"度假疗养场所","address":"学前街66-68"},{"poiid":"B2094757D169A7F9489B","title":"前往愛人的心裡","lon":"121.489099","lat":"31.216442","category":"500","category_name":"未知分类","address":"上海世界之大"},{"poiid":"B2094654DA6EA0FF489D","title":"荷花池第二幼儿园","lon":"121.4896","lat":"31.21569","category":"57","category_name":"幼儿园","address":"黄浦区学前街136号(学前街一粟街)"},{"poiid":"B2094654DA6EA0F4499B","title":"上海黄浦区银星艺术进修学校","lon":"121.48913","lat":"31.21683","category":"53","category_name":"成人教育","address":"学前街77号莽原宾馆2层"},{"poiid":"B2094750D76DA2F44493","title":"文庙面馆","lon":"121.488","lat":"31.2174","category":"68","category_name":"快餐厅","address":"黄浦区老道前街55号(近文庙路)"},{"poiid":"B2094654DA6EA0FF489B","title":"上海市黄浦区梅溪小学","lon":"121.48921","lat":"31.21547","category":"56","category_name":"小学","address":"永宁街20号"},{"poiid":"B2094757D66BA7FE459A","title":"老北京王府井烤鸭","lon":"121.48757","lat":"31.216047","category":"68","category_name":"快餐厅","address":"黄浦区中华路1160号(近狼来了火锅店)"},{"poiid":"B2094757D468A5FB469C","title":"阿平面馆","lon":"121.49074","lat":"31.21517","category":"68","category_name":"快餐厅","address":"黄浦区尚文路243号(近中华路)"},{"poiid":"B2094751DA6EA6FE409A","title":"上海体育场","lon":"121.4908603","lat":"31.2169628","category":"500","category_name":"未知分类","address":null},{"poiid":"B2094757D66CA0F4499F","title":"平利公寓","lon":"121.489637738","lat":"31.215302982","category":"47","category_name":"住宅区","address":"平阳绿家园位于闵行龙茗路888号顾戴路口"},{"poiid":"B2094655D268A0F5499B","title":"蓬莱路303弄小区(南门)","lon":"121.48912","lat":"31.21719","category":"47","category_name":"住宅区","address":"蓬莱路303弄1-36号"},{"poiid":"B2094757D66BA4FC449E","title":"和怡美老象山海鲜","lon":"121.488140054","lat":"31.214310793","category":"75","category_name":"浙江菜","address":"黄浦区黄家厥路(近大吉路)"},{"poiid":"B2094750D76DA2F4439D","title":"文庙菜饭(文庙路店)","lon":"121.487","lat":"31.2168","category":"68","category_name":"快餐厅","address":"黄浦区文庙路282号(中华路口)"},{"poiid":"B2094654DB6BA4FE4893","title":"小西门小区","lon":"121.48809","lat":"31.216133","category":"47","category_name":"住宅区","address":"蓬莱路388弄1-59号"},{"poiid":"B2094750D768A6F9489F","title":"路边馄饨滩","lon":"121.49","lat":"31.2171","category":"68","category_name":"快餐厅","address":"黄浦区先棉祠街(近河南南路)"},{"poiid":"B2094654DB6BA4FF4092","title":"广东仔章鱼小丸子","lon":"121.48854","lat":"31.21764","category":"68","category_name":"快餐厅","address":"黄浦区文庙路231号"},{"poiid":"B2094655D26FA7FA459A","title":"上海市敬业中学(南门)","lon":"121.48838","lat":"31.21689","category":"678","category_name":"学校大门","address":"蓬莱路345"},{"poiid":"B2094654DA6EA0FB439D","title":"上海文庙","lon":"121.48657","lat":"31.21693","category":"244","category_name":"寺庙道观","address":"上海市黄浦区文庙路215号"},{"poiid":"B2094757D068A6F8469A","title":"婚姻登记处(黄浦区登记处)","lon":"121.49044443","lat":"31.214748925","category":"46","category_name":"楼宇","address":"黄浦区中华路1011号(近学前街)查看地图"},{"poiid":"B2094654DA6EA0FB429E","title":"孔乙己酒家","lon":"121.48838","lat":"31.21819","category":"75","category_name":"浙江菜","address":"黄浦区学宫街36号(近老西门文庙)"},{"poiid":"B2094753D76FAAFA449C","title":"上海滩国泰旗舰店","lon":"121.466011","lat":"31.216125","category":"249","category_name":"购物服务","address":"淮海中路868号"},{"poiid":"B209475CD564A7F84292","title":"上海滩新天地店","lon":"121.47463","lat":"31.22164","category":"119","category_name":"商场","address":"\"太仓路181弄新天地北里15号\r\n\""},{"poiid":"B209475CD564A7F84392","title":"上海滩浦东香格里拉店","lon":"121.50058","lat":"31.23634","category":"119","category_name":"商场","address":"浦东富成路33号香格里拉酒店内大堂层"},{"poiid":"B2094757D168A6FD499E","title":"蓬萊路","lon":"121.49024373","lat":"31.217709033","category":"500","category_name":"未知分类","address":"上海市黄浦區蓬萊路"},{"poiid":"B2094757D068A7F4429D","title":"南开大厦","lon":"121.49065","lat":"31.217077","category":"46","category_name":"楼宇","address":"浦东新区金湘路225弄"},{"poiid":"B2094654DA6EA0FA409B","title":"上海市敬业中学","lon":"121.48822","lat":"31.21711","category":"55","category_name":"中学","address":"上海黄浦区蓬莱路345号  "},{"poiid":"B2094654DB6BA4FE4793","title":"豪享来上海大兴街店","lon":"121.4885","lat":"31.214","category":"247","category_name":"餐饮美食","address":"上海市黄浦区大兴街26-30号"},{"poiid":"B2094757D069A2F4419B","title":"园林大厦","lon":"121.48939228085","lat":"31.215035569363","category":"46","category_name":"楼宇","address":"北一环与亳州路交叉口(庐阳区政府对面)"},{"poiid":"B2094655D26EA7FE479E","title":"红宝石中华路店","lon":"121.48735","lat":"31.21607","category":"67","category_name":"甜品店","address":"黄浦区蓬莱路426号(中华路口)"},{"poiid":"B2094655D268A4F54493","title":"黄浦区敬业游泳馆","lon":"121.49069","lat":"31.21562","category":"231","category_name":"游泳馆","address":"黄浦区尚文路183号(尚文路迎勋北路)"},{"poiid":"B2094654DB6BA4FE4998","title":"上海市第十中学","lon":"121.48866","lat":"31.21608","category":"55","category_name":"中学","address":"永宁街25"},{"poiid":"B2094757D069AAFF429E","title":"新梅居(中华路店)","lon":"121.487682738","lat":"31.2151629791","category":"86","category_name":"火锅店","address":"黄浦区中华路1160号(近永宁街)"},{"poiid":"B2094757D16EAAF4499C","title":"滄海苑","lon":"121.48937503","lat":"31.216520808","category":"252","category_name":"楼宇机构","address":"沧海苑位于黄浦学前街111号"},{"poiid":"B2094757D16CA7FC479D","title":"老西门地段医院","lon":"121.489300738","lat":"31.2166863448","category":"162","category_name":"医院","address":"上海学前街"},{"poiid":"B2094757D06BA0FB409D","title":"东北农家饺子村","lon":"121.487563","lat":"31.215112","category":"82","category_name":"东北菜","address":"黄浦区黄家阙路79号"},{"poiid":"B2094654DA6EA0F4499F","title":"老西门街道社区卫生服务中心","lon":"121.48928","lat":"31.21659","category":"162","category_name":"医院","address":"学前街81"},{"poiid":"B2094757D16EAAFD4892","title":"文庙老道前街骨头汤","lon":"121.48902","lat":"31.21714","category":"257","category_name":"中餐厅","address":"黄浦区文庙路233号(近老道前街)"},{"poiid":"B2094757D069A4FD499B","title":"燕山楼烧烤","lon":"121.49052","lat":"31.21522","category":"68","category_name":"快餐厅","address":"黄浦区黄家阙路180号(近中华路)"},{"poiid":"B2094750D768A6FA4093","title":"噫寿司","lon":"121.488","lat":"31.2176","category":"95","category_name":"日本料理","address":"黄浦区文庙路235号(近中华路)"},{"poiid":"B2094654DA68A0F44199","title":"紫宇大楼","lon":"121.489","lat":"31.2163","category":"46","category_name":"楼宇","address":"制造局路27号"},{"poiid":"B2094757D66AA6F94398","title":"黄浦象山海鲜馆","lon":"121.48920434293","lat":"31.214798295002","category":"75","category_name":"浙江菜","address":"黄浦区中华路1117号(近尚文路)"},{"poiid":"B2094757D069A5FE429C","title":"京世美容美发连锁机构(中华店)","lon":"121.48845","lat":"31.21476","category":"148","category_name":"美容美发店","address":"上海黄浦区中华路1142号(近大兴街)"},{"poiid":"B2094757DA6EABF4429A","title":"超级鸡车(蓬莱路店)","lon":"121.488144","lat":"31.2165260000003","category":"68","category_name":"快餐厅","address":"黄浦区蓬莱路374号(近蓬莱路中华路)"},{"poiid":"B2094655D26FA7FB4799","title":"老西门街道社区卫生服务中心(南门)","lon":"121.48944","lat":"31.21666","category":"162","category_name":"医院","address":""},{"poiid":"B2094654DA6EA0FE459D","title":"惠德大厦","lon":"121.48741","lat":"31.21555","category":"46","category_name":"楼宇","address":"朝阳华威桥东北角"},{"poiid":"B2094757D16FA2FB4993","title":"文庙飘香烤鸡翅","lon":"121.48822","lat":"31.21715","category":"68","category_name":"快餐厅","address":"黄浦区文庙路(老道前街文庙路)"},{"poiid":"B2094654DA6EA0F4489C","title":"上海致南职业技能培训学校","lon":"121.48913","lat":"31.21683","category":"54","category_name":"职业技术学校","address":"学前街77号莽原宾馆202室"},{"poiid":"B2094757D16DA2FB459C","title":"文庙路奶茶","lon":"121.48823","lat":"31.21701","category":"67","category_name":"甜品店","address":"上海黄浦区文庙路西北狼烧烤旁  "},{"poiid":"B2094757D568AAFF429C","title":"蓬莱电影院","lon":"121.4899439","lat":"31.216175","category":"178","category_name":"电影院","address":"学前街111号"},{"poiid":"B2094757D66CA2F44793","title":"克里斯汀（陆家浜路店）","lon":"121.488943738","lat":"31.2159969968","category":"247","category_name":"餐饮美食","address":"上海陆家浜路1086号"},{"poiid":"B2094655D26BA7FC4399","title":"上海黄浦区蓬莱老年公寓","lon":"121.48898","lat":"31.21645","category":"207","category_name":"度假疗养场所","address":"学前街66-68"},{"poiid":"B2094757D169A7F9489B","title":"前往愛人的心裡","lon":"121.489099","lat":"31.216442","category":"500","category_name":"未知分类","address":"上海世界之大"},{"poiid":"B2094654DA6EA0FF489D","title":"荷花池第二幼儿园","lon":"121.4896","lat":"31.21569","category":"57","category_name":"幼儿园","address":"黄浦区学前街136号(学前街一粟街)"},{"poiid":"B2094654DA6EA0F4499B","title":"上海黄浦区银星艺术进修学校","lon":"121.48913","lat":"31.21683","category":"53","category_name":"成人教育","address":"学前街77号莽原宾馆2层"},{"poiid":"B2094750D76DA2F44493","title":"文庙面馆","lon":"121.488","lat":"31.2174","category":"68","category_name":"快餐厅","address":"黄浦区老道前街55号(近文庙路)"},{"poiid":"B2094654DA6EA0FF489B","title":"上海市黄浦区梅溪小学","lon":"121.48921","lat":"31.21547","category":"56","category_name":"小学","address":"永宁街20号"},{"poiid":"B2094757D66BA7FE459A","title":"老北京王府井烤鸭","lon":"121.48757","lat":"31.216047","category":"68","category_name":"快餐厅","address":"黄浦区中华路1160号(近狼来了火锅店)"},{"poiid":"B2094757D468A5FB469C","title":"阿平面馆","lon":"121.49074","lat":"31.21517","category":"68","category_name":"快餐厅","address":"黄浦区尚文路243号(近中华路)"},{"poiid":"B2094751DA6EA6FE409A","title":"上海体育场","lon":"121.4908603","lat":"31.2169628","category":"500","category_name":"未知分类","address":null},{"poiid":"B2094757D66CA0F4499F","title":"平利公寓","lon":"121.489637738","lat":"31.215302982","category":"47","category_name":"住宅区","address":"平阳绿家园位于闵行龙茗路888号顾戴路口"},{"poiid":"B2094655D268A0F5499B","title":"蓬莱路303弄小区(南门)","lon":"121.48912","lat":"31.21719","category":"47","category_name":"住宅区","address":"蓬莱路303弄1-36号"},{"poiid":"B2094757D66BA4FC449E","title":"和怡美老象山海鲜","lon":"121.488140054","lat":"31.214310793","category":"75","category_name":"浙江菜","address":"黄浦区黄家厥路(近大吉路)"},{"poiid":"B2094750D76DA2F4439D","title":"文庙菜饭(文庙路店)","lon":"121.487","lat":"31.2168","category":"68","category_name":"快餐厅","address":"黄浦区文庙路282号(中华路口)"},{"poiid":"B2094654DB6BA4FE4893","title":"小西门小区","lon":"121.48809","lat":"31.216133","category":"47","category_name":"住宅区","address":"蓬莱路388弄1-59号"},{"poiid":"B2094750D768A6F9489F","title":"路边馄饨滩","lon":"121.49","lat":"31.2171","category":"68","category_name":"快餐厅","address":"黄浦区先棉祠街(近河南南路)"},{"poiid":"B2094654DB6BA4FF4092","title":"广东仔章鱼小丸子","lon":"121.48854","lat":"31.21764","category":"68","category_name":"快餐厅","address":"黄浦区文庙路231号"},{"poiid":"B2094655D26FA7FA459A","title":"上海市敬业中学(南门)","lon":"121.48838","lat":"31.21689","category":"678","category_name":"学校大门","address":"蓬莱路345"}]