[{"poiid":"B2094654DB6AA6F8409B","title":"上海淳大万丽酒店","lon":"121.55226","lat":"31.22385","category":"213","category_name":"五星级宾馆","address":"浦东新区长柳路100号(近迎春路)"},{"poiid":"B2094654DA69A2F54798","title":"世纪皇冠假日酒店","lon":"121.55118","lat":"31.22346","category":"213","category_name":"五星级宾馆","address":"浦东新区民生路1433号(近迎春路)"},{"poiid":"B2094757D06FA2F5419E","title":"卜蜂莲花(杨高中路店)","lon":"121.55548","lat":"31.23029","category":"118","category_name":"超级市场","address":"浦东新区杨高中路2128号"},{"poiid":"B2094654DB6BAAFC499A","title":"证大五道口广场","lon":"121.55026","lat":"31.22629","category":"45","category_name":"产业园区","address":"浦东新区民生路1199弄"},{"poiid":"B2094655D265A5FC469B","title":"俏江南(联洋广场店)","lon":"121.55759","lat":"31.22673","category":"71","category_name":"四川菜","address":"浦东新区芳甸路300号联洋广场C座2楼(近迎春路)"},{"poiid":"B2094655D36DA0F8489F","title":"杨高中路地铁站","lon":"121.5487","lat":"31.22704","category":"36","category_name":"地铁站","address":"上海轨道交通 九号线 轨交杨高中路站 9"},{"poiid":"B2094757D06FA0F44798","title":"上海浦东出入境检验检疫局","lon":"121.54857635","lat":"31.225637435","category":"500","category_name":"未知分类","address":"上海民生路1208号"},{"poiid":"B2094654DB6BAAFC469E","title":"正大生活馆","lon":"121.55447874603271","lat":"31.231048348101393","category":"119","category_name":"商场","address":"上海浦东新区杨高中路2128号"},{"poiid":"B2094757DA6EA4F5469B","title":"鲜芋仙(正大生活馆店)","lon":"121.553948000001","lat":"31.2307359999998","category":"67","category_name":"甜品店","address":"浦东新区杨高中路2128号卜蜂莲花1楼"},{"poiid":"B2094757D069A3FE479C","title":"宝燕壹号","lon":"121.550677","lat":"31.224298","category":"75","category_name":"浙江菜","address":"浦东新区民生路1399号太平人寿大厦1-2楼(近丁香路)"},{"poiid":"B2094757DB6EA5FC429D","title":"蓝枪鱼酒吧","lon":"121.55625","lat":"31.229569","category":"172","category_name":"酒吧","address":"浦东新区芳甸路199号大拇指广场17号(近丁香路)"},{"poiid":"B2094757D068A0F4479C","title":"上海移动浦东大楼","lon":"121.549956738","lat":"31.2248151847","category":"500","category_name":"未知分类","address":"上海迎春路670号"},{"poiid":"B2094757D664A2FC419A","title":"天家 浦东店","lon":"121.55253955661","lat":"31.225538360007","category":"95","category_name":"日本料理","address":"浦东新区长柳路105号(长柳路迎春路)"},{"poiid":"B2094750D268A0F94993","title":"西贝莜面村 联洋店","lon":"121.557597","lat":"31.22674","category":"84","category_name":"西北菜","address":"浦东新区芳甸路300号联洋广场A区4楼401号铺(近丁香路)"},{"poiid":"B2094757D068A1FD409D","title":"和记小菜精菜坊","lon":"121.55141","lat":"31.22311","category":"76","category_name":"上海菜","address":"浦东新区民生路1433号世纪皇冠酒店3楼(近迎春路)"},{"poiid":"B2094757D06FA5F94892","title":"金鹰大厦","lon":"121.556","lat":"31.2265","category":"46","category_name":"楼宇","address":"上海市平凉路1398号"},{"poiid":"B2094757D068A3FD439B","title":"上海人家精作坊(汇商店)","lon":"121.54943","lat":"31.22415","category":"76","category_name":"上海菜","address":"浦东新区民生路1286号汇商大厦3-4楼(丁香路口)"},{"poiid":"B2094654DA69A2F44998","title":"联洋花园","lon":"121.55357","lat":"31.227642","category":"47","category_name":"住宅区","address":"丁香路901弄"},{"poiid":"B2094757D068A1F9439B","title":"老克勒上海菜 芳甸路店","lon":"121.558168054","lat":"31.226980793","category":"76","category_name":"上海菜","address":"浦东新区芳甸路300号联洋广场B区2楼(大拇指广场对面)"},{"poiid":"B2094757D16CA6FE409B","title":"世纪皇冠假日酒店咖啡园","lon":"121.551","lat":"31.22299","category":"268","category_name":"自助","address":"浦东新区民生路1433号上海世纪皇冠假日酒店1楼大堂(迎春路口)"},{"poiid":"B2094757D465A3FF469B","title":"霖上海味道 联洋广场店","lon":"121.557597","lat":"31.22674","category":"76","category_name":"上海菜","address":"浦东新区芳甸路300号联洋广场B区2楼"},{"poiid":"B2094654DB6BAAFC469D","title":"一茶一坐 杨高店","lon":"121.554856054","lat":"31.230660793","category":"260","category_name":"其他","address":"浦东新区杨高中路2128号正大生活馆内(近四方路)"},{"poiid":"B2094757D06AA4FA419E","title":"联洋年华","lon":"121.55396","lat":"31.224865","category":"500","category_name":"未知分类","address":"上海市浦东新区丁香路910号"},{"poiid":"B2094655D26EA2F4409C","title":"长荣大厦","lon":"121.55006","lat":"31.22619","category":"46","category_name":"楼宇","address":"民生路1199弄证大五道口广场2号楼(南楼)"},{"poiid":"B2094757D06BA5FE4593","title":"万丽轩(淳大万丽店)","lon":"121.55297","lat":"31.22337","category":"72","category_name":"广东菜","address":"上海浦东新区长柳路100号淳大万丽酒店2楼(近迎春路)"},{"poiid":"B2094757D068A4F4489B","title":"上海移动民生大楼","lon":"121.55168467","lat":"31.2229133452","category":"46","category_name":"楼宇","address":"上海迎春路670号"},{"poiid":"B2094757D069A0FB4392","title":"民生路杨高中路","lon":"121.54730074","lat":"31.227248106","category":"500","category_name":"未知分类","address":"上海民生路杨高中路"},{"poiid":"B2094757D068A5FD4893","title":"联洋社区","lon":"121.55323028","lat":"31.226751327","category":"47","category_name":"住宅区","address":"上海丁香路"},{"poiid":"B2094757D068A6F4449C","title":"味千拉面(杨高中路店)","lon":"121.55448","lat":"31.23052","category":"68","category_name":"快餐厅","address":"上海浦东新区杨高中路2128号卜蜂莲花超市1楼正大生活馆内(近芳甸路)"},{"poiid":"B2094654DA69A2F44893","title":"太平人寿大厦","lon":"121.55068","lat":"31.22429","category":"46","category_name":"楼宇","address":"闸北区江场西路395号"},{"poiid":"B2094757D068A6F4459A","title":"富淳饭店(联洋店)","lon":"121.55282","lat":"31.22336","category":"72","category_name":"广东菜","address":"浦东新区长柳路100号淳大万丽酒店3楼(近迎春路)"},{"poiid":"B2094757D464A4FE4293","title":"萨莉亚 杨高中路店","lon":"121.55471","lat":"31.230562","category":"94","category_name":"西餐厅","address":"浦东新区杨高中路2128号正大生活馆内(近四方路)"},{"poiid":"B2094750D669A3F9499D","title":"古北汤馆","lon":"121.552215","lat":"31.224241","category":"247","category_name":"餐饮美食","address":"浦东新区长柳路58号(近迎春路)"},{"poiid":"B2094757D069AAFC409F","title":"阿香米线(杨高中路店)","lon":"121.554282","lat":"31.230963","category":"68","category_name":"快餐厅","address":"浦东新区杨高中路2128号正大生活馆内(近四方路)"},{"poiid":"B2094757D16CAAFB419C","title":"上海银监局","lon":"121.54826773","lat":"31.224110169","category":"500","category_name":"未知分类","address":"上海合欢路35号"},{"poiid":"B2094757D169A3FD489F","title":"世纪公园游乐园草坪","lon":"121.552391238","lat":"31.2227846414","category":"196","category_name":"公园","address":"上海世纪公园"},{"poiid":"B2094757D069AAFC429F","title":"百春原南味粉面","lon":"121.55412673","lat":"31.231033317","category":"68","category_name":"快餐厅","address":"浦东新区杨高中路2128号正大生活馆1楼(世纪公园)"},{"poiid":"B2094655D26DA6F84899","title":"肯德基 杨高中路店 KFC","lon":"121.554856054","lat":"31.230660793","category":"68","category_name":"快餐厅","address":"浦东新区杨高中路2128号正大生活馆内(近四方路)"},{"poiid":"B2094751D36CA5FD479C","title":"四季亭(民生路店)","lon":"121.55096","lat":"31.22329","category":"95","category_name":"日本料理","address":"浦东新区民生路1433号世纪皇冠假日酒店2楼(近迎春路路口)"},{"poiid":"B2094757D16EABF5459F","title":"东方幼儿园丁香部","lon":"121.55326073","lat":"31.226997231","category":"500","category_name":"未知分类","address":"浦东新区丁香路911号(长柳路丁香路)"},{"poiid":"B2094757D06AA1FC409D","title":"一兆韦德联洋店","lon":"121.55614113","lat":"31.226435661","category":"247","category_name":"餐饮美食","address":"浦东新区芳甸路333弄1号(锦绣路口)"},{"poiid":"B2094751D264ABFE499A","title":"CoCo壱番屋","lon":"121.55394","lat":"31.23073","category":"95","category_name":"日本料理","address":"浦东新区杨高中路2128号正大生活馆1楼(近四方路)"},{"poiid":"B2094757DA65AAF8469C","title":"炉边谈情","lon":"121.5541554","lat":"31.22779637","category":"247","category_name":"餐饮美食","address":"大拇指广场"},{"poiid":"B2094757D06BA3FD4692","title":"乐柚炭烤(迎春路店)","lon":"121.5552","lat":"31.22429","category":"96","category_name":"韩国料理","address":"浦东新区迎春路813号(近长柳路)"},{"poiid":"B2094757D468A4FC409F","title":"德兴第五季港式火锅","lon":"121.557597","lat":"31.22674","category":"86","category_name":"火锅店","address":"浦东新区芳甸路300号联洋广场A区4楼(近丁香路)"},{"poiid":"B2094751D564A1FA4192","title":"竹若","lon":"121.555084","lat":"31.229161","category":"247","category_name":"餐饮美食","address":"浦东新区芳甸路199弄大拇指广场51号(近丁香路)"},{"poiid":"B2094757DA65A3F94198","title":"大拇指","lon":"121.55253955661","lat":"31.225538360007","category":"627","category_name":"一般地点标志","address":"丁香路"},{"poiid":"B2094757D66BA2FC439A","title":"淳大万丽日本餐厅","lon":"121.55266408","lat":"31.22380449","category":"95","category_name":"日本料理","address":"长柳路100号淳大万丽酒店1楼近迎春路"},{"poiid":"B2094655D36CA6F4479B","title":"丁香路长柳路","lon":"121.55291","lat":"31.22641","category":"38","category_name":"公交车站","address":""},{"poiid":"B2094757D069A3F8499C","title":"阿迪达斯折扣店(正大生活馆店)","lon":"121.55447","lat":"31.23052","category":"140","category_name":"体育用品店","address":"浦东新区杨高中路2128号正大生活馆内(近四方路)"},{"poiid":"B2094654DB6AA6F8409B","title":"上海淳大万丽酒店","lon":"121.55226","lat":"31.22385","category":"213","category_name":"五星级宾馆","address":"浦东新区长柳路100号(近迎春路)"},{"poiid":"B2094654DA69A2F54798","title":"世纪皇冠假日酒店","lon":"121.55118","lat":"31.22346","category":"213","category_name":"五星级宾馆","address":"浦东新区民生路1433号(近迎春路)"},{"poiid":"B2094757D06FA2F5419E","title":"卜蜂莲花(杨高中路店)","lon":"121.55548","lat":"31.23029","category":"118","category_name":"超级市场","address":"浦东新区杨高中路2128号"},{"poiid":"B2094654DB6BAAFC499A","title":"证大五道口广场","lon":"121.55026","lat":"31.22629","category":"45","category_name":"产业园区","address":"浦东新区民生路1199弄"},{"poiid":"B2094655D265A5FC469B","title":"俏江南(联洋广场店)","lon":"121.55759","lat":"31.22673","category":"71","category_name":"四川菜","address":"浦东新区芳甸路300号联洋广场C座2楼(近迎春路)"},{"poiid":"B2094655D36DA0F8489F","title":"杨高中路地铁站","lon":"121.5487","lat":"31.22704","category":"36","category_name":"地铁站","address":"上海轨道交通 九号线 轨交杨高中路站 9"},{"poiid":"B2094757D06FA0F44798","title":"上海浦东出入境检验检疫局","lon":"121.54857635","lat":"31.225637435","category":"500","category_name":"未知分类","address":"上海民生路1208号"},{"poiid":"B2094654DB6BAAFC469E","title":"正大生活馆","lon":"121.55447874603271","lat":"31.231048348101393","category":"119","category_name":"商场","address":"上海浦东新区杨高中路2128号"},{"poiid":"B2094757DA6EA4F5469B","title":"鲜芋仙(正大生活馆店)","lon":"121.553948000001","lat":"31.2307359999998","category":"67","category_name":"甜品店","address":"浦东新区杨高中路2128号卜蜂莲花1楼"},{"poiid":"B2094757D069A3FE479C","title":"宝燕壹号","lon":"121.550677","lat":"31.224298","category":"75","category_name":"浙江菜","address":"浦东新区民生路1399号太平人寿大厦1-2楼(近丁香路)"},{"poiid":"B2094757DB6EA5FC429D","title":"蓝枪鱼酒吧","lon":"121.55625","lat":"31.229569","category":"172","category_name":"酒吧","address":"浦东新区芳甸路199号大拇指广场17号(近丁香路)"},{"poiid":"B2094757D068A0F4479C","title":"上海移动浦东大楼","lon":"121.549956738","lat":"31.2248151847","category":"500","category_name":"未知分类","address":"上海迎春路670号"},{"poiid":"B2094757D664A2FC419A","title":"天家 浦东店","lon":"121.55253955661","lat":"31.225538360007","category":"95","category_name":"日本料理","address":"浦东新区长柳路105号(长柳路迎春路)"},{"poiid":"B2094750D268A0F94993","title":"西贝莜面村 联洋店","lon":"121.557597","lat":"31.22674","category":"84","category_name":"西北菜","address":"浦东新区芳甸路300号联洋广场A区4楼401号铺(近丁香路)"},{"poiid":"B2094757D068A1FD409D","title":"和记小菜精菜坊","lon":"121.55141","lat":"31.22311","category":"76","category_name":"上海菜","address":"浦东新区民生路1433号世纪皇冠酒店3楼(近迎春路)"},{"poiid":"B2094757D06FA5F94892","title":"金鹰大厦","lon":"121.556","lat":"31.2265","category":"46","category_name":"楼宇","address":"上海市平凉路1398号"},{"poiid":"B2094757D068A3FD439B","title":"上海人家精作坊(汇商店)","lon":"121.54943","lat":"31.22415","category":"76","category_name":"上海菜","address":"浦东新区民生路1286号汇商大厦3-4楼(丁香路口)"},{"poiid":"B2094654DA69A2F44998","title":"联洋花园","lon":"121.55357","lat":"31.227642","category":"47","category_name":"住宅区","address":"丁香路901弄"},{"poiid":"B2094757D068A1F9439B","title":"老克勒上海菜 芳甸路店","lon":"121.558168054","lat":"31.226980793","category":"76","category_name":"上海菜","address":"浦东新区芳甸路300号联洋广场B区2楼(大拇指广场对面)"},{"poiid":"B2094757D16CA6FE409B","title":"世纪皇冠假日酒店咖啡园","lon":"121.551","lat":"31.22299","category":"268","category_name":"自助","address":"浦东新区民生路1433号上海世纪皇冠假日酒店1楼大堂(迎春路口)"},{"poiid":"B2094757D465A3FF469B","title":"霖上海味道 联洋广场店","lon":"121.557597","lat":"31.22674","category":"76","category_name":"上海菜","address":"浦东新区芳甸路300号联洋广场B区2楼"},{"poiid":"B2094654DB6BAAFC469D","title":"一茶一坐 杨高店","lon":"121.554856054","lat":"31.230660793","category":"260","category_name":"其他","address":"浦东新区杨高中路2128号正大生活馆内(近四方路)"},{"poiid":"B2094757D06AA4FA419E","title":"联洋年华","lon":"121.55396","lat":"31.224865","category":"500","category_name":"未知分类","address":"上海市浦东新区丁香路910号"},{"poiid":"B2094655D26EA2F4409C","title":"长荣大厦","lon":"121.55006","lat":"31.22619","category":"46","category_name":"楼宇","address":"民生路1199弄证大五道口广场2号楼(南楼)"},{"poiid":"B2094757D06BA5FE4593","title":"万丽轩(淳大万丽店)","lon":"121.55297","lat":"31.22337","category":"72","category_name":"广东菜","address":"上海浦东新区长柳路100号淳大万丽酒店2楼(近迎春路)"},{"poiid":"B2094757D068A4F4489B","title":"上海移动民生大楼","lon":"121.55168467","lat":"31.2229133452","category":"46","category_name":"楼宇","address":"上海迎春路670号"},{"poiid":"B2094757D069A0FB4392","title":"民生路杨高中路","lon":"121.54730074","lat":"31.227248106","category":"500","category_name":"未知分类","address":"上海民生路杨高中路"},{"poiid":"B2094757D068A5FD4893","title":"联洋社区","lon":"121.55323028","lat":"31.226751327","category":"47","category_name":"住宅区","address":"上海丁香路"},{"poiid":"B2094757D068A6F4449C","title":"味千拉面(杨高中路店)","lon":"121.55448","lat":"31.23052","category":"68","category_name":"快餐厅","address":"上海浦东新区杨高中路2128号卜蜂莲花超市1楼正大生活馆内(近芳甸路)"},{"poiid":"B2094654DA69A2F44893","title":"太平人寿大厦","lon":"121.55068","lat":"31.22429","category":"46","category_name":"楼宇","address":"闸北区江场西路395号"},{"poiid":"B2094757D068A6F4459A","title":"富淳饭店(联洋店)","lon":"121.55282","lat":"31.22336","category":"72","category_name":"广东菜","address":"浦东新区长柳路100号淳大万丽酒店3楼(近迎春路)"},{"poiid":"B2094757D464A4FE4293","title":"萨莉亚 杨高中路店","lon":"121.55471","lat":"31.230562","category":"94","category_name":"西餐厅","address":"浦东新区杨高中路2128号正大生活馆内(近四方路)"},{"poiid":"B2094750D669A3F9499D","title":"古北汤馆","lon":"121.552215","lat":"31.224241","category":"247","category_name":"餐饮美食","address":"浦东新区长柳路58号(近迎春路)"},{"poiid":"B2094757D069AAFC409F","title":"阿香米线(杨高中路店)","lon":"121.554282","lat":"31.230963","category":"68","category_name":"快餐厅","address":"浦东新区杨高中路2128号正大生活馆内(近四方路)"},{"poiid":"B2094757D16CAAFB419C","title":"上海银监局","lon":"121.54826773","lat":"31.224110169","category":"500","category_name":"未知分类","address":"上海合欢路35号"},{"poiid":"B2094757D169A3FD489F","title":"世纪公园游乐园草坪","lon":"121.552391238","lat":"31.2227846414","category":"196","category_name":"公园","address":"上海世纪公园"},{"poiid":"B2094757D069AAFC429F","title":"百春原南味粉面","lon":"121.55412673","lat":"31.231033317","category":"68","category_name":"快餐厅","address":"浦东新区杨高中路2128号正大生活馆1楼(世纪公园)"},{"poiid":"B2094655D26DA6F84899","title":"肯德基 杨高中路店 KFC","lon":"121.554856054","lat":"31.230660793","category":"68","category_name":"快餐厅","address":"浦东新区杨高中路2128号正大生活馆内(近四方路)"},{"poiid":"B2094751D36CA5FD479C","title":"四季亭(民生路店)","lon":"121.55096","lat":"31.22329","category":"95","category_name":"日本料理","address":"浦东新区民生路1433号世纪皇冠假日酒店2楼(近迎春路路口)"},{"poiid":"B2094757D16EABF5459F","title":"东方幼儿园丁香部","lon":"121.55326073","lat":"31.226997231","category":"500","category_name":"未知分类","address":"浦东新区丁香路911号(长柳路丁香路)"},{"poiid":"B2094757D06AA1FC409D","title":"一兆韦德联洋店","lon":"121.55614113","lat":"31.226435661","category":"247","category_name":"餐饮美食","address":"浦东新区芳甸路333弄1号(锦绣路口)"},{"poiid":"B2094751D264ABFE499A","title":"CoCo壱番屋","lon":"121.55394","lat":"31.23073","category":"95","category_name":"日本料理","address":"浦东新区杨高中路2128号正大生活馆1楼(近四方路)"},{"poiid":"B2094757DA65AAF8469C","title":"炉边谈情","lon":"121.5541554","lat":"31.22779637","category":"247","category_name":"餐饮美食","address":"大拇指广场"},{"poiid":"B2094757D06BA3FD4692","title":"乐柚炭烤(迎春路店)","lon":"121.5552","lat":"31.22429","category":"96","category_name":"韩国料理","address":"浦东新区迎春路813号(近长柳路)"},{"poiid":"B2094757D468A4FC409F","title":"德兴第五季港式火锅","lon":"121.557597","lat":"31.22674","category":"86","category_name":"火锅店","address":"浦东新区芳甸路300号联洋广场A区4楼(近丁香路)"},{"poiid":"B2094751D564A1FA4192","title":"竹若","lon":"121.555084","lat":"31.229161","category":"247","category_name":"餐饮美食","address":"浦东新区芳甸路199弄大拇指广场51号(近丁香路)"},{"poiid":"B2094757DA65A3F94198","title":"大拇指","lon":"121.55253955661","lat":"31.225538360007","category":"627","category_name":"一般地点标志","address":"丁香路"},{"poiid":"B2094757D66BA2FC439A","title":"淳大万丽日本餐厅","lon":"121.55266408","lat":"31.22380449","category":"95","category_name":"日本料理","address":"长柳路100号淳大万丽酒店1楼近迎春路"},{"poiid":"B2094655D36CA6F4479B","title":"丁香路长柳路","lon":"121.55291","lat":"31.22641","category":"38","category_name":"公交车站","address":""},{"poiid":"B2094757D069A3F8499C","title":"阿迪达斯折扣店(正大生活馆店)","lon":"121.55447","lat":"31.23052","category":"140","category_name":"体育用品店","address":"浦东新区杨高中路2128号正大生活馆内(近四方路)"},{"poiid":"B2094654DB6AA6F8409B","title":"上海淳大万丽酒店","lon":"121.55226","lat":"31.22385","category":"213","category_name":"五星级宾馆","address":"浦东新区长柳路100号(近迎春路)"},{"poiid":"B2094654DA69A2F54798","title":"世纪皇冠假日酒店","lon":"121.55118","lat":"31.22346","category":"213","category_name":"五星级宾馆","address":"浦东新区民生路1433号(近迎春路)"},{"poiid":"B2094757D06FA2F5419E","title":"卜蜂莲花(杨高中路店)","lon":"121.55548","lat":"31.23029","category":"118","category_name":"超级市场","address":"浦东新区杨高中路2128号"},{"poiid":"B2094654DB6BAAFC499A","title":"证大五道口广场","lon":"121.55026","lat":"31.22629","category":"45","category_name":"产业园区","address":"浦东新区民生路1199弄"},{"poiid":"B2094655D265A5FC469B","title":"俏江南(联洋广场店)","lon":"121.55759","lat":"31.22673","category":"71","category_name":"四川菜","address":"浦东新区芳甸路300号联洋广场C座2楼(近迎春路)"},{"poiid":"B2094655D36DA0F8489F","title":"杨高中路地铁站","lon":"121.5487","lat":"31.22704","category":"36","category_name":"地铁站","address":"上海轨道交通 九号线 轨交杨高中路站 9"},{"poiid":"B2094757D06FA0F44798","title":"上海浦东出入境检验检疫局","lon":"121.54857635","lat":"31.225637435","category":"500","category_name":"未知分类","address":"上海民生路1208号"},{"poiid":"B2094654DB6BAAFC469E","title":"正大生活馆","lon":"121.55447874603271","lat":"31.231048348101393","category":"119","category_name":"商场","address":"上海浦东新区杨高中路2128号"},{"poiid":"B2094757DA6EA4F5469B","title":"鲜芋仙(正大生活馆店)","lon":"121.553948000001","lat":"31.2307359999998","category":"67","category_name":"甜品店","address":"浦东新区杨高中路2128号卜蜂莲花1楼"},{"poiid":"B2094757D069A3FE479C","title":"宝燕壹号","lon":"121.550677","lat":"31.224298","category":"75","category_name":"浙江菜","address":"浦东新区民生路1399号太平人寿大厦1-2楼(近丁香路)"},{"poiid":"B2094757DB6EA5FC429D","title":"蓝枪鱼酒吧","lon":"121.55625","lat":"31.229569","category":"172","category_name":"酒吧","address":"浦东新区芳甸路199号大拇指广场17号(近丁香路)"},{"poiid":"B2094757D068A0F4479C","title":"上海移动浦东大楼","lon":"121.549956738","lat":"31.2248151847","category":"500","category_name":"未知分类","address":"上海迎春路670号"},{"poiid":"B2094757D664A2FC419A","title":"天家 浦东店","lon":"121.55253955661","lat":"31.225538360007","category":"95","category_name":"日本料理","address":"浦东新区长柳路105号(长柳路迎春路)"},{"poiid":"B2094750D268A0F94993","title":"西贝莜面村 联洋店","lon":"121.557597","lat":"31.22674","category":"84","category_name":"西北菜","address":"浦东新区芳甸路300号联洋广场A区4楼401号铺(近丁香路)"},{"poiid":"B2094757D068A1FD409D","title":"和记小菜精菜坊","lon":"121.55141","lat":"31.22311","category":"76","category_name":"上海菜","address":"浦东新区民生路1433号世纪皇冠酒店3楼(近迎春路)"},{"poiid":"B2094757D06FA5F94892","title":"金鹰大厦","lon":"121.556","lat":"31.2265","category":"46","category_name":"楼宇","address":"上海市平凉路1398号"},{"poiid":"B2094757D068A3FD439B","title":"上海人家精作坊(汇商店)","lon":"121.54943","lat":"31.22415","category":"76","category_name":"上海菜","address":"浦东新区民生路1286号汇商大厦3-4楼(丁香路口)"},{"poiid":"B2094654DA69A2F44998","title":"联洋花园","lon":"121.55357","lat":"31.227642","category":"47","category_name":"住宅区","address":"丁香路901弄"},{"poiid":"B2094757D068A1F9439B","title":"老克勒上海菜 芳甸路店","lon":"121.558168054","lat":"31.226980793","category":"76","category_name":"上海菜","address":"浦东新区芳甸路300号联洋广场B区2楼(大拇指广场对面)"},{"poiid":"B2094757D16CA6FE409B","title":"世纪皇冠假日酒店咖啡园","lon":"121.551","lat":"31.22299","category":"268","category_name":"自助","address":"浦东新区民生路1433号上海世纪皇冠假日酒店1楼大堂(迎春路口)"},{"poiid":"B2094757D465A3FF469B","title":"霖上海味道 联洋广场店","lon":"121.557597","lat":"31.22674","category":"76","category_name":"上海菜","address":"浦东新区芳甸路300号联洋广场B区2楼"},{"poiid":"B2094654DB6BAAFC469D","title":"一茶一坐 杨高店","lon":"121.554856054","lat":"31.230660793","category":"260","category_name":"其他","address":"浦东新区杨高中路2128号正大生活馆内(近四方路)"},{"poiid":"B2094757D06AA4FA419E","title":"联洋年华","lon":"121.55396","lat":"31.224865","category":"500","category_name":"未知分类","address":"上海市浦东新区丁香路910号"},{"poiid":"B2094655D26EA2F4409C","title":"长荣大厦","lon":"121.55006","lat":"31.22619","category":"46","category_name":"楼宇","address":"民生路1199弄证大五道口广场2号楼(南楼)"},{"poiid":"B2094757D06BA5FE4593","title":"万丽轩(淳大万丽店)","lon":"121.55297","lat":"31.22337","category":"72","category_name":"广东菜","address":"上海浦东新区长柳路100号淳大万丽酒店2楼(近迎春路)"},{"poiid":"B2094757D068A4F4489B","title":"上海移动民生大楼","lon":"121.55168467","lat":"31.2229133452","category":"46","category_name":"楼宇","address":"上海迎春路670号"},{"poiid":"B2094757D069A0FB4392","title":"民生路杨高中路","lon":"121.54730074","lat":"31.227248106","category":"500","category_name":"未知分类","address":"上海民生路杨高中路"},{"poiid":"B2094757D068A5FD4893","title":"联洋社区","lon":"121.55323028","lat":"31.226751327","category":"47","category_name":"住宅区","address":"上海丁香路"},{"poiid":"B2094757D068A6F4449C","title":"味千拉面(杨高中路店)","lon":"121.55448","lat":"31.23052","category":"68","category_name":"快餐厅","address":"上海浦东新区杨高中路2128号卜蜂莲花超市1楼正大生活馆内(近芳甸路)"},{"poiid":"B2094654DA69A2F44893","title":"太平人寿大厦","lon":"121.55068","lat":"31.22429","category":"46","category_name":"楼宇","address":"闸北区江场西路395号"},{"poiid":"B2094757D068A6F4459A","title":"富淳饭店(联洋店)","lon":"121.55282","lat":"31.22336","category":"72","category_name":"广东菜","address":"浦东新区长柳路100号淳大万丽酒店3楼(近迎春路)"},{"poiid":"B2094757D464A4FE4293","title":"萨莉亚 杨高中路店","lon":"121.55471","lat":"31.230562","category":"94","category_name":"西餐厅","address":"浦东新区杨高中路2128号正大生活馆内(近四方路)"},{"poiid":"B2094750D669A3F9499D","title":"古北汤馆","lon":"121.552215","lat":"31.224241","category":"247","category_name":"餐饮美食","address":"浦东新区长柳路58号(近迎春路)"},{"poiid":"B2094757D069AAFC409F","title":"阿香米线(杨高中路店)","lon":"121.554282","lat":"31.230963","category":"68","category_name":"快餐厅","address":"浦东新区杨高中路2128号正大生活馆内(近四方路)"},{"poiid":"B2094757D16CAAFB419C","title":"上海银监局","lon":"121.54826773","lat":"31.224110169","category":"500","category_name":"未知分类","address":"上海合欢路35号"},{"poiid":"B2094757D169A3FD489F","title":"世纪公园游乐园草坪","lon":"121.552391238","lat":"31.2227846414","category":"196","category_name":"公园","address":"上海世纪公园"},{"poiid":"B2094757D069AAFC429F","title":"百春原南味粉面","lon":"121.55412673","lat":"31.231033317","category":"68","category_name":"快餐厅","address":"浦东新区杨高中路2128号正大生活馆1楼(世纪公园)"},{"poiid":"B2094655D26DA6F84899","title":"肯德基 杨高中路店 KFC","lon":"121.554856054","lat":"31.230660793","category":"68","category_name":"快餐厅","address":"浦东新区杨高中路2128号正大生活馆内(近四方路)"},{"poiid":"B2094751D36CA5FD479C","title":"四季亭(民生路店)","lon":"121.55096","lat":"31.22329","category":"95","category_name":"日本料理","address":"浦东新区民生路1433号世纪皇冠假日酒店2楼(近迎春路路口)"},{"poiid":"B2094757D16EABF5459F","title":"东方幼儿园丁香部","lon":"121.55326073","lat":"31.226997231","category":"500","category_name":"未知分类","address":"浦东新区丁香路911号(长柳路丁香路)"},{"poiid":"B2094757D06AA1FC409D","title":"一兆韦德联洋店","lon":"121.55614113","lat":"31.226435661","category":"247","category_name":"餐饮美食","address":"浦东新区芳甸路333弄1号(锦绣路口)"},{"poiid":"B2094751D264ABFE499A","title":"CoCo壱番屋","lon":"121.55394","lat":"31.23073","category":"95","category_name":"日本料理","address":"浦东新区杨高中路2128号正大生活馆1楼(近四方路)"},{"poiid":"B2094757DA65AAF8469C","title":"炉边谈情","lon":"121.5541554","lat":"31.22779637","category":"247","category_name":"餐饮美食","address":"大拇指广场"},{"poiid":"B2094757D06BA3FD4692","title":"乐柚炭烤(迎春路店)","lon":"121.5552","lat":"31.22429","category":"96","category_name":"韩国料理","address":"浦东新区迎春路813号(近长柳路)"},{"poiid":"B2094757D468A4FC409F","title":"德兴第五季港式火锅","lon":"121.557597","lat":"31.22674","category":"86","category_name":"火锅店","address":"浦东新区芳甸路300号联洋广场A区4楼(近丁香路)"},{"poiid":"B2094751D564A1FA4192","title":"竹若","lon":"121.555084","lat":"31.229161","category":"247","category_name":"餐饮美食","address":"浦东新区芳甸路199弄大拇指广场51号(近丁香路)"},{"poiid":"B2094757DA65A3F94198","title":"大拇指","lon":"121.55253955661","lat":"31.225538360007","category":"627","category_name":"一般地点标志","address":"丁香路"},{"poiid":"B2094757D66BA2FC439A","title":"淳大万丽日本餐厅","lon":"121.55266408","lat":"31.22380449","category":"95","category_name":"日本料理","address":"长柳路100号淳大万丽酒店1楼近迎春路"},{"poiid":"B2094655D36CA6F4479B","title":"丁香路长柳路","lon":"121.55291","lat":"31.22641","category":"38","category_name":"公交车站","address":""},{"poiid":"B2094757D069A3F8499C","title":"阿迪达斯折扣店(正大生活馆店)","lon":"121.55447","lat":"31.23052","category":"140","category_name":"体育用品店","address":"浦东新区杨高中路2128号正大生活馆内(近四方路)"},{"poiid":"B2094654DB6AA6F8409B","title":"上海淳大万丽酒店","lon":"121.55226","lat":"31.22385","category":"213","category_name":"五星级宾馆","address":"浦东新区长柳路100号(近迎春路)"},{"poiid":"B2094654DA69A2F54798","title":"世纪皇冠假日酒店","lon":"121.55118","lat":"31.22346","category":"213","category_name":"五星级宾馆","address":"浦东新区民生路1433号(近迎春路)"},{"poiid":"B2094757D06FA2F5419E","title":"卜蜂莲花(杨高中路店)","lon":"121.55548","lat":"31.23029","category":"118","category_name":"超级市场","address":"浦东新区杨高中路2128号"},{"poiid":"B2094654DB6BAAFC499A","title":"证大五道口广场","lon":"121.55026","lat":"31.22629","category":"45","category_name":"产业园区","address":"浦东新区民生路1199弄"},{"poiid":"B2094655D265A5FC469B","title":"俏江南(联洋广场店)","lon":"121.55759","lat":"31.22673","category":"71","category_name":"四川菜","address":"浦东新区芳甸路300号联洋广场C座2楼(近迎春路)"},{"poiid":"B2094655D36DA0F8489F","title":"杨高中路地铁站","lon":"121.5487","lat":"31.22704","category":"36","category_name":"地铁站","address":"上海轨道交通 九号线 轨交杨高中路站 9"},{"poiid":"B2094757D06FA0F44798","title":"上海浦东出入境检验检疫局","lon":"121.54857635","lat":"31.225637435","category":"500","category_name":"未知分类","address":"上海民生路1208号"},{"poiid":"B2094654DB6BAAFC469E","title":"正大生活馆","lon":"121.55447874603271","lat":"31.231048348101393","category":"119","category_name":"商场","address":"上海浦东新区杨高中路2128号"},{"poiid":"B2094757DA6EA4F5469B","title":"鲜芋仙(正大生活馆店)","lon":"121.553948000001","lat":"31.2307359999998","category":"67","category_name":"甜品店","address":"浦东新区杨高中路2128号卜蜂莲花1楼"},{"poiid":"B2094757D069A3FE479C","title":"宝燕壹号","lon":"121.550677","lat":"31.224298","category":"75","category_name":"浙江菜","address":"浦东新区民生路1399号太平人寿大厦1-2楼(近丁香路)"},{"poiid":"B2094757DB6EA5FC429D","title":"蓝枪鱼酒吧","lon":"121.55625","lat":"31.229569","category":"172","category_name":"酒吧","address":"浦东新区芳甸路199号大拇指广场17号(近丁香路)"},{"poiid":"B2094757D068A0F4479C","title":"上海移动浦东大楼","lon":"121.549956738","lat":"31.2248151847","category":"500","category_name":"未知分类","address":"上海迎春路670号"},{"poiid":"B2094757D664A2FC419A","title":"天家 浦东店","lon":"121.55253955661","lat":"31.225538360007","category":"95","category_name":"日本料理","address":"浦东新区长柳路105号(长柳路迎春路)"},{"poiid":"B2094750D268A0F94993","title":"西贝莜面村 联洋店","lon":"121.557597","lat":"31.22674","category":"84","category_name":"西北菜","address":"浦东新区芳甸路300号联洋广场A区4楼401号铺(近丁香路)"},{"poiid":"B2094757D068A1FD409D","title":"和记小菜精菜坊","lon":"121.55141","lat":"31.22311","category":"76","category_name":"上海菜","address":"浦东新区民生路1433号世纪皇冠酒店3楼(近迎春路)"},{"poiid":"B2094757D06FA5F94892","title":"金鹰大厦","lon":"121.556","lat":"31.2265","category":"46","category_name":"楼宇","address":"上海市平凉路1398号"},{"poiid":"B2094757D068A3FD439B","title":"上海人家精作坊(汇商店)","lon":"121.54943","lat":"31.22415","category":"76","category_name":"上海菜","address":"浦东新区民生路1286号汇商大厦3-4楼(丁香路口)"},{"poiid":"B2094654DA69A2F44998","title":"联洋花园","lon":"121.55357","lat":"31.227642","category":"47","category_name":"住宅区","address":"丁香路901弄"},{"poiid":"B2094757D068A1F9439B","title":"老克勒上海菜 芳甸路店","lon":"121.558168054","lat":"31.226980793","category":"76","category_name":"上海菜","address":"浦东新区芳甸路300号联洋广场B区2楼(大拇指广场对面)"},{"poiid":"B2094757D16CA6FE409B","title":"世纪皇冠假日酒店咖啡园","lon":"121.551","lat":"31.22299","category":"268","category_name":"自助","address":"浦东新区民生路1433号上海世纪皇冠假日酒店1楼大堂(迎春路口)"},{"poiid":"B2094757D465A3FF469B","title":"霖上海味道 联洋广场店","lon":"121.557597","lat":"31.22674","category":"76","category_name":"上海菜","address":"浦东新区芳甸路300号联洋广场B区2楼"},{"poiid":"B2094654DB6BAAFC469D","title":"一茶一坐 杨高店","lon":"121.554856054","lat":"31.230660793","category":"260","category_name":"其他","address":"浦东新区杨高中路2128号正大生活馆内(近四方路)"},{"poiid":"B2094757D06AA4FA419E","title":"联洋年华","lon":"121.55396","lat":"31.224865","category":"500","category_name":"未知分类","address":"上海市浦东新区丁香路910号"},{"poiid":"B2094655D26EA2F4409C","title":"长荣大厦","lon":"121.55006","lat":"31.22619","category":"46","category_name":"楼宇","address":"民生路1199弄证大五道口广场2号楼(南楼)"},{"poiid":"B2094757D06BA5FE4593","title":"万丽轩(淳大万丽店)","lon":"121.55297","lat":"31.22337","category":"72","category_name":"广东菜","address":"上海浦东新区长柳路100号淳大万丽酒店2楼(近迎春路)"},{"poiid":"B2094757D068A4F4489B","title":"上海移动民生大楼","lon":"121.55168467","lat":"31.2229133452","category":"46","category_name":"楼宇","address":"上海迎春路670号"},{"poiid":"B2094757D069A0FB4392","title":"民生路杨高中路","lon":"121.54730074","lat":"31.227248106","category":"500","category_name":"未知分类","address":"上海民生路杨高中路"},{"poiid":"B2094757D068A5FD4893","title":"联洋社区","lon":"121.55323028","lat":"31.226751327","category":"47","category_name":"住宅区","address":"上海丁香路"},{"poiid":"B2094757D068A6F4449C","title":"味千拉面(杨高中路店)","lon":"121.55448","lat":"31.23052","category":"68","category_name":"快餐厅","address":"上海浦东新区杨高中路2128号卜蜂莲花超市1楼正大生活馆内(近芳甸路)"},{"poiid":"B2094654DA69A2F44893","title":"太平人寿大厦","lon":"121.55068","lat":"31.22429","category":"46","category_name":"楼宇","address":"闸北区江场西路395号"},{"poiid":"B2094757D068A6F4459A","title":"富淳饭店(联洋店)","lon":"121.55282","lat":"31.22336","category":"72","category_name":"广东菜","address":"浦东新区长柳路100号淳大万丽酒店3楼(近迎春路)"},{"poiid":"B2094757D464A4FE4293","title":"萨莉亚 杨高中路店","lon":"121.55471","lat":"31.230562","category":"94","category_name":"西餐厅","address":"浦东新区杨高中路2128号正大生活馆内(近四方路)"},{"poiid":"B2094750D669A3F9499D","title":"古北汤馆","lon":"121.552215","lat":"31.224241","category":"247","category_name":"餐饮美食","address":"浦东新区长柳路58号(近迎春路)"},{"poiid":"B2094757D069AAFC409F","title":"阿香米线(杨高中路店)","lon":"121.554282","lat":"31.230963","category":"68","category_name":"快餐厅","address":"浦东新区杨高中路2128号正大生活馆内(近四方路)"},{"poiid":"B2094757D16CAAFB419C","title":"上海银监局","lon":"121.54826773","lat":"31.224110169","category":"500","category_name":"未知分类","address":"上海合欢路35号"},{"poiid":"B2094757D169A3FD489F","title":"世纪公园游乐园草坪","lon":"121.552391238","lat":"31.2227846414","category":"196","category_name":"公园","address":"上海世纪公园"},{"poiid":"B2094757D069AAFC429F","title":"百春原南味粉面","lon":"121.55412673","lat":"31.231033317","category":"68","category_name":"快餐厅","address":"浦东新区杨高中路2128号正大生活馆1楼(世纪公园)"},{"poiid":"B2094655D26DA6F84899","title":"肯德基 杨高中路店 KFC","lon":"121.554856054","lat":"31.230660793","category":"68","category_name":"快餐厅","address":"浦东新区杨高中路2128号正大生活馆内(近四方路)"},{"poiid":"B2094751D36CA5FD479C","title":"四季亭(民生路店)","lon":"121.55096","lat":"31.22329","category":"95","category_name":"日本料理","address":"浦东新区民生路1433号世纪皇冠假日酒店2楼(近迎春路路口)"},{"poiid":"B2094757D16EABF5459F","title":"东方幼儿园丁香部","lon":"121.55326073","lat":"31.226997231","category":"500","category_name":"未知分类","address":"浦东新区丁香路911号(长柳路丁香路)"},{"poiid":"B2094757D06AA1FC409D","title":"一兆韦德联洋店","lon":"121.55614113","lat":"31.226435661","category":"247","category_name":"餐饮美食","address":"浦东新区芳甸路333弄1号(锦绣路口)"},{"poiid":"B2094751D264ABFE499A","title":"CoCo壱番屋","lon":"121.55394","lat":"31.23073","category":"95","category_name":"日本料理","address":"浦东新区杨高中路2128号正大生活馆1楼(近四方路)"},{"poiid":"B2094757DA65AAF8469C","title":"炉边谈情","lon":"121.5541554","lat":"31.22779637","category":"247","category_name":"餐饮美食","address":"大拇指广场"},{"poiid":"B2094757D06BA3FD4692","title":"乐柚炭烤(迎春路店)","lon":"121.5552","lat":"31.22429","category":"96","category_name":"韩国料理","address":"浦东新区迎春路813号(近长柳路)"},{"poiid":"B2094757D468A4FC409F","title":"德兴第五季港式火锅","lon":"121.557597","lat":"31.22674","category":"86","category_name":"火锅店","address":"浦东新区芳甸路300号联洋广场A区4楼(近丁香路)"},{"poiid":"B2094751D564A1FA4192","title":"竹若","lon":"121.555084","lat":"31.229161","category":"247","category_name":"餐饮美食","address":"浦东新区芳甸路199弄大拇指广场51号(近丁香路)"},{"poiid":"B2094757DA65A3F94198","title":"大拇指","lon":"121.55253955661","lat":"31.225538360007","category":"627","category_name":"一般地点标志","address":"丁香路"},{"poiid":"B2094757D66BA2FC439A","title":"淳大万丽日本餐厅","lon":"121.55266408","lat":"31.22380449","category":"95","category_name":"日本料理","address":"长柳路100号淳大万丽酒店1楼近迎春路"},{"poiid":"B2094655D36CA6F4479B","title":"丁香路长柳路","lon":"121.55291","lat":"31.22641","category":"38","category_name":"公交车站","address":""},{"poiid":"B2094757D069A3F8499C","title":"阿迪达斯折扣店(正大生活馆店)","lon":"121.55447","lat":"31.23052","category":"140","category_name":"体育用品店","address":"浦东新区杨高中路2128号正大生活馆内(近四方路)"}]