[{"poiid":"B2094757D06FA0FD4999","title":"上海大剧院-大剧场(Shanghai Grand Theatre - Lyric Theatre)","lon":"121.46956921","lat":"31.225844356","category":"260","category_name":"其他","address":"黄浦区人民大道300号大剧院内(近黄陂南路)"},{"poiid":"B2094757D06FA7F94199","title":"市政大厦","lon":"121.472011","lat":"31.226881","category":"46","category_name":"楼宇","address":"上海市黄浦区大沽路100号"},{"poiid":"B2094757D068A3F54292","title":"二百永新大厦","lon":"121.472368","lat":"31.226048","category":"46","category_name":"楼宇","address":"上海淮海中路887号"},{"poiid":"B2094753D76FAAFA449C","title":"上海滩国泰旗舰店","lon":"121.466011","lat":"31.216125","category":"249","category_name":"购物服务","address":"淮海中路868号"},{"poiid":"B209475CD564A7F84292","title":"上海滩新天地店","lon":"121.47463","lat":"31.22164","category":"119","category_name":"商场","address":"\"太仓路181弄新天地北里15号\r\n\""},{"poiid":"B209475CD564A7F8439E","title":"上海滩中信泰富店","lon":"121.45602","lat":"31.22851","category":"119","category_name":"商场","address":"\"南京西路1168号中信泰富广场，店铺号221.\r\n\""},{"poiid":"B2094757D56CA1FE429D","title":"星巴克 力宝广场店 Starbucks Cafe","lon":"121.47456367878","lat":"31.223538465013","category":"247","category_name":"餐饮美食","address":"淮海中路222号力宝广场1楼近嵩山路"},{"poiid":"B2094654DB6BA4FD489F","title":"新华联大厦","lon":"121.471","lat":"31.2248","category":"46","category_name":"楼宇","address":"越秀区广州沿江中路298号"},{"poiid":"B2094757D06FAAF5489B","title":"东泰祥生煎馒头馆 重庆北路店","lon":"121.47016","lat":"31.226474","category":"68","category_name":"快餐厅","address":"黄浦区重庆北路188号(近大沽路)"},{"poiid":"B2094655D268ABFF409F","title":"延安东路立交桥","lon":"121.469","lat":"31.22467","category":"250","category_name":"公园户外","address":""},{"poiid":"B2094752D16CAAF94893","title":"ABC Cooking Studio（K11店）","lon":"121.469221","lat":"31.225111","category":"247","category_name":"餐饮美食","address":null},{"poiid":"B2094752D069A4FB489A","title":"鸿星荟","lon":"121.468619","lat":"31.225721","category":"247","category_name":"餐饮美食","address":"淮海中路300号K11购物艺术中心"},{"poiid":"B2094751D564ABF44592","title":"圣诞集市","lon":"121.470834","lat":"31.225767","category":"248","category_name":"生活娱乐","address":"卢湾区新天地太平湖广场"},{"poiid":"B2094757D06FA5FE469A","title":"民生银行大厦(威海路)","lon":"121.47063446","lat":"31.228408813","category":"252","category_name":"楼宇机构","address":"黄浦区威海路48号(近黄陂北路)"},{"poiid":"B2094757DB6FA4FA439A","title":"揽香","lon":"121.469027","lat":"31.224747","category":"247","category_name":"餐饮美食","address":"卢湾区中环广场"},{"poiid":"B2094752D06EA5F44092","title":"Pizza Marzano（披萨马上诺）","lon":"121.46927","lat":"31.225073","category":"247","category_name":"餐饮美食","address":null},{"poiid":"B2094757DB6CA5F84593","title":"Element Fresh","lon":"121.470734","lat":"31.223412","category":"247","category_name":"餐饮美食","address":"Xin tian Di"},{"poiid":"B2094757D068A4F9409E","title":"上海市黄浦区人民法院","lon":"121.47189331","lat":"31.225976944","category":"608","category_name":"法院","address":"上海市延安东路1234号"},{"poiid":"B209475CD76EA0F54692","title":"环贸iapm","lon":"121.469993","lat":"31.223688","category":"500","category_name":"未知分类","address":"上海市 卢湾区淮海中路999号"},{"poiid":"B2094752D16DAAFE4898","title":"合点寿司","lon":"121.469321","lat":"31.225022","category":"247","category_name":"餐饮美食","address":"淮海中路300号K11购物艺术中心302号铺(近黄陂南路)"},{"poiid":"B2094654DA68A3FB479E","title":"小精灵宠物医院(武胜路分院)","lon":"121.47087","lat":"31.22751","category":"162","category_name":"医院","address":"黄浦区武胜路451号(黄陂北路人民大道)"},{"poiid":"B2094750D16BA4F84399","title":"米多寿司","lon":"121.470146","lat":"31.226119","category":"95","category_name":"日本料理","address":"黄浦区重庆北路151号(近大沽路)"},{"poiid":"B2094752D06FA3FC4999","title":"淮海中路300号K11购物艺术中心301-307号铺(近黄陂南路地铁站)","lon":"121.470142","lat":"31.226922","category":"247","category_name":"餐饮美食","address":"淮海中路300号K11购物艺术中心301-307号铺(近黄陂南路地铁站)"},{"poiid":"B2094757D16FA1F5449E","title":"A-ONE造型","lon":"121.469784","lat":"31.227877","category":"148","category_name":"美容美发店","address":"黄浦区威海路82号"},{"poiid":"B2094757D06FAAFE409E","title":"Mayson cafe","lon":"121.47056","lat":"31.22737","category":"260","category_name":"其他","address":"黄浦区武胜路469号(近黄陂北路)"},{"poiid":"B2094654DB6BABFE4699","title":"重庆鸡公煲 重庆北路","lon":"121.470468054","lat":"31.226113793","category":"247","category_name":"餐饮美食","address":"黄浦区重庆北路188号(近大沽路)"},{"poiid":"B2094757D169A7FA429B","title":"重庆北路大沽路","lon":"121.47001933","lat":"31.227480141","category":"500","category_name":"未知分类","address":"上海重庆北路大沽路口"},{"poiid":"B2094757D068A0F54892","title":"林记小厨","lon":"121.470973738","lat":"31.2274302404","category":"247","category_name":"餐饮美食","address":"上海黄浦区黄陂北路227号中区广场二楼"},{"poiid":"B2094655D26CABFC409C","title":"良友No.286","lon":"121.47003","lat":"31.2261","category":"117","category_name":"便民商店/便利店","address":"重庆北路143"},{"poiid":"B2094757D068A6F5479A","title":"Nolita","lon":"121.46507","lat":"31.22554","category":"94","category_name":"西餐厅","address":"静安区大沽路422号"},{"poiid":"B2094655D26DA7FD409C","title":"振兴小区(南门)","lon":"121.46987","lat":"31.22598","category":"47","category_name":"住宅区","address":"大沽路250号-254号"},{"poiid":"B2094752D46AA2F8479C","title":"中国农业银行卢湾瑞金二路支行","lon":"121.471698","lat":"31.225296","category":"150","category_name":"银行","address":"上海市卢湾区淮海中路701-721号"},{"poiid":"B2094654DA68A2FC4792","title":"24K国际连锁酒店","lon":"121.46858","lat":"31.22738","category":"216","category_name":"经济型连锁酒店","address":"上海市威海路155弄20号（近成都北路口）"},{"poiid":"B2094654DB6BABFE459B","title":"光明新鲜屋","lon":"121.47048","lat":"31.22592","category":"117","category_name":"便民商店/便利店","address":""},{"poiid":"B2094757D568A5FF469F","title":"如家快捷酒店(上海人民广场店)","lon":"121.4699547","lat":"31.22698215","category":"216","category_name":"经济型连锁酒店","address":"上海市黄浦区重庆北路208号(近威海路)"},{"poiid":"B2094655D26DA6F4489C","title":"广场公园(东门)","lon":"121.47015","lat":"31.22579","category":"680","category_name":"楼宇机构","address":""},{"poiid":"B2094654DA68A2FC439A","title":"伟寅面餐馆","lon":"121.46994","lat":"31.2263","category":"257","category_name":"中餐厅","address":"重庆北路165"},{"poiid":"B2094655D36DA0F8409D","title":"延安东路重庆北路","lon":"121.471","lat":"31.22491","category":"38","category_name":"公交车站","address":""},{"poiid":"B2094654DA68A3FB4199","title":"黄浦政法大楼","lon":"121.47194","lat":"31.22642","category":"68","category_name":"快餐厅","address":"黄浦区大沽路123号2楼(近重庆北路)"},{"poiid":"B2094757D16EA6FA439A","title":"重庆北路公交站","lon":"121.469052","lat":"31.225943","category":"38","category_name":"公交车站","address":"上海延安中路重庆北路"},{"poiid":"B2094753D165ABF44498","title":"空中花园","lon":"121.469676","lat":"31.225201","category":"47","category_name":"住宅区","address":"上海市 淮海中路"},{"poiid":"B2094752D16DAAFC449D","title":"K11","lon":"121.469477","lat":"31.225743","category":"247","category_name":"餐饮美食","address":null},{"poiid":"B2094752D26AA0FB409A","title":"Andaz Hotel","lon":"121.470517","lat":"31.226734","category":"247","category_name":"餐饮美食","address":"嵩山路88号"},{"poiid":"B2094750DB6EA1F84193","title":"SMG电视台","lon":"121.470413","lat":"31.225616","category":"627","category_name":"一般地点标志","address":"威海路298号"},{"poiid":"B2094752D46BABFB439A","title":"鹿港小鎮","lon":"121.470856","lat":"31.226369","category":"247","category_name":"餐饮美食","address":"上海市太倉路"},{"poiid":"B2094757D16BAAFD419B","title":"屋里厢","lon":"121.46954505","lat":"31.225691673","category":"500","category_name":"未知分类","address":"上海市浦东新区牡丹路"},{"poiid":"B2094757D56CAAFE419A","title":"蟹王","lon":"121.47006810604","lat":"31.225054760124","category":"247","category_name":"餐饮美食","address":"淮海中路282号香港广场，北座7楼紫荆轩"},{"poiid":"B2094757D069A0F4439B","title":"780浦西终点站","lon":"121.47106933","lat":"31.224872589","category":"38","category_name":"公交车站","address":"上海重庆北路延安东路"},{"poiid":"B2094752D56BA2F44893","title":"Celeb de TOMATO","lon":"121.469363","lat":"31.225076","category":"247","category_name":"餐饮美食","address":"上海市淮海中路300号"},{"poiid":"B2094757D464A0F9499F","title":"百乐餐厅","lon":"121.47151639465","lat":"31.226478273305","category":"77","category_name":"湖南菜","address":"黄浦区大沽路199号(重庆北路口)"},{"poiid":"B2094757D06FA0FD4999","title":"上海大剧院-大剧场(Shanghai Grand Theatre - Lyric Theatre)","lon":"121.46956921","lat":"31.225844356","category":"260","category_name":"其他","address":"黄浦区人民大道300号大剧院内(近黄陂南路)"},{"poiid":"B2094757D06FA7F94199","title":"市政大厦","lon":"121.472011","lat":"31.226881","category":"46","category_name":"楼宇","address":"上海市黄浦区大沽路100号"},{"poiid":"B2094757D068A3F54292","title":"二百永新大厦","lon":"121.472368","lat":"31.226048","category":"46","category_name":"楼宇","address":"上海淮海中路887号"},{"poiid":"B2094753D76FAAFA449C","title":"上海滩国泰旗舰店","lon":"121.466011","lat":"31.216125","category":"249","category_name":"购物服务","address":"淮海中路868号"},{"poiid":"B209475CD564A7F84292","title":"上海滩新天地店","lon":"121.47463","lat":"31.22164","category":"119","category_name":"商场","address":"\"太仓路181弄新天地北里15号\r\n\""},{"poiid":"B209475CD564A7F8439E","title":"上海滩中信泰富店","lon":"121.45602","lat":"31.22851","category":"119","category_name":"商场","address":"\"南京西路1168号中信泰富广场，店铺号221.\r\n\""},{"poiid":"B2094757D56CA1FE429D","title":"星巴克 力宝广场店 Starbucks Cafe","lon":"121.47456367878","lat":"31.223538465013","category":"247","category_name":"餐饮美食","address":"淮海中路222号力宝广场1楼近嵩山路"},{"poiid":"B2094654DB6BA4FD489F","title":"新华联大厦","lon":"121.471","lat":"31.2248","category":"46","category_name":"楼宇","address":"越秀区广州沿江中路298号"},{"poiid":"B2094757D06FAAF5489B","title":"东泰祥生煎馒头馆 重庆北路店","lon":"121.47016","lat":"31.226474","category":"68","category_name":"快餐厅","address":"黄浦区重庆北路188号(近大沽路)"},{"poiid":"B2094655D268ABFF409F","title":"延安东路立交桥","lon":"121.469","lat":"31.22467","category":"250","category_name":"公园户外","address":""},{"poiid":"B2094752D16CAAF94893","title":"ABC Cooking Studio（K11店）","lon":"121.469221","lat":"31.225111","category":"247","category_name":"餐饮美食","address":null},{"poiid":"B2094752D069A4FB489A","title":"鸿星荟","lon":"121.468619","lat":"31.225721","category":"247","category_name":"餐饮美食","address":"淮海中路300号K11购物艺术中心"},{"poiid":"B2094751D564ABF44592","title":"圣诞集市","lon":"121.470834","lat":"31.225767","category":"248","category_name":"生活娱乐","address":"卢湾区新天地太平湖广场"},{"poiid":"B2094757D06FA5FE469A","title":"民生银行大厦(威海路)","lon":"121.47063446","lat":"31.228408813","category":"252","category_name":"楼宇机构","address":"黄浦区威海路48号(近黄陂北路)"},{"poiid":"B2094757DB6FA4FA439A","title":"揽香","lon":"121.469027","lat":"31.224747","category":"247","category_name":"餐饮美食","address":"卢湾区中环广场"},{"poiid":"B2094752D06EA5F44092","title":"Pizza Marzano（披萨马上诺）","lon":"121.46927","lat":"31.225073","category":"247","category_name":"餐饮美食","address":null},{"poiid":"B2094757DB6CA5F84593","title":"Element Fresh","lon":"121.470734","lat":"31.223412","category":"247","category_name":"餐饮美食","address":"Xin tian Di"},{"poiid":"B2094757D068A4F9409E","title":"上海市黄浦区人民法院","lon":"121.47189331","lat":"31.225976944","category":"608","category_name":"法院","address":"上海市延安东路1234号"},{"poiid":"B209475CD76EA0F54692","title":"环贸iapm","lon":"121.469993","lat":"31.223688","category":"500","category_name":"未知分类","address":"上海市 卢湾区淮海中路999号"},{"poiid":"B2094752D16DAAFE4898","title":"合点寿司","lon":"121.469321","lat":"31.225022","category":"247","category_name":"餐饮美食","address":"淮海中路300号K11购物艺术中心302号铺(近黄陂南路)"},{"poiid":"B2094654DA68A3FB479E","title":"小精灵宠物医院(武胜路分院)","lon":"121.47087","lat":"31.22751","category":"162","category_name":"医院","address":"黄浦区武胜路451号(黄陂北路人民大道)"},{"poiid":"B2094750D16BA4F84399","title":"米多寿司","lon":"121.470146","lat":"31.226119","category":"95","category_name":"日本料理","address":"黄浦区重庆北路151号(近大沽路)"},{"poiid":"B2094752D06FA3FC4999","title":"淮海中路300号K11购物艺术中心301-307号铺(近黄陂南路地铁站)","lon":"121.470142","lat":"31.226922","category":"247","category_name":"餐饮美食","address":"淮海中路300号K11购物艺术中心301-307号铺(近黄陂南路地铁站)"},{"poiid":"B2094757D16FA1F5449E","title":"A-ONE造型","lon":"121.469784","lat":"31.227877","category":"148","category_name":"美容美发店","address":"黄浦区威海路82号"},{"poiid":"B2094757D06FAAFE409E","title":"Mayson cafe","lon":"121.47056","lat":"31.22737","category":"260","category_name":"其他","address":"黄浦区武胜路469号(近黄陂北路)"},{"poiid":"B2094654DB6BABFE4699","title":"重庆鸡公煲 重庆北路","lon":"121.470468054","lat":"31.226113793","category":"247","category_name":"餐饮美食","address":"黄浦区重庆北路188号(近大沽路)"},{"poiid":"B2094757D169A7FA429B","title":"重庆北路大沽路","lon":"121.47001933","lat":"31.227480141","category":"500","category_name":"未知分类","address":"上海重庆北路大沽路口"},{"poiid":"B2094757D068A0F54892","title":"林记小厨","lon":"121.470973738","lat":"31.2274302404","category":"247","category_name":"餐饮美食","address":"上海黄浦区黄陂北路227号中区广场二楼"},{"poiid":"B2094655D26CABFC409C","title":"良友No.286","lon":"121.47003","lat":"31.2261","category":"117","category_name":"便民商店/便利店","address":"重庆北路143"},{"poiid":"B2094757D068A6F5479A","title":"Nolita","lon":"121.46507","lat":"31.22554","category":"94","category_name":"西餐厅","address":"静安区大沽路422号"},{"poiid":"B2094655D26DA7FD409C","title":"振兴小区(南门)","lon":"121.46987","lat":"31.22598","category":"47","category_name":"住宅区","address":"大沽路250号-254号"},{"poiid":"B2094752D46AA2F8479C","title":"中国农业银行卢湾瑞金二路支行","lon":"121.471698","lat":"31.225296","category":"150","category_name":"银行","address":"上海市卢湾区淮海中路701-721号"},{"poiid":"B2094654DA68A2FC4792","title":"24K国际连锁酒店","lon":"121.46858","lat":"31.22738","category":"216","category_name":"经济型连锁酒店","address":"上海市威海路155弄20号（近成都北路口）"},{"poiid":"B2094654DB6BABFE459B","title":"光明新鲜屋","lon":"121.47048","lat":"31.22592","category":"117","category_name":"便民商店/便利店","address":""},{"poiid":"B2094757D568A5FF469F","title":"如家快捷酒店(上海人民广场店)","lon":"121.4699547","lat":"31.22698215","category":"216","category_name":"经济型连锁酒店","address":"上海市黄浦区重庆北路208号(近威海路)"},{"poiid":"B2094655D26DA6F4489C","title":"广场公园(东门)","lon":"121.47015","lat":"31.22579","category":"680","category_name":"楼宇机构","address":""},{"poiid":"B2094654DA68A2FC439A","title":"伟寅面餐馆","lon":"121.46994","lat":"31.2263","category":"257","category_name":"中餐厅","address":"重庆北路165"},{"poiid":"B2094655D36DA0F8409D","title":"延安东路重庆北路","lon":"121.471","lat":"31.22491","category":"38","category_name":"公交车站","address":""},{"poiid":"B2094654DA68A3FB4199","title":"黄浦政法大楼","lon":"121.47194","lat":"31.22642","category":"68","category_name":"快餐厅","address":"黄浦区大沽路123号2楼(近重庆北路)"},{"poiid":"B2094757D16EA6FA439A","title":"重庆北路公交站","lon":"121.469052","lat":"31.225943","category":"38","category_name":"公交车站","address":"上海延安中路重庆北路"},{"poiid":"B2094753D165ABF44498","title":"空中花园","lon":"121.469676","lat":"31.225201","category":"47","category_name":"住宅区","address":"上海市 淮海中路"},{"poiid":"B2094752D16DAAFC449D","title":"K11","lon":"121.469477","lat":"31.225743","category":"247","category_name":"餐饮美食","address":null},{"poiid":"B2094752D26AA0FB409A","title":"Andaz Hotel","lon":"121.470517","lat":"31.226734","category":"247","category_name":"餐饮美食","address":"嵩山路88号"},{"poiid":"B2094750DB6EA1F84193","title":"SMG电视台","lon":"121.470413","lat":"31.225616","category":"627","category_name":"一般地点标志","address":"威海路298号"},{"poiid":"B2094752D46BABFB439A","title":"鹿港小鎮","lon":"121.470856","lat":"31.226369","category":"247","category_name":"餐饮美食","address":"上海市太倉路"},{"poiid":"B2094757D16BAAFD419B","title":"屋里厢","lon":"121.46954505","lat":"31.225691673","category":"500","category_name":"未知分类","address":"上海市浦东新区牡丹路"},{"poiid":"B2094757D56CAAFE419A","title":"蟹王","lon":"121.47006810604","lat":"31.225054760124","category":"247","category_name":"餐饮美食","address":"淮海中路282号香港广场，北座7楼紫荆轩"},{"poiid":"B2094757D069A0F4439B","title":"780浦西终点站","lon":"121.47106933","lat":"31.224872589","category":"38","category_name":"公交车站","address":"上海重庆北路延安东路"},{"poiid":"B2094752D56BA2F44893","title":"Celeb de TOMATO","lon":"121.469363","lat":"31.225076","category":"247","category_name":"餐饮美食","address":"上海市淮海中路300号"},{"poiid":"B2094757D464A0F9499F","title":"百乐餐厅","lon":"121.47151639465","lat":"31.226478273305","category":"77","category_name":"湖南菜","address":"黄浦区大沽路199号(重庆北路口)"},{"poiid":"B2094757D06FA0FD4999","title":"上海大剧院-大剧场(Shanghai Grand Theatre - Lyric Theatre)","lon":"121.46956921","lat":"31.225844356","category":"260","category_name":"其他","address":"黄浦区人民大道300号大剧院内(近黄陂南路)"},{"poiid":"B2094757D06FA7F94199","title":"市政大厦","lon":"121.472011","lat":"31.226881","category":"46","category_name":"楼宇","address":"上海市黄浦区大沽路100号"},{"poiid":"B2094757D068A3F54292","title":"二百永新大厦","lon":"121.472368","lat":"31.226048","category":"46","category_name":"楼宇","address":"上海淮海中路887号"},{"poiid":"B2094753D76FAAFA449C","title":"上海滩国泰旗舰店","lon":"121.466011","lat":"31.216125","category":"249","category_name":"购物服务","address":"淮海中路868号"},{"poiid":"B209475CD564A7F84292","title":"上海滩新天地店","lon":"121.47463","lat":"31.22164","category":"119","category_name":"商场","address":"\"太仓路181弄新天地北里15号\r\n\""},{"poiid":"B209475CD564A7F8439E","title":"上海滩中信泰富店","lon":"121.45602","lat":"31.22851","category":"119","category_name":"商场","address":"\"南京西路1168号中信泰富广场，店铺号221.\r\n\""},{"poiid":"B2094757D56CA1FE429D","title":"星巴克 力宝广场店 Starbucks Cafe","lon":"121.47456367878","lat":"31.223538465013","category":"247","category_name":"餐饮美食","address":"淮海中路222号力宝广场1楼近嵩山路"},{"poiid":"B2094654DB6BA4FD489F","title":"新华联大厦","lon":"121.471","lat":"31.2248","category":"46","category_name":"楼宇","address":"越秀区广州沿江中路298号"},{"poiid":"B2094757D06FAAF5489B","title":"东泰祥生煎馒头馆 重庆北路店","lon":"121.47016","lat":"31.226474","category":"68","category_name":"快餐厅","address":"黄浦区重庆北路188号(近大沽路)"},{"poiid":"B2094655D268ABFF409F","title":"延安东路立交桥","lon":"121.469","lat":"31.22467","category":"250","category_name":"公园户外","address":""},{"poiid":"B2094752D16CAAF94893","title":"ABC Cooking Studio（K11店）","lon":"121.469221","lat":"31.225111","category":"247","category_name":"餐饮美食","address":null},{"poiid":"B2094752D069A4FB489A","title":"鸿星荟","lon":"121.468619","lat":"31.225721","category":"247","category_name":"餐饮美食","address":"淮海中路300号K11购物艺术中心"},{"poiid":"B2094751D564ABF44592","title":"圣诞集市","lon":"121.470834","lat":"31.225767","category":"248","category_name":"生活娱乐","address":"卢湾区新天地太平湖广场"},{"poiid":"B2094757D06FA5FE469A","title":"民生银行大厦(威海路)","lon":"121.47063446","lat":"31.228408813","category":"252","category_name":"楼宇机构","address":"黄浦区威海路48号(近黄陂北路)"},{"poiid":"B2094757DB6FA4FA439A","title":"揽香","lon":"121.469027","lat":"31.224747","category":"247","category_name":"餐饮美食","address":"卢湾区中环广场"},{"poiid":"B2094752D06EA5F44092","title":"Pizza Marzano（披萨马上诺）","lon":"121.46927","lat":"31.225073","category":"247","category_name":"餐饮美食","address":null},{"poiid":"B2094757DB6CA5F84593","title":"Element Fresh","lon":"121.470734","lat":"31.223412","category":"247","category_name":"餐饮美食","address":"Xin tian Di"},{"poiid":"B2094757D068A4F9409E","title":"上海市黄浦区人民法院","lon":"121.47189331","lat":"31.225976944","category":"608","category_name":"法院","address":"上海市延安东路1234号"},{"poiid":"B209475CD76EA0F54692","title":"环贸iapm","lon":"121.469993","lat":"31.223688","category":"500","category_name":"未知分类","address":"上海市 卢湾区淮海中路999号"},{"poiid":"B2094752D16DAAFE4898","title":"合点寿司","lon":"121.469321","lat":"31.225022","category":"247","category_name":"餐饮美食","address":"淮海中路300号K11购物艺术中心302号铺(近黄陂南路)"},{"poiid":"B2094654DA68A3FB479E","title":"小精灵宠物医院(武胜路分院)","lon":"121.47087","lat":"31.22751","category":"162","category_name":"医院","address":"黄浦区武胜路451号(黄陂北路人民大道)"},{"poiid":"B2094750D16BA4F84399","title":"米多寿司","lon":"121.470146","lat":"31.226119","category":"95","category_name":"日本料理","address":"黄浦区重庆北路151号(近大沽路)"},{"poiid":"B2094752D06FA3FC4999","title":"淮海中路300号K11购物艺术中心301-307号铺(近黄陂南路地铁站)","lon":"121.470142","lat":"31.226922","category":"247","category_name":"餐饮美食","address":"淮海中路300号K11购物艺术中心301-307号铺(近黄陂南路地铁站)"},{"poiid":"B2094757D16FA1F5449E","title":"A-ONE造型","lon":"121.469784","lat":"31.227877","category":"148","category_name":"美容美发店","address":"黄浦区威海路82号"},{"poiid":"B2094757D06FAAFE409E","title":"Mayson cafe","lon":"121.47056","lat":"31.22737","category":"260","category_name":"其他","address":"黄浦区武胜路469号(近黄陂北路)"},{"poiid":"B2094654DB6BABFE4699","title":"重庆鸡公煲 重庆北路","lon":"121.470468054","lat":"31.226113793","category":"247","category_name":"餐饮美食","address":"黄浦区重庆北路188号(近大沽路)"},{"poiid":"B2094757D169A7FA429B","title":"重庆北路大沽路","lon":"121.47001933","lat":"31.227480141","category":"500","category_name":"未知分类","address":"上海重庆北路大沽路口"},{"poiid":"B2094757D068A0F54892","title":"林记小厨","lon":"121.470973738","lat":"31.2274302404","category":"247","category_name":"餐饮美食","address":"上海黄浦区黄陂北路227号中区广场二楼"},{"poiid":"B2094655D26CABFC409C","title":"良友No.286","lon":"121.47003","lat":"31.2261","category":"117","category_name":"便民商店/便利店","address":"重庆北路143"},{"poiid":"B2094757D068A6F5479A","title":"Nolita","lon":"121.46507","lat":"31.22554","category":"94","category_name":"西餐厅","address":"静安区大沽路422号"},{"poiid":"B2094655D26DA7FD409C","title":"振兴小区(南门)","lon":"121.46987","lat":"31.22598","category":"47","category_name":"住宅区","address":"大沽路250号-254号"},{"poiid":"B2094752D46AA2F8479C","title":"中国农业银行卢湾瑞金二路支行","lon":"121.471698","lat":"31.225296","category":"150","category_name":"银行","address":"上海市卢湾区淮海中路701-721号"},{"poiid":"B2094654DA68A2FC4792","title":"24K国际连锁酒店","lon":"121.46858","lat":"31.22738","category":"216","category_name":"经济型连锁酒店","address":"上海市威海路155弄20号（近成都北路口）"},{"poiid":"B2094654DB6BABFE459B","title":"光明新鲜屋","lon":"121.47048","lat":"31.22592","category":"117","category_name":"便民商店/便利店","address":""},{"poiid":"B2094757D568A5FF469F","title":"如家快捷酒店(上海人民广场店)","lon":"121.4699547","lat":"31.22698215","category":"216","category_name":"经济型连锁酒店","address":"上海市黄浦区重庆北路208号(近威海路)"},{"poiid":"B2094655D26DA6F4489C","title":"广场公园(东门)","lon":"121.47015","lat":"31.22579","category":"680","category_name":"楼宇机构","address":""},{"poiid":"B2094654DA68A2FC439A","title":"伟寅面餐馆","lon":"121.46994","lat":"31.2263","category":"257","category_name":"中餐厅","address":"重庆北路165"},{"poiid":"B2094655D36DA0F8409D","title":"延安东路重庆北路","lon":"121.471","lat":"31.22491","category":"38","category_name":"公交车站","address":""},{"poiid":"B2094654DA68A3FB4199","title":"黄浦政法大楼","lon":"121.47194","lat":"31.22642","category":"68","category_name":"快餐厅","address":"黄浦区大沽路123号2楼(近重庆北路)"},{"poiid":"B2094757D16EA6FA439A","title":"重庆北路公交站","lon":"121.469052","lat":"31.225943","category":"38","category_name":"公交车站","address":"上海延安中路重庆北路"},{"poiid":"B2094753D165ABF44498","title":"空中花园","lon":"121.469676","lat":"31.225201","category":"47","category_name":"住宅区","address":"上海市 淮海中路"},{"poiid":"B2094752D16DAAFC449D","title":"K11","lon":"121.469477","lat":"31.225743","category":"247","category_name":"餐饮美食","address":null},{"poiid":"B2094752D26AA0FB409A","title":"Andaz Hotel","lon":"121.470517","lat":"31.226734","category":"247","category_name":"餐饮美食","address":"嵩山路88号"},{"poiid":"B2094750DB6EA1F84193","title":"SMG电视台","lon":"121.470413","lat":"31.225616","category":"627","category_name":"一般地点标志","address":"威海路298号"},{"poiid":"B2094752D46BABFB439A","title":"鹿港小鎮","lon":"121.470856","lat":"31.226369","category":"247","category_name":"餐饮美食","address":"上海市太倉路"},{"poiid":"B2094757D16BAAFD419B","title":"屋里厢","lon":"121.46954505","lat":"31.225691673","category":"500","category_name":"未知分类","address":"上海市浦东新区牡丹路"},{"poiid":"B2094757D56CAAFE419A","title":"蟹王","lon":"121.47006810604","lat":"31.225054760124","category":"247","category_name":"餐饮美食","address":"淮海中路282号香港广场，北座7楼紫荆轩"},{"poiid":"B2094757D069A0F4439B","title":"780浦西终点站","lon":"121.47106933","lat":"31.224872589","category":"38","category_name":"公交车站","address":"上海重庆北路延安东路"},{"poiid":"B2094752D56BA2F44893","title":"Celeb de TOMATO","lon":"121.469363","lat":"31.225076","category":"247","category_name":"餐饮美食","address":"上海市淮海中路300号"},{"poiid":"B2094757D464A0F9499F","title":"百乐餐厅","lon":"121.47151639465","lat":"31.226478273305","category":"77","category_name":"湖南菜","address":"黄浦区大沽路199号(重庆北路口)"},{"poiid":"B2094757D06FA0FD4999","title":"上海大剧院-大剧场(Shanghai Grand Theatre - Lyric Theatre)","lon":"121.46956921","lat":"31.225844356","category":"260","category_name":"其他","address":"黄浦区人民大道300号大剧院内(近黄陂南路)"},{"poiid":"B2094757D06FA7F94199","title":"市政大厦","lon":"121.472011","lat":"31.226881","category":"46","category_name":"楼宇","address":"上海市黄浦区大沽路100号"},{"poiid":"B2094757D068A3F54292","title":"二百永新大厦","lon":"121.472368","lat":"31.226048","category":"46","category_name":"楼宇","address":"上海淮海中路887号"},{"poiid":"B2094753D76FAAFA449C","title":"上海滩国泰旗舰店","lon":"121.466011","lat":"31.216125","category":"249","category_name":"购物服务","address":"淮海中路868号"},{"poiid":"B209475CD564A7F84292","title":"上海滩新天地店","lon":"121.47463","lat":"31.22164","category":"119","category_name":"商场","address":"\"太仓路181弄新天地北里15号\r\n\""},{"poiid":"B209475CD564A7F8439E","title":"上海滩中信泰富店","lon":"121.45602","lat":"31.22851","category":"119","category_name":"商场","address":"\"南京西路1168号中信泰富广场，店铺号221.\r\n\""},{"poiid":"B2094757D56CA1FE429D","title":"星巴克 力宝广场店 Starbucks Cafe","lon":"121.47456367878","lat":"31.223538465013","category":"247","category_name":"餐饮美食","address":"淮海中路222号力宝广场1楼近嵩山路"},{"poiid":"B2094654DB6BA4FD489F","title":"新华联大厦","lon":"121.471","lat":"31.2248","category":"46","category_name":"楼宇","address":"越秀区广州沿江中路298号"},{"poiid":"B2094757D06FAAF5489B","title":"东泰祥生煎馒头馆 重庆北路店","lon":"121.47016","lat":"31.226474","category":"68","category_name":"快餐厅","address":"黄浦区重庆北路188号(近大沽路)"},{"poiid":"B2094655D268ABFF409F","title":"延安东路立交桥","lon":"121.469","lat":"31.22467","category":"250","category_name":"公园户外","address":""},{"poiid":"B2094752D16CAAF94893","title":"ABC Cooking Studio（K11店）","lon":"121.469221","lat":"31.225111","category":"247","category_name":"餐饮美食","address":null},{"poiid":"B2094752D069A4FB489A","title":"鸿星荟","lon":"121.468619","lat":"31.225721","category":"247","category_name":"餐饮美食","address":"淮海中路300号K11购物艺术中心"},{"poiid":"B2094751D564ABF44592","title":"圣诞集市","lon":"121.470834","lat":"31.225767","category":"248","category_name":"生活娱乐","address":"卢湾区新天地太平湖广场"},{"poiid":"B2094757D06FA5FE469A","title":"民生银行大厦(威海路)","lon":"121.47063446","lat":"31.228408813","category":"252","category_name":"楼宇机构","address":"黄浦区威海路48号(近黄陂北路)"},{"poiid":"B2094757DB6FA4FA439A","title":"揽香","lon":"121.469027","lat":"31.224747","category":"247","category_name":"餐饮美食","address":"卢湾区中环广场"},{"poiid":"B2094752D06EA5F44092","title":"Pizza Marzano（披萨马上诺）","lon":"121.46927","lat":"31.225073","category":"247","category_name":"餐饮美食","address":null},{"poiid":"B2094757DB6CA5F84593","title":"Element Fresh","lon":"121.470734","lat":"31.223412","category":"247","category_name":"餐饮美食","address":"Xin tian Di"},{"poiid":"B2094757D068A4F9409E","title":"上海市黄浦区人民法院","lon":"121.47189331","lat":"31.225976944","category":"608","category_name":"法院","address":"上海市延安东路1234号"},{"poiid":"B209475CD76EA0F54692","title":"环贸iapm","lon":"121.469993","lat":"31.223688","category":"500","category_name":"未知分类","address":"上海市 卢湾区淮海中路999号"},{"poiid":"B2094752D16DAAFE4898","title":"合点寿司","lon":"121.469321","lat":"31.225022","category":"247","category_name":"餐饮美食","address":"淮海中路300号K11购物艺术中心302号铺(近黄陂南路)"},{"poiid":"B2094654DA68A3FB479E","title":"小精灵宠物医院(武胜路分院)","lon":"121.47087","lat":"31.22751","category":"162","category_name":"医院","address":"黄浦区武胜路451号(黄陂北路人民大道)"},{"poiid":"B2094750D16BA4F84399","title":"米多寿司","lon":"121.470146","lat":"31.226119","category":"95","category_name":"日本料理","address":"黄浦区重庆北路151号(近大沽路)"},{"poiid":"B2094752D06FA3FC4999","title":"淮海中路300号K11购物艺术中心301-307号铺(近黄陂南路地铁站)","lon":"121.470142","lat":"31.226922","category":"247","category_name":"餐饮美食","address":"淮海中路300号K11购物艺术中心301-307号铺(近黄陂南路地铁站)"},{"poiid":"B2094757D16FA1F5449E","title":"A-ONE造型","lon":"121.469784","lat":"31.227877","category":"148","category_name":"美容美发店","address":"黄浦区威海路82号"},{"poiid":"B2094757D06FAAFE409E","title":"Mayson cafe","lon":"121.47056","lat":"31.22737","category":"260","category_name":"其他","address":"黄浦区武胜路469号(近黄陂北路)"},{"poiid":"B2094654DB6BABFE4699","title":"重庆鸡公煲 重庆北路","lon":"121.470468054","lat":"31.226113793","category":"247","category_name":"餐饮美食","address":"黄浦区重庆北路188号(近大沽路)"},{"poiid":"B2094757D169A7FA429B","title":"重庆北路大沽路","lon":"121.47001933","lat":"31.227480141","category":"500","category_name":"未知分类","address":"上海重庆北路大沽路口"},{"poiid":"B2094757D068A0F54892","title":"林记小厨","lon":"121.470973738","lat":"31.2274302404","category":"247","category_name":"餐饮美食","address":"上海黄浦区黄陂北路227号中区广场二楼"},{"poiid":"B2094655D26CABFC409C","title":"良友No.286","lon":"121.47003","lat":"31.2261","category":"117","category_name":"便民商店/便利店","address":"重庆北路143"},{"poiid":"B2094757D068A6F5479A","title":"Nolita","lon":"121.46507","lat":"31.22554","category":"94","category_name":"西餐厅","address":"静安区大沽路422号"},{"poiid":"B2094655D26DA7FD409C","title":"振兴小区(南门)","lon":"121.46987","lat":"31.22598","category":"47","category_name":"住宅区","address":"大沽路250号-254号"},{"poiid":"B2094752D46AA2F8479C","title":"中国农业银行卢湾瑞金二路支行","lon":"121.471698","lat":"31.225296","category":"150","category_name":"银行","address":"上海市卢湾区淮海中路701-721号"},{"poiid":"B2094654DA68A2FC4792","title":"24K国际连锁酒店","lon":"121.46858","lat":"31.22738","category":"216","category_name":"经济型连锁酒店","address":"上海市威海路155弄20号（近成都北路口）"},{"poiid":"B2094654DB6BABFE459B","title":"光明新鲜屋","lon":"121.47048","lat":"31.22592","category":"117","category_name":"便民商店/便利店","address":""},{"poiid":"B2094757D568A5FF469F","title":"如家快捷酒店(上海人民广场店)","lon":"121.4699547","lat":"31.22698215","category":"216","category_name":"经济型连锁酒店","address":"上海市黄浦区重庆北路208号(近威海路)"},{"poiid":"B2094655D26DA6F4489C","title":"广场公园(东门)","lon":"121.47015","lat":"31.22579","category":"680","category_name":"楼宇机构","address":""},{"poiid":"B2094654DA68A2FC439A","title":"伟寅面餐馆","lon":"121.46994","lat":"31.2263","category":"257","category_name":"中餐厅","address":"重庆北路165"},{"poiid":"B2094655D36DA0F8409D","title":"延安东路重庆北路","lon":"121.471","lat":"31.22491","category":"38","category_name":"公交车站","address":""},{"poiid":"B2094654DA68A3FB4199","title":"黄浦政法大楼","lon":"121.47194","lat":"31.22642","category":"68","category_name":"快餐厅","address":"黄浦区大沽路123号2楼(近重庆北路)"},{"poiid":"B2094757D16EA6FA439A","title":"重庆北路公交站","lon":"121.469052","lat":"31.225943","category":"38","category_name":"公交车站","address":"上海延安中路重庆北路"},{"poiid":"B2094753D165ABF44498","title":"空中花园","lon":"121.469676","lat":"31.225201","category":"47","category_name":"住宅区","address":"上海市 淮海中路"},{"poiid":"B2094752D16DAAFC449D","title":"K11","lon":"121.469477","lat":"31.225743","category":"247","category_name":"餐饮美食","address":null},{"poiid":"B2094752D26AA0FB409A","title":"Andaz Hotel","lon":"121.470517","lat":"31.226734","category":"247","category_name":"餐饮美食","address":"嵩山路88号"},{"poiid":"B2094750DB6EA1F84193","title":"SMG电视台","lon":"121.470413","lat":"31.225616","category":"627","category_name":"一般地点标志","address":"威海路298号"},{"poiid":"B2094752D46BABFB439A","title":"鹿港小鎮","lon":"121.470856","lat":"31.226369","category":"247","category_name":"餐饮美食","address":"上海市太倉路"},{"poiid":"B2094757D16BAAFD419B","title":"屋里厢","lon":"121.46954505","lat":"31.225691673","category":"500","category_name":"未知分类","address":"上海市浦东新区牡丹路"},{"poiid":"B2094757D56CAAFE419A","title":"蟹王","lon":"121.47006810604","lat":"31.225054760124","category":"247","category_name":"餐饮美食","address":"淮海中路282号香港广场，北座7楼紫荆轩"},{"poiid":"B2094757D069A0F4439B","title":"780浦西终点站","lon":"121.47106933","lat":"31.224872589","category":"38","category_name":"公交车站","address":"上海重庆北路延安东路"},{"poiid":"B2094752D56BA2F44893","title":"Celeb de TOMATO","lon":"121.469363","lat":"31.225076","category":"247","category_name":"餐饮美食","address":"上海市淮海中路300号"},{"poiid":"B2094757D464A0F9499F","title":"百乐餐厅","lon":"121.47151639465","lat":"31.226478273305","category":"77","category_name":"湖南菜","address":"黄浦区大沽路199号(重庆北路口)"}]