[{"poiid":"B2094654DA69A7F4429F","title":"陆家嘴中心绿地","lon":"121.50614","lat":"31.23796","category":"202","category_name":"公园广场","address":"浦东新区陆家嘴东路160号(金茂大厦对面)"},{"poiid":"B2094654DA6FA7FF419A","title":"花旗集团大厦","lon":"121.507","lat":"31.2397","category":"46","category_name":"楼宇","address":"行宫位于沈河北站一路41号"},{"poiid":"B2094757D06EAAF4499F","title":"柚子(陆家嘴店)","lon":"121.50722621","lat":"31.240286474","category":"95","category_name":"日本料理","address":"浦东新区陆家嘴环路1000号恒生大楼46楼(近银城中路)"},{"poiid":"B209475CD564A7F84392","title":"上海滩浦东香格里拉店","lon":"121.50058","lat":"31.23634","category":"119","category_name":"商场","address":"浦东富成路33号香格里拉酒店内大堂层"},{"poiid":"B2094757D06EAAFC429A","title":"恒生银行大厦","lon":"121.50714642","lat":"31.240029324","category":"46","category_name":"楼宇","address":"浦东新区金湘路225弄"},{"poiid":"B2094757D06FA1F9449F","title":"王朝大酒店(浦东店)","lon":"121.50810175","lat":"31.2391448509","category":"76","category_name":"上海菜","address":"浦东新区陆家嘴环路958号华能大厦3楼(近银城中路)"},{"poiid":"B2094654DA6FA7FE449F","title":"未来资产大厦","lon":"121.50676432182","lat":"31.240975297556","category":"46","category_name":"楼宇","address":"卫清西路139_149号等"},{"poiid":"B2094655D268A3FB439E","title":"东亚银行金融大厦","lon":"121.509","lat":"31.2399","category":"46","category_name":"楼宇","address":"陆家嘴花园石桥路66号"},{"poiid":"B2094757D06FA2F4419E","title":"新上海国际大厦","lon":"121.50929927","lat":"31.238815674","category":"46","category_name":"楼宇","address":"浦东南路360号，中国人民银行北侧"},{"poiid":"B2094757D06FABFD4792","title":"中融碧玉蓝天大厦","lon":"121.507242203","lat":"31.2415278323","category":"46","category_name":"楼宇","address":"上海市浦东新区银城中路8号"},{"poiid":"B2094757D068A2FC4593","title":"民生银行大厦(陆家嘴)","lon":"121.50841305","lat":"31.240807181","category":"46","category_name":"楼宇","address":"上海浦东新区浦东南路100号(浦东南路银城中路)"},{"poiid":"B2094757D06FA4FA499A","title":"晶采轩(浦东店)","lon":"121.50676","lat":"31.24102","category":"72","category_name":"广东菜","address":"浦东新区银城中路68号时代金融中心2-3楼(金洲街银城中路)"},{"poiid":"B2094757D66EA0F9489C","title":"金茂大厦88层","lon":"121.50547323","lat":"31.236578735","category":"252","category_name":"楼宇机构","address":"上海金茂大厦"},{"poiid":"B2094757D06FA2FE4099","title":"Ritz-Carlton Flair Pub","lon":"121.505996","lat":"31.235922","category":"172","category_name":"酒吧","address":"上海浦东新区世纪大道8号丽思卡尔顿酒店58层"},{"poiid":"B2094757D06FA2FF4092","title":"建设银行(陆家嘴分行)","lon":"121.50870513","lat":"31.238155365","category":"150","category_name":"银行","address":"上海浦东新区陆家嘴环路900号"},{"poiid":"B2094757D06FA7F9449C","title":"瑞慈健康管理中心(华夏银行店)","lon":"121.50933","lat":"31.2392","category":"162","category_name":"医院","address":"浦东新区浦东南路256号华夏银行大厦3楼(近浦东大道)"},{"poiid":"B2094757DB68A3F9419D","title":"梅赛德斯-奔驰文化中心","lon":"121.50617587","lat":"31.23635451999999","category":"500","category_name":"未知分类","address":"世博大道1200号"},{"poiid":"B2094757D06FA2FC419C","title":"星巴克(森茂店)","lon":"121.507817","lat":"31.240365","category":"260","category_name":"其他","address":"浦东新区陆家嘴环路1000号恒生大厦1楼(金洲街银城中路)"},{"poiid":"B2094757D06FA2FF419F","title":"星巴克(时代金融店)","lon":"121.506498","lat":"31.241296","category":"65","category_name":"咖啡厅","address":"浦东新区银城中路68号时代金融中心2楼(近汇丰大厦)"},{"poiid":"B2094757D16CA2FF4899","title":"麦当劳国金中心店","lon":"121.50513081","lat":"31.236093145","category":"68","category_name":"快餐厅","address":"浦东新区世纪大道8号国金中心商场LG1-17号商铺(近东泰路)"},{"poiid":"B2094757D468A7F54892","title":"丽思卡尔顿大堂酒廊 Aura","lon":"121.50596","lat":"31.23591","category":"172","category_name":"酒吧","address":"浦东新区世纪大道8号上海国金中心丽思卡尔顿酒店(东泰路世纪大道)"},{"poiid":"B2094655D26DA1F8439E","title":"世界金融大厦","lon":"121.50865","lat":"31.23839","category":"46","category_name":"楼宇","address":"上海陆家嘴环路900号"},{"poiid":"B2094757D16CA2FD4493","title":"洋食寅八轩","lon":"121.50768","lat":"31.23495","category":"68","category_name":"快餐厅","address":"浦东新区世纪大道100号环球金融中心B1楼B106-2(近东泰路)"},{"poiid":"B2094750D665A1FB499C","title":"天厨日式料理","lon":"121.507","lat":"31.2402","category":"95","category_name":"日本料理","address":"浦东新区陆家嘴环路1000号恒生银行大厦2楼(近银城中路)"},{"poiid":"B2094757D068A5FA4492","title":"苏浙总会","lon":"121.50131","lat":"31.23663","category":"74","category_name":"江苏菜","address":"浦东新区世纪大道8号国金中心4楼(近银城中路)"},{"poiid":"B2094757D16AA0FB419D","title":"交通银行总行（交银金融大厦）","lon":"121.503625","lat":"31.238935","category":"150","category_name":"银行","address":"浦东新区银城中路188号交银金融大厦(近东园路)"},{"poiid":"B2094655D268A4F4429F","title":"陆家嘴中心绿地(北门)","lon":"121.50523","lat":"31.23914","category":"202","category_name":"公园广场","address":""},{"poiid":"B2094655D26DA7F4489D","title":"陆家嘴中心绿地(东门)","lon":"121.50744","lat":"31.23808","category":"202","category_name":"公园广场","address":""},{"poiid":"B2094757D16DA3FC479C","title":"方方面面","lon":"121.506746838","lat":"31.2391964912","category":"68","category_name":"快餐厅","address":"浦东新区银城东路15号陆家嘴中心绿地内"},{"poiid":"B2094757D068AAFC459E","title":"DQ(冰雪皇后)陆家嘴店","lon":"121.506171738","lat":"31.2361194256","category":"113","category_name":"冷饮店","address":"上海市浦东新区世纪大道2F-55(陆家嘴天桥)"},{"poiid":"B2094757D76AA1FF4193","title":"大阪章鱼小丸子","lon":"121.50097","lat":"31.23665","category":"68","category_name":"快餐厅","address":"浦东新区世纪大道8号国金中心商场LG2楼B-7室(近东泰路)"},{"poiid":"B2094757D068ABFA409A","title":"五芳面馆 森茂店","lon":"121.50692728121","lat":"31.240418848214","category":"68","category_name":"快餐厅","address":"浦东新区陆家嘴环路1000号恒生大厦2楼(东城路陆家嘴环路)"},{"poiid":"B2094757D06FA4FD459E","title":"招商银行上海分行营业部","lon":"121.50905712","lat":"31.237428479","category":"46","category_name":"楼宇","address":"浦东新区陆家嘴东路161号(近陆家嘴环路)"},{"poiid":"B2094757D06FA6F5479E","title":"民生银行上海分行","lon":"121.50772374","lat":"31.240858936","category":"150","category_name":"银行","address":"上海浦东南路100号"},{"poiid":"B2094757D068A3FF4899","title":"华夏银行上海分行","lon":"121.508972168","lat":"31.2394714355","category":"125","category_name":"书店","address":"上海浦东南路256号 （近东城路）"},{"poiid":"B2094654DB69A6FC4492","title":"浦东公园","lon":"121.50651","lat":"31.23806","category":"196","category_name":"公园","address":"浦东新区陆家嘴路480号"},{"poiid":"B2094757D16DA6FD499B","title":"上海农商银行总行","lon":"121.50773373","lat":"31.241263535","category":"150","category_name":"银行","address":"上海中融碧玉蓝天大厦(银城中路8号)"},{"poiid":"B2094757D06FA5F9499D","title":"i.t(国金中心店)","lon":"121.5059623","lat":"31.2359135","category":"141","category_name":"服装鞋帽皮具店","address":"浦东新区世纪大道8号国金中心商场LG1楼(近东泰路)"},{"poiid":"B2094655D26BA1F4409D","title":"陆家嘴环路东城路","lon":"121.50743","lat":"31.23896","category":"38","category_name":"公交车站","address":""},{"poiid":"B2094655D26AA2FF419C","title":"汇丰银行食堂","lon":"121.50737","lat":"31.24024","category":"76","category_name":"上海菜","address":"浦东新区陆家嘴环路1000号汇丰大厦B1楼(近陆家嘴)"},{"poiid":"B2094752D269A4FF419D","title":"上海老友记主题店central perk","lon":"121.506612","lat":"31.239856","category":"247","category_name":"餐饮美食","address":"哈尔滨路1913老洋行"},{"poiid":"B2094757D06AA7FA459D","title":"三菱东京日联银行","lon":"121.504083","lat":"31.240775","category":"46","category_name":"楼宇","address":"上海汇亚大厦21楼"},{"poiid":"B2094757D16EA2F9409A","title":"老上海8","lon":"121.50620269","lat":"31.237758636","category":"260","category_name":"其他","address":"上海浦东世纪大道1号东方明珠8号门"},{"poiid":"B2094752D26EA3F94493","title":"点沁陆家嘴店","lon":"121.50729","lat":"31.24015","category":"68","category_name":"快餐厅","address":"浦东新区陆家嘴环路1000号2楼"},{"poiid":"B2094654DB69A6FE489B","title":"银都大厦","lon":"121.50748","lat":"31.23738","category":"46","category_name":"楼宇","address":"浦东区陆家嘴西路153号"},{"poiid":"B2094757D16CA6FC489F","title":"交通银行(交银大厦支行)","lon":"121.50447","lat":"31.23882","category":"150","category_name":"银行","address":"浦东新区银城中路188号(东园路银城中路)"},{"poiid":"B2094750D36BA7F84898","title":"上海一圈","lon":"121.50616503135","lat":"31.237966042997","category":"617","category_name":"政府机构","address":"浦东新区陆家嘴中心绿地公园"},{"poiid":"B2094753DA68AAFD4292","title":"上海，外滩","lon":"121.506752","lat":"31.23994","category":"500","category_name":"未知分类","address":"上海市 上海市"},{"poiid":"B2094757D76DA1FE459D","title":"果之满满（ 时代金融店）","lon":"121.50655","lat":"31.24118","category":"113","category_name":"冷饮店","address":"浦东新区银城中路68号时代金融中心1楼106单元(近花园石桥路)"},{"poiid":"B2094757D06BA0F84699","title":"吴昌硕纪念馆","lon":"121.507438","lat":"31.238921","category":"260","category_name":"其他","address":"上海陆家嘴东路15号"},{"poiid":"B2094654DA69A7F4429F","title":"陆家嘴中心绿地","lon":"121.50614","lat":"31.23796","category":"202","category_name":"公园广场","address":"浦东新区陆家嘴东路160号(金茂大厦对面)"},{"poiid":"B2094654DA6FA7FF419A","title":"花旗集团大厦","lon":"121.507","lat":"31.2397","category":"46","category_name":"楼宇","address":"行宫位于沈河北站一路41号"},{"poiid":"B2094757D06EAAF4499F","title":"柚子(陆家嘴店)","lon":"121.50722621","lat":"31.240286474","category":"95","category_name":"日本料理","address":"浦东新区陆家嘴环路1000号恒生大楼46楼(近银城中路)"},{"poiid":"B209475CD564A7F84392","title":"上海滩浦东香格里拉店","lon":"121.50058","lat":"31.23634","category":"119","category_name":"商场","address":"浦东富成路33号香格里拉酒店内大堂层"},{"poiid":"B2094757D06EAAFC429A","title":"恒生银行大厦","lon":"121.50714642","lat":"31.240029324","category":"46","category_name":"楼宇","address":"浦东新区金湘路225弄"},{"poiid":"B2094757D06FA1F9449F","title":"王朝大酒店(浦东店)","lon":"121.50810175","lat":"31.2391448509","category":"76","category_name":"上海菜","address":"浦东新区陆家嘴环路958号华能大厦3楼(近银城中路)"},{"poiid":"B2094654DA6FA7FE449F","title":"未来资产大厦","lon":"121.50676432182","lat":"31.240975297556","category":"46","category_name":"楼宇","address":"卫清西路139_149号等"},{"poiid":"B2094655D268A3FB439E","title":"东亚银行金融大厦","lon":"121.509","lat":"31.2399","category":"46","category_name":"楼宇","address":"陆家嘴花园石桥路66号"},{"poiid":"B2094757D06FA2F4419E","title":"新上海国际大厦","lon":"121.50929927","lat":"31.238815674","category":"46","category_name":"楼宇","address":"浦东南路360号，中国人民银行北侧"},{"poiid":"B2094757D06FABFD4792","title":"中融碧玉蓝天大厦","lon":"121.507242203","lat":"31.2415278323","category":"46","category_name":"楼宇","address":"上海市浦东新区银城中路8号"},{"poiid":"B2094757D068A2FC4593","title":"民生银行大厦(陆家嘴)","lon":"121.50841305","lat":"31.240807181","category":"46","category_name":"楼宇","address":"上海浦东新区浦东南路100号(浦东南路银城中路)"},{"poiid":"B2094757D06FA4FA499A","title":"晶采轩(浦东店)","lon":"121.50676","lat":"31.24102","category":"72","category_name":"广东菜","address":"浦东新区银城中路68号时代金融中心2-3楼(金洲街银城中路)"},{"poiid":"B2094757D66EA0F9489C","title":"金茂大厦88层","lon":"121.50547323","lat":"31.236578735","category":"252","category_name":"楼宇机构","address":"上海金茂大厦"},{"poiid":"B2094757D06FA2FE4099","title":"Ritz-Carlton Flair Pub","lon":"121.505996","lat":"31.235922","category":"172","category_name":"酒吧","address":"上海浦东新区世纪大道8号丽思卡尔顿酒店58层"},{"poiid":"B2094757D06FA2FF4092","title":"建设银行(陆家嘴分行)","lon":"121.50870513","lat":"31.238155365","category":"150","category_name":"银行","address":"上海浦东新区陆家嘴环路900号"},{"poiid":"B2094757D06FA7F9449C","title":"瑞慈健康管理中心(华夏银行店)","lon":"121.50933","lat":"31.2392","category":"162","category_name":"医院","address":"浦东新区浦东南路256号华夏银行大厦3楼(近浦东大道)"},{"poiid":"B2094757DB68A3F9419D","title":"梅赛德斯-奔驰文化中心","lon":"121.50617587","lat":"31.23635451999999","category":"500","category_name":"未知分类","address":"世博大道1200号"},{"poiid":"B2094757D06FA2FC419C","title":"星巴克(森茂店)","lon":"121.507817","lat":"31.240365","category":"260","category_name":"其他","address":"浦东新区陆家嘴环路1000号恒生大厦1楼(金洲街银城中路)"},{"poiid":"B2094757D06FA2FF419F","title":"星巴克(时代金融店)","lon":"121.506498","lat":"31.241296","category":"65","category_name":"咖啡厅","address":"浦东新区银城中路68号时代金融中心2楼(近汇丰大厦)"},{"poiid":"B2094757D16CA2FF4899","title":"麦当劳国金中心店","lon":"121.50513081","lat":"31.236093145","category":"68","category_name":"快餐厅","address":"浦东新区世纪大道8号国金中心商场LG1-17号商铺(近东泰路)"},{"poiid":"B2094757D468A7F54892","title":"丽思卡尔顿大堂酒廊 Aura","lon":"121.50596","lat":"31.23591","category":"172","category_name":"酒吧","address":"浦东新区世纪大道8号上海国金中心丽思卡尔顿酒店(东泰路世纪大道)"},{"poiid":"B2094655D26DA1F8439E","title":"世界金融大厦","lon":"121.50865","lat":"31.23839","category":"46","category_name":"楼宇","address":"上海陆家嘴环路900号"},{"poiid":"B2094757D16CA2FD4493","title":"洋食寅八轩","lon":"121.50768","lat":"31.23495","category":"68","category_name":"快餐厅","address":"浦东新区世纪大道100号环球金融中心B1楼B106-2(近东泰路)"},{"poiid":"B2094750D665A1FB499C","title":"天厨日式料理","lon":"121.507","lat":"31.2402","category":"95","category_name":"日本料理","address":"浦东新区陆家嘴环路1000号恒生银行大厦2楼(近银城中路)"},{"poiid":"B2094757D068A5FA4492","title":"苏浙总会","lon":"121.50131","lat":"31.23663","category":"74","category_name":"江苏菜","address":"浦东新区世纪大道8号国金中心4楼(近银城中路)"},{"poiid":"B2094757D16AA0FB419D","title":"交通银行总行（交银金融大厦）","lon":"121.503625","lat":"31.238935","category":"150","category_name":"银行","address":"浦东新区银城中路188号交银金融大厦(近东园路)"},{"poiid":"B2094655D268A4F4429F","title":"陆家嘴中心绿地(北门)","lon":"121.50523","lat":"31.23914","category":"202","category_name":"公园广场","address":""},{"poiid":"B2094655D26DA7F4489D","title":"陆家嘴中心绿地(东门)","lon":"121.50744","lat":"31.23808","category":"202","category_name":"公园广场","address":""},{"poiid":"B2094757D16DA3FC479C","title":"方方面面","lon":"121.506746838","lat":"31.2391964912","category":"68","category_name":"快餐厅","address":"浦东新区银城东路15号陆家嘴中心绿地内"},{"poiid":"B2094757D068AAFC459E","title":"DQ(冰雪皇后)陆家嘴店","lon":"121.506171738","lat":"31.2361194256","category":"113","category_name":"冷饮店","address":"上海市浦东新区世纪大道2F-55(陆家嘴天桥)"},{"poiid":"B2094757D76AA1FF4193","title":"大阪章鱼小丸子","lon":"121.50097","lat":"31.23665","category":"68","category_name":"快餐厅","address":"浦东新区世纪大道8号国金中心商场LG2楼B-7室(近东泰路)"},{"poiid":"B2094757D068ABFA409A","title":"五芳面馆 森茂店","lon":"121.50692728121","lat":"31.240418848214","category":"68","category_name":"快餐厅","address":"浦东新区陆家嘴环路1000号恒生大厦2楼(东城路陆家嘴环路)"},{"poiid":"B2094757D06FA4FD459E","title":"招商银行上海分行营业部","lon":"121.50905712","lat":"31.237428479","category":"46","category_name":"楼宇","address":"浦东新区陆家嘴东路161号(近陆家嘴环路)"},{"poiid":"B2094757D06FA6F5479E","title":"民生银行上海分行","lon":"121.50772374","lat":"31.240858936","category":"150","category_name":"银行","address":"上海浦东南路100号"},{"poiid":"B2094757D068A3FF4899","title":"华夏银行上海分行","lon":"121.508972168","lat":"31.2394714355","category":"125","category_name":"书店","address":"上海浦东南路256号 （近东城路）"},{"poiid":"B2094654DB69A6FC4492","title":"浦东公园","lon":"121.50651","lat":"31.23806","category":"196","category_name":"公园","address":"浦东新区陆家嘴路480号"},{"poiid":"B2094757D16DA6FD499B","title":"上海农商银行总行","lon":"121.50773373","lat":"31.241263535","category":"150","category_name":"银行","address":"上海中融碧玉蓝天大厦(银城中路8号)"},{"poiid":"B2094757D06FA5F9499D","title":"i.t(国金中心店)","lon":"121.5059623","lat":"31.2359135","category":"141","category_name":"服装鞋帽皮具店","address":"浦东新区世纪大道8号国金中心商场LG1楼(近东泰路)"},{"poiid":"B2094655D26BA1F4409D","title":"陆家嘴环路东城路","lon":"121.50743","lat":"31.23896","category":"38","category_name":"公交车站","address":""},{"poiid":"B2094655D26AA2FF419C","title":"汇丰银行食堂","lon":"121.50737","lat":"31.24024","category":"76","category_name":"上海菜","address":"浦东新区陆家嘴环路1000号汇丰大厦B1楼(近陆家嘴)"},{"poiid":"B2094752D269A4FF419D","title":"上海老友记主题店central perk","lon":"121.506612","lat":"31.239856","category":"247","category_name":"餐饮美食","address":"哈尔滨路1913老洋行"},{"poiid":"B2094757D06AA7FA459D","title":"三菱东京日联银行","lon":"121.504083","lat":"31.240775","category":"46","category_name":"楼宇","address":"上海汇亚大厦21楼"},{"poiid":"B2094757D16EA2F9409A","title":"老上海8","lon":"121.50620269","lat":"31.237758636","category":"260","category_name":"其他","address":"上海浦东世纪大道1号东方明珠8号门"},{"poiid":"B2094752D26EA3F94493","title":"点沁陆家嘴店","lon":"121.50729","lat":"31.24015","category":"68","category_name":"快餐厅","address":"浦东新区陆家嘴环路1000号2楼"},{"poiid":"B2094654DB69A6FE489B","title":"银都大厦","lon":"121.50748","lat":"31.23738","category":"46","category_name":"楼宇","address":"浦东区陆家嘴西路153号"},{"poiid":"B2094757D16CA6FC489F","title":"交通银行(交银大厦支行)","lon":"121.50447","lat":"31.23882","category":"150","category_name":"银行","address":"浦东新区银城中路188号(东园路银城中路)"},{"poiid":"B2094750D36BA7F84898","title":"上海一圈","lon":"121.50616503135","lat":"31.237966042997","category":"617","category_name":"政府机构","address":"浦东新区陆家嘴中心绿地公园"},{"poiid":"B2094753DA68AAFD4292","title":"上海，外滩","lon":"121.506752","lat":"31.23994","category":"500","category_name":"未知分类","address":"上海市 上海市"},{"poiid":"B2094757D76DA1FE459D","title":"果之满满（ 时代金融店）","lon":"121.50655","lat":"31.24118","category":"113","category_name":"冷饮店","address":"浦东新区银城中路68号时代金融中心1楼106单元(近花园石桥路)"},{"poiid":"B2094757D06BA0F84699","title":"吴昌硕纪念馆","lon":"121.507438","lat":"31.238921","category":"260","category_name":"其他","address":"上海陆家嘴东路15号"},{"poiid":"B2094654DA69A7F4429F","title":"陆家嘴中心绿地","lon":"121.50614","lat":"31.23796","category":"202","category_name":"公园广场","address":"浦东新区陆家嘴东路160号(金茂大厦对面)"},{"poiid":"B2094654DA6FA7FF419A","title":"花旗集团大厦","lon":"121.507","lat":"31.2397","category":"46","category_name":"楼宇","address":"行宫位于沈河北站一路41号"},{"poiid":"B2094757D06EAAF4499F","title":"柚子(陆家嘴店)","lon":"121.50722621","lat":"31.240286474","category":"95","category_name":"日本料理","address":"浦东新区陆家嘴环路1000号恒生大楼46楼(近银城中路)"},{"poiid":"B209475CD564A7F84392","title":"上海滩浦东香格里拉店","lon":"121.50058","lat":"31.23634","category":"119","category_name":"商场","address":"浦东富成路33号香格里拉酒店内大堂层"},{"poiid":"B2094757D06EAAFC429A","title":"恒生银行大厦","lon":"121.50714642","lat":"31.240029324","category":"46","category_name":"楼宇","address":"浦东新区金湘路225弄"},{"poiid":"B2094757D06FA1F9449F","title":"王朝大酒店(浦东店)","lon":"121.50810175","lat":"31.2391448509","category":"76","category_name":"上海菜","address":"浦东新区陆家嘴环路958号华能大厦3楼(近银城中路)"},{"poiid":"B2094654DA6FA7FE449F","title":"未来资产大厦","lon":"121.50676432182","lat":"31.240975297556","category":"46","category_name":"楼宇","address":"卫清西路139_149号等"},{"poiid":"B2094655D268A3FB439E","title":"东亚银行金融大厦","lon":"121.509","lat":"31.2399","category":"46","category_name":"楼宇","address":"陆家嘴花园石桥路66号"},{"poiid":"B2094757D06FA2F4419E","title":"新上海国际大厦","lon":"121.50929927","lat":"31.238815674","category":"46","category_name":"楼宇","address":"浦东南路360号，中国人民银行北侧"},{"poiid":"B2094757D06FABFD4792","title":"中融碧玉蓝天大厦","lon":"121.507242203","lat":"31.2415278323","category":"46","category_name":"楼宇","address":"上海市浦东新区银城中路8号"},{"poiid":"B2094757D068A2FC4593","title":"民生银行大厦(陆家嘴)","lon":"121.50841305","lat":"31.240807181","category":"46","category_name":"楼宇","address":"上海浦东新区浦东南路100号(浦东南路银城中路)"},{"poiid":"B2094757D06FA4FA499A","title":"晶采轩(浦东店)","lon":"121.50676","lat":"31.24102","category":"72","category_name":"广东菜","address":"浦东新区银城中路68号时代金融中心2-3楼(金洲街银城中路)"},{"poiid":"B2094757D66EA0F9489C","title":"金茂大厦88层","lon":"121.50547323","lat":"31.236578735","category":"252","category_name":"楼宇机构","address":"上海金茂大厦"},{"poiid":"B2094757D06FA2FE4099","title":"Ritz-Carlton Flair Pub","lon":"121.505996","lat":"31.235922","category":"172","category_name":"酒吧","address":"上海浦东新区世纪大道8号丽思卡尔顿酒店58层"},{"poiid":"B2094757D06FA2FF4092","title":"建设银行(陆家嘴分行)","lon":"121.50870513","lat":"31.238155365","category":"150","category_name":"银行","address":"上海浦东新区陆家嘴环路900号"},{"poiid":"B2094757D06FA7F9449C","title":"瑞慈健康管理中心(华夏银行店)","lon":"121.50933","lat":"31.2392","category":"162","category_name":"医院","address":"浦东新区浦东南路256号华夏银行大厦3楼(近浦东大道)"},{"poiid":"B2094757DB68A3F9419D","title":"梅赛德斯-奔驰文化中心","lon":"121.50617587","lat":"31.23635451999999","category":"500","category_name":"未知分类","address":"世博大道1200号"},{"poiid":"B2094757D06FA2FC419C","title":"星巴克(森茂店)","lon":"121.507817","lat":"31.240365","category":"260","category_name":"其他","address":"浦东新区陆家嘴环路1000号恒生大厦1楼(金洲街银城中路)"},{"poiid":"B2094757D06FA2FF419F","title":"星巴克(时代金融店)","lon":"121.506498","lat":"31.241296","category":"65","category_name":"咖啡厅","address":"浦东新区银城中路68号时代金融中心2楼(近汇丰大厦)"},{"poiid":"B2094757D16CA2FF4899","title":"麦当劳国金中心店","lon":"121.50513081","lat":"31.236093145","category":"68","category_name":"快餐厅","address":"浦东新区世纪大道8号国金中心商场LG1-17号商铺(近东泰路)"},{"poiid":"B2094757D468A7F54892","title":"丽思卡尔顿大堂酒廊 Aura","lon":"121.50596","lat":"31.23591","category":"172","category_name":"酒吧","address":"浦东新区世纪大道8号上海国金中心丽思卡尔顿酒店(东泰路世纪大道)"},{"poiid":"B2094655D26DA1F8439E","title":"世界金融大厦","lon":"121.50865","lat":"31.23839","category":"46","category_name":"楼宇","address":"上海陆家嘴环路900号"},{"poiid":"B2094757D16CA2FD4493","title":"洋食寅八轩","lon":"121.50768","lat":"31.23495","category":"68","category_name":"快餐厅","address":"浦东新区世纪大道100号环球金融中心B1楼B106-2(近东泰路)"},{"poiid":"B2094750D665A1FB499C","title":"天厨日式料理","lon":"121.507","lat":"31.2402","category":"95","category_name":"日本料理","address":"浦东新区陆家嘴环路1000号恒生银行大厦2楼(近银城中路)"},{"poiid":"B2094757D068A5FA4492","title":"苏浙总会","lon":"121.50131","lat":"31.23663","category":"74","category_name":"江苏菜","address":"浦东新区世纪大道8号国金中心4楼(近银城中路)"},{"poiid":"B2094757D16AA0FB419D","title":"交通银行总行（交银金融大厦）","lon":"121.503625","lat":"31.238935","category":"150","category_name":"银行","address":"浦东新区银城中路188号交银金融大厦(近东园路)"},{"poiid":"B2094655D268A4F4429F","title":"陆家嘴中心绿地(北门)","lon":"121.50523","lat":"31.23914","category":"202","category_name":"公园广场","address":""},{"poiid":"B2094655D26DA7F4489D","title":"陆家嘴中心绿地(东门)","lon":"121.50744","lat":"31.23808","category":"202","category_name":"公园广场","address":""},{"poiid":"B2094757D16DA3FC479C","title":"方方面面","lon":"121.506746838","lat":"31.2391964912","category":"68","category_name":"快餐厅","address":"浦东新区银城东路15号陆家嘴中心绿地内"},{"poiid":"B2094757D068AAFC459E","title":"DQ(冰雪皇后)陆家嘴店","lon":"121.506171738","lat":"31.2361194256","category":"113","category_name":"冷饮店","address":"上海市浦东新区世纪大道2F-55(陆家嘴天桥)"},{"poiid":"B2094757D76AA1FF4193","title":"大阪章鱼小丸子","lon":"121.50097","lat":"31.23665","category":"68","category_name":"快餐厅","address":"浦东新区世纪大道8号国金中心商场LG2楼B-7室(近东泰路)"},{"poiid":"B2094757D068ABFA409A","title":"五芳面馆 森茂店","lon":"121.50692728121","lat":"31.240418848214","category":"68","category_name":"快餐厅","address":"浦东新区陆家嘴环路1000号恒生大厦2楼(东城路陆家嘴环路)"},{"poiid":"B2094757D06FA4FD459E","title":"招商银行上海分行营业部","lon":"121.50905712","lat":"31.237428479","category":"46","category_name":"楼宇","address":"浦东新区陆家嘴东路161号(近陆家嘴环路)"},{"poiid":"B2094757D06FA6F5479E","title":"民生银行上海分行","lon":"121.50772374","lat":"31.240858936","category":"150","category_name":"银行","address":"上海浦东南路100号"},{"poiid":"B2094757D068A3FF4899","title":"华夏银行上海分行","lon":"121.508972168","lat":"31.2394714355","category":"125","category_name":"书店","address":"上海浦东南路256号 （近东城路）"},{"poiid":"B2094654DB69A6FC4492","title":"浦东公园","lon":"121.50651","lat":"31.23806","category":"196","category_name":"公园","address":"浦东新区陆家嘴路480号"},{"poiid":"B2094757D16DA6FD499B","title":"上海农商银行总行","lon":"121.50773373","lat":"31.241263535","category":"150","category_name":"银行","address":"上海中融碧玉蓝天大厦(银城中路8号)"},{"poiid":"B2094757D06FA5F9499D","title":"i.t(国金中心店)","lon":"121.5059623","lat":"31.2359135","category":"141","category_name":"服装鞋帽皮具店","address":"浦东新区世纪大道8号国金中心商场LG1楼(近东泰路)"},{"poiid":"B2094655D26BA1F4409D","title":"陆家嘴环路东城路","lon":"121.50743","lat":"31.23896","category":"38","category_name":"公交车站","address":""},{"poiid":"B2094655D26AA2FF419C","title":"汇丰银行食堂","lon":"121.50737","lat":"31.24024","category":"76","category_name":"上海菜","address":"浦东新区陆家嘴环路1000号汇丰大厦B1楼(近陆家嘴)"},{"poiid":"B2094752D269A4FF419D","title":"上海老友记主题店central perk","lon":"121.506612","lat":"31.239856","category":"247","category_name":"餐饮美食","address":"哈尔滨路1913老洋行"},{"poiid":"B2094757D06AA7FA459D","title":"三菱东京日联银行","lon":"121.504083","lat":"31.240775","category":"46","category_name":"楼宇","address":"上海汇亚大厦21楼"},{"poiid":"B2094757D16EA2F9409A","title":"老上海8","lon":"121.50620269","lat":"31.237758636","category":"260","category_name":"其他","address":"上海浦东世纪大道1号东方明珠8号门"},{"poiid":"B2094752D26EA3F94493","title":"点沁陆家嘴店","lon":"121.50729","lat":"31.24015","category":"68","category_name":"快餐厅","address":"浦东新区陆家嘴环路1000号2楼"},{"poiid":"B2094654DB69A6FE489B","title":"银都大厦","lon":"121.50748","lat":"31.23738","category":"46","category_name":"楼宇","address":"浦东区陆家嘴西路153号"},{"poiid":"B2094757D16CA6FC489F","title":"交通银行(交银大厦支行)","lon":"121.50447","lat":"31.23882","category":"150","category_name":"银行","address":"浦东新区银城中路188号(东园路银城中路)"},{"poiid":"B2094750D36BA7F84898","title":"上海一圈","lon":"121.50616503135","lat":"31.237966042997","category":"617","category_name":"政府机构","address":"浦东新区陆家嘴中心绿地公园"},{"poiid":"B2094753DA68AAFD4292","title":"上海，外滩","lon":"121.506752","lat":"31.23994","category":"500","category_name":"未知分类","address":"上海市 上海市"},{"poiid":"B2094757D76DA1FE459D","title":"果之满满（ 时代金融店）","lon":"121.50655","lat":"31.24118","category":"113","category_name":"冷饮店","address":"浦东新区银城中路68号时代金融中心1楼106单元(近花园石桥路)"},{"poiid":"B2094757D06BA0F84699","title":"吴昌硕纪念馆","lon":"121.507438","lat":"31.238921","category":"260","category_name":"其他","address":"上海陆家嘴东路15号"},{"poiid":"B2094654DA69A7F4429F","title":"陆家嘴中心绿地","lon":"121.50614","lat":"31.23796","category":"202","category_name":"公园广场","address":"浦东新区陆家嘴东路160号(金茂大厦对面)"},{"poiid":"B2094654DA6FA7FF419A","title":"花旗集团大厦","lon":"121.507","lat":"31.2397","category":"46","category_name":"楼宇","address":"行宫位于沈河北站一路41号"},{"poiid":"B2094757D06EAAF4499F","title":"柚子(陆家嘴店)","lon":"121.50722621","lat":"31.240286474","category":"95","category_name":"日本料理","address":"浦东新区陆家嘴环路1000号恒生大楼46楼(近银城中路)"},{"poiid":"B209475CD564A7F84392","title":"上海滩浦东香格里拉店","lon":"121.50058","lat":"31.23634","category":"119","category_name":"商场","address":"浦东富成路33号香格里拉酒店内大堂层"},{"poiid":"B2094757D06EAAFC429A","title":"恒生银行大厦","lon":"121.50714642","lat":"31.240029324","category":"46","category_name":"楼宇","address":"浦东新区金湘路225弄"},{"poiid":"B2094757D06FA1F9449F","title":"王朝大酒店(浦东店)","lon":"121.50810175","lat":"31.2391448509","category":"76","category_name":"上海菜","address":"浦东新区陆家嘴环路958号华能大厦3楼(近银城中路)"},{"poiid":"B2094654DA6FA7FE449F","title":"未来资产大厦","lon":"121.50676432182","lat":"31.240975297556","category":"46","category_name":"楼宇","address":"卫清西路139_149号等"},{"poiid":"B2094655D268A3FB439E","title":"东亚银行金融大厦","lon":"121.509","lat":"31.2399","category":"46","category_name":"楼宇","address":"陆家嘴花园石桥路66号"},{"poiid":"B2094757D06FA2F4419E","title":"新上海国际大厦","lon":"121.50929927","lat":"31.238815674","category":"46","category_name":"楼宇","address":"浦东南路360号，中国人民银行北侧"},{"poiid":"B2094757D06FABFD4792","title":"中融碧玉蓝天大厦","lon":"121.507242203","lat":"31.2415278323","category":"46","category_name":"楼宇","address":"上海市浦东新区银城中路8号"},{"poiid":"B2094757D068A2FC4593","title":"民生银行大厦(陆家嘴)","lon":"121.50841305","lat":"31.240807181","category":"46","category_name":"楼宇","address":"上海浦东新区浦东南路100号(浦东南路银城中路)"},{"poiid":"B2094757D06FA4FA499A","title":"晶采轩(浦东店)","lon":"121.50676","lat":"31.24102","category":"72","category_name":"广东菜","address":"浦东新区银城中路68号时代金融中心2-3楼(金洲街银城中路)"},{"poiid":"B2094757D66EA0F9489C","title":"金茂大厦88层","lon":"121.50547323","lat":"31.236578735","category":"252","category_name":"楼宇机构","address":"上海金茂大厦"},{"poiid":"B2094757D06FA2FE4099","title":"Ritz-Carlton Flair Pub","lon":"121.505996","lat":"31.235922","category":"172","category_name":"酒吧","address":"上海浦东新区世纪大道8号丽思卡尔顿酒店58层"},{"poiid":"B2094757D06FA2FF4092","title":"建设银行(陆家嘴分行)","lon":"121.50870513","lat":"31.238155365","category":"150","category_name":"银行","address":"上海浦东新区陆家嘴环路900号"},{"poiid":"B2094757D06FA7F9449C","title":"瑞慈健康管理中心(华夏银行店)","lon":"121.50933","lat":"31.2392","category":"162","category_name":"医院","address":"浦东新区浦东南路256号华夏银行大厦3楼(近浦东大道)"},{"poiid":"B2094757DB68A3F9419D","title":"梅赛德斯-奔驰文化中心","lon":"121.50617587","lat":"31.23635451999999","category":"500","category_name":"未知分类","address":"世博大道1200号"},{"poiid":"B2094757D06FA2FC419C","title":"星巴克(森茂店)","lon":"121.507817","lat":"31.240365","category":"260","category_name":"其他","address":"浦东新区陆家嘴环路1000号恒生大厦1楼(金洲街银城中路)"},{"poiid":"B2094757D06FA2FF419F","title":"星巴克(时代金融店)","lon":"121.506498","lat":"31.241296","category":"65","category_name":"咖啡厅","address":"浦东新区银城中路68号时代金融中心2楼(近汇丰大厦)"},{"poiid":"B2094757D16CA2FF4899","title":"麦当劳国金中心店","lon":"121.50513081","lat":"31.236093145","category":"68","category_name":"快餐厅","address":"浦东新区世纪大道8号国金中心商场LG1-17号商铺(近东泰路)"},{"poiid":"B2094757D468A7F54892","title":"丽思卡尔顿大堂酒廊 Aura","lon":"121.50596","lat":"31.23591","category":"172","category_name":"酒吧","address":"浦东新区世纪大道8号上海国金中心丽思卡尔顿酒店(东泰路世纪大道)"},{"poiid":"B2094655D26DA1F8439E","title":"世界金融大厦","lon":"121.50865","lat":"31.23839","category":"46","category_name":"楼宇","address":"上海陆家嘴环路900号"},{"poiid":"B2094757D16CA2FD4493","title":"洋食寅八轩","lon":"121.50768","lat":"31.23495","category":"68","category_name":"快餐厅","address":"浦东新区世纪大道100号环球金融中心B1楼B106-2(近东泰路)"},{"poiid":"B2094750D665A1FB499C","title":"天厨日式料理","lon":"121.507","lat":"31.2402","category":"95","category_name":"日本料理","address":"浦东新区陆家嘴环路1000号恒生银行大厦2楼(近银城中路)"},{"poiid":"B2094757D068A5FA4492","title":"苏浙总会","lon":"121.50131","lat":"31.23663","category":"74","category_name":"江苏菜","address":"浦东新区世纪大道8号国金中心4楼(近银城中路)"},{"poiid":"B2094757D16AA0FB419D","title":"交通银行总行（交银金融大厦）","lon":"121.503625","lat":"31.238935","category":"150","category_name":"银行","address":"浦东新区银城中路188号交银金融大厦(近东园路)"},{"poiid":"B2094655D268A4F4429F","title":"陆家嘴中心绿地(北门)","lon":"121.50523","lat":"31.23914","category":"202","category_name":"公园广场","address":""},{"poiid":"B2094655D26DA7F4489D","title":"陆家嘴中心绿地(东门)","lon":"121.50744","lat":"31.23808","category":"202","category_name":"公园广场","address":""},{"poiid":"B2094757D16DA3FC479C","title":"方方面面","lon":"121.506746838","lat":"31.2391964912","category":"68","category_name":"快餐厅","address":"浦东新区银城东路15号陆家嘴中心绿地内"},{"poiid":"B2094757D068AAFC459E","title":"DQ(冰雪皇后)陆家嘴店","lon":"121.506171738","lat":"31.2361194256","category":"113","category_name":"冷饮店","address":"上海市浦东新区世纪大道2F-55(陆家嘴天桥)"},{"poiid":"B2094757D76AA1FF4193","title":"大阪章鱼小丸子","lon":"121.50097","lat":"31.23665","category":"68","category_name":"快餐厅","address":"浦东新区世纪大道8号国金中心商场LG2楼B-7室(近东泰路)"},{"poiid":"B2094757D068ABFA409A","title":"五芳面馆 森茂店","lon":"121.50692728121","lat":"31.240418848214","category":"68","category_name":"快餐厅","address":"浦东新区陆家嘴环路1000号恒生大厦2楼(东城路陆家嘴环路)"},{"poiid":"B2094757D06FA4FD459E","title":"招商银行上海分行营业部","lon":"121.50905712","lat":"31.237428479","category":"46","category_name":"楼宇","address":"浦东新区陆家嘴东路161号(近陆家嘴环路)"},{"poiid":"B2094757D06FA6F5479E","title":"民生银行上海分行","lon":"121.50772374","lat":"31.240858936","category":"150","category_name":"银行","address":"上海浦东南路100号"},{"poiid":"B2094757D068A3FF4899","title":"华夏银行上海分行","lon":"121.508972168","lat":"31.2394714355","category":"125","category_name":"书店","address":"上海浦东南路256号 （近东城路）"},{"poiid":"B2094654DB69A6FC4492","title":"浦东公园","lon":"121.50651","lat":"31.23806","category":"196","category_name":"公园","address":"浦东新区陆家嘴路480号"},{"poiid":"B2094757D16DA6FD499B","title":"上海农商银行总行","lon":"121.50773373","lat":"31.241263535","category":"150","category_name":"银行","address":"上海中融碧玉蓝天大厦(银城中路8号)"},{"poiid":"B2094757D06FA5F9499D","title":"i.t(国金中心店)","lon":"121.5059623","lat":"31.2359135","category":"141","category_name":"服装鞋帽皮具店","address":"浦东新区世纪大道8号国金中心商场LG1楼(近东泰路)"},{"poiid":"B2094655D26BA1F4409D","title":"陆家嘴环路东城路","lon":"121.50743","lat":"31.23896","category":"38","category_name":"公交车站","address":""},{"poiid":"B2094655D26AA2FF419C","title":"汇丰银行食堂","lon":"121.50737","lat":"31.24024","category":"76","category_name":"上海菜","address":"浦东新区陆家嘴环路1000号汇丰大厦B1楼(近陆家嘴)"},{"poiid":"B2094752D269A4FF419D","title":"上海老友记主题店central perk","lon":"121.506612","lat":"31.239856","category":"247","category_name":"餐饮美食","address":"哈尔滨路1913老洋行"},{"poiid":"B2094757D06AA7FA459D","title":"三菱东京日联银行","lon":"121.504083","lat":"31.240775","category":"46","category_name":"楼宇","address":"上海汇亚大厦21楼"},{"poiid":"B2094757D16EA2F9409A","title":"老上海8","lon":"121.50620269","lat":"31.237758636","category":"260","category_name":"其他","address":"上海浦东世纪大道1号东方明珠8号门"},{"poiid":"B2094752D26EA3F94493","title":"点沁陆家嘴店","lon":"121.50729","lat":"31.24015","category":"68","category_name":"快餐厅","address":"浦东新区陆家嘴环路1000号2楼"},{"poiid":"B2094654DB69A6FE489B","title":"银都大厦","lon":"121.50748","lat":"31.23738","category":"46","category_name":"楼宇","address":"浦东区陆家嘴西路153号"},{"poiid":"B2094757D16CA6FC489F","title":"交通银行(交银大厦支行)","lon":"121.50447","lat":"31.23882","category":"150","category_name":"银行","address":"浦东新区银城中路188号(东园路银城中路)"},{"poiid":"B2094750D36BA7F84898","title":"上海一圈","lon":"121.50616503135","lat":"31.237966042997","category":"617","category_name":"政府机构","address":"浦东新区陆家嘴中心绿地公园"},{"poiid":"B2094753DA68AAFD4292","title":"上海，外滩","lon":"121.506752","lat":"31.23994","category":"500","category_name":"未知分类","address":"上海市 上海市"},{"poiid":"B2094757D76DA1FE459D","title":"果之满满（ 时代金融店）","lon":"121.50655","lat":"31.24118","category":"113","category_name":"冷饮店","address":"浦东新区银城中路68号时代金融中心1楼106单元(近花园石桥路)"},{"poiid":"B2094757D06BA0F84699","title":"吴昌硕纪念馆","lon":"121.507438","lat":"31.238921","category":"260","category_name":"其他","address":"上海陆家嘴东路15号"}]