[{"poiid":"B2094655D36CA2F44699","title":"上海火车站(天目中路晋元路)","lon":"121.46839","lat":"31.24523","category":"38","category_name":"公交车站","address":""},{"poiid":"B2094757D068AAFB429B","title":"豪享来上海天目店","lon":"121.4665","lat":"31.2451","category":"247","category_name":"餐饮美食","address":"上海市闸北区天目中路463号甲"},{"poiid":"B2094654DB6BABFE429E","title":"阿英煲","lon":"121.46802","lat":"31.24396","category":"260","category_name":"其他","address":"闸北区海宁路1415号(天目中路口)"},{"poiid":"B209475CD564A7F84292","title":"上海滩新天地店","lon":"121.47463","lat":"31.22164","category":"119","category_name":"商场","address":"\"太仓路181弄新天地北里15号\r\n\""},{"poiid":"B209475CD564A7F8439E","title":"上海滩中信泰富店","lon":"121.45602","lat":"31.22851","category":"119","category_name":"商场","address":"\"南京西路1168号中信泰富广场，店铺号221.\r\n\""},{"poiid":"B2094757D06FA5FA4199","title":"棒约翰比萨(大悦城店)","lon":"121.467054","lat":"31.243526","category":"94","category_name":"西餐厅","address":"闸北区西藏北路166号大悦城7楼"},{"poiid":"B2094757D069A7FC419F","title":"巴黎贝甜(大悦城店)","lon":"121.47227","lat":"31.24237","category":"67","category_name":"甜品店","address":"闸北区西藏北路166号大悦城B1楼(近曲阜路)"},{"poiid":"B2094757DB68A3F9439C","title":"蛇摊","lon":"121.4683665801971","lat":"31.24743910043616","category":"247","category_name":"餐饮美食","address":"海宁路西藏北路"},{"poiid":"B2094654D56CA2F5469B","title":"中国移动(虬江路)","lon":"121.46797","lat":"31.25004","category":"138","category_name":"家电电子卖场","address":""},{"poiid":"B2094654DA6FA2FC4198","title":"海文大楼","lon":"121.46728","lat":"31.24489","category":"46","category_name":"楼宇","address":"天目中路383"},{"poiid":"B2094654DA6FA2FD4499","title":"北方大厦(天目中路)","lon":"121.46807","lat":"31.24466","category":"46","category_name":"楼宇","address":"上海市闸北区天目中路380号"},{"poiid":"B2094757D465A7FC459D","title":"满味东北饺子坊","lon":"121.46844","lat":"31.24554","category":"82","category_name":"东北菜","address":"闸北区天目中路337号(近晋元路)"},{"poiid":"B2094757D06AA3F5409A","title":"上海银行信用卡中心","lon":"121.46831","lat":"31.24558","category":"150","category_name":"银行","address":"上海天目中路353号"},{"poiid":"B2094654DA6FAAF44093","title":"众昌金城大厦","lon":"121.4684","lat":"31.24397","category":"46","category_name":"楼宇","address":"沈河北站路与北京街的交汇处"},{"poiid":"B2094654DA6FAAFB4499","title":"华祺苑","lon":"121.4687","lat":"31.243601","category":"47","category_name":"住宅区","address":"上海晋元路228弄"},{"poiid":"B2094757D064A4F44893","title":"天目中路海宁路口","lon":"121.468333","lat":"31.245562","category":"500","category_name":"未知分类","address":"上海天目中路"},{"poiid":"B2094654DA6FA2FC4393","title":"万佳商厦","lon":"121.46834","lat":"31.24547","category":"46","category_name":"楼宇","address":"上海市闸北区天目中路353号"},{"poiid":"B2094757D46EA4FB419B","title":"顺旺基 晋元路店","lon":"121.46915","lat":"31.24508","category":"68","category_name":"快餐厅","address":"闸北区晋元路308号(近海宁路)"},{"poiid":"B2094655D26BA2F8499F","title":"天目中路晋元路","lon":"121.46832","lat":"31.24527","category":"38","category_name":"公交车站","address":""},{"poiid":"B2094757D06AA1FA4598","title":"闸北区财政局","lon":"121.46600103","lat":"31.245840132","category":"500","category_name":"未知分类","address":"上海天目中路383号"},{"poiid":"B2094655D265AAFB4998","title":"喜士多海峰门市","lon":"121.46954","lat":"31.2457","category":"117","category_name":"便民商店/便利店","address":"天目中路260-1临"},{"poiid":"B2094654DA6FA2FD4493","title":"交通公园","lon":"121.46762","lat":"31.24767","category":"196","category_name":"公园","address":"闸北区新马路262号(近育婴堂路)"},{"poiid":"B2094752D269A2FC4292","title":"泰湖","lon":"121.467476","lat":"31.2449","category":"247","category_name":"餐饮美食","address":null},{"poiid":"B2094757D46CA7FD439F","title":"温州黄牛馆","lon":"121.46955","lat":"31.24448","category":"68","category_name":"快餐厅","address":"闸北区晋元路168号(近曲阜西路)"},{"poiid":"B2094655D36CA7FB429A","title":"海宁路晋元路","lon":"121.46836","lat":"31.24431","category":"38","category_name":"公交车站","address":""},{"poiid":"B2094757D16BA5F94498","title":"V.ROSE(大悦城店)","lon":"121.46819123","lat":"31.247386165","category":"122","category_name":"个人用品/化妆品店","address":"闸北区西藏北路166号大悦城B1楼(近曲阜路)"},{"poiid":"B2094757D16DA2FB4098","title":"上海银联","lon":"121.46731","lat":"31.2448","category":"46","category_name":"楼宇","address":"闸北区天目中路383号海文大楼9楼(近海宁路)"},{"poiid":"B2094757D16AA4FA4198","title":"乌镇路烧烤摊","lon":"121.4672","lat":"31.24302","category":"68","category_name":"快餐厅","address":"闸北区新疆路凯旋门保健品市场附近(近乌镇路)"},{"poiid":"B2094757D168A0FA4898","title":"晴美餐厅(火车站店)","lon":"121.46783556","lat":"31.244525329","category":"68","category_name":"快餐厅","address":"闸北区天目中路359号(近万佳商厦)"},{"poiid":"B2094654DB6BA4F44293","title":"观景苑","lon":"121.46799","lat":"31.248043","category":"47","category_name":"住宅区","address":"上海市闸北区新马路258弄"},{"poiid":"B2094654DA6FA2FC439D","title":"喜士多便利连锁(天目中路)","lon":"121.46782","lat":"31.24514","category":"117","category_name":"便民商店/便利店","address":"天目中路373"},{"poiid":"B2094655D26FA6FE499A","title":"华东大厦","lon":"121.46871","lat":"31.24479","category":"46","category_name":"楼宇","address":"晋元路310弄"},{"poiid":"B2094655D26FA1FB429A","title":"鹏信都市工业园","lon":"121.46928","lat":"31.2481","category":"45","category_name":"产业园区","address":"西藏北路489"},{"poiid":"B2094757D16EABFB469A","title":"南星小区","lon":"121.46614","lat":"31.243567","category":"47","category_name":"住宅区","address":"上海闸北区新疆路乌镇路(近天目中路海宁路)"},{"poiid":"B2094752DA68A6FF429B","title":"大悦城","lon":"121.467469","lat":"31.245039","category":"500","category_name":"未知分类","address":"上海市 西藏北路曲阜路"},{"poiid":"B2094654DB6BA4F44192","title":"上海机务段(天目中路)","lon":"121.46606","lat":"31.24464","category":"68","category_name":"快餐厅","address":"闸北区天目中路465号(近晋元路)"},{"poiid":"B2094757D06BA5F94593","title":"柬埔寨王国驻上海总领事馆","lon":"121.47004824","lat":"31.245467074","category":"500","category_name":"未知分类","address":"天目中路253-267号蓝宝石大厦12层A座"},{"poiid":"B2094654DA6FA2FC449E","title":"中国银行上海市天目中路支行","lon":"121.46841","lat":"31.24558","category":"150","category_name":"银行","address":"闸北区天目中路347号(晋元路天目中路)"},{"poiid":"B2094757D16CA3FE439D","title":"上海银行","lon":"121.467598738","lat":"31.2439395923","category":"150","category_name":"银行","address":"上海市闸北区天目中路365号"},{"poiid":"B2094654DA6FA2FD4999","title":"兴铁大厦","lon":"121.47093","lat":"31.24724","category":"46","category_name":"楼宇","address":"上海天目中路181号"},{"poiid":"B2094757D16EAAFE439B","title":"金峰大厦","lon":"121.465","lat":"31.2459","category":"46","category_name":"楼宇","address":"上海闸北区恒丰路31号"},{"poiid":"B2094654DA6FA2FC469A","title":"上海兆林实业有限公司","lon":"121.4695","lat":"31.24628","category":"263","category_name":"公司","address":"天目中路295"},{"poiid":"B2094654D56CA2FB4298","title":"上海铁路游泳池","lon":"121.46953","lat":"31.24894","category":"231","category_name":"游泳馆","address":"闸北区西藏北路503号(近虬江路)"},{"poiid":"B2094655D36CA0FD449F","title":"晋元路","lon":"121.4689","lat":"31.24441","category":"38","category_name":"公交车站","address":"上海华祺苑228弄"},{"poiid":"B2094655D36CA0FD4392","title":"晋元路海宁路","lon":"121.46942","lat":"31.2446","category":"38","category_name":"公交车站","address":""},{"poiid":"B2094654DA6FA2FC4693","title":"中铁上海设计院集团有限公司","lon":"121.46974","lat":"31.24654","category":"263","category_name":"公司","address":"天目中路291"},{"poiid":"B2094654DA6FA2FD439B","title":"天晋小区","lon":"121.46851","lat":"31.244829","category":"47","category_name":"住宅区","address":"晋元路310弄"},{"poiid":"B2094753D66FA4FE4899","title":"虹口足球场","lon":"121.466725","lat":"31.244699","category":"220","category_name":"运动场所","address":"上海市 1111"},{"poiid":"B2094654DA6FA2FC459E","title":"中国太平洋人寿保险股份有限公司","lon":"121.46898","lat":"31.24593","category":"219","category_name":"其他","address":"天目中路325号"},{"poiid":"B2094752D669A6F44398","title":"顾村公园","lon":"121.468335","lat":"31.248608","category":"196","category_name":"公园","address":null},{"poiid":"B2094655D36CA2F44699","title":"上海火车站(天目中路晋元路)","lon":"121.46839","lat":"31.24523","category":"38","category_name":"公交车站","address":""},{"poiid":"B2094757D068AAFB429B","title":"豪享来上海天目店","lon":"121.4665","lat":"31.2451","category":"247","category_name":"餐饮美食","address":"上海市闸北区天目中路463号甲"},{"poiid":"B2094654DB6BABFE429E","title":"阿英煲","lon":"121.46802","lat":"31.24396","category":"260","category_name":"其他","address":"闸北区海宁路1415号(天目中路口)"},{"poiid":"B209475CD564A7F84292","title":"上海滩新天地店","lon":"121.47463","lat":"31.22164","category":"119","category_name":"商场","address":"\"太仓路181弄新天地北里15号\r\n\""},{"poiid":"B209475CD564A7F8439E","title":"上海滩中信泰富店","lon":"121.45602","lat":"31.22851","category":"119","category_name":"商场","address":"\"南京西路1168号中信泰富广场，店铺号221.\r\n\""},{"poiid":"B2094757D06FA5FA4199","title":"棒约翰比萨(大悦城店)","lon":"121.467054","lat":"31.243526","category":"94","category_name":"西餐厅","address":"闸北区西藏北路166号大悦城7楼"},{"poiid":"B2094757D069A7FC419F","title":"巴黎贝甜(大悦城店)","lon":"121.47227","lat":"31.24237","category":"67","category_name":"甜品店","address":"闸北区西藏北路166号大悦城B1楼(近曲阜路)"},{"poiid":"B2094757DB68A3F9439C","title":"蛇摊","lon":"121.4683665801971","lat":"31.24743910043616","category":"247","category_name":"餐饮美食","address":"海宁路西藏北路"},{"poiid":"B2094654D56CA2F5469B","title":"中国移动(虬江路)","lon":"121.46797","lat":"31.25004","category":"138","category_name":"家电电子卖场","address":""},{"poiid":"B2094654DA6FA2FC4198","title":"海文大楼","lon":"121.46728","lat":"31.24489","category":"46","category_name":"楼宇","address":"天目中路383"},{"poiid":"B2094654DA6FA2FD4499","title":"北方大厦(天目中路)","lon":"121.46807","lat":"31.24466","category":"46","category_name":"楼宇","address":"上海市闸北区天目中路380号"},{"poiid":"B2094757D465A7FC459D","title":"满味东北饺子坊","lon":"121.46844","lat":"31.24554","category":"82","category_name":"东北菜","address":"闸北区天目中路337号(近晋元路)"},{"poiid":"B2094757D06AA3F5409A","title":"上海银行信用卡中心","lon":"121.46831","lat":"31.24558","category":"150","category_name":"银行","address":"上海天目中路353号"},{"poiid":"B2094654DA6FAAF44093","title":"众昌金城大厦","lon":"121.4684","lat":"31.24397","category":"46","category_name":"楼宇","address":"沈河北站路与北京街的交汇处"},{"poiid":"B2094654DA6FAAFB4499","title":"华祺苑","lon":"121.4687","lat":"31.243601","category":"47","category_name":"住宅区","address":"上海晋元路228弄"},{"poiid":"B2094757D064A4F44893","title":"天目中路海宁路口","lon":"121.468333","lat":"31.245562","category":"500","category_name":"未知分类","address":"上海天目中路"},{"poiid":"B2094654DA6FA2FC4393","title":"万佳商厦","lon":"121.46834","lat":"31.24547","category":"46","category_name":"楼宇","address":"上海市闸北区天目中路353号"},{"poiid":"B2094757D46EA4FB419B","title":"顺旺基 晋元路店","lon":"121.46915","lat":"31.24508","category":"68","category_name":"快餐厅","address":"闸北区晋元路308号(近海宁路)"},{"poiid":"B2094655D26BA2F8499F","title":"天目中路晋元路","lon":"121.46832","lat":"31.24527","category":"38","category_name":"公交车站","address":""},{"poiid":"B2094757D06AA1FA4598","title":"闸北区财政局","lon":"121.46600103","lat":"31.245840132","category":"500","category_name":"未知分类","address":"上海天目中路383号"},{"poiid":"B2094655D265AAFB4998","title":"喜士多海峰门市","lon":"121.46954","lat":"31.2457","category":"117","category_name":"便民商店/便利店","address":"天目中路260-1临"},{"poiid":"B2094654DA6FA2FD4493","title":"交通公园","lon":"121.46762","lat":"31.24767","category":"196","category_name":"公园","address":"闸北区新马路262号(近育婴堂路)"},{"poiid":"B2094752D269A2FC4292","title":"泰湖","lon":"121.467476","lat":"31.2449","category":"247","category_name":"餐饮美食","address":null},{"poiid":"B2094757D46CA7FD439F","title":"温州黄牛馆","lon":"121.46955","lat":"31.24448","category":"68","category_name":"快餐厅","address":"闸北区晋元路168号(近曲阜西路)"},{"poiid":"B2094655D36CA7FB429A","title":"海宁路晋元路","lon":"121.46836","lat":"31.24431","category":"38","category_name":"公交车站","address":""},{"poiid":"B2094757D16BA5F94498","title":"V.ROSE(大悦城店)","lon":"121.46819123","lat":"31.247386165","category":"122","category_name":"个人用品/化妆品店","address":"闸北区西藏北路166号大悦城B1楼(近曲阜路)"},{"poiid":"B2094757D16DA2FB4098","title":"上海银联","lon":"121.46731","lat":"31.2448","category":"46","category_name":"楼宇","address":"闸北区天目中路383号海文大楼9楼(近海宁路)"},{"poiid":"B2094757D16AA4FA4198","title":"乌镇路烧烤摊","lon":"121.4672","lat":"31.24302","category":"68","category_name":"快餐厅","address":"闸北区新疆路凯旋门保健品市场附近(近乌镇路)"},{"poiid":"B2094757D168A0FA4898","title":"晴美餐厅(火车站店)","lon":"121.46783556","lat":"31.244525329","category":"68","category_name":"快餐厅","address":"闸北区天目中路359号(近万佳商厦)"},{"poiid":"B2094654DB6BA4F44293","title":"观景苑","lon":"121.46799","lat":"31.248043","category":"47","category_name":"住宅区","address":"上海市闸北区新马路258弄"},{"poiid":"B2094654DA6FA2FC439D","title":"喜士多便利连锁(天目中路)","lon":"121.46782","lat":"31.24514","category":"117","category_name":"便民商店/便利店","address":"天目中路373"},{"poiid":"B2094655D26FA6FE499A","title":"华东大厦","lon":"121.46871","lat":"31.24479","category":"46","category_name":"楼宇","address":"晋元路310弄"},{"poiid":"B2094655D26FA1FB429A","title":"鹏信都市工业园","lon":"121.46928","lat":"31.2481","category":"45","category_name":"产业园区","address":"西藏北路489"},{"poiid":"B2094757D16EABFB469A","title":"南星小区","lon":"121.46614","lat":"31.243567","category":"47","category_name":"住宅区","address":"上海闸北区新疆路乌镇路(近天目中路海宁路)"},{"poiid":"B2094752DA68A6FF429B","title":"大悦城","lon":"121.467469","lat":"31.245039","category":"500","category_name":"未知分类","address":"上海市 西藏北路曲阜路"},{"poiid":"B2094654DB6BA4F44192","title":"上海机务段(天目中路)","lon":"121.46606","lat":"31.24464","category":"68","category_name":"快餐厅","address":"闸北区天目中路465号(近晋元路)"},{"poiid":"B2094757D06BA5F94593","title":"柬埔寨王国驻上海总领事馆","lon":"121.47004824","lat":"31.245467074","category":"500","category_name":"未知分类","address":"天目中路253-267号蓝宝石大厦12层A座"},{"poiid":"B2094654DA6FA2FC449E","title":"中国银行上海市天目中路支行","lon":"121.46841","lat":"31.24558","category":"150","category_name":"银行","address":"闸北区天目中路347号(晋元路天目中路)"},{"poiid":"B2094757D16CA3FE439D","title":"上海银行","lon":"121.467598738","lat":"31.2439395923","category":"150","category_name":"银行","address":"上海市闸北区天目中路365号"},{"poiid":"B2094654DA6FA2FD4999","title":"兴铁大厦","lon":"121.47093","lat":"31.24724","category":"46","category_name":"楼宇","address":"上海天目中路181号"},{"poiid":"B2094757D16EAAFE439B","title":"金峰大厦","lon":"121.465","lat":"31.2459","category":"46","category_name":"楼宇","address":"上海闸北区恒丰路31号"},{"poiid":"B2094654DA6FA2FC469A","title":"上海兆林实业有限公司","lon":"121.4695","lat":"31.24628","category":"263","category_name":"公司","address":"天目中路295"},{"poiid":"B2094654D56CA2FB4298","title":"上海铁路游泳池","lon":"121.46953","lat":"31.24894","category":"231","category_name":"游泳馆","address":"闸北区西藏北路503号(近虬江路)"},{"poiid":"B2094655D36CA0FD449F","title":"晋元路","lon":"121.4689","lat":"31.24441","category":"38","category_name":"公交车站","address":"上海华祺苑228弄"},{"poiid":"B2094655D36CA0FD4392","title":"晋元路海宁路","lon":"121.46942","lat":"31.2446","category":"38","category_name":"公交车站","address":""},{"poiid":"B2094654DA6FA2FC4693","title":"中铁上海设计院集团有限公司","lon":"121.46974","lat":"31.24654","category":"263","category_name":"公司","address":"天目中路291"},{"poiid":"B2094654DA6FA2FD439B","title":"天晋小区","lon":"121.46851","lat":"31.244829","category":"47","category_name":"住宅区","address":"晋元路310弄"},{"poiid":"B2094753D66FA4FE4899","title":"虹口足球场","lon":"121.466725","lat":"31.244699","category":"220","category_name":"运动场所","address":"上海市 1111"},{"poiid":"B2094654DA6FA2FC459E","title":"中国太平洋人寿保险股份有限公司","lon":"121.46898","lat":"31.24593","category":"219","category_name":"其他","address":"天目中路325号"},{"poiid":"B2094752D669A6F44398","title":"顾村公园","lon":"121.468335","lat":"31.248608","category":"196","category_name":"公园","address":null},{"poiid":"B2094655D36CA2F44699","title":"上海火车站(天目中路晋元路)","lon":"121.46839","lat":"31.24523","category":"38","category_name":"公交车站","address":""},{"poiid":"B2094757D068AAFB429B","title":"豪享来上海天目店","lon":"121.4665","lat":"31.2451","category":"247","category_name":"餐饮美食","address":"上海市闸北区天目中路463号甲"},{"poiid":"B2094654DB6BABFE429E","title":"阿英煲","lon":"121.46802","lat":"31.24396","category":"260","category_name":"其他","address":"闸北区海宁路1415号(天目中路口)"},{"poiid":"B209475CD564A7F84292","title":"上海滩新天地店","lon":"121.47463","lat":"31.22164","category":"119","category_name":"商场","address":"\"太仓路181弄新天地北里15号\r\n\""},{"poiid":"B209475CD564A7F8439E","title":"上海滩中信泰富店","lon":"121.45602","lat":"31.22851","category":"119","category_name":"商场","address":"\"南京西路1168号中信泰富广场，店铺号221.\r\n\""},{"poiid":"B2094757D06FA5FA4199","title":"棒约翰比萨(大悦城店)","lon":"121.467054","lat":"31.243526","category":"94","category_name":"西餐厅","address":"闸北区西藏北路166号大悦城7楼"},{"poiid":"B2094757D069A7FC419F","title":"巴黎贝甜(大悦城店)","lon":"121.47227","lat":"31.24237","category":"67","category_name":"甜品店","address":"闸北区西藏北路166号大悦城B1楼(近曲阜路)"},{"poiid":"B2094757DB68A3F9439C","title":"蛇摊","lon":"121.4683665801971","lat":"31.24743910043616","category":"247","category_name":"餐饮美食","address":"海宁路西藏北路"},{"poiid":"B2094654D56CA2F5469B","title":"中国移动(虬江路)","lon":"121.46797","lat":"31.25004","category":"138","category_name":"家电电子卖场","address":""},{"poiid":"B2094654DA6FA2FC4198","title":"海文大楼","lon":"121.46728","lat":"31.24489","category":"46","category_name":"楼宇","address":"天目中路383"},{"poiid":"B2094654DA6FA2FD4499","title":"北方大厦(天目中路)","lon":"121.46807","lat":"31.24466","category":"46","category_name":"楼宇","address":"上海市闸北区天目中路380号"},{"poiid":"B2094757D465A7FC459D","title":"满味东北饺子坊","lon":"121.46844","lat":"31.24554","category":"82","category_name":"东北菜","address":"闸北区天目中路337号(近晋元路)"},{"poiid":"B2094757D06AA3F5409A","title":"上海银行信用卡中心","lon":"121.46831","lat":"31.24558","category":"150","category_name":"银行","address":"上海天目中路353号"},{"poiid":"B2094654DA6FAAF44093","title":"众昌金城大厦","lon":"121.4684","lat":"31.24397","category":"46","category_name":"楼宇","address":"沈河北站路与北京街的交汇处"},{"poiid":"B2094654DA6FAAFB4499","title":"华祺苑","lon":"121.4687","lat":"31.243601","category":"47","category_name":"住宅区","address":"上海晋元路228弄"},{"poiid":"B2094757D064A4F44893","title":"天目中路海宁路口","lon":"121.468333","lat":"31.245562","category":"500","category_name":"未知分类","address":"上海天目中路"},{"poiid":"B2094654DA6FA2FC4393","title":"万佳商厦","lon":"121.46834","lat":"31.24547","category":"46","category_name":"楼宇","address":"上海市闸北区天目中路353号"},{"poiid":"B2094757D46EA4FB419B","title":"顺旺基 晋元路店","lon":"121.46915","lat":"31.24508","category":"68","category_name":"快餐厅","address":"闸北区晋元路308号(近海宁路)"},{"poiid":"B2094655D26BA2F8499F","title":"天目中路晋元路","lon":"121.46832","lat":"31.24527","category":"38","category_name":"公交车站","address":""},{"poiid":"B2094757D06AA1FA4598","title":"闸北区财政局","lon":"121.46600103","lat":"31.245840132","category":"500","category_name":"未知分类","address":"上海天目中路383号"},{"poiid":"B2094655D265AAFB4998","title":"喜士多海峰门市","lon":"121.46954","lat":"31.2457","category":"117","category_name":"便民商店/便利店","address":"天目中路260-1临"},{"poiid":"B2094654DA6FA2FD4493","title":"交通公园","lon":"121.46762","lat":"31.24767","category":"196","category_name":"公园","address":"闸北区新马路262号(近育婴堂路)"},{"poiid":"B2094752D269A2FC4292","title":"泰湖","lon":"121.467476","lat":"31.2449","category":"247","category_name":"餐饮美食","address":null},{"poiid":"B2094757D46CA7FD439F","title":"温州黄牛馆","lon":"121.46955","lat":"31.24448","category":"68","category_name":"快餐厅","address":"闸北区晋元路168号(近曲阜西路)"},{"poiid":"B2094655D36CA7FB429A","title":"海宁路晋元路","lon":"121.46836","lat":"31.24431","category":"38","category_name":"公交车站","address":""},{"poiid":"B2094757D16BA5F94498","title":"V.ROSE(大悦城店)","lon":"121.46819123","lat":"31.247386165","category":"122","category_name":"个人用品/化妆品店","address":"闸北区西藏北路166号大悦城B1楼(近曲阜路)"},{"poiid":"B2094757D16DA2FB4098","title":"上海银联","lon":"121.46731","lat":"31.2448","category":"46","category_name":"楼宇","address":"闸北区天目中路383号海文大楼9楼(近海宁路)"},{"poiid":"B2094757D16AA4FA4198","title":"乌镇路烧烤摊","lon":"121.4672","lat":"31.24302","category":"68","category_name":"快餐厅","address":"闸北区新疆路凯旋门保健品市场附近(近乌镇路)"},{"poiid":"B2094757D168A0FA4898","title":"晴美餐厅(火车站店)","lon":"121.46783556","lat":"31.244525329","category":"68","category_name":"快餐厅","address":"闸北区天目中路359号(近万佳商厦)"},{"poiid":"B2094654DB6BA4F44293","title":"观景苑","lon":"121.46799","lat":"31.248043","category":"47","category_name":"住宅区","address":"上海市闸北区新马路258弄"},{"poiid":"B2094654DA6FA2FC439D","title":"喜士多便利连锁(天目中路)","lon":"121.46782","lat":"31.24514","category":"117","category_name":"便民商店/便利店","address":"天目中路373"},{"poiid":"B2094655D26FA6FE499A","title":"华东大厦","lon":"121.46871","lat":"31.24479","category":"46","category_name":"楼宇","address":"晋元路310弄"},{"poiid":"B2094655D26FA1FB429A","title":"鹏信都市工业园","lon":"121.46928","lat":"31.2481","category":"45","category_name":"产业园区","address":"西藏北路489"},{"poiid":"B2094757D16EABFB469A","title":"南星小区","lon":"121.46614","lat":"31.243567","category":"47","category_name":"住宅区","address":"上海闸北区新疆路乌镇路(近天目中路海宁路)"},{"poiid":"B2094752DA68A6FF429B","title":"大悦城","lon":"121.467469","lat":"31.245039","category":"500","category_name":"未知分类","address":"上海市 西藏北路曲阜路"},{"poiid":"B2094654DB6BA4F44192","title":"上海机务段(天目中路)","lon":"121.46606","lat":"31.24464","category":"68","category_name":"快餐厅","address":"闸北区天目中路465号(近晋元路)"},{"poiid":"B2094757D06BA5F94593","title":"柬埔寨王国驻上海总领事馆","lon":"121.47004824","lat":"31.245467074","category":"500","category_name":"未知分类","address":"天目中路253-267号蓝宝石大厦12层A座"},{"poiid":"B2094654DA6FA2FC449E","title":"中国银行上海市天目中路支行","lon":"121.46841","lat":"31.24558","category":"150","category_name":"银行","address":"闸北区天目中路347号(晋元路天目中路)"},{"poiid":"B2094757D16CA3FE439D","title":"上海银行","lon":"121.467598738","lat":"31.2439395923","category":"150","category_name":"银行","address":"上海市闸北区天目中路365号"},{"poiid":"B2094654DA6FA2FD4999","title":"兴铁大厦","lon":"121.47093","lat":"31.24724","category":"46","category_name":"楼宇","address":"上海天目中路181号"},{"poiid":"B2094757D16EAAFE439B","title":"金峰大厦","lon":"121.465","lat":"31.2459","category":"46","category_name":"楼宇","address":"上海闸北区恒丰路31号"},{"poiid":"B2094654DA6FA2FC469A","title":"上海兆林实业有限公司","lon":"121.4695","lat":"31.24628","category":"263","category_name":"公司","address":"天目中路295"},{"poiid":"B2094654D56CA2FB4298","title":"上海铁路游泳池","lon":"121.46953","lat":"31.24894","category":"231","category_name":"游泳馆","address":"闸北区西藏北路503号(近虬江路)"},{"poiid":"B2094655D36CA0FD449F","title":"晋元路","lon":"121.4689","lat":"31.24441","category":"38","category_name":"公交车站","address":"上海华祺苑228弄"},{"poiid":"B2094655D36CA0FD4392","title":"晋元路海宁路","lon":"121.46942","lat":"31.2446","category":"38","category_name":"公交车站","address":""},{"poiid":"B2094654DA6FA2FC4693","title":"中铁上海设计院集团有限公司","lon":"121.46974","lat":"31.24654","category":"263","category_name":"公司","address":"天目中路291"},{"poiid":"B2094654DA6FA2FD439B","title":"天晋小区","lon":"121.46851","lat":"31.244829","category":"47","category_name":"住宅区","address":"晋元路310弄"},{"poiid":"B2094753D66FA4FE4899","title":"虹口足球场","lon":"121.466725","lat":"31.244699","category":"220","category_name":"运动场所","address":"上海市 1111"},{"poiid":"B2094654DA6FA2FC459E","title":"中国太平洋人寿保险股份有限公司","lon":"121.46898","lat":"31.24593","category":"219","category_name":"其他","address":"天目中路325号"},{"poiid":"B2094752D669A6F44398","title":"顾村公园","lon":"121.468335","lat":"31.248608","category":"196","category_name":"公园","address":null},{"poiid":"B2094655D36CA2F44699","title":"上海火车站(天目中路晋元路)","lon":"121.46839","lat":"31.24523","category":"38","category_name":"公交车站","address":""},{"poiid":"B2094757D068AAFB429B","title":"豪享来上海天目店","lon":"121.4665","lat":"31.2451","category":"247","category_name":"餐饮美食","address":"上海市闸北区天目中路463号甲"},{"poiid":"B2094654DB6BABFE429E","title":"阿英煲","lon":"121.46802","lat":"31.24396","category":"260","category_name":"其他","address":"闸北区海宁路1415号(天目中路口)"},{"poiid":"B209475CD564A7F84292","title":"上海滩新天地店","lon":"121.47463","lat":"31.22164","category":"119","category_name":"商场","address":"\"太仓路181弄新天地北里15号\r\n\""},{"poiid":"B209475CD564A7F8439E","title":"上海滩中信泰富店","lon":"121.45602","lat":"31.22851","category":"119","category_name":"商场","address":"\"南京西路1168号中信泰富广场，店铺号221.\r\n\""},{"poiid":"B2094757D06FA5FA4199","title":"棒约翰比萨(大悦城店)","lon":"121.467054","lat":"31.243526","category":"94","category_name":"西餐厅","address":"闸北区西藏北路166号大悦城7楼"},{"poiid":"B2094757D069A7FC419F","title":"巴黎贝甜(大悦城店)","lon":"121.47227","lat":"31.24237","category":"67","category_name":"甜品店","address":"闸北区西藏北路166号大悦城B1楼(近曲阜路)"},{"poiid":"B2094757DB68A3F9439C","title":"蛇摊","lon":"121.4683665801971","lat":"31.24743910043616","category":"247","category_name":"餐饮美食","address":"海宁路西藏北路"},{"poiid":"B2094654D56CA2F5469B","title":"中国移动(虬江路)","lon":"121.46797","lat":"31.25004","category":"138","category_name":"家电电子卖场","address":""},{"poiid":"B2094654DA6FA2FC4198","title":"海文大楼","lon":"121.46728","lat":"31.24489","category":"46","category_name":"楼宇","address":"天目中路383"},{"poiid":"B2094654DA6FA2FD4499","title":"北方大厦(天目中路)","lon":"121.46807","lat":"31.24466","category":"46","category_name":"楼宇","address":"上海市闸北区天目中路380号"},{"poiid":"B2094757D465A7FC459D","title":"满味东北饺子坊","lon":"121.46844","lat":"31.24554","category":"82","category_name":"东北菜","address":"闸北区天目中路337号(近晋元路)"},{"poiid":"B2094757D06AA3F5409A","title":"上海银行信用卡中心","lon":"121.46831","lat":"31.24558","category":"150","category_name":"银行","address":"上海天目中路353号"},{"poiid":"B2094654DA6FAAF44093","title":"众昌金城大厦","lon":"121.4684","lat":"31.24397","category":"46","category_name":"楼宇","address":"沈河北站路与北京街的交汇处"},{"poiid":"B2094654DA6FAAFB4499","title":"华祺苑","lon":"121.4687","lat":"31.243601","category":"47","category_name":"住宅区","address":"上海晋元路228弄"},{"poiid":"B2094757D064A4F44893","title":"天目中路海宁路口","lon":"121.468333","lat":"31.245562","category":"500","category_name":"未知分类","address":"上海天目中路"},{"poiid":"B2094654DA6FA2FC4393","title":"万佳商厦","lon":"121.46834","lat":"31.24547","category":"46","category_name":"楼宇","address":"上海市闸北区天目中路353号"},{"poiid":"B2094757D46EA4FB419B","title":"顺旺基 晋元路店","lon":"121.46915","lat":"31.24508","category":"68","category_name":"快餐厅","address":"闸北区晋元路308号(近海宁路)"},{"poiid":"B2094655D26BA2F8499F","title":"天目中路晋元路","lon":"121.46832","lat":"31.24527","category":"38","category_name":"公交车站","address":""},{"poiid":"B2094757D06AA1FA4598","title":"闸北区财政局","lon":"121.46600103","lat":"31.245840132","category":"500","category_name":"未知分类","address":"上海天目中路383号"},{"poiid":"B2094655D265AAFB4998","title":"喜士多海峰门市","lon":"121.46954","lat":"31.2457","category":"117","category_name":"便民商店/便利店","address":"天目中路260-1临"},{"poiid":"B2094654DA6FA2FD4493","title":"交通公园","lon":"121.46762","lat":"31.24767","category":"196","category_name":"公园","address":"闸北区新马路262号(近育婴堂路)"},{"poiid":"B2094752D269A2FC4292","title":"泰湖","lon":"121.467476","lat":"31.2449","category":"247","category_name":"餐饮美食","address":null},{"poiid":"B2094757D46CA7FD439F","title":"温州黄牛馆","lon":"121.46955","lat":"31.24448","category":"68","category_name":"快餐厅","address":"闸北区晋元路168号(近曲阜西路)"},{"poiid":"B2094655D36CA7FB429A","title":"海宁路晋元路","lon":"121.46836","lat":"31.24431","category":"38","category_name":"公交车站","address":""},{"poiid":"B2094757D16BA5F94498","title":"V.ROSE(大悦城店)","lon":"121.46819123","lat":"31.247386165","category":"122","category_name":"个人用品/化妆品店","address":"闸北区西藏北路166号大悦城B1楼(近曲阜路)"},{"poiid":"B2094757D16DA2FB4098","title":"上海银联","lon":"121.46731","lat":"31.2448","category":"46","category_name":"楼宇","address":"闸北区天目中路383号海文大楼9楼(近海宁路)"},{"poiid":"B2094757D16AA4FA4198","title":"乌镇路烧烤摊","lon":"121.4672","lat":"31.24302","category":"68","category_name":"快餐厅","address":"闸北区新疆路凯旋门保健品市场附近(近乌镇路)"},{"poiid":"B2094757D168A0FA4898","title":"晴美餐厅(火车站店)","lon":"121.46783556","lat":"31.244525329","category":"68","category_name":"快餐厅","address":"闸北区天目中路359号(近万佳商厦)"},{"poiid":"B2094654DB6BA4F44293","title":"观景苑","lon":"121.46799","lat":"31.248043","category":"47","category_name":"住宅区","address":"上海市闸北区新马路258弄"},{"poiid":"B2094654DA6FA2FC439D","title":"喜士多便利连锁(天目中路)","lon":"121.46782","lat":"31.24514","category":"117","category_name":"便民商店/便利店","address":"天目中路373"},{"poiid":"B2094655D26FA6FE499A","title":"华东大厦","lon":"121.46871","lat":"31.24479","category":"46","category_name":"楼宇","address":"晋元路310弄"},{"poiid":"B2094655D26FA1FB429A","title":"鹏信都市工业园","lon":"121.46928","lat":"31.2481","category":"45","category_name":"产业园区","address":"西藏北路489"},{"poiid":"B2094757D16EABFB469A","title":"南星小区","lon":"121.46614","lat":"31.243567","category":"47","category_name":"住宅区","address":"上海闸北区新疆路乌镇路(近天目中路海宁路)"},{"poiid":"B2094752DA68A6FF429B","title":"大悦城","lon":"121.467469","lat":"31.245039","category":"500","category_name":"未知分类","address":"上海市 西藏北路曲阜路"},{"poiid":"B2094654DB6BA4F44192","title":"上海机务段(天目中路)","lon":"121.46606","lat":"31.24464","category":"68","category_name":"快餐厅","address":"闸北区天目中路465号(近晋元路)"},{"poiid":"B2094757D06BA5F94593","title":"柬埔寨王国驻上海总领事馆","lon":"121.47004824","lat":"31.245467074","category":"500","category_name":"未知分类","address":"天目中路253-267号蓝宝石大厦12层A座"},{"poiid":"B2094654DA6FA2FC449E","title":"中国银行上海市天目中路支行","lon":"121.46841","lat":"31.24558","category":"150","category_name":"银行","address":"闸北区天目中路347号(晋元路天目中路)"},{"poiid":"B2094757D16CA3FE439D","title":"上海银行","lon":"121.467598738","lat":"31.2439395923","category":"150","category_name":"银行","address":"上海市闸北区天目中路365号"},{"poiid":"B2094654DA6FA2FD4999","title":"兴铁大厦","lon":"121.47093","lat":"31.24724","category":"46","category_name":"楼宇","address":"上海天目中路181号"},{"poiid":"B2094757D16EAAFE439B","title":"金峰大厦","lon":"121.465","lat":"31.2459","category":"46","category_name":"楼宇","address":"上海闸北区恒丰路31号"},{"poiid":"B2094654DA6FA2FC469A","title":"上海兆林实业有限公司","lon":"121.4695","lat":"31.24628","category":"263","category_name":"公司","address":"天目中路295"},{"poiid":"B2094654D56CA2FB4298","title":"上海铁路游泳池","lon":"121.46953","lat":"31.24894","category":"231","category_name":"游泳馆","address":"闸北区西藏北路503号(近虬江路)"},{"poiid":"B2094655D36CA0FD449F","title":"晋元路","lon":"121.4689","lat":"31.24441","category":"38","category_name":"公交车站","address":"上海华祺苑228弄"},{"poiid":"B2094655D36CA0FD4392","title":"晋元路海宁路","lon":"121.46942","lat":"31.2446","category":"38","category_name":"公交车站","address":""},{"poiid":"B2094654DA6FA2FC4693","title":"中铁上海设计院集团有限公司","lon":"121.46974","lat":"31.24654","category":"263","category_name":"公司","address":"天目中路291"},{"poiid":"B2094654DA6FA2FD439B","title":"天晋小区","lon":"121.46851","lat":"31.244829","category":"47","category_name":"住宅区","address":"晋元路310弄"},{"poiid":"B2094753D66FA4FE4899","title":"虹口足球场","lon":"121.466725","lat":"31.244699","category":"220","category_name":"运动场所","address":"上海市 1111"},{"poiid":"B2094654DA6FA2FC459E","title":"中国太平洋人寿保险股份有限公司","lon":"121.46898","lat":"31.24593","category":"219","category_name":"其他","address":"天目中路325号"},{"poiid":"B2094752D669A6F44398","title":"顾村公园","lon":"121.468335","lat":"31.248608","category":"196","category_name":"公园","address":null}]