[{"poiid":"B2094654DB6BA7FF439B","title":"长风公园","lon":"121.39952","lat":"31.22399","category":"196","category_name":"公园","address":"普陀区枣阳路510号(近华师大后门)"},{"poiid":"B2094757D06FA7F9469E","title":"长风海洋世界极地白鲸表演馆","lon":"121.39928374","lat":"31.223985756","category":"196","category_name":"公园","address":"上海普陀区枣阳路525号长风公园内"},{"poiid":"B2094757D06FA3FB419D","title":"新发展亚太万豪酒店","lon":"121.39679","lat":"31.2213","category":"260","category_name":"其他","address":"普陀区大渡河路158号新发展亚太万豪酒店(近光复西路)"},{"poiid":"B2094757D068A5FE4693","title":"Parkside Plaza 长风景畔广场","lon":"121.396404886","lat":"31.2230774911","category":"500","category_name":"未知分类","address":"上海大渡河路196号(近云岭东路)"},{"poiid":"B2094654DB6BA7FF439A","title":"上海长风海洋世界","lon":"121.39955","lat":"31.22399","category":"196","category_name":"公园","address":"大渡河路451"},{"poiid":"B2094757D469A0FF419C","title":"星巴克(长风景畔广场店)","lon":"121.3966869","lat":"31.2215055","category":"260","category_name":"其他","address":"普陀区大渡河路178号长风景畔广场1楼01室(近长风公园4号门)"},{"poiid":"B2094757D06FA7FD409E","title":"迪士卡卡丁车赛车馆(Disckart Indoor Karting)","lon":"121.40163","lat":"31.22478","category":"220","category_name":"运动场所","address":"普陀区枣阳路809号长风公园附近(近华师大后门)"},{"poiid":"B2094655D26DA3F54093","title":"长风公园(四号门)","lon":"121.3966","lat":"31.22461","category":"680","category_name":"楼宇机构","address":"大渡河路451"},{"poiid":"B2094757D06FA5FC499E","title":"上海游艇会","lon":"121.396690071","lat":"31.2204165715","category":"76","category_name":"上海菜","address":"普陀区大渡河路160号(近光复西路)查看地图"},{"poiid":"B2094757D06FA2FC489A","title":"思创大厦","lon":"121.403","lat":"31.2197","category":"46","category_name":"楼宇","address":"上海市长宁区天山路600弄3-4号楼"},{"poiid":"B2094750D76FAAFF499E","title":"PANKOO釜山料理(长风景畔店)","lon":"121.39529","lat":"31.22331","category":"96","category_name":"韩国料理","address":"普陀区大渡河路178号长风景畔广场4楼28-29室(近长风公园4号门)"},{"poiid":"B2094750D26EA7F84493","title":"大户屋日本料理","lon":"121.39641523361","lat":"31.221279536744","category":"95","category_name":"日本料理","address":"普陀区大渡河路178号长风景畔广场4楼402号铺(近云岭东路)"},{"poiid":"B2094757D06FA5F4469A","title":"华东师范大学理科大楼","lon":"121.40352825","lat":"31.227578924","category":"253","category_name":"校园生活","address":"上海普陀区中山北路3663号华东师范大学中山北路校区"},{"poiid":"B2094757D068AAFF409F","title":"周家桥创意园","lon":"121.40578658","lat":"31.220065232","category":"46","category_name":"楼宇","address":"长宁区万航渡路2453号(华阳路万航渡路)"},{"poiid":"B2094757D06FABF5439D","title":"春天花园","lon":"121.4038","lat":"31.217037","category":"47","category_name":"住宅区","address":"长宁区娄山关路999弄(近长宁路)"},{"poiid":"B2094757D069A0FA409D","title":"虹桥河滨公园","lon":"121.40090251","lat":"31.219385867","category":"196","category_name":"公园","address":"长宁区长宁路2080号(锦屏路口)"},{"poiid":"B2094757D06AA3F5479E","title":"华师大 对外汉语学院","lon":"121.403979","lat":"31.222253","category":"253","category_name":"校园生活","address":"上海枣阳路896"},{"poiid":"B2094654D56BA4F4469F","title":"上海花城","lon":"121.40445","lat":"31.21896","category":"47","category_name":"住宅区","address":"普陀区澳门路519号华生大厦2号楼2202室(近普陀路)查看地图"},{"poiid":"B2094757DB68AAFE4592","title":"021上海菜主题餐厅 长风公园店","lon":"121.3966869","lat":"31.2215055","category":"76","category_name":"上海菜","address":"普陀区大渡河路168号长风景畔广场4楼(近云岭东路)"},{"poiid":"B2094750D26FA0F8419F","title":"湘乐汇 长风景畔广场店","lon":"121.39639377594","lat":"31.221573136228","category":"77","category_name":"湖南菜","address":"普陀区大渡河路196号长风景畔广场4楼(近云岭东路)"},{"poiid":"B2094757D16DA1F5469F","title":"虹桥河滨花园","lon":"121.40254","lat":"31.219532","category":"47","category_name":"住宅区","address":"上海市长宁区长宁路1898弄"},{"poiid":"B2094757D068A3FC429A","title":"同达创业大厦","lon":"121.403","lat":"31.2189","category":"46","category_name":"楼宇","address":"朝阳华威桥东北角"},{"poiid":"B2094757D06FA7FB4098","title":"虹桥万博花园","lon":"121.40051","lat":"31.216806","category":"47","category_name":"住宅区","address":"上海古北路69弄(近长宁路)"},{"poiid":"B2094757D068A4F5469A","title":"乐购大渡河路店","lon":"121.398223586","lat":"31.2222962758","category":"118","category_name":"超级市场","address":"普陀区大渡河路178号景畔广场B1楼01A"},{"poiid":"B2094750D26CA0F4499A","title":"吉亨面馆(长风景畔广场店)","lon":"121.3965534563223","lat":"31.221600926323504","category":"68","category_name":"快餐厅","address":"普陀区大渡河路196号长风景畔广场2楼(长风公园4号门对面)"},{"poiid":"B2094757DA68A1F9429E","title":"吞云小莳 长风景畔广场店","lon":"121.3966696","lat":"31.2215473","category":"91","category_name":"台湾菜","address":"普陀区大渡河路178号长风景畔广场1楼L1-19(近长风公园)"},{"poiid":"B2094757D06FA4F84592","title":"北岸长风","lon":"121.39634","lat":"31.221179","category":"46","category_name":"楼宇","address":"大渡河路168弄6号1楼(光复西路口)"},{"poiid":"B2094655D26DA2FC429E","title":"DOHO","lon":"121.40579871717932","lat":"31.220632293765263","category":"45","category_name":"产业园区","address":"上海市长宁区万航渡路2452号"},{"poiid":"B2094757D06FAAF44298","title":"艺林盲人按摩院(长宁店)","lon":"121.40361","lat":"31.21796","category":"149","category_name":"洗浴推拿场所","address":"长宁区长宁路1842号"},{"poiid":"B2094757D069A6F4469D","title":"全家便利(虹桥机场店)","lon":"121.405636","lat":"31.218717","category":"117","category_name":"便民商店/便利店","address":"上海长宁区虹桥机场2号航站楼内"},{"poiid":"B2094655D26FA6F84998","title":"华东师范大学对外汉语学院(西门)","lon":"121.40282","lat":"31.222","category":"52","category_name":"高等院校","address":"枣阳路896"},{"poiid":"B2094753D265A6F9469C","title":"HBC华谊兄弟上海影院","lon":"121.40096","lat":"31.22136","category":"178","category_name":"电影院","address":"大渡河路196号长风景畔广场5层"},{"poiid":"B2094654DB6BA7FF4293","title":"长风公园(南门)","lon":"121.39805","lat":"31.22175","category":"680","category_name":"楼宇机构","address":"大渡河路189"},{"poiid":"B2094757D06BABF94892","title":"华师大设计学院","lon":"121.40263158","lat":"31.221334257","category":"253","category_name":"校园生活","address":"上海华东师范大学"},{"poiid":"B2094654D56BA4F5459F","title":"风华水岸","lon":"121.4016","lat":"31.222267","category":"47","category_name":"住宅区","address":"上海枣阳路891弄"},{"poiid":"B2094757D06FA7FD4898","title":"华师大文史楼","lon":"121.403717983","lat":"31.2205415171","category":"253","category_name":"校园生活","address":"上海中山北路3663"},{"poiid":"B2094757D068A2FA4899","title":"红腊餐饮","lon":"121.40179543697","lat":"31.228735765565","category":"76","category_name":"上海菜","address":"普陀区枣阳路477号(近华师大后门)"},{"poiid":"B2094757D66BA3F44999","title":"苏河湾","lon":"121.406163","lat":"31.2205512","category":"94","category_name":"西餐厅","address":"长宁区万航渡路2452号DOHO创意园区3楼屋顶花园(近娄山关路)"},{"poiid":"B2094757D16EA4F94992","title":"华东师范大学物理楼","lon":"121.405059186","lat":"31.2258269449","category":"253","category_name":"校园生活","address":"上海闵行区中山北路3663号华东师范大学中山北路校区"},{"poiid":"B2094750D76EA4F4429B","title":"味千拉面(长风景畔店)","lon":"121.397","lat":"31.2214","category":"95","category_name":"日本料理","address":"普陀区大渡河路196号长风公园景畔广场内(近云岭东路)"},{"poiid":"B2094655D26EA5F5479D","title":"大洋海底世界","lon":"121.39955","lat":"31.22399","category":"199","category_name":"水族馆","address":"大渡河路451号长风公园4号门内"},{"poiid":"B2094757D165AAF84493","title":"宁悦人家","lon":"121.404210586","lat":"31.2179331905","category":"76","category_name":"上海菜","address":"长宁区长宁路1796号(近娄山关路)"},{"poiid":"B2094753D664A4FC409E","title":"3D奇幻印象体验馆","lon":"121.401306","lat":"31.223215","category":"500","category_name":"未知分类","address":"上海市 普陀区大渡河路452号国盛时尚中心2楼"},{"poiid":"B2094655D26DA7FC4892","title":"风华水岸(东门)","lon":"121.40251","lat":"31.22219","category":"47","category_name":"住宅区","address":"枣阳路891弄"},{"poiid":"B2094654D56BA4F9469C","title":"华东师范大学留学生公寓","lon":"121.40398","lat":"31.22225","category":"47","category_name":"住宅区","address":"枣阳路896"},{"poiid":"B2094750D768A3F44192","title":"贡茶(长风景畔广场店)","lon":"121.398","lat":"31.2214","category":"113","category_name":"冷饮店","address":"普陀区大渡河路178号长风景畔广场1楼(云岭东路口)"},{"poiid":"B2094757DA6EAAF5489B","title":"长风公园银锄湖","lon":"121.399676799772","lat":"31.2252247036028","category":"250","category_name":"公园户外","address":"普陀区枣阳路80号长风公园内"},{"poiid":"B2094750D26EABFD4193","title":"萨莉亚 长风景畔广场店","lon":"121.3966696","lat":"31.2215473","category":"94","category_name":"西餐厅","address":"普陀区大渡河路178号长风景畔广场4楼(近长风公园4号门)"},{"poiid":"B2094757D16BA0FA479E","title":"蓝蛙","lon":"121.403091586","lat":"31.2226672831","category":"500","category_name":"未知分类","address":"上海辛耕路135号永新坊B1楼"},{"poiid":"B2094654D56BA1FF4099","title":"虹桥电子广场","lon":"121.403","lat":"31.2206","category":"46","category_name":"楼宇","address":"长宁区天山支路160,168号"},{"poiid":"B2094654DB6BA7FF439B","title":"长风公园","lon":"121.39952","lat":"31.22399","category":"196","category_name":"公园","address":"普陀区枣阳路510号(近华师大后门)"},{"poiid":"B2094757D06FA7F9469E","title":"长风海洋世界极地白鲸表演馆","lon":"121.39928374","lat":"31.223985756","category":"196","category_name":"公园","address":"上海普陀区枣阳路525号长风公园内"},{"poiid":"B2094757D06FA3FB419D","title":"新发展亚太万豪酒店","lon":"121.39679","lat":"31.2213","category":"260","category_name":"其他","address":"普陀区大渡河路158号新发展亚太万豪酒店(近光复西路)"},{"poiid":"B2094757D068A5FE4693","title":"Parkside Plaza 长风景畔广场","lon":"121.396404886","lat":"31.2230774911","category":"500","category_name":"未知分类","address":"上海大渡河路196号(近云岭东路)"},{"poiid":"B2094654DB6BA7FF439A","title":"上海长风海洋世界","lon":"121.39955","lat":"31.22399","category":"196","category_name":"公园","address":"大渡河路451"},{"poiid":"B2094757D469A0FF419C","title":"星巴克(长风景畔广场店)","lon":"121.3966869","lat":"31.2215055","category":"260","category_name":"其他","address":"普陀区大渡河路178号长风景畔广场1楼01室(近长风公园4号门)"},{"poiid":"B2094757D06FA7FD409E","title":"迪士卡卡丁车赛车馆(Disckart Indoor Karting)","lon":"121.40163","lat":"31.22478","category":"220","category_name":"运动场所","address":"普陀区枣阳路809号长风公园附近(近华师大后门)"},{"poiid":"B2094655D26DA3F54093","title":"长风公园(四号门)","lon":"121.3966","lat":"31.22461","category":"680","category_name":"楼宇机构","address":"大渡河路451"},{"poiid":"B2094757D06FA5FC499E","title":"上海游艇会","lon":"121.396690071","lat":"31.2204165715","category":"76","category_name":"上海菜","address":"普陀区大渡河路160号(近光复西路)查看地图"},{"poiid":"B2094757D06FA2FC489A","title":"思创大厦","lon":"121.403","lat":"31.2197","category":"46","category_name":"楼宇","address":"上海市长宁区天山路600弄3-4号楼"},{"poiid":"B2094750D76FAAFF499E","title":"PANKOO釜山料理(长风景畔店)","lon":"121.39529","lat":"31.22331","category":"96","category_name":"韩国料理","address":"普陀区大渡河路178号长风景畔广场4楼28-29室(近长风公园4号门)"},{"poiid":"B2094750D26EA7F84493","title":"大户屋日本料理","lon":"121.39641523361","lat":"31.221279536744","category":"95","category_name":"日本料理","address":"普陀区大渡河路178号长风景畔广场4楼402号铺(近云岭东路)"},{"poiid":"B2094757D06FA5F4469A","title":"华东师范大学理科大楼","lon":"121.40352825","lat":"31.227578924","category":"253","category_name":"校园生活","address":"上海普陀区中山北路3663号华东师范大学中山北路校区"},{"poiid":"B2094757D068AAFF409F","title":"周家桥创意园","lon":"121.40578658","lat":"31.220065232","category":"46","category_name":"楼宇","address":"长宁区万航渡路2453号(华阳路万航渡路)"},{"poiid":"B2094757D06FABF5439D","title":"春天花园","lon":"121.4038","lat":"31.217037","category":"47","category_name":"住宅区","address":"长宁区娄山关路999弄(近长宁路)"},{"poiid":"B2094757D069A0FA409D","title":"虹桥河滨公园","lon":"121.40090251","lat":"31.219385867","category":"196","category_name":"公园","address":"长宁区长宁路2080号(锦屏路口)"},{"poiid":"B2094757D06AA3F5479E","title":"华师大 对外汉语学院","lon":"121.403979","lat":"31.222253","category":"253","category_name":"校园生活","address":"上海枣阳路896"},{"poiid":"B2094654D56BA4F4469F","title":"上海花城","lon":"121.40445","lat":"31.21896","category":"47","category_name":"住宅区","address":"普陀区澳门路519号华生大厦2号楼2202室(近普陀路)查看地图"},{"poiid":"B2094757DB68AAFE4592","title":"021上海菜主题餐厅 长风公园店","lon":"121.3966869","lat":"31.2215055","category":"76","category_name":"上海菜","address":"普陀区大渡河路168号长风景畔广场4楼(近云岭东路)"},{"poiid":"B2094750D26FA0F8419F","title":"湘乐汇 长风景畔广场店","lon":"121.39639377594","lat":"31.221573136228","category":"77","category_name":"湖南菜","address":"普陀区大渡河路196号长风景畔广场4楼(近云岭东路)"},{"poiid":"B2094757D16DA1F5469F","title":"虹桥河滨花园","lon":"121.40254","lat":"31.219532","category":"47","category_name":"住宅区","address":"上海市长宁区长宁路1898弄"},{"poiid":"B2094757D068A3FC429A","title":"同达创业大厦","lon":"121.403","lat":"31.2189","category":"46","category_name":"楼宇","address":"朝阳华威桥东北角"},{"poiid":"B2094757D06FA7FB4098","title":"虹桥万博花园","lon":"121.40051","lat":"31.216806","category":"47","category_name":"住宅区","address":"上海古北路69弄(近长宁路)"},{"poiid":"B2094757D068A4F5469A","title":"乐购大渡河路店","lon":"121.398223586","lat":"31.2222962758","category":"118","category_name":"超级市场","address":"普陀区大渡河路178号景畔广场B1楼01A"},{"poiid":"B2094750D26CA0F4499A","title":"吉亨面馆(长风景畔广场店)","lon":"121.3965534563223","lat":"31.221600926323504","category":"68","category_name":"快餐厅","address":"普陀区大渡河路196号长风景畔广场2楼(长风公园4号门对面)"},{"poiid":"B2094757DA68A1F9429E","title":"吞云小莳 长风景畔广场店","lon":"121.3966696","lat":"31.2215473","category":"91","category_name":"台湾菜","address":"普陀区大渡河路178号长风景畔广场1楼L1-19(近长风公园)"},{"poiid":"B2094757D06FA4F84592","title":"北岸长风","lon":"121.39634","lat":"31.221179","category":"46","category_name":"楼宇","address":"大渡河路168弄6号1楼(光复西路口)"},{"poiid":"B2094655D26DA2FC429E","title":"DOHO","lon":"121.40579871717932","lat":"31.220632293765263","category":"45","category_name":"产业园区","address":"上海市长宁区万航渡路2452号"},{"poiid":"B2094757D06FAAF44298","title":"艺林盲人按摩院(长宁店)","lon":"121.40361","lat":"31.21796","category":"149","category_name":"洗浴推拿场所","address":"长宁区长宁路1842号"},{"poiid":"B2094757D069A6F4469D","title":"全家便利(虹桥机场店)","lon":"121.405636","lat":"31.218717","category":"117","category_name":"便民商店/便利店","address":"上海长宁区虹桥机场2号航站楼内"},{"poiid":"B2094655D26FA6F84998","title":"华东师范大学对外汉语学院(西门)","lon":"121.40282","lat":"31.222","category":"52","category_name":"高等院校","address":"枣阳路896"},{"poiid":"B2094753D265A6F9469C","title":"HBC华谊兄弟上海影院","lon":"121.40096","lat":"31.22136","category":"178","category_name":"电影院","address":"大渡河路196号长风景畔广场5层"},{"poiid":"B2094654DB6BA7FF4293","title":"长风公园(南门)","lon":"121.39805","lat":"31.22175","category":"680","category_name":"楼宇机构","address":"大渡河路189"},{"poiid":"B2094757D06BABF94892","title":"华师大设计学院","lon":"121.40263158","lat":"31.221334257","category":"253","category_name":"校园生活","address":"上海华东师范大学"},{"poiid":"B2094654D56BA4F5459F","title":"风华水岸","lon":"121.4016","lat":"31.222267","category":"47","category_name":"住宅区","address":"上海枣阳路891弄"},{"poiid":"B2094757D06FA7FD4898","title":"华师大文史楼","lon":"121.403717983","lat":"31.2205415171","category":"253","category_name":"校园生活","address":"上海中山北路3663"},{"poiid":"B2094757D068A2FA4899","title":"红腊餐饮","lon":"121.40179543697","lat":"31.228735765565","category":"76","category_name":"上海菜","address":"普陀区枣阳路477号(近华师大后门)"},{"poiid":"B2094757D66BA3F44999","title":"苏河湾","lon":"121.406163","lat":"31.2205512","category":"94","category_name":"西餐厅","address":"长宁区万航渡路2452号DOHO创意园区3楼屋顶花园(近娄山关路)"},{"poiid":"B2094757D16EA4F94992","title":"华东师范大学物理楼","lon":"121.405059186","lat":"31.2258269449","category":"253","category_name":"校园生活","address":"上海闵行区中山北路3663号华东师范大学中山北路校区"},{"poiid":"B2094750D76EA4F4429B","title":"味千拉面(长风景畔店)","lon":"121.397","lat":"31.2214","category":"95","category_name":"日本料理","address":"普陀区大渡河路196号长风公园景畔广场内(近云岭东路)"},{"poiid":"B2094655D26EA5F5479D","title":"大洋海底世界","lon":"121.39955","lat":"31.22399","category":"199","category_name":"水族馆","address":"大渡河路451号长风公园4号门内"},{"poiid":"B2094757D165AAF84493","title":"宁悦人家","lon":"121.404210586","lat":"31.2179331905","category":"76","category_name":"上海菜","address":"长宁区长宁路1796号(近娄山关路)"},{"poiid":"B2094753D664A4FC409E","title":"3D奇幻印象体验馆","lon":"121.401306","lat":"31.223215","category":"500","category_name":"未知分类","address":"上海市 普陀区大渡河路452号国盛时尚中心2楼"},{"poiid":"B2094655D26DA7FC4892","title":"风华水岸(东门)","lon":"121.40251","lat":"31.22219","category":"47","category_name":"住宅区","address":"枣阳路891弄"},{"poiid":"B2094654D56BA4F9469C","title":"华东师范大学留学生公寓","lon":"121.40398","lat":"31.22225","category":"47","category_name":"住宅区","address":"枣阳路896"},{"poiid":"B2094750D768A3F44192","title":"贡茶(长风景畔广场店)","lon":"121.398","lat":"31.2214","category":"113","category_name":"冷饮店","address":"普陀区大渡河路178号长风景畔广场1楼(云岭东路口)"},{"poiid":"B2094757DA6EAAF5489B","title":"长风公园银锄湖","lon":"121.399676799772","lat":"31.2252247036028","category":"250","category_name":"公园户外","address":"普陀区枣阳路80号长风公园内"},{"poiid":"B2094750D26EABFD4193","title":"萨莉亚 长风景畔广场店","lon":"121.3966696","lat":"31.2215473","category":"94","category_name":"西餐厅","address":"普陀区大渡河路178号长风景畔广场4楼(近长风公园4号门)"},{"poiid":"B2094757D16BA0FA479E","title":"蓝蛙","lon":"121.403091586","lat":"31.2226672831","category":"500","category_name":"未知分类","address":"上海辛耕路135号永新坊B1楼"},{"poiid":"B2094654D56BA1FF4099","title":"虹桥电子广场","lon":"121.403","lat":"31.2206","category":"46","category_name":"楼宇","address":"长宁区天山支路160,168号"},{"poiid":"B2094654DB6BA7FF439B","title":"长风公园","lon":"121.39952","lat":"31.22399","category":"196","category_name":"公园","address":"普陀区枣阳路510号(近华师大后门)"},{"poiid":"B2094757D06FA7F9469E","title":"长风海洋世界极地白鲸表演馆","lon":"121.39928374","lat":"31.223985756","category":"196","category_name":"公园","address":"上海普陀区枣阳路525号长风公园内"},{"poiid":"B2094757D06FA3FB419D","title":"新发展亚太万豪酒店","lon":"121.39679","lat":"31.2213","category":"260","category_name":"其他","address":"普陀区大渡河路158号新发展亚太万豪酒店(近光复西路)"},{"poiid":"B2094757D068A5FE4693","title":"Parkside Plaza 长风景畔广场","lon":"121.396404886","lat":"31.2230774911","category":"500","category_name":"未知分类","address":"上海大渡河路196号(近云岭东路)"},{"poiid":"B2094654DB6BA7FF439A","title":"上海长风海洋世界","lon":"121.39955","lat":"31.22399","category":"196","category_name":"公园","address":"大渡河路451"},{"poiid":"B2094757D469A0FF419C","title":"星巴克(长风景畔广场店)","lon":"121.3966869","lat":"31.2215055","category":"260","category_name":"其他","address":"普陀区大渡河路178号长风景畔广场1楼01室(近长风公园4号门)"},{"poiid":"B2094757D06FA7FD409E","title":"迪士卡卡丁车赛车馆(Disckart Indoor Karting)","lon":"121.40163","lat":"31.22478","category":"220","category_name":"运动场所","address":"普陀区枣阳路809号长风公园附近(近华师大后门)"},{"poiid":"B2094655D26DA3F54093","title":"长风公园(四号门)","lon":"121.3966","lat":"31.22461","category":"680","category_name":"楼宇机构","address":"大渡河路451"},{"poiid":"B2094757D06FA5FC499E","title":"上海游艇会","lon":"121.396690071","lat":"31.2204165715","category":"76","category_name":"上海菜","address":"普陀区大渡河路160号(近光复西路)查看地图"},{"poiid":"B2094757D06FA2FC489A","title":"思创大厦","lon":"121.403","lat":"31.2197","category":"46","category_name":"楼宇","address":"上海市长宁区天山路600弄3-4号楼"},{"poiid":"B2094750D76FAAFF499E","title":"PANKOO釜山料理(长风景畔店)","lon":"121.39529","lat":"31.22331","category":"96","category_name":"韩国料理","address":"普陀区大渡河路178号长风景畔广场4楼28-29室(近长风公园4号门)"},{"poiid":"B2094750D26EA7F84493","title":"大户屋日本料理","lon":"121.39641523361","lat":"31.221279536744","category":"95","category_name":"日本料理","address":"普陀区大渡河路178号长风景畔广场4楼402号铺(近云岭东路)"},{"poiid":"B2094757D06FA5F4469A","title":"华东师范大学理科大楼","lon":"121.40352825","lat":"31.227578924","category":"253","category_name":"校园生活","address":"上海普陀区中山北路3663号华东师范大学中山北路校区"},{"poiid":"B2094757D068AAFF409F","title":"周家桥创意园","lon":"121.40578658","lat":"31.220065232","category":"46","category_name":"楼宇","address":"长宁区万航渡路2453号(华阳路万航渡路)"},{"poiid":"B2094757D06FABF5439D","title":"春天花园","lon":"121.4038","lat":"31.217037","category":"47","category_name":"住宅区","address":"长宁区娄山关路999弄(近长宁路)"},{"poiid":"B2094757D069A0FA409D","title":"虹桥河滨公园","lon":"121.40090251","lat":"31.219385867","category":"196","category_name":"公园","address":"长宁区长宁路2080号(锦屏路口)"},{"poiid":"B2094757D06AA3F5479E","title":"华师大 对外汉语学院","lon":"121.403979","lat":"31.222253","category":"253","category_name":"校园生活","address":"上海枣阳路896"},{"poiid":"B2094654D56BA4F4469F","title":"上海花城","lon":"121.40445","lat":"31.21896","category":"47","category_name":"住宅区","address":"普陀区澳门路519号华生大厦2号楼2202室(近普陀路)查看地图"},{"poiid":"B2094757DB68AAFE4592","title":"021上海菜主题餐厅 长风公园店","lon":"121.3966869","lat":"31.2215055","category":"76","category_name":"上海菜","address":"普陀区大渡河路168号长风景畔广场4楼(近云岭东路)"},{"poiid":"B2094750D26FA0F8419F","title":"湘乐汇 长风景畔广场店","lon":"121.39639377594","lat":"31.221573136228","category":"77","category_name":"湖南菜","address":"普陀区大渡河路196号长风景畔广场4楼(近云岭东路)"},{"poiid":"B2094757D16DA1F5469F","title":"虹桥河滨花园","lon":"121.40254","lat":"31.219532","category":"47","category_name":"住宅区","address":"上海市长宁区长宁路1898弄"},{"poiid":"B2094757D068A3FC429A","title":"同达创业大厦","lon":"121.403","lat":"31.2189","category":"46","category_name":"楼宇","address":"朝阳华威桥东北角"},{"poiid":"B2094757D06FA7FB4098","title":"虹桥万博花园","lon":"121.40051","lat":"31.216806","category":"47","category_name":"住宅区","address":"上海古北路69弄(近长宁路)"},{"poiid":"B2094757D068A4F5469A","title":"乐购大渡河路店","lon":"121.398223586","lat":"31.2222962758","category":"118","category_name":"超级市场","address":"普陀区大渡河路178号景畔广场B1楼01A"},{"poiid":"B2094750D26CA0F4499A","title":"吉亨面馆(长风景畔广场店)","lon":"121.3965534563223","lat":"31.221600926323504","category":"68","category_name":"快餐厅","address":"普陀区大渡河路196号长风景畔广场2楼(长风公园4号门对面)"},{"poiid":"B2094757DA68A1F9429E","title":"吞云小莳 长风景畔广场店","lon":"121.3966696","lat":"31.2215473","category":"91","category_name":"台湾菜","address":"普陀区大渡河路178号长风景畔广场1楼L1-19(近长风公园)"},{"poiid":"B2094757D06FA4F84592","title":"北岸长风","lon":"121.39634","lat":"31.221179","category":"46","category_name":"楼宇","address":"大渡河路168弄6号1楼(光复西路口)"},{"poiid":"B2094655D26DA2FC429E","title":"DOHO","lon":"121.40579871717932","lat":"31.220632293765263","category":"45","category_name":"产业园区","address":"上海市长宁区万航渡路2452号"},{"poiid":"B2094757D06FAAF44298","title":"艺林盲人按摩院(长宁店)","lon":"121.40361","lat":"31.21796","category":"149","category_name":"洗浴推拿场所","address":"长宁区长宁路1842号"},{"poiid":"B2094757D069A6F4469D","title":"全家便利(虹桥机场店)","lon":"121.405636","lat":"31.218717","category":"117","category_name":"便民商店/便利店","address":"上海长宁区虹桥机场2号航站楼内"},{"poiid":"B2094655D26FA6F84998","title":"华东师范大学对外汉语学院(西门)","lon":"121.40282","lat":"31.222","category":"52","category_name":"高等院校","address":"枣阳路896"},{"poiid":"B2094753D265A6F9469C","title":"HBC华谊兄弟上海影院","lon":"121.40096","lat":"31.22136","category":"178","category_name":"电影院","address":"大渡河路196号长风景畔广场5层"},{"poiid":"B2094654DB6BA7FF4293","title":"长风公园(南门)","lon":"121.39805","lat":"31.22175","category":"680","category_name":"楼宇机构","address":"大渡河路189"},{"poiid":"B2094757D06BABF94892","title":"华师大设计学院","lon":"121.40263158","lat":"31.221334257","category":"253","category_name":"校园生活","address":"上海华东师范大学"},{"poiid":"B2094654D56BA4F5459F","title":"风华水岸","lon":"121.4016","lat":"31.222267","category":"47","category_name":"住宅区","address":"上海枣阳路891弄"},{"poiid":"B2094757D06FA7FD4898","title":"华师大文史楼","lon":"121.403717983","lat":"31.2205415171","category":"253","category_name":"校园生活","address":"上海中山北路3663"},{"poiid":"B2094757D068A2FA4899","title":"红腊餐饮","lon":"121.40179543697","lat":"31.228735765565","category":"76","category_name":"上海菜","address":"普陀区枣阳路477号(近华师大后门)"},{"poiid":"B2094757D66BA3F44999","title":"苏河湾","lon":"121.406163","lat":"31.2205512","category":"94","category_name":"西餐厅","address":"长宁区万航渡路2452号DOHO创意园区3楼屋顶花园(近娄山关路)"},{"poiid":"B2094757D16EA4F94992","title":"华东师范大学物理楼","lon":"121.405059186","lat":"31.2258269449","category":"253","category_name":"校园生活","address":"上海闵行区中山北路3663号华东师范大学中山北路校区"},{"poiid":"B2094750D76EA4F4429B","title":"味千拉面(长风景畔店)","lon":"121.397","lat":"31.2214","category":"95","category_name":"日本料理","address":"普陀区大渡河路196号长风公园景畔广场内(近云岭东路)"},{"poiid":"B2094655D26EA5F5479D","title":"大洋海底世界","lon":"121.39955","lat":"31.22399","category":"199","category_name":"水族馆","address":"大渡河路451号长风公园4号门内"},{"poiid":"B2094757D165AAF84493","title":"宁悦人家","lon":"121.404210586","lat":"31.2179331905","category":"76","category_name":"上海菜","address":"长宁区长宁路1796号(近娄山关路)"},{"poiid":"B2094753D664A4FC409E","title":"3D奇幻印象体验馆","lon":"121.401306","lat":"31.223215","category":"500","category_name":"未知分类","address":"上海市 普陀区大渡河路452号国盛时尚中心2楼"},{"poiid":"B2094655D26DA7FC4892","title":"风华水岸(东门)","lon":"121.40251","lat":"31.22219","category":"47","category_name":"住宅区","address":"枣阳路891弄"},{"poiid":"B2094654D56BA4F9469C","title":"华东师范大学留学生公寓","lon":"121.40398","lat":"31.22225","category":"47","category_name":"住宅区","address":"枣阳路896"},{"poiid":"B2094750D768A3F44192","title":"贡茶(长风景畔广场店)","lon":"121.398","lat":"31.2214","category":"113","category_name":"冷饮店","address":"普陀区大渡河路178号长风景畔广场1楼(云岭东路口)"},{"poiid":"B2094757DA6EAAF5489B","title":"长风公园银锄湖","lon":"121.399676799772","lat":"31.2252247036028","category":"250","category_name":"公园户外","address":"普陀区枣阳路80号长风公园内"},{"poiid":"B2094750D26EABFD4193","title":"萨莉亚 长风景畔广场店","lon":"121.3966696","lat":"31.2215473","category":"94","category_name":"西餐厅","address":"普陀区大渡河路178号长风景畔广场4楼(近长风公园4号门)"},{"poiid":"B2094757D16BA0FA479E","title":"蓝蛙","lon":"121.403091586","lat":"31.2226672831","category":"500","category_name":"未知分类","address":"上海辛耕路135号永新坊B1楼"},{"poiid":"B2094654D56BA1FF4099","title":"虹桥电子广场","lon":"121.403","lat":"31.2206","category":"46","category_name":"楼宇","address":"长宁区天山支路160,168号"},{"poiid":"B2094654DB6BA7FF439B","title":"长风公园","lon":"121.39952","lat":"31.22399","category":"196","category_name":"公园","address":"普陀区枣阳路510号(近华师大后门)"},{"poiid":"B2094757D06FA7F9469E","title":"长风海洋世界极地白鲸表演馆","lon":"121.39928374","lat":"31.223985756","category":"196","category_name":"公园","address":"上海普陀区枣阳路525号长风公园内"},{"poiid":"B2094757D06FA3FB419D","title":"新发展亚太万豪酒店","lon":"121.39679","lat":"31.2213","category":"260","category_name":"其他","address":"普陀区大渡河路158号新发展亚太万豪酒店(近光复西路)"},{"poiid":"B2094757D068A5FE4693","title":"Parkside Plaza 长风景畔广场","lon":"121.396404886","lat":"31.2230774911","category":"500","category_name":"未知分类","address":"上海大渡河路196号(近云岭东路)"},{"poiid":"B2094654DB6BA7FF439A","title":"上海长风海洋世界","lon":"121.39955","lat":"31.22399","category":"196","category_name":"公园","address":"大渡河路451"},{"poiid":"B2094757D469A0FF419C","title":"星巴克(长风景畔广场店)","lon":"121.3966869","lat":"31.2215055","category":"260","category_name":"其他","address":"普陀区大渡河路178号长风景畔广场1楼01室(近长风公园4号门)"},{"poiid":"B2094757D06FA7FD409E","title":"迪士卡卡丁车赛车馆(Disckart Indoor Karting)","lon":"121.40163","lat":"31.22478","category":"220","category_name":"运动场所","address":"普陀区枣阳路809号长风公园附近(近华师大后门)"},{"poiid":"B2094655D26DA3F54093","title":"长风公园(四号门)","lon":"121.3966","lat":"31.22461","category":"680","category_name":"楼宇机构","address":"大渡河路451"},{"poiid":"B2094757D06FA5FC499E","title":"上海游艇会","lon":"121.396690071","lat":"31.2204165715","category":"76","category_name":"上海菜","address":"普陀区大渡河路160号(近光复西路)查看地图"},{"poiid":"B2094757D06FA2FC489A","title":"思创大厦","lon":"121.403","lat":"31.2197","category":"46","category_name":"楼宇","address":"上海市长宁区天山路600弄3-4号楼"},{"poiid":"B2094750D76FAAFF499E","title":"PANKOO釜山料理(长风景畔店)","lon":"121.39529","lat":"31.22331","category":"96","category_name":"韩国料理","address":"普陀区大渡河路178号长风景畔广场4楼28-29室(近长风公园4号门)"},{"poiid":"B2094750D26EA7F84493","title":"大户屋日本料理","lon":"121.39641523361","lat":"31.221279536744","category":"95","category_name":"日本料理","address":"普陀区大渡河路178号长风景畔广场4楼402号铺(近云岭东路)"},{"poiid":"B2094757D06FA5F4469A","title":"华东师范大学理科大楼","lon":"121.40352825","lat":"31.227578924","category":"253","category_name":"校园生活","address":"上海普陀区中山北路3663号华东师范大学中山北路校区"},{"poiid":"B2094757D068AAFF409F","title":"周家桥创意园","lon":"121.40578658","lat":"31.220065232","category":"46","category_name":"楼宇","address":"长宁区万航渡路2453号(华阳路万航渡路)"},{"poiid":"B2094757D06FABF5439D","title":"春天花园","lon":"121.4038","lat":"31.217037","category":"47","category_name":"住宅区","address":"长宁区娄山关路999弄(近长宁路)"},{"poiid":"B2094757D069A0FA409D","title":"虹桥河滨公园","lon":"121.40090251","lat":"31.219385867","category":"196","category_name":"公园","address":"长宁区长宁路2080号(锦屏路口)"},{"poiid":"B2094757D06AA3F5479E","title":"华师大 对外汉语学院","lon":"121.403979","lat":"31.222253","category":"253","category_name":"校园生活","address":"上海枣阳路896"},{"poiid":"B2094654D56BA4F4469F","title":"上海花城","lon":"121.40445","lat":"31.21896","category":"47","category_name":"住宅区","address":"普陀区澳门路519号华生大厦2号楼2202室(近普陀路)查看地图"},{"poiid":"B2094757DB68AAFE4592","title":"021上海菜主题餐厅 长风公园店","lon":"121.3966869","lat":"31.2215055","category":"76","category_name":"上海菜","address":"普陀区大渡河路168号长风景畔广场4楼(近云岭东路)"},{"poiid":"B2094750D26FA0F8419F","title":"湘乐汇 长风景畔广场店","lon":"121.39639377594","lat":"31.221573136228","category":"77","category_name":"湖南菜","address":"普陀区大渡河路196号长风景畔广场4楼(近云岭东路)"},{"poiid":"B2094757D16DA1F5469F","title":"虹桥河滨花园","lon":"121.40254","lat":"31.219532","category":"47","category_name":"住宅区","address":"上海市长宁区长宁路1898弄"},{"poiid":"B2094757D068A3FC429A","title":"同达创业大厦","lon":"121.403","lat":"31.2189","category":"46","category_name":"楼宇","address":"朝阳华威桥东北角"},{"poiid":"B2094757D06FA7FB4098","title":"虹桥万博花园","lon":"121.40051","lat":"31.216806","category":"47","category_name":"住宅区","address":"上海古北路69弄(近长宁路)"},{"poiid":"B2094757D068A4F5469A","title":"乐购大渡河路店","lon":"121.398223586","lat":"31.2222962758","category":"118","category_name":"超级市场","address":"普陀区大渡河路178号景畔广场B1楼01A"},{"poiid":"B2094750D26CA0F4499A","title":"吉亨面馆(长风景畔广场店)","lon":"121.3965534563223","lat":"31.221600926323504","category":"68","category_name":"快餐厅","address":"普陀区大渡河路196号长风景畔广场2楼(长风公园4号门对面)"},{"poiid":"B2094757DA68A1F9429E","title":"吞云小莳 长风景畔广场店","lon":"121.3966696","lat":"31.2215473","category":"91","category_name":"台湾菜","address":"普陀区大渡河路178号长风景畔广场1楼L1-19(近长风公园)"},{"poiid":"B2094757D06FA4F84592","title":"北岸长风","lon":"121.39634","lat":"31.221179","category":"46","category_name":"楼宇","address":"大渡河路168弄6号1楼(光复西路口)"},{"poiid":"B2094655D26DA2FC429E","title":"DOHO","lon":"121.40579871717932","lat":"31.220632293765263","category":"45","category_name":"产业园区","address":"上海市长宁区万航渡路2452号"},{"poiid":"B2094757D06FAAF44298","title":"艺林盲人按摩院(长宁店)","lon":"121.40361","lat":"31.21796","category":"149","category_name":"洗浴推拿场所","address":"长宁区长宁路1842号"},{"poiid":"B2094757D069A6F4469D","title":"全家便利(虹桥机场店)","lon":"121.405636","lat":"31.218717","category":"117","category_name":"便民商店/便利店","address":"上海长宁区虹桥机场2号航站楼内"},{"poiid":"B2094655D26FA6F84998","title":"华东师范大学对外汉语学院(西门)","lon":"121.40282","lat":"31.222","category":"52","category_name":"高等院校","address":"枣阳路896"},{"poiid":"B2094753D265A6F9469C","title":"HBC华谊兄弟上海影院","lon":"121.40096","lat":"31.22136","category":"178","category_name":"电影院","address":"大渡河路196号长风景畔广场5层"},{"poiid":"B2094654DB6BA7FF4293","title":"长风公园(南门)","lon":"121.39805","lat":"31.22175","category":"680","category_name":"楼宇机构","address":"大渡河路189"},{"poiid":"B2094757D06BABF94892","title":"华师大设计学院","lon":"121.40263158","lat":"31.221334257","category":"253","category_name":"校园生活","address":"上海华东师范大学"},{"poiid":"B2094654D56BA4F5459F","title":"风华水岸","lon":"121.4016","lat":"31.222267","category":"47","category_name":"住宅区","address":"上海枣阳路891弄"},{"poiid":"B2094757D06FA7FD4898","title":"华师大文史楼","lon":"121.403717983","lat":"31.2205415171","category":"253","category_name":"校园生活","address":"上海中山北路3663"},{"poiid":"B2094757D068A2FA4899","title":"红腊餐饮","lon":"121.40179543697","lat":"31.228735765565","category":"76","category_name":"上海菜","address":"普陀区枣阳路477号(近华师大后门)"},{"poiid":"B2094757D66BA3F44999","title":"苏河湾","lon":"121.406163","lat":"31.2205512","category":"94","category_name":"西餐厅","address":"长宁区万航渡路2452号DOHO创意园区3楼屋顶花园(近娄山关路)"},{"poiid":"B2094757D16EA4F94992","title":"华东师范大学物理楼","lon":"121.405059186","lat":"31.2258269449","category":"253","category_name":"校园生活","address":"上海闵行区中山北路3663号华东师范大学中山北路校区"},{"poiid":"B2094750D76EA4F4429B","title":"味千拉面(长风景畔店)","lon":"121.397","lat":"31.2214","category":"95","category_name":"日本料理","address":"普陀区大渡河路196号长风公园景畔广场内(近云岭东路)"},{"poiid":"B2094655D26EA5F5479D","title":"大洋海底世界","lon":"121.39955","lat":"31.22399","category":"199","category_name":"水族馆","address":"大渡河路451号长风公园4号门内"},{"poiid":"B2094757D165AAF84493","title":"宁悦人家","lon":"121.404210586","lat":"31.2179331905","category":"76","category_name":"上海菜","address":"长宁区长宁路1796号(近娄山关路)"},{"poiid":"B2094753D664A4FC409E","title":"3D奇幻印象体验馆","lon":"121.401306","lat":"31.223215","category":"500","category_name":"未知分类","address":"上海市 普陀区大渡河路452号国盛时尚中心2楼"},{"poiid":"B2094655D26DA7FC4892","title":"风华水岸(东门)","lon":"121.40251","lat":"31.22219","category":"47","category_name":"住宅区","address":"枣阳路891弄"},{"poiid":"B2094654D56BA4F9469C","title":"华东师范大学留学生公寓","lon":"121.40398","lat":"31.22225","category":"47","category_name":"住宅区","address":"枣阳路896"},{"poiid":"B2094750D768A3F44192","title":"贡茶(长风景畔广场店)","lon":"121.398","lat":"31.2214","category":"113","category_name":"冷饮店","address":"普陀区大渡河路178号长风景畔广场1楼(云岭东路口)"},{"poiid":"B2094757DA6EAAF5489B","title":"长风公园银锄湖","lon":"121.399676799772","lat":"31.2252247036028","category":"250","category_name":"公园户外","address":"普陀区枣阳路80号长风公园内"},{"poiid":"B2094750D26EABFD4193","title":"萨莉亚 长风景畔广场店","lon":"121.3966696","lat":"31.2215473","category":"94","category_name":"西餐厅","address":"普陀区大渡河路178号长风景畔广场4楼(近长风公园4号门)"},{"poiid":"B2094757D16BA0FA479E","title":"蓝蛙","lon":"121.403091586","lat":"31.2226672831","category":"500","category_name":"未知分类","address":"上海辛耕路135号永新坊B1楼"},{"poiid":"B2094654D56BA1FF4099","title":"虹桥电子广场","lon":"121.403","lat":"31.2206","category":"46","category_name":"楼宇","address":"长宁区天山支路160,168号"}]