[{"poiid":"B2094654DB6BA4FD4592","title":"上海音乐学院","lon":"121.45487","lat":"31.21309","category":"671","category_name":"高校中心点","address":"徐汇区汾阳路20号(近复兴中路)"},{"poiid":"B2094654DB65A5F8479D","title":"贺绿汀音乐厅","lon":"121.45461","lat":"31.21331","category":"179","category_name":"音乐厅","address":"徐汇区汾阳路20号上海音乐学院内(近淮海中路)"},{"poiid":"B2094654DA6EA2FA459D","title":"博多新记 复兴店","lon":"121.4576526721","lat":"31.21277515026","category":"72","category_name":"广东菜","address":"徐汇区复兴中路1252弄15号2楼(近襄阳南路)"},{"poiid":"B2094753D76FAAFA449C","title":"上海滩国泰旗舰店","lon":"121.466011","lat":"31.216125","category":"249","category_name":"购物服务","address":"淮海中路868号"},{"poiid":"B209475CD564A7F84292","title":"上海滩新天地店","lon":"121.47463","lat":"31.22164","category":"119","category_name":"商场","address":"\"太仓路181弄新天地北里15号\r\n\""},{"poiid":"B209475CD564A7F8439E","title":"上海滩中信泰富店","lon":"121.45602","lat":"31.22851","category":"119","category_name":"商场","address":"\"南京西路1168号中信泰富广场，店铺号221.\r\n\""},{"poiid":"B2094757D464A7F44199","title":"博多新记 襄阳南路店","lon":"121.456851054","lat":"31.213952793","category":"72","category_name":"广东菜","address":"徐汇区襄阳南路150号(近南昌路)"},{"poiid":"B2094757D06FAAFA459D","title":"上海市口腔病防治院(复兴中路分院)","lon":"121.4582","lat":"31.2126","category":"162","category_name":"医院","address":"徐汇区复兴中路1258号(近襄阳南路)"},{"poiid":"B2094757D16AAAFD459A","title":"上海汾陽花園酒店","lon":"121.455160738","lat":"31.212530923","category":"217","category_name":"旅馆招待所","address":"上海汾陽45號"},{"poiid":"B2094750D76FA3FB4698","title":"滩悦(淮海路店)","lon":"121.457","lat":"31.2143","category":"76","category_name":"上海菜","address":"卢湾区襄阳南路102号3楼(近南昌路)"},{"poiid":"B2094757D06FA5FE4898","title":"老地方面馆","lon":"121.45791","lat":"31.21153","category":"68","category_name":"快餐厅","address":"徐汇区襄阳南路233号(近永康路)"},{"poiid":"B2094757D068A1F8429A","title":"熠盛粤味","lon":"121.457178","lat":"31.210503","category":"72","category_name":"广东菜","address":"徐汇区永康路132号(近襄阳南路)"},{"poiid":"B2094757D068A5FA449F","title":"嘉豪淮海国际豪生酒店","lon":"121.45631","lat":"31.21455","category":"217","category_name":"旅馆招待所","address":"上海市徐汇区汾阳路1号(近淮海中路)"},{"poiid":"B2094757D069A3F54799","title":"El Patio","lon":"121.45368458","lat":"31.210532045","category":"94","category_name":"西餐厅","address":"徐汇区汾阳路110号(近太原路)"},{"poiid":"B2094750D768A6FA4899","title":"林记小馆(襄阳南路店)","lon":"121.457","lat":"31.2143","category":"72","category_name":"广东菜","address":"徐汇区襄阳南路102号(近淮海路)"},{"poiid":"B2094654DA6DA6F8439A","title":"上海市第二中学","lon":"121.45536","lat":"31.21034","category":"55","category_name":"中学","address":"徐汇区永康路200号(近太原路)"},{"poiid":"B2094752D269A5FA4293","title":"半岛小厨","lon":"121.457703","lat":"31.212662","category":"247","category_name":"餐饮美食","address":"徐汇区复兴中路1251号2楼(襄阳南路口)"},{"poiid":"B2094757D068A6F8449D","title":"邮电医院南部","lon":"121.45559842","lat":"31.211518436","category":"162","category_name":"医院","address":"徐汇区复兴中路1315号(近汾阳路)"},{"poiid":"B2094757D468A4FE439C","title":"埃哇餐厅 汾阳路店 AURA","lon":"121.454274","lat":"31.2113792","category":"94","category_name":"西餐厅","address":"徐汇区汾阳路64弄4号(近复兴中路)"},{"poiid":"B2094757D06AA3FB4292","title":"上海工艺美术博物馆","lon":"121.45460284","lat":"31.210373083","category":"182","category_name":"博物馆","address":"徐汇区汾阳路79号(永康路与太原路之间)"},{"poiid":"B2094757D66CA1FB449B","title":"88club","lon":"121.45549011","lat":"31.214376449","category":"500","category_name":"未知分类","address":"上海徐汇区富民路"},{"poiid":"B2094752DB6BA5FA429D","title":"Madison","lon":"121.455942","lat":"31.21461","category":"500","category_name":"未知分类","address":"上海市 汾陽路3號2號樓1樓"},{"poiid":"B2094757D568A0F4459D","title":"汾阳花园酒店","lon":"121.45546767","lat":"31.21291558","category":"214","category_name":"四星级宾馆","address":"上海徐汇区汾阳路45号(近复兴中路)"},{"poiid":"B2094757D468A4FE499B","title":"阿斯曼","lon":"121.456708054","lat":"31.212441793","category":"84","category_name":"西北菜","address":"复兴中路1251号近襄阳南路"},{"poiid":"B2094757D06FA3F5419B","title":"店里咖啡馆 Green Room","lon":"121.4578085","lat":"31.212752","category":"65","category_name":"咖啡厅","address":"上海市复兴中路1262弄2号(近襄阳南路)"},{"poiid":"B2094757D16CA3F84298","title":"汾阳路","lon":"121.456418738","lat":"31.2133589406","category":"260","category_name":"其他","address":"上海汾阳路"},{"poiid":"B2094757DB69A7FB4199","title":"爱乐阿米奇 ELLO AMICI'S","lon":"121.456828","lat":"31.214321","category":"94","category_name":"西餐厅","address":"徐汇区襄阳南路102号(南昌路口)"},{"poiid":"B2094757D065A3F94398","title":"茜茜莉亚音乐咖啡","lon":"121.4542747","lat":"31.211379","category":"65","category_name":"咖啡厅","address":"徐汇区汾阳路64弄2号(近复兴中路)"},{"poiid":"B2094655D265A7FF429F","title":"上海音乐学院(南门)","lon":"121.45434","lat":"31.21193","category":"52","category_name":"高等院校","address":"复兴中路1330"},{"poiid":"B2094757D769A4F8479B","title":"奥芙莉 襄阳南路店 Awfully Chocolate","lon":"121.456886054","lat":"31.212959793","category":"67","category_name":"甜品店","address":"徐汇区襄阳南路174号(近复兴中路)"},{"poiid":"B2094757D068A5FA489A","title":"位育初级中学","lon":"121.45677509","lat":"31.211933819","category":"55","category_name":"中学","address":"徐汇区复兴中路1261号(近襄阳南路)"},{"poiid":"B2094757DB6CA3FC4699","title":"上海汾阳花园酒店","lon":"121.455148","lat":"31.212659","category":"213","category_name":"五星级宾馆","address":"上海市徐汇区汾阳路45号(近复兴中路)"},{"poiid":"B2094752D668A4FD489A","title":"查餐厅","lon":"121.455439","lat":"31.211717","category":"247","category_name":"餐饮美食","address":"思南路"},{"poiid":"B2094654DA6DA6FD459F","title":"花子","lon":"121.45753735595","lat":"31.211939687057","category":"95","category_name":"日本料理","address":"徐汇区襄阳南路207-3号(近复兴中路)"},{"poiid":"B2094757D568AAFE4892","title":"上海音乐学院餐厅","lon":"121.4545131","lat":"31.21272194","category":"68","category_name":"快餐厅","address":"徐汇区汾阳路20号上海音乐学院内(近复兴中路)"},{"poiid":"B209475CD46AA5FD4599","title":"么么甜品","lon":"121.456237","lat":"31.212278","category":"247","category_name":"餐饮美食","address":"上海市 复兴中路1277号"},{"poiid":"B2094757D06FA7FA4998","title":"Memo bar & restaurant","lon":"121.4543","lat":"31.21143","category":"94","category_name":"西餐厅","address":"嘉善路259弄旁嘉善老市内（建国西路和永嘉路之间）"},{"poiid":"B2094757D06EAAFD4392","title":"磨咕咖啡馆 mogoo cafe","lon":"121.454309054","lat":"31.211203793","category":"260","category_name":"其他","address":"徐汇区汾阳路77号(近音乐学院)"},{"poiid":"B2094751D465A3F5449A","title":"hoF","lon":"121.455483","lat":"31.211434","category":"249","category_name":"购物服务","address":"思南路淮海中路"},{"poiid":"B2094654DA6DA6FF459F","title":"玛莎","lon":"121.45577","lat":"31.21206","category":"141","category_name":"服装鞋帽皮具店","address":"复兴中路1303"},{"poiid":"B2094750DA6AABFC429C","title":"上海国际F1赛车场","lon":"121.454673","lat":"31.214015","category":"500","category_name":"未知分类","address":null},{"poiid":"B2094757DA65A6FC4299","title":"1933老場坊","lon":"121.457631","lat":"31.21133","category":"248","category_name":"生活娱乐","address":"上海市虹口區漂陽路611號1933老場坊"},{"poiid":"B2094757D66EA1FC429C","title":"昊天面馆","lon":"121.456511738","lat":"31.2123559193","category":"76","category_name":"上海菜","address":"徐汇区复兴中路1267号(近襄阳南路)"},{"poiid":"B2094655D265A7FB4798","title":"悟茶茶馆","lon":"121.45489","lat":"31.21179","category":"66","category_name":"茶艺馆","address":"复兴中路1315-2临"},{"poiid":"B2094757D068A1F84792","title":"现代电子城","lon":"121.45725822","lat":"31.212201762","category":"249","category_name":"购物服务","address":"徐汇区襄阳南路218号(近复兴中路)"},{"poiid":"B2094655D26FAAFD499E","title":"天平街道桃源村小区(北门)","lon":"121.4559","lat":"31.21209","category":"47","category_name":"住宅区","address":"复兴中路1295弄1-75号"},{"poiid":"B2094655D26EA6F94498","title":"台园圆圆香云吞 徐汇店","lon":"121.456165054","lat":"31.212394793","category":"68","category_name":"快餐厅","address":"徐汇区复兴中路1268号(近襄阳南路)"},{"poiid":"B2094757D069A3FD449B","title":"上海市商贸旅游学校","lon":"121.45610973","lat":"31.21234377","category":"54","category_name":"职业技术学校","address":"上海浦东南路1548号"},{"poiid":"B2094757D068A4F8409F","title":"柏斯琴行(汾阳路店)","lon":"121.454502218","lat":"31.2121623067","category":"260","category_name":"其他","address":"徐汇区汾阳路30号(近复兴西路)"},{"poiid":"B209475DD26CA5F8449B","title":"鼎泰丰环贸店","lon":"121.456192","lat":"31.214679","category":"500","category_name":"未知分类","address":"上海市 淮海中路环贸Iapm广场3楼"},{"poiid":"B2094654DB6BA4FD4592","title":"上海音乐学院","lon":"121.45487","lat":"31.21309","category":"671","category_name":"高校中心点","address":"徐汇区汾阳路20号(近复兴中路)"},{"poiid":"B2094654DB65A5F8479D","title":"贺绿汀音乐厅","lon":"121.45461","lat":"31.21331","category":"179","category_name":"音乐厅","address":"徐汇区汾阳路20号上海音乐学院内(近淮海中路)"},{"poiid":"B2094654DA6EA2FA459D","title":"博多新记 复兴店","lon":"121.4576526721","lat":"31.21277515026","category":"72","category_name":"广东菜","address":"徐汇区复兴中路1252弄15号2楼(近襄阳南路)"},{"poiid":"B2094753D76FAAFA449C","title":"上海滩国泰旗舰店","lon":"121.466011","lat":"31.216125","category":"249","category_name":"购物服务","address":"淮海中路868号"},{"poiid":"B209475CD564A7F84292","title":"上海滩新天地店","lon":"121.47463","lat":"31.22164","category":"119","category_name":"商场","address":"\"太仓路181弄新天地北里15号\r\n\""},{"poiid":"B209475CD564A7F8439E","title":"上海滩中信泰富店","lon":"121.45602","lat":"31.22851","category":"119","category_name":"商场","address":"\"南京西路1168号中信泰富广场，店铺号221.\r\n\""},{"poiid":"B2094757D464A7F44199","title":"博多新记 襄阳南路店","lon":"121.456851054","lat":"31.213952793","category":"72","category_name":"广东菜","address":"徐汇区襄阳南路150号(近南昌路)"},{"poiid":"B2094757D06FAAFA459D","title":"上海市口腔病防治院(复兴中路分院)","lon":"121.4582","lat":"31.2126","category":"162","category_name":"医院","address":"徐汇区复兴中路1258号(近襄阳南路)"},{"poiid":"B2094757D16AAAFD459A","title":"上海汾陽花園酒店","lon":"121.455160738","lat":"31.212530923","category":"217","category_name":"旅馆招待所","address":"上海汾陽45號"},{"poiid":"B2094750D76FA3FB4698","title":"滩悦(淮海路店)","lon":"121.457","lat":"31.2143","category":"76","category_name":"上海菜","address":"卢湾区襄阳南路102号3楼(近南昌路)"},{"poiid":"B2094757D06FA5FE4898","title":"老地方面馆","lon":"121.45791","lat":"31.21153","category":"68","category_name":"快餐厅","address":"徐汇区襄阳南路233号(近永康路)"},{"poiid":"B2094757D068A1F8429A","title":"熠盛粤味","lon":"121.457178","lat":"31.210503","category":"72","category_name":"广东菜","address":"徐汇区永康路132号(近襄阳南路)"},{"poiid":"B2094757D068A5FA449F","title":"嘉豪淮海国际豪生酒店","lon":"121.45631","lat":"31.21455","category":"217","category_name":"旅馆招待所","address":"上海市徐汇区汾阳路1号(近淮海中路)"},{"poiid":"B2094757D069A3F54799","title":"El Patio","lon":"121.45368458","lat":"31.210532045","category":"94","category_name":"西餐厅","address":"徐汇区汾阳路110号(近太原路)"},{"poiid":"B2094750D768A6FA4899","title":"林记小馆(襄阳南路店)","lon":"121.457","lat":"31.2143","category":"72","category_name":"广东菜","address":"徐汇区襄阳南路102号(近淮海路)"},{"poiid":"B2094654DA6DA6F8439A","title":"上海市第二中学","lon":"121.45536","lat":"31.21034","category":"55","category_name":"中学","address":"徐汇区永康路200号(近太原路)"},{"poiid":"B2094752D269A5FA4293","title":"半岛小厨","lon":"121.457703","lat":"31.212662","category":"247","category_name":"餐饮美食","address":"徐汇区复兴中路1251号2楼(襄阳南路口)"},{"poiid":"B2094757D068A6F8449D","title":"邮电医院南部","lon":"121.45559842","lat":"31.211518436","category":"162","category_name":"医院","address":"徐汇区复兴中路1315号(近汾阳路)"},{"poiid":"B2094757D468A4FE439C","title":"埃哇餐厅 汾阳路店 AURA","lon":"121.454274","lat":"31.2113792","category":"94","category_name":"西餐厅","address":"徐汇区汾阳路64弄4号(近复兴中路)"},{"poiid":"B2094757D06AA3FB4292","title":"上海工艺美术博物馆","lon":"121.45460284","lat":"31.210373083","category":"182","category_name":"博物馆","address":"徐汇区汾阳路79号(永康路与太原路之间)"},{"poiid":"B2094757D66CA1FB449B","title":"88club","lon":"121.45549011","lat":"31.214376449","category":"500","category_name":"未知分类","address":"上海徐汇区富民路"},{"poiid":"B2094752DB6BA5FA429D","title":"Madison","lon":"121.455942","lat":"31.21461","category":"500","category_name":"未知分类","address":"上海市 汾陽路3號2號樓1樓"},{"poiid":"B2094757D568A0F4459D","title":"汾阳花园酒店","lon":"121.45546767","lat":"31.21291558","category":"214","category_name":"四星级宾馆","address":"上海徐汇区汾阳路45号(近复兴中路)"},{"poiid":"B2094757D468A4FE499B","title":"阿斯曼","lon":"121.456708054","lat":"31.212441793","category":"84","category_name":"西北菜","address":"复兴中路1251号近襄阳南路"},{"poiid":"B2094757D06FA3F5419B","title":"店里咖啡馆 Green Room","lon":"121.4578085","lat":"31.212752","category":"65","category_name":"咖啡厅","address":"上海市复兴中路1262弄2号(近襄阳南路)"},{"poiid":"B2094757D16CA3F84298","title":"汾阳路","lon":"121.456418738","lat":"31.2133589406","category":"260","category_name":"其他","address":"上海汾阳路"},{"poiid":"B2094757DB69A7FB4199","title":"爱乐阿米奇 ELLO AMICI'S","lon":"121.456828","lat":"31.214321","category":"94","category_name":"西餐厅","address":"徐汇区襄阳南路102号(南昌路口)"},{"poiid":"B2094757D065A3F94398","title":"茜茜莉亚音乐咖啡","lon":"121.4542747","lat":"31.211379","category":"65","category_name":"咖啡厅","address":"徐汇区汾阳路64弄2号(近复兴中路)"},{"poiid":"B2094655D265A7FF429F","title":"上海音乐学院(南门)","lon":"121.45434","lat":"31.21193","category":"52","category_name":"高等院校","address":"复兴中路1330"},{"poiid":"B2094757D769A4F8479B","title":"奥芙莉 襄阳南路店 Awfully Chocolate","lon":"121.456886054","lat":"31.212959793","category":"67","category_name":"甜品店","address":"徐汇区襄阳南路174号(近复兴中路)"},{"poiid":"B2094757D068A5FA489A","title":"位育初级中学","lon":"121.45677509","lat":"31.211933819","category":"55","category_name":"中学","address":"徐汇区复兴中路1261号(近襄阳南路)"},{"poiid":"B2094757DB6CA3FC4699","title":"上海汾阳花园酒店","lon":"121.455148","lat":"31.212659","category":"213","category_name":"五星级宾馆","address":"上海市徐汇区汾阳路45号(近复兴中路)"},{"poiid":"B2094752D668A4FD489A","title":"查餐厅","lon":"121.455439","lat":"31.211717","category":"247","category_name":"餐饮美食","address":"思南路"},{"poiid":"B2094654DA6DA6FD459F","title":"花子","lon":"121.45753735595","lat":"31.211939687057","category":"95","category_name":"日本料理","address":"徐汇区襄阳南路207-3号(近复兴中路)"},{"poiid":"B2094757D568AAFE4892","title":"上海音乐学院餐厅","lon":"121.4545131","lat":"31.21272194","category":"68","category_name":"快餐厅","address":"徐汇区汾阳路20号上海音乐学院内(近复兴中路)"},{"poiid":"B209475CD46AA5FD4599","title":"么么甜品","lon":"121.456237","lat":"31.212278","category":"247","category_name":"餐饮美食","address":"上海市 复兴中路1277号"},{"poiid":"B2094757D06FA7FA4998","title":"Memo bar & restaurant","lon":"121.4543","lat":"31.21143","category":"94","category_name":"西餐厅","address":"嘉善路259弄旁嘉善老市内（建国西路和永嘉路之间）"},{"poiid":"B2094757D06EAAFD4392","title":"磨咕咖啡馆 mogoo cafe","lon":"121.454309054","lat":"31.211203793","category":"260","category_name":"其他","address":"徐汇区汾阳路77号(近音乐学院)"},{"poiid":"B2094751D465A3F5449A","title":"hoF","lon":"121.455483","lat":"31.211434","category":"249","category_name":"购物服务","address":"思南路淮海中路"},{"poiid":"B2094654DA6DA6FF459F","title":"玛莎","lon":"121.45577","lat":"31.21206","category":"141","category_name":"服装鞋帽皮具店","address":"复兴中路1303"},{"poiid":"B2094750DA6AABFC429C","title":"上海国际F1赛车场","lon":"121.454673","lat":"31.214015","category":"500","category_name":"未知分类","address":null},{"poiid":"B2094757DA65A6FC4299","title":"1933老場坊","lon":"121.457631","lat":"31.21133","category":"248","category_name":"生活娱乐","address":"上海市虹口區漂陽路611號1933老場坊"},{"poiid":"B2094757D66EA1FC429C","title":"昊天面馆","lon":"121.456511738","lat":"31.2123559193","category":"76","category_name":"上海菜","address":"徐汇区复兴中路1267号(近襄阳南路)"},{"poiid":"B2094655D265A7FB4798","title":"悟茶茶馆","lon":"121.45489","lat":"31.21179","category":"66","category_name":"茶艺馆","address":"复兴中路1315-2临"},{"poiid":"B2094757D068A1F84792","title":"现代电子城","lon":"121.45725822","lat":"31.212201762","category":"249","category_name":"购物服务","address":"徐汇区襄阳南路218号(近复兴中路)"},{"poiid":"B2094655D26FAAFD499E","title":"天平街道桃源村小区(北门)","lon":"121.4559","lat":"31.21209","category":"47","category_name":"住宅区","address":"复兴中路1295弄1-75号"},{"poiid":"B2094655D26EA6F94498","title":"台园圆圆香云吞 徐汇店","lon":"121.456165054","lat":"31.212394793","category":"68","category_name":"快餐厅","address":"徐汇区复兴中路1268号(近襄阳南路)"},{"poiid":"B2094757D069A3FD449B","title":"上海市商贸旅游学校","lon":"121.45610973","lat":"31.21234377","category":"54","category_name":"职业技术学校","address":"上海浦东南路1548号"},{"poiid":"B2094757D068A4F8409F","title":"柏斯琴行(汾阳路店)","lon":"121.454502218","lat":"31.2121623067","category":"260","category_name":"其他","address":"徐汇区汾阳路30号(近复兴西路)"},{"poiid":"B209475DD26CA5F8449B","title":"鼎泰丰环贸店","lon":"121.456192","lat":"31.214679","category":"500","category_name":"未知分类","address":"上海市 淮海中路环贸Iapm广场3楼"},{"poiid":"B2094654DB6BA4FD4592","title":"上海音乐学院","lon":"121.45487","lat":"31.21309","category":"671","category_name":"高校中心点","address":"徐汇区汾阳路20号(近复兴中路)"},{"poiid":"B2094654DB65A5F8479D","title":"贺绿汀音乐厅","lon":"121.45461","lat":"31.21331","category":"179","category_name":"音乐厅","address":"徐汇区汾阳路20号上海音乐学院内(近淮海中路)"},{"poiid":"B2094654DA6EA2FA459D","title":"博多新记 复兴店","lon":"121.4576526721","lat":"31.21277515026","category":"72","category_name":"广东菜","address":"徐汇区复兴中路1252弄15号2楼(近襄阳南路)"},{"poiid":"B2094753D76FAAFA449C","title":"上海滩国泰旗舰店","lon":"121.466011","lat":"31.216125","category":"249","category_name":"购物服务","address":"淮海中路868号"},{"poiid":"B209475CD564A7F84292","title":"上海滩新天地店","lon":"121.47463","lat":"31.22164","category":"119","category_name":"商场","address":"\"太仓路181弄新天地北里15号\r\n\""},{"poiid":"B209475CD564A7F8439E","title":"上海滩中信泰富店","lon":"121.45602","lat":"31.22851","category":"119","category_name":"商场","address":"\"南京西路1168号中信泰富广场，店铺号221.\r\n\""},{"poiid":"B2094757D464A7F44199","title":"博多新记 襄阳南路店","lon":"121.456851054","lat":"31.213952793","category":"72","category_name":"广东菜","address":"徐汇区襄阳南路150号(近南昌路)"},{"poiid":"B2094757D06FAAFA459D","title":"上海市口腔病防治院(复兴中路分院)","lon":"121.4582","lat":"31.2126","category":"162","category_name":"医院","address":"徐汇区复兴中路1258号(近襄阳南路)"},{"poiid":"B2094757D16AAAFD459A","title":"上海汾陽花園酒店","lon":"121.455160738","lat":"31.212530923","category":"217","category_name":"旅馆招待所","address":"上海汾陽45號"},{"poiid":"B2094750D76FA3FB4698","title":"滩悦(淮海路店)","lon":"121.457","lat":"31.2143","category":"76","category_name":"上海菜","address":"卢湾区襄阳南路102号3楼(近南昌路)"},{"poiid":"B2094757D06FA5FE4898","title":"老地方面馆","lon":"121.45791","lat":"31.21153","category":"68","category_name":"快餐厅","address":"徐汇区襄阳南路233号(近永康路)"},{"poiid":"B2094757D068A1F8429A","title":"熠盛粤味","lon":"121.457178","lat":"31.210503","category":"72","category_name":"广东菜","address":"徐汇区永康路132号(近襄阳南路)"},{"poiid":"B2094757D068A5FA449F","title":"嘉豪淮海国际豪生酒店","lon":"121.45631","lat":"31.21455","category":"217","category_name":"旅馆招待所","address":"上海市徐汇区汾阳路1号(近淮海中路)"},{"poiid":"B2094757D069A3F54799","title":"El Patio","lon":"121.45368458","lat":"31.210532045","category":"94","category_name":"西餐厅","address":"徐汇区汾阳路110号(近太原路)"},{"poiid":"B2094750D768A6FA4899","title":"林记小馆(襄阳南路店)","lon":"121.457","lat":"31.2143","category":"72","category_name":"广东菜","address":"徐汇区襄阳南路102号(近淮海路)"},{"poiid":"B2094654DA6DA6F8439A","title":"上海市第二中学","lon":"121.45536","lat":"31.21034","category":"55","category_name":"中学","address":"徐汇区永康路200号(近太原路)"},{"poiid":"B2094752D269A5FA4293","title":"半岛小厨","lon":"121.457703","lat":"31.212662","category":"247","category_name":"餐饮美食","address":"徐汇区复兴中路1251号2楼(襄阳南路口)"},{"poiid":"B2094757D068A6F8449D","title":"邮电医院南部","lon":"121.45559842","lat":"31.211518436","category":"162","category_name":"医院","address":"徐汇区复兴中路1315号(近汾阳路)"},{"poiid":"B2094757D468A4FE439C","title":"埃哇餐厅 汾阳路店 AURA","lon":"121.454274","lat":"31.2113792","category":"94","category_name":"西餐厅","address":"徐汇区汾阳路64弄4号(近复兴中路)"},{"poiid":"B2094757D06AA3FB4292","title":"上海工艺美术博物馆","lon":"121.45460284","lat":"31.210373083","category":"182","category_name":"博物馆","address":"徐汇区汾阳路79号(永康路与太原路之间)"},{"poiid":"B2094757D66CA1FB449B","title":"88club","lon":"121.45549011","lat":"31.214376449","category":"500","category_name":"未知分类","address":"上海徐汇区富民路"},{"poiid":"B2094752DB6BA5FA429D","title":"Madison","lon":"121.455942","lat":"31.21461","category":"500","category_name":"未知分类","address":"上海市 汾陽路3號2號樓1樓"},{"poiid":"B2094757D568A0F4459D","title":"汾阳花园酒店","lon":"121.45546767","lat":"31.21291558","category":"214","category_name":"四星级宾馆","address":"上海徐汇区汾阳路45号(近复兴中路)"},{"poiid":"B2094757D468A4FE499B","title":"阿斯曼","lon":"121.456708054","lat":"31.212441793","category":"84","category_name":"西北菜","address":"复兴中路1251号近襄阳南路"},{"poiid":"B2094757D06FA3F5419B","title":"店里咖啡馆 Green Room","lon":"121.4578085","lat":"31.212752","category":"65","category_name":"咖啡厅","address":"上海市复兴中路1262弄2号(近襄阳南路)"},{"poiid":"B2094757D16CA3F84298","title":"汾阳路","lon":"121.456418738","lat":"31.2133589406","category":"260","category_name":"其他","address":"上海汾阳路"},{"poiid":"B2094757DB69A7FB4199","title":"爱乐阿米奇 ELLO AMICI'S","lon":"121.456828","lat":"31.214321","category":"94","category_name":"西餐厅","address":"徐汇区襄阳南路102号(南昌路口)"},{"poiid":"B2094757D065A3F94398","title":"茜茜莉亚音乐咖啡","lon":"121.4542747","lat":"31.211379","category":"65","category_name":"咖啡厅","address":"徐汇区汾阳路64弄2号(近复兴中路)"},{"poiid":"B2094655D265A7FF429F","title":"上海音乐学院(南门)","lon":"121.45434","lat":"31.21193","category":"52","category_name":"高等院校","address":"复兴中路1330"},{"poiid":"B2094757D769A4F8479B","title":"奥芙莉 襄阳南路店 Awfully Chocolate","lon":"121.456886054","lat":"31.212959793","category":"67","category_name":"甜品店","address":"徐汇区襄阳南路174号(近复兴中路)"},{"poiid":"B2094757D068A5FA489A","title":"位育初级中学","lon":"121.45677509","lat":"31.211933819","category":"55","category_name":"中学","address":"徐汇区复兴中路1261号(近襄阳南路)"},{"poiid":"B2094757DB6CA3FC4699","title":"上海汾阳花园酒店","lon":"121.455148","lat":"31.212659","category":"213","category_name":"五星级宾馆","address":"上海市徐汇区汾阳路45号(近复兴中路)"},{"poiid":"B2094752D668A4FD489A","title":"查餐厅","lon":"121.455439","lat":"31.211717","category":"247","category_name":"餐饮美食","address":"思南路"},{"poiid":"B2094654DA6DA6FD459F","title":"花子","lon":"121.45753735595","lat":"31.211939687057","category":"95","category_name":"日本料理","address":"徐汇区襄阳南路207-3号(近复兴中路)"},{"poiid":"B2094757D568AAFE4892","title":"上海音乐学院餐厅","lon":"121.4545131","lat":"31.21272194","category":"68","category_name":"快餐厅","address":"徐汇区汾阳路20号上海音乐学院内(近复兴中路)"},{"poiid":"B209475CD46AA5FD4599","title":"么么甜品","lon":"121.456237","lat":"31.212278","category":"247","category_name":"餐饮美食","address":"上海市 复兴中路1277号"},{"poiid":"B2094757D06FA7FA4998","title":"Memo bar & restaurant","lon":"121.4543","lat":"31.21143","category":"94","category_name":"西餐厅","address":"嘉善路259弄旁嘉善老市内（建国西路和永嘉路之间）"},{"poiid":"B2094757D06EAAFD4392","title":"磨咕咖啡馆 mogoo cafe","lon":"121.454309054","lat":"31.211203793","category":"260","category_name":"其他","address":"徐汇区汾阳路77号(近音乐学院)"},{"poiid":"B2094751D465A3F5449A","title":"hoF","lon":"121.455483","lat":"31.211434","category":"249","category_name":"购物服务","address":"思南路淮海中路"},{"poiid":"B2094654DA6DA6FF459F","title":"玛莎","lon":"121.45577","lat":"31.21206","category":"141","category_name":"服装鞋帽皮具店","address":"复兴中路1303"},{"poiid":"B2094750DA6AABFC429C","title":"上海国际F1赛车场","lon":"121.454673","lat":"31.214015","category":"500","category_name":"未知分类","address":null},{"poiid":"B2094757DA65A6FC4299","title":"1933老場坊","lon":"121.457631","lat":"31.21133","category":"248","category_name":"生活娱乐","address":"上海市虹口區漂陽路611號1933老場坊"},{"poiid":"B2094757D66EA1FC429C","title":"昊天面馆","lon":"121.456511738","lat":"31.2123559193","category":"76","category_name":"上海菜","address":"徐汇区复兴中路1267号(近襄阳南路)"},{"poiid":"B2094655D265A7FB4798","title":"悟茶茶馆","lon":"121.45489","lat":"31.21179","category":"66","category_name":"茶艺馆","address":"复兴中路1315-2临"},{"poiid":"B2094757D068A1F84792","title":"现代电子城","lon":"121.45725822","lat":"31.212201762","category":"249","category_name":"购物服务","address":"徐汇区襄阳南路218号(近复兴中路)"},{"poiid":"B2094655D26FAAFD499E","title":"天平街道桃源村小区(北门)","lon":"121.4559","lat":"31.21209","category":"47","category_name":"住宅区","address":"复兴中路1295弄1-75号"},{"poiid":"B2094655D26EA6F94498","title":"台园圆圆香云吞 徐汇店","lon":"121.456165054","lat":"31.212394793","category":"68","category_name":"快餐厅","address":"徐汇区复兴中路1268号(近襄阳南路)"},{"poiid":"B2094757D069A3FD449B","title":"上海市商贸旅游学校","lon":"121.45610973","lat":"31.21234377","category":"54","category_name":"职业技术学校","address":"上海浦东南路1548号"},{"poiid":"B2094757D068A4F8409F","title":"柏斯琴行(汾阳路店)","lon":"121.454502218","lat":"31.2121623067","category":"260","category_name":"其他","address":"徐汇区汾阳路30号(近复兴西路)"},{"poiid":"B209475DD26CA5F8449B","title":"鼎泰丰环贸店","lon":"121.456192","lat":"31.214679","category":"500","category_name":"未知分类","address":"上海市 淮海中路环贸Iapm广场3楼"},{"poiid":"B2094654DB6BA4FD4592","title":"上海音乐学院","lon":"121.45487","lat":"31.21309","category":"671","category_name":"高校中心点","address":"徐汇区汾阳路20号(近复兴中路)"},{"poiid":"B2094654DB65A5F8479D","title":"贺绿汀音乐厅","lon":"121.45461","lat":"31.21331","category":"179","category_name":"音乐厅","address":"徐汇区汾阳路20号上海音乐学院内(近淮海中路)"},{"poiid":"B2094654DA6EA2FA459D","title":"博多新记 复兴店","lon":"121.4576526721","lat":"31.21277515026","category":"72","category_name":"广东菜","address":"徐汇区复兴中路1252弄15号2楼(近襄阳南路)"},{"poiid":"B2094753D76FAAFA449C","title":"上海滩国泰旗舰店","lon":"121.466011","lat":"31.216125","category":"249","category_name":"购物服务","address":"淮海中路868号"},{"poiid":"B209475CD564A7F84292","title":"上海滩新天地店","lon":"121.47463","lat":"31.22164","category":"119","category_name":"商场","address":"\"太仓路181弄新天地北里15号\r\n\""},{"poiid":"B209475CD564A7F8439E","title":"上海滩中信泰富店","lon":"121.45602","lat":"31.22851","category":"119","category_name":"商场","address":"\"南京西路1168号中信泰富广场，店铺号221.\r\n\""},{"poiid":"B2094757D464A7F44199","title":"博多新记 襄阳南路店","lon":"121.456851054","lat":"31.213952793","category":"72","category_name":"广东菜","address":"徐汇区襄阳南路150号(近南昌路)"},{"poiid":"B2094757D06FAAFA459D","title":"上海市口腔病防治院(复兴中路分院)","lon":"121.4582","lat":"31.2126","category":"162","category_name":"医院","address":"徐汇区复兴中路1258号(近襄阳南路)"},{"poiid":"B2094757D16AAAFD459A","title":"上海汾陽花園酒店","lon":"121.455160738","lat":"31.212530923","category":"217","category_name":"旅馆招待所","address":"上海汾陽45號"},{"poiid":"B2094750D76FA3FB4698","title":"滩悦(淮海路店)","lon":"121.457","lat":"31.2143","category":"76","category_name":"上海菜","address":"卢湾区襄阳南路102号3楼(近南昌路)"},{"poiid":"B2094757D06FA5FE4898","title":"老地方面馆","lon":"121.45791","lat":"31.21153","category":"68","category_name":"快餐厅","address":"徐汇区襄阳南路233号(近永康路)"},{"poiid":"B2094757D068A1F8429A","title":"熠盛粤味","lon":"121.457178","lat":"31.210503","category":"72","category_name":"广东菜","address":"徐汇区永康路132号(近襄阳南路)"},{"poiid":"B2094757D068A5FA449F","title":"嘉豪淮海国际豪生酒店","lon":"121.45631","lat":"31.21455","category":"217","category_name":"旅馆招待所","address":"上海市徐汇区汾阳路1号(近淮海中路)"},{"poiid":"B2094757D069A3F54799","title":"El Patio","lon":"121.45368458","lat":"31.210532045","category":"94","category_name":"西餐厅","address":"徐汇区汾阳路110号(近太原路)"},{"poiid":"B2094750D768A6FA4899","title":"林记小馆(襄阳南路店)","lon":"121.457","lat":"31.2143","category":"72","category_name":"广东菜","address":"徐汇区襄阳南路102号(近淮海路)"},{"poiid":"B2094654DA6DA6F8439A","title":"上海市第二中学","lon":"121.45536","lat":"31.21034","category":"55","category_name":"中学","address":"徐汇区永康路200号(近太原路)"},{"poiid":"B2094752D269A5FA4293","title":"半岛小厨","lon":"121.457703","lat":"31.212662","category":"247","category_name":"餐饮美食","address":"徐汇区复兴中路1251号2楼(襄阳南路口)"},{"poiid":"B2094757D068A6F8449D","title":"邮电医院南部","lon":"121.45559842","lat":"31.211518436","category":"162","category_name":"医院","address":"徐汇区复兴中路1315号(近汾阳路)"},{"poiid":"B2094757D468A4FE439C","title":"埃哇餐厅 汾阳路店 AURA","lon":"121.454274","lat":"31.2113792","category":"94","category_name":"西餐厅","address":"徐汇区汾阳路64弄4号(近复兴中路)"},{"poiid":"B2094757D06AA3FB4292","title":"上海工艺美术博物馆","lon":"121.45460284","lat":"31.210373083","category":"182","category_name":"博物馆","address":"徐汇区汾阳路79号(永康路与太原路之间)"},{"poiid":"B2094757D66CA1FB449B","title":"88club","lon":"121.45549011","lat":"31.214376449","category":"500","category_name":"未知分类","address":"上海徐汇区富民路"},{"poiid":"B2094752DB6BA5FA429D","title":"Madison","lon":"121.455942","lat":"31.21461","category":"500","category_name":"未知分类","address":"上海市 汾陽路3號2號樓1樓"},{"poiid":"B2094757D568A0F4459D","title":"汾阳花园酒店","lon":"121.45546767","lat":"31.21291558","category":"214","category_name":"四星级宾馆","address":"上海徐汇区汾阳路45号(近复兴中路)"},{"poiid":"B2094757D468A4FE499B","title":"阿斯曼","lon":"121.456708054","lat":"31.212441793","category":"84","category_name":"西北菜","address":"复兴中路1251号近襄阳南路"},{"poiid":"B2094757D06FA3F5419B","title":"店里咖啡馆 Green Room","lon":"121.4578085","lat":"31.212752","category":"65","category_name":"咖啡厅","address":"上海市复兴中路1262弄2号(近襄阳南路)"},{"poiid":"B2094757D16CA3F84298","title":"汾阳路","lon":"121.456418738","lat":"31.2133589406","category":"260","category_name":"其他","address":"上海汾阳路"},{"poiid":"B2094757DB69A7FB4199","title":"爱乐阿米奇 ELLO AMICI'S","lon":"121.456828","lat":"31.214321","category":"94","category_name":"西餐厅","address":"徐汇区襄阳南路102号(南昌路口)"},{"poiid":"B2094757D065A3F94398","title":"茜茜莉亚音乐咖啡","lon":"121.4542747","lat":"31.211379","category":"65","category_name":"咖啡厅","address":"徐汇区汾阳路64弄2号(近复兴中路)"},{"poiid":"B2094655D265A7FF429F","title":"上海音乐学院(南门)","lon":"121.45434","lat":"31.21193","category":"52","category_name":"高等院校","address":"复兴中路1330"},{"poiid":"B2094757D769A4F8479B","title":"奥芙莉 襄阳南路店 Awfully Chocolate","lon":"121.456886054","lat":"31.212959793","category":"67","category_name":"甜品店","address":"徐汇区襄阳南路174号(近复兴中路)"},{"poiid":"B2094757D068A5FA489A","title":"位育初级中学","lon":"121.45677509","lat":"31.211933819","category":"55","category_name":"中学","address":"徐汇区复兴中路1261号(近襄阳南路)"},{"poiid":"B2094757DB6CA3FC4699","title":"上海汾阳花园酒店","lon":"121.455148","lat":"31.212659","category":"213","category_name":"五星级宾馆","address":"上海市徐汇区汾阳路45号(近复兴中路)"},{"poiid":"B2094752D668A4FD489A","title":"查餐厅","lon":"121.455439","lat":"31.211717","category":"247","category_name":"餐饮美食","address":"思南路"},{"poiid":"B2094654DA6DA6FD459F","title":"花子","lon":"121.45753735595","lat":"31.211939687057","category":"95","category_name":"日本料理","address":"徐汇区襄阳南路207-3号(近复兴中路)"},{"poiid":"B2094757D568AAFE4892","title":"上海音乐学院餐厅","lon":"121.4545131","lat":"31.21272194","category":"68","category_name":"快餐厅","address":"徐汇区汾阳路20号上海音乐学院内(近复兴中路)"},{"poiid":"B209475CD46AA5FD4599","title":"么么甜品","lon":"121.456237","lat":"31.212278","category":"247","category_name":"餐饮美食","address":"上海市 复兴中路1277号"},{"poiid":"B2094757D06FA7FA4998","title":"Memo bar & restaurant","lon":"121.4543","lat":"31.21143","category":"94","category_name":"西餐厅","address":"嘉善路259弄旁嘉善老市内（建国西路和永嘉路之间）"},{"poiid":"B2094757D06EAAFD4392","title":"磨咕咖啡馆 mogoo cafe","lon":"121.454309054","lat":"31.211203793","category":"260","category_name":"其他","address":"徐汇区汾阳路77号(近音乐学院)"},{"poiid":"B2094751D465A3F5449A","title":"hoF","lon":"121.455483","lat":"31.211434","category":"249","category_name":"购物服务","address":"思南路淮海中路"},{"poiid":"B2094654DA6DA6FF459F","title":"玛莎","lon":"121.45577","lat":"31.21206","category":"141","category_name":"服装鞋帽皮具店","address":"复兴中路1303"},{"poiid":"B2094750DA6AABFC429C","title":"上海国际F1赛车场","lon":"121.454673","lat":"31.214015","category":"500","category_name":"未知分类","address":null},{"poiid":"B2094757DA65A6FC4299","title":"1933老場坊","lon":"121.457631","lat":"31.21133","category":"248","category_name":"生活娱乐","address":"上海市虹口區漂陽路611號1933老場坊"},{"poiid":"B2094757D66EA1FC429C","title":"昊天面馆","lon":"121.456511738","lat":"31.2123559193","category":"76","category_name":"上海菜","address":"徐汇区复兴中路1267号(近襄阳南路)"},{"poiid":"B2094655D265A7FB4798","title":"悟茶茶馆","lon":"121.45489","lat":"31.21179","category":"66","category_name":"茶艺馆","address":"复兴中路1315-2临"},{"poiid":"B2094757D068A1F84792","title":"现代电子城","lon":"121.45725822","lat":"31.212201762","category":"249","category_name":"购物服务","address":"徐汇区襄阳南路218号(近复兴中路)"},{"poiid":"B2094655D26FAAFD499E","title":"天平街道桃源村小区(北门)","lon":"121.4559","lat":"31.21209","category":"47","category_name":"住宅区","address":"复兴中路1295弄1-75号"},{"poiid":"B2094655D26EA6F94498","title":"台园圆圆香云吞 徐汇店","lon":"121.456165054","lat":"31.212394793","category":"68","category_name":"快餐厅","address":"徐汇区复兴中路1268号(近襄阳南路)"},{"poiid":"B2094757D069A3FD449B","title":"上海市商贸旅游学校","lon":"121.45610973","lat":"31.21234377","category":"54","category_name":"职业技术学校","address":"上海浦东南路1548号"},{"poiid":"B2094757D068A4F8409F","title":"柏斯琴行(汾阳路店)","lon":"121.454502218","lat":"31.2121623067","category":"260","category_name":"其他","address":"徐汇区汾阳路30号(近复兴西路)"},{"poiid":"B209475DD26CA5F8449B","title":"鼎泰丰环贸店","lon":"121.456192","lat":"31.214679","category":"500","category_name":"未知分类","address":"上海市 淮海中路环贸Iapm广场3楼"}]