[{"poiid":"B2094757D168AAFD409F","title":"富贵面馆","lon":"121.41847898","lat":"31.20206718","category":"68","category_name":"快餐厅","address":"长宁区安顺路175号(近凯旋路)"},{"poiid":"B2094757D06FA1FA499E","title":"东华大学四教","lon":"121.41704558","lat":"31.202897596","category":"253","category_name":"校园生活","address":"上海东华大学四教"},{"poiid":"B2094757D16EA3F4449B","title":"地铁10号线虹桥路站","lon":"121.418546286","lat":"31.1987820161","category":"500","category_name":"未知分类","address":"上海水城路虹桥路"},{"poiid":"B2094757D16CA6FC469B","title":"小捞王涮涮锅","lon":"121.419352586","lat":"31.2031629017","category":"86","category_name":"火锅店","address":"长宁区凯旋路1272号(近安顺路)"},{"poiid":"B2094757D068AAFE4598","title":"东华大学(延安路校区)体育馆","lon":"121.41717524","lat":"31.2047678154","category":"224","category_name":"综合体育馆","address":"上海长宁区延安西路1882号东华大学延安路校区"},{"poiid":"B2094655D36CA4FD479E","title":"安顺路凯旋路","lon":"121.41997","lat":"31.20188","category":"38","category_name":"公交车站","address":"上海,上海市,安顺路139弄"},{"poiid":"B2094750D76FAAF54098","title":"Perry'sCafe","lon":"121.418","lat":"31.2048","category":"111","category_name":"休闲餐饮场所","address":"长宁区凯旋路1139号3楼(近凯旋路延安西路)"},{"poiid":"B2094757D068A3FC4792","title":"烧品 安顺路店","lon":"121.42227479356","lat":"31.200871461414","category":"76","category_name":"上海菜","address":"长宁区安顺路84号(定西路口)"},{"poiid":"B2094757D06BAAFF4892","title":"粤来记","lon":"121.41979","lat":"31.20057","category":"72","category_name":"广东菜","address":"长宁区凯旋路1392号(近轻轨虹桥路站)"},{"poiid":"B2094655D26FA6FB459F","title":"安东小区","lon":"121.41833","lat":"31.200823","category":"47","category_name":"住宅区","address":"安顺路181弄1-54号"},{"poiid":"B2094757D068A2FB439F","title":"德林火锅 安顺路店","lon":"121.42184769306","lat":"31.201406263465","category":"86","category_name":"火锅店","address":"长宁区安顺路90号(近定西路)"},{"poiid":"B2094750DA68A6F5439E","title":"Jeff的店","lon":"121.419944","lat":"31.20049","category":"94","category_name":"西餐厅","address":"长宁区凯旋路1456号(近虹桥路站地铁口)"},{"poiid":"B2094655D26DABFF429E","title":"莫泰168连锁旅店(凯旋路店)","lon":"121.41917","lat":"31.20297","category":"216","category_name":"经济型连锁酒店","address":"长宁区凯旋路1265号(近安顺路)"},{"poiid":"B2094655D26AABF84899","title":"一休日本料理","lon":"121.420848054","lat":"31.198122793","category":"95","category_name":"日本料理","address":"长宁区凯旋路1415号108室(安顺路口)"},{"poiid":"B2094757D765AAF9489C","title":"苏州藏书羊肉馆 安顺路店","lon":"121.419010054","lat":"31.201698793","category":"68","category_name":"快餐厅","address":"长宁区安顺路173号(近凯旋路)"},{"poiid":"B2094757D06AA4FD4393","title":"湘香阁","lon":"121.41785875116","lat":"31.201345012008","category":"77","category_name":"湖南菜","address":"长宁区安顺路142号(近凯旋路)"},{"poiid":"B2094655D265A0F8449A","title":"士百士美式汉堡外卖","lon":"121.41836","lat":"31.20169","category":"68","category_name":"快餐厅","address":"长宁区安顺路150号(近凯旋路)"},{"poiid":"B2094757D16DA6FB479F","title":"东华大学(延安路校区)逸夫楼二楼表演厅","lon":"121.417656986","lat":"31.2023785864","category":"500","category_name":"未知分类","address":"上海市长宁区延安西路1882号(近中山西路)"},{"poiid":"B2094757D065A4F94293","title":"安顺路中山西路","lon":"121.416517586","lat":"31.200978859","category":"500","category_name":"未知分类","address":"上海长宁区"},{"poiid":"B2094757D16CA1F44592","title":"重庆鸡公煲 安顺路二店","lon":"121.418198054","lat":"31.201069793","category":"71","category_name":"四川菜","address":"长宁区安顺路171号(近凯旋路)"},{"poiid":"B2094757D16AA7FD4399","title":"东北房","lon":"121.41821","lat":"31.20104","category":"82","category_name":"东北菜","address":"长宁区安顺路183号(近凯旋路)"},{"poiid":"B2094757D16AA3FA499A","title":"汉庭快捷连锁酒店(凯旋路店)","lon":"121.416063786","lat":"31.202206883","category":"217","category_name":"旅馆招待所","address":"上海市长宁区杨宅路278号(近凯旋路)"},{"poiid":"B2094750D26CA5F9439D","title":"淞虹路2号线地铁站","lon":"121.4176695594106","lat":"31.20036435738507","category":"36","category_name":"地铁站","address":"淞虹路"},{"poiid":"B2094655D265A5F8429C","title":"奇宝宠物","lon":"121.41971","lat":"31.20225","category":"129","category_name":"宠物用品店","address":"长宁区长宁路999号"},{"poiid":"B2094655D264A7F84293","title":"大吉 虹桥店 DAIKICHI","lon":"121.41989","lat":"31.2001","category":"95","category_name":"日本料理","address":"长宁区凯旋路1415号(近安顺路)"},{"poiid":"B2094757D065A6F4469E","title":"于记煲卿添","lon":"121.419936586","lat":"31.2008508565","category":"76","category_name":"上海菜","address":"长宁区凯旋路1380号(近安顺路虹桥路)"},{"poiid":"B2094655D26EA5FE459A","title":"东北一家人","lon":"121.41833389407","lat":"31.20139394153","category":"82","category_name":"东北菜","address":"安顺路171号近凯旋路口"},{"poiid":"B2094757DB69AAFC499F","title":"虹桥路轻轨站呷哺","lon":"121.4174789969176","lat":"31.20178707598521","category":"247","category_name":"餐饮美食","address":null},{"poiid":"B2094757D16CA3FD4393","title":"新安公寓","lon":"121.41745","lat":"31.20244","category":"47","category_name":"住宅区","address":"上海市长宁区安顺路158弄"},{"poiid":"B2094757D16CA4FD4793","title":"大众烧烤","lon":"121.41972898","lat":"31.200360846","category":"68","category_name":"快餐厅","address":"长宁区凯旋路1415号101室(近地铁四号线虹桥站)"},{"poiid":"B2094654D564A5FD4093","title":"安东小区(北门)","lon":"121.41812","lat":"31.20129","category":"47","category_name":"住宅区","address":"安顺路181弄1-54号"},{"poiid":"B2094757D465A4FA429A","title":"新加坡万宝泰国鱼翅","lon":"121.419610054","lat":"31.205157793","category":"247","category_name":"餐饮美食","address":"长宁区新华路660号万宝大酒店2楼(近定西路)"},{"poiid":"B2094655D268A5FC4398","title":"村夫烤鱼(安顺路)","lon":"121.41673","lat":"31.20085","category":"87","category_name":"特色／地方风味餐厅","address":"长宁区安顺路231弄17号(近杨宅路)"},{"poiid":"B2094655D26FA7FF459A","title":"古北嘉年华庭","lon":"121.416","lat":"31.1999","category":"47","category_name":"住宅区","address":"古北嘉年华庭位于长宁古北黄金城道259弄"},{"poiid":"B2094757D464A4FE499D","title":"桐庐山里人家 安顺店","lon":"121.42088676016","lat":"31.201703118439","category":"260","category_name":"其他","address":"长宁区安顺路76号(近定西路口)"},{"poiid":"B2094757D168A7FE489C","title":"安顺路48车站","lon":"121.418393","lat":"31.201459","category":"500","category_name":"未知分类","address":"上海安顺路"},{"poiid":"B2094751D06EA3FC429E","title":"泷轩御膳","lon":"121.419316","lat":"31.203704","category":"76","category_name":"上海菜","address":"长宁区凯旋路1183号(近杨宅路)"},{"poiid":"B2094655D26BA4F9439E","title":"小天堂网吧","lon":"121.41882","lat":"31.20152","category":"176","category_name":"网吧","address":"长宁区安顺路163号(凯旋路口)"},{"poiid":"B2094655D265A0F9499E","title":"易闲网吧","lon":"121.41871","lat":"31.20149","category":"176","category_name":"网吧","address":"安顺路167号"},{"poiid":"B2094757D16EA4F5419F","title":"la maison de Ivan","lon":"121.418850886","lat":"31.2009051576","category":"47","category_name":"住宅区","address":"上海Chang ning district, la rue de Hongqiao"},{"poiid":"B2094757D164ABFC429D","title":"早阳汤包","lon":"121.41722","lat":"31.20069","category":"68","category_name":"快餐厅","address":"长宁区安顺路231弄17号(近杨宅路)"},{"poiid":"B2094757D168A0FC4399","title":"假日风景保健","lon":"121.41941","lat":"31.20269","category":"149","category_name":"洗浴推拿场所","address":"上海长宁区凯旋路1265号1楼(近安顺路)  "},{"poiid":"B2094757D069A1FA439F","title":"岳阳飘湘楼(安顺店)","lon":"121.421972768","lat":"31.2015881268","category":"77","category_name":"湖南菜","address":"长宁区安顺路82号(近定西路)"},{"poiid":"B2094752DB6DA3FD419C","title":"花纹居酒屋","lon":"121.419119","lat":"31.202546","category":"247","category_name":"餐饮美食","address":"上海市 安顺路83号-1"},{"poiid":"B2094751DA6EA0F9489E","title":"沙宣美发学院红坊店","lon":"121.418449","lat":"31.201758","category":"627","category_name":"一般地点标志","address":"城市雕塑艺术中心C3-11"},{"poiid":"B2094654D564A5FD4198","title":"安顺路幼儿园","lon":"121.4175","lat":"31.20108","category":"57","category_name":"幼儿园","address":"长宁区安顺路193号(近凯旋路)"},{"poiid":"B2094757D064A5F84792","title":"当代新华","lon":"121.41978","lat":"31.202715","category":"500","category_name":"未知分类","address":"上海市长宁区新华路569弄99号"},{"poiid":"B2094752D46DABFD4993","title":"Las  tapas乐泰","lon":"121.420272","lat":"31.201231","category":"247","category_name":"餐饮美食","address":"淮海西路570号C6"},{"poiid":"B2094757D764A5F54499","title":"星期一便当 安顺路店","lon":"121.41648","lat":"31.20078","category":"68","category_name":"快餐厅","address":"长宁区安顺路209号(近中山西路)"},{"poiid":"B2094654D564A6F5489D","title":"文峰美发美容(凯旋路)","lon":"121.41969","lat":"31.20224","category":"148","category_name":"美容美发店","address":"凯旋路1338识别"},{"poiid":"B2094757D168AAFD409F","title":"富贵面馆","lon":"121.41847898","lat":"31.20206718","category":"68","category_name":"快餐厅","address":"长宁区安顺路175号(近凯旋路)"},{"poiid":"B2094757D06FA1FA499E","title":"东华大学四教","lon":"121.41704558","lat":"31.202897596","category":"253","category_name":"校园生活","address":"上海东华大学四教"},{"poiid":"B2094757D16EA3F4449B","title":"地铁10号线虹桥路站","lon":"121.418546286","lat":"31.1987820161","category":"500","category_name":"未知分类","address":"上海水城路虹桥路"},{"poiid":"B2094757D16CA6FC469B","title":"小捞王涮涮锅","lon":"121.419352586","lat":"31.2031629017","category":"86","category_name":"火锅店","address":"长宁区凯旋路1272号(近安顺路)"},{"poiid":"B2094757D068AAFE4598","title":"东华大学(延安路校区)体育馆","lon":"121.41717524","lat":"31.2047678154","category":"224","category_name":"综合体育馆","address":"上海长宁区延安西路1882号东华大学延安路校区"},{"poiid":"B2094655D36CA4FD479E","title":"安顺路凯旋路","lon":"121.41997","lat":"31.20188","category":"38","category_name":"公交车站","address":"上海,上海市,安顺路139弄"},{"poiid":"B2094750D76FAAF54098","title":"Perry'sCafe","lon":"121.418","lat":"31.2048","category":"111","category_name":"休闲餐饮场所","address":"长宁区凯旋路1139号3楼(近凯旋路延安西路)"},{"poiid":"B2094757D068A3FC4792","title":"烧品 安顺路店","lon":"121.42227479356","lat":"31.200871461414","category":"76","category_name":"上海菜","address":"长宁区安顺路84号(定西路口)"},{"poiid":"B2094757D06BAAFF4892","title":"粤来记","lon":"121.41979","lat":"31.20057","category":"72","category_name":"广东菜","address":"长宁区凯旋路1392号(近轻轨虹桥路站)"},{"poiid":"B2094655D26FA6FB459F","title":"安东小区","lon":"121.41833","lat":"31.200823","category":"47","category_name":"住宅区","address":"安顺路181弄1-54号"},{"poiid":"B2094757D068A2FB439F","title":"德林火锅 安顺路店","lon":"121.42184769306","lat":"31.201406263465","category":"86","category_name":"火锅店","address":"长宁区安顺路90号(近定西路)"},{"poiid":"B2094750DA68A6F5439E","title":"Jeff的店","lon":"121.419944","lat":"31.20049","category":"94","category_name":"西餐厅","address":"长宁区凯旋路1456号(近虹桥路站地铁口)"},{"poiid":"B2094655D26DABFF429E","title":"莫泰168连锁旅店(凯旋路店)","lon":"121.41917","lat":"31.20297","category":"216","category_name":"经济型连锁酒店","address":"长宁区凯旋路1265号(近安顺路)"},{"poiid":"B2094655D26AABF84899","title":"一休日本料理","lon":"121.420848054","lat":"31.198122793","category":"95","category_name":"日本料理","address":"长宁区凯旋路1415号108室(安顺路口)"},{"poiid":"B2094757D765AAF9489C","title":"苏州藏书羊肉馆 安顺路店","lon":"121.419010054","lat":"31.201698793","category":"68","category_name":"快餐厅","address":"长宁区安顺路173号(近凯旋路)"},{"poiid":"B2094757D06AA4FD4393","title":"湘香阁","lon":"121.41785875116","lat":"31.201345012008","category":"77","category_name":"湖南菜","address":"长宁区安顺路142号(近凯旋路)"},{"poiid":"B2094655D265A0F8449A","title":"士百士美式汉堡外卖","lon":"121.41836","lat":"31.20169","category":"68","category_name":"快餐厅","address":"长宁区安顺路150号(近凯旋路)"},{"poiid":"B2094757D16DA6FB479F","title":"东华大学(延安路校区)逸夫楼二楼表演厅","lon":"121.417656986","lat":"31.2023785864","category":"500","category_name":"未知分类","address":"上海市长宁区延安西路1882号(近中山西路)"},{"poiid":"B2094757D065A4F94293","title":"安顺路中山西路","lon":"121.416517586","lat":"31.200978859","category":"500","category_name":"未知分类","address":"上海长宁区"},{"poiid":"B2094757D16CA1F44592","title":"重庆鸡公煲 安顺路二店","lon":"121.418198054","lat":"31.201069793","category":"71","category_name":"四川菜","address":"长宁区安顺路171号(近凯旋路)"},{"poiid":"B2094757D16AA7FD4399","title":"东北房","lon":"121.41821","lat":"31.20104","category":"82","category_name":"东北菜","address":"长宁区安顺路183号(近凯旋路)"},{"poiid":"B2094757D16AA3FA499A","title":"汉庭快捷连锁酒店(凯旋路店)","lon":"121.416063786","lat":"31.202206883","category":"217","category_name":"旅馆招待所","address":"上海市长宁区杨宅路278号(近凯旋路)"},{"poiid":"B2094750D26CA5F9439D","title":"淞虹路2号线地铁站","lon":"121.4176695594106","lat":"31.20036435738507","category":"36","category_name":"地铁站","address":"淞虹路"},{"poiid":"B2094655D265A5F8429C","title":"奇宝宠物","lon":"121.41971","lat":"31.20225","category":"129","category_name":"宠物用品店","address":"长宁区长宁路999号"},{"poiid":"B2094655D264A7F84293","title":"大吉 虹桥店 DAIKICHI","lon":"121.41989","lat":"31.2001","category":"95","category_name":"日本料理","address":"长宁区凯旋路1415号(近安顺路)"},{"poiid":"B2094757D065A6F4469E","title":"于记煲卿添","lon":"121.419936586","lat":"31.2008508565","category":"76","category_name":"上海菜","address":"长宁区凯旋路1380号(近安顺路虹桥路)"},{"poiid":"B2094655D26EA5FE459A","title":"东北一家人","lon":"121.41833389407","lat":"31.20139394153","category":"82","category_name":"东北菜","address":"安顺路171号近凯旋路口"},{"poiid":"B2094757DB69AAFC499F","title":"虹桥路轻轨站呷哺","lon":"121.4174789969176","lat":"31.20178707598521","category":"247","category_name":"餐饮美食","address":null},{"poiid":"B2094757D16CA3FD4393","title":"新安公寓","lon":"121.41745","lat":"31.20244","category":"47","category_name":"住宅区","address":"上海市长宁区安顺路158弄"},{"poiid":"B2094757D16CA4FD4793","title":"大众烧烤","lon":"121.41972898","lat":"31.200360846","category":"68","category_name":"快餐厅","address":"长宁区凯旋路1415号101室(近地铁四号线虹桥站)"},{"poiid":"B2094654D564A5FD4093","title":"安东小区(北门)","lon":"121.41812","lat":"31.20129","category":"47","category_name":"住宅区","address":"安顺路181弄1-54号"},{"poiid":"B2094757D465A4FA429A","title":"新加坡万宝泰国鱼翅","lon":"121.419610054","lat":"31.205157793","category":"247","category_name":"餐饮美食","address":"长宁区新华路660号万宝大酒店2楼(近定西路)"},{"poiid":"B2094655D268A5FC4398","title":"村夫烤鱼(安顺路)","lon":"121.41673","lat":"31.20085","category":"87","category_name":"特色／地方风味餐厅","address":"长宁区安顺路231弄17号(近杨宅路)"},{"poiid":"B2094655D26FA7FF459A","title":"古北嘉年华庭","lon":"121.416","lat":"31.1999","category":"47","category_name":"住宅区","address":"古北嘉年华庭位于长宁古北黄金城道259弄"},{"poiid":"B2094757D464A4FE499D","title":"桐庐山里人家 安顺店","lon":"121.42088676016","lat":"31.201703118439","category":"260","category_name":"其他","address":"长宁区安顺路76号(近定西路口)"},{"poiid":"B2094757D168A7FE489C","title":"安顺路48车站","lon":"121.418393","lat":"31.201459","category":"500","category_name":"未知分类","address":"上海安顺路"},{"poiid":"B2094751D06EA3FC429E","title":"泷轩御膳","lon":"121.419316","lat":"31.203704","category":"76","category_name":"上海菜","address":"长宁区凯旋路1183号(近杨宅路)"},{"poiid":"B2094655D26BA4F9439E","title":"小天堂网吧","lon":"121.41882","lat":"31.20152","category":"176","category_name":"网吧","address":"长宁区安顺路163号(凯旋路口)"},{"poiid":"B2094655D265A0F9499E","title":"易闲网吧","lon":"121.41871","lat":"31.20149","category":"176","category_name":"网吧","address":"安顺路167号"},{"poiid":"B2094757D16EA4F5419F","title":"la maison de Ivan","lon":"121.418850886","lat":"31.2009051576","category":"47","category_name":"住宅区","address":"上海Chang ning district, la rue de Hongqiao"},{"poiid":"B2094757D164ABFC429D","title":"早阳汤包","lon":"121.41722","lat":"31.20069","category":"68","category_name":"快餐厅","address":"长宁区安顺路231弄17号(近杨宅路)"},{"poiid":"B2094757D168A0FC4399","title":"假日风景保健","lon":"121.41941","lat":"31.20269","category":"149","category_name":"洗浴推拿场所","address":"上海长宁区凯旋路1265号1楼(近安顺路)  "},{"poiid":"B2094757D069A1FA439F","title":"岳阳飘湘楼(安顺店)","lon":"121.421972768","lat":"31.2015881268","category":"77","category_name":"湖南菜","address":"长宁区安顺路82号(近定西路)"},{"poiid":"B2094752DB6DA3FD419C","title":"花纹居酒屋","lon":"121.419119","lat":"31.202546","category":"247","category_name":"餐饮美食","address":"上海市 安顺路83号-1"},{"poiid":"B2094751DA6EA0F9489E","title":"沙宣美发学院红坊店","lon":"121.418449","lat":"31.201758","category":"627","category_name":"一般地点标志","address":"城市雕塑艺术中心C3-11"},{"poiid":"B2094654D564A5FD4198","title":"安顺路幼儿园","lon":"121.4175","lat":"31.20108","category":"57","category_name":"幼儿园","address":"长宁区安顺路193号(近凯旋路)"},{"poiid":"B2094757D064A5F84792","title":"当代新华","lon":"121.41978","lat":"31.202715","category":"500","category_name":"未知分类","address":"上海市长宁区新华路569弄99号"},{"poiid":"B2094752D46DABFD4993","title":"Las  tapas乐泰","lon":"121.420272","lat":"31.201231","category":"247","category_name":"餐饮美食","address":"淮海西路570号C6"},{"poiid":"B2094757D764A5F54499","title":"星期一便当 安顺路店","lon":"121.41648","lat":"31.20078","category":"68","category_name":"快餐厅","address":"长宁区安顺路209号(近中山西路)"},{"poiid":"B2094654D564A6F5489D","title":"文峰美发美容(凯旋路)","lon":"121.41969","lat":"31.20224","category":"148","category_name":"美容美发店","address":"凯旋路1338识别"},{"poiid":"B2094757D168AAFD409F","title":"富贵面馆","lon":"121.41847898","lat":"31.20206718","category":"68","category_name":"快餐厅","address":"长宁区安顺路175号(近凯旋路)"},{"poiid":"B2094757D06FA1FA499E","title":"东华大学四教","lon":"121.41704558","lat":"31.202897596","category":"253","category_name":"校园生活","address":"上海东华大学四教"},{"poiid":"B2094757D16EA3F4449B","title":"地铁10号线虹桥路站","lon":"121.418546286","lat":"31.1987820161","category":"500","category_name":"未知分类","address":"上海水城路虹桥路"},{"poiid":"B2094757D16CA6FC469B","title":"小捞王涮涮锅","lon":"121.419352586","lat":"31.2031629017","category":"86","category_name":"火锅店","address":"长宁区凯旋路1272号(近安顺路)"},{"poiid":"B2094757D068AAFE4598","title":"东华大学(延安路校区)体育馆","lon":"121.41717524","lat":"31.2047678154","category":"224","category_name":"综合体育馆","address":"上海长宁区延安西路1882号东华大学延安路校区"},{"poiid":"B2094655D36CA4FD479E","title":"安顺路凯旋路","lon":"121.41997","lat":"31.20188","category":"38","category_name":"公交车站","address":"上海,上海市,安顺路139弄"},{"poiid":"B2094750D76FAAF54098","title":"Perry'sCafe","lon":"121.418","lat":"31.2048","category":"111","category_name":"休闲餐饮场所","address":"长宁区凯旋路1139号3楼(近凯旋路延安西路)"},{"poiid":"B2094757D068A3FC4792","title":"烧品 安顺路店","lon":"121.42227479356","lat":"31.200871461414","category":"76","category_name":"上海菜","address":"长宁区安顺路84号(定西路口)"},{"poiid":"B2094757D06BAAFF4892","title":"粤来记","lon":"121.41979","lat":"31.20057","category":"72","category_name":"广东菜","address":"长宁区凯旋路1392号(近轻轨虹桥路站)"},{"poiid":"B2094655D26FA6FB459F","title":"安东小区","lon":"121.41833","lat":"31.200823","category":"47","category_name":"住宅区","address":"安顺路181弄1-54号"},{"poiid":"B2094757D068A2FB439F","title":"德林火锅 安顺路店","lon":"121.42184769306","lat":"31.201406263465","category":"86","category_name":"火锅店","address":"长宁区安顺路90号(近定西路)"},{"poiid":"B2094750DA68A6F5439E","title":"Jeff的店","lon":"121.419944","lat":"31.20049","category":"94","category_name":"西餐厅","address":"长宁区凯旋路1456号(近虹桥路站地铁口)"},{"poiid":"B2094655D26DABFF429E","title":"莫泰168连锁旅店(凯旋路店)","lon":"121.41917","lat":"31.20297","category":"216","category_name":"经济型连锁酒店","address":"长宁区凯旋路1265号(近安顺路)"},{"poiid":"B2094655D26AABF84899","title":"一休日本料理","lon":"121.420848054","lat":"31.198122793","category":"95","category_name":"日本料理","address":"长宁区凯旋路1415号108室(安顺路口)"},{"poiid":"B2094757D765AAF9489C","title":"苏州藏书羊肉馆 安顺路店","lon":"121.419010054","lat":"31.201698793","category":"68","category_name":"快餐厅","address":"长宁区安顺路173号(近凯旋路)"},{"poiid":"B2094757D06AA4FD4393","title":"湘香阁","lon":"121.41785875116","lat":"31.201345012008","category":"77","category_name":"湖南菜","address":"长宁区安顺路142号(近凯旋路)"},{"poiid":"B2094655D265A0F8449A","title":"士百士美式汉堡外卖","lon":"121.41836","lat":"31.20169","category":"68","category_name":"快餐厅","address":"长宁区安顺路150号(近凯旋路)"},{"poiid":"B2094757D16DA6FB479F","title":"东华大学(延安路校区)逸夫楼二楼表演厅","lon":"121.417656986","lat":"31.2023785864","category":"500","category_name":"未知分类","address":"上海市长宁区延安西路1882号(近中山西路)"},{"poiid":"B2094757D065A4F94293","title":"安顺路中山西路","lon":"121.416517586","lat":"31.200978859","category":"500","category_name":"未知分类","address":"上海长宁区"},{"poiid":"B2094757D16CA1F44592","title":"重庆鸡公煲 安顺路二店","lon":"121.418198054","lat":"31.201069793","category":"71","category_name":"四川菜","address":"长宁区安顺路171号(近凯旋路)"},{"poiid":"B2094757D16AA7FD4399","title":"东北房","lon":"121.41821","lat":"31.20104","category":"82","category_name":"东北菜","address":"长宁区安顺路183号(近凯旋路)"},{"poiid":"B2094757D16AA3FA499A","title":"汉庭快捷连锁酒店(凯旋路店)","lon":"121.416063786","lat":"31.202206883","category":"217","category_name":"旅馆招待所","address":"上海市长宁区杨宅路278号(近凯旋路)"},{"poiid":"B2094750D26CA5F9439D","title":"淞虹路2号线地铁站","lon":"121.4176695594106","lat":"31.20036435738507","category":"36","category_name":"地铁站","address":"淞虹路"},{"poiid":"B2094655D265A5F8429C","title":"奇宝宠物","lon":"121.41971","lat":"31.20225","category":"129","category_name":"宠物用品店","address":"长宁区长宁路999号"},{"poiid":"B2094655D264A7F84293","title":"大吉 虹桥店 DAIKICHI","lon":"121.41989","lat":"31.2001","category":"95","category_name":"日本料理","address":"长宁区凯旋路1415号(近安顺路)"},{"poiid":"B2094757D065A6F4469E","title":"于记煲卿添","lon":"121.419936586","lat":"31.2008508565","category":"76","category_name":"上海菜","address":"长宁区凯旋路1380号(近安顺路虹桥路)"},{"poiid":"B2094655D26EA5FE459A","title":"东北一家人","lon":"121.41833389407","lat":"31.20139394153","category":"82","category_name":"东北菜","address":"安顺路171号近凯旋路口"},{"poiid":"B2094757DB69AAFC499F","title":"虹桥路轻轨站呷哺","lon":"121.4174789969176","lat":"31.20178707598521","category":"247","category_name":"餐饮美食","address":null},{"poiid":"B2094757D16CA3FD4393","title":"新安公寓","lon":"121.41745","lat":"31.20244","category":"47","category_name":"住宅区","address":"上海市长宁区安顺路158弄"},{"poiid":"B2094757D16CA4FD4793","title":"大众烧烤","lon":"121.41972898","lat":"31.200360846","category":"68","category_name":"快餐厅","address":"长宁区凯旋路1415号101室(近地铁四号线虹桥站)"},{"poiid":"B2094654D564A5FD4093","title":"安东小区(北门)","lon":"121.41812","lat":"31.20129","category":"47","category_name":"住宅区","address":"安顺路181弄1-54号"},{"poiid":"B2094757D465A4FA429A","title":"新加坡万宝泰国鱼翅","lon":"121.419610054","lat":"31.205157793","category":"247","category_name":"餐饮美食","address":"长宁区新华路660号万宝大酒店2楼(近定西路)"},{"poiid":"B2094655D268A5FC4398","title":"村夫烤鱼(安顺路)","lon":"121.41673","lat":"31.20085","category":"87","category_name":"特色／地方风味餐厅","address":"长宁区安顺路231弄17号(近杨宅路)"},{"poiid":"B2094655D26FA7FF459A","title":"古北嘉年华庭","lon":"121.416","lat":"31.1999","category":"47","category_name":"住宅区","address":"古北嘉年华庭位于长宁古北黄金城道259弄"},{"poiid":"B2094757D464A4FE499D","title":"桐庐山里人家 安顺店","lon":"121.42088676016","lat":"31.201703118439","category":"260","category_name":"其他","address":"长宁区安顺路76号(近定西路口)"},{"poiid":"B2094757D168A7FE489C","title":"安顺路48车站","lon":"121.418393","lat":"31.201459","category":"500","category_name":"未知分类","address":"上海安顺路"},{"poiid":"B2094751D06EA3FC429E","title":"泷轩御膳","lon":"121.419316","lat":"31.203704","category":"76","category_name":"上海菜","address":"长宁区凯旋路1183号(近杨宅路)"},{"poiid":"B2094655D26BA4F9439E","title":"小天堂网吧","lon":"121.41882","lat":"31.20152","category":"176","category_name":"网吧","address":"长宁区安顺路163号(凯旋路口)"},{"poiid":"B2094655D265A0F9499E","title":"易闲网吧","lon":"121.41871","lat":"31.20149","category":"176","category_name":"网吧","address":"安顺路167号"},{"poiid":"B2094757D16EA4F5419F","title":"la maison de Ivan","lon":"121.418850886","lat":"31.2009051576","category":"47","category_name":"住宅区","address":"上海Chang ning district, la rue de Hongqiao"},{"poiid":"B2094757D164ABFC429D","title":"早阳汤包","lon":"121.41722","lat":"31.20069","category":"68","category_name":"快餐厅","address":"长宁区安顺路231弄17号(近杨宅路)"},{"poiid":"B2094757D168A0FC4399","title":"假日风景保健","lon":"121.41941","lat":"31.20269","category":"149","category_name":"洗浴推拿场所","address":"上海长宁区凯旋路1265号1楼(近安顺路)  "},{"poiid":"B2094757D069A1FA439F","title":"岳阳飘湘楼(安顺店)","lon":"121.421972768","lat":"31.2015881268","category":"77","category_name":"湖南菜","address":"长宁区安顺路82号(近定西路)"},{"poiid":"B2094752DB6DA3FD419C","title":"花纹居酒屋","lon":"121.419119","lat":"31.202546","category":"247","category_name":"餐饮美食","address":"上海市 安顺路83号-1"},{"poiid":"B2094751DA6EA0F9489E","title":"沙宣美发学院红坊店","lon":"121.418449","lat":"31.201758","category":"627","category_name":"一般地点标志","address":"城市雕塑艺术中心C3-11"},{"poiid":"B2094654D564A5FD4198","title":"安顺路幼儿园","lon":"121.4175","lat":"31.20108","category":"57","category_name":"幼儿园","address":"长宁区安顺路193号(近凯旋路)"},{"poiid":"B2094757D064A5F84792","title":"当代新华","lon":"121.41978","lat":"31.202715","category":"500","category_name":"未知分类","address":"上海市长宁区新华路569弄99号"},{"poiid":"B2094752D46DABFD4993","title":"Las  tapas乐泰","lon":"121.420272","lat":"31.201231","category":"247","category_name":"餐饮美食","address":"淮海西路570号C6"},{"poiid":"B2094757D764A5F54499","title":"星期一便当 安顺路店","lon":"121.41648","lat":"31.20078","category":"68","category_name":"快餐厅","address":"长宁区安顺路209号(近中山西路)"},{"poiid":"B2094654D564A6F5489D","title":"文峰美发美容(凯旋路)","lon":"121.41969","lat":"31.20224","category":"148","category_name":"美容美发店","address":"凯旋路1338识别"},{"poiid":"B2094757D168AAFD409F","title":"富贵面馆","lon":"121.41847898","lat":"31.20206718","category":"68","category_name":"快餐厅","address":"长宁区安顺路175号(近凯旋路)"},{"poiid":"B2094757D06FA1FA499E","title":"东华大学四教","lon":"121.41704558","lat":"31.202897596","category":"253","category_name":"校园生活","address":"上海东华大学四教"},{"poiid":"B2094757D16EA3F4449B","title":"地铁10号线虹桥路站","lon":"121.418546286","lat":"31.1987820161","category":"500","category_name":"未知分类","address":"上海水城路虹桥路"},{"poiid":"B2094757D16CA6FC469B","title":"小捞王涮涮锅","lon":"121.419352586","lat":"31.2031629017","category":"86","category_name":"火锅店","address":"长宁区凯旋路1272号(近安顺路)"},{"poiid":"B2094757D068AAFE4598","title":"东华大学(延安路校区)体育馆","lon":"121.41717524","lat":"31.2047678154","category":"224","category_name":"综合体育馆","address":"上海长宁区延安西路1882号东华大学延安路校区"},{"poiid":"B2094655D36CA4FD479E","title":"安顺路凯旋路","lon":"121.41997","lat":"31.20188","category":"38","category_name":"公交车站","address":"上海,上海市,安顺路139弄"},{"poiid":"B2094750D76FAAF54098","title":"Perry'sCafe","lon":"121.418","lat":"31.2048","category":"111","category_name":"休闲餐饮场所","address":"长宁区凯旋路1139号3楼(近凯旋路延安西路)"},{"poiid":"B2094757D068A3FC4792","title":"烧品 安顺路店","lon":"121.42227479356","lat":"31.200871461414","category":"76","category_name":"上海菜","address":"长宁区安顺路84号(定西路口)"},{"poiid":"B2094757D06BAAFF4892","title":"粤来记","lon":"121.41979","lat":"31.20057","category":"72","category_name":"广东菜","address":"长宁区凯旋路1392号(近轻轨虹桥路站)"},{"poiid":"B2094655D26FA6FB459F","title":"安东小区","lon":"121.41833","lat":"31.200823","category":"47","category_name":"住宅区","address":"安顺路181弄1-54号"},{"poiid":"B2094757D068A2FB439F","title":"德林火锅 安顺路店","lon":"121.42184769306","lat":"31.201406263465","category":"86","category_name":"火锅店","address":"长宁区安顺路90号(近定西路)"},{"poiid":"B2094750DA68A6F5439E","title":"Jeff的店","lon":"121.419944","lat":"31.20049","category":"94","category_name":"西餐厅","address":"长宁区凯旋路1456号(近虹桥路站地铁口)"},{"poiid":"B2094655D26DABFF429E","title":"莫泰168连锁旅店(凯旋路店)","lon":"121.41917","lat":"31.20297","category":"216","category_name":"经济型连锁酒店","address":"长宁区凯旋路1265号(近安顺路)"},{"poiid":"B2094655D26AABF84899","title":"一休日本料理","lon":"121.420848054","lat":"31.198122793","category":"95","category_name":"日本料理","address":"长宁区凯旋路1415号108室(安顺路口)"},{"poiid":"B2094757D765AAF9489C","title":"苏州藏书羊肉馆 安顺路店","lon":"121.419010054","lat":"31.201698793","category":"68","category_name":"快餐厅","address":"长宁区安顺路173号(近凯旋路)"},{"poiid":"B2094757D06AA4FD4393","title":"湘香阁","lon":"121.41785875116","lat":"31.201345012008","category":"77","category_name":"湖南菜","address":"长宁区安顺路142号(近凯旋路)"},{"poiid":"B2094655D265A0F8449A","title":"士百士美式汉堡外卖","lon":"121.41836","lat":"31.20169","category":"68","category_name":"快餐厅","address":"长宁区安顺路150号(近凯旋路)"},{"poiid":"B2094757D16DA6FB479F","title":"东华大学(延安路校区)逸夫楼二楼表演厅","lon":"121.417656986","lat":"31.2023785864","category":"500","category_name":"未知分类","address":"上海市长宁区延安西路1882号(近中山西路)"},{"poiid":"B2094757D065A4F94293","title":"安顺路中山西路","lon":"121.416517586","lat":"31.200978859","category":"500","category_name":"未知分类","address":"上海长宁区"},{"poiid":"B2094757D16CA1F44592","title":"重庆鸡公煲 安顺路二店","lon":"121.418198054","lat":"31.201069793","category":"71","category_name":"四川菜","address":"长宁区安顺路171号(近凯旋路)"},{"poiid":"B2094757D16AA7FD4399","title":"东北房","lon":"121.41821","lat":"31.20104","category":"82","category_name":"东北菜","address":"长宁区安顺路183号(近凯旋路)"},{"poiid":"B2094757D16AA3FA499A","title":"汉庭快捷连锁酒店(凯旋路店)","lon":"121.416063786","lat":"31.202206883","category":"217","category_name":"旅馆招待所","address":"上海市长宁区杨宅路278号(近凯旋路)"},{"poiid":"B2094750D26CA5F9439D","title":"淞虹路2号线地铁站","lon":"121.4176695594106","lat":"31.20036435738507","category":"36","category_name":"地铁站","address":"淞虹路"},{"poiid":"B2094655D265A5F8429C","title":"奇宝宠物","lon":"121.41971","lat":"31.20225","category":"129","category_name":"宠物用品店","address":"长宁区长宁路999号"},{"poiid":"B2094655D264A7F84293","title":"大吉 虹桥店 DAIKICHI","lon":"121.41989","lat":"31.2001","category":"95","category_name":"日本料理","address":"长宁区凯旋路1415号(近安顺路)"},{"poiid":"B2094757D065A6F4469E","title":"于记煲卿添","lon":"121.419936586","lat":"31.2008508565","category":"76","category_name":"上海菜","address":"长宁区凯旋路1380号(近安顺路虹桥路)"},{"poiid":"B2094655D26EA5FE459A","title":"东北一家人","lon":"121.41833389407","lat":"31.20139394153","category":"82","category_name":"东北菜","address":"安顺路171号近凯旋路口"},{"poiid":"B2094757DB69AAFC499F","title":"虹桥路轻轨站呷哺","lon":"121.4174789969176","lat":"31.20178707598521","category":"247","category_name":"餐饮美食","address":null},{"poiid":"B2094757D16CA3FD4393","title":"新安公寓","lon":"121.41745","lat":"31.20244","category":"47","category_name":"住宅区","address":"上海市长宁区安顺路158弄"},{"poiid":"B2094757D16CA4FD4793","title":"大众烧烤","lon":"121.41972898","lat":"31.200360846","category":"68","category_name":"快餐厅","address":"长宁区凯旋路1415号101室(近地铁四号线虹桥站)"},{"poiid":"B2094654D564A5FD4093","title":"安东小区(北门)","lon":"121.41812","lat":"31.20129","category":"47","category_name":"住宅区","address":"安顺路181弄1-54号"},{"poiid":"B2094757D465A4FA429A","title":"新加坡万宝泰国鱼翅","lon":"121.419610054","lat":"31.205157793","category":"247","category_name":"餐饮美食","address":"长宁区新华路660号万宝大酒店2楼(近定西路)"},{"poiid":"B2094655D268A5FC4398","title":"村夫烤鱼(安顺路)","lon":"121.41673","lat":"31.20085","category":"87","category_name":"特色／地方风味餐厅","address":"长宁区安顺路231弄17号(近杨宅路)"},{"poiid":"B2094655D26FA7FF459A","title":"古北嘉年华庭","lon":"121.416","lat":"31.1999","category":"47","category_name":"住宅区","address":"古北嘉年华庭位于长宁古北黄金城道259弄"},{"poiid":"B2094757D464A4FE499D","title":"桐庐山里人家 安顺店","lon":"121.42088676016","lat":"31.201703118439","category":"260","category_name":"其他","address":"长宁区安顺路76号(近定西路口)"},{"poiid":"B2094757D168A7FE489C","title":"安顺路48车站","lon":"121.418393","lat":"31.201459","category":"500","category_name":"未知分类","address":"上海安顺路"},{"poiid":"B2094751D06EA3FC429E","title":"泷轩御膳","lon":"121.419316","lat":"31.203704","category":"76","category_name":"上海菜","address":"长宁区凯旋路1183号(近杨宅路)"},{"poiid":"B2094655D26BA4F9439E","title":"小天堂网吧","lon":"121.41882","lat":"31.20152","category":"176","category_name":"网吧","address":"长宁区安顺路163号(凯旋路口)"},{"poiid":"B2094655D265A0F9499E","title":"易闲网吧","lon":"121.41871","lat":"31.20149","category":"176","category_name":"网吧","address":"安顺路167号"},{"poiid":"B2094757D16EA4F5419F","title":"la maison de Ivan","lon":"121.418850886","lat":"31.2009051576","category":"47","category_name":"住宅区","address":"上海Chang ning district, la rue de Hongqiao"},{"poiid":"B2094757D164ABFC429D","title":"早阳汤包","lon":"121.41722","lat":"31.20069","category":"68","category_name":"快餐厅","address":"长宁区安顺路231弄17号(近杨宅路)"},{"poiid":"B2094757D168A0FC4399","title":"假日风景保健","lon":"121.41941","lat":"31.20269","category":"149","category_name":"洗浴推拿场所","address":"上海长宁区凯旋路1265号1楼(近安顺路)  "},{"poiid":"B2094757D069A1FA439F","title":"岳阳飘湘楼(安顺店)","lon":"121.421972768","lat":"31.2015881268","category":"77","category_name":"湖南菜","address":"长宁区安顺路82号(近定西路)"},{"poiid":"B2094752DB6DA3FD419C","title":"花纹居酒屋","lon":"121.419119","lat":"31.202546","category":"247","category_name":"餐饮美食","address":"上海市 安顺路83号-1"},{"poiid":"B2094751DA6EA0F9489E","title":"沙宣美发学院红坊店","lon":"121.418449","lat":"31.201758","category":"627","category_name":"一般地点标志","address":"城市雕塑艺术中心C3-11"},{"poiid":"B2094654D564A5FD4198","title":"安顺路幼儿园","lon":"121.4175","lat":"31.20108","category":"57","category_name":"幼儿园","address":"长宁区安顺路193号(近凯旋路)"},{"poiid":"B2094757D064A5F84792","title":"当代新华","lon":"121.41978","lat":"31.202715","category":"500","category_name":"未知分类","address":"上海市长宁区新华路569弄99号"},{"poiid":"B2094752D46DABFD4993","title":"Las  tapas乐泰","lon":"121.420272","lat":"31.201231","category":"247","category_name":"餐饮美食","address":"淮海西路570号C6"},{"poiid":"B2094757D764A5F54499","title":"星期一便当 安顺路店","lon":"121.41648","lat":"31.20078","category":"68","category_name":"快餐厅","address":"长宁区安顺路209号(近中山西路)"},{"poiid":"B2094654D564A6F5489D","title":"文峰美发美容(凯旋路)","lon":"121.41969","lat":"31.20224","category":"148","category_name":"美容美发店","address":"凯旋路1338识别"}]