[{"poiid":"B2094654DB65A6F84598","title":"上海虹桥国际机场","lon":"121.34635","lat":"31.19389","category":"21","category_name":"飞机场","address":"上海长宁区虹桥路2550号,虹桥机场"},{"poiid":"B2094757D06EAAF4459C","title":"虹桥机场T2国内到达","lon":"121.331958484","lat":"31.1932846989","category":"21","category_name":"飞机场","address":"上海虹桥国际机场2号航站楼国内到达"},{"poiid":"B2094757D068A2F9409E","title":"虹桥机场二号航站楼","lon":"121.330553983","lat":"31.1929794276","category":"21","category_name":"飞机场","address":"闵行区虹桥路2550号"},{"poiid":"B2094757D068AAF84192","title":"虹桥机场2号航站楼57号登机口","lon":"121.33144462","lat":"31.192239106","category":"21","category_name":"飞机场","address":"上海虹桥机场T2"},{"poiid":"B2094757D06EAAFA4298","title":"虹桥机场2号航站楼V5东航头等舱贵宾室","lon":"121.32996582","lat":"31.191440894","category":"21","category_name":"飞机场","address":"上海虹桥国际机场T2(安检后右转56号登机口附近)"},{"poiid":"B2094757D068A0FC479E","title":"虹桥机场2号航站楼停车楼","lon":"121.33460044","lat":"31.1880699682","category":"21","category_name":"飞机场","address":"上海虹桥机场T2"},{"poiid":"B2094757D165AAF9479C","title":"虹桥机场T2航站楼61号登机口","lon":"121.33196256","lat":"31.192095843","category":"21","category_name":"飞机场","address":"海外上海上海市閔行区七莘路"},{"poiid":"B2094757D06EAAFC499B","title":"星巴克 STARBUCKS (虹桥西航站店)","lon":"121.33209661","lat":"31.193204668","category":"65","category_name":"咖啡厅","address":"闵行区申达一路1号虹桥机场T2候机楼C3-M2-S28(近6号出口)"},{"poiid":"B2094757D06EAAFE489C","title":"虹桥机场停机坪","lon":"121.3352766","lat":"31.19801799","category":"21","category_name":"飞机场","address":"上海虹桥国际机场2号航站楼停机坪"},{"poiid":"B2094757D069A7FD439E","title":"虹桥机场2号航站楼30号登机口","lon":"121.332274223","lat":"31.1968882342","category":"21","category_name":"飞机场","address":"上海虹桥机场T2"},{"poiid":"B2094655D36CA7F84593","title":"虹桥2号航站楼","lon":"121.32741","lat":"31.1924","category":"38","category_name":"公交车站","address":""},{"poiid":"B2094757D06EAAF44993","title":"虹桥机场2号航站楼头等舱休息室","lon":"121.32907425","lat":"31.19658545","category":"21","category_name":"飞机场","address":"上海虹桥机场国际机场T2"},{"poiid":"B2094757D06FAAFF439B","title":"虹桥机场2号航站楼V1头等舱贵宾室","lon":"121.33340227","lat":"31.19688863","category":"21","category_name":"飞机场","address":"上海虹桥国际机场T2(近25、26号登机口)"},{"poiid":"B2094655D265A4F44892","title":"虹桥机场2号航站楼(出发)","lon":"121.32621","lat":"31.1947","category":"21","category_name":"飞机场","address":"上海虹桥国际机场2号航站楼 T2"},{"poiid":"B2094757D165A2F5429E","title":"虹桥机场2号航站楼","lon":"121.32848056","lat":"31.1976779609","category":"21","category_name":"飞机场","address":"长宁区七莘路申昆路"},{"poiid":"B2094655D265A7FD499B","title":"上海虹桥机场","lon":"121.3262","lat":"31.1947","category":"21","category_name":"飞机场","address":""},{"poiid":"B2094757D169A4FB4099","title":"上海虹桥机场T1航站楼A10登机口","lon":"121.34647116","lat":"31.195816521","category":"21","category_name":"飞机场","address":"上海虹桥机场"},{"poiid":"B2094757D165A4F84393","title":"虹桥机场2号航站楼56号登机口","lon":"121.32980556","lat":"31.191994841","category":"21","category_name":"飞机场","address":"上海虹桥机场2号航站楼"},{"poiid":"B2094757D064AAFE419D","title":"虹桥机场2号航站楼48号登机口","lon":"121.32765506","lat":"31.189663091","category":"21","category_name":"飞机场","address":"上海虹桥机场T2"},{"poiid":"B2094757D06AA2F8489F","title":"虹桥机场2号航站楼42号登机口","lon":"121.32945656","lat":"31.1968459433","category":"21","category_name":"飞机场","address":"上海虹桥机场T2"},{"poiid":"B2094757D06FA6FC419D","title":"上海虹桥机场T2航站楼贵宾俱乐部","lon":"121.32690658","lat":"31.192880019","category":"21","category_name":"飞机场","address":"上海虹桥机场"},{"poiid":"B2094654D56AABF9449D","title":"上海虹桥国际机场A楼(出发)","lon":"121.34704","lat":"31.19522","category":"21","category_name":"飞机场","address":"迎宾一路700号"},{"poiid":"B2094757D06EAAF8429F","title":"虹桥机场2号航站楼登机口","lon":"121.3295501","lat":"31.1972765791","category":"21","category_name":"飞机场","address":"上海虹桥机场T2"},{"poiid":"B2094757D065A3F8499D","title":"虹桥机场2号航站楼33号登机口","lon":"121.33170356","lat":"31.196884944","category":"21","category_name":"飞机场","address":"上海虹桥机场T2"},{"poiid":"B2094757D66EA5FB429B","title":"68号登机口","lon":"121.33451843","lat":"31.18950653","category":"500","category_name":"未知分类","address":"上海虹桥T2航站楼"},{"poiid":"B2094654D56AABF94492","title":"上海虹桥国际机场A楼(到达)","lon":"121.34704","lat":"31.19522","category":"21","category_name":"飞机场","address":"迎宾一路700"},{"poiid":"B2094757D068A3F9419A","title":"虹桥机场2号航站楼V3国航头等舱贵宾室","lon":"121.33040022","lat":"31.1976481603","category":"21","category_name":"飞机场","address":"上海虹桥国际机场T2(安检后左转40号登机口附近)"},{"poiid":"B2094757D069A7FB459D","title":"虹桥机场2号航站楼50号登机口","lon":"121.32888556","lat":"31.194866901","category":"21","category_name":"飞机场","address":"上海虹桥机场T2"},{"poiid":"B2094757D068A4F5439C","title":"虹桥火车站十号门","lon":"121.32681356","lat":"31.18914578","category":"22","category_name":"火车站","address":"上海虹桥火车站"},{"poiid":"B2094757D06FA1F8449B","title":"肯德基(虹桥机场2号航站楼店)","lon":"121.32741756","lat":"31.194079885","category":"68","category_name":"快餐厅","address":"闵行区虹桥路2550号虹桥机场T2航站楼1楼"},{"poiid":"B2094757D068A4FF4793","title":"虹桥机场2号航站楼VVIP南区","lon":"121.32980293","lat":"31.191310086","category":"21","category_name":"飞机场","address":"上海虹桥机场T2"},{"poiid":"B2094757D06FA3F94398","title":"COSTA COFFEE(虹桥机场一店)","lon":"121.32957","lat":"31.19305","category":"65","category_name":"咖啡厅","address":"闵行区虹桥路2550号虹桥机场T2航站楼46-47登机口间(近七莘路)"},{"poiid":"B2094757D16CA6FE4699","title":"虹桥机场2号航站楼40号登机口","lon":"121.33572387","lat":"31.194454193","category":"21","category_name":"飞机场","address":"上海虹桥机场T2"},{"poiid":"B2094757D16CA4F4499F","title":"虹桥机场2号航站楼28号登机口","lon":"121.32946956","lat":"31.19716395","category":"21","category_name":"飞机场","address":"上海虹桥机场T2"},{"poiid":"B2094757D065ABFC449E","title":"虹桥机场2号航站楼贵宾厅","lon":"121.34634","lat":"31.19389","category":"65","category_name":"咖啡厅","address":"长宁区虹桥路2550号虹桥机场2号航站楼内"},{"poiid":"B2094757D06BA7FD4993","title":"虹桥机场1号航站楼B10头等舱候机室","lon":"121.34525386","lat":"31.193621073","category":"21","category_name":"飞机场","address":"上海虹桥国际机场T1"},{"poiid":"B2094757D065A4F4459C","title":"虹桥机场2号航站楼25号登机口","lon":"121.32884535","lat":"31.197076856","category":"21","category_name":"飞机场","address":"上海虹桥机场T2"},{"poiid":"B2094757D06AAAFE4798","title":"虹桥机场2号航站楼46号登机口","lon":"121.3283987","lat":"31.194636876","category":"21","category_name":"飞机场","address":"上海虹桥机场T2"},{"poiid":"B2094757D06FA6F84492","title":"东方既白(虹桥机场二店)","lon":"121.33006197","lat":"31.192080732","category":"68","category_name":"快餐厅","address":"长宁区虹桥机场T1出发厅内(近KFC)"},{"poiid":"B2094757D06FABF44098","title":"虹桥机场2号航站楼V2上航头等舱贵宾室","lon":"121.33243942","lat":"31.194330144","category":"21","category_name":"飞机场","address":"上海虹桥国际机场T2(安检后左转40号登机口附近)"},{"poiid":"B2094655D36CA7F84393","title":"虹桥枢纽","lon":"121.32744","lat":"31.19611","category":"38","category_name":"公交车站","address":"闵行区纪翟路888号"},{"poiid":"B2094757D66FA0FA4499","title":"虹桥机场2号航站楼61号登机口","lon":"121.33172756","lat":"31.1921088434","category":"500","category_name":"未知分类","address":"上海虹桥机场"},{"poiid":"B2094757D16BA2F9449E","title":"虹桥机场T2航站楼29号登机口","lon":"121.33104856","lat":"31.1968349431","category":"500","category_name":"未知分类","address":"上海市闵行区七莘路"},{"poiid":"B2094757D06FA0FD4293","title":"麦当劳(虹桥机场店)","lon":"121.347148","lat":"31.193232","category":"68","category_name":"快餐厅","address":"长宁区虹桥路2550号虹桥机场内(近空港一路)"},{"poiid":"B2094757D06EAAF4439C","title":"虹桥2号航站楼地铁站","lon":"121.332092","lat":"31.193185","category":"36","category_name":"地铁站","address":"上海轨道交通 二号线 十号线 虹桥2号航站楼站 2 10"},{"poiid":"B2094757D068AAF44993","title":"虹桥机场2号航站楼V6南航头等舱贵宾室","lon":"121.32919853","lat":"31.193769908","category":"21","category_name":"飞机场","address":"上海虹桥国际机场T2(安检后右转)"},{"poiid":"B2094757D165A3F5479E","title":"虹桥机场某个厕所","lon":"121.33195756","lat":"31.196851943","category":"21","category_name":"飞机场","address":"上海市闵行区申达一路"},{"poiid":"B2094654D56AA2FF4493","title":"上海虹桥国际机场B楼(出发)","lon":"121.34634","lat":"31.1939","category":"21","category_name":"飞机场","address":"迎宾一路800号"},{"poiid":"B2094757D06BA3F8409A","title":"上海虹桥火车站B14检票口","lon":"121.34360506","lat":"31.182844948","category":"22","category_name":"火车站","address":"上海虹桥火车站"},{"poiid":"B2094757D06FA2F5459F","title":"永和大王(虹桥机场店)","lon":"121.32744076","lat":"31.194147186","category":"68","category_name":"快餐厅","address":"长宁区虹桥机场1号航站楼到达处"},{"poiid":"B2094654DB65A6F84598","title":"上海虹桥国际机场","lon":"121.34635","lat":"31.19389","category":"21","category_name":"飞机场","address":"上海长宁区虹桥路2550号,虹桥机场"},{"poiid":"B2094757D06EAAF4459C","title":"虹桥机场T2国内到达","lon":"121.331958484","lat":"31.1932846989","category":"21","category_name":"飞机场","address":"上海虹桥国际机场2号航站楼国内到达"},{"poiid":"B2094757D068A2F9409E","title":"虹桥机场二号航站楼","lon":"121.330553983","lat":"31.1929794276","category":"21","category_name":"飞机场","address":"闵行区虹桥路2550号"},{"poiid":"B2094757D068AAF84192","title":"虹桥机场2号航站楼57号登机口","lon":"121.33144462","lat":"31.192239106","category":"21","category_name":"飞机场","address":"上海虹桥机场T2"},{"poiid":"B2094757D06EAAFA4298","title":"虹桥机场2号航站楼V5东航头等舱贵宾室","lon":"121.32996582","lat":"31.191440894","category":"21","category_name":"飞机场","address":"上海虹桥国际机场T2(安检后右转56号登机口附近)"},{"poiid":"B2094757D068A0FC479E","title":"虹桥机场2号航站楼停车楼","lon":"121.33460044","lat":"31.1880699682","category":"21","category_name":"飞机场","address":"上海虹桥机场T2"},{"poiid":"B2094757D165AAF9479C","title":"虹桥机场T2航站楼61号登机口","lon":"121.33196256","lat":"31.192095843","category":"21","category_name":"飞机场","address":"海外上海上海市閔行区七莘路"},{"poiid":"B2094757D06EAAFC499B","title":"星巴克 STARBUCKS (虹桥西航站店)","lon":"121.33209661","lat":"31.193204668","category":"65","category_name":"咖啡厅","address":"闵行区申达一路1号虹桥机场T2候机楼C3-M2-S28(近6号出口)"},{"poiid":"B2094757D06EAAFE489C","title":"虹桥机场停机坪","lon":"121.3352766","lat":"31.19801799","category":"21","category_name":"飞机场","address":"上海虹桥国际机场2号航站楼停机坪"},{"poiid":"B2094757D069A7FD439E","title":"虹桥机场2号航站楼30号登机口","lon":"121.332274223","lat":"31.1968882342","category":"21","category_name":"飞机场","address":"上海虹桥机场T2"},{"poiid":"B2094655D36CA7F84593","title":"虹桥2号航站楼","lon":"121.32741","lat":"31.1924","category":"38","category_name":"公交车站","address":""},{"poiid":"B2094757D06EAAF44993","title":"虹桥机场2号航站楼头等舱休息室","lon":"121.32907425","lat":"31.19658545","category":"21","category_name":"飞机场","address":"上海虹桥机场国际机场T2"},{"poiid":"B2094757D06FAAFF439B","title":"虹桥机场2号航站楼V1头等舱贵宾室","lon":"121.33340227","lat":"31.19688863","category":"21","category_name":"飞机场","address":"上海虹桥国际机场T2(近25、26号登机口)"},{"poiid":"B2094655D265A4F44892","title":"虹桥机场2号航站楼(出发)","lon":"121.32621","lat":"31.1947","category":"21","category_name":"飞机场","address":"上海虹桥国际机场2号航站楼 T2"},{"poiid":"B2094757D165A2F5429E","title":"虹桥机场2号航站楼","lon":"121.32848056","lat":"31.1976779609","category":"21","category_name":"飞机场","address":"长宁区七莘路申昆路"},{"poiid":"B2094655D265A7FD499B","title":"上海虹桥机场","lon":"121.3262","lat":"31.1947","category":"21","category_name":"飞机场","address":""},{"poiid":"B2094757D169A4FB4099","title":"上海虹桥机场T1航站楼A10登机口","lon":"121.34647116","lat":"31.195816521","category":"21","category_name":"飞机场","address":"上海虹桥机场"},{"poiid":"B2094757D165A4F84393","title":"虹桥机场2号航站楼56号登机口","lon":"121.32980556","lat":"31.191994841","category":"21","category_name":"飞机场","address":"上海虹桥机场2号航站楼"},{"poiid":"B2094757D064AAFE419D","title":"虹桥机场2号航站楼48号登机口","lon":"121.32765506","lat":"31.189663091","category":"21","category_name":"飞机场","address":"上海虹桥机场T2"},{"poiid":"B2094757D06AA2F8489F","title":"虹桥机场2号航站楼42号登机口","lon":"121.32945656","lat":"31.1968459433","category":"21","category_name":"飞机场","address":"上海虹桥机场T2"},{"poiid":"B2094757D06FA6FC419D","title":"上海虹桥机场T2航站楼贵宾俱乐部","lon":"121.32690658","lat":"31.192880019","category":"21","category_name":"飞机场","address":"上海虹桥机场"},{"poiid":"B2094654D56AABF9449D","title":"上海虹桥国际机场A楼(出发)","lon":"121.34704","lat":"31.19522","category":"21","category_name":"飞机场","address":"迎宾一路700号"},{"poiid":"B2094757D06EAAF8429F","title":"虹桥机场2号航站楼登机口","lon":"121.3295501","lat":"31.1972765791","category":"21","category_name":"飞机场","address":"上海虹桥机场T2"},{"poiid":"B2094757D065A3F8499D","title":"虹桥机场2号航站楼33号登机口","lon":"121.33170356","lat":"31.196884944","category":"21","category_name":"飞机场","address":"上海虹桥机场T2"},{"poiid":"B2094757D66EA5FB429B","title":"68号登机口","lon":"121.33451843","lat":"31.18950653","category":"500","category_name":"未知分类","address":"上海虹桥T2航站楼"},{"poiid":"B2094654D56AABF94492","title":"上海虹桥国际机场A楼(到达)","lon":"121.34704","lat":"31.19522","category":"21","category_name":"飞机场","address":"迎宾一路700"},{"poiid":"B2094757D068A3F9419A","title":"虹桥机场2号航站楼V3国航头等舱贵宾室","lon":"121.33040022","lat":"31.1976481603","category":"21","category_name":"飞机场","address":"上海虹桥国际机场T2(安检后左转40号登机口附近)"},{"poiid":"B2094757D069A7FB459D","title":"虹桥机场2号航站楼50号登机口","lon":"121.32888556","lat":"31.194866901","category":"21","category_name":"飞机场","address":"上海虹桥机场T2"},{"poiid":"B2094757D068A4F5439C","title":"虹桥火车站十号门","lon":"121.32681356","lat":"31.18914578","category":"22","category_name":"火车站","address":"上海虹桥火车站"},{"poiid":"B2094757D06FA1F8449B","title":"肯德基(虹桥机场2号航站楼店)","lon":"121.32741756","lat":"31.194079885","category":"68","category_name":"快餐厅","address":"闵行区虹桥路2550号虹桥机场T2航站楼1楼"},{"poiid":"B2094757D068A4FF4793","title":"虹桥机场2号航站楼VVIP南区","lon":"121.32980293","lat":"31.191310086","category":"21","category_name":"飞机场","address":"上海虹桥机场T2"},{"poiid":"B2094757D06FA3F94398","title":"COSTA COFFEE(虹桥机场一店)","lon":"121.32957","lat":"31.19305","category":"65","category_name":"咖啡厅","address":"闵行区虹桥路2550号虹桥机场T2航站楼46-47登机口间(近七莘路)"},{"poiid":"B2094757D16CA6FE4699","title":"虹桥机场2号航站楼40号登机口","lon":"121.33572387","lat":"31.194454193","category":"21","category_name":"飞机场","address":"上海虹桥机场T2"},{"poiid":"B2094757D16CA4F4499F","title":"虹桥机场2号航站楼28号登机口","lon":"121.32946956","lat":"31.19716395","category":"21","category_name":"飞机场","address":"上海虹桥机场T2"},{"poiid":"B2094757D065ABFC449E","title":"虹桥机场2号航站楼贵宾厅","lon":"121.34634","lat":"31.19389","category":"65","category_name":"咖啡厅","address":"长宁区虹桥路2550号虹桥机场2号航站楼内"},{"poiid":"B2094757D06BA7FD4993","title":"虹桥机场1号航站楼B10头等舱候机室","lon":"121.34525386","lat":"31.193621073","category":"21","category_name":"飞机场","address":"上海虹桥国际机场T1"},{"poiid":"B2094757D065A4F4459C","title":"虹桥机场2号航站楼25号登机口","lon":"121.32884535","lat":"31.197076856","category":"21","category_name":"飞机场","address":"上海虹桥机场T2"},{"poiid":"B2094757D06AAAFE4798","title":"虹桥机场2号航站楼46号登机口","lon":"121.3283987","lat":"31.194636876","category":"21","category_name":"飞机场","address":"上海虹桥机场T2"},{"poiid":"B2094757D06FA6F84492","title":"东方既白(虹桥机场二店)","lon":"121.33006197","lat":"31.192080732","category":"68","category_name":"快餐厅","address":"长宁区虹桥机场T1出发厅内(近KFC)"},{"poiid":"B2094757D06FABF44098","title":"虹桥机场2号航站楼V2上航头等舱贵宾室","lon":"121.33243942","lat":"31.194330144","category":"21","category_name":"飞机场","address":"上海虹桥国际机场T2(安检后左转40号登机口附近)"},{"poiid":"B2094655D36CA7F84393","title":"虹桥枢纽","lon":"121.32744","lat":"31.19611","category":"38","category_name":"公交车站","address":"闵行区纪翟路888号"},{"poiid":"B2094757D66FA0FA4499","title":"虹桥机场2号航站楼61号登机口","lon":"121.33172756","lat":"31.1921088434","category":"500","category_name":"未知分类","address":"上海虹桥机场"},{"poiid":"B2094757D16BA2F9449E","title":"虹桥机场T2航站楼29号登机口","lon":"121.33104856","lat":"31.1968349431","category":"500","category_name":"未知分类","address":"上海市闵行区七莘路"},{"poiid":"B2094757D06FA0FD4293","title":"麦当劳(虹桥机场店)","lon":"121.347148","lat":"31.193232","category":"68","category_name":"快餐厅","address":"长宁区虹桥路2550号虹桥机场内(近空港一路)"},{"poiid":"B2094757D06EAAF4439C","title":"虹桥2号航站楼地铁站","lon":"121.332092","lat":"31.193185","category":"36","category_name":"地铁站","address":"上海轨道交通 二号线 十号线 虹桥2号航站楼站 2 10"},{"poiid":"B2094757D068AAF44993","title":"虹桥机场2号航站楼V6南航头等舱贵宾室","lon":"121.32919853","lat":"31.193769908","category":"21","category_name":"飞机场","address":"上海虹桥国际机场T2(安检后右转)"},{"poiid":"B2094757D165A3F5479E","title":"虹桥机场某个厕所","lon":"121.33195756","lat":"31.196851943","category":"21","category_name":"飞机场","address":"上海市闵行区申达一路"},{"poiid":"B2094654D56AA2FF4493","title":"上海虹桥国际机场B楼(出发)","lon":"121.34634","lat":"31.1939","category":"21","category_name":"飞机场","address":"迎宾一路800号"},{"poiid":"B2094757D06BA3F8409A","title":"上海虹桥火车站B14检票口","lon":"121.34360506","lat":"31.182844948","category":"22","category_name":"火车站","address":"上海虹桥火车站"},{"poiid":"B2094757D06FA2F5459F","title":"永和大王(虹桥机场店)","lon":"121.32744076","lat":"31.194147186","category":"68","category_name":"快餐厅","address":"长宁区虹桥机场1号航站楼到达处"},{"poiid":"B2094654DB65A6F84598","title":"上海虹桥国际机场","lon":"121.34635","lat":"31.19389","category":"21","category_name":"飞机场","address":"上海长宁区虹桥路2550号,虹桥机场"},{"poiid":"B2094757D06EAAF4459C","title":"虹桥机场T2国内到达","lon":"121.331958484","lat":"31.1932846989","category":"21","category_name":"飞机场","address":"上海虹桥国际机场2号航站楼国内到达"},{"poiid":"B2094757D068A2F9409E","title":"虹桥机场二号航站楼","lon":"121.330553983","lat":"31.1929794276","category":"21","category_name":"飞机场","address":"闵行区虹桥路2550号"},{"poiid":"B2094757D068AAF84192","title":"虹桥机场2号航站楼57号登机口","lon":"121.33144462","lat":"31.192239106","category":"21","category_name":"飞机场","address":"上海虹桥机场T2"},{"poiid":"B2094757D06EAAFA4298","title":"虹桥机场2号航站楼V5东航头等舱贵宾室","lon":"121.32996582","lat":"31.191440894","category":"21","category_name":"飞机场","address":"上海虹桥国际机场T2(安检后右转56号登机口附近)"},{"poiid":"B2094757D068A0FC479E","title":"虹桥机场2号航站楼停车楼","lon":"121.33460044","lat":"31.1880699682","category":"21","category_name":"飞机场","address":"上海虹桥机场T2"},{"poiid":"B2094757D165AAF9479C","title":"虹桥机场T2航站楼61号登机口","lon":"121.33196256","lat":"31.192095843","category":"21","category_name":"飞机场","address":"海外上海上海市閔行区七莘路"},{"poiid":"B2094757D06EAAFC499B","title":"星巴克 STARBUCKS (虹桥西航站店)","lon":"121.33209661","lat":"31.193204668","category":"65","category_name":"咖啡厅","address":"闵行区申达一路1号虹桥机场T2候机楼C3-M2-S28(近6号出口)"},{"poiid":"B2094757D06EAAFE489C","title":"虹桥机场停机坪","lon":"121.3352766","lat":"31.19801799","category":"21","category_name":"飞机场","address":"上海虹桥国际机场2号航站楼停机坪"},{"poiid":"B2094757D069A7FD439E","title":"虹桥机场2号航站楼30号登机口","lon":"121.332274223","lat":"31.1968882342","category":"21","category_name":"飞机场","address":"上海虹桥机场T2"},{"poiid":"B2094655D36CA7F84593","title":"虹桥2号航站楼","lon":"121.32741","lat":"31.1924","category":"38","category_name":"公交车站","address":""},{"poiid":"B2094757D06EAAF44993","title":"虹桥机场2号航站楼头等舱休息室","lon":"121.32907425","lat":"31.19658545","category":"21","category_name":"飞机场","address":"上海虹桥机场国际机场T2"},{"poiid":"B2094757D06FAAFF439B","title":"虹桥机场2号航站楼V1头等舱贵宾室","lon":"121.33340227","lat":"31.19688863","category":"21","category_name":"飞机场","address":"上海虹桥国际机场T2(近25、26号登机口)"},{"poiid":"B2094655D265A4F44892","title":"虹桥机场2号航站楼(出发)","lon":"121.32621","lat":"31.1947","category":"21","category_name":"飞机场","address":"上海虹桥国际机场2号航站楼 T2"},{"poiid":"B2094757D165A2F5429E","title":"虹桥机场2号航站楼","lon":"121.32848056","lat":"31.1976779609","category":"21","category_name":"飞机场","address":"长宁区七莘路申昆路"},{"poiid":"B2094655D265A7FD499B","title":"上海虹桥机场","lon":"121.3262","lat":"31.1947","category":"21","category_name":"飞机场","address":""},{"poiid":"B2094757D169A4FB4099","title":"上海虹桥机场T1航站楼A10登机口","lon":"121.34647116","lat":"31.195816521","category":"21","category_name":"飞机场","address":"上海虹桥机场"},{"poiid":"B2094757D165A4F84393","title":"虹桥机场2号航站楼56号登机口","lon":"121.32980556","lat":"31.191994841","category":"21","category_name":"飞机场","address":"上海虹桥机场2号航站楼"},{"poiid":"B2094757D064AAFE419D","title":"虹桥机场2号航站楼48号登机口","lon":"121.32765506","lat":"31.189663091","category":"21","category_name":"飞机场","address":"上海虹桥机场T2"},{"poiid":"B2094757D06AA2F8489F","title":"虹桥机场2号航站楼42号登机口","lon":"121.32945656","lat":"31.1968459433","category":"21","category_name":"飞机场","address":"上海虹桥机场T2"},{"poiid":"B2094757D06FA6FC419D","title":"上海虹桥机场T2航站楼贵宾俱乐部","lon":"121.32690658","lat":"31.192880019","category":"21","category_name":"飞机场","address":"上海虹桥机场"},{"poiid":"B2094654D56AABF9449D","title":"上海虹桥国际机场A楼(出发)","lon":"121.34704","lat":"31.19522","category":"21","category_name":"飞机场","address":"迎宾一路700号"},{"poiid":"B2094757D06EAAF8429F","title":"虹桥机场2号航站楼登机口","lon":"121.3295501","lat":"31.1972765791","category":"21","category_name":"飞机场","address":"上海虹桥机场T2"},{"poiid":"B2094757D065A3F8499D","title":"虹桥机场2号航站楼33号登机口","lon":"121.33170356","lat":"31.196884944","category":"21","category_name":"飞机场","address":"上海虹桥机场T2"},{"poiid":"B2094757D66EA5FB429B","title":"68号登机口","lon":"121.33451843","lat":"31.18950653","category":"500","category_name":"未知分类","address":"上海虹桥T2航站楼"},{"poiid":"B2094654D56AABF94492","title":"上海虹桥国际机场A楼(到达)","lon":"121.34704","lat":"31.19522","category":"21","category_name":"飞机场","address":"迎宾一路700"},{"poiid":"B2094757D068A3F9419A","title":"虹桥机场2号航站楼V3国航头等舱贵宾室","lon":"121.33040022","lat":"31.1976481603","category":"21","category_name":"飞机场","address":"上海虹桥国际机场T2(安检后左转40号登机口附近)"},{"poiid":"B2094757D069A7FB459D","title":"虹桥机场2号航站楼50号登机口","lon":"121.32888556","lat":"31.194866901","category":"21","category_name":"飞机场","address":"上海虹桥机场T2"},{"poiid":"B2094757D068A4F5439C","title":"虹桥火车站十号门","lon":"121.32681356","lat":"31.18914578","category":"22","category_name":"火车站","address":"上海虹桥火车站"},{"poiid":"B2094757D06FA1F8449B","title":"肯德基(虹桥机场2号航站楼店)","lon":"121.32741756","lat":"31.194079885","category":"68","category_name":"快餐厅","address":"闵行区虹桥路2550号虹桥机场T2航站楼1楼"},{"poiid":"B2094757D068A4FF4793","title":"虹桥机场2号航站楼VVIP南区","lon":"121.32980293","lat":"31.191310086","category":"21","category_name":"飞机场","address":"上海虹桥机场T2"},{"poiid":"B2094757D06FA3F94398","title":"COSTA COFFEE(虹桥机场一店)","lon":"121.32957","lat":"31.19305","category":"65","category_name":"咖啡厅","address":"闵行区虹桥路2550号虹桥机场T2航站楼46-47登机口间(近七莘路)"},{"poiid":"B2094757D16CA6FE4699","title":"虹桥机场2号航站楼40号登机口","lon":"121.33572387","lat":"31.194454193","category":"21","category_name":"飞机场","address":"上海虹桥机场T2"},{"poiid":"B2094757D16CA4F4499F","title":"虹桥机场2号航站楼28号登机口","lon":"121.32946956","lat":"31.19716395","category":"21","category_name":"飞机场","address":"上海虹桥机场T2"},{"poiid":"B2094757D065ABFC449E","title":"虹桥机场2号航站楼贵宾厅","lon":"121.34634","lat":"31.19389","category":"65","category_name":"咖啡厅","address":"长宁区虹桥路2550号虹桥机场2号航站楼内"},{"poiid":"B2094757D06BA7FD4993","title":"虹桥机场1号航站楼B10头等舱候机室","lon":"121.34525386","lat":"31.193621073","category":"21","category_name":"飞机场","address":"上海虹桥国际机场T1"},{"poiid":"B2094757D065A4F4459C","title":"虹桥机场2号航站楼25号登机口","lon":"121.32884535","lat":"31.197076856","category":"21","category_name":"飞机场","address":"上海虹桥机场T2"},{"poiid":"B2094757D06AAAFE4798","title":"虹桥机场2号航站楼46号登机口","lon":"121.3283987","lat":"31.194636876","category":"21","category_name":"飞机场","address":"上海虹桥机场T2"},{"poiid":"B2094757D06FA6F84492","title":"东方既白(虹桥机场二店)","lon":"121.33006197","lat":"31.192080732","category":"68","category_name":"快餐厅","address":"长宁区虹桥机场T1出发厅内(近KFC)"},{"poiid":"B2094757D06FABF44098","title":"虹桥机场2号航站楼V2上航头等舱贵宾室","lon":"121.33243942","lat":"31.194330144","category":"21","category_name":"飞机场","address":"上海虹桥国际机场T2(安检后左转40号登机口附近)"},{"poiid":"B2094655D36CA7F84393","title":"虹桥枢纽","lon":"121.32744","lat":"31.19611","category":"38","category_name":"公交车站","address":"闵行区纪翟路888号"},{"poiid":"B2094757D66FA0FA4499","title":"虹桥机场2号航站楼61号登机口","lon":"121.33172756","lat":"31.1921088434","category":"500","category_name":"未知分类","address":"上海虹桥机场"},{"poiid":"B2094757D16BA2F9449E","title":"虹桥机场T2航站楼29号登机口","lon":"121.33104856","lat":"31.1968349431","category":"500","category_name":"未知分类","address":"上海市闵行区七莘路"},{"poiid":"B2094757D06FA0FD4293","title":"麦当劳(虹桥机场店)","lon":"121.347148","lat":"31.193232","category":"68","category_name":"快餐厅","address":"长宁区虹桥路2550号虹桥机场内(近空港一路)"},{"poiid":"B2094757D06EAAF4439C","title":"虹桥2号航站楼地铁站","lon":"121.332092","lat":"31.193185","category":"36","category_name":"地铁站","address":"上海轨道交通 二号线 十号线 虹桥2号航站楼站 2 10"},{"poiid":"B2094757D068AAF44993","title":"虹桥机场2号航站楼V6南航头等舱贵宾室","lon":"121.32919853","lat":"31.193769908","category":"21","category_name":"飞机场","address":"上海虹桥国际机场T2(安检后右转)"},{"poiid":"B2094757D165A3F5479E","title":"虹桥机场某个厕所","lon":"121.33195756","lat":"31.196851943","category":"21","category_name":"飞机场","address":"上海市闵行区申达一路"},{"poiid":"B2094654D56AA2FF4493","title":"上海虹桥国际机场B楼(出发)","lon":"121.34634","lat":"31.1939","category":"21","category_name":"飞机场","address":"迎宾一路800号"},{"poiid":"B2094757D06BA3F8409A","title":"上海虹桥火车站B14检票口","lon":"121.34360506","lat":"31.182844948","category":"22","category_name":"火车站","address":"上海虹桥火车站"},{"poiid":"B2094757D06FA2F5459F","title":"永和大王(虹桥机场店)","lon":"121.32744076","lat":"31.194147186","category":"68","category_name":"快餐厅","address":"长宁区虹桥机场1号航站楼到达处"},{"poiid":"B2094654DB65A6F84598","title":"上海虹桥国际机场","lon":"121.34635","lat":"31.19389","category":"21","category_name":"飞机场","address":"上海长宁区虹桥路2550号,虹桥机场"},{"poiid":"B2094757D06EAAF4459C","title":"虹桥机场T2国内到达","lon":"121.331958484","lat":"31.1932846989","category":"21","category_name":"飞机场","address":"上海虹桥国际机场2号航站楼国内到达"},{"poiid":"B2094757D068A2F9409E","title":"虹桥机场二号航站楼","lon":"121.330553983","lat":"31.1929794276","category":"21","category_name":"飞机场","address":"闵行区虹桥路2550号"},{"poiid":"B2094757D068AAF84192","title":"虹桥机场2号航站楼57号登机口","lon":"121.33144462","lat":"31.192239106","category":"21","category_name":"飞机场","address":"上海虹桥机场T2"},{"poiid":"B2094757D06EAAFA4298","title":"虹桥机场2号航站楼V5东航头等舱贵宾室","lon":"121.32996582","lat":"31.191440894","category":"21","category_name":"飞机场","address":"上海虹桥国际机场T2(安检后右转56号登机口附近)"},{"poiid":"B2094757D068A0FC479E","title":"虹桥机场2号航站楼停车楼","lon":"121.33460044","lat":"31.1880699682","category":"21","category_name":"飞机场","address":"上海虹桥机场T2"},{"poiid":"B2094757D165AAF9479C","title":"虹桥机场T2航站楼61号登机口","lon":"121.33196256","lat":"31.192095843","category":"21","category_name":"飞机场","address":"海外上海上海市閔行区七莘路"},{"poiid":"B2094757D06EAAFC499B","title":"星巴克 STARBUCKS (虹桥西航站店)","lon":"121.33209661","lat":"31.193204668","category":"65","category_name":"咖啡厅","address":"闵行区申达一路1号虹桥机场T2候机楼C3-M2-S28(近6号出口)"},{"poiid":"B2094757D06EAAFE489C","title":"虹桥机场停机坪","lon":"121.3352766","lat":"31.19801799","category":"21","category_name":"飞机场","address":"上海虹桥国际机场2号航站楼停机坪"},{"poiid":"B2094757D069A7FD439E","title":"虹桥机场2号航站楼30号登机口","lon":"121.332274223","lat":"31.1968882342","category":"21","category_name":"飞机场","address":"上海虹桥机场T2"},{"poiid":"B2094655D36CA7F84593","title":"虹桥2号航站楼","lon":"121.32741","lat":"31.1924","category":"38","category_name":"公交车站","address":""},{"poiid":"B2094757D06EAAF44993","title":"虹桥机场2号航站楼头等舱休息室","lon":"121.32907425","lat":"31.19658545","category":"21","category_name":"飞机场","address":"上海虹桥机场国际机场T2"},{"poiid":"B2094757D06FAAFF439B","title":"虹桥机场2号航站楼V1头等舱贵宾室","lon":"121.33340227","lat":"31.19688863","category":"21","category_name":"飞机场","address":"上海虹桥国际机场T2(近25、26号登机口)"},{"poiid":"B2094655D265A4F44892","title":"虹桥机场2号航站楼(出发)","lon":"121.32621","lat":"31.1947","category":"21","category_name":"飞机场","address":"上海虹桥国际机场2号航站楼 T2"},{"poiid":"B2094757D165A2F5429E","title":"虹桥机场2号航站楼","lon":"121.32848056","lat":"31.1976779609","category":"21","category_name":"飞机场","address":"长宁区七莘路申昆路"},{"poiid":"B2094655D265A7FD499B","title":"上海虹桥机场","lon":"121.3262","lat":"31.1947","category":"21","category_name":"飞机场","address":""},{"poiid":"B2094757D169A4FB4099","title":"上海虹桥机场T1航站楼A10登机口","lon":"121.34647116","lat":"31.195816521","category":"21","category_name":"飞机场","address":"上海虹桥机场"},{"poiid":"B2094757D165A4F84393","title":"虹桥机场2号航站楼56号登机口","lon":"121.32980556","lat":"31.191994841","category":"21","category_name":"飞机场","address":"上海虹桥机场2号航站楼"},{"poiid":"B2094757D064AAFE419D","title":"虹桥机场2号航站楼48号登机口","lon":"121.32765506","lat":"31.189663091","category":"21","category_name":"飞机场","address":"上海虹桥机场T2"},{"poiid":"B2094757D06AA2F8489F","title":"虹桥机场2号航站楼42号登机口","lon":"121.32945656","lat":"31.1968459433","category":"21","category_name":"飞机场","address":"上海虹桥机场T2"},{"poiid":"B2094757D06FA6FC419D","title":"上海虹桥机场T2航站楼贵宾俱乐部","lon":"121.32690658","lat":"31.192880019","category":"21","category_name":"飞机场","address":"上海虹桥机场"},{"poiid":"B2094654D56AABF9449D","title":"上海虹桥国际机场A楼(出发)","lon":"121.34704","lat":"31.19522","category":"21","category_name":"飞机场","address":"迎宾一路700号"},{"poiid":"B2094757D06EAAF8429F","title":"虹桥机场2号航站楼登机口","lon":"121.3295501","lat":"31.1972765791","category":"21","category_name":"飞机场","address":"上海虹桥机场T2"},{"poiid":"B2094757D065A3F8499D","title":"虹桥机场2号航站楼33号登机口","lon":"121.33170356","lat":"31.196884944","category":"21","category_name":"飞机场","address":"上海虹桥机场T2"},{"poiid":"B2094757D66EA5FB429B","title":"68号登机口","lon":"121.33451843","lat":"31.18950653","category":"500","category_name":"未知分类","address":"上海虹桥T2航站楼"},{"poiid":"B2094654D56AABF94492","title":"上海虹桥国际机场A楼(到达)","lon":"121.34704","lat":"31.19522","category":"21","category_name":"飞机场","address":"迎宾一路700"},{"poiid":"B2094757D068A3F9419A","title":"虹桥机场2号航站楼V3国航头等舱贵宾室","lon":"121.33040022","lat":"31.1976481603","category":"21","category_name":"飞机场","address":"上海虹桥国际机场T2(安检后左转40号登机口附近)"},{"poiid":"B2094757D069A7FB459D","title":"虹桥机场2号航站楼50号登机口","lon":"121.32888556","lat":"31.194866901","category":"21","category_name":"飞机场","address":"上海虹桥机场T2"},{"poiid":"B2094757D068A4F5439C","title":"虹桥火车站十号门","lon":"121.32681356","lat":"31.18914578","category":"22","category_name":"火车站","address":"上海虹桥火车站"},{"poiid":"B2094757D06FA1F8449B","title":"肯德基(虹桥机场2号航站楼店)","lon":"121.32741756","lat":"31.194079885","category":"68","category_name":"快餐厅","address":"闵行区虹桥路2550号虹桥机场T2航站楼1楼"},{"poiid":"B2094757D068A4FF4793","title":"虹桥机场2号航站楼VVIP南区","lon":"121.32980293","lat":"31.191310086","category":"21","category_name":"飞机场","address":"上海虹桥机场T2"},{"poiid":"B2094757D06FA3F94398","title":"COSTA COFFEE(虹桥机场一店)","lon":"121.32957","lat":"31.19305","category":"65","category_name":"咖啡厅","address":"闵行区虹桥路2550号虹桥机场T2航站楼46-47登机口间(近七莘路)"},{"poiid":"B2094757D16CA6FE4699","title":"虹桥机场2号航站楼40号登机口","lon":"121.33572387","lat":"31.194454193","category":"21","category_name":"飞机场","address":"上海虹桥机场T2"},{"poiid":"B2094757D16CA4F4499F","title":"虹桥机场2号航站楼28号登机口","lon":"121.32946956","lat":"31.19716395","category":"21","category_name":"飞机场","address":"上海虹桥机场T2"},{"poiid":"B2094757D065ABFC449E","title":"虹桥机场2号航站楼贵宾厅","lon":"121.34634","lat":"31.19389","category":"65","category_name":"咖啡厅","address":"长宁区虹桥路2550号虹桥机场2号航站楼内"},{"poiid":"B2094757D06BA7FD4993","title":"虹桥机场1号航站楼B10头等舱候机室","lon":"121.34525386","lat":"31.193621073","category":"21","category_name":"飞机场","address":"上海虹桥国际机场T1"},{"poiid":"B2094757D065A4F4459C","title":"虹桥机场2号航站楼25号登机口","lon":"121.32884535","lat":"31.197076856","category":"21","category_name":"飞机场","address":"上海虹桥机场T2"},{"poiid":"B2094757D06AAAFE4798","title":"虹桥机场2号航站楼46号登机口","lon":"121.3283987","lat":"31.194636876","category":"21","category_name":"飞机场","address":"上海虹桥机场T2"},{"poiid":"B2094757D06FA6F84492","title":"东方既白(虹桥机场二店)","lon":"121.33006197","lat":"31.192080732","category":"68","category_name":"快餐厅","address":"长宁区虹桥机场T1出发厅内(近KFC)"},{"poiid":"B2094757D06FABF44098","title":"虹桥机场2号航站楼V2上航头等舱贵宾室","lon":"121.33243942","lat":"31.194330144","category":"21","category_name":"飞机场","address":"上海虹桥国际机场T2(安检后左转40号登机口附近)"},{"poiid":"B2094655D36CA7F84393","title":"虹桥枢纽","lon":"121.32744","lat":"31.19611","category":"38","category_name":"公交车站","address":"闵行区纪翟路888号"},{"poiid":"B2094757D66FA0FA4499","title":"虹桥机场2号航站楼61号登机口","lon":"121.33172756","lat":"31.1921088434","category":"500","category_name":"未知分类","address":"上海虹桥机场"},{"poiid":"B2094757D16BA2F9449E","title":"虹桥机场T2航站楼29号登机口","lon":"121.33104856","lat":"31.1968349431","category":"500","category_name":"未知分类","address":"上海市闵行区七莘路"},{"poiid":"B2094757D06FA0FD4293","title":"麦当劳(虹桥机场店)","lon":"121.347148","lat":"31.193232","category":"68","category_name":"快餐厅","address":"长宁区虹桥路2550号虹桥机场内(近空港一路)"},{"poiid":"B2094757D06EAAF4439C","title":"虹桥2号航站楼地铁站","lon":"121.332092","lat":"31.193185","category":"36","category_name":"地铁站","address":"上海轨道交通 二号线 十号线 虹桥2号航站楼站 2 10"},{"poiid":"B2094757D068AAF44993","title":"虹桥机场2号航站楼V6南航头等舱贵宾室","lon":"121.32919853","lat":"31.193769908","category":"21","category_name":"飞机场","address":"上海虹桥国际机场T2(安检后右转)"},{"poiid":"B2094757D165A3F5479E","title":"虹桥机场某个厕所","lon":"121.33195756","lat":"31.196851943","category":"21","category_name":"飞机场","address":"上海市闵行区申达一路"},{"poiid":"B2094654D56AA2FF4493","title":"上海虹桥国际机场B楼(出发)","lon":"121.34634","lat":"31.1939","category":"21","category_name":"飞机场","address":"迎宾一路800号"},{"poiid":"B2094757D06BA3F8409A","title":"上海虹桥火车站B14检票口","lon":"121.34360506","lat":"31.182844948","category":"22","category_name":"火车站","address":"上海虹桥火车站"},{"poiid":"B2094757D06FA2F5459F","title":"永和大王(虹桥机场店)","lon":"121.32744076","lat":"31.194147186","category":"68","category_name":"快餐厅","address":"长宁区虹桥机场1号航站楼到达处"}]