[{"poiid":"B2094757D06FABFF459A","title":"上海科学技术职业学院","lon":"121.25723515","lat":"31.385574228","category":"671","category_name":"高校中心点","address":"嘉定区金沙路280号"},{"poiid":"B2094757D06AA6F4439C","title":"仓场路","lon":"121.26558865","lat":"31.381247117","category":"500","category_name":"未知分类","address":"上海市嘉定区仓场路"},{"poiid":"B2094757D06AA3F54093","title":"明成缘","lon":"121.25831910488","lat":"31.384932781958","category":"96","category_name":"韩国料理","address":"嘉定区金沙路201号(近塔城路)"},{"poiid":"B2094757D064A3F5419E","title":"老盛昌汤包馆","lon":"121.267241653","lat":"31.3812336176","category":"247","category_name":"餐饮美食","address":"上海仓城路店"},{"poiid":"B2094654D469A4FE459D","title":"上海市嘉定区牙病防治所","lon":"121.26079","lat":"31.38631","category":"162","category_name":"医院","address":"嘉定区塔城路261号(金沙路塔城路)"},{"poiid":"B2094757D06BA1F4409A","title":"嘉定区委党校","lon":"121.257233","lat":"31.38462","category":"500","category_name":"未知分类","address":"上海嘉定区塔城路265号"},{"poiid":"B2094654D469A5F5419C","title":"快乐鸟盱眙十三香龙虾","lon":"121.26595","lat":"31.38135","category":"257","category_name":"中餐厅","address":"嘉定区仓场路2758号(近迎园路)"},{"poiid":"B2094757D065A5FC4392","title":"歌顿咖啡新成店","lon":"121.2694","lat":"31.38908","category":"260","category_name":"其他","address":"嘉定区塔城东路292号(近和政路)"},{"poiid":"B2094757D16FA4FA489C","title":"吴姑娘特色煲(仓场店)","lon":"121.265738653","lat":"31.3821161356","category":"76","category_name":"上海菜","address":"嘉定区仓场路2871号(近迎园路)"},{"poiid":"B2094757D16DA3FB439A","title":"口口咖啡法式铁板烧","lon":"121.26291","lat":"31.39523","category":"94","category_name":"西餐厅","address":"嘉定区新城路881号-C(近塔城路)"},{"poiid":"B2094757D065A6F8489D","title":"雪岳山韩国烧烤(嘉定店)","lon":"121.25825","lat":"31.38453","category":"96","category_name":"韩国料理","address":"嘉定区塔城路257号(近金沙路)"},{"poiid":"B2094757D06BAAFE489E","title":"上海科技学院9号楼寝室","lon":"121.25843525","lat":"31.387137438","category":"500","category_name":"未知分类","address":"上海嘉定区金沙路280号(塔城路口)"},{"poiid":"B2094757D464A0FA4292","title":"燕子酒家 嘉定花园店","lon":"121.2685578722","lat":"31.38965961212","category":"247","category_name":"餐饮美食","address":"嘉定区嘉定区新城路899号(近塔城路)"},{"poiid":"B2094757D065A6FB4193","title":"珍品(嘉罗公路店)","lon":"121.26207","lat":"31.38376","category":"76","category_name":"上海菜","address":"嘉定区嘉罗公路453号(宝嘉公路迎园中路)"},{"poiid":"B2094757D06AA6F8459B","title":"塔城路","lon":"121.26364565","lat":"31.387504245","category":"500","category_name":"未知分类","address":"上海市嘉定区"},{"poiid":"B2094655D26FABF8419A","title":"迎园新村五、八坊","lon":"121.26623","lat":"31.38359","category":"47","category_name":"住宅区","address":"上海嘉定区迎园中路"},{"poiid":"B2094757D66BA3FA4799","title":"张太和爊鸭 仓场路店","lon":"121.266739054","lat":"31.381288793","category":"68","category_name":"快餐厅","address":"嘉定区仓场路2879号(仓场路迎园路)"},{"poiid":"B2094757D064AAF8429C","title":"张太和爊鸭(迎园店)","lon":"121.26682","lat":"31.38407","category":"68","category_name":"快餐厅","address":"嘉定区嘉定镇迎园中路616号(迎园北路迎园路)"},{"poiid":"B2094654D469A4FE449C","title":"上海外国语大学嘉定外国语实验学校","lon":"121.25979","lat":"31.38351","category":"52","category_name":"高等院校","address":"嘉定区金沙路168号(近欧尚超市)"},{"poiid":"B2094654D469A5F4489E","title":"迎园新村六七坊","lon":"121.26358","lat":"31.38372","category":"47","category_name":"住宅区","address":"新成路"},{"poiid":"B2094757D06AA0FE4398","title":"夏天形象设计中心(金沙路店)","lon":"121.25784","lat":"31.38462","category":"148","category_name":"美容美发店","address":"嘉定区金沙路(近塔城路)"},{"poiid":"B2094655D268A4FE409B","title":"迎园新村十坊","lon":"121.26323","lat":"31.385235","category":"47","category_name":"住宅区","address":"新成路街道迎园路277弄"},{"poiid":"B2094757D16CA0FE469E","title":"阿娥汤圆店(金沙路店)","lon":"121.25817","lat":"31.3831844","category":"68","category_name":"快餐厅","address":"嘉定区金沙路(近仓场路)"},{"poiid":"B209475DD665A0F8419E","title":"三花奶奶甜品店","lon":"121.26371","lat":"31.385597","category":"247","category_name":"餐饮美食","address":"上海市 塔城路210号"},{"poiid":"B2094757D66BA2FB469D","title":"道草日本料理","lon":"121.25798","lat":"31.3848","category":"95","category_name":"日本料理","address":"嘉定区塔城路257号(金沙路口)"},{"poiid":"B2094757D664A6F44592","title":"江湖翅客","lon":"121.258849","lat":"31.385271","category":"68","category_name":"快餐厅","address":"嘉定区塔城路174号党校东侧(近金沙路)"},{"poiid":"B2094654D469A4FE4799","title":"嘉乐花园","lon":"121.26138","lat":"31.384384","category":"47","category_name":"住宅区","address":"嘉罗公路485弄"},{"poiid":"B2094757D16AA3FE4399","title":"哈瓦那酒吧","lon":"121.2669661","lat":"31.384118816","category":"172","category_name":"酒吧","address":"嘉定区环城路579号(近嘉行公路)"},{"poiid":"B2094654D469A5F4489F","title":"嘉定区迎园小学","lon":"121.26482","lat":"31.38512","category":"56","category_name":"小学","address":"迎宾路651"},{"poiid":"B2094654D469A4FE439A","title":"和幸日本料理","lon":"121.257507","lat":"31.385252","category":"95","category_name":"日本料理","address":"嘉定区金沙路207号(近塔城路)"},{"poiid":"B2094655D26BABFC449B","title":"铭记烧烤麻辣烫","lon":"121.2638","lat":"31.38099","category":"68","category_name":"快餐厅","address":"嘉定区仓场路2899号(仓场路嘉定迎宾路)"},{"poiid":"B2094757D069ABF54698","title":"巴麦隆自助烤肉嘉定店","lon":"121.257041","lat":"31.384297","category":"257","category_name":"中餐厅","address":"嘉定区嘉定区塔城路267号(金沙路欧尚超市对面)"},{"poiid":"B2094654D469A5F4499D","title":"迎园新村十一坊","lon":"121.26624","lat":"31.385618","category":"47","category_name":"住宅区","address":"新成路附近"},{"poiid":"B2094655D268A4FE409A","title":"迎园十三坊","lon":"121.26463","lat":"31.38655","category":"47","category_name":"住宅区","address":""},{"poiid":"B2094655D36DA0FC4099","title":"新成路迎园路","lon":"121.26686","lat":"31.38569","category":"38","category_name":"公交车站","address":""},{"poiid":"B2094654D469A5F4479C","title":"集体商业有限公司银园食品商场","lon":"121.26499","lat":"31.38415","category":"119","category_name":"商场","address":"迎园中路604"},{"poiid":"B2094655D268A7FF469E","title":"新城公园","lon":"121.26873","lat":"31.38832","category":"196","category_name":"公园","address":""},{"poiid":"B2094757D064A3F44992","title":"恒通驾校","lon":"121.2621","lat":"31.38737","category":"253","category_name":"校园生活","address":"嘉定区塔城东路488号(近塔城路)"},{"poiid":"B2094654D469A5F5409B","title":"迎园菜场","lon":"121.26553","lat":"31.38469","category":"117","category_name":"便民商店/便利店","address":"嘉定区迎园中路(近迎园小学)"},{"poiid":"B2094654D469A5F5409C","title":"好德NO.599","lon":"121.26514","lat":"31.38425","category":"117","category_name":"便民商店/便利店","address":"迎园路594"},{"poiid":"B2094654D469A5F5409E","title":"良友金伴NO.498","lon":"121.26519","lat":"31.3843","category":"117","category_name":"便民商店/便利店","address":"迎园路590"},{"poiid":"B2094757D168A6F8429B","title":"鸿生面馆","lon":"121.263087","lat":"31.381146","category":"68","category_name":"快餐厅","address":"嘉定区仓场路2928号(近嘉罗公路)"},{"poiid":"B2094654DB6AA5FD429E","title":"小云南米线馆 仓场路店","lon":"121.267117054","lat":"31.381786793","category":"68","category_name":"快餐厅","address":"嘉定区仓场路"},{"poiid":"B2094654DB69A5FB449E","title":"重庆鸡公煲(仓场路店)","lon":"121.26343","lat":"31.38142","category":"71","category_name":"四川菜","address":"嘉定区仓场路2746号(仓场路迎园路)"},{"poiid":"B2094655D268A4FD4999","title":"迎园新村六、七坊(北门)","lon":"121.26358","lat":"31.38409","category":"47","category_name":"住宅区","address":""},{"poiid":"B2094655D26FA1FB479C","title":"迎园十三坊(南门)","lon":"121.26441","lat":"31.38619","category":"47","category_name":"住宅区","address":""},{"poiid":"B2094750DA6CA0F9419F","title":"清风人家","lon":"121.267906","lat":"31.381256","category":"247","category_name":"餐饮美食","address":"嘉定区仓场路2669号(近新成路)"},{"poiid":"B2094753D764AAFD439E","title":"朱记港式茶餐厅","lon":"121.256881","lat":"31.385845","category":"247","category_name":"餐饮美食","address":"上海市嘉定区金沙路257号"},{"poiid":"B2094757D064A0FF479A","title":"麦巢ktv","lon":"121.26563965","lat":"31.381196116","category":"170","category_name":"KTV","address":"上海市嘉定区嘉行公路"},{"poiid":"B2094655D268A6F4409C","title":"西村小区","lon":"121.26316","lat":"31.386873","category":"47","category_name":"住宅区","address":"塔城东路491弄-495弄"},{"poiid":"B2094757D06FABFF459A","title":"上海科学技术职业学院","lon":"121.25723515","lat":"31.385574228","category":"671","category_name":"高校中心点","address":"嘉定区金沙路280号"},{"poiid":"B2094757D06AA6F4439C","title":"仓场路","lon":"121.26558865","lat":"31.381247117","category":"500","category_name":"未知分类","address":"上海市嘉定区仓场路"},{"poiid":"B2094757D06AA3F54093","title":"明成缘","lon":"121.25831910488","lat":"31.384932781958","category":"96","category_name":"韩国料理","address":"嘉定区金沙路201号(近塔城路)"},{"poiid":"B2094757D064A3F5419E","title":"老盛昌汤包馆","lon":"121.267241653","lat":"31.3812336176","category":"247","category_name":"餐饮美食","address":"上海仓城路店"},{"poiid":"B2094654D469A4FE459D","title":"上海市嘉定区牙病防治所","lon":"121.26079","lat":"31.38631","category":"162","category_name":"医院","address":"嘉定区塔城路261号(金沙路塔城路)"},{"poiid":"B2094757D06BA1F4409A","title":"嘉定区委党校","lon":"121.257233","lat":"31.38462","category":"500","category_name":"未知分类","address":"上海嘉定区塔城路265号"},{"poiid":"B2094654D469A5F5419C","title":"快乐鸟盱眙十三香龙虾","lon":"121.26595","lat":"31.38135","category":"257","category_name":"中餐厅","address":"嘉定区仓场路2758号(近迎园路)"},{"poiid":"B2094757D065A5FC4392","title":"歌顿咖啡新成店","lon":"121.2694","lat":"31.38908","category":"260","category_name":"其他","address":"嘉定区塔城东路292号(近和政路)"},{"poiid":"B2094757D16FA4FA489C","title":"吴姑娘特色煲(仓场店)","lon":"121.265738653","lat":"31.3821161356","category":"76","category_name":"上海菜","address":"嘉定区仓场路2871号(近迎园路)"},{"poiid":"B2094757D16DA3FB439A","title":"口口咖啡法式铁板烧","lon":"121.26291","lat":"31.39523","category":"94","category_name":"西餐厅","address":"嘉定区新城路881号-C(近塔城路)"},{"poiid":"B2094757D065A6F8489D","title":"雪岳山韩国烧烤(嘉定店)","lon":"121.25825","lat":"31.38453","category":"96","category_name":"韩国料理","address":"嘉定区塔城路257号(近金沙路)"},{"poiid":"B2094757D06BAAFE489E","title":"上海科技学院9号楼寝室","lon":"121.25843525","lat":"31.387137438","category":"500","category_name":"未知分类","address":"上海嘉定区金沙路280号(塔城路口)"},{"poiid":"B2094757D464A0FA4292","title":"燕子酒家 嘉定花园店","lon":"121.2685578722","lat":"31.38965961212","category":"247","category_name":"餐饮美食","address":"嘉定区嘉定区新城路899号(近塔城路)"},{"poiid":"B2094757D065A6FB4193","title":"珍品(嘉罗公路店)","lon":"121.26207","lat":"31.38376","category":"76","category_name":"上海菜","address":"嘉定区嘉罗公路453号(宝嘉公路迎园中路)"},{"poiid":"B2094757D06AA6F8459B","title":"塔城路","lon":"121.26364565","lat":"31.387504245","category":"500","category_name":"未知分类","address":"上海市嘉定区"},{"poiid":"B2094655D26FABF8419A","title":"迎园新村五、八坊","lon":"121.26623","lat":"31.38359","category":"47","category_name":"住宅区","address":"上海嘉定区迎园中路"},{"poiid":"B2094757D66BA3FA4799","title":"张太和爊鸭 仓场路店","lon":"121.266739054","lat":"31.381288793","category":"68","category_name":"快餐厅","address":"嘉定区仓场路2879号(仓场路迎园路)"},{"poiid":"B2094757D064AAF8429C","title":"张太和爊鸭(迎园店)","lon":"121.26682","lat":"31.38407","category":"68","category_name":"快餐厅","address":"嘉定区嘉定镇迎园中路616号(迎园北路迎园路)"},{"poiid":"B2094654D469A4FE449C","title":"上海外国语大学嘉定外国语实验学校","lon":"121.25979","lat":"31.38351","category":"52","category_name":"高等院校","address":"嘉定区金沙路168号(近欧尚超市)"},{"poiid":"B2094654D469A5F4489E","title":"迎园新村六七坊","lon":"121.26358","lat":"31.38372","category":"47","category_name":"住宅区","address":"新成路"},{"poiid":"B2094757D06AA0FE4398","title":"夏天形象设计中心(金沙路店)","lon":"121.25784","lat":"31.38462","category":"148","category_name":"美容美发店","address":"嘉定区金沙路(近塔城路)"},{"poiid":"B2094655D268A4FE409B","title":"迎园新村十坊","lon":"121.26323","lat":"31.385235","category":"47","category_name":"住宅区","address":"新成路街道迎园路277弄"},{"poiid":"B2094757D16CA0FE469E","title":"阿娥汤圆店(金沙路店)","lon":"121.25817","lat":"31.3831844","category":"68","category_name":"快餐厅","address":"嘉定区金沙路(近仓场路)"},{"poiid":"B209475DD665A0F8419E","title":"三花奶奶甜品店","lon":"121.26371","lat":"31.385597","category":"247","category_name":"餐饮美食","address":"上海市 塔城路210号"},{"poiid":"B2094757D66BA2FB469D","title":"道草日本料理","lon":"121.25798","lat":"31.3848","category":"95","category_name":"日本料理","address":"嘉定区塔城路257号(金沙路口)"},{"poiid":"B2094757D664A6F44592","title":"江湖翅客","lon":"121.258849","lat":"31.385271","category":"68","category_name":"快餐厅","address":"嘉定区塔城路174号党校东侧(近金沙路)"},{"poiid":"B2094654D469A4FE4799","title":"嘉乐花园","lon":"121.26138","lat":"31.384384","category":"47","category_name":"住宅区","address":"嘉罗公路485弄"},{"poiid":"B2094757D16AA3FE4399","title":"哈瓦那酒吧","lon":"121.2669661","lat":"31.384118816","category":"172","category_name":"酒吧","address":"嘉定区环城路579号(近嘉行公路)"},{"poiid":"B2094654D469A5F4489F","title":"嘉定区迎园小学","lon":"121.26482","lat":"31.38512","category":"56","category_name":"小学","address":"迎宾路651"},{"poiid":"B2094654D469A4FE439A","title":"和幸日本料理","lon":"121.257507","lat":"31.385252","category":"95","category_name":"日本料理","address":"嘉定区金沙路207号(近塔城路)"},{"poiid":"B2094655D26BABFC449B","title":"铭记烧烤麻辣烫","lon":"121.2638","lat":"31.38099","category":"68","category_name":"快餐厅","address":"嘉定区仓场路2899号(仓场路嘉定迎宾路)"},{"poiid":"B2094757D069ABF54698","title":"巴麦隆自助烤肉嘉定店","lon":"121.257041","lat":"31.384297","category":"257","category_name":"中餐厅","address":"嘉定区嘉定区塔城路267号(金沙路欧尚超市对面)"},{"poiid":"B2094654D469A5F4499D","title":"迎园新村十一坊","lon":"121.26624","lat":"31.385618","category":"47","category_name":"住宅区","address":"新成路附近"},{"poiid":"B2094655D268A4FE409A","title":"迎园十三坊","lon":"121.26463","lat":"31.38655","category":"47","category_name":"住宅区","address":""},{"poiid":"B2094655D36DA0FC4099","title":"新成路迎园路","lon":"121.26686","lat":"31.38569","category":"38","category_name":"公交车站","address":""},{"poiid":"B2094654D469A5F4479C","title":"集体商业有限公司银园食品商场","lon":"121.26499","lat":"31.38415","category":"119","category_name":"商场","address":"迎园中路604"},{"poiid":"B2094655D268A7FF469E","title":"新城公园","lon":"121.26873","lat":"31.38832","category":"196","category_name":"公园","address":""},{"poiid":"B2094757D064A3F44992","title":"恒通驾校","lon":"121.2621","lat":"31.38737","category":"253","category_name":"校园生活","address":"嘉定区塔城东路488号(近塔城路)"},{"poiid":"B2094654D469A5F5409B","title":"迎园菜场","lon":"121.26553","lat":"31.38469","category":"117","category_name":"便民商店/便利店","address":"嘉定区迎园中路(近迎园小学)"},{"poiid":"B2094654D469A5F5409C","title":"好德NO.599","lon":"121.26514","lat":"31.38425","category":"117","category_name":"便民商店/便利店","address":"迎园路594"},{"poiid":"B2094654D469A5F5409E","title":"良友金伴NO.498","lon":"121.26519","lat":"31.3843","category":"117","category_name":"便民商店/便利店","address":"迎园路590"},{"poiid":"B2094757D168A6F8429B","title":"鸿生面馆","lon":"121.263087","lat":"31.381146","category":"68","category_name":"快餐厅","address":"嘉定区仓场路2928号(近嘉罗公路)"},{"poiid":"B2094654DB6AA5FD429E","title":"小云南米线馆 仓场路店","lon":"121.267117054","lat":"31.381786793","category":"68","category_name":"快餐厅","address":"嘉定区仓场路"},{"poiid":"B2094654DB69A5FB449E","title":"重庆鸡公煲(仓场路店)","lon":"121.26343","lat":"31.38142","category":"71","category_name":"四川菜","address":"嘉定区仓场路2746号(仓场路迎园路)"},{"poiid":"B2094655D268A4FD4999","title":"迎园新村六、七坊(北门)","lon":"121.26358","lat":"31.38409","category":"47","category_name":"住宅区","address":""},{"poiid":"B2094655D26FA1FB479C","title":"迎园十三坊(南门)","lon":"121.26441","lat":"31.38619","category":"47","category_name":"住宅区","address":""},{"poiid":"B2094750DA6CA0F9419F","title":"清风人家","lon":"121.267906","lat":"31.381256","category":"247","category_name":"餐饮美食","address":"嘉定区仓场路2669号(近新成路)"},{"poiid":"B2094753D764AAFD439E","title":"朱记港式茶餐厅","lon":"121.256881","lat":"31.385845","category":"247","category_name":"餐饮美食","address":"上海市嘉定区金沙路257号"},{"poiid":"B2094757D064A0FF479A","title":"麦巢ktv","lon":"121.26563965","lat":"31.381196116","category":"170","category_name":"KTV","address":"上海市嘉定区嘉行公路"},{"poiid":"B2094655D268A6F4409C","title":"西村小区","lon":"121.26316","lat":"31.386873","category":"47","category_name":"住宅区","address":"塔城东路491弄-495弄"},{"poiid":"B2094757D06FABFF459A","title":"上海科学技术职业学院","lon":"121.25723515","lat":"31.385574228","category":"671","category_name":"高校中心点","address":"嘉定区金沙路280号"},{"poiid":"B2094757D06AA6F4439C","title":"仓场路","lon":"121.26558865","lat":"31.381247117","category":"500","category_name":"未知分类","address":"上海市嘉定区仓场路"},{"poiid":"B2094757D06AA3F54093","title":"明成缘","lon":"121.25831910488","lat":"31.384932781958","category":"96","category_name":"韩国料理","address":"嘉定区金沙路201号(近塔城路)"},{"poiid":"B2094757D064A3F5419E","title":"老盛昌汤包馆","lon":"121.267241653","lat":"31.3812336176","category":"247","category_name":"餐饮美食","address":"上海仓城路店"},{"poiid":"B2094654D469A4FE459D","title":"上海市嘉定区牙病防治所","lon":"121.26079","lat":"31.38631","category":"162","category_name":"医院","address":"嘉定区塔城路261号(金沙路塔城路)"},{"poiid":"B2094757D06BA1F4409A","title":"嘉定区委党校","lon":"121.257233","lat":"31.38462","category":"500","category_name":"未知分类","address":"上海嘉定区塔城路265号"},{"poiid":"B2094654D469A5F5419C","title":"快乐鸟盱眙十三香龙虾","lon":"121.26595","lat":"31.38135","category":"257","category_name":"中餐厅","address":"嘉定区仓场路2758号(近迎园路)"},{"poiid":"B2094757D065A5FC4392","title":"歌顿咖啡新成店","lon":"121.2694","lat":"31.38908","category":"260","category_name":"其他","address":"嘉定区塔城东路292号(近和政路)"},{"poiid":"B2094757D16FA4FA489C","title":"吴姑娘特色煲(仓场店)","lon":"121.265738653","lat":"31.3821161356","category":"76","category_name":"上海菜","address":"嘉定区仓场路2871号(近迎园路)"},{"poiid":"B2094757D16DA3FB439A","title":"口口咖啡法式铁板烧","lon":"121.26291","lat":"31.39523","category":"94","category_name":"西餐厅","address":"嘉定区新城路881号-C(近塔城路)"},{"poiid":"B2094757D065A6F8489D","title":"雪岳山韩国烧烤(嘉定店)","lon":"121.25825","lat":"31.38453","category":"96","category_name":"韩国料理","address":"嘉定区塔城路257号(近金沙路)"},{"poiid":"B2094757D06BAAFE489E","title":"上海科技学院9号楼寝室","lon":"121.25843525","lat":"31.387137438","category":"500","category_name":"未知分类","address":"上海嘉定区金沙路280号(塔城路口)"},{"poiid":"B2094757D464A0FA4292","title":"燕子酒家 嘉定花园店","lon":"121.2685578722","lat":"31.38965961212","category":"247","category_name":"餐饮美食","address":"嘉定区嘉定区新城路899号(近塔城路)"},{"poiid":"B2094757D065A6FB4193","title":"珍品(嘉罗公路店)","lon":"121.26207","lat":"31.38376","category":"76","category_name":"上海菜","address":"嘉定区嘉罗公路453号(宝嘉公路迎园中路)"},{"poiid":"B2094757D06AA6F8459B","title":"塔城路","lon":"121.26364565","lat":"31.387504245","category":"500","category_name":"未知分类","address":"上海市嘉定区"},{"poiid":"B2094655D26FABF8419A","title":"迎园新村五、八坊","lon":"121.26623","lat":"31.38359","category":"47","category_name":"住宅区","address":"上海嘉定区迎园中路"},{"poiid":"B2094757D66BA3FA4799","title":"张太和爊鸭 仓场路店","lon":"121.266739054","lat":"31.381288793","category":"68","category_name":"快餐厅","address":"嘉定区仓场路2879号(仓场路迎园路)"},{"poiid":"B2094757D064AAF8429C","title":"张太和爊鸭(迎园店)","lon":"121.26682","lat":"31.38407","category":"68","category_name":"快餐厅","address":"嘉定区嘉定镇迎园中路616号(迎园北路迎园路)"},{"poiid":"B2094654D469A4FE449C","title":"上海外国语大学嘉定外国语实验学校","lon":"121.25979","lat":"31.38351","category":"52","category_name":"高等院校","address":"嘉定区金沙路168号(近欧尚超市)"},{"poiid":"B2094654D469A5F4489E","title":"迎园新村六七坊","lon":"121.26358","lat":"31.38372","category":"47","category_name":"住宅区","address":"新成路"},{"poiid":"B2094757D06AA0FE4398","title":"夏天形象设计中心(金沙路店)","lon":"121.25784","lat":"31.38462","category":"148","category_name":"美容美发店","address":"嘉定区金沙路(近塔城路)"},{"poiid":"B2094655D268A4FE409B","title":"迎园新村十坊","lon":"121.26323","lat":"31.385235","category":"47","category_name":"住宅区","address":"新成路街道迎园路277弄"},{"poiid":"B2094757D16CA0FE469E","title":"阿娥汤圆店(金沙路店)","lon":"121.25817","lat":"31.3831844","category":"68","category_name":"快餐厅","address":"嘉定区金沙路(近仓场路)"},{"poiid":"B209475DD665A0F8419E","title":"三花奶奶甜品店","lon":"121.26371","lat":"31.385597","category":"247","category_name":"餐饮美食","address":"上海市 塔城路210号"},{"poiid":"B2094757D66BA2FB469D","title":"道草日本料理","lon":"121.25798","lat":"31.3848","category":"95","category_name":"日本料理","address":"嘉定区塔城路257号(金沙路口)"},{"poiid":"B2094757D664A6F44592","title":"江湖翅客","lon":"121.258849","lat":"31.385271","category":"68","category_name":"快餐厅","address":"嘉定区塔城路174号党校东侧(近金沙路)"},{"poiid":"B2094654D469A4FE4799","title":"嘉乐花园","lon":"121.26138","lat":"31.384384","category":"47","category_name":"住宅区","address":"嘉罗公路485弄"},{"poiid":"B2094757D16AA3FE4399","title":"哈瓦那酒吧","lon":"121.2669661","lat":"31.384118816","category":"172","category_name":"酒吧","address":"嘉定区环城路579号(近嘉行公路)"},{"poiid":"B2094654D469A5F4489F","title":"嘉定区迎园小学","lon":"121.26482","lat":"31.38512","category":"56","category_name":"小学","address":"迎宾路651"},{"poiid":"B2094654D469A4FE439A","title":"和幸日本料理","lon":"121.257507","lat":"31.385252","category":"95","category_name":"日本料理","address":"嘉定区金沙路207号(近塔城路)"},{"poiid":"B2094655D26BABFC449B","title":"铭记烧烤麻辣烫","lon":"121.2638","lat":"31.38099","category":"68","category_name":"快餐厅","address":"嘉定区仓场路2899号(仓场路嘉定迎宾路)"},{"poiid":"B2094757D069ABF54698","title":"巴麦隆自助烤肉嘉定店","lon":"121.257041","lat":"31.384297","category":"257","category_name":"中餐厅","address":"嘉定区嘉定区塔城路267号(金沙路欧尚超市对面)"},{"poiid":"B2094654D469A5F4499D","title":"迎园新村十一坊","lon":"121.26624","lat":"31.385618","category":"47","category_name":"住宅区","address":"新成路附近"},{"poiid":"B2094655D268A4FE409A","title":"迎园十三坊","lon":"121.26463","lat":"31.38655","category":"47","category_name":"住宅区","address":""},{"poiid":"B2094655D36DA0FC4099","title":"新成路迎园路","lon":"121.26686","lat":"31.38569","category":"38","category_name":"公交车站","address":""},{"poiid":"B2094654D469A5F4479C","title":"集体商业有限公司银园食品商场","lon":"121.26499","lat":"31.38415","category":"119","category_name":"商场","address":"迎园中路604"},{"poiid":"B2094655D268A7FF469E","title":"新城公园","lon":"121.26873","lat":"31.38832","category":"196","category_name":"公园","address":""},{"poiid":"B2094757D064A3F44992","title":"恒通驾校","lon":"121.2621","lat":"31.38737","category":"253","category_name":"校园生活","address":"嘉定区塔城东路488号(近塔城路)"},{"poiid":"B2094654D469A5F5409B","title":"迎园菜场","lon":"121.26553","lat":"31.38469","category":"117","category_name":"便民商店/便利店","address":"嘉定区迎园中路(近迎园小学)"},{"poiid":"B2094654D469A5F5409C","title":"好德NO.599","lon":"121.26514","lat":"31.38425","category":"117","category_name":"便民商店/便利店","address":"迎园路594"},{"poiid":"B2094654D469A5F5409E","title":"良友金伴NO.498","lon":"121.26519","lat":"31.3843","category":"117","category_name":"便民商店/便利店","address":"迎园路590"},{"poiid":"B2094757D168A6F8429B","title":"鸿生面馆","lon":"121.263087","lat":"31.381146","category":"68","category_name":"快餐厅","address":"嘉定区仓场路2928号(近嘉罗公路)"},{"poiid":"B2094654DB6AA5FD429E","title":"小云南米线馆 仓场路店","lon":"121.267117054","lat":"31.381786793","category":"68","category_name":"快餐厅","address":"嘉定区仓场路"},{"poiid":"B2094654DB69A5FB449E","title":"重庆鸡公煲(仓场路店)","lon":"121.26343","lat":"31.38142","category":"71","category_name":"四川菜","address":"嘉定区仓场路2746号(仓场路迎园路)"},{"poiid":"B2094655D268A4FD4999","title":"迎园新村六、七坊(北门)","lon":"121.26358","lat":"31.38409","category":"47","category_name":"住宅区","address":""},{"poiid":"B2094655D26FA1FB479C","title":"迎园十三坊(南门)","lon":"121.26441","lat":"31.38619","category":"47","category_name":"住宅区","address":""},{"poiid":"B2094750DA6CA0F9419F","title":"清风人家","lon":"121.267906","lat":"31.381256","category":"247","category_name":"餐饮美食","address":"嘉定区仓场路2669号(近新成路)"},{"poiid":"B2094753D764AAFD439E","title":"朱记港式茶餐厅","lon":"121.256881","lat":"31.385845","category":"247","category_name":"餐饮美食","address":"上海市嘉定区金沙路257号"},{"poiid":"B2094757D064A0FF479A","title":"麦巢ktv","lon":"121.26563965","lat":"31.381196116","category":"170","category_name":"KTV","address":"上海市嘉定区嘉行公路"},{"poiid":"B2094655D268A6F4409C","title":"西村小区","lon":"121.26316","lat":"31.386873","category":"47","category_name":"住宅区","address":"塔城东路491弄-495弄"},{"poiid":"B2094757D06FABFF459A","title":"上海科学技术职业学院","lon":"121.25723515","lat":"31.385574228","category":"671","category_name":"高校中心点","address":"嘉定区金沙路280号"},{"poiid":"B2094757D06AA6F4439C","title":"仓场路","lon":"121.26558865","lat":"31.381247117","category":"500","category_name":"未知分类","address":"上海市嘉定区仓场路"},{"poiid":"B2094757D06AA3F54093","title":"明成缘","lon":"121.25831910488","lat":"31.384932781958","category":"96","category_name":"韩国料理","address":"嘉定区金沙路201号(近塔城路)"},{"poiid":"B2094757D064A3F5419E","title":"老盛昌汤包馆","lon":"121.267241653","lat":"31.3812336176","category":"247","category_name":"餐饮美食","address":"上海仓城路店"},{"poiid":"B2094654D469A4FE459D","title":"上海市嘉定区牙病防治所","lon":"121.26079","lat":"31.38631","category":"162","category_name":"医院","address":"嘉定区塔城路261号(金沙路塔城路)"},{"poiid":"B2094757D06BA1F4409A","title":"嘉定区委党校","lon":"121.257233","lat":"31.38462","category":"500","category_name":"未知分类","address":"上海嘉定区塔城路265号"},{"poiid":"B2094654D469A5F5419C","title":"快乐鸟盱眙十三香龙虾","lon":"121.26595","lat":"31.38135","category":"257","category_name":"中餐厅","address":"嘉定区仓场路2758号(近迎园路)"},{"poiid":"B2094757D065A5FC4392","title":"歌顿咖啡新成店","lon":"121.2694","lat":"31.38908","category":"260","category_name":"其他","address":"嘉定区塔城东路292号(近和政路)"},{"poiid":"B2094757D16FA4FA489C","title":"吴姑娘特色煲(仓场店)","lon":"121.265738653","lat":"31.3821161356","category":"76","category_name":"上海菜","address":"嘉定区仓场路2871号(近迎园路)"},{"poiid":"B2094757D16DA3FB439A","title":"口口咖啡法式铁板烧","lon":"121.26291","lat":"31.39523","category":"94","category_name":"西餐厅","address":"嘉定区新城路881号-C(近塔城路)"},{"poiid":"B2094757D065A6F8489D","title":"雪岳山韩国烧烤(嘉定店)","lon":"121.25825","lat":"31.38453","category":"96","category_name":"韩国料理","address":"嘉定区塔城路257号(近金沙路)"},{"poiid":"B2094757D06BAAFE489E","title":"上海科技学院9号楼寝室","lon":"121.25843525","lat":"31.387137438","category":"500","category_name":"未知分类","address":"上海嘉定区金沙路280号(塔城路口)"},{"poiid":"B2094757D464A0FA4292","title":"燕子酒家 嘉定花园店","lon":"121.2685578722","lat":"31.38965961212","category":"247","category_name":"餐饮美食","address":"嘉定区嘉定区新城路899号(近塔城路)"},{"poiid":"B2094757D065A6FB4193","title":"珍品(嘉罗公路店)","lon":"121.26207","lat":"31.38376","category":"76","category_name":"上海菜","address":"嘉定区嘉罗公路453号(宝嘉公路迎园中路)"},{"poiid":"B2094757D06AA6F8459B","title":"塔城路","lon":"121.26364565","lat":"31.387504245","category":"500","category_name":"未知分类","address":"上海市嘉定区"},{"poiid":"B2094655D26FABF8419A","title":"迎园新村五、八坊","lon":"121.26623","lat":"31.38359","category":"47","category_name":"住宅区","address":"上海嘉定区迎园中路"},{"poiid":"B2094757D66BA3FA4799","title":"张太和爊鸭 仓场路店","lon":"121.266739054","lat":"31.381288793","category":"68","category_name":"快餐厅","address":"嘉定区仓场路2879号(仓场路迎园路)"},{"poiid":"B2094757D064AAF8429C","title":"张太和爊鸭(迎园店)","lon":"121.26682","lat":"31.38407","category":"68","category_name":"快餐厅","address":"嘉定区嘉定镇迎园中路616号(迎园北路迎园路)"},{"poiid":"B2094654D469A4FE449C","title":"上海外国语大学嘉定外国语实验学校","lon":"121.25979","lat":"31.38351","category":"52","category_name":"高等院校","address":"嘉定区金沙路168号(近欧尚超市)"},{"poiid":"B2094654D469A5F4489E","title":"迎园新村六七坊","lon":"121.26358","lat":"31.38372","category":"47","category_name":"住宅区","address":"新成路"},{"poiid":"B2094757D06AA0FE4398","title":"夏天形象设计中心(金沙路店)","lon":"121.25784","lat":"31.38462","category":"148","category_name":"美容美发店","address":"嘉定区金沙路(近塔城路)"},{"poiid":"B2094655D268A4FE409B","title":"迎园新村十坊","lon":"121.26323","lat":"31.385235","category":"47","category_name":"住宅区","address":"新成路街道迎园路277弄"},{"poiid":"B2094757D16CA0FE469E","title":"阿娥汤圆店(金沙路店)","lon":"121.25817","lat":"31.3831844","category":"68","category_name":"快餐厅","address":"嘉定区金沙路(近仓场路)"},{"poiid":"B209475DD665A0F8419E","title":"三花奶奶甜品店","lon":"121.26371","lat":"31.385597","category":"247","category_name":"餐饮美食","address":"上海市 塔城路210号"},{"poiid":"B2094757D66BA2FB469D","title":"道草日本料理","lon":"121.25798","lat":"31.3848","category":"95","category_name":"日本料理","address":"嘉定区塔城路257号(金沙路口)"},{"poiid":"B2094757D664A6F44592","title":"江湖翅客","lon":"121.258849","lat":"31.385271","category":"68","category_name":"快餐厅","address":"嘉定区塔城路174号党校东侧(近金沙路)"},{"poiid":"B2094654D469A4FE4799","title":"嘉乐花园","lon":"121.26138","lat":"31.384384","category":"47","category_name":"住宅区","address":"嘉罗公路485弄"},{"poiid":"B2094757D16AA3FE4399","title":"哈瓦那酒吧","lon":"121.2669661","lat":"31.384118816","category":"172","category_name":"酒吧","address":"嘉定区环城路579号(近嘉行公路)"},{"poiid":"B2094654D469A5F4489F","title":"嘉定区迎园小学","lon":"121.26482","lat":"31.38512","category":"56","category_name":"小学","address":"迎宾路651"},{"poiid":"B2094654D469A4FE439A","title":"和幸日本料理","lon":"121.257507","lat":"31.385252","category":"95","category_name":"日本料理","address":"嘉定区金沙路207号(近塔城路)"},{"poiid":"B2094655D26BABFC449B","title":"铭记烧烤麻辣烫","lon":"121.2638","lat":"31.38099","category":"68","category_name":"快餐厅","address":"嘉定区仓场路2899号(仓场路嘉定迎宾路)"},{"poiid":"B2094757D069ABF54698","title":"巴麦隆自助烤肉嘉定店","lon":"121.257041","lat":"31.384297","category":"257","category_name":"中餐厅","address":"嘉定区嘉定区塔城路267号(金沙路欧尚超市对面)"},{"poiid":"B2094654D469A5F4499D","title":"迎园新村十一坊","lon":"121.26624","lat":"31.385618","category":"47","category_name":"住宅区","address":"新成路附近"},{"poiid":"B2094655D268A4FE409A","title":"迎园十三坊","lon":"121.26463","lat":"31.38655","category":"47","category_name":"住宅区","address":""},{"poiid":"B2094655D36DA0FC4099","title":"新成路迎园路","lon":"121.26686","lat":"31.38569","category":"38","category_name":"公交车站","address":""},{"poiid":"B2094654D469A5F4479C","title":"集体商业有限公司银园食品商场","lon":"121.26499","lat":"31.38415","category":"119","category_name":"商场","address":"迎园中路604"},{"poiid":"B2094655D268A7FF469E","title":"新城公园","lon":"121.26873","lat":"31.38832","category":"196","category_name":"公园","address":""},{"poiid":"B2094757D064A3F44992","title":"恒通驾校","lon":"121.2621","lat":"31.38737","category":"253","category_name":"校园生活","address":"嘉定区塔城东路488号(近塔城路)"},{"poiid":"B2094654D469A5F5409B","title":"迎园菜场","lon":"121.26553","lat":"31.38469","category":"117","category_name":"便民商店/便利店","address":"嘉定区迎园中路(近迎园小学)"},{"poiid":"B2094654D469A5F5409C","title":"好德NO.599","lon":"121.26514","lat":"31.38425","category":"117","category_name":"便民商店/便利店","address":"迎园路594"},{"poiid":"B2094654D469A5F5409E","title":"良友金伴NO.498","lon":"121.26519","lat":"31.3843","category":"117","category_name":"便民商店/便利店","address":"迎园路590"},{"poiid":"B2094757D168A6F8429B","title":"鸿生面馆","lon":"121.263087","lat":"31.381146","category":"68","category_name":"快餐厅","address":"嘉定区仓场路2928号(近嘉罗公路)"},{"poiid":"B2094654DB6AA5FD429E","title":"小云南米线馆 仓场路店","lon":"121.267117054","lat":"31.381786793","category":"68","category_name":"快餐厅","address":"嘉定区仓场路"},{"poiid":"B2094654DB69A5FB449E","title":"重庆鸡公煲(仓场路店)","lon":"121.26343","lat":"31.38142","category":"71","category_name":"四川菜","address":"嘉定区仓场路2746号(仓场路迎园路)"},{"poiid":"B2094655D268A4FD4999","title":"迎园新村六、七坊(北门)","lon":"121.26358","lat":"31.38409","category":"47","category_name":"住宅区","address":""},{"poiid":"B2094655D26FA1FB479C","title":"迎园十三坊(南门)","lon":"121.26441","lat":"31.38619","category":"47","category_name":"住宅区","address":""},{"poiid":"B2094750DA6CA0F9419F","title":"清风人家","lon":"121.267906","lat":"31.381256","category":"247","category_name":"餐饮美食","address":"嘉定区仓场路2669号(近新成路)"},{"poiid":"B2094753D764AAFD439E","title":"朱记港式茶餐厅","lon":"121.256881","lat":"31.385845","category":"247","category_name":"餐饮美食","address":"上海市嘉定区金沙路257号"},{"poiid":"B2094757D064A0FF479A","title":"麦巢ktv","lon":"121.26563965","lat":"31.381196116","category":"170","category_name":"KTV","address":"上海市嘉定区嘉行公路"},{"poiid":"B2094655D268A6F4409C","title":"西村小区","lon":"121.26316","lat":"31.386873","category":"47","category_name":"住宅区","address":"塔城东路491弄-495弄"}]