[{"poiid":"B2094757D06FA5F4429A","title":"天都火锅","lon":"121.42788","lat":"31.1346","category":"86","category_name":"火锅店","address":"徐汇区上中西路211号(近天等路)"},{"poiid":"B2094757D068A3FC4998","title":"金沙渔港","lon":"121.4277676274","lat":"31.135187256717","category":"75","category_name":"浙江菜","address":"徐汇区天等路400号(近丹棱路)"},{"poiid":"B2094757D069A3F54093","title":"小杨盱眙小龙虾","lon":"121.4256084","lat":"31.133146723","category":"68","category_name":"快餐厅","address":"徐汇区龙州路490号"},{"poiid":"B2094654DA65ABF44893","title":"上海市经济管理干部学院","lon":"121.42602","lat":"31.14","category":"671","category_name":"高校中心点","address":"徐汇区梅陇路161号(近天等路)"},{"poiid":"B2094757D06FA7FA489D","title":"上海职工医学院","lon":"121.42727","lat":"31.14061","category":"671","category_name":"高校中心点","address":"上海徐汇区梅陇路21号(近天等路)  "},{"poiid":"B2094757D069A5F4409C","title":"上海健康职业技术学院","lon":"121.42435945","lat":"31.139170946","category":"253","category_name":"校园生活","address":"徐汇区梅陇路21号(近天等路)"},{"poiid":"B2094757D068ABFE409B","title":"新侨职业技术学院(徐汇分校)","lon":"121.4264","lat":"31.1386","category":"54","category_name":"职业技术学校","address":"徐汇区天等路465号(近梅陇路)"},{"poiid":"B2094757D06FA4F9419A","title":"梅陇十一村","lon":"121.42716","lat":"31.132442","category":"47","category_name":"住宅区","address":"上海上中西路天等路"},{"poiid":"B2094654DA65ABF44093","title":"华东理工大学附属中学","lon":"121.42369","lat":"31.13447","category":"55","category_name":"中学","address":"上海梅陇十村80号"},{"poiid":"B2094757D06FA5FA4699","title":"梅陇四村","lon":"121.42199","lat":"31.137596","category":"47","category_name":"住宅区","address":"上海徐汇区梅陇四村"},{"poiid":"B2094757D068AAFD4298","title":"阳光绿园","lon":"121.42924","lat":"31.137108","category":"47","category_name":"住宅区","address":"上海市徐汇区老沪闵路799号"},{"poiid":"B2094654DB6CA2FC489E","title":"和平小区(罗秀路)","lon":"121.43076","lat":"31.13226","category":"47","category_name":"住宅区","address":"上海徐汇区罗秀路930弄(近天等路)"},{"poiid":"B2094654DB64A6FA4998","title":"汉庭快捷(南站店)","lon":"121.42759","lat":"31.13726","category":"216","category_name":"经济型连锁酒店","address":"上海市徐汇区天等路400号(近华东理工大学正门)"},{"poiid":"B2094757D068A7FC499A","title":"多样屋(天等路总部)","lon":"121.428948403","lat":"31.1338527134","category":"46","category_name":"楼宇","address":"徐汇区天等路188号(上中西路口)"},{"poiid":"B2094757D568A5FE4499","title":"万科燕南园","lon":"121.423","lat":"31.1367","category":"47","category_name":"住宅区","address":"上海市闵行区景联路1111弄"},{"poiid":"B2094655D268A2F84093","title":"尚苑宾馆","lon":"121.42662","lat":"31.13831","category":"250","category_name":"公园户外","address":"徐汇区天等路469号(近梅陇路)"},{"poiid":"B2094654DA65ABFB419F","title":"梅陇五村","lon":"121.42187","lat":"31.134462","category":"47","category_name":"住宅区","address":"徐汇区嘉川路凌云路"},{"poiid":"B2094757D069A5F5419E","title":"天等路","lon":"121.4278757","lat":"31.1359372","category":"500","category_name":"未知分类","address":"上海徐汇区天等路"},{"poiid":"B2094655D26FA6F94793","title":"徐汇锦梅苑","lon":"121.42317","lat":"31.132832","category":"47","category_name":"住宅区","address":"上海市徐汇区梅陇十村19号"},{"poiid":"B2094751D26BABFD469A","title":"新伶达港骨头皇火锅","lon":"121.427612","lat":"31.137207","category":"86","category_name":"火锅店","address":"徐汇区上中西路150号(近天等路)"},{"poiid":"B2094757D06AA5F5449B","title":"梅陇六村","lon":"121.42579480056","lat":"31.139487689707","category":"252","category_name":"楼宇机构","address":"上海上中西路凌云路"},{"poiid":"B2094757D06AA1FD469C","title":"市国资委党校","lon":"121.42493438","lat":"31.140525817","category":"500","category_name":"未知分类","address":"上海徐汇区天等路501号"},{"poiid":"B2094750DB6EA4F4419B","title":"阳光新景","lon":"121.42667","lat":"31.135635","category":"47","category_name":"住宅区","address":"上海市徐汇区天等路259弄(上中西路口)"},{"poiid":"B2094655D265A4F8419D","title":"上海幼儿园","lon":"121.42368","lat":"31.13448","category":"57","category_name":"幼儿园","address":"上中西路378"},{"poiid":"B2094654DB6CA2FD4193","title":"家乐苑","lon":"121.43154","lat":"31.135004","category":"47","category_name":"住宅区","address":"上海上中西路55弄"},{"poiid":"B2094655D26AA7FC419E","title":"金磐桌球俱乐部","lon":"121.4276","lat":"31.13709","category":"247","category_name":"餐饮美食","address":"徐汇区天等路400号3楼(近梅陇路)"},{"poiid":"B2094757D169ABF84292","title":"辽北家园饺子馆","lon":"121.42802","lat":"31.13647","category":"82","category_name":"东北菜","address":"徐汇区天等路400号金沙渔港附近(近梅陇路)"},{"poiid":"B2094655D26BA2F9419E","title":"天等路上中西路","lon":"121.42758","lat":"31.13663","category":"38","category_name":"公交车站","address":""},{"poiid":"B2094757D16BA6F84699","title":"上海市社会主义学院","lon":"121.426991857","lat":"31.1384291318","category":"500","category_name":"未知分类","address":"上海市徐汇区天等路469号"},{"poiid":"B2094757D16BA2F54592","title":"龙州路加油站","lon":"121.42733945","lat":"31.134763758","category":"154","category_name":"加油加气站","address":"上海龙州路上中西路口"},{"poiid":"B2094655D26AA6F8419C","title":"文章鸡大酒楼","lon":"121.4294","lat":"31.13557","category":"87","category_name":"特色／地方风味餐厅","address":"徐汇区上中西路150号(近天等路)"},{"poiid":"B2094757D06BABF8479C","title":"鼎茶","lon":"121.427497864","lat":"31.1355838776","category":"247","category_name":"餐饮美食","address":"上海梅陇路龙州路华轻一楼"},{"poiid":"B2094757D168A7FD4699","title":"上海移动上中西路营业厅","lon":"121.42808985","lat":"31.135751078","category":"151","category_name":"电讯营业厅","address":"闵行区上中西路216号(近天等路)"},{"poiid":"B2094654DA65ABF44092","title":"小杨盱眙十三香手抓龙虾(上中西路)","lon":"121.42378","lat":"31.13426","category":"68","category_name":"快餐厅","address":"徐汇区上中西路380号(近华东理工大学附属中学)"},{"poiid":"B2094654DB6CA2FC4092","title":"梅陇十村","lon":"121.431","lat":"31.1362","category":"47","category_name":"住宅区","address":"罗秀路1164弄77-136号"},{"poiid":"B2094654DA65AAFC4092","title":"永琪美容美发(阳光新景东北)","lon":"121.42796","lat":"31.1362","category":"148","category_name":"美容美发店","address":"凌云路"},{"poiid":"B2094654DB64AAF4409C","title":"好德便利No.964","lon":"121.42827","lat":"31.1354","category":"117","category_name":"便民商店/便利店","address":"天等路212-1"},{"poiid":"B2094654DB64AAF4419C","title":"好德便利No.632","lon":"121.42702","lat":"31.13435","category":"117","category_name":"便民商店/便利店","address":"徐汇区上中西路223号(虹梅南路上中西路)"},{"poiid":"B2094750DB6EA3F84298","title":"上海第六人民医院","lon":"121.425288","lat":"31.137207","category":"162","category_name":"医院","address":null},{"poiid":"B2094757D16EABFF419E","title":"环球金融中心B2楼","lon":"121.42783865","lat":"31.136304479","category":"500","category_name":"未知分类","address":"上海世纪大道100号环球金融中心B2"},{"poiid":"B2094757D16FA6FE449D","title":"梅陇八村","lon":"121.42489","lat":"31.136774","category":"252","category_name":"楼宇机构","address":"上海徐汇区龙州路嘉川路"},{"poiid":"B2094757D168A5FA459D","title":"吉龙豆捞","lon":"121.42448","lat":"31.13532","category":"86","category_name":"火锅店","address":"徐汇区龙州路925号(梅陇七村对面)"},{"poiid":"B2094654DB6CA2FD459E","title":"光明新鲜屋上中西路店","lon":"121.42598","lat":"31.13426","category":"117","category_name":"便民商店/便利店","address":""},{"poiid":"B2094655D26FA7FB4198","title":"得源公寓(西门)","lon":"121.42797","lat":"31.13606","category":"47","category_name":"住宅区","address":"天等路228弄1-4号"},{"poiid":"B2094654DB64A2FB469E","title":"上海新侨学院(天等路)","lon":"121.42682","lat":"31.13916","category":"68","category_name":"快餐厅","address":"徐汇区天等路465号(近梅陇路)"},{"poiid":"B2094655D268A2F4449C","title":"天等路214弄小区(西门)","lon":"121.42811","lat":"31.13562","category":"47","category_name":"住宅区","address":"天等路214弄1-4号"},{"poiid":"B2094757D568A4F8439E","title":"金歌KTV","lon":"121.4258633","lat":"31.13456167","category":"170","category_name":"KTV","address":"上中西路280号"},{"poiid":"B2094654DB69A6FC429B","title":"中国联通上海公司梅陇邮政支局代售点","lon":"121.42502","lat":"31.13464","category":"151","category_name":"电讯营业厅","address":"徐汇区上中西路348号"},{"poiid":"B2094654DB65A0FF449A","title":"可的(天等路)","lon":"121.42754","lat":"31.13725","category":"117","category_name":"便民商店/便利店","address":"徐汇区天等路400号"},{"poiid":"B2094752D169A7F8469F","title":"闵行区莲花国际广场","lon":"121.42672","lat":"31.135554","category":"500","category_name":"未知分类","address":null},{"poiid":"B2094757D06FA5F4429A","title":"天都火锅","lon":"121.42788","lat":"31.1346","category":"86","category_name":"火锅店","address":"徐汇区上中西路211号(近天等路)"},{"poiid":"B2094757D068A3FC4998","title":"金沙渔港","lon":"121.4277676274","lat":"31.135187256717","category":"75","category_name":"浙江菜","address":"徐汇区天等路400号(近丹棱路)"},{"poiid":"B2094757D069A3F54093","title":"小杨盱眙小龙虾","lon":"121.4256084","lat":"31.133146723","category":"68","category_name":"快餐厅","address":"徐汇区龙州路490号"},{"poiid":"B2094654DA65ABF44893","title":"上海市经济管理干部学院","lon":"121.42602","lat":"31.14","category":"671","category_name":"高校中心点","address":"徐汇区梅陇路161号(近天等路)"},{"poiid":"B2094757D06FA7FA489D","title":"上海职工医学院","lon":"121.42727","lat":"31.14061","category":"671","category_name":"高校中心点","address":"上海徐汇区梅陇路21号(近天等路)  "},{"poiid":"B2094757D069A5F4409C","title":"上海健康职业技术学院","lon":"121.42435945","lat":"31.139170946","category":"253","category_name":"校园生活","address":"徐汇区梅陇路21号(近天等路)"},{"poiid":"B2094757D068ABFE409B","title":"新侨职业技术学院(徐汇分校)","lon":"121.4264","lat":"31.1386","category":"54","category_name":"职业技术学校","address":"徐汇区天等路465号(近梅陇路)"},{"poiid":"B2094757D06FA4F9419A","title":"梅陇十一村","lon":"121.42716","lat":"31.132442","category":"47","category_name":"住宅区","address":"上海上中西路天等路"},{"poiid":"B2094654DA65ABF44093","title":"华东理工大学附属中学","lon":"121.42369","lat":"31.13447","category":"55","category_name":"中学","address":"上海梅陇十村80号"},{"poiid":"B2094757D06FA5FA4699","title":"梅陇四村","lon":"121.42199","lat":"31.137596","category":"47","category_name":"住宅区","address":"上海徐汇区梅陇四村"},{"poiid":"B2094757D068AAFD4298","title":"阳光绿园","lon":"121.42924","lat":"31.137108","category":"47","category_name":"住宅区","address":"上海市徐汇区老沪闵路799号"},{"poiid":"B2094654DB6CA2FC489E","title":"和平小区(罗秀路)","lon":"121.43076","lat":"31.13226","category":"47","category_name":"住宅区","address":"上海徐汇区罗秀路930弄(近天等路)"},{"poiid":"B2094654DB64A6FA4998","title":"汉庭快捷(南站店)","lon":"121.42759","lat":"31.13726","category":"216","category_name":"经济型连锁酒店","address":"上海市徐汇区天等路400号(近华东理工大学正门)"},{"poiid":"B2094757D068A7FC499A","title":"多样屋(天等路总部)","lon":"121.428948403","lat":"31.1338527134","category":"46","category_name":"楼宇","address":"徐汇区天等路188号(上中西路口)"},{"poiid":"B2094757D568A5FE4499","title":"万科燕南园","lon":"121.423","lat":"31.1367","category":"47","category_name":"住宅区","address":"上海市闵行区景联路1111弄"},{"poiid":"B2094655D268A2F84093","title":"尚苑宾馆","lon":"121.42662","lat":"31.13831","category":"250","category_name":"公园户外","address":"徐汇区天等路469号(近梅陇路)"},{"poiid":"B2094654DA65ABFB419F","title":"梅陇五村","lon":"121.42187","lat":"31.134462","category":"47","category_name":"住宅区","address":"徐汇区嘉川路凌云路"},{"poiid":"B2094757D069A5F5419E","title":"天等路","lon":"121.4278757","lat":"31.1359372","category":"500","category_name":"未知分类","address":"上海徐汇区天等路"},{"poiid":"B2094655D26FA6F94793","title":"徐汇锦梅苑","lon":"121.42317","lat":"31.132832","category":"47","category_name":"住宅区","address":"上海市徐汇区梅陇十村19号"},{"poiid":"B2094751D26BABFD469A","title":"新伶达港骨头皇火锅","lon":"121.427612","lat":"31.137207","category":"86","category_name":"火锅店","address":"徐汇区上中西路150号(近天等路)"},{"poiid":"B2094757D06AA5F5449B","title":"梅陇六村","lon":"121.42579480056","lat":"31.139487689707","category":"252","category_name":"楼宇机构","address":"上海上中西路凌云路"},{"poiid":"B2094757D06AA1FD469C","title":"市国资委党校","lon":"121.42493438","lat":"31.140525817","category":"500","category_name":"未知分类","address":"上海徐汇区天等路501号"},{"poiid":"B2094750DB6EA4F4419B","title":"阳光新景","lon":"121.42667","lat":"31.135635","category":"47","category_name":"住宅区","address":"上海市徐汇区天等路259弄(上中西路口)"},{"poiid":"B2094655D265A4F8419D","title":"上海幼儿园","lon":"121.42368","lat":"31.13448","category":"57","category_name":"幼儿园","address":"上中西路378"},{"poiid":"B2094654DB6CA2FD4193","title":"家乐苑","lon":"121.43154","lat":"31.135004","category":"47","category_name":"住宅区","address":"上海上中西路55弄"},{"poiid":"B2094655D26AA7FC419E","title":"金磐桌球俱乐部","lon":"121.4276","lat":"31.13709","category":"247","category_name":"餐饮美食","address":"徐汇区天等路400号3楼(近梅陇路)"},{"poiid":"B2094757D169ABF84292","title":"辽北家园饺子馆","lon":"121.42802","lat":"31.13647","category":"82","category_name":"东北菜","address":"徐汇区天等路400号金沙渔港附近(近梅陇路)"},{"poiid":"B2094655D26BA2F9419E","title":"天等路上中西路","lon":"121.42758","lat":"31.13663","category":"38","category_name":"公交车站","address":""},{"poiid":"B2094757D16BA6F84699","title":"上海市社会主义学院","lon":"121.426991857","lat":"31.1384291318","category":"500","category_name":"未知分类","address":"上海市徐汇区天等路469号"},{"poiid":"B2094757D16BA2F54592","title":"龙州路加油站","lon":"121.42733945","lat":"31.134763758","category":"154","category_name":"加油加气站","address":"上海龙州路上中西路口"},{"poiid":"B2094655D26AA6F8419C","title":"文章鸡大酒楼","lon":"121.4294","lat":"31.13557","category":"87","category_name":"特色／地方风味餐厅","address":"徐汇区上中西路150号(近天等路)"},{"poiid":"B2094757D06BABF8479C","title":"鼎茶","lon":"121.427497864","lat":"31.1355838776","category":"247","category_name":"餐饮美食","address":"上海梅陇路龙州路华轻一楼"},{"poiid":"B2094757D168A7FD4699","title":"上海移动上中西路营业厅","lon":"121.42808985","lat":"31.135751078","category":"151","category_name":"电讯营业厅","address":"闵行区上中西路216号(近天等路)"},{"poiid":"B2094654DA65ABF44092","title":"小杨盱眙十三香手抓龙虾(上中西路)","lon":"121.42378","lat":"31.13426","category":"68","category_name":"快餐厅","address":"徐汇区上中西路380号(近华东理工大学附属中学)"},{"poiid":"B2094654DB6CA2FC4092","title":"梅陇十村","lon":"121.431","lat":"31.1362","category":"47","category_name":"住宅区","address":"罗秀路1164弄77-136号"},{"poiid":"B2094654DA65AAFC4092","title":"永琪美容美发(阳光新景东北)","lon":"121.42796","lat":"31.1362","category":"148","category_name":"美容美发店","address":"凌云路"},{"poiid":"B2094654DB64AAF4409C","title":"好德便利No.964","lon":"121.42827","lat":"31.1354","category":"117","category_name":"便民商店/便利店","address":"天等路212-1"},{"poiid":"B2094654DB64AAF4419C","title":"好德便利No.632","lon":"121.42702","lat":"31.13435","category":"117","category_name":"便民商店/便利店","address":"徐汇区上中西路223号(虹梅南路上中西路)"},{"poiid":"B2094750DB6EA3F84298","title":"上海第六人民医院","lon":"121.425288","lat":"31.137207","category":"162","category_name":"医院","address":null},{"poiid":"B2094757D16EABFF419E","title":"环球金融中心B2楼","lon":"121.42783865","lat":"31.136304479","category":"500","category_name":"未知分类","address":"上海世纪大道100号环球金融中心B2"},{"poiid":"B2094757D16FA6FE449D","title":"梅陇八村","lon":"121.42489","lat":"31.136774","category":"252","category_name":"楼宇机构","address":"上海徐汇区龙州路嘉川路"},{"poiid":"B2094757D168A5FA459D","title":"吉龙豆捞","lon":"121.42448","lat":"31.13532","category":"86","category_name":"火锅店","address":"徐汇区龙州路925号(梅陇七村对面)"},{"poiid":"B2094654DB6CA2FD459E","title":"光明新鲜屋上中西路店","lon":"121.42598","lat":"31.13426","category":"117","category_name":"便民商店/便利店","address":""},{"poiid":"B2094655D26FA7FB4198","title":"得源公寓(西门)","lon":"121.42797","lat":"31.13606","category":"47","category_name":"住宅区","address":"天等路228弄1-4号"},{"poiid":"B2094654DB64A2FB469E","title":"上海新侨学院(天等路)","lon":"121.42682","lat":"31.13916","category":"68","category_name":"快餐厅","address":"徐汇区天等路465号(近梅陇路)"},{"poiid":"B2094655D268A2F4449C","title":"天等路214弄小区(西门)","lon":"121.42811","lat":"31.13562","category":"47","category_name":"住宅区","address":"天等路214弄1-4号"},{"poiid":"B2094757D568A4F8439E","title":"金歌KTV","lon":"121.4258633","lat":"31.13456167","category":"170","category_name":"KTV","address":"上中西路280号"},{"poiid":"B2094654DB69A6FC429B","title":"中国联通上海公司梅陇邮政支局代售点","lon":"121.42502","lat":"31.13464","category":"151","category_name":"电讯营业厅","address":"徐汇区上中西路348号"},{"poiid":"B2094654DB65A0FF449A","title":"可的(天等路)","lon":"121.42754","lat":"31.13725","category":"117","category_name":"便民商店/便利店","address":"徐汇区天等路400号"},{"poiid":"B2094752D169A7F8469F","title":"闵行区莲花国际广场","lon":"121.42672","lat":"31.135554","category":"500","category_name":"未知分类","address":null},{"poiid":"B2094757D06FA5F4429A","title":"天都火锅","lon":"121.42788","lat":"31.1346","category":"86","category_name":"火锅店","address":"徐汇区上中西路211号(近天等路)"},{"poiid":"B2094757D068A3FC4998","title":"金沙渔港","lon":"121.4277676274","lat":"31.135187256717","category":"75","category_name":"浙江菜","address":"徐汇区天等路400号(近丹棱路)"},{"poiid":"B2094757D069A3F54093","title":"小杨盱眙小龙虾","lon":"121.4256084","lat":"31.133146723","category":"68","category_name":"快餐厅","address":"徐汇区龙州路490号"},{"poiid":"B2094654DA65ABF44893","title":"上海市经济管理干部学院","lon":"121.42602","lat":"31.14","category":"671","category_name":"高校中心点","address":"徐汇区梅陇路161号(近天等路)"},{"poiid":"B2094757D06FA7FA489D","title":"上海职工医学院","lon":"121.42727","lat":"31.14061","category":"671","category_name":"高校中心点","address":"上海徐汇区梅陇路21号(近天等路)  "},{"poiid":"B2094757D069A5F4409C","title":"上海健康职业技术学院","lon":"121.42435945","lat":"31.139170946","category":"253","category_name":"校园生活","address":"徐汇区梅陇路21号(近天等路)"},{"poiid":"B2094757D068ABFE409B","title":"新侨职业技术学院(徐汇分校)","lon":"121.4264","lat":"31.1386","category":"54","category_name":"职业技术学校","address":"徐汇区天等路465号(近梅陇路)"},{"poiid":"B2094757D06FA4F9419A","title":"梅陇十一村","lon":"121.42716","lat":"31.132442","category":"47","category_name":"住宅区","address":"上海上中西路天等路"},{"poiid":"B2094654DA65ABF44093","title":"华东理工大学附属中学","lon":"121.42369","lat":"31.13447","category":"55","category_name":"中学","address":"上海梅陇十村80号"},{"poiid":"B2094757D06FA5FA4699","title":"梅陇四村","lon":"121.42199","lat":"31.137596","category":"47","category_name":"住宅区","address":"上海徐汇区梅陇四村"},{"poiid":"B2094757D068AAFD4298","title":"阳光绿园","lon":"121.42924","lat":"31.137108","category":"47","category_name":"住宅区","address":"上海市徐汇区老沪闵路799号"},{"poiid":"B2094654DB6CA2FC489E","title":"和平小区(罗秀路)","lon":"121.43076","lat":"31.13226","category":"47","category_name":"住宅区","address":"上海徐汇区罗秀路930弄(近天等路)"},{"poiid":"B2094654DB64A6FA4998","title":"汉庭快捷(南站店)","lon":"121.42759","lat":"31.13726","category":"216","category_name":"经济型连锁酒店","address":"上海市徐汇区天等路400号(近华东理工大学正门)"},{"poiid":"B2094757D068A7FC499A","title":"多样屋(天等路总部)","lon":"121.428948403","lat":"31.1338527134","category":"46","category_name":"楼宇","address":"徐汇区天等路188号(上中西路口)"},{"poiid":"B2094757D568A5FE4499","title":"万科燕南园","lon":"121.423","lat":"31.1367","category":"47","category_name":"住宅区","address":"上海市闵行区景联路1111弄"},{"poiid":"B2094655D268A2F84093","title":"尚苑宾馆","lon":"121.42662","lat":"31.13831","category":"250","category_name":"公园户外","address":"徐汇区天等路469号(近梅陇路)"},{"poiid":"B2094654DA65ABFB419F","title":"梅陇五村","lon":"121.42187","lat":"31.134462","category":"47","category_name":"住宅区","address":"徐汇区嘉川路凌云路"},{"poiid":"B2094757D069A5F5419E","title":"天等路","lon":"121.4278757","lat":"31.1359372","category":"500","category_name":"未知分类","address":"上海徐汇区天等路"},{"poiid":"B2094655D26FA6F94793","title":"徐汇锦梅苑","lon":"121.42317","lat":"31.132832","category":"47","category_name":"住宅区","address":"上海市徐汇区梅陇十村19号"},{"poiid":"B2094751D26BABFD469A","title":"新伶达港骨头皇火锅","lon":"121.427612","lat":"31.137207","category":"86","category_name":"火锅店","address":"徐汇区上中西路150号(近天等路)"},{"poiid":"B2094757D06AA5F5449B","title":"梅陇六村","lon":"121.42579480056","lat":"31.139487689707","category":"252","category_name":"楼宇机构","address":"上海上中西路凌云路"},{"poiid":"B2094757D06AA1FD469C","title":"市国资委党校","lon":"121.42493438","lat":"31.140525817","category":"500","category_name":"未知分类","address":"上海徐汇区天等路501号"},{"poiid":"B2094750DB6EA4F4419B","title":"阳光新景","lon":"121.42667","lat":"31.135635","category":"47","category_name":"住宅区","address":"上海市徐汇区天等路259弄(上中西路口)"},{"poiid":"B2094655D265A4F8419D","title":"上海幼儿园","lon":"121.42368","lat":"31.13448","category":"57","category_name":"幼儿园","address":"上中西路378"},{"poiid":"B2094654DB6CA2FD4193","title":"家乐苑","lon":"121.43154","lat":"31.135004","category":"47","category_name":"住宅区","address":"上海上中西路55弄"},{"poiid":"B2094655D26AA7FC419E","title":"金磐桌球俱乐部","lon":"121.4276","lat":"31.13709","category":"247","category_name":"餐饮美食","address":"徐汇区天等路400号3楼(近梅陇路)"},{"poiid":"B2094757D169ABF84292","title":"辽北家园饺子馆","lon":"121.42802","lat":"31.13647","category":"82","category_name":"东北菜","address":"徐汇区天等路400号金沙渔港附近(近梅陇路)"},{"poiid":"B2094655D26BA2F9419E","title":"天等路上中西路","lon":"121.42758","lat":"31.13663","category":"38","category_name":"公交车站","address":""},{"poiid":"B2094757D16BA6F84699","title":"上海市社会主义学院","lon":"121.426991857","lat":"31.1384291318","category":"500","category_name":"未知分类","address":"上海市徐汇区天等路469号"},{"poiid":"B2094757D16BA2F54592","title":"龙州路加油站","lon":"121.42733945","lat":"31.134763758","category":"154","category_name":"加油加气站","address":"上海龙州路上中西路口"},{"poiid":"B2094655D26AA6F8419C","title":"文章鸡大酒楼","lon":"121.4294","lat":"31.13557","category":"87","category_name":"特色／地方风味餐厅","address":"徐汇区上中西路150号(近天等路)"},{"poiid":"B2094757D06BABF8479C","title":"鼎茶","lon":"121.427497864","lat":"31.1355838776","category":"247","category_name":"餐饮美食","address":"上海梅陇路龙州路华轻一楼"},{"poiid":"B2094757D168A7FD4699","title":"上海移动上中西路营业厅","lon":"121.42808985","lat":"31.135751078","category":"151","category_name":"电讯营业厅","address":"闵行区上中西路216号(近天等路)"},{"poiid":"B2094654DA65ABF44092","title":"小杨盱眙十三香手抓龙虾(上中西路)","lon":"121.42378","lat":"31.13426","category":"68","category_name":"快餐厅","address":"徐汇区上中西路380号(近华东理工大学附属中学)"},{"poiid":"B2094654DB6CA2FC4092","title":"梅陇十村","lon":"121.431","lat":"31.1362","category":"47","category_name":"住宅区","address":"罗秀路1164弄77-136号"},{"poiid":"B2094654DA65AAFC4092","title":"永琪美容美发(阳光新景东北)","lon":"121.42796","lat":"31.1362","category":"148","category_name":"美容美发店","address":"凌云路"},{"poiid":"B2094654DB64AAF4409C","title":"好德便利No.964","lon":"121.42827","lat":"31.1354","category":"117","category_name":"便民商店/便利店","address":"天等路212-1"},{"poiid":"B2094654DB64AAF4419C","title":"好德便利No.632","lon":"121.42702","lat":"31.13435","category":"117","category_name":"便民商店/便利店","address":"徐汇区上中西路223号(虹梅南路上中西路)"},{"poiid":"B2094750DB6EA3F84298","title":"上海第六人民医院","lon":"121.425288","lat":"31.137207","category":"162","category_name":"医院","address":null},{"poiid":"B2094757D16EABFF419E","title":"环球金融中心B2楼","lon":"121.42783865","lat":"31.136304479","category":"500","category_name":"未知分类","address":"上海世纪大道100号环球金融中心B2"},{"poiid":"B2094757D16FA6FE449D","title":"梅陇八村","lon":"121.42489","lat":"31.136774","category":"252","category_name":"楼宇机构","address":"上海徐汇区龙州路嘉川路"},{"poiid":"B2094757D168A5FA459D","title":"吉龙豆捞","lon":"121.42448","lat":"31.13532","category":"86","category_name":"火锅店","address":"徐汇区龙州路925号(梅陇七村对面)"},{"poiid":"B2094654DB6CA2FD459E","title":"光明新鲜屋上中西路店","lon":"121.42598","lat":"31.13426","category":"117","category_name":"便民商店/便利店","address":""},{"poiid":"B2094655D26FA7FB4198","title":"得源公寓(西门)","lon":"121.42797","lat":"31.13606","category":"47","category_name":"住宅区","address":"天等路228弄1-4号"},{"poiid":"B2094654DB64A2FB469E","title":"上海新侨学院(天等路)","lon":"121.42682","lat":"31.13916","category":"68","category_name":"快餐厅","address":"徐汇区天等路465号(近梅陇路)"},{"poiid":"B2094655D268A2F4449C","title":"天等路214弄小区(西门)","lon":"121.42811","lat":"31.13562","category":"47","category_name":"住宅区","address":"天等路214弄1-4号"},{"poiid":"B2094757D568A4F8439E","title":"金歌KTV","lon":"121.4258633","lat":"31.13456167","category":"170","category_name":"KTV","address":"上中西路280号"},{"poiid":"B2094654DB69A6FC429B","title":"中国联通上海公司梅陇邮政支局代售点","lon":"121.42502","lat":"31.13464","category":"151","category_name":"电讯营业厅","address":"徐汇区上中西路348号"},{"poiid":"B2094654DB65A0FF449A","title":"可的(天等路)","lon":"121.42754","lat":"31.13725","category":"117","category_name":"便民商店/便利店","address":"徐汇区天等路400号"},{"poiid":"B2094752D169A7F8469F","title":"闵行区莲花国际广场","lon":"121.42672","lat":"31.135554","category":"500","category_name":"未知分类","address":null},{"poiid":"B2094757D06FA5F4429A","title":"天都火锅","lon":"121.42788","lat":"31.1346","category":"86","category_name":"火锅店","address":"徐汇区上中西路211号(近天等路)"},{"poiid":"B2094757D068A3FC4998","title":"金沙渔港","lon":"121.4277676274","lat":"31.135187256717","category":"75","category_name":"浙江菜","address":"徐汇区天等路400号(近丹棱路)"},{"poiid":"B2094757D069A3F54093","title":"小杨盱眙小龙虾","lon":"121.4256084","lat":"31.133146723","category":"68","category_name":"快餐厅","address":"徐汇区龙州路490号"},{"poiid":"B2094654DA65ABF44893","title":"上海市经济管理干部学院","lon":"121.42602","lat":"31.14","category":"671","category_name":"高校中心点","address":"徐汇区梅陇路161号(近天等路)"},{"poiid":"B2094757D06FA7FA489D","title":"上海职工医学院","lon":"121.42727","lat":"31.14061","category":"671","category_name":"高校中心点","address":"上海徐汇区梅陇路21号(近天等路)  "},{"poiid":"B2094757D069A5F4409C","title":"上海健康职业技术学院","lon":"121.42435945","lat":"31.139170946","category":"253","category_name":"校园生活","address":"徐汇区梅陇路21号(近天等路)"},{"poiid":"B2094757D068ABFE409B","title":"新侨职业技术学院(徐汇分校)","lon":"121.4264","lat":"31.1386","category":"54","category_name":"职业技术学校","address":"徐汇区天等路465号(近梅陇路)"},{"poiid":"B2094757D06FA4F9419A","title":"梅陇十一村","lon":"121.42716","lat":"31.132442","category":"47","category_name":"住宅区","address":"上海上中西路天等路"},{"poiid":"B2094654DA65ABF44093","title":"华东理工大学附属中学","lon":"121.42369","lat":"31.13447","category":"55","category_name":"中学","address":"上海梅陇十村80号"},{"poiid":"B2094757D06FA5FA4699","title":"梅陇四村","lon":"121.42199","lat":"31.137596","category":"47","category_name":"住宅区","address":"上海徐汇区梅陇四村"},{"poiid":"B2094757D068AAFD4298","title":"阳光绿园","lon":"121.42924","lat":"31.137108","category":"47","category_name":"住宅区","address":"上海市徐汇区老沪闵路799号"},{"poiid":"B2094654DB6CA2FC489E","title":"和平小区(罗秀路)","lon":"121.43076","lat":"31.13226","category":"47","category_name":"住宅区","address":"上海徐汇区罗秀路930弄(近天等路)"},{"poiid":"B2094654DB64A6FA4998","title":"汉庭快捷(南站店)","lon":"121.42759","lat":"31.13726","category":"216","category_name":"经济型连锁酒店","address":"上海市徐汇区天等路400号(近华东理工大学正门)"},{"poiid":"B2094757D068A7FC499A","title":"多样屋(天等路总部)","lon":"121.428948403","lat":"31.1338527134","category":"46","category_name":"楼宇","address":"徐汇区天等路188号(上中西路口)"},{"poiid":"B2094757D568A5FE4499","title":"万科燕南园","lon":"121.423","lat":"31.1367","category":"47","category_name":"住宅区","address":"上海市闵行区景联路1111弄"},{"poiid":"B2094655D268A2F84093","title":"尚苑宾馆","lon":"121.42662","lat":"31.13831","category":"250","category_name":"公园户外","address":"徐汇区天等路469号(近梅陇路)"},{"poiid":"B2094654DA65ABFB419F","title":"梅陇五村","lon":"121.42187","lat":"31.134462","category":"47","category_name":"住宅区","address":"徐汇区嘉川路凌云路"},{"poiid":"B2094757D069A5F5419E","title":"天等路","lon":"121.4278757","lat":"31.1359372","category":"500","category_name":"未知分类","address":"上海徐汇区天等路"},{"poiid":"B2094655D26FA6F94793","title":"徐汇锦梅苑","lon":"121.42317","lat":"31.132832","category":"47","category_name":"住宅区","address":"上海市徐汇区梅陇十村19号"},{"poiid":"B2094751D26BABFD469A","title":"新伶达港骨头皇火锅","lon":"121.427612","lat":"31.137207","category":"86","category_name":"火锅店","address":"徐汇区上中西路150号(近天等路)"},{"poiid":"B2094757D06AA5F5449B","title":"梅陇六村","lon":"121.42579480056","lat":"31.139487689707","category":"252","category_name":"楼宇机构","address":"上海上中西路凌云路"},{"poiid":"B2094757D06AA1FD469C","title":"市国资委党校","lon":"121.42493438","lat":"31.140525817","category":"500","category_name":"未知分类","address":"上海徐汇区天等路501号"},{"poiid":"B2094750DB6EA4F4419B","title":"阳光新景","lon":"121.42667","lat":"31.135635","category":"47","category_name":"住宅区","address":"上海市徐汇区天等路259弄(上中西路口)"},{"poiid":"B2094655D265A4F8419D","title":"上海幼儿园","lon":"121.42368","lat":"31.13448","category":"57","category_name":"幼儿园","address":"上中西路378"},{"poiid":"B2094654DB6CA2FD4193","title":"家乐苑","lon":"121.43154","lat":"31.135004","category":"47","category_name":"住宅区","address":"上海上中西路55弄"},{"poiid":"B2094655D26AA7FC419E","title":"金磐桌球俱乐部","lon":"121.4276","lat":"31.13709","category":"247","category_name":"餐饮美食","address":"徐汇区天等路400号3楼(近梅陇路)"},{"poiid":"B2094757D169ABF84292","title":"辽北家园饺子馆","lon":"121.42802","lat":"31.13647","category":"82","category_name":"东北菜","address":"徐汇区天等路400号金沙渔港附近(近梅陇路)"},{"poiid":"B2094655D26BA2F9419E","title":"天等路上中西路","lon":"121.42758","lat":"31.13663","category":"38","category_name":"公交车站","address":""},{"poiid":"B2094757D16BA6F84699","title":"上海市社会主义学院","lon":"121.426991857","lat":"31.1384291318","category":"500","category_name":"未知分类","address":"上海市徐汇区天等路469号"},{"poiid":"B2094757D16BA2F54592","title":"龙州路加油站","lon":"121.42733945","lat":"31.134763758","category":"154","category_name":"加油加气站","address":"上海龙州路上中西路口"},{"poiid":"B2094655D26AA6F8419C","title":"文章鸡大酒楼","lon":"121.4294","lat":"31.13557","category":"87","category_name":"特色／地方风味餐厅","address":"徐汇区上中西路150号(近天等路)"},{"poiid":"B2094757D06BABF8479C","title":"鼎茶","lon":"121.427497864","lat":"31.1355838776","category":"247","category_name":"餐饮美食","address":"上海梅陇路龙州路华轻一楼"},{"poiid":"B2094757D168A7FD4699","title":"上海移动上中西路营业厅","lon":"121.42808985","lat":"31.135751078","category":"151","category_name":"电讯营业厅","address":"闵行区上中西路216号(近天等路)"},{"poiid":"B2094654DA65ABF44092","title":"小杨盱眙十三香手抓龙虾(上中西路)","lon":"121.42378","lat":"31.13426","category":"68","category_name":"快餐厅","address":"徐汇区上中西路380号(近华东理工大学附属中学)"},{"poiid":"B2094654DB6CA2FC4092","title":"梅陇十村","lon":"121.431","lat":"31.1362","category":"47","category_name":"住宅区","address":"罗秀路1164弄77-136号"},{"poiid":"B2094654DA65AAFC4092","title":"永琪美容美发(阳光新景东北)","lon":"121.42796","lat":"31.1362","category":"148","category_name":"美容美发店","address":"凌云路"},{"poiid":"B2094654DB64AAF4409C","title":"好德便利No.964","lon":"121.42827","lat":"31.1354","category":"117","category_name":"便民商店/便利店","address":"天等路212-1"},{"poiid":"B2094654DB64AAF4419C","title":"好德便利No.632","lon":"121.42702","lat":"31.13435","category":"117","category_name":"便民商店/便利店","address":"徐汇区上中西路223号(虹梅南路上中西路)"},{"poiid":"B2094750DB6EA3F84298","title":"上海第六人民医院","lon":"121.425288","lat":"31.137207","category":"162","category_name":"医院","address":null},{"poiid":"B2094757D16EABFF419E","title":"环球金融中心B2楼","lon":"121.42783865","lat":"31.136304479","category":"500","category_name":"未知分类","address":"上海世纪大道100号环球金融中心B2"},{"poiid":"B2094757D16FA6FE449D","title":"梅陇八村","lon":"121.42489","lat":"31.136774","category":"252","category_name":"楼宇机构","address":"上海徐汇区龙州路嘉川路"},{"poiid":"B2094757D168A5FA459D","title":"吉龙豆捞","lon":"121.42448","lat":"31.13532","category":"86","category_name":"火锅店","address":"徐汇区龙州路925号(梅陇七村对面)"},{"poiid":"B2094654DB6CA2FD459E","title":"光明新鲜屋上中西路店","lon":"121.42598","lat":"31.13426","category":"117","category_name":"便民商店/便利店","address":""},{"poiid":"B2094655D26FA7FB4198","title":"得源公寓(西门)","lon":"121.42797","lat":"31.13606","category":"47","category_name":"住宅区","address":"天等路228弄1-4号"},{"poiid":"B2094654DB64A2FB469E","title":"上海新侨学院(天等路)","lon":"121.42682","lat":"31.13916","category":"68","category_name":"快餐厅","address":"徐汇区天等路465号(近梅陇路)"},{"poiid":"B2094655D268A2F4449C","title":"天等路214弄小区(西门)","lon":"121.42811","lat":"31.13562","category":"47","category_name":"住宅区","address":"天等路214弄1-4号"},{"poiid":"B2094757D568A4F8439E","title":"金歌KTV","lon":"121.4258633","lat":"31.13456167","category":"170","category_name":"KTV","address":"上中西路280号"},{"poiid":"B2094654DB69A6FC429B","title":"中国联通上海公司梅陇邮政支局代售点","lon":"121.42502","lat":"31.13464","category":"151","category_name":"电讯营业厅","address":"徐汇区上中西路348号"},{"poiid":"B2094654DB65A0FF449A","title":"可的(天等路)","lon":"121.42754","lat":"31.13725","category":"117","category_name":"便民商店/便利店","address":"徐汇区天等路400号"},{"poiid":"B2094752D169A7F8469F","title":"闵行区莲花国际广场","lon":"121.42672","lat":"31.135554","category":"500","category_name":"未知分类","address":null}]