[{"poiid":"B2094757D06FA3FC4093","title":"上海苏州河畔国际青年旅舍","lon":"121.4650892","lat":"31.2407474","category":"216","category_name":"经济型连锁酒店","address":"黄浦区南苏州路1307号(近地铁1号线新闸路地铁站)"},{"poiid":"B2094655D36DA0FE409D","title":"新闸路地铁站","lon":"121.46668","lat":"31.23916","category":"36","category_name":"地铁站","address":""},{"poiid":"B2094757D06BA1FC4992","title":"WeeCoffee微咖","lon":"121.467156","lat":"31.239803901236","category":"65","category_name":"咖啡厅","address":"上海静安区新闸路356号102(近乌镇桥)"},{"poiid":"B2094753D76FAAFA449C","title":"上海滩国泰旗舰店","lon":"121.466011","lat":"31.216125","category":"249","category_name":"购物服务","address":"淮海中路868号"},{"poiid":"B209475CD564A7F84292","title":"上海滩新天地店","lon":"121.47463","lat":"31.22164","category":"119","category_name":"商场","address":"\"太仓路181弄新天地北里15号\r\n\""},{"poiid":"B209475CD564A7F8439E","title":"上海滩中信泰富店","lon":"121.45602","lat":"31.22851","category":"119","category_name":"商场","address":"\"南京西路1168号中信泰富广场，店铺号221.\r\n\""},{"poiid":"B2094757D064A5F8439A","title":"上海浦西开元大酒店","lon":"121.466409738","lat":"31.2425445626","category":"217","category_name":"旅馆招待所","address":"闸北区新疆路518号"},{"poiid":"B2094757D069A5FD439F","title":"新闸路成都北路","lon":"121.464829","lat":"31.237632","category":"500","category_name":"未知分类","address":"上海新闸路成都北路"},{"poiid":"B2094654DA68A3F84993","title":"麦当劳(新闸路店)","lon":"121.46753","lat":"31.23901","category":"68","category_name":"快餐厅","address":"黄浦区新闸路245号(近新昌路)"},{"poiid":"B2094757D06FA6F84592","title":"黄浦区地方税务局","lon":"121.46609","lat":"31.240098","category":"252","category_name":"楼宇机构","address":"上海黄浦区新桥路68号"},{"poiid":"B2094757D069A3F54899","title":"南岸艺术中心","lon":"121.466561738","lat":"31.2417175449","category":"179","category_name":"音乐厅","address":"黄浦区南苏州路1247号(近乌镇路桥)"},{"poiid":"B2094757D06FA5FD499F","title":"富春小笼(新闸路店)","lon":"121.463359","lat":"31.237918","category":"68","category_name":"快餐厅","address":"静安区新闸路557号(近成都北路)"},{"poiid":"B2094757D06FABFA429B","title":"上海北站医院","lon":"121.465149652","lat":"31.2435745125","category":"162","category_name":"医院","address":"闸北区南星路29号(近天目中路)"},{"poiid":"B2094654DA68A3F9499C","title":"新桥大厦","lon":"121.46598","lat":"31.2402","category":"46","category_name":"楼宇","address":"新桥路68"},{"poiid":"B2094757D064A2FD419D","title":"Rita Drinks","lon":"121.464425","lat":"31.24035","category":"65","category_name":"咖啡厅","address":"静安区新闸路916号(近泰兴路)"},{"poiid":"B2094757D068A4FE469A","title":"九子公园","lon":"121.46420335","lat":"31.2404103746","category":"196","category_name":"公园","address":"黄浦区成都北路高架东侧(南苏州路)"},{"poiid":"B2094757D06FA3FA439C","title":"新福康里","lon":"121.464","lat":"31.2411","category":"47","category_name":"住宅区","address":"上海市浦东新区永泰路环林西路口"},{"poiid":"B2094757D069A0FD4193","title":"丽都新贵","lon":"121.466","lat":"31.2407","category":"500","category_name":"未知分类","address":"北一环与亳州路交叉口(庐阳区政府对面)"},{"poiid":"B2094752D06AA4FF4798","title":"杨浦公园","lon":"121.463638","lat":"31.239757","category":"250","category_name":"公园户外","address":null},{"poiid":"B2094654DA6CA4FB479A","title":"上海市静安区第三中心小学","lon":"121.46327","lat":"31.2397","category":"56","category_name":"小学","address":"静安区成都北路997号(成都北路新闸路)"},{"poiid":"B2094655D26CABFB4099","title":"莫泰168连锁旅店(成都北路店)","lon":"121.46127","lat":"31.2401","category":"216","category_name":"经济型连锁酒店","address":"静安区南苏州路1455号(大田路口东侧)"},{"poiid":"B2094752D76CA6F44199","title":"杨浦区中心医院","lon":"121.463443","lat":"31.241908","category":"162","category_name":"医院","address":null},{"poiid":"B2094654DA6CA4FB479B","title":"光明小区(成都北路)","lon":"121.4627","lat":"31.23971","category":"47","category_name":"住宅区","address":"成都北路1037弄3-23号"},{"poiid":"B2094751D56DA5FC4992","title":"大悦城","lon":"121.466088","lat":"31.239219","category":"500","category_name":"未知分类","address":null},{"poiid":"B2094757D064A7FE429F","title":"新闸路大田路","lon":"121.46358073","lat":"31.239127489","category":"500","category_name":"未知分类","address":"上海市静安区新闸路"},{"poiid":"B2094757D064A6FB4099","title":"静安公安分局交警支队","lon":"121.463436","lat":"31.240887","category":"500","category_name":"未知分类","address":"上海成都北路1067"},{"poiid":"B2094655D26DA7FC449B","title":"上海市裘锦秋实验学校(东门)","lon":"121.46567","lat":"31.23998","category":"678","category_name":"学校大门","address":"新桥路55"},{"poiid":"B2094654DA68A3F9499E","title":"上海市裘锦秋实验学校","lon":"121.46545","lat":"31.24","category":"56","category_name":"小学","address":"新桥路55"},{"poiid":"B2094757D469A0FC409A","title":"阿牛嫂桂林米粉 新闸路店","lon":"121.4662106","lat":"31.2390461","category":"68","category_name":"快餐厅","address":"黄浦区新闸路392号(近新昌路)"},{"poiid":"B2094655D26BA4F8459B","title":"悦达黄浦河滨大厦","lon":"121.4669","lat":"31.23974","category":"46","category_name":"楼宇","address":"上海市黄浦区新闸路356号"},{"poiid":"B2094757D06AA0FD459C","title":"新东方人民广场校区","lon":"121.46692657","lat":"31.239282608","category":"500","category_name":"未知分类","address":"上海新闸路355号"},{"poiid":"B2094654DA6CA5F5449F","title":"亚成公寓","lon":"121.4634932592","lat":"31.239421728369","category":"47","category_name":"住宅区","address":"新闸路1001号"},{"poiid":"B2094655D269A4F4409E","title":"烹然心动创意厨艺坊 Cook for you Culinary Studio","lon":"121.466170054","lat":"31.239057793","category":"247","category_name":"餐饮美食","address":"新桥路68号新桥大厦15C层近新闸路"},{"poiid":"B2094752D365A6FB459A","title":"太妃阁","lon":"121.465452","lat":"31.240324","category":"247","category_name":"餐饮美食","address":"南京东路"},{"poiid":"B2094655D265A0F5409E","title":"同安坊","lon":"121.46558","lat":"31.23939","category":"47","category_name":"住宅区","address":"新桥路29弄2-46号"},{"poiid":"B2094654DA6CA5F54299","title":"恒发公寓","lon":"121.462","lat":"31.2392","category":"46","category_name":"楼宇","address":"恒发公寓位于静安新闸路1095弄"},{"poiid":"B2094757D66CA0F5489C","title":"恒丰路120号","lon":"121.465131738","lat":"31.2401765121","category":"500","category_name":"未知分类","address":"上海一天下大酒店"},{"poiid":"B2094757D165A2FE4698","title":"南苏州路1305号","lon":"121.464753","lat":"31.240725","category":"500","category_name":"未知分类","address":"上海玛戈隆特骨瓷"},{"poiid":"B2094757D06AA3FD4298","title":"绿地海悦公寓","lon":"121.466251","lat":"31.242498","category":"47","category_name":"住宅区","address":"上海市闸北区新疆路450号"},{"poiid":"B2094654DB6BA5FD459F","title":"光明小区(东门)","lon":"121.46313","lat":"31.23999","category":"47","category_name":"住宅区","address":"成都北路1037弄3-23号"},{"poiid":"B2094757D16EA0FC419E","title":"正东摄影","lon":"121.464853692","lat":"31.2406322324","category":"500","category_name":"未知分类","address":"黄浦区南苏州路1307号3楼(新闸路口)"},{"poiid":"B2094750D26CA2F4489B","title":"新世界","lon":"121.467319","lat":"31.238781","category":"248","category_name":"生活娱乐","address":null},{"poiid":"B2094757D56DA2FA489E","title":"苏河厨房 Creek Kitchen","lon":"121.46357907509","lat":"31.242091307422","category":"94","category_name":"西餐厅","address":"闸北区光复路423号苏河艺术6楼(近乌镇路)"},{"poiid":"B2094654DA68A3F94993","title":"景阳面馆","lon":"121.46597","lat":"31.23927","category":"68","category_name":"快餐厅","address":"黄浦区新桥路20号(近新闸路)"},{"poiid":"B2094655D26BAAFE459F","title":"同安坊(东门)","lon":"121.46574","lat":"31.23945","category":"47","category_name":"住宅区","address":"新桥路29弄2-46号"},{"poiid":"B2094654DB6BABFE449D","title":"可的","lon":"121.46517","lat":"31.23865","category":"117","category_name":"便民商店/便利店","address":"新闸路452"},{"poiid":"B2094655D264A7FF419A","title":"玛戈隆特骨瓷体验馆","lon":"121.46476","lat":"31.24073","category":"131","category_name":"珠宝首饰工艺品","address":""},{"poiid":"B2094654DB6AA3FE499A","title":"上海市地方税务局黄浦区第二税务所","lon":"121.46597","lat":"31.2402","category":"250","category_name":"公园户外","address":"上海市黄浦区新桥路68号507室"},{"poiid":"B2094655D26CABFB4293","title":"育伦里","lon":"121.46571","lat":"31.23919","category":"47","category_name":"住宅区","address":"新桥路19弄2-8号"},{"poiid":"B2094654DB6AA3FF409B","title":"上海市地方税务局黄浦区第六税务所","lon":"121.46597","lat":"31.2402","category":"250","category_name":"公园户外","address":"黄浦区新桥路68号703室"},{"poiid":"B2094757D06FA3FC4093","title":"上海苏州河畔国际青年旅舍","lon":"121.4650892","lat":"31.2407474","category":"216","category_name":"经济型连锁酒店","address":"黄浦区南苏州路1307号(近地铁1号线新闸路地铁站)"},{"poiid":"B2094655D36DA0FE409D","title":"新闸路地铁站","lon":"121.46668","lat":"31.23916","category":"36","category_name":"地铁站","address":""},{"poiid":"B2094757D06BA1FC4992","title":"WeeCoffee微咖","lon":"121.467156","lat":"31.239803901236","category":"65","category_name":"咖啡厅","address":"上海静安区新闸路356号102(近乌镇桥)"},{"poiid":"B2094753D76FAAFA449C","title":"上海滩国泰旗舰店","lon":"121.466011","lat":"31.216125","category":"249","category_name":"购物服务","address":"淮海中路868号"},{"poiid":"B209475CD564A7F84292","title":"上海滩新天地店","lon":"121.47463","lat":"31.22164","category":"119","category_name":"商场","address":"\"太仓路181弄新天地北里15号\r\n\""},{"poiid":"B209475CD564A7F8439E","title":"上海滩中信泰富店","lon":"121.45602","lat":"31.22851","category":"119","category_name":"商场","address":"\"南京西路1168号中信泰富广场，店铺号221.\r\n\""},{"poiid":"B2094757D064A5F8439A","title":"上海浦西开元大酒店","lon":"121.466409738","lat":"31.2425445626","category":"217","category_name":"旅馆招待所","address":"闸北区新疆路518号"},{"poiid":"B2094757D069A5FD439F","title":"新闸路成都北路","lon":"121.464829","lat":"31.237632","category":"500","category_name":"未知分类","address":"上海新闸路成都北路"},{"poiid":"B2094654DA68A3F84993","title":"麦当劳(新闸路店)","lon":"121.46753","lat":"31.23901","category":"68","category_name":"快餐厅","address":"黄浦区新闸路245号(近新昌路)"},{"poiid":"B2094757D06FA6F84592","title":"黄浦区地方税务局","lon":"121.46609","lat":"31.240098","category":"252","category_name":"楼宇机构","address":"上海黄浦区新桥路68号"},{"poiid":"B2094757D069A3F54899","title":"南岸艺术中心","lon":"121.466561738","lat":"31.2417175449","category":"179","category_name":"音乐厅","address":"黄浦区南苏州路1247号(近乌镇路桥)"},{"poiid":"B2094757D06FA5FD499F","title":"富春小笼(新闸路店)","lon":"121.463359","lat":"31.237918","category":"68","category_name":"快餐厅","address":"静安区新闸路557号(近成都北路)"},{"poiid":"B2094757D06FABFA429B","title":"上海北站医院","lon":"121.465149652","lat":"31.2435745125","category":"162","category_name":"医院","address":"闸北区南星路29号(近天目中路)"},{"poiid":"B2094654DA68A3F9499C","title":"新桥大厦","lon":"121.46598","lat":"31.2402","category":"46","category_name":"楼宇","address":"新桥路68"},{"poiid":"B2094757D064A2FD419D","title":"Rita Drinks","lon":"121.464425","lat":"31.24035","category":"65","category_name":"咖啡厅","address":"静安区新闸路916号(近泰兴路)"},{"poiid":"B2094757D068A4FE469A","title":"九子公园","lon":"121.46420335","lat":"31.2404103746","category":"196","category_name":"公园","address":"黄浦区成都北路高架东侧(南苏州路)"},{"poiid":"B2094757D06FA3FA439C","title":"新福康里","lon":"121.464","lat":"31.2411","category":"47","category_name":"住宅区","address":"上海市浦东新区永泰路环林西路口"},{"poiid":"B2094757D069A0FD4193","title":"丽都新贵","lon":"121.466","lat":"31.2407","category":"500","category_name":"未知分类","address":"北一环与亳州路交叉口(庐阳区政府对面)"},{"poiid":"B2094752D06AA4FF4798","title":"杨浦公园","lon":"121.463638","lat":"31.239757","category":"250","category_name":"公园户外","address":null},{"poiid":"B2094654DA6CA4FB479A","title":"上海市静安区第三中心小学","lon":"121.46327","lat":"31.2397","category":"56","category_name":"小学","address":"静安区成都北路997号(成都北路新闸路)"},{"poiid":"B2094655D26CABFB4099","title":"莫泰168连锁旅店(成都北路店)","lon":"121.46127","lat":"31.2401","category":"216","category_name":"经济型连锁酒店","address":"静安区南苏州路1455号(大田路口东侧)"},{"poiid":"B2094752D76CA6F44199","title":"杨浦区中心医院","lon":"121.463443","lat":"31.241908","category":"162","category_name":"医院","address":null},{"poiid":"B2094654DA6CA4FB479B","title":"光明小区(成都北路)","lon":"121.4627","lat":"31.23971","category":"47","category_name":"住宅区","address":"成都北路1037弄3-23号"},{"poiid":"B2094751D56DA5FC4992","title":"大悦城","lon":"121.466088","lat":"31.239219","category":"500","category_name":"未知分类","address":null},{"poiid":"B2094757D064A7FE429F","title":"新闸路大田路","lon":"121.46358073","lat":"31.239127489","category":"500","category_name":"未知分类","address":"上海市静安区新闸路"},{"poiid":"B2094757D064A6FB4099","title":"静安公安分局交警支队","lon":"121.463436","lat":"31.240887","category":"500","category_name":"未知分类","address":"上海成都北路1067"},{"poiid":"B2094655D26DA7FC449B","title":"上海市裘锦秋实验学校(东门)","lon":"121.46567","lat":"31.23998","category":"678","category_name":"学校大门","address":"新桥路55"},{"poiid":"B2094654DA68A3F9499E","title":"上海市裘锦秋实验学校","lon":"121.46545","lat":"31.24","category":"56","category_name":"小学","address":"新桥路55"},{"poiid":"B2094757D469A0FC409A","title":"阿牛嫂桂林米粉 新闸路店","lon":"121.4662106","lat":"31.2390461","category":"68","category_name":"快餐厅","address":"黄浦区新闸路392号(近新昌路)"},{"poiid":"B2094655D26BA4F8459B","title":"悦达黄浦河滨大厦","lon":"121.4669","lat":"31.23974","category":"46","category_name":"楼宇","address":"上海市黄浦区新闸路356号"},{"poiid":"B2094757D06AA0FD459C","title":"新东方人民广场校区","lon":"121.46692657","lat":"31.239282608","category":"500","category_name":"未知分类","address":"上海新闸路355号"},{"poiid":"B2094654DA6CA5F5449F","title":"亚成公寓","lon":"121.4634932592","lat":"31.239421728369","category":"47","category_name":"住宅区","address":"新闸路1001号"},{"poiid":"B2094655D269A4F4409E","title":"烹然心动创意厨艺坊 Cook for you Culinary Studio","lon":"121.466170054","lat":"31.239057793","category":"247","category_name":"餐饮美食","address":"新桥路68号新桥大厦15C层近新闸路"},{"poiid":"B2094752D365A6FB459A","title":"太妃阁","lon":"121.465452","lat":"31.240324","category":"247","category_name":"餐饮美食","address":"南京东路"},{"poiid":"B2094655D265A0F5409E","title":"同安坊","lon":"121.46558","lat":"31.23939","category":"47","category_name":"住宅区","address":"新桥路29弄2-46号"},{"poiid":"B2094654DA6CA5F54299","title":"恒发公寓","lon":"121.462","lat":"31.2392","category":"46","category_name":"楼宇","address":"恒发公寓位于静安新闸路1095弄"},{"poiid":"B2094757D66CA0F5489C","title":"恒丰路120号","lon":"121.465131738","lat":"31.2401765121","category":"500","category_name":"未知分类","address":"上海一天下大酒店"},{"poiid":"B2094757D165A2FE4698","title":"南苏州路1305号","lon":"121.464753","lat":"31.240725","category":"500","category_name":"未知分类","address":"上海玛戈隆特骨瓷"},{"poiid":"B2094757D06AA3FD4298","title":"绿地海悦公寓","lon":"121.466251","lat":"31.242498","category":"47","category_name":"住宅区","address":"上海市闸北区新疆路450号"},{"poiid":"B2094654DB6BA5FD459F","title":"光明小区(东门)","lon":"121.46313","lat":"31.23999","category":"47","category_name":"住宅区","address":"成都北路1037弄3-23号"},{"poiid":"B2094757D16EA0FC419E","title":"正东摄影","lon":"121.464853692","lat":"31.2406322324","category":"500","category_name":"未知分类","address":"黄浦区南苏州路1307号3楼(新闸路口)"},{"poiid":"B2094750D26CA2F4489B","title":"新世界","lon":"121.467319","lat":"31.238781","category":"248","category_name":"生活娱乐","address":null},{"poiid":"B2094757D56DA2FA489E","title":"苏河厨房 Creek Kitchen","lon":"121.46357907509","lat":"31.242091307422","category":"94","category_name":"西餐厅","address":"闸北区光复路423号苏河艺术6楼(近乌镇路)"},{"poiid":"B2094654DA68A3F94993","title":"景阳面馆","lon":"121.46597","lat":"31.23927","category":"68","category_name":"快餐厅","address":"黄浦区新桥路20号(近新闸路)"},{"poiid":"B2094655D26BAAFE459F","title":"同安坊(东门)","lon":"121.46574","lat":"31.23945","category":"47","category_name":"住宅区","address":"新桥路29弄2-46号"},{"poiid":"B2094654DB6BABFE449D","title":"可的","lon":"121.46517","lat":"31.23865","category":"117","category_name":"便民商店/便利店","address":"新闸路452"},{"poiid":"B2094655D264A7FF419A","title":"玛戈隆特骨瓷体验馆","lon":"121.46476","lat":"31.24073","category":"131","category_name":"珠宝首饰工艺品","address":""},{"poiid":"B2094654DB6AA3FE499A","title":"上海市地方税务局黄浦区第二税务所","lon":"121.46597","lat":"31.2402","category":"250","category_name":"公园户外","address":"上海市黄浦区新桥路68号507室"},{"poiid":"B2094655D26CABFB4293","title":"育伦里","lon":"121.46571","lat":"31.23919","category":"47","category_name":"住宅区","address":"新桥路19弄2-8号"},{"poiid":"B2094654DB6AA3FF409B","title":"上海市地方税务局黄浦区第六税务所","lon":"121.46597","lat":"31.2402","category":"250","category_name":"公园户外","address":"黄浦区新桥路68号703室"},{"poiid":"B2094757D06FA3FC4093","title":"上海苏州河畔国际青年旅舍","lon":"121.4650892","lat":"31.2407474","category":"216","category_name":"经济型连锁酒店","address":"黄浦区南苏州路1307号(近地铁1号线新闸路地铁站)"},{"poiid":"B2094655D36DA0FE409D","title":"新闸路地铁站","lon":"121.46668","lat":"31.23916","category":"36","category_name":"地铁站","address":""},{"poiid":"B2094757D06BA1FC4992","title":"WeeCoffee微咖","lon":"121.467156","lat":"31.239803901236","category":"65","category_name":"咖啡厅","address":"上海静安区新闸路356号102(近乌镇桥)"},{"poiid":"B2094753D76FAAFA449C","title":"上海滩国泰旗舰店","lon":"121.466011","lat":"31.216125","category":"249","category_name":"购物服务","address":"淮海中路868号"},{"poiid":"B209475CD564A7F84292","title":"上海滩新天地店","lon":"121.47463","lat":"31.22164","category":"119","category_name":"商场","address":"\"太仓路181弄新天地北里15号\r\n\""},{"poiid":"B209475CD564A7F8439E","title":"上海滩中信泰富店","lon":"121.45602","lat":"31.22851","category":"119","category_name":"商场","address":"\"南京西路1168号中信泰富广场，店铺号221.\r\n\""},{"poiid":"B2094757D064A5F8439A","title":"上海浦西开元大酒店","lon":"121.466409738","lat":"31.2425445626","category":"217","category_name":"旅馆招待所","address":"闸北区新疆路518号"},{"poiid":"B2094757D069A5FD439F","title":"新闸路成都北路","lon":"121.464829","lat":"31.237632","category":"500","category_name":"未知分类","address":"上海新闸路成都北路"},{"poiid":"B2094654DA68A3F84993","title":"麦当劳(新闸路店)","lon":"121.46753","lat":"31.23901","category":"68","category_name":"快餐厅","address":"黄浦区新闸路245号(近新昌路)"},{"poiid":"B2094757D06FA6F84592","title":"黄浦区地方税务局","lon":"121.46609","lat":"31.240098","category":"252","category_name":"楼宇机构","address":"上海黄浦区新桥路68号"},{"poiid":"B2094757D069A3F54899","title":"南岸艺术中心","lon":"121.466561738","lat":"31.2417175449","category":"179","category_name":"音乐厅","address":"黄浦区南苏州路1247号(近乌镇路桥)"},{"poiid":"B2094757D06FA5FD499F","title":"富春小笼(新闸路店)","lon":"121.463359","lat":"31.237918","category":"68","category_name":"快餐厅","address":"静安区新闸路557号(近成都北路)"},{"poiid":"B2094757D06FABFA429B","title":"上海北站医院","lon":"121.465149652","lat":"31.2435745125","category":"162","category_name":"医院","address":"闸北区南星路29号(近天目中路)"},{"poiid":"B2094654DA68A3F9499C","title":"新桥大厦","lon":"121.46598","lat":"31.2402","category":"46","category_name":"楼宇","address":"新桥路68"},{"poiid":"B2094757D064A2FD419D","title":"Rita Drinks","lon":"121.464425","lat":"31.24035","category":"65","category_name":"咖啡厅","address":"静安区新闸路916号(近泰兴路)"},{"poiid":"B2094757D068A4FE469A","title":"九子公园","lon":"121.46420335","lat":"31.2404103746","category":"196","category_name":"公园","address":"黄浦区成都北路高架东侧(南苏州路)"},{"poiid":"B2094757D06FA3FA439C","title":"新福康里","lon":"121.464","lat":"31.2411","category":"47","category_name":"住宅区","address":"上海市浦东新区永泰路环林西路口"},{"poiid":"B2094757D069A0FD4193","title":"丽都新贵","lon":"121.466","lat":"31.2407","category":"500","category_name":"未知分类","address":"北一环与亳州路交叉口(庐阳区政府对面)"},{"poiid":"B2094752D06AA4FF4798","title":"杨浦公园","lon":"121.463638","lat":"31.239757","category":"250","category_name":"公园户外","address":null},{"poiid":"B2094654DA6CA4FB479A","title":"上海市静安区第三中心小学","lon":"121.46327","lat":"31.2397","category":"56","category_name":"小学","address":"静安区成都北路997号(成都北路新闸路)"},{"poiid":"B2094655D26CABFB4099","title":"莫泰168连锁旅店(成都北路店)","lon":"121.46127","lat":"31.2401","category":"216","category_name":"经济型连锁酒店","address":"静安区南苏州路1455号(大田路口东侧)"},{"poiid":"B2094752D76CA6F44199","title":"杨浦区中心医院","lon":"121.463443","lat":"31.241908","category":"162","category_name":"医院","address":null},{"poiid":"B2094654DA6CA4FB479B","title":"光明小区(成都北路)","lon":"121.4627","lat":"31.23971","category":"47","category_name":"住宅区","address":"成都北路1037弄3-23号"},{"poiid":"B2094751D56DA5FC4992","title":"大悦城","lon":"121.466088","lat":"31.239219","category":"500","category_name":"未知分类","address":null},{"poiid":"B2094757D064A7FE429F","title":"新闸路大田路","lon":"121.46358073","lat":"31.239127489","category":"500","category_name":"未知分类","address":"上海市静安区新闸路"},{"poiid":"B2094757D064A6FB4099","title":"静安公安分局交警支队","lon":"121.463436","lat":"31.240887","category":"500","category_name":"未知分类","address":"上海成都北路1067"},{"poiid":"B2094655D26DA7FC449B","title":"上海市裘锦秋实验学校(东门)","lon":"121.46567","lat":"31.23998","category":"678","category_name":"学校大门","address":"新桥路55"},{"poiid":"B2094654DA68A3F9499E","title":"上海市裘锦秋实验学校","lon":"121.46545","lat":"31.24","category":"56","category_name":"小学","address":"新桥路55"},{"poiid":"B2094757D469A0FC409A","title":"阿牛嫂桂林米粉 新闸路店","lon":"121.4662106","lat":"31.2390461","category":"68","category_name":"快餐厅","address":"黄浦区新闸路392号(近新昌路)"},{"poiid":"B2094655D26BA4F8459B","title":"悦达黄浦河滨大厦","lon":"121.4669","lat":"31.23974","category":"46","category_name":"楼宇","address":"上海市黄浦区新闸路356号"},{"poiid":"B2094757D06AA0FD459C","title":"新东方人民广场校区","lon":"121.46692657","lat":"31.239282608","category":"500","category_name":"未知分类","address":"上海新闸路355号"},{"poiid":"B2094654DA6CA5F5449F","title":"亚成公寓","lon":"121.4634932592","lat":"31.239421728369","category":"47","category_name":"住宅区","address":"新闸路1001号"},{"poiid":"B2094655D269A4F4409E","title":"烹然心动创意厨艺坊 Cook for you Culinary Studio","lon":"121.466170054","lat":"31.239057793","category":"247","category_name":"餐饮美食","address":"新桥路68号新桥大厦15C层近新闸路"},{"poiid":"B2094752D365A6FB459A","title":"太妃阁","lon":"121.465452","lat":"31.240324","category":"247","category_name":"餐饮美食","address":"南京东路"},{"poiid":"B2094655D265A0F5409E","title":"同安坊","lon":"121.46558","lat":"31.23939","category":"47","category_name":"住宅区","address":"新桥路29弄2-46号"},{"poiid":"B2094654DA6CA5F54299","title":"恒发公寓","lon":"121.462","lat":"31.2392","category":"46","category_name":"楼宇","address":"恒发公寓位于静安新闸路1095弄"},{"poiid":"B2094757D66CA0F5489C","title":"恒丰路120号","lon":"121.465131738","lat":"31.2401765121","category":"500","category_name":"未知分类","address":"上海一天下大酒店"},{"poiid":"B2094757D165A2FE4698","title":"南苏州路1305号","lon":"121.464753","lat":"31.240725","category":"500","category_name":"未知分类","address":"上海玛戈隆特骨瓷"},{"poiid":"B2094757D06AA3FD4298","title":"绿地海悦公寓","lon":"121.466251","lat":"31.242498","category":"47","category_name":"住宅区","address":"上海市闸北区新疆路450号"},{"poiid":"B2094654DB6BA5FD459F","title":"光明小区(东门)","lon":"121.46313","lat":"31.23999","category":"47","category_name":"住宅区","address":"成都北路1037弄3-23号"},{"poiid":"B2094757D16EA0FC419E","title":"正东摄影","lon":"121.464853692","lat":"31.2406322324","category":"500","category_name":"未知分类","address":"黄浦区南苏州路1307号3楼(新闸路口)"},{"poiid":"B2094750D26CA2F4489B","title":"新世界","lon":"121.467319","lat":"31.238781","category":"248","category_name":"生活娱乐","address":null},{"poiid":"B2094757D56DA2FA489E","title":"苏河厨房 Creek Kitchen","lon":"121.46357907509","lat":"31.242091307422","category":"94","category_name":"西餐厅","address":"闸北区光复路423号苏河艺术6楼(近乌镇路)"},{"poiid":"B2094654DA68A3F94993","title":"景阳面馆","lon":"121.46597","lat":"31.23927","category":"68","category_name":"快餐厅","address":"黄浦区新桥路20号(近新闸路)"},{"poiid":"B2094655D26BAAFE459F","title":"同安坊(东门)","lon":"121.46574","lat":"31.23945","category":"47","category_name":"住宅区","address":"新桥路29弄2-46号"},{"poiid":"B2094654DB6BABFE449D","title":"可的","lon":"121.46517","lat":"31.23865","category":"117","category_name":"便民商店/便利店","address":"新闸路452"},{"poiid":"B2094655D264A7FF419A","title":"玛戈隆特骨瓷体验馆","lon":"121.46476","lat":"31.24073","category":"131","category_name":"珠宝首饰工艺品","address":""},{"poiid":"B2094654DB6AA3FE499A","title":"上海市地方税务局黄浦区第二税务所","lon":"121.46597","lat":"31.2402","category":"250","category_name":"公园户外","address":"上海市黄浦区新桥路68号507室"},{"poiid":"B2094655D26CABFB4293","title":"育伦里","lon":"121.46571","lat":"31.23919","category":"47","category_name":"住宅区","address":"新桥路19弄2-8号"},{"poiid":"B2094654DB6AA3FF409B","title":"上海市地方税务局黄浦区第六税务所","lon":"121.46597","lat":"31.2402","category":"250","category_name":"公园户外","address":"黄浦区新桥路68号703室"},{"poiid":"B2094757D06FA3FC4093","title":"上海苏州河畔国际青年旅舍","lon":"121.4650892","lat":"31.2407474","category":"216","category_name":"经济型连锁酒店","address":"黄浦区南苏州路1307号(近地铁1号线新闸路地铁站)"},{"poiid":"B2094655D36DA0FE409D","title":"新闸路地铁站","lon":"121.46668","lat":"31.23916","category":"36","category_name":"地铁站","address":""},{"poiid":"B2094757D06BA1FC4992","title":"WeeCoffee微咖","lon":"121.467156","lat":"31.239803901236","category":"65","category_name":"咖啡厅","address":"上海静安区新闸路356号102(近乌镇桥)"},{"poiid":"B2094753D76FAAFA449C","title":"上海滩国泰旗舰店","lon":"121.466011","lat":"31.216125","category":"249","category_name":"购物服务","address":"淮海中路868号"},{"poiid":"B209475CD564A7F84292","title":"上海滩新天地店","lon":"121.47463","lat":"31.22164","category":"119","category_name":"商场","address":"\"太仓路181弄新天地北里15号\r\n\""},{"poiid":"B209475CD564A7F8439E","title":"上海滩中信泰富店","lon":"121.45602","lat":"31.22851","category":"119","category_name":"商场","address":"\"南京西路1168号中信泰富广场，店铺号221.\r\n\""},{"poiid":"B2094757D064A5F8439A","title":"上海浦西开元大酒店","lon":"121.466409738","lat":"31.2425445626","category":"217","category_name":"旅馆招待所","address":"闸北区新疆路518号"},{"poiid":"B2094757D069A5FD439F","title":"新闸路成都北路","lon":"121.464829","lat":"31.237632","category":"500","category_name":"未知分类","address":"上海新闸路成都北路"},{"poiid":"B2094654DA68A3F84993","title":"麦当劳(新闸路店)","lon":"121.46753","lat":"31.23901","category":"68","category_name":"快餐厅","address":"黄浦区新闸路245号(近新昌路)"},{"poiid":"B2094757D06FA6F84592","title":"黄浦区地方税务局","lon":"121.46609","lat":"31.240098","category":"252","category_name":"楼宇机构","address":"上海黄浦区新桥路68号"},{"poiid":"B2094757D069A3F54899","title":"南岸艺术中心","lon":"121.466561738","lat":"31.2417175449","category":"179","category_name":"音乐厅","address":"黄浦区南苏州路1247号(近乌镇路桥)"},{"poiid":"B2094757D06FA5FD499F","title":"富春小笼(新闸路店)","lon":"121.463359","lat":"31.237918","category":"68","category_name":"快餐厅","address":"静安区新闸路557号(近成都北路)"},{"poiid":"B2094757D06FABFA429B","title":"上海北站医院","lon":"121.465149652","lat":"31.2435745125","category":"162","category_name":"医院","address":"闸北区南星路29号(近天目中路)"},{"poiid":"B2094654DA68A3F9499C","title":"新桥大厦","lon":"121.46598","lat":"31.2402","category":"46","category_name":"楼宇","address":"新桥路68"},{"poiid":"B2094757D064A2FD419D","title":"Rita Drinks","lon":"121.464425","lat":"31.24035","category":"65","category_name":"咖啡厅","address":"静安区新闸路916号(近泰兴路)"},{"poiid":"B2094757D068A4FE469A","title":"九子公园","lon":"121.46420335","lat":"31.2404103746","category":"196","category_name":"公园","address":"黄浦区成都北路高架东侧(南苏州路)"},{"poiid":"B2094757D06FA3FA439C","title":"新福康里","lon":"121.464","lat":"31.2411","category":"47","category_name":"住宅区","address":"上海市浦东新区永泰路环林西路口"},{"poiid":"B2094757D069A0FD4193","title":"丽都新贵","lon":"121.466","lat":"31.2407","category":"500","category_name":"未知分类","address":"北一环与亳州路交叉口(庐阳区政府对面)"},{"poiid":"B2094752D06AA4FF4798","title":"杨浦公园","lon":"121.463638","lat":"31.239757","category":"250","category_name":"公园户外","address":null},{"poiid":"B2094654DA6CA4FB479A","title":"上海市静安区第三中心小学","lon":"121.46327","lat":"31.2397","category":"56","category_name":"小学","address":"静安区成都北路997号(成都北路新闸路)"},{"poiid":"B2094655D26CABFB4099","title":"莫泰168连锁旅店(成都北路店)","lon":"121.46127","lat":"31.2401","category":"216","category_name":"经济型连锁酒店","address":"静安区南苏州路1455号(大田路口东侧)"},{"poiid":"B2094752D76CA6F44199","title":"杨浦区中心医院","lon":"121.463443","lat":"31.241908","category":"162","category_name":"医院","address":null},{"poiid":"B2094654DA6CA4FB479B","title":"光明小区(成都北路)","lon":"121.4627","lat":"31.23971","category":"47","category_name":"住宅区","address":"成都北路1037弄3-23号"},{"poiid":"B2094751D56DA5FC4992","title":"大悦城","lon":"121.466088","lat":"31.239219","category":"500","category_name":"未知分类","address":null},{"poiid":"B2094757D064A7FE429F","title":"新闸路大田路","lon":"121.46358073","lat":"31.239127489","category":"500","category_name":"未知分类","address":"上海市静安区新闸路"},{"poiid":"B2094757D064A6FB4099","title":"静安公安分局交警支队","lon":"121.463436","lat":"31.240887","category":"500","category_name":"未知分类","address":"上海成都北路1067"},{"poiid":"B2094655D26DA7FC449B","title":"上海市裘锦秋实验学校(东门)","lon":"121.46567","lat":"31.23998","category":"678","category_name":"学校大门","address":"新桥路55"},{"poiid":"B2094654DA68A3F9499E","title":"上海市裘锦秋实验学校","lon":"121.46545","lat":"31.24","category":"56","category_name":"小学","address":"新桥路55"},{"poiid":"B2094757D469A0FC409A","title":"阿牛嫂桂林米粉 新闸路店","lon":"121.4662106","lat":"31.2390461","category":"68","category_name":"快餐厅","address":"黄浦区新闸路392号(近新昌路)"},{"poiid":"B2094655D26BA4F8459B","title":"悦达黄浦河滨大厦","lon":"121.4669","lat":"31.23974","category":"46","category_name":"楼宇","address":"上海市黄浦区新闸路356号"},{"poiid":"B2094757D06AA0FD459C","title":"新东方人民广场校区","lon":"121.46692657","lat":"31.239282608","category":"500","category_name":"未知分类","address":"上海新闸路355号"},{"poiid":"B2094654DA6CA5F5449F","title":"亚成公寓","lon":"121.4634932592","lat":"31.239421728369","category":"47","category_name":"住宅区","address":"新闸路1001号"},{"poiid":"B2094655D269A4F4409E","title":"烹然心动创意厨艺坊 Cook for you Culinary Studio","lon":"121.466170054","lat":"31.239057793","category":"247","category_name":"餐饮美食","address":"新桥路68号新桥大厦15C层近新闸路"},{"poiid":"B2094752D365A6FB459A","title":"太妃阁","lon":"121.465452","lat":"31.240324","category":"247","category_name":"餐饮美食","address":"南京东路"},{"poiid":"B2094655D265A0F5409E","title":"同安坊","lon":"121.46558","lat":"31.23939","category":"47","category_name":"住宅区","address":"新桥路29弄2-46号"},{"poiid":"B2094654DA6CA5F54299","title":"恒发公寓","lon":"121.462","lat":"31.2392","category":"46","category_name":"楼宇","address":"恒发公寓位于静安新闸路1095弄"},{"poiid":"B2094757D66CA0F5489C","title":"恒丰路120号","lon":"121.465131738","lat":"31.2401765121","category":"500","category_name":"未知分类","address":"上海一天下大酒店"},{"poiid":"B2094757D165A2FE4698","title":"南苏州路1305号","lon":"121.464753","lat":"31.240725","category":"500","category_name":"未知分类","address":"上海玛戈隆特骨瓷"},{"poiid":"B2094757D06AA3FD4298","title":"绿地海悦公寓","lon":"121.466251","lat":"31.242498","category":"47","category_name":"住宅区","address":"上海市闸北区新疆路450号"},{"poiid":"B2094654DB6BA5FD459F","title":"光明小区(东门)","lon":"121.46313","lat":"31.23999","category":"47","category_name":"住宅区","address":"成都北路1037弄3-23号"},{"poiid":"B2094757D16EA0FC419E","title":"正东摄影","lon":"121.464853692","lat":"31.2406322324","category":"500","category_name":"未知分类","address":"黄浦区南苏州路1307号3楼(新闸路口)"},{"poiid":"B2094750D26CA2F4489B","title":"新世界","lon":"121.467319","lat":"31.238781","category":"248","category_name":"生活娱乐","address":null},{"poiid":"B2094757D56DA2FA489E","title":"苏河厨房 Creek Kitchen","lon":"121.46357907509","lat":"31.242091307422","category":"94","category_name":"西餐厅","address":"闸北区光复路423号苏河艺术6楼(近乌镇路)"},{"poiid":"B2094654DA68A3F94993","title":"景阳面馆","lon":"121.46597","lat":"31.23927","category":"68","category_name":"快餐厅","address":"黄浦区新桥路20号(近新闸路)"},{"poiid":"B2094655D26BAAFE459F","title":"同安坊(东门)","lon":"121.46574","lat":"31.23945","category":"47","category_name":"住宅区","address":"新桥路29弄2-46号"},{"poiid":"B2094654DB6BABFE449D","title":"可的","lon":"121.46517","lat":"31.23865","category":"117","category_name":"便民商店/便利店","address":"新闸路452"},{"poiid":"B2094655D264A7FF419A","title":"玛戈隆特骨瓷体验馆","lon":"121.46476","lat":"31.24073","category":"131","category_name":"珠宝首饰工艺品","address":""},{"poiid":"B2094654DB6AA3FE499A","title":"上海市地方税务局黄浦区第二税务所","lon":"121.46597","lat":"31.2402","category":"250","category_name":"公园户外","address":"上海市黄浦区新桥路68号507室"},{"poiid":"B2094655D26CABFB4293","title":"育伦里","lon":"121.46571","lat":"31.23919","category":"47","category_name":"住宅区","address":"新桥路19弄2-8号"},{"poiid":"B2094654DB6AA3FF409B","title":"上海市地方税务局黄浦区第六税务所","lon":"121.46597","lat":"31.2402","category":"250","category_name":"公园户外","address":"黄浦区新桥路68号703室"}]