[{"poiid":"B2094757D06FA3F8419F","title":"上海外高桥保税区（五号门）","lon":"121.60565214847952","lat":"31.316174535459073","category":"46","category_name":"楼宇","address":"上海市浦东新区杨高北路2001号"},{"poiid":"B2094757D06FA3F4469B","title":"上海外高桥保税区海关","lon":"121.605324785","lat":"31.3157962504","category":"46","category_name":"楼宇","address":"上海杨高北路2015号"},{"poiid":"B2094757D069A4F5429B","title":"上海高尔夫球训练中心","lon":"121.5893168","lat":"31.3093008","category":"500","category_name":"未知分类","address":"浦东新区张扬北路2700号(近五洲大道)"},{"poiid":"B2094654D568A1FD459F","title":"麦当劳 外高桥店 McDonald's","lon":"121.606007465","lat":"31.319296379921","category":"68","category_name":"快餐厅","address":"浦东新区外高桥保税区台北西路200号F幢F1(外高桥五号门)"},{"poiid":"B2094655D264A6FE409C","title":"金地未未来","lon":"121.58695","lat":"31.306332","category":"47","category_name":"住宅区","address":"浦东新区张杨北路2899号"},{"poiid":"B2094655D26BA2F54893","title":"浦东北路五洲大道","lon":"121.57813","lat":"31.30519","category":"38","category_name":"公交车站","address":""},{"poiid":"B2094757D06FA3FC479E","title":"星巴克 外高桥店 Starbucks Cafe","lon":"121.60587719364","lat":"31.314000753184","category":"260","category_name":"其他","address":"浦东新区加枫路18号"},{"poiid":"B2094757D06FA4F94599","title":"翔殷路隧道(五洲大道出口)","lon":"121.593825","lat":"31.303949","category":"260","category_name":"其他","address":"上海市浦东新区五洲大道"},{"poiid":"B2094757D06FA0FC4592","title":"浦江东旭公寓","lon":"121.593","lat":"31.2979","category":"500","category_name":"未知分类","address":"上海东靖路626弄"},{"poiid":"B2094757D068A0FE4893","title":"洲海路地铁站","lon":"121.58936855","lat":"31.312905264","category":"36","category_name":"地铁站","address":"上海轨道交通6号线洲海路站"},{"poiid":"B2094757D06FA4FB459F","title":"中国工商银行数据中心(上海)","lon":"121.60757342","lat":"31.312693316","category":"500","category_name":"未知分类","address":"上海市浦东新区杨高北路2005号(台南西路80号)"},{"poiid":"B2094757D069A0FB439C","title":"高行绿洲四期","lon":"121.59073","lat":"31.326172","category":"47","category_name":"住宅区","address":"上海市浦东新区秋岚路58弄"},{"poiid":"B2094757D16BA4FF4799","title":"高行绿洲六期","lon":"121.59229","lat":"31.323219","category":"47","category_name":"住宅区","address":"上海庭安路兰谷路"},{"poiid":"B2094757D06AA2FB449C","title":"上海橄榄球俱乐部","lon":"121.59822082","lat":"31.309343338","category":"500","category_name":"未知分类","address":"上海外高桥洲海路"},{"poiid":"B2094757D06FA5FC429E","title":"五洲大道地铁站","lon":"121.589335","lat":"31.303134625","category":"36","category_name":"地铁站","address":"上海轨道交通 六号线 轨交五洲大道站 6"},{"poiid":"B2094654D568ABF8409D","title":"IBM全球服务执行中心上海新办公楼","lon":"121.60709","lat":"31.31448","category":"46","category_name":"楼宇","address":"上海市浦东新区外高桥保税区台南西路50号"},{"poiid":"B2094757D069AAFA4692","title":"一阳轩","lon":"121.58906133","lat":"31.327013176","category":"72","category_name":"广东菜","address":"浦东新区张杨北路3999号(行南路口)"},{"poiid":"B2094757D069A2FC449C","title":"上海烟草包装印刷有限公司","lon":"121.58828735","lat":"31.323133468","category":"46","category_name":"楼宇","address":"上海张杨北路3939号"},{"poiid":"B2094654DB6AA6FF4499","title":"上海悦兴国际大酒店","lon":"121.5874","lat":"31.33073","category":"76","category_name":"上海菜","address":"浦东新区航津路658号悦兴国际大酒店内"},{"poiid":"B2094655D36DA6FF429C","title":"洲海路","lon":"121.58931","lat":"31.31291","category":"38","category_name":"公交车站","address":""},{"poiid":"B2094757D16EA7F94499","title":"高行绿洲三期","lon":"121.59151","lat":"31.327978","category":"47","category_name":"住宅区","address":"上海秋岚路91弄"},{"poiid":"B2094655D269AAF9499F","title":"肯德基 台中南路店 KFC","lon":"121.607173054","lat":"31.315351793","category":"68","category_name":"快餐厅","address":"浦东新区台中南路2号新贸楼1楼(台南西路台中南路)"},{"poiid":"B209475DD069A3F5499B","title":"森兰商都","lon":"121.591636","lat":"31.311855","category":"500","category_name":"未知分类","address":"上海市 张扬北路"},{"poiid":"B2094757D068A7FC4198","title":"五洲大道","lon":"121.604402","lat":"31.303533","category":"500","category_name":"未知分类","address":"上海五洲大道杨高北路"},{"poiid":"B2094757D06AA0FE439A","title":"中冶尚城","lon":"121.59292","lat":"31.320593","category":"47","category_name":"住宅区","address":"浦东新区启帆路309号(近张杨北路)"},{"poiid":"B2094750D56AA0FF4193","title":"仁恒森兰雅苑","lon":"121.59624240819","lat":"31.306692358906","category":"47","category_name":"住宅区","address":"浦东新区兰谷路1688号"},{"poiid":"B2094757D66DABF4429B","title":"南北高架淮海中路上匝道","lon":"121.59040333","lat":"31.313981268","category":"500","category_name":"未知分类","address":"上海淮海中路"},{"poiid":"B2094750D26CA1F5449C","title":"中国平安","lon":"121.589036","lat":"31.313505","category":"263","category_name":"公司","address":"外高桥区爱都路18号"},{"poiid":"B209475DD368A6F5439E","title":"森兰商都","lon":"121.593597","lat":"31.310749","category":"500","category_name":"未知分类","address":"上海市 外高桥欧尚"},{"poiid":"B2094757D164A6FE409A","title":"府邸保健会所","lon":"121.58956","lat":"31.31049","category":"149","category_name":"洗浴推拿场所","address":"上海浦东新区张杨路3111号(近云山路)  "},{"poiid":"B2094655D26AA0FA4499","title":"地铁外高桥保税区南站","lon":"121.60348","lat":"31.31896","category":"36","category_name":"地铁站","address":""},{"poiid":"B2094654D568AAFF4498","title":"宝莲庵","lon":"121.59643","lat":"31.32363","category":"244","category_name":"寺庙道观","address":"浦东新区井亭东沟镇解放村36号(夏家宅东侧)"},{"poiid":"B2094757D165A2FE4492","title":"高朋茶楼","lon":"121.588595952","lat":"31.3084138045","category":"260","category_name":"其他","address":"浦东新区芳菲路576号(近张杨北路)"},{"poiid":"B2094654D568ABF8419A","title":"安靠封装测试(上海)有限公司","lon":"121.60924","lat":"31.3109","category":"263","category_name":"公司","address":"上海英伦路111号"},{"poiid":"B2094654D568ABFF499B","title":"衡山国际商务楼","lon":"121.60556","lat":"31.31178","category":"46","category_name":"楼宇","address":"闸北区江场西路38号(近共和新路)"},{"poiid":"B209475DD66CA6F44798","title":"森兰商都","lon":"121.595619","lat":"31.309818","category":"500","category_name":"未知分类","address":"上海市 张扬路州海路"},{"poiid":"B2094655D36DA7FD489D","title":"张杨北路五洲大道","lon":"121.58933","lat":"31.3043","category":"38","category_name":"公交车站","address":""},{"poiid":"B2094655D26AAAF4469C","title":"棒约翰比萨 外高桥店 Papa John's Pizza","lon":"121.610811054","lat":"31.322816793","category":"68","category_name":"快餐厅","address":"浦东新区华京路8号(近荷香路)"},{"poiid":"B2094757D065A6F4479D","title":"瑞可碧橄榄球俱乐部","lon":"121.58595243","lat":"31.303685931","category":"500","category_name":"未知分类","address":"浦东新区张扬北路2700号(近地铁6号线五洲大道站)"},{"poiid":"B2094757D165A6F9449C","title":"圣.莲瑜珈SPA会所","lon":"121.588160339","lat":"31.3080971333","category":"500","category_name":"未知分类","address":"上海浦东张杨北路"},{"poiid":"B2094750D16BA3FA4692","title":"高弘家苑","lon":"121.58405","lat":"31.309643","category":"47","category_name":"住宅区","address":"浦东新区莱阳路2328弄"},{"poiid":"B2094655D26BA6FB4992","title":"金地未未来(西门)","lon":"121.58681","lat":"31.30634","category":"47","category_name":"住宅区","address":""},{"poiid":"B2094655D36CA6FA4498","title":"东鑫公寓","lon":"121.58469879718","lat":"31.30749406786","category":"38","category_name":"公交车站","address":"浦东北路1350弄"},{"poiid":"B2094757DB6EA5F44098","title":"高行绿洲五期","lon":"121.589532","lat":"31.327998","category":"47","category_name":"住宅区","address":"上海浦东庭安路825弄"},{"poiid":"B2094757D06AA3F9449F","title":"惠普科技(上海)有限公司","lon":"121.6059133","lat":"31.3143639","category":"46","category_name":"楼宇","address":"上海浦东新区外高桥保税区加枫路20号"},{"poiid":"B2094757D16CA7F4499A","title":"上海永增汽车销售服务有限公司","lon":"121.588622","lat":"31.322196","category":"158","category_name":"汽车销售","address":"浦东新区张杨北路3839号(近衡安路)"},{"poiid":"B2094655D36DA0FE489A","title":"行南路莱阳路","lon":"121.58371","lat":"31.32451","category":"38","category_name":"公交车站","address":""},{"poiid":"B209475CDA6CA4F8489C","title":"森兰商都","lon":"121.58345","lat":"31.314115","category":"500","category_name":"未知分类","address":"上海市 启帆路628号"},{"poiid":"B2094655D26EA1FD459B","title":"莫泰168连锁旅店(外高桥五号门店)","lon":"121.60919","lat":"31.31719","category":"216","category_name":"经济型连锁酒店","address":"浦东新区台北东路200号(近洲海路)"},{"poiid":"B2094757D06AA5FB4293","title":"上海药明康德新药开发有限公司","lon":"121.608224","lat":"31.323069","category":"263","category_name":"公司","address":"上海浦东外高桥保税区富特中路288号"},{"poiid":"B2094757D06FA3F8419F","title":"上海外高桥保税区（五号门）","lon":"121.60565214847952","lat":"31.316174535459073","category":"46","category_name":"楼宇","address":"上海市浦东新区杨高北路2001号"},{"poiid":"B2094757D06FA3F4469B","title":"上海外高桥保税区海关","lon":"121.605324785","lat":"31.3157962504","category":"46","category_name":"楼宇","address":"上海杨高北路2015号"},{"poiid":"B2094757D069A4F5429B","title":"上海高尔夫球训练中心","lon":"121.5893168","lat":"31.3093008","category":"500","category_name":"未知分类","address":"浦东新区张扬北路2700号(近五洲大道)"},{"poiid":"B2094654D568A1FD459F","title":"麦当劳 外高桥店 McDonald's","lon":"121.606007465","lat":"31.319296379921","category":"68","category_name":"快餐厅","address":"浦东新区外高桥保税区台北西路200号F幢F1(外高桥五号门)"},{"poiid":"B2094655D264A6FE409C","title":"金地未未来","lon":"121.58695","lat":"31.306332","category":"47","category_name":"住宅区","address":"浦东新区张杨北路2899号"},{"poiid":"B2094655D26BA2F54893","title":"浦东北路五洲大道","lon":"121.57813","lat":"31.30519","category":"38","category_name":"公交车站","address":""},{"poiid":"B2094757D06FA3FC479E","title":"星巴克 外高桥店 Starbucks Cafe","lon":"121.60587719364","lat":"31.314000753184","category":"260","category_name":"其他","address":"浦东新区加枫路18号"},{"poiid":"B2094757D06FA4F94599","title":"翔殷路隧道(五洲大道出口)","lon":"121.593825","lat":"31.303949","category":"260","category_name":"其他","address":"上海市浦东新区五洲大道"},{"poiid":"B2094757D06FA0FC4592","title":"浦江东旭公寓","lon":"121.593","lat":"31.2979","category":"500","category_name":"未知分类","address":"上海东靖路626弄"},{"poiid":"B2094757D068A0FE4893","title":"洲海路地铁站","lon":"121.58936855","lat":"31.312905264","category":"36","category_name":"地铁站","address":"上海轨道交通6号线洲海路站"},{"poiid":"B2094757D06FA4FB459F","title":"中国工商银行数据中心(上海)","lon":"121.60757342","lat":"31.312693316","category":"500","category_name":"未知分类","address":"上海市浦东新区杨高北路2005号(台南西路80号)"},{"poiid":"B2094757D069A0FB439C","title":"高行绿洲四期","lon":"121.59073","lat":"31.326172","category":"47","category_name":"住宅区","address":"上海市浦东新区秋岚路58弄"},{"poiid":"B2094757D16BA4FF4799","title":"高行绿洲六期","lon":"121.59229","lat":"31.323219","category":"47","category_name":"住宅区","address":"上海庭安路兰谷路"},{"poiid":"B2094757D06AA2FB449C","title":"上海橄榄球俱乐部","lon":"121.59822082","lat":"31.309343338","category":"500","category_name":"未知分类","address":"上海外高桥洲海路"},{"poiid":"B2094757D06FA5FC429E","title":"五洲大道地铁站","lon":"121.589335","lat":"31.303134625","category":"36","category_name":"地铁站","address":"上海轨道交通 六号线 轨交五洲大道站 6"},{"poiid":"B2094654D568ABF8409D","title":"IBM全球服务执行中心上海新办公楼","lon":"121.60709","lat":"31.31448","category":"46","category_name":"楼宇","address":"上海市浦东新区外高桥保税区台南西路50号"},{"poiid":"B2094757D069AAFA4692","title":"一阳轩","lon":"121.58906133","lat":"31.327013176","category":"72","category_name":"广东菜","address":"浦东新区张杨北路3999号(行南路口)"},{"poiid":"B2094757D069A2FC449C","title":"上海烟草包装印刷有限公司","lon":"121.58828735","lat":"31.323133468","category":"46","category_name":"楼宇","address":"上海张杨北路3939号"},{"poiid":"B2094654DB6AA6FF4499","title":"上海悦兴国际大酒店","lon":"121.5874","lat":"31.33073","category":"76","category_name":"上海菜","address":"浦东新区航津路658号悦兴国际大酒店内"},{"poiid":"B2094655D36DA6FF429C","title":"洲海路","lon":"121.58931","lat":"31.31291","category":"38","category_name":"公交车站","address":""},{"poiid":"B2094757D16EA7F94499","title":"高行绿洲三期","lon":"121.59151","lat":"31.327978","category":"47","category_name":"住宅区","address":"上海秋岚路91弄"},{"poiid":"B2094655D269AAF9499F","title":"肯德基 台中南路店 KFC","lon":"121.607173054","lat":"31.315351793","category":"68","category_name":"快餐厅","address":"浦东新区台中南路2号新贸楼1楼(台南西路台中南路)"},{"poiid":"B209475DD069A3F5499B","title":"森兰商都","lon":"121.591636","lat":"31.311855","category":"500","category_name":"未知分类","address":"上海市 张扬北路"},{"poiid":"B2094757D068A7FC4198","title":"五洲大道","lon":"121.604402","lat":"31.303533","category":"500","category_name":"未知分类","address":"上海五洲大道杨高北路"},{"poiid":"B2094757D06AA0FE439A","title":"中冶尚城","lon":"121.59292","lat":"31.320593","category":"47","category_name":"住宅区","address":"浦东新区启帆路309号(近张杨北路)"},{"poiid":"B2094750D56AA0FF4193","title":"仁恒森兰雅苑","lon":"121.59624240819","lat":"31.306692358906","category":"47","category_name":"住宅区","address":"浦东新区兰谷路1688号"},{"poiid":"B2094757D66DABF4429B","title":"南北高架淮海中路上匝道","lon":"121.59040333","lat":"31.313981268","category":"500","category_name":"未知分类","address":"上海淮海中路"},{"poiid":"B2094750D26CA1F5449C","title":"中国平安","lon":"121.589036","lat":"31.313505","category":"263","category_name":"公司","address":"外高桥区爱都路18号"},{"poiid":"B209475DD368A6F5439E","title":"森兰商都","lon":"121.593597","lat":"31.310749","category":"500","category_name":"未知分类","address":"上海市 外高桥欧尚"},{"poiid":"B2094757D164A6FE409A","title":"府邸保健会所","lon":"121.58956","lat":"31.31049","category":"149","category_name":"洗浴推拿场所","address":"上海浦东新区张杨路3111号(近云山路)  "},{"poiid":"B2094655D26AA0FA4499","title":"地铁外高桥保税区南站","lon":"121.60348","lat":"31.31896","category":"36","category_name":"地铁站","address":""},{"poiid":"B2094654D568AAFF4498","title":"宝莲庵","lon":"121.59643","lat":"31.32363","category":"244","category_name":"寺庙道观","address":"浦东新区井亭东沟镇解放村36号(夏家宅东侧)"},{"poiid":"B2094757D165A2FE4492","title":"高朋茶楼","lon":"121.588595952","lat":"31.3084138045","category":"260","category_name":"其他","address":"浦东新区芳菲路576号(近张杨北路)"},{"poiid":"B2094654D568ABF8419A","title":"安靠封装测试(上海)有限公司","lon":"121.60924","lat":"31.3109","category":"263","category_name":"公司","address":"上海英伦路111号"},{"poiid":"B2094654D568ABFF499B","title":"衡山国际商务楼","lon":"121.60556","lat":"31.31178","category":"46","category_name":"楼宇","address":"闸北区江场西路38号(近共和新路)"},{"poiid":"B209475DD66CA6F44798","title":"森兰商都","lon":"121.595619","lat":"31.309818","category":"500","category_name":"未知分类","address":"上海市 张扬路州海路"},{"poiid":"B2094655D36DA7FD489D","title":"张杨北路五洲大道","lon":"121.58933","lat":"31.3043","category":"38","category_name":"公交车站","address":""},{"poiid":"B2094655D26AAAF4469C","title":"棒约翰比萨 外高桥店 Papa John's Pizza","lon":"121.610811054","lat":"31.322816793","category":"68","category_name":"快餐厅","address":"浦东新区华京路8号(近荷香路)"},{"poiid":"B2094757D065A6F4479D","title":"瑞可碧橄榄球俱乐部","lon":"121.58595243","lat":"31.303685931","category":"500","category_name":"未知分类","address":"浦东新区张扬北路2700号(近地铁6号线五洲大道站)"},{"poiid":"B2094757D165A6F9449C","title":"圣.莲瑜珈SPA会所","lon":"121.588160339","lat":"31.3080971333","category":"500","category_name":"未知分类","address":"上海浦东张杨北路"},{"poiid":"B2094750D16BA3FA4692","title":"高弘家苑","lon":"121.58405","lat":"31.309643","category":"47","category_name":"住宅区","address":"浦东新区莱阳路2328弄"},{"poiid":"B2094655D26BA6FB4992","title":"金地未未来(西门)","lon":"121.58681","lat":"31.30634","category":"47","category_name":"住宅区","address":""},{"poiid":"B2094655D36CA6FA4498","title":"东鑫公寓","lon":"121.58469879718","lat":"31.30749406786","category":"38","category_name":"公交车站","address":"浦东北路1350弄"},{"poiid":"B2094757DB6EA5F44098","title":"高行绿洲五期","lon":"121.589532","lat":"31.327998","category":"47","category_name":"住宅区","address":"上海浦东庭安路825弄"},{"poiid":"B2094757D06AA3F9449F","title":"惠普科技(上海)有限公司","lon":"121.6059133","lat":"31.3143639","category":"46","category_name":"楼宇","address":"上海浦东新区外高桥保税区加枫路20号"},{"poiid":"B2094757D16CA7F4499A","title":"上海永增汽车销售服务有限公司","lon":"121.588622","lat":"31.322196","category":"158","category_name":"汽车销售","address":"浦东新区张杨北路3839号(近衡安路)"},{"poiid":"B2094655D36DA0FE489A","title":"行南路莱阳路","lon":"121.58371","lat":"31.32451","category":"38","category_name":"公交车站","address":""},{"poiid":"B209475CDA6CA4F8489C","title":"森兰商都","lon":"121.58345","lat":"31.314115","category":"500","category_name":"未知分类","address":"上海市 启帆路628号"},{"poiid":"B2094655D26EA1FD459B","title":"莫泰168连锁旅店(外高桥五号门店)","lon":"121.60919","lat":"31.31719","category":"216","category_name":"经济型连锁酒店","address":"浦东新区台北东路200号(近洲海路)"},{"poiid":"B2094757D06AA5FB4293","title":"上海药明康德新药开发有限公司","lon":"121.608224","lat":"31.323069","category":"263","category_name":"公司","address":"上海浦东外高桥保税区富特中路288号"},{"poiid":"B2094757D06FA3F8419F","title":"上海外高桥保税区（五号门）","lon":"121.60565214847952","lat":"31.316174535459073","category":"46","category_name":"楼宇","address":"上海市浦东新区杨高北路2001号"},{"poiid":"B2094757D06FA3F4469B","title":"上海外高桥保税区海关","lon":"121.605324785","lat":"31.3157962504","category":"46","category_name":"楼宇","address":"上海杨高北路2015号"},{"poiid":"B2094757D069A4F5429B","title":"上海高尔夫球训练中心","lon":"121.5893168","lat":"31.3093008","category":"500","category_name":"未知分类","address":"浦东新区张扬北路2700号(近五洲大道)"},{"poiid":"B2094654D568A1FD459F","title":"麦当劳 外高桥店 McDonald's","lon":"121.606007465","lat":"31.319296379921","category":"68","category_name":"快餐厅","address":"浦东新区外高桥保税区台北西路200号F幢F1(外高桥五号门)"},{"poiid":"B2094655D264A6FE409C","title":"金地未未来","lon":"121.58695","lat":"31.306332","category":"47","category_name":"住宅区","address":"浦东新区张杨北路2899号"},{"poiid":"B2094655D26BA2F54893","title":"浦东北路五洲大道","lon":"121.57813","lat":"31.30519","category":"38","category_name":"公交车站","address":""},{"poiid":"B2094757D06FA3FC479E","title":"星巴克 外高桥店 Starbucks Cafe","lon":"121.60587719364","lat":"31.314000753184","category":"260","category_name":"其他","address":"浦东新区加枫路18号"},{"poiid":"B2094757D06FA4F94599","title":"翔殷路隧道(五洲大道出口)","lon":"121.593825","lat":"31.303949","category":"260","category_name":"其他","address":"上海市浦东新区五洲大道"},{"poiid":"B2094757D06FA0FC4592","title":"浦江东旭公寓","lon":"121.593","lat":"31.2979","category":"500","category_name":"未知分类","address":"上海东靖路626弄"},{"poiid":"B2094757D068A0FE4893","title":"洲海路地铁站","lon":"121.58936855","lat":"31.312905264","category":"36","category_name":"地铁站","address":"上海轨道交通6号线洲海路站"},{"poiid":"B2094757D06FA4FB459F","title":"中国工商银行数据中心(上海)","lon":"121.60757342","lat":"31.312693316","category":"500","category_name":"未知分类","address":"上海市浦东新区杨高北路2005号(台南西路80号)"},{"poiid":"B2094757D069A0FB439C","title":"高行绿洲四期","lon":"121.59073","lat":"31.326172","category":"47","category_name":"住宅区","address":"上海市浦东新区秋岚路58弄"},{"poiid":"B2094757D16BA4FF4799","title":"高行绿洲六期","lon":"121.59229","lat":"31.323219","category":"47","category_name":"住宅区","address":"上海庭安路兰谷路"},{"poiid":"B2094757D06AA2FB449C","title":"上海橄榄球俱乐部","lon":"121.59822082","lat":"31.309343338","category":"500","category_name":"未知分类","address":"上海外高桥洲海路"},{"poiid":"B2094757D06FA5FC429E","title":"五洲大道地铁站","lon":"121.589335","lat":"31.303134625","category":"36","category_name":"地铁站","address":"上海轨道交通 六号线 轨交五洲大道站 6"},{"poiid":"B2094654D568ABF8409D","title":"IBM全球服务执行中心上海新办公楼","lon":"121.60709","lat":"31.31448","category":"46","category_name":"楼宇","address":"上海市浦东新区外高桥保税区台南西路50号"},{"poiid":"B2094757D069AAFA4692","title":"一阳轩","lon":"121.58906133","lat":"31.327013176","category":"72","category_name":"广东菜","address":"浦东新区张杨北路3999号(行南路口)"},{"poiid":"B2094757D069A2FC449C","title":"上海烟草包装印刷有限公司","lon":"121.58828735","lat":"31.323133468","category":"46","category_name":"楼宇","address":"上海张杨北路3939号"},{"poiid":"B2094654DB6AA6FF4499","title":"上海悦兴国际大酒店","lon":"121.5874","lat":"31.33073","category":"76","category_name":"上海菜","address":"浦东新区航津路658号悦兴国际大酒店内"},{"poiid":"B2094655D36DA6FF429C","title":"洲海路","lon":"121.58931","lat":"31.31291","category":"38","category_name":"公交车站","address":""},{"poiid":"B2094757D16EA7F94499","title":"高行绿洲三期","lon":"121.59151","lat":"31.327978","category":"47","category_name":"住宅区","address":"上海秋岚路91弄"},{"poiid":"B2094655D269AAF9499F","title":"肯德基 台中南路店 KFC","lon":"121.607173054","lat":"31.315351793","category":"68","category_name":"快餐厅","address":"浦东新区台中南路2号新贸楼1楼(台南西路台中南路)"},{"poiid":"B209475DD069A3F5499B","title":"森兰商都","lon":"121.591636","lat":"31.311855","category":"500","category_name":"未知分类","address":"上海市 张扬北路"},{"poiid":"B2094757D068A7FC4198","title":"五洲大道","lon":"121.604402","lat":"31.303533","category":"500","category_name":"未知分类","address":"上海五洲大道杨高北路"},{"poiid":"B2094757D06AA0FE439A","title":"中冶尚城","lon":"121.59292","lat":"31.320593","category":"47","category_name":"住宅区","address":"浦东新区启帆路309号(近张杨北路)"},{"poiid":"B2094750D56AA0FF4193","title":"仁恒森兰雅苑","lon":"121.59624240819","lat":"31.306692358906","category":"47","category_name":"住宅区","address":"浦东新区兰谷路1688号"},{"poiid":"B2094757D66DABF4429B","title":"南北高架淮海中路上匝道","lon":"121.59040333","lat":"31.313981268","category":"500","category_name":"未知分类","address":"上海淮海中路"},{"poiid":"B2094750D26CA1F5449C","title":"中国平安","lon":"121.589036","lat":"31.313505","category":"263","category_name":"公司","address":"外高桥区爱都路18号"},{"poiid":"B209475DD368A6F5439E","title":"森兰商都","lon":"121.593597","lat":"31.310749","category":"500","category_name":"未知分类","address":"上海市 外高桥欧尚"},{"poiid":"B2094757D164A6FE409A","title":"府邸保健会所","lon":"121.58956","lat":"31.31049","category":"149","category_name":"洗浴推拿场所","address":"上海浦东新区张杨路3111号(近云山路)  "},{"poiid":"B2094655D26AA0FA4499","title":"地铁外高桥保税区南站","lon":"121.60348","lat":"31.31896","category":"36","category_name":"地铁站","address":""},{"poiid":"B2094654D568AAFF4498","title":"宝莲庵","lon":"121.59643","lat":"31.32363","category":"244","category_name":"寺庙道观","address":"浦东新区井亭东沟镇解放村36号(夏家宅东侧)"},{"poiid":"B2094757D165A2FE4492","title":"高朋茶楼","lon":"121.588595952","lat":"31.3084138045","category":"260","category_name":"其他","address":"浦东新区芳菲路576号(近张杨北路)"},{"poiid":"B2094654D568ABF8419A","title":"安靠封装测试(上海)有限公司","lon":"121.60924","lat":"31.3109","category":"263","category_name":"公司","address":"上海英伦路111号"},{"poiid":"B2094654D568ABFF499B","title":"衡山国际商务楼","lon":"121.60556","lat":"31.31178","category":"46","category_name":"楼宇","address":"闸北区江场西路38号(近共和新路)"},{"poiid":"B209475DD66CA6F44798","title":"森兰商都","lon":"121.595619","lat":"31.309818","category":"500","category_name":"未知分类","address":"上海市 张扬路州海路"},{"poiid":"B2094655D36DA7FD489D","title":"张杨北路五洲大道","lon":"121.58933","lat":"31.3043","category":"38","category_name":"公交车站","address":""},{"poiid":"B2094655D26AAAF4469C","title":"棒约翰比萨 外高桥店 Papa John's Pizza","lon":"121.610811054","lat":"31.322816793","category":"68","category_name":"快餐厅","address":"浦东新区华京路8号(近荷香路)"},{"poiid":"B2094757D065A6F4479D","title":"瑞可碧橄榄球俱乐部","lon":"121.58595243","lat":"31.303685931","category":"500","category_name":"未知分类","address":"浦东新区张扬北路2700号(近地铁6号线五洲大道站)"},{"poiid":"B2094757D165A6F9449C","title":"圣.莲瑜珈SPA会所","lon":"121.588160339","lat":"31.3080971333","category":"500","category_name":"未知分类","address":"上海浦东张杨北路"},{"poiid":"B2094750D16BA3FA4692","title":"高弘家苑","lon":"121.58405","lat":"31.309643","category":"47","category_name":"住宅区","address":"浦东新区莱阳路2328弄"},{"poiid":"B2094655D26BA6FB4992","title":"金地未未来(西门)","lon":"121.58681","lat":"31.30634","category":"47","category_name":"住宅区","address":""},{"poiid":"B2094655D36CA6FA4498","title":"东鑫公寓","lon":"121.58469879718","lat":"31.30749406786","category":"38","category_name":"公交车站","address":"浦东北路1350弄"},{"poiid":"B2094757DB6EA5F44098","title":"高行绿洲五期","lon":"121.589532","lat":"31.327998","category":"47","category_name":"住宅区","address":"上海浦东庭安路825弄"},{"poiid":"B2094757D06AA3F9449F","title":"惠普科技(上海)有限公司","lon":"121.6059133","lat":"31.3143639","category":"46","category_name":"楼宇","address":"上海浦东新区外高桥保税区加枫路20号"},{"poiid":"B2094757D16CA7F4499A","title":"上海永增汽车销售服务有限公司","lon":"121.588622","lat":"31.322196","category":"158","category_name":"汽车销售","address":"浦东新区张杨北路3839号(近衡安路)"},{"poiid":"B2094655D36DA0FE489A","title":"行南路莱阳路","lon":"121.58371","lat":"31.32451","category":"38","category_name":"公交车站","address":""},{"poiid":"B209475CDA6CA4F8489C","title":"森兰商都","lon":"121.58345","lat":"31.314115","category":"500","category_name":"未知分类","address":"上海市 启帆路628号"},{"poiid":"B2094655D26EA1FD459B","title":"莫泰168连锁旅店(外高桥五号门店)","lon":"121.60919","lat":"31.31719","category":"216","category_name":"经济型连锁酒店","address":"浦东新区台北东路200号(近洲海路)"},{"poiid":"B2094757D06AA5FB4293","title":"上海药明康德新药开发有限公司","lon":"121.608224","lat":"31.323069","category":"263","category_name":"公司","address":"上海浦东外高桥保税区富特中路288号"},{"poiid":"B2094757D06FA3F8419F","title":"上海外高桥保税区（五号门）","lon":"121.60565214847952","lat":"31.316174535459073","category":"46","category_name":"楼宇","address":"上海市浦东新区杨高北路2001号"},{"poiid":"B2094757D06FA3F4469B","title":"上海外高桥保税区海关","lon":"121.605324785","lat":"31.3157962504","category":"46","category_name":"楼宇","address":"上海杨高北路2015号"},{"poiid":"B2094757D069A4F5429B","title":"上海高尔夫球训练中心","lon":"121.5893168","lat":"31.3093008","category":"500","category_name":"未知分类","address":"浦东新区张扬北路2700号(近五洲大道)"},{"poiid":"B2094654D568A1FD459F","title":"麦当劳 外高桥店 McDonald's","lon":"121.606007465","lat":"31.319296379921","category":"68","category_name":"快餐厅","address":"浦东新区外高桥保税区台北西路200号F幢F1(外高桥五号门)"},{"poiid":"B2094655D264A6FE409C","title":"金地未未来","lon":"121.58695","lat":"31.306332","category":"47","category_name":"住宅区","address":"浦东新区张杨北路2899号"},{"poiid":"B2094655D26BA2F54893","title":"浦东北路五洲大道","lon":"121.57813","lat":"31.30519","category":"38","category_name":"公交车站","address":""},{"poiid":"B2094757D06FA3FC479E","title":"星巴克 外高桥店 Starbucks Cafe","lon":"121.60587719364","lat":"31.314000753184","category":"260","category_name":"其他","address":"浦东新区加枫路18号"},{"poiid":"B2094757D06FA4F94599","title":"翔殷路隧道(五洲大道出口)","lon":"121.593825","lat":"31.303949","category":"260","category_name":"其他","address":"上海市浦东新区五洲大道"},{"poiid":"B2094757D06FA0FC4592","title":"浦江东旭公寓","lon":"121.593","lat":"31.2979","category":"500","category_name":"未知分类","address":"上海东靖路626弄"},{"poiid":"B2094757D068A0FE4893","title":"洲海路地铁站","lon":"121.58936855","lat":"31.312905264","category":"36","category_name":"地铁站","address":"上海轨道交通6号线洲海路站"},{"poiid":"B2094757D06FA4FB459F","title":"中国工商银行数据中心(上海)","lon":"121.60757342","lat":"31.312693316","category":"500","category_name":"未知分类","address":"上海市浦东新区杨高北路2005号(台南西路80号)"},{"poiid":"B2094757D069A0FB439C","title":"高行绿洲四期","lon":"121.59073","lat":"31.326172","category":"47","category_name":"住宅区","address":"上海市浦东新区秋岚路58弄"},{"poiid":"B2094757D16BA4FF4799","title":"高行绿洲六期","lon":"121.59229","lat":"31.323219","category":"47","category_name":"住宅区","address":"上海庭安路兰谷路"},{"poiid":"B2094757D06AA2FB449C","title":"上海橄榄球俱乐部","lon":"121.59822082","lat":"31.309343338","category":"500","category_name":"未知分类","address":"上海外高桥洲海路"},{"poiid":"B2094757D06FA5FC429E","title":"五洲大道地铁站","lon":"121.589335","lat":"31.303134625","category":"36","category_name":"地铁站","address":"上海轨道交通 六号线 轨交五洲大道站 6"},{"poiid":"B2094654D568ABF8409D","title":"IBM全球服务执行中心上海新办公楼","lon":"121.60709","lat":"31.31448","category":"46","category_name":"楼宇","address":"上海市浦东新区外高桥保税区台南西路50号"},{"poiid":"B2094757D069AAFA4692","title":"一阳轩","lon":"121.58906133","lat":"31.327013176","category":"72","category_name":"广东菜","address":"浦东新区张杨北路3999号(行南路口)"},{"poiid":"B2094757D069A2FC449C","title":"上海烟草包装印刷有限公司","lon":"121.58828735","lat":"31.323133468","category":"46","category_name":"楼宇","address":"上海张杨北路3939号"},{"poiid":"B2094654DB6AA6FF4499","title":"上海悦兴国际大酒店","lon":"121.5874","lat":"31.33073","category":"76","category_name":"上海菜","address":"浦东新区航津路658号悦兴国际大酒店内"},{"poiid":"B2094655D36DA6FF429C","title":"洲海路","lon":"121.58931","lat":"31.31291","category":"38","category_name":"公交车站","address":""},{"poiid":"B2094757D16EA7F94499","title":"高行绿洲三期","lon":"121.59151","lat":"31.327978","category":"47","category_name":"住宅区","address":"上海秋岚路91弄"},{"poiid":"B2094655D269AAF9499F","title":"肯德基 台中南路店 KFC","lon":"121.607173054","lat":"31.315351793","category":"68","category_name":"快餐厅","address":"浦东新区台中南路2号新贸楼1楼(台南西路台中南路)"},{"poiid":"B209475DD069A3F5499B","title":"森兰商都","lon":"121.591636","lat":"31.311855","category":"500","category_name":"未知分类","address":"上海市 张扬北路"},{"poiid":"B2094757D068A7FC4198","title":"五洲大道","lon":"121.604402","lat":"31.303533","category":"500","category_name":"未知分类","address":"上海五洲大道杨高北路"},{"poiid":"B2094757D06AA0FE439A","title":"中冶尚城","lon":"121.59292","lat":"31.320593","category":"47","category_name":"住宅区","address":"浦东新区启帆路309号(近张杨北路)"},{"poiid":"B2094750D56AA0FF4193","title":"仁恒森兰雅苑","lon":"121.59624240819","lat":"31.306692358906","category":"47","category_name":"住宅区","address":"浦东新区兰谷路1688号"},{"poiid":"B2094757D66DABF4429B","title":"南北高架淮海中路上匝道","lon":"121.59040333","lat":"31.313981268","category":"500","category_name":"未知分类","address":"上海淮海中路"},{"poiid":"B2094750D26CA1F5449C","title":"中国平安","lon":"121.589036","lat":"31.313505","category":"263","category_name":"公司","address":"外高桥区爱都路18号"},{"poiid":"B209475DD368A6F5439E","title":"森兰商都","lon":"121.593597","lat":"31.310749","category":"500","category_name":"未知分类","address":"上海市 外高桥欧尚"},{"poiid":"B2094757D164A6FE409A","title":"府邸保健会所","lon":"121.58956","lat":"31.31049","category":"149","category_name":"洗浴推拿场所","address":"上海浦东新区张杨路3111号(近云山路)  "},{"poiid":"B2094655D26AA0FA4499","title":"地铁外高桥保税区南站","lon":"121.60348","lat":"31.31896","category":"36","category_name":"地铁站","address":""},{"poiid":"B2094654D568AAFF4498","title":"宝莲庵","lon":"121.59643","lat":"31.32363","category":"244","category_name":"寺庙道观","address":"浦东新区井亭东沟镇解放村36号(夏家宅东侧)"},{"poiid":"B2094757D165A2FE4492","title":"高朋茶楼","lon":"121.588595952","lat":"31.3084138045","category":"260","category_name":"其他","address":"浦东新区芳菲路576号(近张杨北路)"},{"poiid":"B2094654D568ABF8419A","title":"安靠封装测试(上海)有限公司","lon":"121.60924","lat":"31.3109","category":"263","category_name":"公司","address":"上海英伦路111号"},{"poiid":"B2094654D568ABFF499B","title":"衡山国际商务楼","lon":"121.60556","lat":"31.31178","category":"46","category_name":"楼宇","address":"闸北区江场西路38号(近共和新路)"},{"poiid":"B209475DD66CA6F44798","title":"森兰商都","lon":"121.595619","lat":"31.309818","category":"500","category_name":"未知分类","address":"上海市 张扬路州海路"},{"poiid":"B2094655D36DA7FD489D","title":"张杨北路五洲大道","lon":"121.58933","lat":"31.3043","category":"38","category_name":"公交车站","address":""},{"poiid":"B2094655D26AAAF4469C","title":"棒约翰比萨 外高桥店 Papa John's Pizza","lon":"121.610811054","lat":"31.322816793","category":"68","category_name":"快餐厅","address":"浦东新区华京路8号(近荷香路)"},{"poiid":"B2094757D065A6F4479D","title":"瑞可碧橄榄球俱乐部","lon":"121.58595243","lat":"31.303685931","category":"500","category_name":"未知分类","address":"浦东新区张扬北路2700号(近地铁6号线五洲大道站)"},{"poiid":"B2094757D165A6F9449C","title":"圣.莲瑜珈SPA会所","lon":"121.588160339","lat":"31.3080971333","category":"500","category_name":"未知分类","address":"上海浦东张杨北路"},{"poiid":"B2094750D16BA3FA4692","title":"高弘家苑","lon":"121.58405","lat":"31.309643","category":"47","category_name":"住宅区","address":"浦东新区莱阳路2328弄"},{"poiid":"B2094655D26BA6FB4992","title":"金地未未来(西门)","lon":"121.58681","lat":"31.30634","category":"47","category_name":"住宅区","address":""},{"poiid":"B2094655D36CA6FA4498","title":"东鑫公寓","lon":"121.58469879718","lat":"31.30749406786","category":"38","category_name":"公交车站","address":"浦东北路1350弄"},{"poiid":"B2094757DB6EA5F44098","title":"高行绿洲五期","lon":"121.589532","lat":"31.327998","category":"47","category_name":"住宅区","address":"上海浦东庭安路825弄"},{"poiid":"B2094757D06AA3F9449F","title":"惠普科技(上海)有限公司","lon":"121.6059133","lat":"31.3143639","category":"46","category_name":"楼宇","address":"上海浦东新区外高桥保税区加枫路20号"},{"poiid":"B2094757D16CA7F4499A","title":"上海永增汽车销售服务有限公司","lon":"121.588622","lat":"31.322196","category":"158","category_name":"汽车销售","address":"浦东新区张杨北路3839号(近衡安路)"},{"poiid":"B2094655D36DA0FE489A","title":"行南路莱阳路","lon":"121.58371","lat":"31.32451","category":"38","category_name":"公交车站","address":""},{"poiid":"B209475CDA6CA4F8489C","title":"森兰商都","lon":"121.58345","lat":"31.314115","category":"500","category_name":"未知分类","address":"上海市 启帆路628号"},{"poiid":"B2094655D26EA1FD459B","title":"莫泰168连锁旅店(外高桥五号门店)","lon":"121.60919","lat":"31.31719","category":"216","category_name":"经济型连锁酒店","address":"浦东新区台北东路200号(近洲海路)"},{"poiid":"B2094757D06AA5FB4293","title":"上海药明康德新药开发有限公司","lon":"121.608224","lat":"31.323069","category":"263","category_name":"公司","address":"上海浦东外高桥保税区富特中路288号"}]