[{"poiid":"B2094757D06FA1FA489A","title":"上海玻璃博物馆","lon":"121.46929904","lat":"31.345047099","category":"182","category_name":"博物馆","address":"宝山区长江西路685号(近钢四路)"},{"poiid":"B2094757D069A7F4429F","title":"祥腾生活广场","lon":"121.480338543","lat":"31.3400640394","category":"47","category_name":"住宅区","address":"宝山区淞发路901弄祥腾生活广场内(近长江南路)"},{"poiid":"B2094757D06FA1FE469B","title":"淞南公园","lon":"121.486744987","lat":"31.3410313325","category":"196","category_name":"公园","address":"上海宝山区淞良路300号(近淞发路)"},{"poiid":"B2094655D36DA7F5489E","title":"淞南镇","lon":"121.4843","lat":"31.34131","category":"38","category_name":"公交车站","address":"上海宝山区淞南镇"},{"poiid":"B2094757D06FAAFF4493","title":"肯德基 KFC (淞南店)","lon":"121.4793813","lat":"31.336847878","category":"68","category_name":"快餐厅","address":"宝山区长江南路553号(近长逸路)"},{"poiid":"B2094654D469AAFC409E","title":"淞南十村","lon":"121.47403","lat":"31.334885","category":"47","category_name":"住宅区","address":"上海市宝山区新二路"},{"poiid":"B2094757D465A3FE4699","title":"宏亮海鲜大酒楼 淞发路店","lon":"121.483641054","lat":"31.341974793","category":"88","category_name":"海鲜酒楼","address":"宝山区淞发路918号世纪联华3楼(近长江南路)"},{"poiid":"B2094757D06FABF8499E","title":"西塘桥","lon":"121.481008","lat":"31.337035","category":"260","category_name":"其他","address":"上海西塘桥淞南八村"},{"poiid":"B2094757D069A6FD499E","title":"上海东昌英菲尼迪旗舰店","lon":"121.474134803","lat":"31.3437922572","category":"500","category_name":"未知分类","address":"宝山区长江西路600号"},{"poiid":"B2094654DB65A6FB4292","title":"淞南世纪联华超市","lon":"121.4797","lat":"31.33801","category":"118","category_name":"超级市场","address":"宝山区长江南路651号世纪联华内(近淞发路)"},{"poiid":"B2094757D069A6FB4793","title":"新城尚景","lon":"121.4817034","lat":"31.343563222","category":"47","category_name":"住宅区","address":"上海宝山区淞肇路333弄"},{"poiid":"B2094750D665A3F9489F","title":"鼎中鼎澳门豆捞(淞南店)","lon":"121.48","lat":"31.3395","category":"86","category_name":"火锅店","address":"宝山区长江南路651号世纪联华1搂(近通南路)"},{"poiid":"B2094757D068A1FB4799","title":"嘉骏香山苑","lon":"121.471118","lat":"31.336197","category":"47","category_name":"住宅区","address":"上海市静安区新闸路1518号"},{"poiid":"B2094757DB6BA4F4499E","title":"相爷食府","lon":"121.4746065","lat":"31.3375408","category":"76","category_name":"上海菜","address":"宝山区通南路111号(近新二路)"},{"poiid":"B2094757D069ABFB4792","title":"宝景苑","lon":"121.47723","lat":"31.338472","category":"252","category_name":"楼宇机构","address":"上海宝山区通南路55弄"},{"poiid":"B2094757D16DA5F94299","title":"三湘海尚","lon":"121.4767795","lat":"31.340800894","category":"47","category_name":"住宅区","address":"上海长江南路888号"},{"poiid":"B2094757D66AABFD429E","title":"品宴轩","lon":"121.481266054","lat":"31.343886793","category":"72","category_name":"广东菜","address":"宝山区长江南路717号(近淞发路)"},{"poiid":"B2094757D068A3FF469C","title":"味千拉面 长江南路店","lon":"121.481348054","lat":"31.336897793","category":"95","category_name":"日本料理","address":"宝山区长江南路651号世纪联华1搂D-1单元(近淞发路)"},{"poiid":"B2094757D06AA2FF449D","title":"乐翻天KTV(淞南店)","lon":"121.483616","lat":"31.341068","category":"170","category_name":"KTV","address":"上海长江南路淞发路(祥腾生活广场)"},{"poiid":"B2094757D06BA3FE499C","title":"淞南八村","lon":"121.487","lat":"31.3413","category":"252","category_name":"楼宇机构","address":"长江南路143号"},{"poiid":"B2094757D065A0F9439A","title":"淞南五村(老)","lon":"121.484233103","lat":"31.3368458117","category":"252","category_name":"楼宇机构","address":"上海市宝山区长逸路淞肇路"},{"poiid":"B2094757D16EA1FF4799","title":"长江二中","lon":"121.47696114","lat":"31.343212313","category":"55","category_name":"中学","address":"上海通南路新二路"},{"poiid":"B2094757D06BA5F9449E","title":"淞南九村","lon":"121.475082253","lat":"31.3346223652","category":"47","category_name":"住宅区","address":"上海宝山区淞南九村"},{"poiid":"B2094757D568A0FA4492","title":"上海三湘海尚","lon":"121.480765","lat":"31.34374056","category":"47","category_name":"住宅区","address":"宝山区长江南路888号(近淞肇路)"},{"poiid":"B2094750D76CA4FA489F","title":"古竹园(古竹里)","lon":"121.48","lat":"31.3395","category":"87","category_name":"特色／地方风味餐厅","address":"宝山区淞南镇长江南路651号(近淞发路)"},{"poiid":"B2094757D069A0FE4292","title":"国际节能环保园","lon":"121.48101","lat":"31.34614","category":"179","category_name":"音乐厅","address":"上海宝山区长江西路101号(近钢三路)  "},{"poiid":"B2094757D569A6FF4098","title":"万临家园","lon":"121.48648","lat":"31.342659","category":"47","category_name":"住宅区","address":"淞发路500弄"},{"poiid":"B2094654D46AA4FB4798","title":"松南小五角广场","lon":"121.47893","lat":"31.33869","category":"46","category_name":"楼宇","address":""},{"poiid":"B2094757D469A2F8499A","title":"新招鲜本地鸡窝 宝山店","lon":"121.480587","lat":"31.336929","category":"86","category_name":"火锅店","address":"宝山区长江南路725号(近长逸路)"},{"poiid":"B2094654D46AA4FB4799","title":"味干拉面","lon":"121.4803","lat":"31.33934","category":"257","category_name":"中餐厅","address":""},{"poiid":"B2094654DB6AA5FA459F","title":"鸡不可失 长江南路店","lon":"121.48031","lat":"31.33935","category":"68","category_name":"快餐厅","address":"宝山区长江南路651号世纪联华内(近淞发路)"},{"poiid":"B2094654D469ABF5429D","title":"宝山职校(总部校区)","lon":"121.48113","lat":"31.34184","category":"54","category_name":"职业技术学校","address":"宝山区淞发路885号(近世纪联华)"},{"poiid":"B2094655D264A0F84293","title":"都市花苑","lon":"121.47701","lat":"31.337891","category":"47","category_name":"住宅区","address":"上海市长宁区延安西路1235弄"},{"poiid":"B2094655D26BA2FF4693","title":"通南路","lon":"121.47625","lat":"31.338","category":"38","category_name":"公交车站","address":"上海通南路250号"},{"poiid":"B2094757D769A4FB479E","title":"苹果花园 长逸路店","lon":"121.482709","lat":"31.336862","category":"47","category_name":"住宅区","address":"宝山区长逸路725号"},{"poiid":"B2094757D66EA7F44798","title":"云峰钢材交易市场","lon":"121.4751991","lat":"31.340677892","category":"500","category_name":"未知分类","address":"上海市宝山区长江西路778号"},{"poiid":"B2094752D26DA2F94998","title":"蚝庄骨头锅","lon":"121.47883","lat":"31.33869","category":"86","category_name":"火锅店","address":"宝山区长江南路719号"},{"poiid":"B2094757D068A1F9409C","title":"锦通苑","lon":"121.47403","lat":"31.336796","category":"252","category_name":"楼宇机构","address":"上海市宝山区新二路1398弄36号"},{"poiid":"B2094757D168A2F54892","title":"复兴中路","lon":"121.4801101","lat":"31.340518888","category":"500","category_name":"未知分类","address":"上海复兴中路瑞金二路"},{"poiid":"B2094655D36CA2FB449F","title":"三转炉","lon":"121.47314","lat":"31.34368","category":"38","category_name":"公交车站","address":""},{"poiid":"B2094654D46AA4FB489E","title":"松南购物中心","lon":"121.48046","lat":"31.33843","category":"119","category_name":"商场","address":""},{"poiid":"B2094654D46AA0F8419F","title":"上海钢运物资供销有限公司","lon":"121.47669","lat":"31.34436","category":"263","category_name":"公司","address":"长江西路360号"},{"poiid":"B2094757D064A4FB499C","title":"寶山職業技術學院","lon":"121.48113","lat":"31.34184","category":"253","category_name":"校园生活","address":"上海寶山區淞發路885號"},{"poiid":"B2094655D26AA5F4459B","title":"通联驾校宝山分部","lon":"121.4799","lat":"31.33725","category":"247","category_name":"餐饮美食","address":"宝山区长江南路688号(近通南路)"},{"poiid":"B2094757D16AAAFA4298","title":"嘉怡宠物诊所","lon":"121.477064703","lat":"31.3394558664","category":"668","category_name":"诊所","address":"上海宝山区凇肇路333弄15号102"},{"poiid":"B2094757D568A4FF4093","title":"格林豪泰酒店(通南路店)","lon":"121.475194","lat":"31.337886","category":"216","category_name":"经济型连锁酒店","address":"宝山区通南路125号(近新二路)"},{"poiid":"B2094757D665ABF94093","title":"豪味道大大鸡排 长江南路店","lon":"121.48065","lat":"31.33767","category":"68","category_name":"快餐厅","address":"宝山区长江南路651号世纪联华w31(近淞发路)"},{"poiid":"B2094655D36DA0FC439D","title":"新二路","lon":"121.47409","lat":"31.33733","category":"38","category_name":"公交车站","address":"殷高西路"},{"poiid":"B2094654D46AA2F4459B","title":"上海轻玻都市型工业园区","lon":"121.47255","lat":"31.34364","category":"45","category_name":"产业园区","address":"长江西路685号"},{"poiid":"B2094654D46AA1FA439F","title":"快客NO.6204","lon":"121.47535","lat":"31.33794","category":"117","category_name":"便民商店/便利店","address":""},{"poiid":"B2094757D06FA1FA489A","title":"上海玻璃博物馆","lon":"121.46929904","lat":"31.345047099","category":"182","category_name":"博物馆","address":"宝山区长江西路685号(近钢四路)"},{"poiid":"B2094757D069A7F4429F","title":"祥腾生活广场","lon":"121.480338543","lat":"31.3400640394","category":"47","category_name":"住宅区","address":"宝山区淞发路901弄祥腾生活广场内(近长江南路)"},{"poiid":"B2094757D06FA1FE469B","title":"淞南公园","lon":"121.486744987","lat":"31.3410313325","category":"196","category_name":"公园","address":"上海宝山区淞良路300号(近淞发路)"},{"poiid":"B2094655D36DA7F5489E","title":"淞南镇","lon":"121.4843","lat":"31.34131","category":"38","category_name":"公交车站","address":"上海宝山区淞南镇"},{"poiid":"B2094757D06FAAFF4493","title":"肯德基 KFC (淞南店)","lon":"121.4793813","lat":"31.336847878","category":"68","category_name":"快餐厅","address":"宝山区长江南路553号(近长逸路)"},{"poiid":"B2094654D469AAFC409E","title":"淞南十村","lon":"121.47403","lat":"31.334885","category":"47","category_name":"住宅区","address":"上海市宝山区新二路"},{"poiid":"B2094757D465A3FE4699","title":"宏亮海鲜大酒楼 淞发路店","lon":"121.483641054","lat":"31.341974793","category":"88","category_name":"海鲜酒楼","address":"宝山区淞发路918号世纪联华3楼(近长江南路)"},{"poiid":"B2094757D06FABF8499E","title":"西塘桥","lon":"121.481008","lat":"31.337035","category":"260","category_name":"其他","address":"上海西塘桥淞南八村"},{"poiid":"B2094757D069A6FD499E","title":"上海东昌英菲尼迪旗舰店","lon":"121.474134803","lat":"31.3437922572","category":"500","category_name":"未知分类","address":"宝山区长江西路600号"},{"poiid":"B2094654DB65A6FB4292","title":"淞南世纪联华超市","lon":"121.4797","lat":"31.33801","category":"118","category_name":"超级市场","address":"宝山区长江南路651号世纪联华内(近淞发路)"},{"poiid":"B2094757D069A6FB4793","title":"新城尚景","lon":"121.4817034","lat":"31.343563222","category":"47","category_name":"住宅区","address":"上海宝山区淞肇路333弄"},{"poiid":"B2094750D665A3F9489F","title":"鼎中鼎澳门豆捞(淞南店)","lon":"121.48","lat":"31.3395","category":"86","category_name":"火锅店","address":"宝山区长江南路651号世纪联华1搂(近通南路)"},{"poiid":"B2094757D068A1FB4799","title":"嘉骏香山苑","lon":"121.471118","lat":"31.336197","category":"47","category_name":"住宅区","address":"上海市静安区新闸路1518号"},{"poiid":"B2094757DB6BA4F4499E","title":"相爷食府","lon":"121.4746065","lat":"31.3375408","category":"76","category_name":"上海菜","address":"宝山区通南路111号(近新二路)"},{"poiid":"B2094757D069ABFB4792","title":"宝景苑","lon":"121.47723","lat":"31.338472","category":"252","category_name":"楼宇机构","address":"上海宝山区通南路55弄"},{"poiid":"B2094757D16DA5F94299","title":"三湘海尚","lon":"121.4767795","lat":"31.340800894","category":"47","category_name":"住宅区","address":"上海长江南路888号"},{"poiid":"B2094757D66AABFD429E","title":"品宴轩","lon":"121.481266054","lat":"31.343886793","category":"72","category_name":"广东菜","address":"宝山区长江南路717号(近淞发路)"},{"poiid":"B2094757D068A3FF469C","title":"味千拉面 长江南路店","lon":"121.481348054","lat":"31.336897793","category":"95","category_name":"日本料理","address":"宝山区长江南路651号世纪联华1搂D-1单元(近淞发路)"},{"poiid":"B2094757D06AA2FF449D","title":"乐翻天KTV(淞南店)","lon":"121.483616","lat":"31.341068","category":"170","category_name":"KTV","address":"上海长江南路淞发路(祥腾生活广场)"},{"poiid":"B2094757D06BA3FE499C","title":"淞南八村","lon":"121.487","lat":"31.3413","category":"252","category_name":"楼宇机构","address":"长江南路143号"},{"poiid":"B2094757D065A0F9439A","title":"淞南五村(老)","lon":"121.484233103","lat":"31.3368458117","category":"252","category_name":"楼宇机构","address":"上海市宝山区长逸路淞肇路"},{"poiid":"B2094757D16EA1FF4799","title":"长江二中","lon":"121.47696114","lat":"31.343212313","category":"55","category_name":"中学","address":"上海通南路新二路"},{"poiid":"B2094757D06BA5F9449E","title":"淞南九村","lon":"121.475082253","lat":"31.3346223652","category":"47","category_name":"住宅区","address":"上海宝山区淞南九村"},{"poiid":"B2094757D568A0FA4492","title":"上海三湘海尚","lon":"121.480765","lat":"31.34374056","category":"47","category_name":"住宅区","address":"宝山区长江南路888号(近淞肇路)"},{"poiid":"B2094750D76CA4FA489F","title":"古竹园(古竹里)","lon":"121.48","lat":"31.3395","category":"87","category_name":"特色／地方风味餐厅","address":"宝山区淞南镇长江南路651号(近淞发路)"},{"poiid":"B2094757D069A0FE4292","title":"国际节能环保园","lon":"121.48101","lat":"31.34614","category":"179","category_name":"音乐厅","address":"上海宝山区长江西路101号(近钢三路)  "},{"poiid":"B2094757D569A6FF4098","title":"万临家园","lon":"121.48648","lat":"31.342659","category":"47","category_name":"住宅区","address":"淞发路500弄"},{"poiid":"B2094654D46AA4FB4798","title":"松南小五角广场","lon":"121.47893","lat":"31.33869","category":"46","category_name":"楼宇","address":""},{"poiid":"B2094757D469A2F8499A","title":"新招鲜本地鸡窝 宝山店","lon":"121.480587","lat":"31.336929","category":"86","category_name":"火锅店","address":"宝山区长江南路725号(近长逸路)"},{"poiid":"B2094654D46AA4FB4799","title":"味干拉面","lon":"121.4803","lat":"31.33934","category":"257","category_name":"中餐厅","address":""},{"poiid":"B2094654DB6AA5FA459F","title":"鸡不可失 长江南路店","lon":"121.48031","lat":"31.33935","category":"68","category_name":"快餐厅","address":"宝山区长江南路651号世纪联华内(近淞发路)"},{"poiid":"B2094654D469ABF5429D","title":"宝山职校(总部校区)","lon":"121.48113","lat":"31.34184","category":"54","category_name":"职业技术学校","address":"宝山区淞发路885号(近世纪联华)"},{"poiid":"B2094655D264A0F84293","title":"都市花苑","lon":"121.47701","lat":"31.337891","category":"47","category_name":"住宅区","address":"上海市长宁区延安西路1235弄"},{"poiid":"B2094655D26BA2FF4693","title":"通南路","lon":"121.47625","lat":"31.338","category":"38","category_name":"公交车站","address":"上海通南路250号"},{"poiid":"B2094757D769A4FB479E","title":"苹果花园 长逸路店","lon":"121.482709","lat":"31.336862","category":"47","category_name":"住宅区","address":"宝山区长逸路725号"},{"poiid":"B2094757D66EA7F44798","title":"云峰钢材交易市场","lon":"121.4751991","lat":"31.340677892","category":"500","category_name":"未知分类","address":"上海市宝山区长江西路778号"},{"poiid":"B2094752D26DA2F94998","title":"蚝庄骨头锅","lon":"121.47883","lat":"31.33869","category":"86","category_name":"火锅店","address":"宝山区长江南路719号"},{"poiid":"B2094757D068A1F9409C","title":"锦通苑","lon":"121.47403","lat":"31.336796","category":"252","category_name":"楼宇机构","address":"上海市宝山区新二路1398弄36号"},{"poiid":"B2094757D168A2F54892","title":"复兴中路","lon":"121.4801101","lat":"31.340518888","category":"500","category_name":"未知分类","address":"上海复兴中路瑞金二路"},{"poiid":"B2094655D36CA2FB449F","title":"三转炉","lon":"121.47314","lat":"31.34368","category":"38","category_name":"公交车站","address":""},{"poiid":"B2094654D46AA4FB489E","title":"松南购物中心","lon":"121.48046","lat":"31.33843","category":"119","category_name":"商场","address":""},{"poiid":"B2094654D46AA0F8419F","title":"上海钢运物资供销有限公司","lon":"121.47669","lat":"31.34436","category":"263","category_name":"公司","address":"长江西路360号"},{"poiid":"B2094757D064A4FB499C","title":"寶山職業技術學院","lon":"121.48113","lat":"31.34184","category":"253","category_name":"校园生活","address":"上海寶山區淞發路885號"},{"poiid":"B2094655D26AA5F4459B","title":"通联驾校宝山分部","lon":"121.4799","lat":"31.33725","category":"247","category_name":"餐饮美食","address":"宝山区长江南路688号(近通南路)"},{"poiid":"B2094757D16AAAFA4298","title":"嘉怡宠物诊所","lon":"121.477064703","lat":"31.3394558664","category":"668","category_name":"诊所","address":"上海宝山区凇肇路333弄15号102"},{"poiid":"B2094757D568A4FF4093","title":"格林豪泰酒店(通南路店)","lon":"121.475194","lat":"31.337886","category":"216","category_name":"经济型连锁酒店","address":"宝山区通南路125号(近新二路)"},{"poiid":"B2094757D665ABF94093","title":"豪味道大大鸡排 长江南路店","lon":"121.48065","lat":"31.33767","category":"68","category_name":"快餐厅","address":"宝山区长江南路651号世纪联华w31(近淞发路)"},{"poiid":"B2094655D36DA0FC439D","title":"新二路","lon":"121.47409","lat":"31.33733","category":"38","category_name":"公交车站","address":"殷高西路"},{"poiid":"B2094654D46AA2F4459B","title":"上海轻玻都市型工业园区","lon":"121.47255","lat":"31.34364","category":"45","category_name":"产业园区","address":"长江西路685号"},{"poiid":"B2094654D46AA1FA439F","title":"快客NO.6204","lon":"121.47535","lat":"31.33794","category":"117","category_name":"便民商店/便利店","address":""},{"poiid":"B2094757D06FA1FA489A","title":"上海玻璃博物馆","lon":"121.46929904","lat":"31.345047099","category":"182","category_name":"博物馆","address":"宝山区长江西路685号(近钢四路)"},{"poiid":"B2094757D069A7F4429F","title":"祥腾生活广场","lon":"121.480338543","lat":"31.3400640394","category":"47","category_name":"住宅区","address":"宝山区淞发路901弄祥腾生活广场内(近长江南路)"},{"poiid":"B2094757D06FA1FE469B","title":"淞南公园","lon":"121.486744987","lat":"31.3410313325","category":"196","category_name":"公园","address":"上海宝山区淞良路300号(近淞发路)"},{"poiid":"B2094655D36DA7F5489E","title":"淞南镇","lon":"121.4843","lat":"31.34131","category":"38","category_name":"公交车站","address":"上海宝山区淞南镇"},{"poiid":"B2094757D06FAAFF4493","title":"肯德基 KFC (淞南店)","lon":"121.4793813","lat":"31.336847878","category":"68","category_name":"快餐厅","address":"宝山区长江南路553号(近长逸路)"},{"poiid":"B2094654D469AAFC409E","title":"淞南十村","lon":"121.47403","lat":"31.334885","category":"47","category_name":"住宅区","address":"上海市宝山区新二路"},{"poiid":"B2094757D465A3FE4699","title":"宏亮海鲜大酒楼 淞发路店","lon":"121.483641054","lat":"31.341974793","category":"88","category_name":"海鲜酒楼","address":"宝山区淞发路918号世纪联华3楼(近长江南路)"},{"poiid":"B2094757D06FABF8499E","title":"西塘桥","lon":"121.481008","lat":"31.337035","category":"260","category_name":"其他","address":"上海西塘桥淞南八村"},{"poiid":"B2094757D069A6FD499E","title":"上海东昌英菲尼迪旗舰店","lon":"121.474134803","lat":"31.3437922572","category":"500","category_name":"未知分类","address":"宝山区长江西路600号"},{"poiid":"B2094654DB65A6FB4292","title":"淞南世纪联华超市","lon":"121.4797","lat":"31.33801","category":"118","category_name":"超级市场","address":"宝山区长江南路651号世纪联华内(近淞发路)"},{"poiid":"B2094757D069A6FB4793","title":"新城尚景","lon":"121.4817034","lat":"31.343563222","category":"47","category_name":"住宅区","address":"上海宝山区淞肇路333弄"},{"poiid":"B2094750D665A3F9489F","title":"鼎中鼎澳门豆捞(淞南店)","lon":"121.48","lat":"31.3395","category":"86","category_name":"火锅店","address":"宝山区长江南路651号世纪联华1搂(近通南路)"},{"poiid":"B2094757D068A1FB4799","title":"嘉骏香山苑","lon":"121.471118","lat":"31.336197","category":"47","category_name":"住宅区","address":"上海市静安区新闸路1518号"},{"poiid":"B2094757DB6BA4F4499E","title":"相爷食府","lon":"121.4746065","lat":"31.3375408","category":"76","category_name":"上海菜","address":"宝山区通南路111号(近新二路)"},{"poiid":"B2094757D069ABFB4792","title":"宝景苑","lon":"121.47723","lat":"31.338472","category":"252","category_name":"楼宇机构","address":"上海宝山区通南路55弄"},{"poiid":"B2094757D16DA5F94299","title":"三湘海尚","lon":"121.4767795","lat":"31.340800894","category":"47","category_name":"住宅区","address":"上海长江南路888号"},{"poiid":"B2094757D66AABFD429E","title":"品宴轩","lon":"121.481266054","lat":"31.343886793","category":"72","category_name":"广东菜","address":"宝山区长江南路717号(近淞发路)"},{"poiid":"B2094757D068A3FF469C","title":"味千拉面 长江南路店","lon":"121.481348054","lat":"31.336897793","category":"95","category_name":"日本料理","address":"宝山区长江南路651号世纪联华1搂D-1单元(近淞发路)"},{"poiid":"B2094757D06AA2FF449D","title":"乐翻天KTV(淞南店)","lon":"121.483616","lat":"31.341068","category":"170","category_name":"KTV","address":"上海长江南路淞发路(祥腾生活广场)"},{"poiid":"B2094757D06BA3FE499C","title":"淞南八村","lon":"121.487","lat":"31.3413","category":"252","category_name":"楼宇机构","address":"长江南路143号"},{"poiid":"B2094757D065A0F9439A","title":"淞南五村(老)","lon":"121.484233103","lat":"31.3368458117","category":"252","category_name":"楼宇机构","address":"上海市宝山区长逸路淞肇路"},{"poiid":"B2094757D16EA1FF4799","title":"长江二中","lon":"121.47696114","lat":"31.343212313","category":"55","category_name":"中学","address":"上海通南路新二路"},{"poiid":"B2094757D06BA5F9449E","title":"淞南九村","lon":"121.475082253","lat":"31.3346223652","category":"47","category_name":"住宅区","address":"上海宝山区淞南九村"},{"poiid":"B2094757D568A0FA4492","title":"上海三湘海尚","lon":"121.480765","lat":"31.34374056","category":"47","category_name":"住宅区","address":"宝山区长江南路888号(近淞肇路)"},{"poiid":"B2094750D76CA4FA489F","title":"古竹园(古竹里)","lon":"121.48","lat":"31.3395","category":"87","category_name":"特色／地方风味餐厅","address":"宝山区淞南镇长江南路651号(近淞发路)"},{"poiid":"B2094757D069A0FE4292","title":"国际节能环保园","lon":"121.48101","lat":"31.34614","category":"179","category_name":"音乐厅","address":"上海宝山区长江西路101号(近钢三路)  "},{"poiid":"B2094757D569A6FF4098","title":"万临家园","lon":"121.48648","lat":"31.342659","category":"47","category_name":"住宅区","address":"淞发路500弄"},{"poiid":"B2094654D46AA4FB4798","title":"松南小五角广场","lon":"121.47893","lat":"31.33869","category":"46","category_name":"楼宇","address":""},{"poiid":"B2094757D469A2F8499A","title":"新招鲜本地鸡窝 宝山店","lon":"121.480587","lat":"31.336929","category":"86","category_name":"火锅店","address":"宝山区长江南路725号(近长逸路)"},{"poiid":"B2094654D46AA4FB4799","title":"味干拉面","lon":"121.4803","lat":"31.33934","category":"257","category_name":"中餐厅","address":""},{"poiid":"B2094654DB6AA5FA459F","title":"鸡不可失 长江南路店","lon":"121.48031","lat":"31.33935","category":"68","category_name":"快餐厅","address":"宝山区长江南路651号世纪联华内(近淞发路)"},{"poiid":"B2094654D469ABF5429D","title":"宝山职校(总部校区)","lon":"121.48113","lat":"31.34184","category":"54","category_name":"职业技术学校","address":"宝山区淞发路885号(近世纪联华)"},{"poiid":"B2094655D264A0F84293","title":"都市花苑","lon":"121.47701","lat":"31.337891","category":"47","category_name":"住宅区","address":"上海市长宁区延安西路1235弄"},{"poiid":"B2094655D26BA2FF4693","title":"通南路","lon":"121.47625","lat":"31.338","category":"38","category_name":"公交车站","address":"上海通南路250号"},{"poiid":"B2094757D769A4FB479E","title":"苹果花园 长逸路店","lon":"121.482709","lat":"31.336862","category":"47","category_name":"住宅区","address":"宝山区长逸路725号"},{"poiid":"B2094757D66EA7F44798","title":"云峰钢材交易市场","lon":"121.4751991","lat":"31.340677892","category":"500","category_name":"未知分类","address":"上海市宝山区长江西路778号"},{"poiid":"B2094752D26DA2F94998","title":"蚝庄骨头锅","lon":"121.47883","lat":"31.33869","category":"86","category_name":"火锅店","address":"宝山区长江南路719号"},{"poiid":"B2094757D068A1F9409C","title":"锦通苑","lon":"121.47403","lat":"31.336796","category":"252","category_name":"楼宇机构","address":"上海市宝山区新二路1398弄36号"},{"poiid":"B2094757D168A2F54892","title":"复兴中路","lon":"121.4801101","lat":"31.340518888","category":"500","category_name":"未知分类","address":"上海复兴中路瑞金二路"},{"poiid":"B2094655D36CA2FB449F","title":"三转炉","lon":"121.47314","lat":"31.34368","category":"38","category_name":"公交车站","address":""},{"poiid":"B2094654D46AA4FB489E","title":"松南购物中心","lon":"121.48046","lat":"31.33843","category":"119","category_name":"商场","address":""},{"poiid":"B2094654D46AA0F8419F","title":"上海钢运物资供销有限公司","lon":"121.47669","lat":"31.34436","category":"263","category_name":"公司","address":"长江西路360号"},{"poiid":"B2094757D064A4FB499C","title":"寶山職業技術學院","lon":"121.48113","lat":"31.34184","category":"253","category_name":"校园生活","address":"上海寶山區淞發路885號"},{"poiid":"B2094655D26AA5F4459B","title":"通联驾校宝山分部","lon":"121.4799","lat":"31.33725","category":"247","category_name":"餐饮美食","address":"宝山区长江南路688号(近通南路)"},{"poiid":"B2094757D16AAAFA4298","title":"嘉怡宠物诊所","lon":"121.477064703","lat":"31.3394558664","category":"668","category_name":"诊所","address":"上海宝山区凇肇路333弄15号102"},{"poiid":"B2094757D568A4FF4093","title":"格林豪泰酒店(通南路店)","lon":"121.475194","lat":"31.337886","category":"216","category_name":"经济型连锁酒店","address":"宝山区通南路125号(近新二路)"},{"poiid":"B2094757D665ABF94093","title":"豪味道大大鸡排 长江南路店","lon":"121.48065","lat":"31.33767","category":"68","category_name":"快餐厅","address":"宝山区长江南路651号世纪联华w31(近淞发路)"},{"poiid":"B2094655D36DA0FC439D","title":"新二路","lon":"121.47409","lat":"31.33733","category":"38","category_name":"公交车站","address":"殷高西路"},{"poiid":"B2094654D46AA2F4459B","title":"上海轻玻都市型工业园区","lon":"121.47255","lat":"31.34364","category":"45","category_name":"产业园区","address":"长江西路685号"},{"poiid":"B2094654D46AA1FA439F","title":"快客NO.6204","lon":"121.47535","lat":"31.33794","category":"117","category_name":"便民商店/便利店","address":""},{"poiid":"B2094757D06FA1FA489A","title":"上海玻璃博物馆","lon":"121.46929904","lat":"31.345047099","category":"182","category_name":"博物馆","address":"宝山区长江西路685号(近钢四路)"},{"poiid":"B2094757D069A7F4429F","title":"祥腾生活广场","lon":"121.480338543","lat":"31.3400640394","category":"47","category_name":"住宅区","address":"宝山区淞发路901弄祥腾生活广场内(近长江南路)"},{"poiid":"B2094757D06FA1FE469B","title":"淞南公园","lon":"121.486744987","lat":"31.3410313325","category":"196","category_name":"公园","address":"上海宝山区淞良路300号(近淞发路)"},{"poiid":"B2094655D36DA7F5489E","title":"淞南镇","lon":"121.4843","lat":"31.34131","category":"38","category_name":"公交车站","address":"上海宝山区淞南镇"},{"poiid":"B2094757D06FAAFF4493","title":"肯德基 KFC (淞南店)","lon":"121.4793813","lat":"31.336847878","category":"68","category_name":"快餐厅","address":"宝山区长江南路553号(近长逸路)"},{"poiid":"B2094654D469AAFC409E","title":"淞南十村","lon":"121.47403","lat":"31.334885","category":"47","category_name":"住宅区","address":"上海市宝山区新二路"},{"poiid":"B2094757D465A3FE4699","title":"宏亮海鲜大酒楼 淞发路店","lon":"121.483641054","lat":"31.341974793","category":"88","category_name":"海鲜酒楼","address":"宝山区淞发路918号世纪联华3楼(近长江南路)"},{"poiid":"B2094757D06FABF8499E","title":"西塘桥","lon":"121.481008","lat":"31.337035","category":"260","category_name":"其他","address":"上海西塘桥淞南八村"},{"poiid":"B2094757D069A6FD499E","title":"上海东昌英菲尼迪旗舰店","lon":"121.474134803","lat":"31.3437922572","category":"500","category_name":"未知分类","address":"宝山区长江西路600号"},{"poiid":"B2094654DB65A6FB4292","title":"淞南世纪联华超市","lon":"121.4797","lat":"31.33801","category":"118","category_name":"超级市场","address":"宝山区长江南路651号世纪联华内(近淞发路)"},{"poiid":"B2094757D069A6FB4793","title":"新城尚景","lon":"121.4817034","lat":"31.343563222","category":"47","category_name":"住宅区","address":"上海宝山区淞肇路333弄"},{"poiid":"B2094750D665A3F9489F","title":"鼎中鼎澳门豆捞(淞南店)","lon":"121.48","lat":"31.3395","category":"86","category_name":"火锅店","address":"宝山区长江南路651号世纪联华1搂(近通南路)"},{"poiid":"B2094757D068A1FB4799","title":"嘉骏香山苑","lon":"121.471118","lat":"31.336197","category":"47","category_name":"住宅区","address":"上海市静安区新闸路1518号"},{"poiid":"B2094757DB6BA4F4499E","title":"相爷食府","lon":"121.4746065","lat":"31.3375408","category":"76","category_name":"上海菜","address":"宝山区通南路111号(近新二路)"},{"poiid":"B2094757D069ABFB4792","title":"宝景苑","lon":"121.47723","lat":"31.338472","category":"252","category_name":"楼宇机构","address":"上海宝山区通南路55弄"},{"poiid":"B2094757D16DA5F94299","title":"三湘海尚","lon":"121.4767795","lat":"31.340800894","category":"47","category_name":"住宅区","address":"上海长江南路888号"},{"poiid":"B2094757D66AABFD429E","title":"品宴轩","lon":"121.481266054","lat":"31.343886793","category":"72","category_name":"广东菜","address":"宝山区长江南路717号(近淞发路)"},{"poiid":"B2094757D068A3FF469C","title":"味千拉面 长江南路店","lon":"121.481348054","lat":"31.336897793","category":"95","category_name":"日本料理","address":"宝山区长江南路651号世纪联华1搂D-1单元(近淞发路)"},{"poiid":"B2094757D06AA2FF449D","title":"乐翻天KTV(淞南店)","lon":"121.483616","lat":"31.341068","category":"170","category_name":"KTV","address":"上海长江南路淞发路(祥腾生活广场)"},{"poiid":"B2094757D06BA3FE499C","title":"淞南八村","lon":"121.487","lat":"31.3413","category":"252","category_name":"楼宇机构","address":"长江南路143号"},{"poiid":"B2094757D065A0F9439A","title":"淞南五村(老)","lon":"121.484233103","lat":"31.3368458117","category":"252","category_name":"楼宇机构","address":"上海市宝山区长逸路淞肇路"},{"poiid":"B2094757D16EA1FF4799","title":"长江二中","lon":"121.47696114","lat":"31.343212313","category":"55","category_name":"中学","address":"上海通南路新二路"},{"poiid":"B2094757D06BA5F9449E","title":"淞南九村","lon":"121.475082253","lat":"31.3346223652","category":"47","category_name":"住宅区","address":"上海宝山区淞南九村"},{"poiid":"B2094757D568A0FA4492","title":"上海三湘海尚","lon":"121.480765","lat":"31.34374056","category":"47","category_name":"住宅区","address":"宝山区长江南路888号(近淞肇路)"},{"poiid":"B2094750D76CA4FA489F","title":"古竹园(古竹里)","lon":"121.48","lat":"31.3395","category":"87","category_name":"特色／地方风味餐厅","address":"宝山区淞南镇长江南路651号(近淞发路)"},{"poiid":"B2094757D069A0FE4292","title":"国际节能环保园","lon":"121.48101","lat":"31.34614","category":"179","category_name":"音乐厅","address":"上海宝山区长江西路101号(近钢三路)  "},{"poiid":"B2094757D569A6FF4098","title":"万临家园","lon":"121.48648","lat":"31.342659","category":"47","category_name":"住宅区","address":"淞发路500弄"},{"poiid":"B2094654D46AA4FB4798","title":"松南小五角广场","lon":"121.47893","lat":"31.33869","category":"46","category_name":"楼宇","address":""},{"poiid":"B2094757D469A2F8499A","title":"新招鲜本地鸡窝 宝山店","lon":"121.480587","lat":"31.336929","category":"86","category_name":"火锅店","address":"宝山区长江南路725号(近长逸路)"},{"poiid":"B2094654D46AA4FB4799","title":"味干拉面","lon":"121.4803","lat":"31.33934","category":"257","category_name":"中餐厅","address":""},{"poiid":"B2094654DB6AA5FA459F","title":"鸡不可失 长江南路店","lon":"121.48031","lat":"31.33935","category":"68","category_name":"快餐厅","address":"宝山区长江南路651号世纪联华内(近淞发路)"},{"poiid":"B2094654D469ABF5429D","title":"宝山职校(总部校区)","lon":"121.48113","lat":"31.34184","category":"54","category_name":"职业技术学校","address":"宝山区淞发路885号(近世纪联华)"},{"poiid":"B2094655D264A0F84293","title":"都市花苑","lon":"121.47701","lat":"31.337891","category":"47","category_name":"住宅区","address":"上海市长宁区延安西路1235弄"},{"poiid":"B2094655D26BA2FF4693","title":"通南路","lon":"121.47625","lat":"31.338","category":"38","category_name":"公交车站","address":"上海通南路250号"},{"poiid":"B2094757D769A4FB479E","title":"苹果花园 长逸路店","lon":"121.482709","lat":"31.336862","category":"47","category_name":"住宅区","address":"宝山区长逸路725号"},{"poiid":"B2094757D66EA7F44798","title":"云峰钢材交易市场","lon":"121.4751991","lat":"31.340677892","category":"500","category_name":"未知分类","address":"上海市宝山区长江西路778号"},{"poiid":"B2094752D26DA2F94998","title":"蚝庄骨头锅","lon":"121.47883","lat":"31.33869","category":"86","category_name":"火锅店","address":"宝山区长江南路719号"},{"poiid":"B2094757D068A1F9409C","title":"锦通苑","lon":"121.47403","lat":"31.336796","category":"252","category_name":"楼宇机构","address":"上海市宝山区新二路1398弄36号"},{"poiid":"B2094757D168A2F54892","title":"复兴中路","lon":"121.4801101","lat":"31.340518888","category":"500","category_name":"未知分类","address":"上海复兴中路瑞金二路"},{"poiid":"B2094655D36CA2FB449F","title":"三转炉","lon":"121.47314","lat":"31.34368","category":"38","category_name":"公交车站","address":""},{"poiid":"B2094654D46AA4FB489E","title":"松南购物中心","lon":"121.48046","lat":"31.33843","category":"119","category_name":"商场","address":""},{"poiid":"B2094654D46AA0F8419F","title":"上海钢运物资供销有限公司","lon":"121.47669","lat":"31.34436","category":"263","category_name":"公司","address":"长江西路360号"},{"poiid":"B2094757D064A4FB499C","title":"寶山職業技術學院","lon":"121.48113","lat":"31.34184","category":"253","category_name":"校园生活","address":"上海寶山區淞發路885號"},{"poiid":"B2094655D26AA5F4459B","title":"通联驾校宝山分部","lon":"121.4799","lat":"31.33725","category":"247","category_name":"餐饮美食","address":"宝山区长江南路688号(近通南路)"},{"poiid":"B2094757D16AAAFA4298","title":"嘉怡宠物诊所","lon":"121.477064703","lat":"31.3394558664","category":"668","category_name":"诊所","address":"上海宝山区凇肇路333弄15号102"},{"poiid":"B2094757D568A4FF4093","title":"格林豪泰酒店(通南路店)","lon":"121.475194","lat":"31.337886","category":"216","category_name":"经济型连锁酒店","address":"宝山区通南路125号(近新二路)"},{"poiid":"B2094757D665ABF94093","title":"豪味道大大鸡排 长江南路店","lon":"121.48065","lat":"31.33767","category":"68","category_name":"快餐厅","address":"宝山区长江南路651号世纪联华w31(近淞发路)"},{"poiid":"B2094655D36DA0FC439D","title":"新二路","lon":"121.47409","lat":"31.33733","category":"38","category_name":"公交车站","address":"殷高西路"},{"poiid":"B2094654D46AA2F4459B","title":"上海轻玻都市型工业园区","lon":"121.47255","lat":"31.34364","category":"45","category_name":"产业园区","address":"长江西路685号"},{"poiid":"B2094654D46AA1FA439F","title":"快客NO.6204","lon":"121.47535","lat":"31.33794","category":"117","category_name":"便民商店/便利店","address":""}]