[{"poiid":"B2094654DB6BAAF8479D","title":"环球金融中心","lon":"121.514","lat":"31.241","category":"46","category_name":"楼宇","address":"上海市浦东新区陆家嘴世纪大道8号"},{"poiid":"B2094654DA69A7FB4599","title":"金茂大厦","lon":"121.5124569976","lat":"31.240872238236","category":"46","category_name":"楼宇","address":"浦东新区世纪大道88号金茂大厦内(近二号线陆家嘴站)"},{"poiid":"B2094757D06FA3F8439A","title":"时代金融中心","lon":"121.513","lat":"31.2467","category":"46","category_name":"楼宇","address":"上海市浦东新区银城中路68号"},{"poiid":"B209475CD564A7F84392","title":"上海滩浦东香格里拉店","lon":"121.50058","lat":"31.23634","category":"119","category_name":"商场","address":"浦东富成路33号香格里拉酒店内大堂层"},{"poiid":"B2094654DA69A7FB489A","title":"渣打银行大厦","lon":"121.516","lat":"31.2415","category":"46","category_name":"楼宇","address":"浦东区金融贸易区D3-5"},{"poiid":"B2094655D26BA2F54792","title":"浦东大道东方医院","lon":"121.51231","lat":"31.23845","category":"162","category_name":"医院","address":""},{"poiid":"B2094655D26FA5F9439B","title":"上海证券大厦","lon":"121.517707","lat":"31.241749","category":"46","category_name":"楼宇","address":"浦东新区浦东南路528号"},{"poiid":"B2094757D06FA1FA4498","title":"招商局大厦","lon":"121.515135","lat":"31.242879","category":"46","category_name":"楼宇","address":"浦东新区陆家嘴东路161号"},{"poiid":"B2094757D06FA5FA479F","title":"华夏银行大厦","lon":"121.5152","lat":"31.245346","category":"46","category_name":"楼宇","address":"上海浦东新区浦东南路256号"},{"poiid":"B2094655D268A3FB439E","title":"东亚银行金融大厦","lon":"121.509","lat":"31.2399","category":"46","category_name":"楼宇","address":"陆家嘴花园石桥路66号"},{"poiid":"B2094757D06FA0FA489F","title":"秦皇岛路轮渡站","lon":"121.51639044","lat":"31.249174771","category":"35","category_name":"长途汽车站","address":"上海虹口区秦皇岛路1号"},{"poiid":"B2094655D268A4F9409E","title":"太平金融大厦","lon":"121.51","lat":"31.2396","category":"46","category_name":"楼宇","address":"上海市浦东新区陆家嘴环路、花园石桥路"},{"poiid":"B2094757D068A2FC4593","title":"民生银行大厦(陆家嘴)","lon":"121.50841305","lat":"31.240807181","category":"46","category_name":"楼宇","address":"上海浦东新区浦东南路100号(浦东南路银城中路)"},{"poiid":"B2094655D26FA5FF479B","title":"华能联合大厦","lon":"121.515","lat":"31.245","category":"46","category_name":"楼宇","address":"朝阳华威桥东北角"},{"poiid":"B2094757D068AAFC469B","title":"保利广场","lon":"121.514956916","lat":"31.2433600232","category":"500","category_name":"未知分类","address":"闸北区共和新路3703,3737号"},{"poiid":"B2094757D06FA6FD479E","title":"工行上海分行","lon":"121.51130276","lat":"31.23914032","category":"500","category_name":"未知分类","address":"上海浦東大道9號"},{"poiid":"B2094757D06FA2FF4099","title":"中国保险大厦","lon":"121.516","lat":"31.2421","category":"46","category_name":"楼宇","address":"浦东临港新城主城区申港大道200号"},{"poiid":"B2094757D06FA7F9449C","title":"瑞慈健康管理中心(华夏银行店)","lon":"121.50933","lat":"31.2392","category":"162","category_name":"医院","address":"浦东新区浦东南路256号华夏银行大厦3楼(近浦东大道)"},{"poiid":"B2094757D06FA7F54993","title":"老山东鲁菜馆","lon":"121.510469","lat":"31.239297","category":"73","category_name":"山东菜","address":"浦东新区浦东南路379号金穗大厦6楼(近浦东大道)"},{"poiid":"B2094757D069A7F4429B","title":"浦东新舞台","lon":"121.51503","lat":"31.23892","category":"179","category_name":"音乐厅","address":"浦东新区浦东大道143号(南泉北路浦东大道)"},{"poiid":"B2094757D16CABFF429D","title":"雅典皇宫","lon":"121.51895673","lat":"31.242752567","category":"500","category_name":"未知分类","address":"上海浦东新区东方路8号(近浦东大道)  "},{"poiid":"B2094757D16DABF9429A","title":"浦江游览","lon":"121.516154","lat":"31.249603","category":"607","category_name":"一般景点","address":"上海秦皇岛"},{"poiid":"B2094750D66CABFB4693","title":"Mio Ita","lon":"121.517906","lat":"31.243383","category":"94","category_name":"西餐厅","address":"浦东新区东方路18号保利大厦E栋2楼"},{"poiid":"B2094654DA69A1F54992","title":"金穗大厦","lon":"121.517","lat":"31.245","category":"46","category_name":"楼宇","address":"上海市奉贤区环城东路455,465弄"},{"poiid":"B2094757D06FAAFF439E","title":"中国船舶大厦","lon":"121.510881","lat":"31.238821","category":"46","category_name":"楼宇","address":"上海市宝山区牡丹江路1228号"},{"poiid":"B2094757DB69A3F44599","title":"富淳饭店 保利店","lon":"121.5189019","lat":"31.242405","category":"72","category_name":"广东菜","address":"浦东新区东方路18号保利广场E座G楼"},{"poiid":"B2094757D068A4FE4098","title":"顺峰(浦东银城店)","lon":"121.50784301","lat":"31.24158287","category":"72","category_name":"广东菜","address":"浦东新区银城中路8号碧玉蓝天3-4楼(金洲街银城中路)"},{"poiid":"B2094757D064AAF5409A","title":"浦东陆家嘴图书馆","lon":"121.518913","lat":"31.241753","category":"181","category_name":"图书馆","address":"上海浦东新区东方路38号"},{"poiid":"B2094757D068A6FD489F","title":"永华大厦","lon":"121.51416015","lat":"31.238700866","category":"46","category_name":"楼宇","address":"浦东大道138号"},{"poiid":"B2094655D26FA5FE4498","title":"汇丰大厦","lon":"121.514","lat":"31.2458","category":"46","category_name":"楼宇","address":"上海陆家嘴环路1000号"},{"poiid":"B2094654D56FA3FB479A","title":"港运大厦","lon":"121.51116","lat":"31.25012","category":"46","category_name":"楼宇","address":"静安区长寿路(万航渡路口)"},{"poiid":"B2094757D068A3F94192","title":"东北四季饺子王(浦东大道店)","lon":"121.51492","lat":"31.23906","category":"82","category_name":"东北菜","address":"上海浦东新区浦东大道143号甲(即墨路口)"},{"poiid":"B2094757D068A6FC449A","title":"即墨路","lon":"121.51289367","lat":"31.239175796","category":"500","category_name":"未知分类","address":"上海即墨路"},{"poiid":"B2094757D66EA3F54792","title":"中国工商银行上海市分行","lon":"121.512708738","lat":"31.2381974699","category":"500","category_name":"未知分类","address":"浦东新区浦东大道9号(东方医院对面)"},{"poiid":"B2094757D06FAAFF4693","title":"大壶春(浦东总店)","lon":"121.51408","lat":"31.23824","category":"68","category_name":"快餐厅","address":"浦东新区浦东大道136弄4-6号(近即墨路)"},{"poiid":"B2094757D469A5F9409A","title":"松临日本料理 保利广场店","lon":"121.5189019","lat":"31.242405","category":"95","category_name":"日本料理","address":"浦东新区东方路18号保利广场E座2楼(近地铁四号线浦东大道站)"},{"poiid":"B2094750DA6AA0F9409A","title":"北外滩滨江大道","lon":"121.512023","lat":"31.244825","category":"250","category_name":"公园户外","address":null},{"poiid":"B2094753DB68A4F84292","title":"上海浦东文华东方大酒店","lon":"121.507225","lat":"31.243402","category":"500","category_name":"未知分类","address":"上海市 浦东南路111号"},{"poiid":"B2094655D268A4F4449A","title":"浦江双辉大厦","lon":"121.51042","lat":"31.24277","category":"46","category_name":"楼宇","address":"静安区南京西路555路"},{"poiid":"B2094753D668A6F54393","title":"黃記煌三汁燜鍋（第一食品商店）","lon":"121.515002","lat":"31.2428","category":"247","category_name":"餐饮美食","address":"上海市 第一食品商店"},{"poiid":"B2094757D465A3F9439D","title":"柯记港式茶餐厅","lon":"121.513903054","lat":"31.240806793","category":"72","category_name":"广东菜","address":"浦东新区昌邑路88号(近即墨路)"},{"poiid":"B2094753D26FA4F8429E","title":"文華廚房","lon":"121.507316","lat":"31.243278","category":"249","category_name":"购物服务","address":"上海市 浦東南路111號"},{"poiid":"B2094757D065A5FF4598","title":"La Foret","lon":"121.510756","lat":"31.242361","category":"67","category_name":"甜品店","address":"浦东新区世纪大道8号国金中心LG2-C3室(近陆家嘴地铁站)"},{"poiid":"B2094654DA69A0FC479F","title":"浦江茗园","lon":"121.5135","lat":"31.241152","category":"47","category_name":"住宅区","address":"上海市浦东新区昌邑路55弄"},{"poiid":"B2094757D06AAAFD4992","title":"上岛咖啡 陆家嘴金融店 UBC Coffee","lon":"121.51266479492","lat":"31.240152359009","category":"260","category_name":"其他","address":"浦东新区即墨路39号(近昌邑路)"},{"poiid":"B2094757D16EA4F44799","title":"秦皇岛路水门码头","lon":"121.518441738","lat":"31.2456866296","category":"260","category_name":"其他","address":"杨浦区秦皇岛路32号(近杨树浦路)"},{"poiid":"B2094757D16DA6FD499B","title":"上海农商银行总行","lon":"121.50773373","lat":"31.241263535","category":"150","category_name":"银行","address":"上海中融碧玉蓝天大厦(银城中路8号)"},{"poiid":"B2094757D06AA7F8429A","title":"德兴面馆(浦东店)","lon":"121.5153","lat":"31.2387","category":"68","category_name":"快餐厅","address":"浦东新区南泉北路1号(浦东大道口)"},{"poiid":"B2094654DA69A0FC449F","title":"世纪金融大厦","lon":"121.51198","lat":"31.23891","category":"46","category_name":"楼宇","address":"浦东大道9号"},{"poiid":"B2094757D56CAAF84799","title":"佳汇阁 私房菜","lon":"121.51535659799","lat":"31.243942370505","category":"247","category_name":"餐饮美食","address":"昌邑路569号近东方路"},{"poiid":"B2094654DB6BAAF8479D","title":"环球金融中心","lon":"121.514","lat":"31.241","category":"46","category_name":"楼宇","address":"上海市浦东新区陆家嘴世纪大道8号"},{"poiid":"B2094654DA69A7FB4599","title":"金茂大厦","lon":"121.5124569976","lat":"31.240872238236","category":"46","category_name":"楼宇","address":"浦东新区世纪大道88号金茂大厦内(近二号线陆家嘴站)"},{"poiid":"B2094757D06FA3F8439A","title":"时代金融中心","lon":"121.513","lat":"31.2467","category":"46","category_name":"楼宇","address":"上海市浦东新区银城中路68号"},{"poiid":"B209475CD564A7F84392","title":"上海滩浦东香格里拉店","lon":"121.50058","lat":"31.23634","category":"119","category_name":"商场","address":"浦东富成路33号香格里拉酒店内大堂层"},{"poiid":"B2094654DA69A7FB489A","title":"渣打银行大厦","lon":"121.516","lat":"31.2415","category":"46","category_name":"楼宇","address":"浦东区金融贸易区D3-5"},{"poiid":"B2094655D26BA2F54792","title":"浦东大道东方医院","lon":"121.51231","lat":"31.23845","category":"162","category_name":"医院","address":""},{"poiid":"B2094655D26FA5F9439B","title":"上海证券大厦","lon":"121.517707","lat":"31.241749","category":"46","category_name":"楼宇","address":"浦东新区浦东南路528号"},{"poiid":"B2094757D06FA1FA4498","title":"招商局大厦","lon":"121.515135","lat":"31.242879","category":"46","category_name":"楼宇","address":"浦东新区陆家嘴东路161号"},{"poiid":"B2094757D06FA5FA479F","title":"华夏银行大厦","lon":"121.5152","lat":"31.245346","category":"46","category_name":"楼宇","address":"上海浦东新区浦东南路256号"},{"poiid":"B2094655D268A3FB439E","title":"东亚银行金融大厦","lon":"121.509","lat":"31.2399","category":"46","category_name":"楼宇","address":"陆家嘴花园石桥路66号"},{"poiid":"B2094757D06FA0FA489F","title":"秦皇岛路轮渡站","lon":"121.51639044","lat":"31.249174771","category":"35","category_name":"长途汽车站","address":"上海虹口区秦皇岛路1号"},{"poiid":"B2094655D268A4F9409E","title":"太平金融大厦","lon":"121.51","lat":"31.2396","category":"46","category_name":"楼宇","address":"上海市浦东新区陆家嘴环路、花园石桥路"},{"poiid":"B2094757D068A2FC4593","title":"民生银行大厦(陆家嘴)","lon":"121.50841305","lat":"31.240807181","category":"46","category_name":"楼宇","address":"上海浦东新区浦东南路100号(浦东南路银城中路)"},{"poiid":"B2094655D26FA5FF479B","title":"华能联合大厦","lon":"121.515","lat":"31.245","category":"46","category_name":"楼宇","address":"朝阳华威桥东北角"},{"poiid":"B2094757D068AAFC469B","title":"保利广场","lon":"121.514956916","lat":"31.2433600232","category":"500","category_name":"未知分类","address":"闸北区共和新路3703,3737号"},{"poiid":"B2094757D06FA6FD479E","title":"工行上海分行","lon":"121.51130276","lat":"31.23914032","category":"500","category_name":"未知分类","address":"上海浦東大道9號"},{"poiid":"B2094757D06FA2FF4099","title":"中国保险大厦","lon":"121.516","lat":"31.2421","category":"46","category_name":"楼宇","address":"浦东临港新城主城区申港大道200号"},{"poiid":"B2094757D06FA7F9449C","title":"瑞慈健康管理中心(华夏银行店)","lon":"121.50933","lat":"31.2392","category":"162","category_name":"医院","address":"浦东新区浦东南路256号华夏银行大厦3楼(近浦东大道)"},{"poiid":"B2094757D06FA7F54993","title":"老山东鲁菜馆","lon":"121.510469","lat":"31.239297","category":"73","category_name":"山东菜","address":"浦东新区浦东南路379号金穗大厦6楼(近浦东大道)"},{"poiid":"B2094757D069A7F4429B","title":"浦东新舞台","lon":"121.51503","lat":"31.23892","category":"179","category_name":"音乐厅","address":"浦东新区浦东大道143号(南泉北路浦东大道)"},{"poiid":"B2094757D16CABFF429D","title":"雅典皇宫","lon":"121.51895673","lat":"31.242752567","category":"500","category_name":"未知分类","address":"上海浦东新区东方路8号(近浦东大道)  "},{"poiid":"B2094757D16DABF9429A","title":"浦江游览","lon":"121.516154","lat":"31.249603","category":"607","category_name":"一般景点","address":"上海秦皇岛"},{"poiid":"B2094750D66CABFB4693","title":"Mio Ita","lon":"121.517906","lat":"31.243383","category":"94","category_name":"西餐厅","address":"浦东新区东方路18号保利大厦E栋2楼"},{"poiid":"B2094654DA69A1F54992","title":"金穗大厦","lon":"121.517","lat":"31.245","category":"46","category_name":"楼宇","address":"上海市奉贤区环城东路455,465弄"},{"poiid":"B2094757D06FAAFF439E","title":"中国船舶大厦","lon":"121.510881","lat":"31.238821","category":"46","category_name":"楼宇","address":"上海市宝山区牡丹江路1228号"},{"poiid":"B2094757DB69A3F44599","title":"富淳饭店 保利店","lon":"121.5189019","lat":"31.242405","category":"72","category_name":"广东菜","address":"浦东新区东方路18号保利广场E座G楼"},{"poiid":"B2094757D068A4FE4098","title":"顺峰(浦东银城店)","lon":"121.50784301","lat":"31.24158287","category":"72","category_name":"广东菜","address":"浦东新区银城中路8号碧玉蓝天3-4楼(金洲街银城中路)"},{"poiid":"B2094757D064AAF5409A","title":"浦东陆家嘴图书馆","lon":"121.518913","lat":"31.241753","category":"181","category_name":"图书馆","address":"上海浦东新区东方路38号"},{"poiid":"B2094757D068A6FD489F","title":"永华大厦","lon":"121.51416015","lat":"31.238700866","category":"46","category_name":"楼宇","address":"浦东大道138号"},{"poiid":"B2094655D26FA5FE4498","title":"汇丰大厦","lon":"121.514","lat":"31.2458","category":"46","category_name":"楼宇","address":"上海陆家嘴环路1000号"},{"poiid":"B2094654D56FA3FB479A","title":"港运大厦","lon":"121.51116","lat":"31.25012","category":"46","category_name":"楼宇","address":"静安区长寿路(万航渡路口)"},{"poiid":"B2094757D068A3F94192","title":"东北四季饺子王(浦东大道店)","lon":"121.51492","lat":"31.23906","category":"82","category_name":"东北菜","address":"上海浦东新区浦东大道143号甲(即墨路口)"},{"poiid":"B2094757D068A6FC449A","title":"即墨路","lon":"121.51289367","lat":"31.239175796","category":"500","category_name":"未知分类","address":"上海即墨路"},{"poiid":"B2094757D66EA3F54792","title":"中国工商银行上海市分行","lon":"121.512708738","lat":"31.2381974699","category":"500","category_name":"未知分类","address":"浦东新区浦东大道9号(东方医院对面)"},{"poiid":"B2094757D06FAAFF4693","title":"大壶春(浦东总店)","lon":"121.51408","lat":"31.23824","category":"68","category_name":"快餐厅","address":"浦东新区浦东大道136弄4-6号(近即墨路)"},{"poiid":"B2094757D469A5F9409A","title":"松临日本料理 保利广场店","lon":"121.5189019","lat":"31.242405","category":"95","category_name":"日本料理","address":"浦东新区东方路18号保利广场E座2楼(近地铁四号线浦东大道站)"},{"poiid":"B2094750DA6AA0F9409A","title":"北外滩滨江大道","lon":"121.512023","lat":"31.244825","category":"250","category_name":"公园户外","address":null},{"poiid":"B2094753DB68A4F84292","title":"上海浦东文华东方大酒店","lon":"121.507225","lat":"31.243402","category":"500","category_name":"未知分类","address":"上海市 浦东南路111号"},{"poiid":"B2094655D268A4F4449A","title":"浦江双辉大厦","lon":"121.51042","lat":"31.24277","category":"46","category_name":"楼宇","address":"静安区南京西路555路"},{"poiid":"B2094753D668A6F54393","title":"黃記煌三汁燜鍋（第一食品商店）","lon":"121.515002","lat":"31.2428","category":"247","category_name":"餐饮美食","address":"上海市 第一食品商店"},{"poiid":"B2094757D465A3F9439D","title":"柯记港式茶餐厅","lon":"121.513903054","lat":"31.240806793","category":"72","category_name":"广东菜","address":"浦东新区昌邑路88号(近即墨路)"},{"poiid":"B2094753D26FA4F8429E","title":"文華廚房","lon":"121.507316","lat":"31.243278","category":"249","category_name":"购物服务","address":"上海市 浦東南路111號"},{"poiid":"B2094757D065A5FF4598","title":"La Foret","lon":"121.510756","lat":"31.242361","category":"67","category_name":"甜品店","address":"浦东新区世纪大道8号国金中心LG2-C3室(近陆家嘴地铁站)"},{"poiid":"B2094654DA69A0FC479F","title":"浦江茗园","lon":"121.5135","lat":"31.241152","category":"47","category_name":"住宅区","address":"上海市浦东新区昌邑路55弄"},{"poiid":"B2094757D06AAAFD4992","title":"上岛咖啡 陆家嘴金融店 UBC Coffee","lon":"121.51266479492","lat":"31.240152359009","category":"260","category_name":"其他","address":"浦东新区即墨路39号(近昌邑路)"},{"poiid":"B2094757D16EA4F44799","title":"秦皇岛路水门码头","lon":"121.518441738","lat":"31.2456866296","category":"260","category_name":"其他","address":"杨浦区秦皇岛路32号(近杨树浦路)"},{"poiid":"B2094757D16DA6FD499B","title":"上海农商银行总行","lon":"121.50773373","lat":"31.241263535","category":"150","category_name":"银行","address":"上海中融碧玉蓝天大厦(银城中路8号)"},{"poiid":"B2094757D06AA7F8429A","title":"德兴面馆(浦东店)","lon":"121.5153","lat":"31.2387","category":"68","category_name":"快餐厅","address":"浦东新区南泉北路1号(浦东大道口)"},{"poiid":"B2094654DA69A0FC449F","title":"世纪金融大厦","lon":"121.51198","lat":"31.23891","category":"46","category_name":"楼宇","address":"浦东大道9号"},{"poiid":"B2094757D56CAAF84799","title":"佳汇阁 私房菜","lon":"121.51535659799","lat":"31.243942370505","category":"247","category_name":"餐饮美食","address":"昌邑路569号近东方路"},{"poiid":"B2094654DB6BAAF8479D","title":"环球金融中心","lon":"121.514","lat":"31.241","category":"46","category_name":"楼宇","address":"上海市浦东新区陆家嘴世纪大道8号"},{"poiid":"B2094654DA69A7FB4599","title":"金茂大厦","lon":"121.5124569976","lat":"31.240872238236","category":"46","category_name":"楼宇","address":"浦东新区世纪大道88号金茂大厦内(近二号线陆家嘴站)"},{"poiid":"B2094757D06FA3F8439A","title":"时代金融中心","lon":"121.513","lat":"31.2467","category":"46","category_name":"楼宇","address":"上海市浦东新区银城中路68号"},{"poiid":"B209475CD564A7F84392","title":"上海滩浦东香格里拉店","lon":"121.50058","lat":"31.23634","category":"119","category_name":"商场","address":"浦东富成路33号香格里拉酒店内大堂层"},{"poiid":"B2094654DA69A7FB489A","title":"渣打银行大厦","lon":"121.516","lat":"31.2415","category":"46","category_name":"楼宇","address":"浦东区金融贸易区D3-5"},{"poiid":"B2094655D26BA2F54792","title":"浦东大道东方医院","lon":"121.51231","lat":"31.23845","category":"162","category_name":"医院","address":""},{"poiid":"B2094655D26FA5F9439B","title":"上海证券大厦","lon":"121.517707","lat":"31.241749","category":"46","category_name":"楼宇","address":"浦东新区浦东南路528号"},{"poiid":"B2094757D06FA1FA4498","title":"招商局大厦","lon":"121.515135","lat":"31.242879","category":"46","category_name":"楼宇","address":"浦东新区陆家嘴东路161号"},{"poiid":"B2094757D06FA5FA479F","title":"华夏银行大厦","lon":"121.5152","lat":"31.245346","category":"46","category_name":"楼宇","address":"上海浦东新区浦东南路256号"},{"poiid":"B2094655D268A3FB439E","title":"东亚银行金融大厦","lon":"121.509","lat":"31.2399","category":"46","category_name":"楼宇","address":"陆家嘴花园石桥路66号"},{"poiid":"B2094757D06FA0FA489F","title":"秦皇岛路轮渡站","lon":"121.51639044","lat":"31.249174771","category":"35","category_name":"长途汽车站","address":"上海虹口区秦皇岛路1号"},{"poiid":"B2094655D268A4F9409E","title":"太平金融大厦","lon":"121.51","lat":"31.2396","category":"46","category_name":"楼宇","address":"上海市浦东新区陆家嘴环路、花园石桥路"},{"poiid":"B2094757D068A2FC4593","title":"民生银行大厦(陆家嘴)","lon":"121.50841305","lat":"31.240807181","category":"46","category_name":"楼宇","address":"上海浦东新区浦东南路100号(浦东南路银城中路)"},{"poiid":"B2094655D26FA5FF479B","title":"华能联合大厦","lon":"121.515","lat":"31.245","category":"46","category_name":"楼宇","address":"朝阳华威桥东北角"},{"poiid":"B2094757D068AAFC469B","title":"保利广场","lon":"121.514956916","lat":"31.2433600232","category":"500","category_name":"未知分类","address":"闸北区共和新路3703,3737号"},{"poiid":"B2094757D06FA6FD479E","title":"工行上海分行","lon":"121.51130276","lat":"31.23914032","category":"500","category_name":"未知分类","address":"上海浦東大道9號"},{"poiid":"B2094757D06FA2FF4099","title":"中国保险大厦","lon":"121.516","lat":"31.2421","category":"46","category_name":"楼宇","address":"浦东临港新城主城区申港大道200号"},{"poiid":"B2094757D06FA7F9449C","title":"瑞慈健康管理中心(华夏银行店)","lon":"121.50933","lat":"31.2392","category":"162","category_name":"医院","address":"浦东新区浦东南路256号华夏银行大厦3楼(近浦东大道)"},{"poiid":"B2094757D06FA7F54993","title":"老山东鲁菜馆","lon":"121.510469","lat":"31.239297","category":"73","category_name":"山东菜","address":"浦东新区浦东南路379号金穗大厦6楼(近浦东大道)"},{"poiid":"B2094757D069A7F4429B","title":"浦东新舞台","lon":"121.51503","lat":"31.23892","category":"179","category_name":"音乐厅","address":"浦东新区浦东大道143号(南泉北路浦东大道)"},{"poiid":"B2094757D16CABFF429D","title":"雅典皇宫","lon":"121.51895673","lat":"31.242752567","category":"500","category_name":"未知分类","address":"上海浦东新区东方路8号(近浦东大道)  "},{"poiid":"B2094757D16DABF9429A","title":"浦江游览","lon":"121.516154","lat":"31.249603","category":"607","category_name":"一般景点","address":"上海秦皇岛"},{"poiid":"B2094750D66CABFB4693","title":"Mio Ita","lon":"121.517906","lat":"31.243383","category":"94","category_name":"西餐厅","address":"浦东新区东方路18号保利大厦E栋2楼"},{"poiid":"B2094654DA69A1F54992","title":"金穗大厦","lon":"121.517","lat":"31.245","category":"46","category_name":"楼宇","address":"上海市奉贤区环城东路455,465弄"},{"poiid":"B2094757D06FAAFF439E","title":"中国船舶大厦","lon":"121.510881","lat":"31.238821","category":"46","category_name":"楼宇","address":"上海市宝山区牡丹江路1228号"},{"poiid":"B2094757DB69A3F44599","title":"富淳饭店 保利店","lon":"121.5189019","lat":"31.242405","category":"72","category_name":"广东菜","address":"浦东新区东方路18号保利广场E座G楼"},{"poiid":"B2094757D068A4FE4098","title":"顺峰(浦东银城店)","lon":"121.50784301","lat":"31.24158287","category":"72","category_name":"广东菜","address":"浦东新区银城中路8号碧玉蓝天3-4楼(金洲街银城中路)"},{"poiid":"B2094757D064AAF5409A","title":"浦东陆家嘴图书馆","lon":"121.518913","lat":"31.241753","category":"181","category_name":"图书馆","address":"上海浦东新区东方路38号"},{"poiid":"B2094757D068A6FD489F","title":"永华大厦","lon":"121.51416015","lat":"31.238700866","category":"46","category_name":"楼宇","address":"浦东大道138号"},{"poiid":"B2094655D26FA5FE4498","title":"汇丰大厦","lon":"121.514","lat":"31.2458","category":"46","category_name":"楼宇","address":"上海陆家嘴环路1000号"},{"poiid":"B2094654D56FA3FB479A","title":"港运大厦","lon":"121.51116","lat":"31.25012","category":"46","category_name":"楼宇","address":"静安区长寿路(万航渡路口)"},{"poiid":"B2094757D068A3F94192","title":"东北四季饺子王(浦东大道店)","lon":"121.51492","lat":"31.23906","category":"82","category_name":"东北菜","address":"上海浦东新区浦东大道143号甲(即墨路口)"},{"poiid":"B2094757D068A6FC449A","title":"即墨路","lon":"121.51289367","lat":"31.239175796","category":"500","category_name":"未知分类","address":"上海即墨路"},{"poiid":"B2094757D66EA3F54792","title":"中国工商银行上海市分行","lon":"121.512708738","lat":"31.2381974699","category":"500","category_name":"未知分类","address":"浦东新区浦东大道9号(东方医院对面)"},{"poiid":"B2094757D06FAAFF4693","title":"大壶春(浦东总店)","lon":"121.51408","lat":"31.23824","category":"68","category_name":"快餐厅","address":"浦东新区浦东大道136弄4-6号(近即墨路)"},{"poiid":"B2094757D469A5F9409A","title":"松临日本料理 保利广场店","lon":"121.5189019","lat":"31.242405","category":"95","category_name":"日本料理","address":"浦东新区东方路18号保利广场E座2楼(近地铁四号线浦东大道站)"},{"poiid":"B2094750DA6AA0F9409A","title":"北外滩滨江大道","lon":"121.512023","lat":"31.244825","category":"250","category_name":"公园户外","address":null},{"poiid":"B2094753DB68A4F84292","title":"上海浦东文华东方大酒店","lon":"121.507225","lat":"31.243402","category":"500","category_name":"未知分类","address":"上海市 浦东南路111号"},{"poiid":"B2094655D268A4F4449A","title":"浦江双辉大厦","lon":"121.51042","lat":"31.24277","category":"46","category_name":"楼宇","address":"静安区南京西路555路"},{"poiid":"B2094753D668A6F54393","title":"黃記煌三汁燜鍋（第一食品商店）","lon":"121.515002","lat":"31.2428","category":"247","category_name":"餐饮美食","address":"上海市 第一食品商店"},{"poiid":"B2094757D465A3F9439D","title":"柯记港式茶餐厅","lon":"121.513903054","lat":"31.240806793","category":"72","category_name":"广东菜","address":"浦东新区昌邑路88号(近即墨路)"},{"poiid":"B2094753D26FA4F8429E","title":"文華廚房","lon":"121.507316","lat":"31.243278","category":"249","category_name":"购物服务","address":"上海市 浦東南路111號"},{"poiid":"B2094757D065A5FF4598","title":"La Foret","lon":"121.510756","lat":"31.242361","category":"67","category_name":"甜品店","address":"浦东新区世纪大道8号国金中心LG2-C3室(近陆家嘴地铁站)"},{"poiid":"B2094654DA69A0FC479F","title":"浦江茗园","lon":"121.5135","lat":"31.241152","category":"47","category_name":"住宅区","address":"上海市浦东新区昌邑路55弄"},{"poiid":"B2094757D06AAAFD4992","title":"上岛咖啡 陆家嘴金融店 UBC Coffee","lon":"121.51266479492","lat":"31.240152359009","category":"260","category_name":"其他","address":"浦东新区即墨路39号(近昌邑路)"},{"poiid":"B2094757D16EA4F44799","title":"秦皇岛路水门码头","lon":"121.518441738","lat":"31.2456866296","category":"260","category_name":"其他","address":"杨浦区秦皇岛路32号(近杨树浦路)"},{"poiid":"B2094757D16DA6FD499B","title":"上海农商银行总行","lon":"121.50773373","lat":"31.241263535","category":"150","category_name":"银行","address":"上海中融碧玉蓝天大厦(银城中路8号)"},{"poiid":"B2094757D06AA7F8429A","title":"德兴面馆(浦东店)","lon":"121.5153","lat":"31.2387","category":"68","category_name":"快餐厅","address":"浦东新区南泉北路1号(浦东大道口)"},{"poiid":"B2094654DA69A0FC449F","title":"世纪金融大厦","lon":"121.51198","lat":"31.23891","category":"46","category_name":"楼宇","address":"浦东大道9号"},{"poiid":"B2094757D56CAAF84799","title":"佳汇阁 私房菜","lon":"121.51535659799","lat":"31.243942370505","category":"247","category_name":"餐饮美食","address":"昌邑路569号近东方路"},{"poiid":"B2094654DB6BAAF8479D","title":"环球金融中心","lon":"121.514","lat":"31.241","category":"46","category_name":"楼宇","address":"上海市浦东新区陆家嘴世纪大道8号"},{"poiid":"B2094654DA69A7FB4599","title":"金茂大厦","lon":"121.5124569976","lat":"31.240872238236","category":"46","category_name":"楼宇","address":"浦东新区世纪大道88号金茂大厦内(近二号线陆家嘴站)"},{"poiid":"B2094757D06FA3F8439A","title":"时代金融中心","lon":"121.513","lat":"31.2467","category":"46","category_name":"楼宇","address":"上海市浦东新区银城中路68号"},{"poiid":"B209475CD564A7F84392","title":"上海滩浦东香格里拉店","lon":"121.50058","lat":"31.23634","category":"119","category_name":"商场","address":"浦东富成路33号香格里拉酒店内大堂层"},{"poiid":"B2094654DA69A7FB489A","title":"渣打银行大厦","lon":"121.516","lat":"31.2415","category":"46","category_name":"楼宇","address":"浦东区金融贸易区D3-5"},{"poiid":"B2094655D26BA2F54792","title":"浦东大道东方医院","lon":"121.51231","lat":"31.23845","category":"162","category_name":"医院","address":""},{"poiid":"B2094655D26FA5F9439B","title":"上海证券大厦","lon":"121.517707","lat":"31.241749","category":"46","category_name":"楼宇","address":"浦东新区浦东南路528号"},{"poiid":"B2094757D06FA1FA4498","title":"招商局大厦","lon":"121.515135","lat":"31.242879","category":"46","category_name":"楼宇","address":"浦东新区陆家嘴东路161号"},{"poiid":"B2094757D06FA5FA479F","title":"华夏银行大厦","lon":"121.5152","lat":"31.245346","category":"46","category_name":"楼宇","address":"上海浦东新区浦东南路256号"},{"poiid":"B2094655D268A3FB439E","title":"东亚银行金融大厦","lon":"121.509","lat":"31.2399","category":"46","category_name":"楼宇","address":"陆家嘴花园石桥路66号"},{"poiid":"B2094757D06FA0FA489F","title":"秦皇岛路轮渡站","lon":"121.51639044","lat":"31.249174771","category":"35","category_name":"长途汽车站","address":"上海虹口区秦皇岛路1号"},{"poiid":"B2094655D268A4F9409E","title":"太平金融大厦","lon":"121.51","lat":"31.2396","category":"46","category_name":"楼宇","address":"上海市浦东新区陆家嘴环路、花园石桥路"},{"poiid":"B2094757D068A2FC4593","title":"民生银行大厦(陆家嘴)","lon":"121.50841305","lat":"31.240807181","category":"46","category_name":"楼宇","address":"上海浦东新区浦东南路100号(浦东南路银城中路)"},{"poiid":"B2094655D26FA5FF479B","title":"华能联合大厦","lon":"121.515","lat":"31.245","category":"46","category_name":"楼宇","address":"朝阳华威桥东北角"},{"poiid":"B2094757D068AAFC469B","title":"保利广场","lon":"121.514956916","lat":"31.2433600232","category":"500","category_name":"未知分类","address":"闸北区共和新路3703,3737号"},{"poiid":"B2094757D06FA6FD479E","title":"工行上海分行","lon":"121.51130276","lat":"31.23914032","category":"500","category_name":"未知分类","address":"上海浦東大道9號"},{"poiid":"B2094757D06FA2FF4099","title":"中国保险大厦","lon":"121.516","lat":"31.2421","category":"46","category_name":"楼宇","address":"浦东临港新城主城区申港大道200号"},{"poiid":"B2094757D06FA7F9449C","title":"瑞慈健康管理中心(华夏银行店)","lon":"121.50933","lat":"31.2392","category":"162","category_name":"医院","address":"浦东新区浦东南路256号华夏银行大厦3楼(近浦东大道)"},{"poiid":"B2094757D06FA7F54993","title":"老山东鲁菜馆","lon":"121.510469","lat":"31.239297","category":"73","category_name":"山东菜","address":"浦东新区浦东南路379号金穗大厦6楼(近浦东大道)"},{"poiid":"B2094757D069A7F4429B","title":"浦东新舞台","lon":"121.51503","lat":"31.23892","category":"179","category_name":"音乐厅","address":"浦东新区浦东大道143号(南泉北路浦东大道)"},{"poiid":"B2094757D16CABFF429D","title":"雅典皇宫","lon":"121.51895673","lat":"31.242752567","category":"500","category_name":"未知分类","address":"上海浦东新区东方路8号(近浦东大道)  "},{"poiid":"B2094757D16DABF9429A","title":"浦江游览","lon":"121.516154","lat":"31.249603","category":"607","category_name":"一般景点","address":"上海秦皇岛"},{"poiid":"B2094750D66CABFB4693","title":"Mio Ita","lon":"121.517906","lat":"31.243383","category":"94","category_name":"西餐厅","address":"浦东新区东方路18号保利大厦E栋2楼"},{"poiid":"B2094654DA69A1F54992","title":"金穗大厦","lon":"121.517","lat":"31.245","category":"46","category_name":"楼宇","address":"上海市奉贤区环城东路455,465弄"},{"poiid":"B2094757D06FAAFF439E","title":"中国船舶大厦","lon":"121.510881","lat":"31.238821","category":"46","category_name":"楼宇","address":"上海市宝山区牡丹江路1228号"},{"poiid":"B2094757DB69A3F44599","title":"富淳饭店 保利店","lon":"121.5189019","lat":"31.242405","category":"72","category_name":"广东菜","address":"浦东新区东方路18号保利广场E座G楼"},{"poiid":"B2094757D068A4FE4098","title":"顺峰(浦东银城店)","lon":"121.50784301","lat":"31.24158287","category":"72","category_name":"广东菜","address":"浦东新区银城中路8号碧玉蓝天3-4楼(金洲街银城中路)"},{"poiid":"B2094757D064AAF5409A","title":"浦东陆家嘴图书馆","lon":"121.518913","lat":"31.241753","category":"181","category_name":"图书馆","address":"上海浦东新区东方路38号"},{"poiid":"B2094757D068A6FD489F","title":"永华大厦","lon":"121.51416015","lat":"31.238700866","category":"46","category_name":"楼宇","address":"浦东大道138号"},{"poiid":"B2094655D26FA5FE4498","title":"汇丰大厦","lon":"121.514","lat":"31.2458","category":"46","category_name":"楼宇","address":"上海陆家嘴环路1000号"},{"poiid":"B2094654D56FA3FB479A","title":"港运大厦","lon":"121.51116","lat":"31.25012","category":"46","category_name":"楼宇","address":"静安区长寿路(万航渡路口)"},{"poiid":"B2094757D068A3F94192","title":"东北四季饺子王(浦东大道店)","lon":"121.51492","lat":"31.23906","category":"82","category_name":"东北菜","address":"上海浦东新区浦东大道143号甲(即墨路口)"},{"poiid":"B2094757D068A6FC449A","title":"即墨路","lon":"121.51289367","lat":"31.239175796","category":"500","category_name":"未知分类","address":"上海即墨路"},{"poiid":"B2094757D66EA3F54792","title":"中国工商银行上海市分行","lon":"121.512708738","lat":"31.2381974699","category":"500","category_name":"未知分类","address":"浦东新区浦东大道9号(东方医院对面)"},{"poiid":"B2094757D06FAAFF4693","title":"大壶春(浦东总店)","lon":"121.51408","lat":"31.23824","category":"68","category_name":"快餐厅","address":"浦东新区浦东大道136弄4-6号(近即墨路)"},{"poiid":"B2094757D469A5F9409A","title":"松临日本料理 保利广场店","lon":"121.5189019","lat":"31.242405","category":"95","category_name":"日本料理","address":"浦东新区东方路18号保利广场E座2楼(近地铁四号线浦东大道站)"},{"poiid":"B2094750DA6AA0F9409A","title":"北外滩滨江大道","lon":"121.512023","lat":"31.244825","category":"250","category_name":"公园户外","address":null},{"poiid":"B2094753DB68A4F84292","title":"上海浦东文华东方大酒店","lon":"121.507225","lat":"31.243402","category":"500","category_name":"未知分类","address":"上海市 浦东南路111号"},{"poiid":"B2094655D268A4F4449A","title":"浦江双辉大厦","lon":"121.51042","lat":"31.24277","category":"46","category_name":"楼宇","address":"静安区南京西路555路"},{"poiid":"B2094753D668A6F54393","title":"黃記煌三汁燜鍋（第一食品商店）","lon":"121.515002","lat":"31.2428","category":"247","category_name":"餐饮美食","address":"上海市 第一食品商店"},{"poiid":"B2094757D465A3F9439D","title":"柯记港式茶餐厅","lon":"121.513903054","lat":"31.240806793","category":"72","category_name":"广东菜","address":"浦东新区昌邑路88号(近即墨路)"},{"poiid":"B2094753D26FA4F8429E","title":"文華廚房","lon":"121.507316","lat":"31.243278","category":"249","category_name":"购物服务","address":"上海市 浦東南路111號"},{"poiid":"B2094757D065A5FF4598","title":"La Foret","lon":"121.510756","lat":"31.242361","category":"67","category_name":"甜品店","address":"浦东新区世纪大道8号国金中心LG2-C3室(近陆家嘴地铁站)"},{"poiid":"B2094654DA69A0FC479F","title":"浦江茗园","lon":"121.5135","lat":"31.241152","category":"47","category_name":"住宅区","address":"上海市浦东新区昌邑路55弄"},{"poiid":"B2094757D06AAAFD4992","title":"上岛咖啡 陆家嘴金融店 UBC Coffee","lon":"121.51266479492","lat":"31.240152359009","category":"260","category_name":"其他","address":"浦东新区即墨路39号(近昌邑路)"},{"poiid":"B2094757D16EA4F44799","title":"秦皇岛路水门码头","lon":"121.518441738","lat":"31.2456866296","category":"260","category_name":"其他","address":"杨浦区秦皇岛路32号(近杨树浦路)"},{"poiid":"B2094757D16DA6FD499B","title":"上海农商银行总行","lon":"121.50773373","lat":"31.241263535","category":"150","category_name":"银行","address":"上海中融碧玉蓝天大厦(银城中路8号)"},{"poiid":"B2094757D06AA7F8429A","title":"德兴面馆(浦东店)","lon":"121.5153","lat":"31.2387","category":"68","category_name":"快餐厅","address":"浦东新区南泉北路1号(浦东大道口)"},{"poiid":"B2094654DA69A0FC449F","title":"世纪金融大厦","lon":"121.51198","lat":"31.23891","category":"46","category_name":"楼宇","address":"浦东大道9号"},{"poiid":"B2094757D56CAAF84799","title":"佳汇阁 私房菜","lon":"121.51535659799","lat":"31.243942370505","category":"247","category_name":"餐饮美食","address":"昌邑路569号近东方路"},{"poiid":"B2094654DB6BAAF8479D","title":"环球金融中心","lon":"121.514","lat":"31.241","category":"46","category_name":"楼宇","address":"上海市浦东新区陆家嘴世纪大道8号"},{"poiid":"B2094654DA69A7FB4599","title":"金茂大厦","lon":"121.5124569976","lat":"31.240872238236","category":"46","category_name":"楼宇","address":"浦东新区世纪大道88号金茂大厦内(近二号线陆家嘴站)"},{"poiid":"B2094757D06FA3F8439A","title":"时代金融中心","lon":"121.513","lat":"31.2467","category":"46","category_name":"楼宇","address":"上海市浦东新区银城中路68号"},{"poiid":"B209475CD564A7F84392","title":"上海滩浦东香格里拉店","lon":"121.50058","lat":"31.23634","category":"119","category_name":"商场","address":"浦东富成路33号香格里拉酒店内大堂层"},{"poiid":"B2094654DA69A7FB489A","title":"渣打银行大厦","lon":"121.516","lat":"31.2415","category":"46","category_name":"楼宇","address":"浦东区金融贸易区D3-5"},{"poiid":"B2094655D26BA2F54792","title":"浦东大道东方医院","lon":"121.51231","lat":"31.23845","category":"162","category_name":"医院","address":""},{"poiid":"B2094655D26FA5F9439B","title":"上海证券大厦","lon":"121.517707","lat":"31.241749","category":"46","category_name":"楼宇","address":"浦东新区浦东南路528号"},{"poiid":"B2094757D06FA1FA4498","title":"招商局大厦","lon":"121.515135","lat":"31.242879","category":"46","category_name":"楼宇","address":"浦东新区陆家嘴东路161号"},{"poiid":"B2094757D06FA5FA479F","title":"华夏银行大厦","lon":"121.5152","lat":"31.245346","category":"46","category_name":"楼宇","address":"上海浦东新区浦东南路256号"},{"poiid":"B2094655D268A3FB439E","title":"东亚银行金融大厦","lon":"121.509","lat":"31.2399","category":"46","category_name":"楼宇","address":"陆家嘴花园石桥路66号"},{"poiid":"B2094757D06FA0FA489F","title":"秦皇岛路轮渡站","lon":"121.51639044","lat":"31.249174771","category":"35","category_name":"长途汽车站","address":"上海虹口区秦皇岛路1号"},{"poiid":"B2094655D268A4F9409E","title":"太平金融大厦","lon":"121.51","lat":"31.2396","category":"46","category_name":"楼宇","address":"上海市浦东新区陆家嘴环路、花园石桥路"},{"poiid":"B2094757D068A2FC4593","title":"民生银行大厦(陆家嘴)","lon":"121.50841305","lat":"31.240807181","category":"46","category_name":"楼宇","address":"上海浦东新区浦东南路100号(浦东南路银城中路)"},{"poiid":"B2094655D26FA5FF479B","title":"华能联合大厦","lon":"121.515","lat":"31.245","category":"46","category_name":"楼宇","address":"朝阳华威桥东北角"},{"poiid":"B2094757D068AAFC469B","title":"保利广场","lon":"121.514956916","lat":"31.2433600232","category":"500","category_name":"未知分类","address":"闸北区共和新路3703,3737号"},{"poiid":"B2094757D06FA6FD479E","title":"工行上海分行","lon":"121.51130276","lat":"31.23914032","category":"500","category_name":"未知分类","address":"上海浦東大道9號"},{"poiid":"B2094757D06FA2FF4099","title":"中国保险大厦","lon":"121.516","lat":"31.2421","category":"46","category_name":"楼宇","address":"浦东临港新城主城区申港大道200号"},{"poiid":"B2094757D06FA7F9449C","title":"瑞慈健康管理中心(华夏银行店)","lon":"121.50933","lat":"31.2392","category":"162","category_name":"医院","address":"浦东新区浦东南路256号华夏银行大厦3楼(近浦东大道)"},{"poiid":"B2094757D06FA7F54993","title":"老山东鲁菜馆","lon":"121.510469","lat":"31.239297","category":"73","category_name":"山东菜","address":"浦东新区浦东南路379号金穗大厦6楼(近浦东大道)"},{"poiid":"B2094757D069A7F4429B","title":"浦东新舞台","lon":"121.51503","lat":"31.23892","category":"179","category_name":"音乐厅","address":"浦东新区浦东大道143号(南泉北路浦东大道)"},{"poiid":"B2094757D16CABFF429D","title":"雅典皇宫","lon":"121.51895673","lat":"31.242752567","category":"500","category_name":"未知分类","address":"上海浦东新区东方路8号(近浦东大道)  "},{"poiid":"B2094757D16DABF9429A","title":"浦江游览","lon":"121.516154","lat":"31.249603","category":"607","category_name":"一般景点","address":"上海秦皇岛"},{"poiid":"B2094750D66CABFB4693","title":"Mio Ita","lon":"121.517906","lat":"31.243383","category":"94","category_name":"西餐厅","address":"浦东新区东方路18号保利大厦E栋2楼"},{"poiid":"B2094654DA69A1F54992","title":"金穗大厦","lon":"121.517","lat":"31.245","category":"46","category_name":"楼宇","address":"上海市奉贤区环城东路455,465弄"},{"poiid":"B2094757D06FAAFF439E","title":"中国船舶大厦","lon":"121.510881","lat":"31.238821","category":"46","category_name":"楼宇","address":"上海市宝山区牡丹江路1228号"},{"poiid":"B2094757DB69A3F44599","title":"富淳饭店 保利店","lon":"121.5189019","lat":"31.242405","category":"72","category_name":"广东菜","address":"浦东新区东方路18号保利广场E座G楼"},{"poiid":"B2094757D068A4FE4098","title":"顺峰(浦东银城店)","lon":"121.50784301","lat":"31.24158287","category":"72","category_name":"广东菜","address":"浦东新区银城中路8号碧玉蓝天3-4楼(金洲街银城中路)"},{"poiid":"B2094757D064AAF5409A","title":"浦东陆家嘴图书馆","lon":"121.518913","lat":"31.241753","category":"181","category_name":"图书馆","address":"上海浦东新区东方路38号"},{"poiid":"B2094757D068A6FD489F","title":"永华大厦","lon":"121.51416015","lat":"31.238700866","category":"46","category_name":"楼宇","address":"浦东大道138号"},{"poiid":"B2094655D26FA5FE4498","title":"汇丰大厦","lon":"121.514","lat":"31.2458","category":"46","category_name":"楼宇","address":"上海陆家嘴环路1000号"},{"poiid":"B2094654D56FA3FB479A","title":"港运大厦","lon":"121.51116","lat":"31.25012","category":"46","category_name":"楼宇","address":"静安区长寿路(万航渡路口)"},{"poiid":"B2094757D068A3F94192","title":"东北四季饺子王(浦东大道店)","lon":"121.51492","lat":"31.23906","category":"82","category_name":"东北菜","address":"上海浦东新区浦东大道143号甲(即墨路口)"},{"poiid":"B2094757D068A6FC449A","title":"即墨路","lon":"121.51289367","lat":"31.239175796","category":"500","category_name":"未知分类","address":"上海即墨路"},{"poiid":"B2094757D66EA3F54792","title":"中国工商银行上海市分行","lon":"121.512708738","lat":"31.2381974699","category":"500","category_name":"未知分类","address":"浦东新区浦东大道9号(东方医院对面)"},{"poiid":"B2094757D06FAAFF4693","title":"大壶春(浦东总店)","lon":"121.51408","lat":"31.23824","category":"68","category_name":"快餐厅","address":"浦东新区浦东大道136弄4-6号(近即墨路)"},{"poiid":"B2094757D469A5F9409A","title":"松临日本料理 保利广场店","lon":"121.5189019","lat":"31.242405","category":"95","category_name":"日本料理","address":"浦东新区东方路18号保利广场E座2楼(近地铁四号线浦东大道站)"},{"poiid":"B2094750DA6AA0F9409A","title":"北外滩滨江大道","lon":"121.512023","lat":"31.244825","category":"250","category_name":"公园户外","address":null},{"poiid":"B2094753DB68A4F84292","title":"上海浦东文华东方大酒店","lon":"121.507225","lat":"31.243402","category":"500","category_name":"未知分类","address":"上海市 浦东南路111号"},{"poiid":"B2094655D268A4F4449A","title":"浦江双辉大厦","lon":"121.51042","lat":"31.24277","category":"46","category_name":"楼宇","address":"静安区南京西路555路"},{"poiid":"B2094753D668A6F54393","title":"黃記煌三汁燜鍋（第一食品商店）","lon":"121.515002","lat":"31.2428","category":"247","category_name":"餐饮美食","address":"上海市 第一食品商店"},{"poiid":"B2094757D465A3F9439D","title":"柯记港式茶餐厅","lon":"121.513903054","lat":"31.240806793","category":"72","category_name":"广东菜","address":"浦东新区昌邑路88号(近即墨路)"},{"poiid":"B2094753D26FA4F8429E","title":"文華廚房","lon":"121.507316","lat":"31.243278","category":"249","category_name":"购物服务","address":"上海市 浦東南路111號"},{"poiid":"B2094757D065A5FF4598","title":"La Foret","lon":"121.510756","lat":"31.242361","category":"67","category_name":"甜品店","address":"浦东新区世纪大道8号国金中心LG2-C3室(近陆家嘴地铁站)"},{"poiid":"B2094654DA69A0FC479F","title":"浦江茗园","lon":"121.5135","lat":"31.241152","category":"47","category_name":"住宅区","address":"上海市浦东新区昌邑路55弄"},{"poiid":"B2094757D06AAAFD4992","title":"上岛咖啡 陆家嘴金融店 UBC Coffee","lon":"121.51266479492","lat":"31.240152359009","category":"260","category_name":"其他","address":"浦东新区即墨路39号(近昌邑路)"},{"poiid":"B2094757D16EA4F44799","title":"秦皇岛路水门码头","lon":"121.518441738","lat":"31.2456866296","category":"260","category_name":"其他","address":"杨浦区秦皇岛路32号(近杨树浦路)"},{"poiid":"B2094757D16DA6FD499B","title":"上海农商银行总行","lon":"121.50773373","lat":"31.241263535","category":"150","category_name":"银行","address":"上海中融碧玉蓝天大厦(银城中路8号)"},{"poiid":"B2094757D06AA7F8429A","title":"德兴面馆(浦东店)","lon":"121.5153","lat":"31.2387","category":"68","category_name":"快餐厅","address":"浦东新区南泉北路1号(浦东大道口)"},{"poiid":"B2094654DA69A0FC449F","title":"世纪金融大厦","lon":"121.51198","lat":"31.23891","category":"46","category_name":"楼宇","address":"浦东大道9号"},{"poiid":"B2094757D56CAAF84799","title":"佳汇阁 私房菜","lon":"121.51535659799","lat":"31.243942370505","category":"247","category_name":"餐饮美食","address":"昌邑路569号近东方路"}]