[{"poiid":"B2094757D068A1F4479D","title":"君芝莱大酒店(嘉定店)","lon":"121.23774172","lat":"31.371637903","category":"76","category_name":"上海菜","address":"嘉定区沪宜公路3879号(沪宜公路嘉安公路)"},{"poiid":"B2094757D06FA4F8439B","title":"清水颐园","lon":"121.2375","lat":"31.368086","category":"47","category_name":"住宅区","address":"上海裕民路1000弄"},{"poiid":"B2094654D469A2F4449F","title":"金地格林春岸城","lon":"121.23871","lat":"31.37402","category":"47","category_name":"住宅区","address":"上海塔城路718弄"},{"poiid":"B2094757D16CA3F44198","title":"快乐鸟精品小厨","lon":"121.2385394","lat":"31.381193425","category":"76","category_name":"上海菜","address":"嘉定区环城路2450号"},{"poiid":"B2094757D06AA4FD429D","title":"嘉定电视台","lon":"121.241926303","lat":"31.3750399208","category":"260","category_name":"其他","address":"上海市嘉定区塔城路565号"},{"poiid":"B2094654D469A1FD489D","title":"嘉丰佳苑","lon":"121.23531","lat":"31.371836","category":"47","category_name":"住宅区","address":"上海市嘉定区沪宜公路3885号"},{"poiid":"B2094750D665A6F8489B","title":"三知苑","lon":"121.239","lat":"31.3711","category":"76","category_name":"上海菜","address":"嘉定区沪宜公路3857号(近塔城路)"},{"poiid":"B2094757D569A1FD409D","title":"东北老好吃","lon":"121.23837077","lat":"31.37101698","category":"82","category_name":"东北菜","address":"嘉定区沪宜公路3861号(近清水颐园)"},{"poiid":"B2094757D464A7FC4893","title":"金殿大酒店","lon":"121.24287","lat":"31.36795","category":"76","category_name":"上海菜","address":"嘉定区永盛路2651号(近福海路)"},{"poiid":"B2094654DB6AA6F4439D","title":"塔城路800-850弄小区(南门)","lon":"121.23845","lat":"31.37239","category":"47","category_name":"住宅区","address":"塔城路800-850弄"},{"poiid":"B2094655D26FA6FA409C","title":"莫泰168","lon":"121.23765","lat":"31.37887","category":"216","category_name":"经济型连锁酒店","address":"上海市嘉定区清河路318号(近项泾桥，西光机所旁)"},{"poiid":"B2094757D16BA6FB479D","title":"嘉定区青少年活动中心","lon":"121.240416823","lat":"31.3808644989","category":"500","category_name":"未知分类","address":"嘉定区梅园路226号"},{"poiid":"B2094757D06BA1FB419B","title":"丽景小区","lon":"121.24509","lat":"31.377121","category":"47","category_name":"住宅区","address":"上海市嘉定区塔城路475弄"},{"poiid":"B2094752D26CA6F4499A","title":"静心斋素食","lon":"121.23983","lat":"31.37335","category":"89","category_name":"中式素餐馆","address":"嘉定区塔城路777号(近嘉定电视台)"},{"poiid":"B2094654D469A3FF439F","title":"中国科学院上海光学精密机械研究所","lon":"121.23602","lat":"31.37878","category":"191","category_name":"科研机构","address":"清河路390"},{"poiid":"B2094655D26FA4F8419E","title":"如家快捷酒店(上海嘉定清河路店)","lon":"121.23409","lat":"31.37591","category":"216","category_name":"经济型连锁酒店","address":"嘉定区清河路458号(近步行街)"},{"poiid":"B2094757D16EABFC449D","title":"嘉定区民政局","lon":"121.240827126","lat":"31.3749582778","category":"500","category_name":"未知分类","address":"上海塔城路560号"},{"poiid":"B2094655D26BA2FA4793","title":"塔城路沪宜公路","lon":"121.23875","lat":"31.37232","category":"38","category_name":"公交车站","address":""},{"poiid":"B2094655D268A1F84992","title":"叶城五街坊","lon":"121.23521","lat":"31.36625","category":"47","category_name":"住宅区","address":"裕民路1180-1182"},{"poiid":"B2094757D16AA5FE499B","title":"随意饭店","lon":"121.23877765","lat":"31.37257568","category":"247","category_name":"餐饮美食","address":"上海嘉定沪宜公路3733号"},{"poiid":"B2094655D268A1F84892","title":"塔城路685弄小区","lon":"121.24069","lat":"31.37272","category":"47","category_name":"住宅区","address":"上海塔城路685弄"},{"poiid":"B2094757D068A6F44499","title":"丽景公寓","lon":"121.24248","lat":"31.375189","category":"47","category_name":"住宅区","address":"上海嘉定区塔城路515弄"},{"poiid":"B2094757D16DA7F9459D","title":"叶城路925号","lon":"121.238093","lat":"31.373045","category":"500","category_name":"未知分类","address":"上海嘉定税务局第一税务所"},{"poiid":"B2094654D469A1FD439F","title":"叶城三街坊小区","lon":"121.23655","lat":"31.36518","category":"47","category_name":"住宅区","address":"裕海路1028弄96"},{"poiid":"B2094750D56BA6FB4398","title":"绿地嘉领国际","lon":"121.238209","lat":"31.371539","category":"47","category_name":"住宅区","address":"沪宜公路3128号中环-沪嘉高速-嘉定出口-左转300米沪宜公路叶城路口(不过红绿灯,路左侧)"},{"poiid":"B2094753D165A7F84393","title":"阿福龙虾","lon":"121.23628","lat":"31.37188","category":"247","category_name":"餐饮美食","address":"上海市 永盛路2770号"},{"poiid":"B2094757D064ABF94198","title":"花样年华美容美发(嘉定塔城路店)","lon":"121.24008911","lat":"31.37244828","category":"148","category_name":"美容美发店","address":"上海嘉定塔城路"},{"poiid":"B2094655D268A6FB499D","title":"和华名苑","lon":"121.23961","lat":"31.375233","category":"47","category_name":"住宅区","address":"上海市嘉定区塔城路688弄"},{"poiid":"B2094757D064AAFE4299","title":"熊记烧烤(高昌路店)","lon":"121.2419264","lat":"31.3740714","category":"68","category_name":"快餐厅","address":"嘉定区高昌路125号(近塔城路)"},{"poiid":"B2094654DB6AA6F4449E","title":"上海市嘉定区嘉定镇街道医院","lon":"121.23958","lat":"31.37351","category":"162","category_name":"医院","address":"塔城路702"},{"poiid":"B2094654D469A2F4469E","title":"汇城公寓","lon":"121.23564","lat":"31.374752","category":"47","category_name":"住宅区","address":"嘉丰路12-66号"},{"poiid":"B2094757D165A0F9499B","title":"一都赞宝岛商行","lon":"121.23855694","lat":"31.371651563","category":"119","category_name":"商场","address":"上海嘉定区沪宜公路3871号"},{"poiid":"B2094757D16BA1FB4898","title":"天安保险股份有限公司嘉定支公司","lon":"121.2399596","lat":"31.3734012","category":"46","category_name":"楼宇","address":"上海市嘉定区塔城路688弄27号"},{"poiid":"B2094654D469A3F4449B","title":"嘉城经济城","lon":"121.23955","lat":"31.3727","category":"45","category_name":"产业园区","address":"塔城路815号"},{"poiid":"B2094655D268A6FB419D","title":"金地·格林春岸(东北门)","lon":"121.23814","lat":"31.37499","category":"47","category_name":"住宅区","address":"塔城路718弄"},{"poiid":"B2094655D268A6FB499C","title":"快客No.5056","lon":"121.23864","lat":"31.37494","category":"117","category_name":"便民商店/便利店","address":"塔城路688弄和华名苑23"},{"poiid":"B2094654D469A3F4439D","title":"上海市地方税务局嘉定区分局第十三税务所","lon":"121.23917","lat":"31.37238","category":"250","category_name":"公园户外","address":"塔城路885-1"},{"poiid":"B209475CD16FABFD489C","title":"嘉定图书馆新馆","lon":"121.236991","lat":"31.373495","category":"500","category_name":"未知分类","address":"上海市 上海市裕民南路1288号"},{"poiid":"B2094757D569A2F44193","title":"汉唐足道(塔城路)","lon":"121.23952067","lat":"31.37328532","category":"149","category_name":"洗浴推拿场所","address":"中国上海市嘉定区塔城路"},{"poiid":"B2094655D268A1FC409C","title":"塔城路666弄小区(西门)","lon":"121.23958","lat":"31.37413","category":"47","category_name":"住宅区","address":"塔城路666弄"},{"poiid":"B2094655D36DA6F8409B","title":"上海南翔比高国际影城","lon":"121.23899","lat":"31.3712","category":"178","category_name":"电影院","address":"上海嘉定区沪宜公路1082号5幢1层"},{"poiid":"B2094654D469A3F4439C","title":"中国税务办税服务厅(塔城路)","lon":"121.23899","lat":"31.37225","category":"250","category_name":"公园户外","address":"塔城路887"},{"poiid":"B2094757D16CA3F84492","title":"华中小区","lon":"121.240351653","lat":"31.3718996671","category":"47","category_name":"住宅区","address":"上海市嘉定区塔城路685弄"},{"poiid":"B2094757D16CA2F44499","title":"嘉定塔城路800弄","lon":"121.235784","lat":"31.373425","category":"500","category_name":"未知分类","address":"上海嘉定塔城路800弄"},{"poiid":"B2094654DB6AA3FF429E","title":"上海市地方税务局嘉定区第十五税务所(原第三税务所)","lon":"121.23898","lat":"31.37225","category":"250","category_name":"公园户外","address":"上海市嘉定区嘉定镇塔城路887号"},{"poiid":"B2094654D469A3F44392","title":"嘉定区国家税务局第十三税务所","lon":"121.23916","lat":"31.37239","category":"250","category_name":"公园户外","address":"塔城路885-1"},{"poiid":"B2094655D268A1F8489F","title":"沪宜公路3758弄小区(南门)","lon":"121.24009","lat":"31.37168","category":"47","category_name":"住宅区","address":"沪宜公路3758弄"},{"poiid":"B2094655D268A1F8489D","title":"塔城路685弄小区(西北门)","lon":"121.24028","lat":"31.37328","category":"47","category_name":"住宅区","address":"塔城路685弄"},{"poiid":"B2094655D268A6FB419F","title":"汇城公寓(东南门)","lon":"121.23593","lat":"31.37456","category":"47","category_name":"住宅区","address":"嘉丰路12-66号"},{"poiid":"B2094654D469A3F4409C","title":"嘉定广播电视台","lon":"121.24182","lat":"31.3746","category":"59","category_name":"电视台","address":"塔城路565"},{"poiid":"B2094757D068A1F4479D","title":"君芝莱大酒店(嘉定店)","lon":"121.23774172","lat":"31.371637903","category":"76","category_name":"上海菜","address":"嘉定区沪宜公路3879号(沪宜公路嘉安公路)"},{"poiid":"B2094757D06FA4F8439B","title":"清水颐园","lon":"121.2375","lat":"31.368086","category":"47","category_name":"住宅区","address":"上海裕民路1000弄"},{"poiid":"B2094654D469A2F4449F","title":"金地格林春岸城","lon":"121.23871","lat":"31.37402","category":"47","category_name":"住宅区","address":"上海塔城路718弄"},{"poiid":"B2094757D16CA3F44198","title":"快乐鸟精品小厨","lon":"121.2385394","lat":"31.381193425","category":"76","category_name":"上海菜","address":"嘉定区环城路2450号"},{"poiid":"B2094757D06AA4FD429D","title":"嘉定电视台","lon":"121.241926303","lat":"31.3750399208","category":"260","category_name":"其他","address":"上海市嘉定区塔城路565号"},{"poiid":"B2094654D469A1FD489D","title":"嘉丰佳苑","lon":"121.23531","lat":"31.371836","category":"47","category_name":"住宅区","address":"上海市嘉定区沪宜公路3885号"},{"poiid":"B2094750D665A6F8489B","title":"三知苑","lon":"121.239","lat":"31.3711","category":"76","category_name":"上海菜","address":"嘉定区沪宜公路3857号(近塔城路)"},{"poiid":"B2094757D569A1FD409D","title":"东北老好吃","lon":"121.23837077","lat":"31.37101698","category":"82","category_name":"东北菜","address":"嘉定区沪宜公路3861号(近清水颐园)"},{"poiid":"B2094757D464A7FC4893","title":"金殿大酒店","lon":"121.24287","lat":"31.36795","category":"76","category_name":"上海菜","address":"嘉定区永盛路2651号(近福海路)"},{"poiid":"B2094654DB6AA6F4439D","title":"塔城路800-850弄小区(南门)","lon":"121.23845","lat":"31.37239","category":"47","category_name":"住宅区","address":"塔城路800-850弄"},{"poiid":"B2094655D26FA6FA409C","title":"莫泰168","lon":"121.23765","lat":"31.37887","category":"216","category_name":"经济型连锁酒店","address":"上海市嘉定区清河路318号(近项泾桥，西光机所旁)"},{"poiid":"B2094757D16BA6FB479D","title":"嘉定区青少年活动中心","lon":"121.240416823","lat":"31.3808644989","category":"500","category_name":"未知分类","address":"嘉定区梅园路226号"},{"poiid":"B2094757D06BA1FB419B","title":"丽景小区","lon":"121.24509","lat":"31.377121","category":"47","category_name":"住宅区","address":"上海市嘉定区塔城路475弄"},{"poiid":"B2094752D26CA6F4499A","title":"静心斋素食","lon":"121.23983","lat":"31.37335","category":"89","category_name":"中式素餐馆","address":"嘉定区塔城路777号(近嘉定电视台)"},{"poiid":"B2094654D469A3FF439F","title":"中国科学院上海光学精密机械研究所","lon":"121.23602","lat":"31.37878","category":"191","category_name":"科研机构","address":"清河路390"},{"poiid":"B2094655D26FA4F8419E","title":"如家快捷酒店(上海嘉定清河路店)","lon":"121.23409","lat":"31.37591","category":"216","category_name":"经济型连锁酒店","address":"嘉定区清河路458号(近步行街)"},{"poiid":"B2094757D16EABFC449D","title":"嘉定区民政局","lon":"121.240827126","lat":"31.3749582778","category":"500","category_name":"未知分类","address":"上海塔城路560号"},{"poiid":"B2094655D26BA2FA4793","title":"塔城路沪宜公路","lon":"121.23875","lat":"31.37232","category":"38","category_name":"公交车站","address":""},{"poiid":"B2094655D268A1F84992","title":"叶城五街坊","lon":"121.23521","lat":"31.36625","category":"47","category_name":"住宅区","address":"裕民路1180-1182"},{"poiid":"B2094757D16AA5FE499B","title":"随意饭店","lon":"121.23877765","lat":"31.37257568","category":"247","category_name":"餐饮美食","address":"上海嘉定沪宜公路3733号"},{"poiid":"B2094655D268A1F84892","title":"塔城路685弄小区","lon":"121.24069","lat":"31.37272","category":"47","category_name":"住宅区","address":"上海塔城路685弄"},{"poiid":"B2094757D068A6F44499","title":"丽景公寓","lon":"121.24248","lat":"31.375189","category":"47","category_name":"住宅区","address":"上海嘉定区塔城路515弄"},{"poiid":"B2094757D16DA7F9459D","title":"叶城路925号","lon":"121.238093","lat":"31.373045","category":"500","category_name":"未知分类","address":"上海嘉定税务局第一税务所"},{"poiid":"B2094654D469A1FD439F","title":"叶城三街坊小区","lon":"121.23655","lat":"31.36518","category":"47","category_name":"住宅区","address":"裕海路1028弄96"},{"poiid":"B2094750D56BA6FB4398","title":"绿地嘉领国际","lon":"121.238209","lat":"31.371539","category":"47","category_name":"住宅区","address":"沪宜公路3128号中环-沪嘉高速-嘉定出口-左转300米沪宜公路叶城路口(不过红绿灯,路左侧)"},{"poiid":"B2094753D165A7F84393","title":"阿福龙虾","lon":"121.23628","lat":"31.37188","category":"247","category_name":"餐饮美食","address":"上海市 永盛路2770号"},{"poiid":"B2094757D064ABF94198","title":"花样年华美容美发(嘉定塔城路店)","lon":"121.24008911","lat":"31.37244828","category":"148","category_name":"美容美发店","address":"上海嘉定塔城路"},{"poiid":"B2094655D268A6FB499D","title":"和华名苑","lon":"121.23961","lat":"31.375233","category":"47","category_name":"住宅区","address":"上海市嘉定区塔城路688弄"},{"poiid":"B2094757D064AAFE4299","title":"熊记烧烤(高昌路店)","lon":"121.2419264","lat":"31.3740714","category":"68","category_name":"快餐厅","address":"嘉定区高昌路125号(近塔城路)"},{"poiid":"B2094654DB6AA6F4449E","title":"上海市嘉定区嘉定镇街道医院","lon":"121.23958","lat":"31.37351","category":"162","category_name":"医院","address":"塔城路702"},{"poiid":"B2094654D469A2F4469E","title":"汇城公寓","lon":"121.23564","lat":"31.374752","category":"47","category_name":"住宅区","address":"嘉丰路12-66号"},{"poiid":"B2094757D165A0F9499B","title":"一都赞宝岛商行","lon":"121.23855694","lat":"31.371651563","category":"119","category_name":"商场","address":"上海嘉定区沪宜公路3871号"},{"poiid":"B2094757D16BA1FB4898","title":"天安保险股份有限公司嘉定支公司","lon":"121.2399596","lat":"31.3734012","category":"46","category_name":"楼宇","address":"上海市嘉定区塔城路688弄27号"},{"poiid":"B2094654D469A3F4449B","title":"嘉城经济城","lon":"121.23955","lat":"31.3727","category":"45","category_name":"产业园区","address":"塔城路815号"},{"poiid":"B2094655D268A6FB419D","title":"金地·格林春岸(东北门)","lon":"121.23814","lat":"31.37499","category":"47","category_name":"住宅区","address":"塔城路718弄"},{"poiid":"B2094655D268A6FB499C","title":"快客No.5056","lon":"121.23864","lat":"31.37494","category":"117","category_name":"便民商店/便利店","address":"塔城路688弄和华名苑23"},{"poiid":"B2094654D469A3F4439D","title":"上海市地方税务局嘉定区分局第十三税务所","lon":"121.23917","lat":"31.37238","category":"250","category_name":"公园户外","address":"塔城路885-1"},{"poiid":"B209475CD16FABFD489C","title":"嘉定图书馆新馆","lon":"121.236991","lat":"31.373495","category":"500","category_name":"未知分类","address":"上海市 上海市裕民南路1288号"},{"poiid":"B2094757D569A2F44193","title":"汉唐足道(塔城路)","lon":"121.23952067","lat":"31.37328532","category":"149","category_name":"洗浴推拿场所","address":"中国上海市嘉定区塔城路"},{"poiid":"B2094655D268A1FC409C","title":"塔城路666弄小区(西门)","lon":"121.23958","lat":"31.37413","category":"47","category_name":"住宅区","address":"塔城路666弄"},{"poiid":"B2094655D36DA6F8409B","title":"上海南翔比高国际影城","lon":"121.23899","lat":"31.3712","category":"178","category_name":"电影院","address":"上海嘉定区沪宜公路1082号5幢1层"},{"poiid":"B2094654D469A3F4439C","title":"中国税务办税服务厅(塔城路)","lon":"121.23899","lat":"31.37225","category":"250","category_name":"公园户外","address":"塔城路887"},{"poiid":"B2094757D16CA3F84492","title":"华中小区","lon":"121.240351653","lat":"31.3718996671","category":"47","category_name":"住宅区","address":"上海市嘉定区塔城路685弄"},{"poiid":"B2094757D16CA2F44499","title":"嘉定塔城路800弄","lon":"121.235784","lat":"31.373425","category":"500","category_name":"未知分类","address":"上海嘉定塔城路800弄"},{"poiid":"B2094654DB6AA3FF429E","title":"上海市地方税务局嘉定区第十五税务所(原第三税务所)","lon":"121.23898","lat":"31.37225","category":"250","category_name":"公园户外","address":"上海市嘉定区嘉定镇塔城路887号"},{"poiid":"B2094654D469A3F44392","title":"嘉定区国家税务局第十三税务所","lon":"121.23916","lat":"31.37239","category":"250","category_name":"公园户外","address":"塔城路885-1"},{"poiid":"B2094655D268A1F8489F","title":"沪宜公路3758弄小区(南门)","lon":"121.24009","lat":"31.37168","category":"47","category_name":"住宅区","address":"沪宜公路3758弄"},{"poiid":"B2094655D268A1F8489D","title":"塔城路685弄小区(西北门)","lon":"121.24028","lat":"31.37328","category":"47","category_name":"住宅区","address":"塔城路685弄"},{"poiid":"B2094655D268A6FB419F","title":"汇城公寓(东南门)","lon":"121.23593","lat":"31.37456","category":"47","category_name":"住宅区","address":"嘉丰路12-66号"},{"poiid":"B2094654D469A3F4409C","title":"嘉定广播电视台","lon":"121.24182","lat":"31.3746","category":"59","category_name":"电视台","address":"塔城路565"},{"poiid":"B2094757D068A1F4479D","title":"君芝莱大酒店(嘉定店)","lon":"121.23774172","lat":"31.371637903","category":"76","category_name":"上海菜","address":"嘉定区沪宜公路3879号(沪宜公路嘉安公路)"},{"poiid":"B2094757D06FA4F8439B","title":"清水颐园","lon":"121.2375","lat":"31.368086","category":"47","category_name":"住宅区","address":"上海裕民路1000弄"},{"poiid":"B2094654D469A2F4449F","title":"金地格林春岸城","lon":"121.23871","lat":"31.37402","category":"47","category_name":"住宅区","address":"上海塔城路718弄"},{"poiid":"B2094757D16CA3F44198","title":"快乐鸟精品小厨","lon":"121.2385394","lat":"31.381193425","category":"76","category_name":"上海菜","address":"嘉定区环城路2450号"},{"poiid":"B2094757D06AA4FD429D","title":"嘉定电视台","lon":"121.241926303","lat":"31.3750399208","category":"260","category_name":"其他","address":"上海市嘉定区塔城路565号"},{"poiid":"B2094654D469A1FD489D","title":"嘉丰佳苑","lon":"121.23531","lat":"31.371836","category":"47","category_name":"住宅区","address":"上海市嘉定区沪宜公路3885号"},{"poiid":"B2094750D665A6F8489B","title":"三知苑","lon":"121.239","lat":"31.3711","category":"76","category_name":"上海菜","address":"嘉定区沪宜公路3857号(近塔城路)"},{"poiid":"B2094757D569A1FD409D","title":"东北老好吃","lon":"121.23837077","lat":"31.37101698","category":"82","category_name":"东北菜","address":"嘉定区沪宜公路3861号(近清水颐园)"},{"poiid":"B2094757D464A7FC4893","title":"金殿大酒店","lon":"121.24287","lat":"31.36795","category":"76","category_name":"上海菜","address":"嘉定区永盛路2651号(近福海路)"},{"poiid":"B2094654DB6AA6F4439D","title":"塔城路800-850弄小区(南门)","lon":"121.23845","lat":"31.37239","category":"47","category_name":"住宅区","address":"塔城路800-850弄"},{"poiid":"B2094655D26FA6FA409C","title":"莫泰168","lon":"121.23765","lat":"31.37887","category":"216","category_name":"经济型连锁酒店","address":"上海市嘉定区清河路318号(近项泾桥，西光机所旁)"},{"poiid":"B2094757D16BA6FB479D","title":"嘉定区青少年活动中心","lon":"121.240416823","lat":"31.3808644989","category":"500","category_name":"未知分类","address":"嘉定区梅园路226号"},{"poiid":"B2094757D06BA1FB419B","title":"丽景小区","lon":"121.24509","lat":"31.377121","category":"47","category_name":"住宅区","address":"上海市嘉定区塔城路475弄"},{"poiid":"B2094752D26CA6F4499A","title":"静心斋素食","lon":"121.23983","lat":"31.37335","category":"89","category_name":"中式素餐馆","address":"嘉定区塔城路777号(近嘉定电视台)"},{"poiid":"B2094654D469A3FF439F","title":"中国科学院上海光学精密机械研究所","lon":"121.23602","lat":"31.37878","category":"191","category_name":"科研机构","address":"清河路390"},{"poiid":"B2094655D26FA4F8419E","title":"如家快捷酒店(上海嘉定清河路店)","lon":"121.23409","lat":"31.37591","category":"216","category_name":"经济型连锁酒店","address":"嘉定区清河路458号(近步行街)"},{"poiid":"B2094757D16EABFC449D","title":"嘉定区民政局","lon":"121.240827126","lat":"31.3749582778","category":"500","category_name":"未知分类","address":"上海塔城路560号"},{"poiid":"B2094655D26BA2FA4793","title":"塔城路沪宜公路","lon":"121.23875","lat":"31.37232","category":"38","category_name":"公交车站","address":""},{"poiid":"B2094655D268A1F84992","title":"叶城五街坊","lon":"121.23521","lat":"31.36625","category":"47","category_name":"住宅区","address":"裕民路1180-1182"},{"poiid":"B2094757D16AA5FE499B","title":"随意饭店","lon":"121.23877765","lat":"31.37257568","category":"247","category_name":"餐饮美食","address":"上海嘉定沪宜公路3733号"},{"poiid":"B2094655D268A1F84892","title":"塔城路685弄小区","lon":"121.24069","lat":"31.37272","category":"47","category_name":"住宅区","address":"上海塔城路685弄"},{"poiid":"B2094757D068A6F44499","title":"丽景公寓","lon":"121.24248","lat":"31.375189","category":"47","category_name":"住宅区","address":"上海嘉定区塔城路515弄"},{"poiid":"B2094757D16DA7F9459D","title":"叶城路925号","lon":"121.238093","lat":"31.373045","category":"500","category_name":"未知分类","address":"上海嘉定税务局第一税务所"},{"poiid":"B2094654D469A1FD439F","title":"叶城三街坊小区","lon":"121.23655","lat":"31.36518","category":"47","category_name":"住宅区","address":"裕海路1028弄96"},{"poiid":"B2094750D56BA6FB4398","title":"绿地嘉领国际","lon":"121.238209","lat":"31.371539","category":"47","category_name":"住宅区","address":"沪宜公路3128号中环-沪嘉高速-嘉定出口-左转300米沪宜公路叶城路口(不过红绿灯,路左侧)"},{"poiid":"B2094753D165A7F84393","title":"阿福龙虾","lon":"121.23628","lat":"31.37188","category":"247","category_name":"餐饮美食","address":"上海市 永盛路2770号"},{"poiid":"B2094757D064ABF94198","title":"花样年华美容美发(嘉定塔城路店)","lon":"121.24008911","lat":"31.37244828","category":"148","category_name":"美容美发店","address":"上海嘉定塔城路"},{"poiid":"B2094655D268A6FB499D","title":"和华名苑","lon":"121.23961","lat":"31.375233","category":"47","category_name":"住宅区","address":"上海市嘉定区塔城路688弄"},{"poiid":"B2094757D064AAFE4299","title":"熊记烧烤(高昌路店)","lon":"121.2419264","lat":"31.3740714","category":"68","category_name":"快餐厅","address":"嘉定区高昌路125号(近塔城路)"},{"poiid":"B2094654DB6AA6F4449E","title":"上海市嘉定区嘉定镇街道医院","lon":"121.23958","lat":"31.37351","category":"162","category_name":"医院","address":"塔城路702"},{"poiid":"B2094654D469A2F4469E","title":"汇城公寓","lon":"121.23564","lat":"31.374752","category":"47","category_name":"住宅区","address":"嘉丰路12-66号"},{"poiid":"B2094757D165A0F9499B","title":"一都赞宝岛商行","lon":"121.23855694","lat":"31.371651563","category":"119","category_name":"商场","address":"上海嘉定区沪宜公路3871号"},{"poiid":"B2094757D16BA1FB4898","title":"天安保险股份有限公司嘉定支公司","lon":"121.2399596","lat":"31.3734012","category":"46","category_name":"楼宇","address":"上海市嘉定区塔城路688弄27号"},{"poiid":"B2094654D469A3F4449B","title":"嘉城经济城","lon":"121.23955","lat":"31.3727","category":"45","category_name":"产业园区","address":"塔城路815号"},{"poiid":"B2094655D268A6FB419D","title":"金地·格林春岸(东北门)","lon":"121.23814","lat":"31.37499","category":"47","category_name":"住宅区","address":"塔城路718弄"},{"poiid":"B2094655D268A6FB499C","title":"快客No.5056","lon":"121.23864","lat":"31.37494","category":"117","category_name":"便民商店/便利店","address":"塔城路688弄和华名苑23"},{"poiid":"B2094654D469A3F4439D","title":"上海市地方税务局嘉定区分局第十三税务所","lon":"121.23917","lat":"31.37238","category":"250","category_name":"公园户外","address":"塔城路885-1"},{"poiid":"B209475CD16FABFD489C","title":"嘉定图书馆新馆","lon":"121.236991","lat":"31.373495","category":"500","category_name":"未知分类","address":"上海市 上海市裕民南路1288号"},{"poiid":"B2094757D569A2F44193","title":"汉唐足道(塔城路)","lon":"121.23952067","lat":"31.37328532","category":"149","category_name":"洗浴推拿场所","address":"中国上海市嘉定区塔城路"},{"poiid":"B2094655D268A1FC409C","title":"塔城路666弄小区(西门)","lon":"121.23958","lat":"31.37413","category":"47","category_name":"住宅区","address":"塔城路666弄"},{"poiid":"B2094655D36DA6F8409B","title":"上海南翔比高国际影城","lon":"121.23899","lat":"31.3712","category":"178","category_name":"电影院","address":"上海嘉定区沪宜公路1082号5幢1层"},{"poiid":"B2094654D469A3F4439C","title":"中国税务办税服务厅(塔城路)","lon":"121.23899","lat":"31.37225","category":"250","category_name":"公园户外","address":"塔城路887"},{"poiid":"B2094757D16CA3F84492","title":"华中小区","lon":"121.240351653","lat":"31.3718996671","category":"47","category_name":"住宅区","address":"上海市嘉定区塔城路685弄"},{"poiid":"B2094757D16CA2F44499","title":"嘉定塔城路800弄","lon":"121.235784","lat":"31.373425","category":"500","category_name":"未知分类","address":"上海嘉定塔城路800弄"},{"poiid":"B2094654DB6AA3FF429E","title":"上海市地方税务局嘉定区第十五税务所(原第三税务所)","lon":"121.23898","lat":"31.37225","category":"250","category_name":"公园户外","address":"上海市嘉定区嘉定镇塔城路887号"},{"poiid":"B2094654D469A3F44392","title":"嘉定区国家税务局第十三税务所","lon":"121.23916","lat":"31.37239","category":"250","category_name":"公园户外","address":"塔城路885-1"},{"poiid":"B2094655D268A1F8489F","title":"沪宜公路3758弄小区(南门)","lon":"121.24009","lat":"31.37168","category":"47","category_name":"住宅区","address":"沪宜公路3758弄"},{"poiid":"B2094655D268A1F8489D","title":"塔城路685弄小区(西北门)","lon":"121.24028","lat":"31.37328","category":"47","category_name":"住宅区","address":"塔城路685弄"},{"poiid":"B2094655D268A6FB419F","title":"汇城公寓(东南门)","lon":"121.23593","lat":"31.37456","category":"47","category_name":"住宅区","address":"嘉丰路12-66号"},{"poiid":"B2094654D469A3F4409C","title":"嘉定广播电视台","lon":"121.24182","lat":"31.3746","category":"59","category_name":"电视台","address":"塔城路565"},{"poiid":"B2094757D068A1F4479D","title":"君芝莱大酒店(嘉定店)","lon":"121.23774172","lat":"31.371637903","category":"76","category_name":"上海菜","address":"嘉定区沪宜公路3879号(沪宜公路嘉安公路)"},{"poiid":"B2094757D06FA4F8439B","title":"清水颐园","lon":"121.2375","lat":"31.368086","category":"47","category_name":"住宅区","address":"上海裕民路1000弄"},{"poiid":"B2094654D469A2F4449F","title":"金地格林春岸城","lon":"121.23871","lat":"31.37402","category":"47","category_name":"住宅区","address":"上海塔城路718弄"},{"poiid":"B2094757D16CA3F44198","title":"快乐鸟精品小厨","lon":"121.2385394","lat":"31.381193425","category":"76","category_name":"上海菜","address":"嘉定区环城路2450号"},{"poiid":"B2094757D06AA4FD429D","title":"嘉定电视台","lon":"121.241926303","lat":"31.3750399208","category":"260","category_name":"其他","address":"上海市嘉定区塔城路565号"},{"poiid":"B2094654D469A1FD489D","title":"嘉丰佳苑","lon":"121.23531","lat":"31.371836","category":"47","category_name":"住宅区","address":"上海市嘉定区沪宜公路3885号"},{"poiid":"B2094750D665A6F8489B","title":"三知苑","lon":"121.239","lat":"31.3711","category":"76","category_name":"上海菜","address":"嘉定区沪宜公路3857号(近塔城路)"},{"poiid":"B2094757D569A1FD409D","title":"东北老好吃","lon":"121.23837077","lat":"31.37101698","category":"82","category_name":"东北菜","address":"嘉定区沪宜公路3861号(近清水颐园)"},{"poiid":"B2094757D464A7FC4893","title":"金殿大酒店","lon":"121.24287","lat":"31.36795","category":"76","category_name":"上海菜","address":"嘉定区永盛路2651号(近福海路)"},{"poiid":"B2094654DB6AA6F4439D","title":"塔城路800-850弄小区(南门)","lon":"121.23845","lat":"31.37239","category":"47","category_name":"住宅区","address":"塔城路800-850弄"},{"poiid":"B2094655D26FA6FA409C","title":"莫泰168","lon":"121.23765","lat":"31.37887","category":"216","category_name":"经济型连锁酒店","address":"上海市嘉定区清河路318号(近项泾桥，西光机所旁)"},{"poiid":"B2094757D16BA6FB479D","title":"嘉定区青少年活动中心","lon":"121.240416823","lat":"31.3808644989","category":"500","category_name":"未知分类","address":"嘉定区梅园路226号"},{"poiid":"B2094757D06BA1FB419B","title":"丽景小区","lon":"121.24509","lat":"31.377121","category":"47","category_name":"住宅区","address":"上海市嘉定区塔城路475弄"},{"poiid":"B2094752D26CA6F4499A","title":"静心斋素食","lon":"121.23983","lat":"31.37335","category":"89","category_name":"中式素餐馆","address":"嘉定区塔城路777号(近嘉定电视台)"},{"poiid":"B2094654D469A3FF439F","title":"中国科学院上海光学精密机械研究所","lon":"121.23602","lat":"31.37878","category":"191","category_name":"科研机构","address":"清河路390"},{"poiid":"B2094655D26FA4F8419E","title":"如家快捷酒店(上海嘉定清河路店)","lon":"121.23409","lat":"31.37591","category":"216","category_name":"经济型连锁酒店","address":"嘉定区清河路458号(近步行街)"},{"poiid":"B2094757D16EABFC449D","title":"嘉定区民政局","lon":"121.240827126","lat":"31.3749582778","category":"500","category_name":"未知分类","address":"上海塔城路560号"},{"poiid":"B2094655D26BA2FA4793","title":"塔城路沪宜公路","lon":"121.23875","lat":"31.37232","category":"38","category_name":"公交车站","address":""},{"poiid":"B2094655D268A1F84992","title":"叶城五街坊","lon":"121.23521","lat":"31.36625","category":"47","category_name":"住宅区","address":"裕民路1180-1182"},{"poiid":"B2094757D16AA5FE499B","title":"随意饭店","lon":"121.23877765","lat":"31.37257568","category":"247","category_name":"餐饮美食","address":"上海嘉定沪宜公路3733号"},{"poiid":"B2094655D268A1F84892","title":"塔城路685弄小区","lon":"121.24069","lat":"31.37272","category":"47","category_name":"住宅区","address":"上海塔城路685弄"},{"poiid":"B2094757D068A6F44499","title":"丽景公寓","lon":"121.24248","lat":"31.375189","category":"47","category_name":"住宅区","address":"上海嘉定区塔城路515弄"},{"poiid":"B2094757D16DA7F9459D","title":"叶城路925号","lon":"121.238093","lat":"31.373045","category":"500","category_name":"未知分类","address":"上海嘉定税务局第一税务所"},{"poiid":"B2094654D469A1FD439F","title":"叶城三街坊小区","lon":"121.23655","lat":"31.36518","category":"47","category_name":"住宅区","address":"裕海路1028弄96"},{"poiid":"B2094750D56BA6FB4398","title":"绿地嘉领国际","lon":"121.238209","lat":"31.371539","category":"47","category_name":"住宅区","address":"沪宜公路3128号中环-沪嘉高速-嘉定出口-左转300米沪宜公路叶城路口(不过红绿灯,路左侧)"},{"poiid":"B2094753D165A7F84393","title":"阿福龙虾","lon":"121.23628","lat":"31.37188","category":"247","category_name":"餐饮美食","address":"上海市 永盛路2770号"},{"poiid":"B2094757D064ABF94198","title":"花样年华美容美发(嘉定塔城路店)","lon":"121.24008911","lat":"31.37244828","category":"148","category_name":"美容美发店","address":"上海嘉定塔城路"},{"poiid":"B2094655D268A6FB499D","title":"和华名苑","lon":"121.23961","lat":"31.375233","category":"47","category_name":"住宅区","address":"上海市嘉定区塔城路688弄"},{"poiid":"B2094757D064AAFE4299","title":"熊记烧烤(高昌路店)","lon":"121.2419264","lat":"31.3740714","category":"68","category_name":"快餐厅","address":"嘉定区高昌路125号(近塔城路)"},{"poiid":"B2094654DB6AA6F4449E","title":"上海市嘉定区嘉定镇街道医院","lon":"121.23958","lat":"31.37351","category":"162","category_name":"医院","address":"塔城路702"},{"poiid":"B2094654D469A2F4469E","title":"汇城公寓","lon":"121.23564","lat":"31.374752","category":"47","category_name":"住宅区","address":"嘉丰路12-66号"},{"poiid":"B2094757D165A0F9499B","title":"一都赞宝岛商行","lon":"121.23855694","lat":"31.371651563","category":"119","category_name":"商场","address":"上海嘉定区沪宜公路3871号"},{"poiid":"B2094757D16BA1FB4898","title":"天安保险股份有限公司嘉定支公司","lon":"121.2399596","lat":"31.3734012","category":"46","category_name":"楼宇","address":"上海市嘉定区塔城路688弄27号"},{"poiid":"B2094654D469A3F4449B","title":"嘉城经济城","lon":"121.23955","lat":"31.3727","category":"45","category_name":"产业园区","address":"塔城路815号"},{"poiid":"B2094655D268A6FB419D","title":"金地·格林春岸(东北门)","lon":"121.23814","lat":"31.37499","category":"47","category_name":"住宅区","address":"塔城路718弄"},{"poiid":"B2094655D268A6FB499C","title":"快客No.5056","lon":"121.23864","lat":"31.37494","category":"117","category_name":"便民商店/便利店","address":"塔城路688弄和华名苑23"},{"poiid":"B2094654D469A3F4439D","title":"上海市地方税务局嘉定区分局第十三税务所","lon":"121.23917","lat":"31.37238","category":"250","category_name":"公园户外","address":"塔城路885-1"},{"poiid":"B209475CD16FABFD489C","title":"嘉定图书馆新馆","lon":"121.236991","lat":"31.373495","category":"500","category_name":"未知分类","address":"上海市 上海市裕民南路1288号"},{"poiid":"B2094757D569A2F44193","title":"汉唐足道(塔城路)","lon":"121.23952067","lat":"31.37328532","category":"149","category_name":"洗浴推拿场所","address":"中国上海市嘉定区塔城路"},{"poiid":"B2094655D268A1FC409C","title":"塔城路666弄小区(西门)","lon":"121.23958","lat":"31.37413","category":"47","category_name":"住宅区","address":"塔城路666弄"},{"poiid":"B2094655D36DA6F8409B","title":"上海南翔比高国际影城","lon":"121.23899","lat":"31.3712","category":"178","category_name":"电影院","address":"上海嘉定区沪宜公路1082号5幢1层"},{"poiid":"B2094654D469A3F4439C","title":"中国税务办税服务厅(塔城路)","lon":"121.23899","lat":"31.37225","category":"250","category_name":"公园户外","address":"塔城路887"},{"poiid":"B2094757D16CA3F84492","title":"华中小区","lon":"121.240351653","lat":"31.3718996671","category":"47","category_name":"住宅区","address":"上海市嘉定区塔城路685弄"},{"poiid":"B2094757D16CA2F44499","title":"嘉定塔城路800弄","lon":"121.235784","lat":"31.373425","category":"500","category_name":"未知分类","address":"上海嘉定塔城路800弄"},{"poiid":"B2094654DB6AA3FF429E","title":"上海市地方税务局嘉定区第十五税务所(原第三税务所)","lon":"121.23898","lat":"31.37225","category":"250","category_name":"公园户外","address":"上海市嘉定区嘉定镇塔城路887号"},{"poiid":"B2094654D469A3F44392","title":"嘉定区国家税务局第十三税务所","lon":"121.23916","lat":"31.37239","category":"250","category_name":"公园户外","address":"塔城路885-1"},{"poiid":"B2094655D268A1F8489F","title":"沪宜公路3758弄小区(南门)","lon":"121.24009","lat":"31.37168","category":"47","category_name":"住宅区","address":"沪宜公路3758弄"},{"poiid":"B2094655D268A1F8489D","title":"塔城路685弄小区(西北门)","lon":"121.24028","lat":"31.37328","category":"47","category_name":"住宅区","address":"塔城路685弄"},{"poiid":"B2094655D268A6FB419F","title":"汇城公寓(东南门)","lon":"121.23593","lat":"31.37456","category":"47","category_name":"住宅区","address":"嘉丰路12-66号"},{"poiid":"B2094654D469A3F4409C","title":"嘉定广播电视台","lon":"121.24182","lat":"31.3746","category":"59","category_name":"电视台","address":"塔城路565"}]