[{"poiid":"B2094757D06EAAFD4898","title":"张江高科地铁站","lon":"121.587753","lat":"31.201903","category":"36","category_name":"地铁站","address":"上海轨道交通,二号线,轨交张江高科站,2"},{"poiid":"B2094757D16AA4FA449C","title":"金逸国际电影城(张江店)","lon":"121.585080675","lat":"31.2018240963","category":"178","category_name":"电影院","address":"浦东新区碧波路635号上海传奇2楼(近张江高科地铁站5号出口)"},{"poiid":"B2094655D26DA5F54593","title":"上海中医药大学","lon":"121.59185","lat":"31.19421","category":"671","category_name":"高校中心点","address":"浦东新区蔡伦路1200号中医药大学内(近华佗路)"},{"poiid":"B2094654DB6AA7F9439E","title":"星巴克 上海传奇店 Starbucks Cafe","lon":"121.584195054","lat":"31.201045793","category":"260","category_name":"其他","address":"浦东新区张江高科技园区碧波路635号104(近张江地铁站)"},{"poiid":"B2094655D26AA0FA4693","title":"地铁张江高科站","lon":"121.58494","lat":"31.20141","category":"36","category_name":"地铁站","address":""},{"poiid":"B2094757D068A3FA4099","title":"华师大二附中","lon":"121.59181","lat":"31.20015","category":"68","category_name":"快餐厅","address":"浦东新区晨晖路555号(近地铁二号线张江高科站)"},{"poiid":"B2094757D06FA1FA479D","title":"穀屋 House Of Flour","lon":"121.584195054","lat":"31.201045793","category":"67","category_name":"甜品店","address":"浦东新区碧波路635号上海传奇1楼105号铺(近张江地铁站)"},{"poiid":"B2094757D06FA7FF479D","title":"上海电影艺术学院","lon":"121.5907","lat":"31.19326","category":"671","category_name":"高校中心点","address":"上海浦东新区张江高科技园区华佗路  "},{"poiid":"B2094757D06FA7FD489D","title":"张江学生社区","lon":"121.59417724","lat":"31.192771911","category":"253","category_name":"校园生活","address":"上海浦东新区华佗路280弄"},{"poiid":"B2094757D069A2F44093","title":"汤臣豪园三期","lon":"121.599478975","lat":"31.1984013163","category":"47","category_name":"住宅区","address":"上海浦东新区晨晖路828弄"},{"poiid":"B2094757D16DA3FE4293","title":"上海中兴和泰酒店","lon":"121.58877214","lat":"31.198048929","category":"217","category_name":"旅馆招待所","address":"上海市浦东新区张江高科技园区碧波路889号(高科中路科苑路交界处西北角)"},{"poiid":"B2094655D269AAFA429E","title":"食之秘 张江店 Secret Recipe","lon":"121.584195054","lat":"31.201045793","category":"67","category_name":"甜品店","address":"浦东新区碧波路635号上海传奇2楼(近张江地铁站)"},{"poiid":"B2094757D06FA4F44493","title":"IBM国际商业机器(中国)有限公司","lon":"121.588928479","lat":"31.204423861","category":"46","category_name":"楼宇","address":"上海浦东新区张江高科技园区科苑路 399号"},{"poiid":"B2094757D06FA5FE4493","title":"中兴通讯","lon":"121.58648397","lat":"31.197780301","category":"46","category_name":"楼宇","address":"上海张江高科"},{"poiid":"B2094757D06EAAF9479D","title":"Lenovo联想公司(上海office)","lon":"121.58580017","lat":"31.202915191","category":"46","category_name":"楼宇","address":"上海浦东新区松涛路696号"},{"poiid":"B2094757D56EA1F4489A","title":"IC咖啡","lon":"121.585286","lat":"31.200633","category":"65","category_name":"咖啡厅","address":"浦东新区碧波路635号传奇广场3楼(近张江地铁站)"},{"poiid":"B2094757D06FA4FA4893","title":"龙门客栈(张江店)","lon":"121.58423","lat":"31.20022","category":"217","category_name":"旅馆招待所","address":"浦东新区碧波路635号上海传奇1楼03室(近张江地铁站)"},{"poiid":"B2094757D06FAAFA4398","title":"权味","lon":"121.5835","lat":"31.20108","category":"96","category_name":"韩国料理","address":"浦东新区碧波路635号2楼203室(近张江地铁站)"},{"poiid":"B2094757D06FA6FE4493","title":"巴贝拉(张江店)","lon":"121.58527","lat":"31.2004","category":"94","category_name":"西餐厅","address":"浦东新区碧波路635号上海传奇内(近张江地铁站)"},{"poiid":"B2094757D165A2FF4592","title":"复旦附属张江疯人院","lon":"121.59092797","lat":"31.191988166","category":"500","category_name":"未知分类","address":"上海浦东新区蔡伦路"},{"poiid":"B2094757D069A2FD4792","title":"上海电影艺术学院女生宿舍","lon":"121.59236297","lat":"31.192380175","category":"253","category_name":"校园生活","address":"上海市浦东新区达尔文路188号上海电影艺术学院内"},{"poiid":"B2094757D068A1FD4993","title":"大家乐(张江店)","lon":"121.58499884","lat":"31.200781697","category":"68","category_name":"快餐厅","address":"浦东新区碧波路635号上海传奇101-1709室(近微电子港)"},{"poiid":"B2094655D269ABFF479E","title":"传奇休闲广场","lon":"121.58578","lat":"31.20058","category":"247","category_name":"餐饮美食","address":"浦东新区碧波路635号上海传奇内(近张江地铁站)"},{"poiid":"B2094757D568ABF9499F","title":"张江科教园区","lon":"121.59095","lat":"31.19291","category":"52","category_name":"高等院校","address":"华佗路280弄"},{"poiid":"B2094655D26AAAFF409A","title":"康师傅私房牛肉面 张江店","lon":"121.584195054","lat":"31.201045793","category":"68","category_name":"快餐厅","address":"浦东新区碧波路635号上海传奇2楼17-19A(近张江地铁站)"},{"poiid":"B2094655D26AAAFE4893","title":"一茶一坐 张江高科店","lon":"121.584195054","lat":"31.201045793","category":"260","category_name":"其他","address":"浦东新区碧波路635号上海传奇2楼13-16A(近张江地铁站)"},{"poiid":"B2094757D06FA6FD479F","title":"东方既白(张江店)","lon":"121.58527636","lat":"31.200845826","category":"68","category_name":"快餐厅","address":"浦东新区碧波路635号上海传奇1楼104-204(近张江地铁站)"},{"poiid":"B2094757D068A6FC4499","title":"棒约翰比萨 张江店 Papa John's Pizza","lon":"121.584195054","lat":"31.201045793","category":"94","category_name":"西餐厅","address":"浦东新区碧波路635号上海传奇1楼(近张江地铁站)"},{"poiid":"B2094655D36DA6FF419F","title":"张江高科","lon":"121.58774","lat":"31.2019","category":"38","category_name":"公交车站","address":""},{"poiid":"B2094757D06AA1F4489C","title":"张江 稻香蛙","lon":"121.585074149","lat":"31.2004007151","category":"81","category_name":"湖北菜","address":"上海张江传奇广场内一楼"},{"poiid":"B2094757D068A1FF4592","title":"庆会楼(碧波路店)","lon":"121.5842","lat":"31.20025","category":"96","category_name":"韩国料理","address":"浦东新区碧波路635号上海传奇2楼1室(近张江高科地铁站)"},{"poiid":"B2094757D06FA0F4459D","title":"张江有轨电车1路","lon":"121.58672","lat":"31.2009","category":"38","category_name":"公交车站","address":"浦东新区张江地铁站－张东路金秋路(松涛路祖冲之路)"},{"poiid":"B2094757D068A7FA4099","title":"禾绿寿司(张江店)","lon":"121.58571","lat":"31.20057","category":"95","category_name":"日本料理","address":"浦东新区碧波路635号上海传奇2楼(近张江地铁站)"},{"poiid":"B2094654DB64A3F84998","title":"张江汤臣豪园(晨晖路)","lon":"121.58805","lat":"31.19902","category":"47","category_name":"住宅区","address":"上海市浦东新区晨晖路377弄"},{"poiid":"B2094655D36CA5FF4993","title":"晨晖路金科路","lon":"121.59992","lat":"31.20095","category":"38","category_name":"公交车站","address":""},{"poiid":"B2094757D069A1FB4198","title":"百草传奇(张江店)","lon":"121.58425","lat":"31.2002","category":"260","category_name":"其他","address":"浦东新区碧波路635号上海传奇1楼(近张江地铁站)"},{"poiid":"B2094757D06FAAFF4398","title":"庄氏隆兴私房面龙虾馆(张江店)","lon":"121.58604","lat":"31.2003","category":"68","category_name":"快餐厅","address":"浦东新区碧波路635号上海传奇2楼(近张江地铁站)"},{"poiid":"B2094750DB6AA5F8489E","title":"喜达石锅饭","lon":"121.58578","lat":"31.20057","category":"96","category_name":"韩国料理","address":"浦东新区碧波路635号传奇广场内(近张江地铁站)"},{"poiid":"B2094757D069A3FF469F","title":"上海中医药大学6号楼","lon":"121.592036975","lat":"31.1954202466","category":"253","category_name":"校园生活","address":"上海蔡伦路1200号"},{"poiid":"B2094655D36CA1F5429D","title":"科苑路华佗路","lon":"121.58997","lat":"31.19346","category":"38","category_name":"公交车站","address":""},{"poiid":"B2094757D064A5FD479E","title":"好乐迪(张江店)","lon":"121.585645","lat":"31.201016","category":"500","category_name":"未知分类","address":"浦东新区碧波路635号上海传奇2楼(近张江地铁站)"},{"poiid":"B2094757D16EA2FC499E","title":"张江高科实验小学(藿香校区)","lon":"121.59458234","lat":"31.201181852","category":"55","category_name":"中学","address":"上海浦东新区藿香路88号"},{"poiid":"B2094655D36CA5F8409B","title":"晨晖路藿香路","lon":"121.59452","lat":"31.19999","category":"38","category_name":"公交车站","address":""},{"poiid":"B2094757D568A6FB449D","title":"金蝶软件园","lon":"121.591658600001","lat":"31.1994727000003","category":"45","category_name":"产业园区","address":"浦东新区晨晖路88号"},{"poiid":"B2094757D66AA7F54298","title":"吉瑞家乡菜馆","lon":"121.59541","lat":"31.20016","category":"68","category_name":"快餐厅","address":"浦东新区晨晖路725弄114号(吉家市场旁)"},{"poiid":"B2094757D06BA4FF469E","title":"喜月中餐","lon":"121.58519375","lat":"31.201859217","category":"260","category_name":"其他","address":"上海浦东新区碧波路635号(近张江地铁站)"},{"poiid":"B2094655D26EA4F54293","title":"金晋三和面","lon":"121.584195054","lat":"31.201045793","category":"68","category_name":"快餐厅","address":"浦东新区碧波路635号上海传奇1楼16号(近张江地铁站)"},{"poiid":"B2094757D16FA3FE419B","title":"宝寿司 传奇广场店","lon":"121.583895","lat":"31.200807","category":"95","category_name":"日本料理","address":"浦东新区碧波路635号上海传奇2楼(近好乐迪)"},{"poiid":"B2094655D26AA6F4419B","title":"酷圣石 上海传奇店 Cold Stone Creamery","lon":"121.584195054","lat":"31.201045793","category":"113","category_name":"冷饮店","address":"浦东新区碧波路635号上海传奇1楼(近张江地铁站)"},{"poiid":"B2094655D26EA6FA419E","title":"顾姐小厨","lon":"121.584195054","lat":"31.201045793","category":"76","category_name":"上海菜","address":"浦东新区碧波路635号上海传奇1楼22-23B号(近张江地铁站)"},{"poiid":"B2094757D06EAAFD4898","title":"张江高科地铁站","lon":"121.587753","lat":"31.201903","category":"36","category_name":"地铁站","address":"上海轨道交通,二号线,轨交张江高科站,2"},{"poiid":"B2094757D16AA4FA449C","title":"金逸国际电影城(张江店)","lon":"121.585080675","lat":"31.2018240963","category":"178","category_name":"电影院","address":"浦东新区碧波路635号上海传奇2楼(近张江高科地铁站5号出口)"},{"poiid":"B2094655D26DA5F54593","title":"上海中医药大学","lon":"121.59185","lat":"31.19421","category":"671","category_name":"高校中心点","address":"浦东新区蔡伦路1200号中医药大学内(近华佗路)"},{"poiid":"B2094654DB6AA7F9439E","title":"星巴克 上海传奇店 Starbucks Cafe","lon":"121.584195054","lat":"31.201045793","category":"260","category_name":"其他","address":"浦东新区张江高科技园区碧波路635号104(近张江地铁站)"},{"poiid":"B2094655D26AA0FA4693","title":"地铁张江高科站","lon":"121.58494","lat":"31.20141","category":"36","category_name":"地铁站","address":""},{"poiid":"B2094757D068A3FA4099","title":"华师大二附中","lon":"121.59181","lat":"31.20015","category":"68","category_name":"快餐厅","address":"浦东新区晨晖路555号(近地铁二号线张江高科站)"},{"poiid":"B2094757D06FA1FA479D","title":"穀屋 House Of Flour","lon":"121.584195054","lat":"31.201045793","category":"67","category_name":"甜品店","address":"浦东新区碧波路635号上海传奇1楼105号铺(近张江地铁站)"},{"poiid":"B2094757D06FA7FF479D","title":"上海电影艺术学院","lon":"121.5907","lat":"31.19326","category":"671","category_name":"高校中心点","address":"上海浦东新区张江高科技园区华佗路  "},{"poiid":"B2094757D06FA7FD489D","title":"张江学生社区","lon":"121.59417724","lat":"31.192771911","category":"253","category_name":"校园生活","address":"上海浦东新区华佗路280弄"},{"poiid":"B2094757D069A2F44093","title":"汤臣豪园三期","lon":"121.599478975","lat":"31.1984013163","category":"47","category_name":"住宅区","address":"上海浦东新区晨晖路828弄"},{"poiid":"B2094757D16DA3FE4293","title":"上海中兴和泰酒店","lon":"121.58877214","lat":"31.198048929","category":"217","category_name":"旅馆招待所","address":"上海市浦东新区张江高科技园区碧波路889号(高科中路科苑路交界处西北角)"},{"poiid":"B2094655D269AAFA429E","title":"食之秘 张江店 Secret Recipe","lon":"121.584195054","lat":"31.201045793","category":"67","category_name":"甜品店","address":"浦东新区碧波路635号上海传奇2楼(近张江地铁站)"},{"poiid":"B2094757D06FA4F44493","title":"IBM国际商业机器(中国)有限公司","lon":"121.588928479","lat":"31.204423861","category":"46","category_name":"楼宇","address":"上海浦东新区张江高科技园区科苑路 399号"},{"poiid":"B2094757D06FA5FE4493","title":"中兴通讯","lon":"121.58648397","lat":"31.197780301","category":"46","category_name":"楼宇","address":"上海张江高科"},{"poiid":"B2094757D06EAAF9479D","title":"Lenovo联想公司(上海office)","lon":"121.58580017","lat":"31.202915191","category":"46","category_name":"楼宇","address":"上海浦东新区松涛路696号"},{"poiid":"B2094757D56EA1F4489A","title":"IC咖啡","lon":"121.585286","lat":"31.200633","category":"65","category_name":"咖啡厅","address":"浦东新区碧波路635号传奇广场3楼(近张江地铁站)"},{"poiid":"B2094757D06FA4FA4893","title":"龙门客栈(张江店)","lon":"121.58423","lat":"31.20022","category":"217","category_name":"旅馆招待所","address":"浦东新区碧波路635号上海传奇1楼03室(近张江地铁站)"},{"poiid":"B2094757D06FAAFA4398","title":"权味","lon":"121.5835","lat":"31.20108","category":"96","category_name":"韩国料理","address":"浦东新区碧波路635号2楼203室(近张江地铁站)"},{"poiid":"B2094757D06FA6FE4493","title":"巴贝拉(张江店)","lon":"121.58527","lat":"31.2004","category":"94","category_name":"西餐厅","address":"浦东新区碧波路635号上海传奇内(近张江地铁站)"},{"poiid":"B2094757D165A2FF4592","title":"复旦附属张江疯人院","lon":"121.59092797","lat":"31.191988166","category":"500","category_name":"未知分类","address":"上海浦东新区蔡伦路"},{"poiid":"B2094757D069A2FD4792","title":"上海电影艺术学院女生宿舍","lon":"121.59236297","lat":"31.192380175","category":"253","category_name":"校园生活","address":"上海市浦东新区达尔文路188号上海电影艺术学院内"},{"poiid":"B2094757D068A1FD4993","title":"大家乐(张江店)","lon":"121.58499884","lat":"31.200781697","category":"68","category_name":"快餐厅","address":"浦东新区碧波路635号上海传奇101-1709室(近微电子港)"},{"poiid":"B2094655D269ABFF479E","title":"传奇休闲广场","lon":"121.58578","lat":"31.20058","category":"247","category_name":"餐饮美食","address":"浦东新区碧波路635号上海传奇内(近张江地铁站)"},{"poiid":"B2094757D568ABF9499F","title":"张江科教园区","lon":"121.59095","lat":"31.19291","category":"52","category_name":"高等院校","address":"华佗路280弄"},{"poiid":"B2094655D26AAAFF409A","title":"康师傅私房牛肉面 张江店","lon":"121.584195054","lat":"31.201045793","category":"68","category_name":"快餐厅","address":"浦东新区碧波路635号上海传奇2楼17-19A(近张江地铁站)"},{"poiid":"B2094655D26AAAFE4893","title":"一茶一坐 张江高科店","lon":"121.584195054","lat":"31.201045793","category":"260","category_name":"其他","address":"浦东新区碧波路635号上海传奇2楼13-16A(近张江地铁站)"},{"poiid":"B2094757D06FA6FD479F","title":"东方既白(张江店)","lon":"121.58527636","lat":"31.200845826","category":"68","category_name":"快餐厅","address":"浦东新区碧波路635号上海传奇1楼104-204(近张江地铁站)"},{"poiid":"B2094757D068A6FC4499","title":"棒约翰比萨 张江店 Papa John's Pizza","lon":"121.584195054","lat":"31.201045793","category":"94","category_name":"西餐厅","address":"浦东新区碧波路635号上海传奇1楼(近张江地铁站)"},{"poiid":"B2094655D36DA6FF419F","title":"张江高科","lon":"121.58774","lat":"31.2019","category":"38","category_name":"公交车站","address":""},{"poiid":"B2094757D06AA1F4489C","title":"张江 稻香蛙","lon":"121.585074149","lat":"31.2004007151","category":"81","category_name":"湖北菜","address":"上海张江传奇广场内一楼"},{"poiid":"B2094757D068A1FF4592","title":"庆会楼(碧波路店)","lon":"121.5842","lat":"31.20025","category":"96","category_name":"韩国料理","address":"浦东新区碧波路635号上海传奇2楼1室(近张江高科地铁站)"},{"poiid":"B2094757D06FA0F4459D","title":"张江有轨电车1路","lon":"121.58672","lat":"31.2009","category":"38","category_name":"公交车站","address":"浦东新区张江地铁站－张东路金秋路(松涛路祖冲之路)"},{"poiid":"B2094757D068A7FA4099","title":"禾绿寿司(张江店)","lon":"121.58571","lat":"31.20057","category":"95","category_name":"日本料理","address":"浦东新区碧波路635号上海传奇2楼(近张江地铁站)"},{"poiid":"B2094654DB64A3F84998","title":"张江汤臣豪园(晨晖路)","lon":"121.58805","lat":"31.19902","category":"47","category_name":"住宅区","address":"上海市浦东新区晨晖路377弄"},{"poiid":"B2094655D36CA5FF4993","title":"晨晖路金科路","lon":"121.59992","lat":"31.20095","category":"38","category_name":"公交车站","address":""},{"poiid":"B2094757D069A1FB4198","title":"百草传奇(张江店)","lon":"121.58425","lat":"31.2002","category":"260","category_name":"其他","address":"浦东新区碧波路635号上海传奇1楼(近张江地铁站)"},{"poiid":"B2094757D06FAAFF4398","title":"庄氏隆兴私房面龙虾馆(张江店)","lon":"121.58604","lat":"31.2003","category":"68","category_name":"快餐厅","address":"浦东新区碧波路635号上海传奇2楼(近张江地铁站)"},{"poiid":"B2094750DB6AA5F8489E","title":"喜达石锅饭","lon":"121.58578","lat":"31.20057","category":"96","category_name":"韩国料理","address":"浦东新区碧波路635号传奇广场内(近张江地铁站)"},{"poiid":"B2094757D069A3FF469F","title":"上海中医药大学6号楼","lon":"121.592036975","lat":"31.1954202466","category":"253","category_name":"校园生活","address":"上海蔡伦路1200号"},{"poiid":"B2094655D36CA1F5429D","title":"科苑路华佗路","lon":"121.58997","lat":"31.19346","category":"38","category_name":"公交车站","address":""},{"poiid":"B2094757D064A5FD479E","title":"好乐迪(张江店)","lon":"121.585645","lat":"31.201016","category":"500","category_name":"未知分类","address":"浦东新区碧波路635号上海传奇2楼(近张江地铁站)"},{"poiid":"B2094757D16EA2FC499E","title":"张江高科实验小学(藿香校区)","lon":"121.59458234","lat":"31.201181852","category":"55","category_name":"中学","address":"上海浦东新区藿香路88号"},{"poiid":"B2094655D36CA5F8409B","title":"晨晖路藿香路","lon":"121.59452","lat":"31.19999","category":"38","category_name":"公交车站","address":""},{"poiid":"B2094757D568A6FB449D","title":"金蝶软件园","lon":"121.591658600001","lat":"31.1994727000003","category":"45","category_name":"产业园区","address":"浦东新区晨晖路88号"},{"poiid":"B2094757D66AA7F54298","title":"吉瑞家乡菜馆","lon":"121.59541","lat":"31.20016","category":"68","category_name":"快餐厅","address":"浦东新区晨晖路725弄114号(吉家市场旁)"},{"poiid":"B2094757D06BA4FF469E","title":"喜月中餐","lon":"121.58519375","lat":"31.201859217","category":"260","category_name":"其他","address":"上海浦东新区碧波路635号(近张江地铁站)"},{"poiid":"B2094655D26EA4F54293","title":"金晋三和面","lon":"121.584195054","lat":"31.201045793","category":"68","category_name":"快餐厅","address":"浦东新区碧波路635号上海传奇1楼16号(近张江地铁站)"},{"poiid":"B2094757D16FA3FE419B","title":"宝寿司 传奇广场店","lon":"121.583895","lat":"31.200807","category":"95","category_name":"日本料理","address":"浦东新区碧波路635号上海传奇2楼(近好乐迪)"},{"poiid":"B2094655D26AA6F4419B","title":"酷圣石 上海传奇店 Cold Stone Creamery","lon":"121.584195054","lat":"31.201045793","category":"113","category_name":"冷饮店","address":"浦东新区碧波路635号上海传奇1楼(近张江地铁站)"},{"poiid":"B2094655D26EA6FA419E","title":"顾姐小厨","lon":"121.584195054","lat":"31.201045793","category":"76","category_name":"上海菜","address":"浦东新区碧波路635号上海传奇1楼22-23B号(近张江地铁站)"},{"poiid":"B2094757D06EAAFD4898","title":"张江高科地铁站","lon":"121.587753","lat":"31.201903","category":"36","category_name":"地铁站","address":"上海轨道交通,二号线,轨交张江高科站,2"},{"poiid":"B2094757D16AA4FA449C","title":"金逸国际电影城(张江店)","lon":"121.585080675","lat":"31.2018240963","category":"178","category_name":"电影院","address":"浦东新区碧波路635号上海传奇2楼(近张江高科地铁站5号出口)"},{"poiid":"B2094655D26DA5F54593","title":"上海中医药大学","lon":"121.59185","lat":"31.19421","category":"671","category_name":"高校中心点","address":"浦东新区蔡伦路1200号中医药大学内(近华佗路)"},{"poiid":"B2094654DB6AA7F9439E","title":"星巴克 上海传奇店 Starbucks Cafe","lon":"121.584195054","lat":"31.201045793","category":"260","category_name":"其他","address":"浦东新区张江高科技园区碧波路635号104(近张江地铁站)"},{"poiid":"B2094655D26AA0FA4693","title":"地铁张江高科站","lon":"121.58494","lat":"31.20141","category":"36","category_name":"地铁站","address":""},{"poiid":"B2094757D068A3FA4099","title":"华师大二附中","lon":"121.59181","lat":"31.20015","category":"68","category_name":"快餐厅","address":"浦东新区晨晖路555号(近地铁二号线张江高科站)"},{"poiid":"B2094757D06FA1FA479D","title":"穀屋 House Of Flour","lon":"121.584195054","lat":"31.201045793","category":"67","category_name":"甜品店","address":"浦东新区碧波路635号上海传奇1楼105号铺(近张江地铁站)"},{"poiid":"B2094757D06FA7FF479D","title":"上海电影艺术学院","lon":"121.5907","lat":"31.19326","category":"671","category_name":"高校中心点","address":"上海浦东新区张江高科技园区华佗路  "},{"poiid":"B2094757D06FA7FD489D","title":"张江学生社区","lon":"121.59417724","lat":"31.192771911","category":"253","category_name":"校园生活","address":"上海浦东新区华佗路280弄"},{"poiid":"B2094757D069A2F44093","title":"汤臣豪园三期","lon":"121.599478975","lat":"31.1984013163","category":"47","category_name":"住宅区","address":"上海浦东新区晨晖路828弄"},{"poiid":"B2094757D16DA3FE4293","title":"上海中兴和泰酒店","lon":"121.58877214","lat":"31.198048929","category":"217","category_name":"旅馆招待所","address":"上海市浦东新区张江高科技园区碧波路889号(高科中路科苑路交界处西北角)"},{"poiid":"B2094655D269AAFA429E","title":"食之秘 张江店 Secret Recipe","lon":"121.584195054","lat":"31.201045793","category":"67","category_name":"甜品店","address":"浦东新区碧波路635号上海传奇2楼(近张江地铁站)"},{"poiid":"B2094757D06FA4F44493","title":"IBM国际商业机器(中国)有限公司","lon":"121.588928479","lat":"31.204423861","category":"46","category_name":"楼宇","address":"上海浦东新区张江高科技园区科苑路 399号"},{"poiid":"B2094757D06FA5FE4493","title":"中兴通讯","lon":"121.58648397","lat":"31.197780301","category":"46","category_name":"楼宇","address":"上海张江高科"},{"poiid":"B2094757D06EAAF9479D","title":"Lenovo联想公司(上海office)","lon":"121.58580017","lat":"31.202915191","category":"46","category_name":"楼宇","address":"上海浦东新区松涛路696号"},{"poiid":"B2094757D56EA1F4489A","title":"IC咖啡","lon":"121.585286","lat":"31.200633","category":"65","category_name":"咖啡厅","address":"浦东新区碧波路635号传奇广场3楼(近张江地铁站)"},{"poiid":"B2094757D06FA4FA4893","title":"龙门客栈(张江店)","lon":"121.58423","lat":"31.20022","category":"217","category_name":"旅馆招待所","address":"浦东新区碧波路635号上海传奇1楼03室(近张江地铁站)"},{"poiid":"B2094757D06FAAFA4398","title":"权味","lon":"121.5835","lat":"31.20108","category":"96","category_name":"韩国料理","address":"浦东新区碧波路635号2楼203室(近张江地铁站)"},{"poiid":"B2094757D06FA6FE4493","title":"巴贝拉(张江店)","lon":"121.58527","lat":"31.2004","category":"94","category_name":"西餐厅","address":"浦东新区碧波路635号上海传奇内(近张江地铁站)"},{"poiid":"B2094757D165A2FF4592","title":"复旦附属张江疯人院","lon":"121.59092797","lat":"31.191988166","category":"500","category_name":"未知分类","address":"上海浦东新区蔡伦路"},{"poiid":"B2094757D069A2FD4792","title":"上海电影艺术学院女生宿舍","lon":"121.59236297","lat":"31.192380175","category":"253","category_name":"校园生活","address":"上海市浦东新区达尔文路188号上海电影艺术学院内"},{"poiid":"B2094757D068A1FD4993","title":"大家乐(张江店)","lon":"121.58499884","lat":"31.200781697","category":"68","category_name":"快餐厅","address":"浦东新区碧波路635号上海传奇101-1709室(近微电子港)"},{"poiid":"B2094655D269ABFF479E","title":"传奇休闲广场","lon":"121.58578","lat":"31.20058","category":"247","category_name":"餐饮美食","address":"浦东新区碧波路635号上海传奇内(近张江地铁站)"},{"poiid":"B2094757D568ABF9499F","title":"张江科教园区","lon":"121.59095","lat":"31.19291","category":"52","category_name":"高等院校","address":"华佗路280弄"},{"poiid":"B2094655D26AAAFF409A","title":"康师傅私房牛肉面 张江店","lon":"121.584195054","lat":"31.201045793","category":"68","category_name":"快餐厅","address":"浦东新区碧波路635号上海传奇2楼17-19A(近张江地铁站)"},{"poiid":"B2094655D26AAAFE4893","title":"一茶一坐 张江高科店","lon":"121.584195054","lat":"31.201045793","category":"260","category_name":"其他","address":"浦东新区碧波路635号上海传奇2楼13-16A(近张江地铁站)"},{"poiid":"B2094757D06FA6FD479F","title":"东方既白(张江店)","lon":"121.58527636","lat":"31.200845826","category":"68","category_name":"快餐厅","address":"浦东新区碧波路635号上海传奇1楼104-204(近张江地铁站)"},{"poiid":"B2094757D068A6FC4499","title":"棒约翰比萨 张江店 Papa John's Pizza","lon":"121.584195054","lat":"31.201045793","category":"94","category_name":"西餐厅","address":"浦东新区碧波路635号上海传奇1楼(近张江地铁站)"},{"poiid":"B2094655D36DA6FF419F","title":"张江高科","lon":"121.58774","lat":"31.2019","category":"38","category_name":"公交车站","address":""},{"poiid":"B2094757D06AA1F4489C","title":"张江 稻香蛙","lon":"121.585074149","lat":"31.2004007151","category":"81","category_name":"湖北菜","address":"上海张江传奇广场内一楼"},{"poiid":"B2094757D068A1FF4592","title":"庆会楼(碧波路店)","lon":"121.5842","lat":"31.20025","category":"96","category_name":"韩国料理","address":"浦东新区碧波路635号上海传奇2楼1室(近张江高科地铁站)"},{"poiid":"B2094757D06FA0F4459D","title":"张江有轨电车1路","lon":"121.58672","lat":"31.2009","category":"38","category_name":"公交车站","address":"浦东新区张江地铁站－张东路金秋路(松涛路祖冲之路)"},{"poiid":"B2094757D068A7FA4099","title":"禾绿寿司(张江店)","lon":"121.58571","lat":"31.20057","category":"95","category_name":"日本料理","address":"浦东新区碧波路635号上海传奇2楼(近张江地铁站)"},{"poiid":"B2094654DB64A3F84998","title":"张江汤臣豪园(晨晖路)","lon":"121.58805","lat":"31.19902","category":"47","category_name":"住宅区","address":"上海市浦东新区晨晖路377弄"},{"poiid":"B2094655D36CA5FF4993","title":"晨晖路金科路","lon":"121.59992","lat":"31.20095","category":"38","category_name":"公交车站","address":""},{"poiid":"B2094757D069A1FB4198","title":"百草传奇(张江店)","lon":"121.58425","lat":"31.2002","category":"260","category_name":"其他","address":"浦东新区碧波路635号上海传奇1楼(近张江地铁站)"},{"poiid":"B2094757D06FAAFF4398","title":"庄氏隆兴私房面龙虾馆(张江店)","lon":"121.58604","lat":"31.2003","category":"68","category_name":"快餐厅","address":"浦东新区碧波路635号上海传奇2楼(近张江地铁站)"},{"poiid":"B2094750DB6AA5F8489E","title":"喜达石锅饭","lon":"121.58578","lat":"31.20057","category":"96","category_name":"韩国料理","address":"浦东新区碧波路635号传奇广场内(近张江地铁站)"},{"poiid":"B2094757D069A3FF469F","title":"上海中医药大学6号楼","lon":"121.592036975","lat":"31.1954202466","category":"253","category_name":"校园生活","address":"上海蔡伦路1200号"},{"poiid":"B2094655D36CA1F5429D","title":"科苑路华佗路","lon":"121.58997","lat":"31.19346","category":"38","category_name":"公交车站","address":""},{"poiid":"B2094757D064A5FD479E","title":"好乐迪(张江店)","lon":"121.585645","lat":"31.201016","category":"500","category_name":"未知分类","address":"浦东新区碧波路635号上海传奇2楼(近张江地铁站)"},{"poiid":"B2094757D16EA2FC499E","title":"张江高科实验小学(藿香校区)","lon":"121.59458234","lat":"31.201181852","category":"55","category_name":"中学","address":"上海浦东新区藿香路88号"},{"poiid":"B2094655D36CA5F8409B","title":"晨晖路藿香路","lon":"121.59452","lat":"31.19999","category":"38","category_name":"公交车站","address":""},{"poiid":"B2094757D568A6FB449D","title":"金蝶软件园","lon":"121.591658600001","lat":"31.1994727000003","category":"45","category_name":"产业园区","address":"浦东新区晨晖路88号"},{"poiid":"B2094757D66AA7F54298","title":"吉瑞家乡菜馆","lon":"121.59541","lat":"31.20016","category":"68","category_name":"快餐厅","address":"浦东新区晨晖路725弄114号(吉家市场旁)"},{"poiid":"B2094757D06BA4FF469E","title":"喜月中餐","lon":"121.58519375","lat":"31.201859217","category":"260","category_name":"其他","address":"上海浦东新区碧波路635号(近张江地铁站)"},{"poiid":"B2094655D26EA4F54293","title":"金晋三和面","lon":"121.584195054","lat":"31.201045793","category":"68","category_name":"快餐厅","address":"浦东新区碧波路635号上海传奇1楼16号(近张江地铁站)"},{"poiid":"B2094757D16FA3FE419B","title":"宝寿司 传奇广场店","lon":"121.583895","lat":"31.200807","category":"95","category_name":"日本料理","address":"浦东新区碧波路635号上海传奇2楼(近好乐迪)"},{"poiid":"B2094655D26AA6F4419B","title":"酷圣石 上海传奇店 Cold Stone Creamery","lon":"121.584195054","lat":"31.201045793","category":"113","category_name":"冷饮店","address":"浦东新区碧波路635号上海传奇1楼(近张江地铁站)"},{"poiid":"B2094655D26EA6FA419E","title":"顾姐小厨","lon":"121.584195054","lat":"31.201045793","category":"76","category_name":"上海菜","address":"浦东新区碧波路635号上海传奇1楼22-23B号(近张江地铁站)"},{"poiid":"B2094757D06EAAFD4898","title":"张江高科地铁站","lon":"121.587753","lat":"31.201903","category":"36","category_name":"地铁站","address":"上海轨道交通,二号线,轨交张江高科站,2"},{"poiid":"B2094757D16AA4FA449C","title":"金逸国际电影城(张江店)","lon":"121.585080675","lat":"31.2018240963","category":"178","category_name":"电影院","address":"浦东新区碧波路635号上海传奇2楼(近张江高科地铁站5号出口)"},{"poiid":"B2094655D26DA5F54593","title":"上海中医药大学","lon":"121.59185","lat":"31.19421","category":"671","category_name":"高校中心点","address":"浦东新区蔡伦路1200号中医药大学内(近华佗路)"},{"poiid":"B2094654DB6AA7F9439E","title":"星巴克 上海传奇店 Starbucks Cafe","lon":"121.584195054","lat":"31.201045793","category":"260","category_name":"其他","address":"浦东新区张江高科技园区碧波路635号104(近张江地铁站)"},{"poiid":"B2094655D26AA0FA4693","title":"地铁张江高科站","lon":"121.58494","lat":"31.20141","category":"36","category_name":"地铁站","address":""},{"poiid":"B2094757D068A3FA4099","title":"华师大二附中","lon":"121.59181","lat":"31.20015","category":"68","category_name":"快餐厅","address":"浦东新区晨晖路555号(近地铁二号线张江高科站)"},{"poiid":"B2094757D06FA1FA479D","title":"穀屋 House Of Flour","lon":"121.584195054","lat":"31.201045793","category":"67","category_name":"甜品店","address":"浦东新区碧波路635号上海传奇1楼105号铺(近张江地铁站)"},{"poiid":"B2094757D06FA7FF479D","title":"上海电影艺术学院","lon":"121.5907","lat":"31.19326","category":"671","category_name":"高校中心点","address":"上海浦东新区张江高科技园区华佗路  "},{"poiid":"B2094757D06FA7FD489D","title":"张江学生社区","lon":"121.59417724","lat":"31.192771911","category":"253","category_name":"校园生活","address":"上海浦东新区华佗路280弄"},{"poiid":"B2094757D069A2F44093","title":"汤臣豪园三期","lon":"121.599478975","lat":"31.1984013163","category":"47","category_name":"住宅区","address":"上海浦东新区晨晖路828弄"},{"poiid":"B2094757D16DA3FE4293","title":"上海中兴和泰酒店","lon":"121.58877214","lat":"31.198048929","category":"217","category_name":"旅馆招待所","address":"上海市浦东新区张江高科技园区碧波路889号(高科中路科苑路交界处西北角)"},{"poiid":"B2094655D269AAFA429E","title":"食之秘 张江店 Secret Recipe","lon":"121.584195054","lat":"31.201045793","category":"67","category_name":"甜品店","address":"浦东新区碧波路635号上海传奇2楼(近张江地铁站)"},{"poiid":"B2094757D06FA4F44493","title":"IBM国际商业机器(中国)有限公司","lon":"121.588928479","lat":"31.204423861","category":"46","category_name":"楼宇","address":"上海浦东新区张江高科技园区科苑路 399号"},{"poiid":"B2094757D06FA5FE4493","title":"中兴通讯","lon":"121.58648397","lat":"31.197780301","category":"46","category_name":"楼宇","address":"上海张江高科"},{"poiid":"B2094757D06EAAF9479D","title":"Lenovo联想公司(上海office)","lon":"121.58580017","lat":"31.202915191","category":"46","category_name":"楼宇","address":"上海浦东新区松涛路696号"},{"poiid":"B2094757D56EA1F4489A","title":"IC咖啡","lon":"121.585286","lat":"31.200633","category":"65","category_name":"咖啡厅","address":"浦东新区碧波路635号传奇广场3楼(近张江地铁站)"},{"poiid":"B2094757D06FA4FA4893","title":"龙门客栈(张江店)","lon":"121.58423","lat":"31.20022","category":"217","category_name":"旅馆招待所","address":"浦东新区碧波路635号上海传奇1楼03室(近张江地铁站)"},{"poiid":"B2094757D06FAAFA4398","title":"权味","lon":"121.5835","lat":"31.20108","category":"96","category_name":"韩国料理","address":"浦东新区碧波路635号2楼203室(近张江地铁站)"},{"poiid":"B2094757D06FA6FE4493","title":"巴贝拉(张江店)","lon":"121.58527","lat":"31.2004","category":"94","category_name":"西餐厅","address":"浦东新区碧波路635号上海传奇内(近张江地铁站)"},{"poiid":"B2094757D165A2FF4592","title":"复旦附属张江疯人院","lon":"121.59092797","lat":"31.191988166","category":"500","category_name":"未知分类","address":"上海浦东新区蔡伦路"},{"poiid":"B2094757D069A2FD4792","title":"上海电影艺术学院女生宿舍","lon":"121.59236297","lat":"31.192380175","category":"253","category_name":"校园生活","address":"上海市浦东新区达尔文路188号上海电影艺术学院内"},{"poiid":"B2094757D068A1FD4993","title":"大家乐(张江店)","lon":"121.58499884","lat":"31.200781697","category":"68","category_name":"快餐厅","address":"浦东新区碧波路635号上海传奇101-1709室(近微电子港)"},{"poiid":"B2094655D269ABFF479E","title":"传奇休闲广场","lon":"121.58578","lat":"31.20058","category":"247","category_name":"餐饮美食","address":"浦东新区碧波路635号上海传奇内(近张江地铁站)"},{"poiid":"B2094757D568ABF9499F","title":"张江科教园区","lon":"121.59095","lat":"31.19291","category":"52","category_name":"高等院校","address":"华佗路280弄"},{"poiid":"B2094655D26AAAFF409A","title":"康师傅私房牛肉面 张江店","lon":"121.584195054","lat":"31.201045793","category":"68","category_name":"快餐厅","address":"浦东新区碧波路635号上海传奇2楼17-19A(近张江地铁站)"},{"poiid":"B2094655D26AAAFE4893","title":"一茶一坐 张江高科店","lon":"121.584195054","lat":"31.201045793","category":"260","category_name":"其他","address":"浦东新区碧波路635号上海传奇2楼13-16A(近张江地铁站)"},{"poiid":"B2094757D06FA6FD479F","title":"东方既白(张江店)","lon":"121.58527636","lat":"31.200845826","category":"68","category_name":"快餐厅","address":"浦东新区碧波路635号上海传奇1楼104-204(近张江地铁站)"},{"poiid":"B2094757D068A6FC4499","title":"棒约翰比萨 张江店 Papa John's Pizza","lon":"121.584195054","lat":"31.201045793","category":"94","category_name":"西餐厅","address":"浦东新区碧波路635号上海传奇1楼(近张江地铁站)"},{"poiid":"B2094655D36DA6FF419F","title":"张江高科","lon":"121.58774","lat":"31.2019","category":"38","category_name":"公交车站","address":""},{"poiid":"B2094757D06AA1F4489C","title":"张江 稻香蛙","lon":"121.585074149","lat":"31.2004007151","category":"81","category_name":"湖北菜","address":"上海张江传奇广场内一楼"},{"poiid":"B2094757D068A1FF4592","title":"庆会楼(碧波路店)","lon":"121.5842","lat":"31.20025","category":"96","category_name":"韩国料理","address":"浦东新区碧波路635号上海传奇2楼1室(近张江高科地铁站)"},{"poiid":"B2094757D06FA0F4459D","title":"张江有轨电车1路","lon":"121.58672","lat":"31.2009","category":"38","category_name":"公交车站","address":"浦东新区张江地铁站－张东路金秋路(松涛路祖冲之路)"},{"poiid":"B2094757D068A7FA4099","title":"禾绿寿司(张江店)","lon":"121.58571","lat":"31.20057","category":"95","category_name":"日本料理","address":"浦东新区碧波路635号上海传奇2楼(近张江地铁站)"},{"poiid":"B2094654DB64A3F84998","title":"张江汤臣豪园(晨晖路)","lon":"121.58805","lat":"31.19902","category":"47","category_name":"住宅区","address":"上海市浦东新区晨晖路377弄"},{"poiid":"B2094655D36CA5FF4993","title":"晨晖路金科路","lon":"121.59992","lat":"31.20095","category":"38","category_name":"公交车站","address":""},{"poiid":"B2094757D069A1FB4198","title":"百草传奇(张江店)","lon":"121.58425","lat":"31.2002","category":"260","category_name":"其他","address":"浦东新区碧波路635号上海传奇1楼(近张江地铁站)"},{"poiid":"B2094757D06FAAFF4398","title":"庄氏隆兴私房面龙虾馆(张江店)","lon":"121.58604","lat":"31.2003","category":"68","category_name":"快餐厅","address":"浦东新区碧波路635号上海传奇2楼(近张江地铁站)"},{"poiid":"B2094750DB6AA5F8489E","title":"喜达石锅饭","lon":"121.58578","lat":"31.20057","category":"96","category_name":"韩国料理","address":"浦东新区碧波路635号传奇广场内(近张江地铁站)"},{"poiid":"B2094757D069A3FF469F","title":"上海中医药大学6号楼","lon":"121.592036975","lat":"31.1954202466","category":"253","category_name":"校园生活","address":"上海蔡伦路1200号"},{"poiid":"B2094655D36CA1F5429D","title":"科苑路华佗路","lon":"121.58997","lat":"31.19346","category":"38","category_name":"公交车站","address":""},{"poiid":"B2094757D064A5FD479E","title":"好乐迪(张江店)","lon":"121.585645","lat":"31.201016","category":"500","category_name":"未知分类","address":"浦东新区碧波路635号上海传奇2楼(近张江地铁站)"},{"poiid":"B2094757D16EA2FC499E","title":"张江高科实验小学(藿香校区)","lon":"121.59458234","lat":"31.201181852","category":"55","category_name":"中学","address":"上海浦东新区藿香路88号"},{"poiid":"B2094655D36CA5F8409B","title":"晨晖路藿香路","lon":"121.59452","lat":"31.19999","category":"38","category_name":"公交车站","address":""},{"poiid":"B2094757D568A6FB449D","title":"金蝶软件园","lon":"121.591658600001","lat":"31.1994727000003","category":"45","category_name":"产业园区","address":"浦东新区晨晖路88号"},{"poiid":"B2094757D66AA7F54298","title":"吉瑞家乡菜馆","lon":"121.59541","lat":"31.20016","category":"68","category_name":"快餐厅","address":"浦东新区晨晖路725弄114号(吉家市场旁)"},{"poiid":"B2094757D06BA4FF469E","title":"喜月中餐","lon":"121.58519375","lat":"31.201859217","category":"260","category_name":"其他","address":"上海浦东新区碧波路635号(近张江地铁站)"},{"poiid":"B2094655D26EA4F54293","title":"金晋三和面","lon":"121.584195054","lat":"31.201045793","category":"68","category_name":"快餐厅","address":"浦东新区碧波路635号上海传奇1楼16号(近张江地铁站)"},{"poiid":"B2094757D16FA3FE419B","title":"宝寿司 传奇广场店","lon":"121.583895","lat":"31.200807","category":"95","category_name":"日本料理","address":"浦东新区碧波路635号上海传奇2楼(近好乐迪)"},{"poiid":"B2094655D26AA6F4419B","title":"酷圣石 上海传奇店 Cold Stone Creamery","lon":"121.584195054","lat":"31.201045793","category":"113","category_name":"冷饮店","address":"浦东新区碧波路635号上海传奇1楼(近张江地铁站)"},{"poiid":"B2094655D26EA6FA419E","title":"顾姐小厨","lon":"121.584195054","lat":"31.201045793","category":"76","category_name":"上海菜","address":"浦东新区碧波路635号上海传奇1楼22-23B号(近张江地铁站)"}]