[{"poiid":"B2094654DA6DA0F4409E","title":"钱柜(天钥桥路)","lon":"121.44243","lat":"31.18517","category":"170","category_name":"KTV","address":"天钥桥路580号上海星游城购物中心1层17、5-6层"},{"poiid":"B2094655D268A6F44893","title":"星游城","lon":"121.44244","lat":"31.18517","category":"119","category_name":"商场","address":"上海徐汇区天钥桥路580号(近零陵路)"},{"poiid":"B2094750D66CAAFA429D","title":"鼎玖重庆老火锅（徐家汇店）","lon":"121.442588","lat":"31.185052","category":"86","category_name":"火锅店","address":"徐汇区天钥桥路580号星游城3楼06号铺(近零陵路)"},{"poiid":"B2094757D06FA3F8409F","title":"9车间川香工坊","lon":"121.44181","lat":"31.1825","category":"71","category_name":"四川菜","address":"徐汇区天钥桥路666号八万人体育场2号通道旁(近中山南二路)"},{"poiid":"B2094655D26AA1FF489F","title":"满记甜品星游城店","lon":"121.44244","lat":"31.18517","category":"67","category_name":"甜品店","address":"徐汇区天钥桥路580号星游城1楼101单元(近零陵路)"},{"poiid":"B2094757D06AA7FB4793","title":"八万人体育场二号扶梯","lon":"121.4418595","lat":"31.183572935","category":"35","category_name":"长途汽车站","address":"上海徐汇区零陵路斜土路八万人体育场北侧"},{"poiid":"B2094757D06FA6F9499A","title":"新辣道鱼火锅(星游城店)","lon":"121.441855186","lat":"31.1864893759","category":"86","category_name":"火锅店","address":"徐汇区天钥桥路580号星游城4楼(近零陵路)"},{"poiid":"B2094757D06FA2FE4593","title":"塔哈尔-新疆盛宴(徐家汇店)","lon":"121.44268","lat":"31.1855","category":"90","category_name":"清真餐馆","address":"徐汇区斜土路2701号102室(星游城对面)"},{"poiid":"B2094655D268A2F44993","title":"上海体育场(六号门)","lon":"121.44011","lat":"31.18315","category":"224","category_name":"综合体育馆","address":""},{"poiid":"B2094757D06FA0FA449B","title":"新农村饭庄","lon":"121.44276","lat":"31.18284","category":"76","category_name":"上海菜","address":"徐汇区天钥桥路666号八万人体育场2号通道旁(近中山南二路)"},{"poiid":"B2094757D06FA2FE409F","title":"望湘园(天钥桥店)","lon":"121.44296","lat":"31.18546","category":"77","category_name":"湖南菜","address":"徐汇区天钥桥路580号星游城3楼(近零陵路)"},{"poiid":"B2094757D06FA2FE489B","title":"尚一汤(星游城店)","lon":"121.442648826","lat":"31.1854978465","category":"72","category_name":"广东菜","address":"徐汇区天钥桥路580号星游城2楼14号(近零陵路)"},{"poiid":"B2094757D06FA3FB499D","title":"天钥桥食堂(徐汇店)","lon":"121.44305","lat":"31.18499","category":"95","category_name":"日本料理","address":"徐汇区天钥桥路580号星游城1楼-08(近零陵路)"},{"poiid":"B2094757D469A6FD439F","title":"避风塘 嘉汇广场店 Be For Time Tea House","lon":"121.442589054","lat":"31.186609793","category":"113","category_name":"冷饮店","address":"徐汇区斜土路2601号嘉汇广场T2-1楼(近南丹东路)"},{"poiid":"B2094757D06FA4F5499C","title":"KOTA'S KITCHEN(斜土路店)","lon":"121.44154","lat":"31.18431","category":"269","category_name":"烧烤","address":"徐汇区斜土路2905号(近零陵路)"},{"poiid":"B2094655D26AAAFB4798","title":"小杨生煎星游城店","lon":"121.44244","lat":"31.18517","category":"68","category_name":"快餐厅","address":"徐汇区天钥桥路580号星游城B1楼(近零陵路)"},{"poiid":"B2094757D06FA1FE489F","title":"唐韵秦风(天钥桥店)","lon":"121.44374","lat":"31.18525","category":"84","category_name":"西北菜","address":"徐汇区天钥桥路580号星游城4楼(近零陵路)"},{"poiid":"B2094757D06FA4F4479B","title":"和园日式烧烤(星游城店)","lon":"121.44286","lat":"31.18538","category":"269","category_name":"烧烤","address":"徐汇区天钥桥路580号星游城3楼(近零陵路)"},{"poiid":"B2094757D06FA0F5459E","title":"洋葱餐厅(星游城店)","lon":"121.44279","lat":"31.18534","category":"72","category_name":"广东菜","address":"徐汇区天钥桥路580号星游城3楼(近零陵路)"},{"poiid":"B2094757D06FA2F4419F","title":"上海体育场地铁站","lon":"121.44347061","lat":"31.185541522","category":"36","category_name":"地铁站","address":"上海轨道交通 四号线 轨交上海体育场站 轻轨 4"},{"poiid":"B2094655D26AA0F84193","title":"威尔士健身会所徐汇店","lon":"121.44244","lat":"31.18517","category":"221","category_name":"健身中心","address":"徐汇区天钥桥路580号星游城B2楼(近零陵路)"},{"poiid":"B2094655D26FA1FC4798","title":"味千拉面 体育场店","lon":"121.444098054","lat":"31.181753793","category":"95","category_name":"日本料理","address":"徐汇区天钥桥路666号世纪联华旁(近中山南二路)"},{"poiid":"B2094757D06FA5FF479B","title":"兜率宫(星游城店)","lon":"121.44301","lat":"31.18503","category":"86","category_name":"火锅店","address":"徐汇区天钥桥路580号星游城3楼(近零陵路)"},{"poiid":"B2094757D06FA1FF429D","title":"敦煌小亭(万体店)","lon":"121.442504","lat":"31.185277","category":"84","category_name":"西北菜","address":"徐汇区天钥桥路580号星游城B1楼(近零陵路)"},{"poiid":"B2094757D06FA5FD489E","title":"汇佳量贩桌游咖啡馆(徐家汇旗舰店)","lon":"121.442161703","lat":"31.1850688575","category":"175","category_name":"棋牌室","address":"上海市徐汇区斜土路2899号(星游城钱柜对面)"},{"poiid":"B2094655D26BA3FE4092","title":"小巴辣子 星游城店","lon":"121.442678054","lat":"31.185164793","category":"71","category_name":"四川菜","address":"徐汇区天钥桥路580号4楼(近零陵路)"},{"poiid":"B2094757D06FA2F54892","title":"一茶一坐(星游城店)","lon":"121.4431","lat":"31.18495","category":"260","category_name":"其他","address":"徐汇区天钥桥路580号星游城2楼(近零陵路)"},{"poiid":"B2094655D268A6F44892","title":"酷圣石 星游城店 Cold Stone Creamery","lon":"121.442678054","lat":"31.185164793","category":"67","category_name":"甜品店","address":"徐汇区天钥桥路580号星游城1楼07室(近零陵路)"},{"poiid":"B2094757D06FAAFC4992","title":"耐克足球公园","lon":"121.44049737","lat":"31.183140289","category":"220","category_name":"运动场所","address":"徐汇区零陵路800号万体馆6号门(近上海游泳馆)"},{"poiid":"B2094757D06FA6FA459C","title":"汇佳量贩桌游咖啡馆(万体馆店)","lon":"121.44004881","lat":"31.184520998","category":"175","category_name":"棋牌室","address":"上海市零陵路751弄11号"},{"poiid":"B2094757D068A2F4449E","title":"禾绿寿司(星游城店)","lon":"121.44222819","lat":"31.186081207","category":"247","category_name":"餐饮美食","address":"上海天钥桥路580号星游城地上四层08室"},{"poiid":"B2094757D068A6F4499A","title":"曼都发型(星游城店)","lon":"121.44353","lat":"31.18448","category":"148","category_name":"美容美发店","address":"徐汇区天钥桥路580号星游城2楼(近零陵路)"},{"poiid":"B2094757D164A6FE419A","title":"上海东亚体育文化中心","lon":"121.441654386","lat":"31.1828278043","category":"500","category_name":"未知分类","address":"徐汇区漕溪北路1111号"},{"poiid":"B2094757D06FA5F84792","title":"星游城游艺广场","lon":"121.44276458","lat":"31.185532557","category":"173","category_name":"游戏厅","address":"徐汇区天钥桥路580号星游城B1楼(近零陵路)"},{"poiid":"B2094757D66AABFC499B","title":"富豪东亚富丽轩","lon":"121.442253","lat":"31.183962","category":"72","category_name":"广东菜","address":"零陵路800号富豪东亚酒店1楼近天钥桥路"},{"poiid":"B2094750D464A6F8479B","title":"八万人体育馆","lon":"121.440307","lat":"31.183748","category":"627","category_name":"一般地点标志","address":null},{"poiid":"B2094757D76CA3F5469F","title":"谷田稻香 天钥桥店 GOODTIME","lon":"121.442644054","lat":"31.185170793","category":"68","category_name":"快餐厅","address":"徐汇区天钥桥路580号星游城B1楼36号(近零陵路)"},{"poiid":"B2094654DA6DA1FF4393","title":"金谷园","lon":"121.443","lat":"31.1829","category":"47","category_name":"住宅区","address":"上海漕溪路125弄"},{"poiid":"B2094750D76FA5FD4692","title":"食其家(星游城店)","lon":"121.443","lat":"31.1853","category":"95","category_name":"日本料理","address":"徐汇区天钥桥路580号星游城B1楼(近零陵路)"},{"poiid":"B209475CDB6EAAFE4798","title":"Momo Paradise","lon":"121.442893","lat":"31.185441","category":"500","category_name":"未知分类","address":"上海市 天钥桥路580号星游城2楼"},{"poiid":"B2094655D36CA1F9479A","title":"零陵路上海体育馆","lon":"121.44073","lat":"31.18373","category":"38","category_name":"公交车站","address":""},{"poiid":"B209475CD569AAFE429E","title":"金爸爸","lon":"121.442016","lat":"31.184408","category":"247","category_name":"餐饮美食","address":"上海市 星游城"},{"poiid":"B2094654DB64AAF4489B","title":"富驿时尚酒店(上海徐家汇店)","lon":"121.44212","lat":"31.18565","category":"216","category_name":"经济型连锁酒店","address":"上海市徐汇区斜土路2701号(近天钥桥路)"},{"poiid":"B2094654DB6AA7FB4098","title":"烟雨江南茶艺酒吧 徐汇店","lon":"121.442678054","lat":"31.185164793","category":"247","category_name":"餐饮美食","address":"天钥桥路580号星游城3楼近零陵路"},{"poiid":"B2094757D068A7FC419A","title":"顶尚•桌球俱乐部","lon":"121.442362","lat":"31.185318","category":"500","category_name":"未知分类","address":"徐汇区天钥桥路580号星游城4楼(近零陵路)"},{"poiid":"B2094655D26AA4F4469A","title":"钱柜茶餐厅 星游城店","lon":"121.442678054","lat":"31.185164793","category":"247","category_name":"餐饮美食","address":"徐汇区天钥桥路580号星游城2楼(近零陵路)"},{"poiid":"B2094750D66FA2FD449D","title":"阿迪达斯足球公园","lon":"121.441726","lat":"31.184268","category":"230","category_name":"足球场","address":"徐汇区天钥桥路666号八万人体育场外场"},{"poiid":"B2094757D069A0FC4193","title":"东哥面包DONQ BAKERY","lon":"121.44188358","lat":"31.186161569","category":"247","category_name":"餐饮美食","address":"上海徐汇区天钥桥路568号"},{"poiid":"B2094750D76DA3FC489A","title":"禾绿回转寿司(星游城店)","lon":"121.443","lat":"31.1858","category":"95","category_name":"日本料理","address":"徐汇区天钥桥路580号星游城4楼(近零陵路)"},{"poiid":"B209475DD165A4F4489A","title":"momo牧场日式料理","lon":"121.443222","lat":"31.185234","category":"247","category_name":"餐饮美食","address":"上海市 星游城F2"},{"poiid":"B2094654DA6DA0F4409E","title":"钱柜(天钥桥路)","lon":"121.44243","lat":"31.18517","category":"170","category_name":"KTV","address":"天钥桥路580号上海星游城购物中心1层17、5-6层"},{"poiid":"B2094655D268A6F44893","title":"星游城","lon":"121.44244","lat":"31.18517","category":"119","category_name":"商场","address":"上海徐汇区天钥桥路580号(近零陵路)"},{"poiid":"B2094750D66CAAFA429D","title":"鼎玖重庆老火锅（徐家汇店）","lon":"121.442588","lat":"31.185052","category":"86","category_name":"火锅店","address":"徐汇区天钥桥路580号星游城3楼06号铺(近零陵路)"},{"poiid":"B2094757D06FA3F8409F","title":"9车间川香工坊","lon":"121.44181","lat":"31.1825","category":"71","category_name":"四川菜","address":"徐汇区天钥桥路666号八万人体育场2号通道旁(近中山南二路)"},{"poiid":"B2094655D26AA1FF489F","title":"满记甜品星游城店","lon":"121.44244","lat":"31.18517","category":"67","category_name":"甜品店","address":"徐汇区天钥桥路580号星游城1楼101单元(近零陵路)"},{"poiid":"B2094757D06AA7FB4793","title":"八万人体育场二号扶梯","lon":"121.4418595","lat":"31.183572935","category":"35","category_name":"长途汽车站","address":"上海徐汇区零陵路斜土路八万人体育场北侧"},{"poiid":"B2094757D06FA6F9499A","title":"新辣道鱼火锅(星游城店)","lon":"121.441855186","lat":"31.1864893759","category":"86","category_name":"火锅店","address":"徐汇区天钥桥路580号星游城4楼(近零陵路)"},{"poiid":"B2094757D06FA2FE4593","title":"塔哈尔-新疆盛宴(徐家汇店)","lon":"121.44268","lat":"31.1855","category":"90","category_name":"清真餐馆","address":"徐汇区斜土路2701号102室(星游城对面)"},{"poiid":"B2094655D268A2F44993","title":"上海体育场(六号门)","lon":"121.44011","lat":"31.18315","category":"224","category_name":"综合体育馆","address":""},{"poiid":"B2094757D06FA0FA449B","title":"新农村饭庄","lon":"121.44276","lat":"31.18284","category":"76","category_name":"上海菜","address":"徐汇区天钥桥路666号八万人体育场2号通道旁(近中山南二路)"},{"poiid":"B2094757D06FA2FE409F","title":"望湘园(天钥桥店)","lon":"121.44296","lat":"31.18546","category":"77","category_name":"湖南菜","address":"徐汇区天钥桥路580号星游城3楼(近零陵路)"},{"poiid":"B2094757D06FA2FE489B","title":"尚一汤(星游城店)","lon":"121.442648826","lat":"31.1854978465","category":"72","category_name":"广东菜","address":"徐汇区天钥桥路580号星游城2楼14号(近零陵路)"},{"poiid":"B2094757D06FA3FB499D","title":"天钥桥食堂(徐汇店)","lon":"121.44305","lat":"31.18499","category":"95","category_name":"日本料理","address":"徐汇区天钥桥路580号星游城1楼-08(近零陵路)"},{"poiid":"B2094757D469A6FD439F","title":"避风塘 嘉汇广场店 Be For Time Tea House","lon":"121.442589054","lat":"31.186609793","category":"113","category_name":"冷饮店","address":"徐汇区斜土路2601号嘉汇广场T2-1楼(近南丹东路)"},{"poiid":"B2094757D06FA4F5499C","title":"KOTA'S KITCHEN(斜土路店)","lon":"121.44154","lat":"31.18431","category":"269","category_name":"烧烤","address":"徐汇区斜土路2905号(近零陵路)"},{"poiid":"B2094655D26AAAFB4798","title":"小杨生煎星游城店","lon":"121.44244","lat":"31.18517","category":"68","category_name":"快餐厅","address":"徐汇区天钥桥路580号星游城B1楼(近零陵路)"},{"poiid":"B2094757D06FA1FE489F","title":"唐韵秦风(天钥桥店)","lon":"121.44374","lat":"31.18525","category":"84","category_name":"西北菜","address":"徐汇区天钥桥路580号星游城4楼(近零陵路)"},{"poiid":"B2094757D06FA4F4479B","title":"和园日式烧烤(星游城店)","lon":"121.44286","lat":"31.18538","category":"269","category_name":"烧烤","address":"徐汇区天钥桥路580号星游城3楼(近零陵路)"},{"poiid":"B2094757D06FA0F5459E","title":"洋葱餐厅(星游城店)","lon":"121.44279","lat":"31.18534","category":"72","category_name":"广东菜","address":"徐汇区天钥桥路580号星游城3楼(近零陵路)"},{"poiid":"B2094757D06FA2F4419F","title":"上海体育场地铁站","lon":"121.44347061","lat":"31.185541522","category":"36","category_name":"地铁站","address":"上海轨道交通 四号线 轨交上海体育场站 轻轨 4"},{"poiid":"B2094655D26AA0F84193","title":"威尔士健身会所徐汇店","lon":"121.44244","lat":"31.18517","category":"221","category_name":"健身中心","address":"徐汇区天钥桥路580号星游城B2楼(近零陵路)"},{"poiid":"B2094655D26FA1FC4798","title":"味千拉面 体育场店","lon":"121.444098054","lat":"31.181753793","category":"95","category_name":"日本料理","address":"徐汇区天钥桥路666号世纪联华旁(近中山南二路)"},{"poiid":"B2094757D06FA5FF479B","title":"兜率宫(星游城店)","lon":"121.44301","lat":"31.18503","category":"86","category_name":"火锅店","address":"徐汇区天钥桥路580号星游城3楼(近零陵路)"},{"poiid":"B2094757D06FA1FF429D","title":"敦煌小亭(万体店)","lon":"121.442504","lat":"31.185277","category":"84","category_name":"西北菜","address":"徐汇区天钥桥路580号星游城B1楼(近零陵路)"},{"poiid":"B2094757D06FA5FD489E","title":"汇佳量贩桌游咖啡馆(徐家汇旗舰店)","lon":"121.442161703","lat":"31.1850688575","category":"175","category_name":"棋牌室","address":"上海市徐汇区斜土路2899号(星游城钱柜对面)"},{"poiid":"B2094655D26BA3FE4092","title":"小巴辣子 星游城店","lon":"121.442678054","lat":"31.185164793","category":"71","category_name":"四川菜","address":"徐汇区天钥桥路580号4楼(近零陵路)"},{"poiid":"B2094757D06FA2F54892","title":"一茶一坐(星游城店)","lon":"121.4431","lat":"31.18495","category":"260","category_name":"其他","address":"徐汇区天钥桥路580号星游城2楼(近零陵路)"},{"poiid":"B2094655D268A6F44892","title":"酷圣石 星游城店 Cold Stone Creamery","lon":"121.442678054","lat":"31.185164793","category":"67","category_name":"甜品店","address":"徐汇区天钥桥路580号星游城1楼07室(近零陵路)"},{"poiid":"B2094757D06FAAFC4992","title":"耐克足球公园","lon":"121.44049737","lat":"31.183140289","category":"220","category_name":"运动场所","address":"徐汇区零陵路800号万体馆6号门(近上海游泳馆)"},{"poiid":"B2094757D06FA6FA459C","title":"汇佳量贩桌游咖啡馆(万体馆店)","lon":"121.44004881","lat":"31.184520998","category":"175","category_name":"棋牌室","address":"上海市零陵路751弄11号"},{"poiid":"B2094757D068A2F4449E","title":"禾绿寿司(星游城店)","lon":"121.44222819","lat":"31.186081207","category":"247","category_name":"餐饮美食","address":"上海天钥桥路580号星游城地上四层08室"},{"poiid":"B2094757D068A6F4499A","title":"曼都发型(星游城店)","lon":"121.44353","lat":"31.18448","category":"148","category_name":"美容美发店","address":"徐汇区天钥桥路580号星游城2楼(近零陵路)"},{"poiid":"B2094757D164A6FE419A","title":"上海东亚体育文化中心","lon":"121.441654386","lat":"31.1828278043","category":"500","category_name":"未知分类","address":"徐汇区漕溪北路1111号"},{"poiid":"B2094757D06FA5F84792","title":"星游城游艺广场","lon":"121.44276458","lat":"31.185532557","category":"173","category_name":"游戏厅","address":"徐汇区天钥桥路580号星游城B1楼(近零陵路)"},{"poiid":"B2094757D66AABFC499B","title":"富豪东亚富丽轩","lon":"121.442253","lat":"31.183962","category":"72","category_name":"广东菜","address":"零陵路800号富豪东亚酒店1楼近天钥桥路"},{"poiid":"B2094750D464A6F8479B","title":"八万人体育馆","lon":"121.440307","lat":"31.183748","category":"627","category_name":"一般地点标志","address":null},{"poiid":"B2094757D76CA3F5469F","title":"谷田稻香 天钥桥店 GOODTIME","lon":"121.442644054","lat":"31.185170793","category":"68","category_name":"快餐厅","address":"徐汇区天钥桥路580号星游城B1楼36号(近零陵路)"},{"poiid":"B2094654DA6DA1FF4393","title":"金谷园","lon":"121.443","lat":"31.1829","category":"47","category_name":"住宅区","address":"上海漕溪路125弄"},{"poiid":"B2094750D76FA5FD4692","title":"食其家(星游城店)","lon":"121.443","lat":"31.1853","category":"95","category_name":"日本料理","address":"徐汇区天钥桥路580号星游城B1楼(近零陵路)"},{"poiid":"B209475CDB6EAAFE4798","title":"Momo Paradise","lon":"121.442893","lat":"31.185441","category":"500","category_name":"未知分类","address":"上海市 天钥桥路580号星游城2楼"},{"poiid":"B2094655D36CA1F9479A","title":"零陵路上海体育馆","lon":"121.44073","lat":"31.18373","category":"38","category_name":"公交车站","address":""},{"poiid":"B209475CD569AAFE429E","title":"金爸爸","lon":"121.442016","lat":"31.184408","category":"247","category_name":"餐饮美食","address":"上海市 星游城"},{"poiid":"B2094654DB64AAF4489B","title":"富驿时尚酒店(上海徐家汇店)","lon":"121.44212","lat":"31.18565","category":"216","category_name":"经济型连锁酒店","address":"上海市徐汇区斜土路2701号(近天钥桥路)"},{"poiid":"B2094654DB6AA7FB4098","title":"烟雨江南茶艺酒吧 徐汇店","lon":"121.442678054","lat":"31.185164793","category":"247","category_name":"餐饮美食","address":"天钥桥路580号星游城3楼近零陵路"},{"poiid":"B2094757D068A7FC419A","title":"顶尚•桌球俱乐部","lon":"121.442362","lat":"31.185318","category":"500","category_name":"未知分类","address":"徐汇区天钥桥路580号星游城4楼(近零陵路)"},{"poiid":"B2094655D26AA4F4469A","title":"钱柜茶餐厅 星游城店","lon":"121.442678054","lat":"31.185164793","category":"247","category_name":"餐饮美食","address":"徐汇区天钥桥路580号星游城2楼(近零陵路)"},{"poiid":"B2094750D66FA2FD449D","title":"阿迪达斯足球公园","lon":"121.441726","lat":"31.184268","category":"230","category_name":"足球场","address":"徐汇区天钥桥路666号八万人体育场外场"},{"poiid":"B2094757D069A0FC4193","title":"东哥面包DONQ BAKERY","lon":"121.44188358","lat":"31.186161569","category":"247","category_name":"餐饮美食","address":"上海徐汇区天钥桥路568号"},{"poiid":"B2094750D76DA3FC489A","title":"禾绿回转寿司(星游城店)","lon":"121.443","lat":"31.1858","category":"95","category_name":"日本料理","address":"徐汇区天钥桥路580号星游城4楼(近零陵路)"},{"poiid":"B209475DD165A4F4489A","title":"momo牧场日式料理","lon":"121.443222","lat":"31.185234","category":"247","category_name":"餐饮美食","address":"上海市 星游城F2"},{"poiid":"B2094654DA6DA0F4409E","title":"钱柜(天钥桥路)","lon":"121.44243","lat":"31.18517","category":"170","category_name":"KTV","address":"天钥桥路580号上海星游城购物中心1层17、5-6层"},{"poiid":"B2094655D268A6F44893","title":"星游城","lon":"121.44244","lat":"31.18517","category":"119","category_name":"商场","address":"上海徐汇区天钥桥路580号(近零陵路)"},{"poiid":"B2094750D66CAAFA429D","title":"鼎玖重庆老火锅（徐家汇店）","lon":"121.442588","lat":"31.185052","category":"86","category_name":"火锅店","address":"徐汇区天钥桥路580号星游城3楼06号铺(近零陵路)"},{"poiid":"B2094757D06FA3F8409F","title":"9车间川香工坊","lon":"121.44181","lat":"31.1825","category":"71","category_name":"四川菜","address":"徐汇区天钥桥路666号八万人体育场2号通道旁(近中山南二路)"},{"poiid":"B2094655D26AA1FF489F","title":"满记甜品星游城店","lon":"121.44244","lat":"31.18517","category":"67","category_name":"甜品店","address":"徐汇区天钥桥路580号星游城1楼101单元(近零陵路)"},{"poiid":"B2094757D06AA7FB4793","title":"八万人体育场二号扶梯","lon":"121.4418595","lat":"31.183572935","category":"35","category_name":"长途汽车站","address":"上海徐汇区零陵路斜土路八万人体育场北侧"},{"poiid":"B2094757D06FA6F9499A","title":"新辣道鱼火锅(星游城店)","lon":"121.441855186","lat":"31.1864893759","category":"86","category_name":"火锅店","address":"徐汇区天钥桥路580号星游城4楼(近零陵路)"},{"poiid":"B2094757D06FA2FE4593","title":"塔哈尔-新疆盛宴(徐家汇店)","lon":"121.44268","lat":"31.1855","category":"90","category_name":"清真餐馆","address":"徐汇区斜土路2701号102室(星游城对面)"},{"poiid":"B2094655D268A2F44993","title":"上海体育场(六号门)","lon":"121.44011","lat":"31.18315","category":"224","category_name":"综合体育馆","address":""},{"poiid":"B2094757D06FA0FA449B","title":"新农村饭庄","lon":"121.44276","lat":"31.18284","category":"76","category_name":"上海菜","address":"徐汇区天钥桥路666号八万人体育场2号通道旁(近中山南二路)"},{"poiid":"B2094757D06FA2FE409F","title":"望湘园(天钥桥店)","lon":"121.44296","lat":"31.18546","category":"77","category_name":"湖南菜","address":"徐汇区天钥桥路580号星游城3楼(近零陵路)"},{"poiid":"B2094757D06FA2FE489B","title":"尚一汤(星游城店)","lon":"121.442648826","lat":"31.1854978465","category":"72","category_name":"广东菜","address":"徐汇区天钥桥路580号星游城2楼14号(近零陵路)"},{"poiid":"B2094757D06FA3FB499D","title":"天钥桥食堂(徐汇店)","lon":"121.44305","lat":"31.18499","category":"95","category_name":"日本料理","address":"徐汇区天钥桥路580号星游城1楼-08(近零陵路)"},{"poiid":"B2094757D469A6FD439F","title":"避风塘 嘉汇广场店 Be For Time Tea House","lon":"121.442589054","lat":"31.186609793","category":"113","category_name":"冷饮店","address":"徐汇区斜土路2601号嘉汇广场T2-1楼(近南丹东路)"},{"poiid":"B2094757D06FA4F5499C","title":"KOTA'S KITCHEN(斜土路店)","lon":"121.44154","lat":"31.18431","category":"269","category_name":"烧烤","address":"徐汇区斜土路2905号(近零陵路)"},{"poiid":"B2094655D26AAAFB4798","title":"小杨生煎星游城店","lon":"121.44244","lat":"31.18517","category":"68","category_name":"快餐厅","address":"徐汇区天钥桥路580号星游城B1楼(近零陵路)"},{"poiid":"B2094757D06FA1FE489F","title":"唐韵秦风(天钥桥店)","lon":"121.44374","lat":"31.18525","category":"84","category_name":"西北菜","address":"徐汇区天钥桥路580号星游城4楼(近零陵路)"},{"poiid":"B2094757D06FA4F4479B","title":"和园日式烧烤(星游城店)","lon":"121.44286","lat":"31.18538","category":"269","category_name":"烧烤","address":"徐汇区天钥桥路580号星游城3楼(近零陵路)"},{"poiid":"B2094757D06FA0F5459E","title":"洋葱餐厅(星游城店)","lon":"121.44279","lat":"31.18534","category":"72","category_name":"广东菜","address":"徐汇区天钥桥路580号星游城3楼(近零陵路)"},{"poiid":"B2094757D06FA2F4419F","title":"上海体育场地铁站","lon":"121.44347061","lat":"31.185541522","category":"36","category_name":"地铁站","address":"上海轨道交通 四号线 轨交上海体育场站 轻轨 4"},{"poiid":"B2094655D26AA0F84193","title":"威尔士健身会所徐汇店","lon":"121.44244","lat":"31.18517","category":"221","category_name":"健身中心","address":"徐汇区天钥桥路580号星游城B2楼(近零陵路)"},{"poiid":"B2094655D26FA1FC4798","title":"味千拉面 体育场店","lon":"121.444098054","lat":"31.181753793","category":"95","category_name":"日本料理","address":"徐汇区天钥桥路666号世纪联华旁(近中山南二路)"},{"poiid":"B2094757D06FA5FF479B","title":"兜率宫(星游城店)","lon":"121.44301","lat":"31.18503","category":"86","category_name":"火锅店","address":"徐汇区天钥桥路580号星游城3楼(近零陵路)"},{"poiid":"B2094757D06FA1FF429D","title":"敦煌小亭(万体店)","lon":"121.442504","lat":"31.185277","category":"84","category_name":"西北菜","address":"徐汇区天钥桥路580号星游城B1楼(近零陵路)"},{"poiid":"B2094757D06FA5FD489E","title":"汇佳量贩桌游咖啡馆(徐家汇旗舰店)","lon":"121.442161703","lat":"31.1850688575","category":"175","category_name":"棋牌室","address":"上海市徐汇区斜土路2899号(星游城钱柜对面)"},{"poiid":"B2094655D26BA3FE4092","title":"小巴辣子 星游城店","lon":"121.442678054","lat":"31.185164793","category":"71","category_name":"四川菜","address":"徐汇区天钥桥路580号4楼(近零陵路)"},{"poiid":"B2094757D06FA2F54892","title":"一茶一坐(星游城店)","lon":"121.4431","lat":"31.18495","category":"260","category_name":"其他","address":"徐汇区天钥桥路580号星游城2楼(近零陵路)"},{"poiid":"B2094655D268A6F44892","title":"酷圣石 星游城店 Cold Stone Creamery","lon":"121.442678054","lat":"31.185164793","category":"67","category_name":"甜品店","address":"徐汇区天钥桥路580号星游城1楼07室(近零陵路)"},{"poiid":"B2094757D06FAAFC4992","title":"耐克足球公园","lon":"121.44049737","lat":"31.183140289","category":"220","category_name":"运动场所","address":"徐汇区零陵路800号万体馆6号门(近上海游泳馆)"},{"poiid":"B2094757D06FA6FA459C","title":"汇佳量贩桌游咖啡馆(万体馆店)","lon":"121.44004881","lat":"31.184520998","category":"175","category_name":"棋牌室","address":"上海市零陵路751弄11号"},{"poiid":"B2094757D068A2F4449E","title":"禾绿寿司(星游城店)","lon":"121.44222819","lat":"31.186081207","category":"247","category_name":"餐饮美食","address":"上海天钥桥路580号星游城地上四层08室"},{"poiid":"B2094757D068A6F4499A","title":"曼都发型(星游城店)","lon":"121.44353","lat":"31.18448","category":"148","category_name":"美容美发店","address":"徐汇区天钥桥路580号星游城2楼(近零陵路)"},{"poiid":"B2094757D164A6FE419A","title":"上海东亚体育文化中心","lon":"121.441654386","lat":"31.1828278043","category":"500","category_name":"未知分类","address":"徐汇区漕溪北路1111号"},{"poiid":"B2094757D06FA5F84792","title":"星游城游艺广场","lon":"121.44276458","lat":"31.185532557","category":"173","category_name":"游戏厅","address":"徐汇区天钥桥路580号星游城B1楼(近零陵路)"},{"poiid":"B2094757D66AABFC499B","title":"富豪东亚富丽轩","lon":"121.442253","lat":"31.183962","category":"72","category_name":"广东菜","address":"零陵路800号富豪东亚酒店1楼近天钥桥路"},{"poiid":"B2094750D464A6F8479B","title":"八万人体育馆","lon":"121.440307","lat":"31.183748","category":"627","category_name":"一般地点标志","address":null},{"poiid":"B2094757D76CA3F5469F","title":"谷田稻香 天钥桥店 GOODTIME","lon":"121.442644054","lat":"31.185170793","category":"68","category_name":"快餐厅","address":"徐汇区天钥桥路580号星游城B1楼36号(近零陵路)"},{"poiid":"B2094654DA6DA1FF4393","title":"金谷园","lon":"121.443","lat":"31.1829","category":"47","category_name":"住宅区","address":"上海漕溪路125弄"},{"poiid":"B2094750D76FA5FD4692","title":"食其家(星游城店)","lon":"121.443","lat":"31.1853","category":"95","category_name":"日本料理","address":"徐汇区天钥桥路580号星游城B1楼(近零陵路)"},{"poiid":"B209475CDB6EAAFE4798","title":"Momo Paradise","lon":"121.442893","lat":"31.185441","category":"500","category_name":"未知分类","address":"上海市 天钥桥路580号星游城2楼"},{"poiid":"B2094655D36CA1F9479A","title":"零陵路上海体育馆","lon":"121.44073","lat":"31.18373","category":"38","category_name":"公交车站","address":""},{"poiid":"B209475CD569AAFE429E","title":"金爸爸","lon":"121.442016","lat":"31.184408","category":"247","category_name":"餐饮美食","address":"上海市 星游城"},{"poiid":"B2094654DB64AAF4489B","title":"富驿时尚酒店(上海徐家汇店)","lon":"121.44212","lat":"31.18565","category":"216","category_name":"经济型连锁酒店","address":"上海市徐汇区斜土路2701号(近天钥桥路)"},{"poiid":"B2094654DB6AA7FB4098","title":"烟雨江南茶艺酒吧 徐汇店","lon":"121.442678054","lat":"31.185164793","category":"247","category_name":"餐饮美食","address":"天钥桥路580号星游城3楼近零陵路"},{"poiid":"B2094757D068A7FC419A","title":"顶尚•桌球俱乐部","lon":"121.442362","lat":"31.185318","category":"500","category_name":"未知分类","address":"徐汇区天钥桥路580号星游城4楼(近零陵路)"},{"poiid":"B2094655D26AA4F4469A","title":"钱柜茶餐厅 星游城店","lon":"121.442678054","lat":"31.185164793","category":"247","category_name":"餐饮美食","address":"徐汇区天钥桥路580号星游城2楼(近零陵路)"},{"poiid":"B2094750D66FA2FD449D","title":"阿迪达斯足球公园","lon":"121.441726","lat":"31.184268","category":"230","category_name":"足球场","address":"徐汇区天钥桥路666号八万人体育场外场"},{"poiid":"B2094757D069A0FC4193","title":"东哥面包DONQ BAKERY","lon":"121.44188358","lat":"31.186161569","category":"247","category_name":"餐饮美食","address":"上海徐汇区天钥桥路568号"},{"poiid":"B2094750D76DA3FC489A","title":"禾绿回转寿司(星游城店)","lon":"121.443","lat":"31.1858","category":"95","category_name":"日本料理","address":"徐汇区天钥桥路580号星游城4楼(近零陵路)"},{"poiid":"B209475DD165A4F4489A","title":"momo牧场日式料理","lon":"121.443222","lat":"31.185234","category":"247","category_name":"餐饮美食","address":"上海市 星游城F2"},{"poiid":"B2094654DA6DA0F4409E","title":"钱柜(天钥桥路)","lon":"121.44243","lat":"31.18517","category":"170","category_name":"KTV","address":"天钥桥路580号上海星游城购物中心1层17、5-6层"},{"poiid":"B2094655D268A6F44893","title":"星游城","lon":"121.44244","lat":"31.18517","category":"119","category_name":"商场","address":"上海徐汇区天钥桥路580号(近零陵路)"},{"poiid":"B2094750D66CAAFA429D","title":"鼎玖重庆老火锅（徐家汇店）","lon":"121.442588","lat":"31.185052","category":"86","category_name":"火锅店","address":"徐汇区天钥桥路580号星游城3楼06号铺(近零陵路)"},{"poiid":"B2094757D06FA3F8409F","title":"9车间川香工坊","lon":"121.44181","lat":"31.1825","category":"71","category_name":"四川菜","address":"徐汇区天钥桥路666号八万人体育场2号通道旁(近中山南二路)"},{"poiid":"B2094655D26AA1FF489F","title":"满记甜品星游城店","lon":"121.44244","lat":"31.18517","category":"67","category_name":"甜品店","address":"徐汇区天钥桥路580号星游城1楼101单元(近零陵路)"},{"poiid":"B2094757D06AA7FB4793","title":"八万人体育场二号扶梯","lon":"121.4418595","lat":"31.183572935","category":"35","category_name":"长途汽车站","address":"上海徐汇区零陵路斜土路八万人体育场北侧"},{"poiid":"B2094757D06FA6F9499A","title":"新辣道鱼火锅(星游城店)","lon":"121.441855186","lat":"31.1864893759","category":"86","category_name":"火锅店","address":"徐汇区天钥桥路580号星游城4楼(近零陵路)"},{"poiid":"B2094757D06FA2FE4593","title":"塔哈尔-新疆盛宴(徐家汇店)","lon":"121.44268","lat":"31.1855","category":"90","category_name":"清真餐馆","address":"徐汇区斜土路2701号102室(星游城对面)"},{"poiid":"B2094655D268A2F44993","title":"上海体育场(六号门)","lon":"121.44011","lat":"31.18315","category":"224","category_name":"综合体育馆","address":""},{"poiid":"B2094757D06FA0FA449B","title":"新农村饭庄","lon":"121.44276","lat":"31.18284","category":"76","category_name":"上海菜","address":"徐汇区天钥桥路666号八万人体育场2号通道旁(近中山南二路)"},{"poiid":"B2094757D06FA2FE409F","title":"望湘园(天钥桥店)","lon":"121.44296","lat":"31.18546","category":"77","category_name":"湖南菜","address":"徐汇区天钥桥路580号星游城3楼(近零陵路)"},{"poiid":"B2094757D06FA2FE489B","title":"尚一汤(星游城店)","lon":"121.442648826","lat":"31.1854978465","category":"72","category_name":"广东菜","address":"徐汇区天钥桥路580号星游城2楼14号(近零陵路)"},{"poiid":"B2094757D06FA3FB499D","title":"天钥桥食堂(徐汇店)","lon":"121.44305","lat":"31.18499","category":"95","category_name":"日本料理","address":"徐汇区天钥桥路580号星游城1楼-08(近零陵路)"},{"poiid":"B2094757D469A6FD439F","title":"避风塘 嘉汇广场店 Be For Time Tea House","lon":"121.442589054","lat":"31.186609793","category":"113","category_name":"冷饮店","address":"徐汇区斜土路2601号嘉汇广场T2-1楼(近南丹东路)"},{"poiid":"B2094757D06FA4F5499C","title":"KOTA'S KITCHEN(斜土路店)","lon":"121.44154","lat":"31.18431","category":"269","category_name":"烧烤","address":"徐汇区斜土路2905号(近零陵路)"},{"poiid":"B2094655D26AAAFB4798","title":"小杨生煎星游城店","lon":"121.44244","lat":"31.18517","category":"68","category_name":"快餐厅","address":"徐汇区天钥桥路580号星游城B1楼(近零陵路)"},{"poiid":"B2094757D06FA1FE489F","title":"唐韵秦风(天钥桥店)","lon":"121.44374","lat":"31.18525","category":"84","category_name":"西北菜","address":"徐汇区天钥桥路580号星游城4楼(近零陵路)"},{"poiid":"B2094757D06FA4F4479B","title":"和园日式烧烤(星游城店)","lon":"121.44286","lat":"31.18538","category":"269","category_name":"烧烤","address":"徐汇区天钥桥路580号星游城3楼(近零陵路)"},{"poiid":"B2094757D06FA0F5459E","title":"洋葱餐厅(星游城店)","lon":"121.44279","lat":"31.18534","category":"72","category_name":"广东菜","address":"徐汇区天钥桥路580号星游城3楼(近零陵路)"},{"poiid":"B2094757D06FA2F4419F","title":"上海体育场地铁站","lon":"121.44347061","lat":"31.185541522","category":"36","category_name":"地铁站","address":"上海轨道交通 四号线 轨交上海体育场站 轻轨 4"},{"poiid":"B2094655D26AA0F84193","title":"威尔士健身会所徐汇店","lon":"121.44244","lat":"31.18517","category":"221","category_name":"健身中心","address":"徐汇区天钥桥路580号星游城B2楼(近零陵路)"},{"poiid":"B2094655D26FA1FC4798","title":"味千拉面 体育场店","lon":"121.444098054","lat":"31.181753793","category":"95","category_name":"日本料理","address":"徐汇区天钥桥路666号世纪联华旁(近中山南二路)"},{"poiid":"B2094757D06FA5FF479B","title":"兜率宫(星游城店)","lon":"121.44301","lat":"31.18503","category":"86","category_name":"火锅店","address":"徐汇区天钥桥路580号星游城3楼(近零陵路)"},{"poiid":"B2094757D06FA1FF429D","title":"敦煌小亭(万体店)","lon":"121.442504","lat":"31.185277","category":"84","category_name":"西北菜","address":"徐汇区天钥桥路580号星游城B1楼(近零陵路)"},{"poiid":"B2094757D06FA5FD489E","title":"汇佳量贩桌游咖啡馆(徐家汇旗舰店)","lon":"121.442161703","lat":"31.1850688575","category":"175","category_name":"棋牌室","address":"上海市徐汇区斜土路2899号(星游城钱柜对面)"},{"poiid":"B2094655D26BA3FE4092","title":"小巴辣子 星游城店","lon":"121.442678054","lat":"31.185164793","category":"71","category_name":"四川菜","address":"徐汇区天钥桥路580号4楼(近零陵路)"},{"poiid":"B2094757D06FA2F54892","title":"一茶一坐(星游城店)","lon":"121.4431","lat":"31.18495","category":"260","category_name":"其他","address":"徐汇区天钥桥路580号星游城2楼(近零陵路)"},{"poiid":"B2094655D268A6F44892","title":"酷圣石 星游城店 Cold Stone Creamery","lon":"121.442678054","lat":"31.185164793","category":"67","category_name":"甜品店","address":"徐汇区天钥桥路580号星游城1楼07室(近零陵路)"},{"poiid":"B2094757D06FAAFC4992","title":"耐克足球公园","lon":"121.44049737","lat":"31.183140289","category":"220","category_name":"运动场所","address":"徐汇区零陵路800号万体馆6号门(近上海游泳馆)"},{"poiid":"B2094757D06FA6FA459C","title":"汇佳量贩桌游咖啡馆(万体馆店)","lon":"121.44004881","lat":"31.184520998","category":"175","category_name":"棋牌室","address":"上海市零陵路751弄11号"},{"poiid":"B2094757D068A2F4449E","title":"禾绿寿司(星游城店)","lon":"121.44222819","lat":"31.186081207","category":"247","category_name":"餐饮美食","address":"上海天钥桥路580号星游城地上四层08室"},{"poiid":"B2094757D068A6F4499A","title":"曼都发型(星游城店)","lon":"121.44353","lat":"31.18448","category":"148","category_name":"美容美发店","address":"徐汇区天钥桥路580号星游城2楼(近零陵路)"},{"poiid":"B2094757D164A6FE419A","title":"上海东亚体育文化中心","lon":"121.441654386","lat":"31.1828278043","category":"500","category_name":"未知分类","address":"徐汇区漕溪北路1111号"},{"poiid":"B2094757D06FA5F84792","title":"星游城游艺广场","lon":"121.44276458","lat":"31.185532557","category":"173","category_name":"游戏厅","address":"徐汇区天钥桥路580号星游城B1楼(近零陵路)"},{"poiid":"B2094757D66AABFC499B","title":"富豪东亚富丽轩","lon":"121.442253","lat":"31.183962","category":"72","category_name":"广东菜","address":"零陵路800号富豪东亚酒店1楼近天钥桥路"},{"poiid":"B2094750D464A6F8479B","title":"八万人体育馆","lon":"121.440307","lat":"31.183748","category":"627","category_name":"一般地点标志","address":null},{"poiid":"B2094757D76CA3F5469F","title":"谷田稻香 天钥桥店 GOODTIME","lon":"121.442644054","lat":"31.185170793","category":"68","category_name":"快餐厅","address":"徐汇区天钥桥路580号星游城B1楼36号(近零陵路)"},{"poiid":"B2094654DA6DA1FF4393","title":"金谷园","lon":"121.443","lat":"31.1829","category":"47","category_name":"住宅区","address":"上海漕溪路125弄"},{"poiid":"B2094750D76FA5FD4692","title":"食其家(星游城店)","lon":"121.443","lat":"31.1853","category":"95","category_name":"日本料理","address":"徐汇区天钥桥路580号星游城B1楼(近零陵路)"},{"poiid":"B209475CDB6EAAFE4798","title":"Momo Paradise","lon":"121.442893","lat":"31.185441","category":"500","category_name":"未知分类","address":"上海市 天钥桥路580号星游城2楼"},{"poiid":"B2094655D36CA1F9479A","title":"零陵路上海体育馆","lon":"121.44073","lat":"31.18373","category":"38","category_name":"公交车站","address":""},{"poiid":"B209475CD569AAFE429E","title":"金爸爸","lon":"121.442016","lat":"31.184408","category":"247","category_name":"餐饮美食","address":"上海市 星游城"},{"poiid":"B2094654DB64AAF4489B","title":"富驿时尚酒店(上海徐家汇店)","lon":"121.44212","lat":"31.18565","category":"216","category_name":"经济型连锁酒店","address":"上海市徐汇区斜土路2701号(近天钥桥路)"},{"poiid":"B2094654DB6AA7FB4098","title":"烟雨江南茶艺酒吧 徐汇店","lon":"121.442678054","lat":"31.185164793","category":"247","category_name":"餐饮美食","address":"天钥桥路580号星游城3楼近零陵路"},{"poiid":"B2094757D068A7FC419A","title":"顶尚•桌球俱乐部","lon":"121.442362","lat":"31.185318","category":"500","category_name":"未知分类","address":"徐汇区天钥桥路580号星游城4楼(近零陵路)"},{"poiid":"B2094655D26AA4F4469A","title":"钱柜茶餐厅 星游城店","lon":"121.442678054","lat":"31.185164793","category":"247","category_name":"餐饮美食","address":"徐汇区天钥桥路580号星游城2楼(近零陵路)"},{"poiid":"B2094750D66FA2FD449D","title":"阿迪达斯足球公园","lon":"121.441726","lat":"31.184268","category":"230","category_name":"足球场","address":"徐汇区天钥桥路666号八万人体育场外场"},{"poiid":"B2094757D069A0FC4193","title":"东哥面包DONQ BAKERY","lon":"121.44188358","lat":"31.186161569","category":"247","category_name":"餐饮美食","address":"上海徐汇区天钥桥路568号"},{"poiid":"B2094750D76DA3FC489A","title":"禾绿回转寿司(星游城店)","lon":"121.443","lat":"31.1858","category":"95","category_name":"日本料理","address":"徐汇区天钥桥路580号星游城4楼(近零陵路)"},{"poiid":"B209475DD165A4F4489A","title":"momo牧场日式料理","lon":"121.443222","lat":"31.185234","category":"247","category_name":"餐饮美食","address":"上海市 星游城F2"}]