[{"poiid":"B2094757D168AAF5489E","title":"宜家家居 IKEA(宝山商场)","lon":"121.41597195","lat":"31.287064386","category":"123","category_name":"家具建材市场","address":"上海大华路汶水路"},{"poiid":"B2094655D26CA1F9409F","title":"中环一号","lon":"121.4044","lat":"31.292637","category":"47","category_name":"住宅区","address":"上海市宝山区真北路4333弄"},{"poiid":"B2094757D06FA3F8469A","title":"场中路地铁站","lon":"121.41373969","lat":"31.303964334","category":"36","category_name":"地铁站","address":"上海轨道交通 七号线 轨交场中路站 7"},{"poiid":"B2094757D06FA2FF489B","title":"梧桐城邦","lon":"121.41226","lat":"31.289017","category":"47","category_name":"住宅区","address":"上海真華路汶水路1801-1802弄"},{"poiid":"B2094757D06BABFF439A","title":"中环高架","lon":"121.41024595","lat":"31.2877423989","category":"500","category_name":"未知分类","address":"上海市"},{"poiid":"B2094757D068A2FC4092","title":"长寿面馆乡吧岛香辣小龙虾(大华店)","lon":"121.41661","lat":"31.28475","category":"68","category_name":"快餐厅","address":"宝山区大华路1364号(近行知路)"},{"poiid":"B2094757D06FA5FE4899","title":"家乐福(大场店)","lon":"121.41809409","lat":"31.302195446","category":"118","category_name":"超级市场","address":"上海宝山区场中路4048号"},{"poiid":"B2094655D36CA7FE419B","title":"沪太路汶水路","lon":"121.4184","lat":"31.29024","category":"38","category_name":"公交车站","address":"上海路口"},{"poiid":"B2094757D068A2F5479D","title":"大场镇地铁站","lon":"121.417578135","lat":"31.2917163069","category":"36","category_name":"地铁站","address":"上海轨道交通 七号线 轨交大场镇站 7"},{"poiid":"B2094757D06FA3FC4592","title":"动漫大场","lon":"121.40996912","lat":"31.302584384","category":"46","category_name":"楼宇","address":"宝山区汶水路1700号(近大华路)"},{"poiid":"B2094757D06FA1F8499C","title":"大华公园世家","lon":"121.41846696809","lat":"31.287023514289","category":"47","category_name":"住宅区","address":"上海华灵西路1781弄"},{"poiid":"B2094655D264A7FC429F","title":"大华梧桐城邦梧桐墅","lon":"121.41222","lat":"31.29037","category":"47","category_name":"住宅区","address":"宝山区真华路1988弄、1958弄"},{"poiid":"B2094757D069A3FD4898","title":"兴龙酒家(龙丰店)","lon":"121.41485","lat":"31.29648","category":"260","category_name":"其他","address":"宝山区沪太路2019弄58号城南建材市场内(近地铁7号线大场镇站)"},{"poiid":"B2094654D465A2FC4693","title":"大华新界·梧桐城邦","lon":"121.4125","lat":"31.28981","category":"47","category_name":"住宅区","address":"真华路1800弄"},{"poiid":"B2094757D16FA1FB489D","title":"龙珠苑","lon":"121.41597","lat":"31.29141","category":"500","category_name":"未知分类","address":"上海市汶水路1585弄"},{"poiid":"B2094655D26DA4F44393","title":"梧桐城邦二期","lon":"121.40918","lat":"31.28916","category":"47","category_name":"住宅区","address":"真华路1801弄"},{"poiid":"B2094757D16BA3FC409B","title":"金仕堡健身","lon":"121.41018695","lat":"31.2909254597","category":"220","category_name":"运动场所","address":"上海市宝山区真华路梧桐城邦店"},{"poiid":"B2094757D16DA3F9489D","title":"大华虎城爱沙堡","lon":"121.41071395","lat":"31.290527452","category":"500","category_name":"未知分类","address":"上海市宝山区华和路"},{"poiid":"B2094757D16FA0FF499B","title":"梧桐城邦三期","lon":"121.41255","lat":"31.292599","category":"252","category_name":"楼宇机构","address":"真华路1958弄2号楼金仕堡健身会所"},{"poiid":"B2094751D56CA4F9409D","title":"兴龙酒家","lon":"121.41509","lat":"31.29582","category":"247","category_name":"餐饮美食","address":"宝山区场中路3999号(大场立交桥南侧)"},{"poiid":"B2094655D26BA0FE4498","title":"中环1号(大华新界)","lon":"121.40704","lat":"31.29336","category":"47","category_name":"住宅区","address":"宝山区真北路4333弄/真大路358弄"},{"poiid":"B2094753D468A5FA499F","title":"上海大学","lon":"121.409683","lat":"31.29388","category":"500","category_name":"未知分类","address":"上海市 7号线上海大学站"},{"poiid":"B2094751D56BA4F94699","title":"七号线行知路站","lon":"121.412045","lat":"31.294232","category":"627","category_name":"一般地点标志","address":null},{"poiid":"B2094655D26CA1F9409D","title":"中环一号(南门)","lon":"121.40506","lat":"31.2913","category":"656","category_name":"大门","address":""},{"poiid":"B2094654D465A2FE4793","title":"玉华苑","lon":"121.40977","lat":"31.285168","category":"47","category_name":"住宅区","address":"上海市宝山区真华路518号"},{"poiid":"B2094757D568A1F54698","title":"明跃农家菜","lon":"121.41177816","lat":"31.28816461","category":"87","category_name":"特色／地方风味餐厅","address":"宝山区真华路1770号(汶水路口)"},{"poiid":"B2094757D16DA3FE449C","title":"创邑源","lon":"121.41311","lat":"31.2915","category":"179","category_name":"音乐厅","address":"上海长宁区凯旋路613号(近武夷路)  "},{"poiid":"B2094757D064AAFD4293","title":"老绍兴三黄鸡酒家(沪太支路店)","lon":"121.4175","lat":"31.29954","category":"76","category_name":"上海菜","address":"宝山区沪太支路1388号"},{"poiid":"B2094757D66CAAFC409E","title":"东方绿舟宾馆会议室","lon":"121.4127356","lat":"31.2927542197","category":"217","category_name":"旅馆招待所","address":"上海东方绿舟宾馆二楼"},{"poiid":"B2094757D16DA1FF469A","title":"新石器烤肉","lon":"121.41698291","lat":"31.302963749","category":"68","category_name":"快餐厅","address":"宝山区场中路4048号家乐福107A室"},{"poiid":"B2094757D169A0FF409F","title":"味千拉面(大场家乐福店)","lon":"121.41577065","lat":"31.3014165603","category":"95","category_name":"日本料理","address":"宝山区场中路4048号家乐福购物中心1楼(近守仁桥路)"},{"poiid":"B2094750D165A2FE4593","title":"梧桐城邦四期","lon":"121.410186","lat":"31.293233","category":"627","category_name":"一般地点标志","address":"真华路1989弄"},{"poiid":"B2094655D26FA3F5479D","title":"老绍兴大酒店","lon":"121.41492","lat":"31.29641","category":"250","category_name":"公园户外","address":"宝山区沪太路1378号"},{"poiid":"B2094654D465A2FD4293","title":"成锦钢铁","lon":"121.40888","lat":"31.29576","category":"123","category_name":"家具建材市场","address":"真大路549(场中钢铁现货市场)A区131室"},{"poiid":"B2094654D465A7F94898","title":"远景佳苑","lon":"121.4147","lat":"31.28464","category":"47","category_name":"住宅区","address":"上海市宝山区大华路1355弄"},{"poiid":"B2094654D465A5FB489D","title":"上海场中钢材现货市场经营管理有限公司","lon":"121.40885","lat":"31.2961","category":"123","category_name":"家具建材市场","address":""},{"poiid":"B2094757D16CA6FC449F","title":"梧桐城邦一期","lon":"121.41291895","lat":"31.2899094403","category":"47","category_name":"住宅区","address":"上海真华路1800弄"},{"poiid":"B2094752D06FA2FC469F","title":"大场体育中心","lon":"121.413284","lat":"31.298431","category":"500","category_name":"未知分类","address":null},{"poiid":"B2094654D465A5FB479E","title":"上海光华印刷机械有限公司","lon":"121.40914","lat":"31.29647","category":"263","category_name":"公司","address":"上海真大路520号"},{"poiid":"B2094757D06FA5FC4093","title":"益峰中心","lon":"121.41085295","lat":"31.287701398","category":"500","category_name":"未知分类","address":"上海市宝山区真华路1781号"},{"poiid":"B2094655D26DA5FD4892","title":"梧桐城邦二期(边门)","lon":"121.41061","lat":"31.29003","category":"47","category_name":"住宅区","address":"真华路1801弄"},{"poiid":"B2094750D76FA0FF4498","title":"尧尧羊肉","lon":"121.414","lat":"31.2995","category":"68","category_name":"快餐厅","address":"宝山区沪太路(近场中路)"},{"poiid":"B2094655D36CA7FD409C","title":"华和路真北路","lon":"121.40799","lat":"31.29112","category":"38","category_name":"公交车站","address":""},{"poiid":"B2094757D568A4F5469B","title":"上海市宝山区谢叶百货店","lon":"121.41096625","lat":"31.29027561","category":"117","category_name":"便民商店/便利店","address":"真华路1821号"},{"poiid":"B2094757D16CAAF4419B","title":"宇宙中心","lon":"121.41057295","lat":"31.2906144538","category":"500","category_name":"未知分类","address":"上海市宝山区真北路"},{"poiid":"B2094654D465A2F8419B","title":"申泉花苑","lon":"121.41045","lat":"31.286463","category":"47","category_name":"住宅区","address":"上海市黄浦区河南南路260号(近大境路)"},{"poiid":"B2094752D565A5F5499B","title":"宜家家居（宝山商场）","lon":"121.414333","lat":"31.290801","category":"249","category_name":"购物服务","address":"沪太路1818号"},{"poiid":"B2094655D26FA0FB469D","title":"梧桐城邦(西门)","lon":"121.41148","lat":"31.2892","category":"47","category_name":"住宅区","address":"真华路1800弄"},{"poiid":"B2094654DB69A4F44799","title":"百安居(沪太店)","lon":"121.419","lat":"31.28711","category":"123","category_name":"家具建材市场","address":"宝山区沪太路1800号(近汶水路)"},{"poiid":"B2094757D169A0FE469C","title":"凯顿儿童美语","lon":"121.41099395","lat":"31.2891764263","category":"253","category_name":"校园生活","address":"上海真华路"},{"poiid":"B2094757D168AAF5489E","title":"宜家家居 IKEA(宝山商场)","lon":"121.41597195","lat":"31.287064386","category":"123","category_name":"家具建材市场","address":"上海大华路汶水路"},{"poiid":"B2094655D26CA1F9409F","title":"中环一号","lon":"121.4044","lat":"31.292637","category":"47","category_name":"住宅区","address":"上海市宝山区真北路4333弄"},{"poiid":"B2094757D06FA3F8469A","title":"场中路地铁站","lon":"121.41373969","lat":"31.303964334","category":"36","category_name":"地铁站","address":"上海轨道交通 七号线 轨交场中路站 7"},{"poiid":"B2094757D06FA2FF489B","title":"梧桐城邦","lon":"121.41226","lat":"31.289017","category":"47","category_name":"住宅区","address":"上海真華路汶水路1801-1802弄"},{"poiid":"B2094757D06BABFF439A","title":"中环高架","lon":"121.41024595","lat":"31.2877423989","category":"500","category_name":"未知分类","address":"上海市"},{"poiid":"B2094757D068A2FC4092","title":"长寿面馆乡吧岛香辣小龙虾(大华店)","lon":"121.41661","lat":"31.28475","category":"68","category_name":"快餐厅","address":"宝山区大华路1364号(近行知路)"},{"poiid":"B2094757D06FA5FE4899","title":"家乐福(大场店)","lon":"121.41809409","lat":"31.302195446","category":"118","category_name":"超级市场","address":"上海宝山区场中路4048号"},{"poiid":"B2094655D36CA7FE419B","title":"沪太路汶水路","lon":"121.4184","lat":"31.29024","category":"38","category_name":"公交车站","address":"上海路口"},{"poiid":"B2094757D068A2F5479D","title":"大场镇地铁站","lon":"121.417578135","lat":"31.2917163069","category":"36","category_name":"地铁站","address":"上海轨道交通 七号线 轨交大场镇站 7"},{"poiid":"B2094757D06FA3FC4592","title":"动漫大场","lon":"121.40996912","lat":"31.302584384","category":"46","category_name":"楼宇","address":"宝山区汶水路1700号(近大华路)"},{"poiid":"B2094757D06FA1F8499C","title":"大华公园世家","lon":"121.41846696809","lat":"31.287023514289","category":"47","category_name":"住宅区","address":"上海华灵西路1781弄"},{"poiid":"B2094655D264A7FC429F","title":"大华梧桐城邦梧桐墅","lon":"121.41222","lat":"31.29037","category":"47","category_name":"住宅区","address":"宝山区真华路1988弄、1958弄"},{"poiid":"B2094757D069A3FD4898","title":"兴龙酒家(龙丰店)","lon":"121.41485","lat":"31.29648","category":"260","category_name":"其他","address":"宝山区沪太路2019弄58号城南建材市场内(近地铁7号线大场镇站)"},{"poiid":"B2094654D465A2FC4693","title":"大华新界·梧桐城邦","lon":"121.4125","lat":"31.28981","category":"47","category_name":"住宅区","address":"真华路1800弄"},{"poiid":"B2094757D16FA1FB489D","title":"龙珠苑","lon":"121.41597","lat":"31.29141","category":"500","category_name":"未知分类","address":"上海市汶水路1585弄"},{"poiid":"B2094655D26DA4F44393","title":"梧桐城邦二期","lon":"121.40918","lat":"31.28916","category":"47","category_name":"住宅区","address":"真华路1801弄"},{"poiid":"B2094757D16BA3FC409B","title":"金仕堡健身","lon":"121.41018695","lat":"31.2909254597","category":"220","category_name":"运动场所","address":"上海市宝山区真华路梧桐城邦店"},{"poiid":"B2094757D16DA3F9489D","title":"大华虎城爱沙堡","lon":"121.41071395","lat":"31.290527452","category":"500","category_name":"未知分类","address":"上海市宝山区华和路"},{"poiid":"B2094757D16FA0FF499B","title":"梧桐城邦三期","lon":"121.41255","lat":"31.292599","category":"252","category_name":"楼宇机构","address":"真华路1958弄2号楼金仕堡健身会所"},{"poiid":"B2094751D56CA4F9409D","title":"兴龙酒家","lon":"121.41509","lat":"31.29582","category":"247","category_name":"餐饮美食","address":"宝山区场中路3999号(大场立交桥南侧)"},{"poiid":"B2094655D26BA0FE4498","title":"中环1号(大华新界)","lon":"121.40704","lat":"31.29336","category":"47","category_name":"住宅区","address":"宝山区真北路4333弄/真大路358弄"},{"poiid":"B2094753D468A5FA499F","title":"上海大学","lon":"121.409683","lat":"31.29388","category":"500","category_name":"未知分类","address":"上海市 7号线上海大学站"},{"poiid":"B2094751D56BA4F94699","title":"七号线行知路站","lon":"121.412045","lat":"31.294232","category":"627","category_name":"一般地点标志","address":null},{"poiid":"B2094655D26CA1F9409D","title":"中环一号(南门)","lon":"121.40506","lat":"31.2913","category":"656","category_name":"大门","address":""},{"poiid":"B2094654D465A2FE4793","title":"玉华苑","lon":"121.40977","lat":"31.285168","category":"47","category_name":"住宅区","address":"上海市宝山区真华路518号"},{"poiid":"B2094757D568A1F54698","title":"明跃农家菜","lon":"121.41177816","lat":"31.28816461","category":"87","category_name":"特色／地方风味餐厅","address":"宝山区真华路1770号(汶水路口)"},{"poiid":"B2094757D16DA3FE449C","title":"创邑源","lon":"121.41311","lat":"31.2915","category":"179","category_name":"音乐厅","address":"上海长宁区凯旋路613号(近武夷路)  "},{"poiid":"B2094757D064AAFD4293","title":"老绍兴三黄鸡酒家(沪太支路店)","lon":"121.4175","lat":"31.29954","category":"76","category_name":"上海菜","address":"宝山区沪太支路1388号"},{"poiid":"B2094757D66CAAFC409E","title":"东方绿舟宾馆会议室","lon":"121.4127356","lat":"31.2927542197","category":"217","category_name":"旅馆招待所","address":"上海东方绿舟宾馆二楼"},{"poiid":"B2094757D16DA1FF469A","title":"新石器烤肉","lon":"121.41698291","lat":"31.302963749","category":"68","category_name":"快餐厅","address":"宝山区场中路4048号家乐福107A室"},{"poiid":"B2094757D169A0FF409F","title":"味千拉面(大场家乐福店)","lon":"121.41577065","lat":"31.3014165603","category":"95","category_name":"日本料理","address":"宝山区场中路4048号家乐福购物中心1楼(近守仁桥路)"},{"poiid":"B2094750D165A2FE4593","title":"梧桐城邦四期","lon":"121.410186","lat":"31.293233","category":"627","category_name":"一般地点标志","address":"真华路1989弄"},{"poiid":"B2094655D26FA3F5479D","title":"老绍兴大酒店","lon":"121.41492","lat":"31.29641","category":"250","category_name":"公园户外","address":"宝山区沪太路1378号"},{"poiid":"B2094654D465A2FD4293","title":"成锦钢铁","lon":"121.40888","lat":"31.29576","category":"123","category_name":"家具建材市场","address":"真大路549(场中钢铁现货市场)A区131室"},{"poiid":"B2094654D465A7F94898","title":"远景佳苑","lon":"121.4147","lat":"31.28464","category":"47","category_name":"住宅区","address":"上海市宝山区大华路1355弄"},{"poiid":"B2094654D465A5FB489D","title":"上海场中钢材现货市场经营管理有限公司","lon":"121.40885","lat":"31.2961","category":"123","category_name":"家具建材市场","address":""},{"poiid":"B2094757D16CA6FC449F","title":"梧桐城邦一期","lon":"121.41291895","lat":"31.2899094403","category":"47","category_name":"住宅区","address":"上海真华路1800弄"},{"poiid":"B2094752D06FA2FC469F","title":"大场体育中心","lon":"121.413284","lat":"31.298431","category":"500","category_name":"未知分类","address":null},{"poiid":"B2094654D465A5FB479E","title":"上海光华印刷机械有限公司","lon":"121.40914","lat":"31.29647","category":"263","category_name":"公司","address":"上海真大路520号"},{"poiid":"B2094757D06FA5FC4093","title":"益峰中心","lon":"121.41085295","lat":"31.287701398","category":"500","category_name":"未知分类","address":"上海市宝山区真华路1781号"},{"poiid":"B2094655D26DA5FD4892","title":"梧桐城邦二期(边门)","lon":"121.41061","lat":"31.29003","category":"47","category_name":"住宅区","address":"真华路1801弄"},{"poiid":"B2094750D76FA0FF4498","title":"尧尧羊肉","lon":"121.414","lat":"31.2995","category":"68","category_name":"快餐厅","address":"宝山区沪太路(近场中路)"},{"poiid":"B2094655D36CA7FD409C","title":"华和路真北路","lon":"121.40799","lat":"31.29112","category":"38","category_name":"公交车站","address":""},{"poiid":"B2094757D568A4F5469B","title":"上海市宝山区谢叶百货店","lon":"121.41096625","lat":"31.29027561","category":"117","category_name":"便民商店/便利店","address":"真华路1821号"},{"poiid":"B2094757D16CAAF4419B","title":"宇宙中心","lon":"121.41057295","lat":"31.2906144538","category":"500","category_name":"未知分类","address":"上海市宝山区真北路"},{"poiid":"B2094654D465A2F8419B","title":"申泉花苑","lon":"121.41045","lat":"31.286463","category":"47","category_name":"住宅区","address":"上海市黄浦区河南南路260号(近大境路)"},{"poiid":"B2094752D565A5F5499B","title":"宜家家居（宝山商场）","lon":"121.414333","lat":"31.290801","category":"249","category_name":"购物服务","address":"沪太路1818号"},{"poiid":"B2094655D26FA0FB469D","title":"梧桐城邦(西门)","lon":"121.41148","lat":"31.2892","category":"47","category_name":"住宅区","address":"真华路1800弄"},{"poiid":"B2094654DB69A4F44799","title":"百安居(沪太店)","lon":"121.419","lat":"31.28711","category":"123","category_name":"家具建材市场","address":"宝山区沪太路1800号(近汶水路)"},{"poiid":"B2094757D169A0FE469C","title":"凯顿儿童美语","lon":"121.41099395","lat":"31.2891764263","category":"253","category_name":"校园生活","address":"上海真华路"},{"poiid":"B2094757D168AAF5489E","title":"宜家家居 IKEA(宝山商场)","lon":"121.41597195","lat":"31.287064386","category":"123","category_name":"家具建材市场","address":"上海大华路汶水路"},{"poiid":"B2094655D26CA1F9409F","title":"中环一号","lon":"121.4044","lat":"31.292637","category":"47","category_name":"住宅区","address":"上海市宝山区真北路4333弄"},{"poiid":"B2094757D06FA3F8469A","title":"场中路地铁站","lon":"121.41373969","lat":"31.303964334","category":"36","category_name":"地铁站","address":"上海轨道交通 七号线 轨交场中路站 7"},{"poiid":"B2094757D06FA2FF489B","title":"梧桐城邦","lon":"121.41226","lat":"31.289017","category":"47","category_name":"住宅区","address":"上海真華路汶水路1801-1802弄"},{"poiid":"B2094757D06BABFF439A","title":"中环高架","lon":"121.41024595","lat":"31.2877423989","category":"500","category_name":"未知分类","address":"上海市"},{"poiid":"B2094757D068A2FC4092","title":"长寿面馆乡吧岛香辣小龙虾(大华店)","lon":"121.41661","lat":"31.28475","category":"68","category_name":"快餐厅","address":"宝山区大华路1364号(近行知路)"},{"poiid":"B2094757D06FA5FE4899","title":"家乐福(大场店)","lon":"121.41809409","lat":"31.302195446","category":"118","category_name":"超级市场","address":"上海宝山区场中路4048号"},{"poiid":"B2094655D36CA7FE419B","title":"沪太路汶水路","lon":"121.4184","lat":"31.29024","category":"38","category_name":"公交车站","address":"上海路口"},{"poiid":"B2094757D068A2F5479D","title":"大场镇地铁站","lon":"121.417578135","lat":"31.2917163069","category":"36","category_name":"地铁站","address":"上海轨道交通 七号线 轨交大场镇站 7"},{"poiid":"B2094757D06FA3FC4592","title":"动漫大场","lon":"121.40996912","lat":"31.302584384","category":"46","category_name":"楼宇","address":"宝山区汶水路1700号(近大华路)"},{"poiid":"B2094757D06FA1F8499C","title":"大华公园世家","lon":"121.41846696809","lat":"31.287023514289","category":"47","category_name":"住宅区","address":"上海华灵西路1781弄"},{"poiid":"B2094655D264A7FC429F","title":"大华梧桐城邦梧桐墅","lon":"121.41222","lat":"31.29037","category":"47","category_name":"住宅区","address":"宝山区真华路1988弄、1958弄"},{"poiid":"B2094757D069A3FD4898","title":"兴龙酒家(龙丰店)","lon":"121.41485","lat":"31.29648","category":"260","category_name":"其他","address":"宝山区沪太路2019弄58号城南建材市场内(近地铁7号线大场镇站)"},{"poiid":"B2094654D465A2FC4693","title":"大华新界·梧桐城邦","lon":"121.4125","lat":"31.28981","category":"47","category_name":"住宅区","address":"真华路1800弄"},{"poiid":"B2094757D16FA1FB489D","title":"龙珠苑","lon":"121.41597","lat":"31.29141","category":"500","category_name":"未知分类","address":"上海市汶水路1585弄"},{"poiid":"B2094655D26DA4F44393","title":"梧桐城邦二期","lon":"121.40918","lat":"31.28916","category":"47","category_name":"住宅区","address":"真华路1801弄"},{"poiid":"B2094757D16BA3FC409B","title":"金仕堡健身","lon":"121.41018695","lat":"31.2909254597","category":"220","category_name":"运动场所","address":"上海市宝山区真华路梧桐城邦店"},{"poiid":"B2094757D16DA3F9489D","title":"大华虎城爱沙堡","lon":"121.41071395","lat":"31.290527452","category":"500","category_name":"未知分类","address":"上海市宝山区华和路"},{"poiid":"B2094757D16FA0FF499B","title":"梧桐城邦三期","lon":"121.41255","lat":"31.292599","category":"252","category_name":"楼宇机构","address":"真华路1958弄2号楼金仕堡健身会所"},{"poiid":"B2094751D56CA4F9409D","title":"兴龙酒家","lon":"121.41509","lat":"31.29582","category":"247","category_name":"餐饮美食","address":"宝山区场中路3999号(大场立交桥南侧)"},{"poiid":"B2094655D26BA0FE4498","title":"中环1号(大华新界)","lon":"121.40704","lat":"31.29336","category":"47","category_name":"住宅区","address":"宝山区真北路4333弄/真大路358弄"},{"poiid":"B2094753D468A5FA499F","title":"上海大学","lon":"121.409683","lat":"31.29388","category":"500","category_name":"未知分类","address":"上海市 7号线上海大学站"},{"poiid":"B2094751D56BA4F94699","title":"七号线行知路站","lon":"121.412045","lat":"31.294232","category":"627","category_name":"一般地点标志","address":null},{"poiid":"B2094655D26CA1F9409D","title":"中环一号(南门)","lon":"121.40506","lat":"31.2913","category":"656","category_name":"大门","address":""},{"poiid":"B2094654D465A2FE4793","title":"玉华苑","lon":"121.40977","lat":"31.285168","category":"47","category_name":"住宅区","address":"上海市宝山区真华路518号"},{"poiid":"B2094757D568A1F54698","title":"明跃农家菜","lon":"121.41177816","lat":"31.28816461","category":"87","category_name":"特色／地方风味餐厅","address":"宝山区真华路1770号(汶水路口)"},{"poiid":"B2094757D16DA3FE449C","title":"创邑源","lon":"121.41311","lat":"31.2915","category":"179","category_name":"音乐厅","address":"上海长宁区凯旋路613号(近武夷路)  "},{"poiid":"B2094757D064AAFD4293","title":"老绍兴三黄鸡酒家(沪太支路店)","lon":"121.4175","lat":"31.29954","category":"76","category_name":"上海菜","address":"宝山区沪太支路1388号"},{"poiid":"B2094757D66CAAFC409E","title":"东方绿舟宾馆会议室","lon":"121.4127356","lat":"31.2927542197","category":"217","category_name":"旅馆招待所","address":"上海东方绿舟宾馆二楼"},{"poiid":"B2094757D16DA1FF469A","title":"新石器烤肉","lon":"121.41698291","lat":"31.302963749","category":"68","category_name":"快餐厅","address":"宝山区场中路4048号家乐福107A室"},{"poiid":"B2094757D169A0FF409F","title":"味千拉面(大场家乐福店)","lon":"121.41577065","lat":"31.3014165603","category":"95","category_name":"日本料理","address":"宝山区场中路4048号家乐福购物中心1楼(近守仁桥路)"},{"poiid":"B2094750D165A2FE4593","title":"梧桐城邦四期","lon":"121.410186","lat":"31.293233","category":"627","category_name":"一般地点标志","address":"真华路1989弄"},{"poiid":"B2094655D26FA3F5479D","title":"老绍兴大酒店","lon":"121.41492","lat":"31.29641","category":"250","category_name":"公园户外","address":"宝山区沪太路1378号"},{"poiid":"B2094654D465A2FD4293","title":"成锦钢铁","lon":"121.40888","lat":"31.29576","category":"123","category_name":"家具建材市场","address":"真大路549(场中钢铁现货市场)A区131室"},{"poiid":"B2094654D465A7F94898","title":"远景佳苑","lon":"121.4147","lat":"31.28464","category":"47","category_name":"住宅区","address":"上海市宝山区大华路1355弄"},{"poiid":"B2094654D465A5FB489D","title":"上海场中钢材现货市场经营管理有限公司","lon":"121.40885","lat":"31.2961","category":"123","category_name":"家具建材市场","address":""},{"poiid":"B2094757D16CA6FC449F","title":"梧桐城邦一期","lon":"121.41291895","lat":"31.2899094403","category":"47","category_name":"住宅区","address":"上海真华路1800弄"},{"poiid":"B2094752D06FA2FC469F","title":"大场体育中心","lon":"121.413284","lat":"31.298431","category":"500","category_name":"未知分类","address":null},{"poiid":"B2094654D465A5FB479E","title":"上海光华印刷机械有限公司","lon":"121.40914","lat":"31.29647","category":"263","category_name":"公司","address":"上海真大路520号"},{"poiid":"B2094757D06FA5FC4093","title":"益峰中心","lon":"121.41085295","lat":"31.287701398","category":"500","category_name":"未知分类","address":"上海市宝山区真华路1781号"},{"poiid":"B2094655D26DA5FD4892","title":"梧桐城邦二期(边门)","lon":"121.41061","lat":"31.29003","category":"47","category_name":"住宅区","address":"真华路1801弄"},{"poiid":"B2094750D76FA0FF4498","title":"尧尧羊肉","lon":"121.414","lat":"31.2995","category":"68","category_name":"快餐厅","address":"宝山区沪太路(近场中路)"},{"poiid":"B2094655D36CA7FD409C","title":"华和路真北路","lon":"121.40799","lat":"31.29112","category":"38","category_name":"公交车站","address":""},{"poiid":"B2094757D568A4F5469B","title":"上海市宝山区谢叶百货店","lon":"121.41096625","lat":"31.29027561","category":"117","category_name":"便民商店/便利店","address":"真华路1821号"},{"poiid":"B2094757D16CAAF4419B","title":"宇宙中心","lon":"121.41057295","lat":"31.2906144538","category":"500","category_name":"未知分类","address":"上海市宝山区真北路"},{"poiid":"B2094654D465A2F8419B","title":"申泉花苑","lon":"121.41045","lat":"31.286463","category":"47","category_name":"住宅区","address":"上海市黄浦区河南南路260号(近大境路)"},{"poiid":"B2094752D565A5F5499B","title":"宜家家居（宝山商场）","lon":"121.414333","lat":"31.290801","category":"249","category_name":"购物服务","address":"沪太路1818号"},{"poiid":"B2094655D26FA0FB469D","title":"梧桐城邦(西门)","lon":"121.41148","lat":"31.2892","category":"47","category_name":"住宅区","address":"真华路1800弄"},{"poiid":"B2094654DB69A4F44799","title":"百安居(沪太店)","lon":"121.419","lat":"31.28711","category":"123","category_name":"家具建材市场","address":"宝山区沪太路1800号(近汶水路)"},{"poiid":"B2094757D169A0FE469C","title":"凯顿儿童美语","lon":"121.41099395","lat":"31.2891764263","category":"253","category_name":"校园生活","address":"上海真华路"},{"poiid":"B2094757D168AAF5489E","title":"宜家家居 IKEA(宝山商场)","lon":"121.41597195","lat":"31.287064386","category":"123","category_name":"家具建材市场","address":"上海大华路汶水路"},{"poiid":"B2094655D26CA1F9409F","title":"中环一号","lon":"121.4044","lat":"31.292637","category":"47","category_name":"住宅区","address":"上海市宝山区真北路4333弄"},{"poiid":"B2094757D06FA3F8469A","title":"场中路地铁站","lon":"121.41373969","lat":"31.303964334","category":"36","category_name":"地铁站","address":"上海轨道交通 七号线 轨交场中路站 7"},{"poiid":"B2094757D06FA2FF489B","title":"梧桐城邦","lon":"121.41226","lat":"31.289017","category":"47","category_name":"住宅区","address":"上海真華路汶水路1801-1802弄"},{"poiid":"B2094757D06BABFF439A","title":"中环高架","lon":"121.41024595","lat":"31.2877423989","category":"500","category_name":"未知分类","address":"上海市"},{"poiid":"B2094757D068A2FC4092","title":"长寿面馆乡吧岛香辣小龙虾(大华店)","lon":"121.41661","lat":"31.28475","category":"68","category_name":"快餐厅","address":"宝山区大华路1364号(近行知路)"},{"poiid":"B2094757D06FA5FE4899","title":"家乐福(大场店)","lon":"121.41809409","lat":"31.302195446","category":"118","category_name":"超级市场","address":"上海宝山区场中路4048号"},{"poiid":"B2094655D36CA7FE419B","title":"沪太路汶水路","lon":"121.4184","lat":"31.29024","category":"38","category_name":"公交车站","address":"上海路口"},{"poiid":"B2094757D068A2F5479D","title":"大场镇地铁站","lon":"121.417578135","lat":"31.2917163069","category":"36","category_name":"地铁站","address":"上海轨道交通 七号线 轨交大场镇站 7"},{"poiid":"B2094757D06FA3FC4592","title":"动漫大场","lon":"121.40996912","lat":"31.302584384","category":"46","category_name":"楼宇","address":"宝山区汶水路1700号(近大华路)"},{"poiid":"B2094757D06FA1F8499C","title":"大华公园世家","lon":"121.41846696809","lat":"31.287023514289","category":"47","category_name":"住宅区","address":"上海华灵西路1781弄"},{"poiid":"B2094655D264A7FC429F","title":"大华梧桐城邦梧桐墅","lon":"121.41222","lat":"31.29037","category":"47","category_name":"住宅区","address":"宝山区真华路1988弄、1958弄"},{"poiid":"B2094757D069A3FD4898","title":"兴龙酒家(龙丰店)","lon":"121.41485","lat":"31.29648","category":"260","category_name":"其他","address":"宝山区沪太路2019弄58号城南建材市场内(近地铁7号线大场镇站)"},{"poiid":"B2094654D465A2FC4693","title":"大华新界·梧桐城邦","lon":"121.4125","lat":"31.28981","category":"47","category_name":"住宅区","address":"真华路1800弄"},{"poiid":"B2094757D16FA1FB489D","title":"龙珠苑","lon":"121.41597","lat":"31.29141","category":"500","category_name":"未知分类","address":"上海市汶水路1585弄"},{"poiid":"B2094655D26DA4F44393","title":"梧桐城邦二期","lon":"121.40918","lat":"31.28916","category":"47","category_name":"住宅区","address":"真华路1801弄"},{"poiid":"B2094757D16BA3FC409B","title":"金仕堡健身","lon":"121.41018695","lat":"31.2909254597","category":"220","category_name":"运动场所","address":"上海市宝山区真华路梧桐城邦店"},{"poiid":"B2094757D16DA3F9489D","title":"大华虎城爱沙堡","lon":"121.41071395","lat":"31.290527452","category":"500","category_name":"未知分类","address":"上海市宝山区华和路"},{"poiid":"B2094757D16FA0FF499B","title":"梧桐城邦三期","lon":"121.41255","lat":"31.292599","category":"252","category_name":"楼宇机构","address":"真华路1958弄2号楼金仕堡健身会所"},{"poiid":"B2094751D56CA4F9409D","title":"兴龙酒家","lon":"121.41509","lat":"31.29582","category":"247","category_name":"餐饮美食","address":"宝山区场中路3999号(大场立交桥南侧)"},{"poiid":"B2094655D26BA0FE4498","title":"中环1号(大华新界)","lon":"121.40704","lat":"31.29336","category":"47","category_name":"住宅区","address":"宝山区真北路4333弄/真大路358弄"},{"poiid":"B2094753D468A5FA499F","title":"上海大学","lon":"121.409683","lat":"31.29388","category":"500","category_name":"未知分类","address":"上海市 7号线上海大学站"},{"poiid":"B2094751D56BA4F94699","title":"七号线行知路站","lon":"121.412045","lat":"31.294232","category":"627","category_name":"一般地点标志","address":null},{"poiid":"B2094655D26CA1F9409D","title":"中环一号(南门)","lon":"121.40506","lat":"31.2913","category":"656","category_name":"大门","address":""},{"poiid":"B2094654D465A2FE4793","title":"玉华苑","lon":"121.40977","lat":"31.285168","category":"47","category_name":"住宅区","address":"上海市宝山区真华路518号"},{"poiid":"B2094757D568A1F54698","title":"明跃农家菜","lon":"121.41177816","lat":"31.28816461","category":"87","category_name":"特色／地方风味餐厅","address":"宝山区真华路1770号(汶水路口)"},{"poiid":"B2094757D16DA3FE449C","title":"创邑源","lon":"121.41311","lat":"31.2915","category":"179","category_name":"音乐厅","address":"上海长宁区凯旋路613号(近武夷路)  "},{"poiid":"B2094757D064AAFD4293","title":"老绍兴三黄鸡酒家(沪太支路店)","lon":"121.4175","lat":"31.29954","category":"76","category_name":"上海菜","address":"宝山区沪太支路1388号"},{"poiid":"B2094757D66CAAFC409E","title":"东方绿舟宾馆会议室","lon":"121.4127356","lat":"31.2927542197","category":"217","category_name":"旅馆招待所","address":"上海东方绿舟宾馆二楼"},{"poiid":"B2094757D16DA1FF469A","title":"新石器烤肉","lon":"121.41698291","lat":"31.302963749","category":"68","category_name":"快餐厅","address":"宝山区场中路4048号家乐福107A室"},{"poiid":"B2094757D169A0FF409F","title":"味千拉面(大场家乐福店)","lon":"121.41577065","lat":"31.3014165603","category":"95","category_name":"日本料理","address":"宝山区场中路4048号家乐福购物中心1楼(近守仁桥路)"},{"poiid":"B2094750D165A2FE4593","title":"梧桐城邦四期","lon":"121.410186","lat":"31.293233","category":"627","category_name":"一般地点标志","address":"真华路1989弄"},{"poiid":"B2094655D26FA3F5479D","title":"老绍兴大酒店","lon":"121.41492","lat":"31.29641","category":"250","category_name":"公园户外","address":"宝山区沪太路1378号"},{"poiid":"B2094654D465A2FD4293","title":"成锦钢铁","lon":"121.40888","lat":"31.29576","category":"123","category_name":"家具建材市场","address":"真大路549(场中钢铁现货市场)A区131室"},{"poiid":"B2094654D465A7F94898","title":"远景佳苑","lon":"121.4147","lat":"31.28464","category":"47","category_name":"住宅区","address":"上海市宝山区大华路1355弄"},{"poiid":"B2094654D465A5FB489D","title":"上海场中钢材现货市场经营管理有限公司","lon":"121.40885","lat":"31.2961","category":"123","category_name":"家具建材市场","address":""},{"poiid":"B2094757D16CA6FC449F","title":"梧桐城邦一期","lon":"121.41291895","lat":"31.2899094403","category":"47","category_name":"住宅区","address":"上海真华路1800弄"},{"poiid":"B2094752D06FA2FC469F","title":"大场体育中心","lon":"121.413284","lat":"31.298431","category":"500","category_name":"未知分类","address":null},{"poiid":"B2094654D465A5FB479E","title":"上海光华印刷机械有限公司","lon":"121.40914","lat":"31.29647","category":"263","category_name":"公司","address":"上海真大路520号"},{"poiid":"B2094757D06FA5FC4093","title":"益峰中心","lon":"121.41085295","lat":"31.287701398","category":"500","category_name":"未知分类","address":"上海市宝山区真华路1781号"},{"poiid":"B2094655D26DA5FD4892","title":"梧桐城邦二期(边门)","lon":"121.41061","lat":"31.29003","category":"47","category_name":"住宅区","address":"真华路1801弄"},{"poiid":"B2094750D76FA0FF4498","title":"尧尧羊肉","lon":"121.414","lat":"31.2995","category":"68","category_name":"快餐厅","address":"宝山区沪太路(近场中路)"},{"poiid":"B2094655D36CA7FD409C","title":"华和路真北路","lon":"121.40799","lat":"31.29112","category":"38","category_name":"公交车站","address":""},{"poiid":"B2094757D568A4F5469B","title":"上海市宝山区谢叶百货店","lon":"121.41096625","lat":"31.29027561","category":"117","category_name":"便民商店/便利店","address":"真华路1821号"},{"poiid":"B2094757D16CAAF4419B","title":"宇宙中心","lon":"121.41057295","lat":"31.2906144538","category":"500","category_name":"未知分类","address":"上海市宝山区真北路"},{"poiid":"B2094654D465A2F8419B","title":"申泉花苑","lon":"121.41045","lat":"31.286463","category":"47","category_name":"住宅区","address":"上海市黄浦区河南南路260号(近大境路)"},{"poiid":"B2094752D565A5F5499B","title":"宜家家居（宝山商场）","lon":"121.414333","lat":"31.290801","category":"249","category_name":"购物服务","address":"沪太路1818号"},{"poiid":"B2094655D26FA0FB469D","title":"梧桐城邦(西门)","lon":"121.41148","lat":"31.2892","category":"47","category_name":"住宅区","address":"真华路1800弄"},{"poiid":"B2094654DB69A4F44799","title":"百安居(沪太店)","lon":"121.419","lat":"31.28711","category":"123","category_name":"家具建材市场","address":"宝山区沪太路1800号(近汶水路)"},{"poiid":"B2094757D169A0FE469C","title":"凯顿儿童美语","lon":"121.41099395","lat":"31.2891764263","category":"253","category_name":"校园生活","address":"上海真华路"}]