[{"poiid":"B2094757D06FA5FC419A","title":"藏珑泰极(大拇指广场店)","lon":"121.56025","lat":"31.22682","category":"99","category_name":"泰国／越南菜品餐厅","address":"浦东新区芳甸路199弄大拇指广场19号3楼(近丁香路)"},{"poiid":"B2094654DB6AA6FF449F","title":"证大丽笙酒店","lon":"121.56049","lat":"31.22634","category":"213","category_name":"五星级宾馆","address":"浦东新区迎春路1199号(近芳甸路)"},{"poiid":"B2094757D569A1FD4199","title":"埔里老镇","lon":"121.5603125","lat":"31.22719916","category":"91","category_name":"台湾菜","address":"浦东新区芳甸路199弄大拇指广场19号2楼(近迎春路)"},{"poiid":"B2094757D068A2FD489E","title":"九间堂","lon":"121.5620138","lat":"31.222304185","category":"500","category_name":"未知分类","address":"浦东新区芳甸路599弄1号(近锦绣路)"},{"poiid":"B2094757D069A4F4439D","title":"丰收日(联洋店)","lon":"121.559593975","lat":"31.2257219552","category":"75","category_name":"浙江菜","address":"浦东新区芳甸路300号联洋广场A区4楼(近迎春路)"},{"poiid":"B2094757D069A0F84892","title":"希腊餐厅(芳甸路店)","lon":"121.559723585","lat":"31.2261000756","category":"94","category_name":"西餐厅","address":"浦东新区芳甸路199弄证大大拇指广场43号1楼41铺(近杨高中路)"},{"poiid":"B2094757D068A3FC4199","title":"韩林炭烤(联洋店)","lon":"121.55924","lat":"31.22601","category":"96","category_name":"韩国料理","address":"上海浦东新区芳甸路199弄证大大拇指广场48号(近杨高中路)  "},{"poiid":"B2094655D26EA0FC4492","title":"沃歌斯","lon":"121.55816","lat":"31.23072","category":"94","category_name":"西餐厅","address":"浦东新区芳甸路199弄证大大拇指广场31号(南洋泾路杨高中路)"},{"poiid":"B2094655D265A2FD429D","title":"联洋营业厅","lon":"121.5592","lat":"31.22576","category":"151","category_name":"电讯营业厅","address":"浦东新区芳甸路285号"},{"poiid":"B2094751D469A0F8479C","title":"唐鱼儿麻辣鲜鱼火锅","lon":"121.560104","lat":"31.225509","category":"86","category_name":"火锅店","address":"浦东新区芳甸路199弄40号大拇指广场46号(近迎春路)"},{"poiid":"B2094757D06FABFD429C","title":"蒂梵尼造型设计(联洋广场店)","lon":"121.55922","lat":"31.22583","category":"148","category_name":"美容美发店","address":"浦东新区芳甸路300号联洋广场B区3楼(近大拇指广场)"},{"poiid":"B2094751D46BABFD469F","title":"义面屋","lon":"121.55899","lat":"31.225021","category":"94","category_name":"西餐厅","address":"浦东新区芳甸路199弄大拇指广场19号(预计12月开业)"},{"poiid":"B2094750DA68A4F4449A","title":"Blue Marlin","lon":"121.560188","lat":"31.227334","category":"248","category_name":"生活娱乐","address":"浦东新区芳甸路199弄17号大拇指广场"},{"poiid":"B2094751D569AAFE499B","title":"Lapasta 義麵屋","lon":"121.559636","lat":"31.226118","category":"247","category_name":"餐饮美食","address":"浦東新區芳甸路199弄33號2樓"},{"poiid":"B2094757D068A1F9429C","title":"家乐福(大拇指广场店)","lon":"121.55993652","lat":"31.226459503","category":"118","category_name":"超级市场","address":"上海浦东新区芳甸路199弄 大拇指广场地下一层"},{"poiid":"B2094757D065A0F44593","title":"爱尔兰文化餐厅","lon":"121.5593","lat":"31.22628","category":"94","category_name":"西餐厅","address":"浦东新区芳甸路199弄40号大拇指广场20号(迎春路口)"},{"poiid":"B2094757D16FA3F4489D","title":"韩林碳烤","lon":"121.56340789","lat":"31.223962783","category":"247","category_name":"餐饮美食","address":"上海大拇指广场"},{"poiid":"B2094757D569A3FB409D","title":"仁恒河滨城一期","lon":"121.566375","lat":"31.22726806","category":"47","category_name":"住宅区","address":"上海市浦东新区丁香路1599弄"},{"poiid":"B2094753DA6FA7F94793","title":"Mr.Pizza","lon":"121.564018","lat":"31.223802","category":"500","category_name":"未知分类","address":"上海市 上海市迎春路1089号大拇指广场(近芳甸路)"},{"poiid":"B2094654DA69A1FF459E","title":"泓叶","lon":"121.55912","lat":"31.22608","category":"76","category_name":"上海菜","address":"浦东新区芳甸路199弄40号大拇指广场内(迎春路口)"},{"poiid":"B2094750D165A2F84892","title":"深井大叔(大拇指店)","lon":"121.559715","lat":"31.226057","category":"72","category_name":"广东菜","address":"浦东新区芳甸路199弄证大大拇指广场43号1楼"},{"poiid":"B2094757D16CA4FE4293","title":"海游吞拿","lon":"121.55948767","lat":"31.225968761","category":"95","category_name":"日本料理","address":"芳甸路199弄大拇指广场2楼近杨高中路"},{"poiid":"B2094655D26DA7F44893","title":"金色维也纳(北门)","lon":"121.56318","lat":"31.22383","category":"47","category_name":"住宅区","address":"锦绣路333弄1-56号"},{"poiid":"B2094655D26DABFC4392","title":"浦东虹桥花园","lon":"121.56442","lat":"31.226006","category":"47","category_name":"住宅区","address":"锦绣路300弄1-37号"},{"poiid":"B2094757D568A0FF4498","title":"九间堂别墅","lon":"121.5613469","lat":"31.22273611","category":"47","category_name":"住宅区","address":"上海市浦东新区锦安东路88弄"},{"poiid":"B2094654DA69A2FA4492","title":"金色维也纳","lon":"121.56512","lat":"31.22323","category":"47","category_name":"住宅区","address":"锦绣路333弄1-56号"},{"poiid":"B2094757D065A4F94598","title":"张博士茗茶馆","lon":"121.56254497","lat":"31.223913912","category":"247","category_name":"餐饮美食","address":"上海浦东新区芳甸路300号联洋广场B栋4楼(大拇指广场对面)  "},{"poiid":"B2094757D16CA7FF499A","title":"来吃面","lon":"121.562294","lat":"31.223865509","category":"247","category_name":"餐饮美食","address":"上海市浦东新区芳甸路300号B区104"},{"poiid":"B2094757D568A5FF489D","title":"近江和牛正传日本料理","lon":"121.55987901","lat":"31.22658773","category":"95","category_name":"日本料理","address":"浦东新区芳甸路199弄大拇指广场2楼(丁香路芳甸路)"},{"poiid":"B2094757D06AAAFD4099","title":"颐品茶道(大拇指广场店)","lon":"121.56114","lat":"31.22609","category":"260","category_name":"其他","address":"浦东新区迎春路1199号上海证大丽笙酒店旁(近芳甸路)"},{"poiid":"B2094751D36BA5FF4992","title":"家有好面（大拇指广场店）","lon":"121.55975","lat":"31.22646","category":"68","category_name":"快餐厅","address":"浦东新区芳甸路199弄38号大拇指广场1楼(近杨高中路)"},{"poiid":"B2094757D165A0FB4093","title":"九城会馆","lon":"121.56373","lat":"31.22408","category":"220","category_name":"运动场所","address":"浦东新区锦绣路300弄35号(锦绣路紫槐路)"},{"poiid":"B2094757D168A3FE4293","title":"京世造型","lon":"121.55998807","lat":"31.225717235","category":"148","category_name":"美容美发店","address":"上海迎春路1110号(近芳甸路)"},{"poiid":"B2094757D06AA2F84499","title":"棒约翰比萨 芳甸路店 Papa John's Pizza","lon":"121.559246054","lat":"31.227108793","category":"94","category_name":"西餐厅","address":"浦东新区芳甸路199弄大拇指广场15号(丁香路紫槐路)"},{"poiid":"B2094655D26DA0FD4799","title":"聚湘阁 大拇指广场店","lon":"121.559246054","lat":"31.227108793","category":"77","category_name":"湖南菜","address":"浦东新区芳甸路199弄40号大拇指广场内(迎春路口)"},{"poiid":"B2094757DA69A1FB409F","title":"上海证大丽笙酒店","lon":"121.56059833886","lat":"31.226293396117","category":"72","category_name":"广东菜","address":"浦东新区迎春路1199号上海证大丽笙酒店3楼(近紫槐路)"},{"poiid":"B2094757D068A6F4449B","title":"巴黎贝甜(芳甸店)","lon":"121.55991","lat":"31.22645","category":"67","category_name":"甜品店","address":"浦东新区芳甸路199弄证大大拇指广场1楼35号(近杨高中路)"},{"poiid":"B2094757D16AA4F84093","title":"宠乐道宠物医院柳杉分院","lon":"121.56647197","lat":"31.224570928","category":"162","category_name":"医院","address":"上海市浦东新区柳杉路47号"},{"poiid":"B2094757D069ABF44893","title":"世纪公园球场","lon":"121.559737308","lat":"31.2259069596","category":"196","category_name":"公园","address":"浦东新区锦绣路1001号世纪公园门(近七号线花木路站)"},{"poiid":"B2094655D268A3FC419C","title":"柏尔口腔","lon":"121.5624","lat":"31.22696","category":"162","category_name":"医院","address":"迎春路1301"},{"poiid":"B2094757D16FA2FF4193","title":"东方幼儿园(联洋部)","lon":"121.561307","lat":"31.227765","category":"57","category_name":"幼儿园","address":"浦东新区紫槐路30号(近联洋社区)"},{"poiid":"B2094757D66EA4FA4992","title":"小南国日式烧烤","lon":"121.560096975","lat":"31.2258849591","category":"269","category_name":"烧烤","address":"浦东新区芳甸路199弄40号大拇指广场1楼(联洋广场对面)"},{"poiid":"B2094750DA6AAAFD489A","title":"必胜客上海大拇指店","lon":"121.559555","lat":"31.222763","category":"500","category_name":"未知分类","address":null},{"poiid":"B2094757D06BAAFC469A","title":"亚洲蕉叶(大拇指)","lon":"121.55961868","lat":"31.2262073214","category":"110","category_name":"其他亚洲菜","address":"浦东新区芳甸路199弄55号大拇指广场内(迎春路口)"},{"poiid":"B2094750D665A4FE449D","title":"太平洋咖啡(大拇指广场店)","lon":"121.56","lat":"31.2263","category":"260","category_name":"其他","address":"浦东新区芳甸路199弄大拇指广场11号1楼(近杨高中路)"},{"poiid":"B2094757D164A5F5469D","title":"爱手爱脚","lon":"121.56403249","lat":"31.224996078","category":"500","category_name":"未知分类","address":"上海联洋大拇指广场"},{"poiid":"B2094655D36CA6F44692","title":"丁香路锦绣路","lon":"121.56621","lat":"31.22586","category":"38","category_name":"公交车站","address":""},{"poiid":"B2094757D16BA7FE439F","title":"斗牛士台湾牛肉面","lon":"121.56136397","lat":"31.226743979","category":"68","category_name":"快餐厅","address":"浦东新区芳甸路199弄38号1楼(大拇指广场)"},{"poiid":"B2094757D66CA3FB489F","title":"联洋地段医院","lon":"121.56191597","lat":"31.226475972","category":"162","category_name":"医院","address":"上海市浦东新区芳甸路"},{"poiid":"B2094654DA69A1FE4993","title":"上海联洋社区卫生服务中心","lon":"121.56135","lat":"31.22681","category":"162","category_name":"医院","address":"浦东新区紫槐路120号(近迎春路)"},{"poiid":"B2094757D06FA5FC419A","title":"藏珑泰极(大拇指广场店)","lon":"121.56025","lat":"31.22682","category":"99","category_name":"泰国／越南菜品餐厅","address":"浦东新区芳甸路199弄大拇指广场19号3楼(近丁香路)"},{"poiid":"B2094654DB6AA6FF449F","title":"证大丽笙酒店","lon":"121.56049","lat":"31.22634","category":"213","category_name":"五星级宾馆","address":"浦东新区迎春路1199号(近芳甸路)"},{"poiid":"B2094757D569A1FD4199","title":"埔里老镇","lon":"121.5603125","lat":"31.22719916","category":"91","category_name":"台湾菜","address":"浦东新区芳甸路199弄大拇指广场19号2楼(近迎春路)"},{"poiid":"B2094757D068A2FD489E","title":"九间堂","lon":"121.5620138","lat":"31.222304185","category":"500","category_name":"未知分类","address":"浦东新区芳甸路599弄1号(近锦绣路)"},{"poiid":"B2094757D069A4F4439D","title":"丰收日(联洋店)","lon":"121.559593975","lat":"31.2257219552","category":"75","category_name":"浙江菜","address":"浦东新区芳甸路300号联洋广场A区4楼(近迎春路)"},{"poiid":"B2094757D069A0F84892","title":"希腊餐厅(芳甸路店)","lon":"121.559723585","lat":"31.2261000756","category":"94","category_name":"西餐厅","address":"浦东新区芳甸路199弄证大大拇指广场43号1楼41铺(近杨高中路)"},{"poiid":"B2094757D068A3FC4199","title":"韩林炭烤(联洋店)","lon":"121.55924","lat":"31.22601","category":"96","category_name":"韩国料理","address":"上海浦东新区芳甸路199弄证大大拇指广场48号(近杨高中路)  "},{"poiid":"B2094655D26EA0FC4492","title":"沃歌斯","lon":"121.55816","lat":"31.23072","category":"94","category_name":"西餐厅","address":"浦东新区芳甸路199弄证大大拇指广场31号(南洋泾路杨高中路)"},{"poiid":"B2094655D265A2FD429D","title":"联洋营业厅","lon":"121.5592","lat":"31.22576","category":"151","category_name":"电讯营业厅","address":"浦东新区芳甸路285号"},{"poiid":"B2094751D469A0F8479C","title":"唐鱼儿麻辣鲜鱼火锅","lon":"121.560104","lat":"31.225509","category":"86","category_name":"火锅店","address":"浦东新区芳甸路199弄40号大拇指广场46号(近迎春路)"},{"poiid":"B2094757D06FABFD429C","title":"蒂梵尼造型设计(联洋广场店)","lon":"121.55922","lat":"31.22583","category":"148","category_name":"美容美发店","address":"浦东新区芳甸路300号联洋广场B区3楼(近大拇指广场)"},{"poiid":"B2094751D46BABFD469F","title":"义面屋","lon":"121.55899","lat":"31.225021","category":"94","category_name":"西餐厅","address":"浦东新区芳甸路199弄大拇指广场19号(预计12月开业)"},{"poiid":"B2094750DA68A4F4449A","title":"Blue Marlin","lon":"121.560188","lat":"31.227334","category":"248","category_name":"生活娱乐","address":"浦东新区芳甸路199弄17号大拇指广场"},{"poiid":"B2094751D569AAFE499B","title":"Lapasta 義麵屋","lon":"121.559636","lat":"31.226118","category":"247","category_name":"餐饮美食","address":"浦東新區芳甸路199弄33號2樓"},{"poiid":"B2094757D068A1F9429C","title":"家乐福(大拇指广场店)","lon":"121.55993652","lat":"31.226459503","category":"118","category_name":"超级市场","address":"上海浦东新区芳甸路199弄 大拇指广场地下一层"},{"poiid":"B2094757D065A0F44593","title":"爱尔兰文化餐厅","lon":"121.5593","lat":"31.22628","category":"94","category_name":"西餐厅","address":"浦东新区芳甸路199弄40号大拇指广场20号(迎春路口)"},{"poiid":"B2094757D16FA3F4489D","title":"韩林碳烤","lon":"121.56340789","lat":"31.223962783","category":"247","category_name":"餐饮美食","address":"上海大拇指广场"},{"poiid":"B2094757D569A3FB409D","title":"仁恒河滨城一期","lon":"121.566375","lat":"31.22726806","category":"47","category_name":"住宅区","address":"上海市浦东新区丁香路1599弄"},{"poiid":"B2094753DA6FA7F94793","title":"Mr.Pizza","lon":"121.564018","lat":"31.223802","category":"500","category_name":"未知分类","address":"上海市 上海市迎春路1089号大拇指广场(近芳甸路)"},{"poiid":"B2094654DA69A1FF459E","title":"泓叶","lon":"121.55912","lat":"31.22608","category":"76","category_name":"上海菜","address":"浦东新区芳甸路199弄40号大拇指广场内(迎春路口)"},{"poiid":"B2094750D165A2F84892","title":"深井大叔(大拇指店)","lon":"121.559715","lat":"31.226057","category":"72","category_name":"广东菜","address":"浦东新区芳甸路199弄证大大拇指广场43号1楼"},{"poiid":"B2094757D16CA4FE4293","title":"海游吞拿","lon":"121.55948767","lat":"31.225968761","category":"95","category_name":"日本料理","address":"芳甸路199弄大拇指广场2楼近杨高中路"},{"poiid":"B2094655D26DA7F44893","title":"金色维也纳(北门)","lon":"121.56318","lat":"31.22383","category":"47","category_name":"住宅区","address":"锦绣路333弄1-56号"},{"poiid":"B2094655D26DABFC4392","title":"浦东虹桥花园","lon":"121.56442","lat":"31.226006","category":"47","category_name":"住宅区","address":"锦绣路300弄1-37号"},{"poiid":"B2094757D568A0FF4498","title":"九间堂别墅","lon":"121.5613469","lat":"31.22273611","category":"47","category_name":"住宅区","address":"上海市浦东新区锦安东路88弄"},{"poiid":"B2094654DA69A2FA4492","title":"金色维也纳","lon":"121.56512","lat":"31.22323","category":"47","category_name":"住宅区","address":"锦绣路333弄1-56号"},{"poiid":"B2094757D065A4F94598","title":"张博士茗茶馆","lon":"121.56254497","lat":"31.223913912","category":"247","category_name":"餐饮美食","address":"上海浦东新区芳甸路300号联洋广场B栋4楼(大拇指广场对面)  "},{"poiid":"B2094757D16CA7FF499A","title":"来吃面","lon":"121.562294","lat":"31.223865509","category":"247","category_name":"餐饮美食","address":"上海市浦东新区芳甸路300号B区104"},{"poiid":"B2094757D568A5FF489D","title":"近江和牛正传日本料理","lon":"121.55987901","lat":"31.22658773","category":"95","category_name":"日本料理","address":"浦东新区芳甸路199弄大拇指广场2楼(丁香路芳甸路)"},{"poiid":"B2094757D06AAAFD4099","title":"颐品茶道(大拇指广场店)","lon":"121.56114","lat":"31.22609","category":"260","category_name":"其他","address":"浦东新区迎春路1199号上海证大丽笙酒店旁(近芳甸路)"},{"poiid":"B2094751D36BA5FF4992","title":"家有好面（大拇指广场店）","lon":"121.55975","lat":"31.22646","category":"68","category_name":"快餐厅","address":"浦东新区芳甸路199弄38号大拇指广场1楼(近杨高中路)"},{"poiid":"B2094757D165A0FB4093","title":"九城会馆","lon":"121.56373","lat":"31.22408","category":"220","category_name":"运动场所","address":"浦东新区锦绣路300弄35号(锦绣路紫槐路)"},{"poiid":"B2094757D168A3FE4293","title":"京世造型","lon":"121.55998807","lat":"31.225717235","category":"148","category_name":"美容美发店","address":"上海迎春路1110号(近芳甸路)"},{"poiid":"B2094757D06AA2F84499","title":"棒约翰比萨 芳甸路店 Papa John's Pizza","lon":"121.559246054","lat":"31.227108793","category":"94","category_name":"西餐厅","address":"浦东新区芳甸路199弄大拇指广场15号(丁香路紫槐路)"},{"poiid":"B2094655D26DA0FD4799","title":"聚湘阁 大拇指广场店","lon":"121.559246054","lat":"31.227108793","category":"77","category_name":"湖南菜","address":"浦东新区芳甸路199弄40号大拇指广场内(迎春路口)"},{"poiid":"B2094757DA69A1FB409F","title":"上海证大丽笙酒店","lon":"121.56059833886","lat":"31.226293396117","category":"72","category_name":"广东菜","address":"浦东新区迎春路1199号上海证大丽笙酒店3楼(近紫槐路)"},{"poiid":"B2094757D068A6F4449B","title":"巴黎贝甜(芳甸店)","lon":"121.55991","lat":"31.22645","category":"67","category_name":"甜品店","address":"浦东新区芳甸路199弄证大大拇指广场1楼35号(近杨高中路)"},{"poiid":"B2094757D16AA4F84093","title":"宠乐道宠物医院柳杉分院","lon":"121.56647197","lat":"31.224570928","category":"162","category_name":"医院","address":"上海市浦东新区柳杉路47号"},{"poiid":"B2094757D069ABF44893","title":"世纪公园球场","lon":"121.559737308","lat":"31.2259069596","category":"196","category_name":"公园","address":"浦东新区锦绣路1001号世纪公园门(近七号线花木路站)"},{"poiid":"B2094655D268A3FC419C","title":"柏尔口腔","lon":"121.5624","lat":"31.22696","category":"162","category_name":"医院","address":"迎春路1301"},{"poiid":"B2094757D16FA2FF4193","title":"东方幼儿园(联洋部)","lon":"121.561307","lat":"31.227765","category":"57","category_name":"幼儿园","address":"浦东新区紫槐路30号(近联洋社区)"},{"poiid":"B2094757D66EA4FA4992","title":"小南国日式烧烤","lon":"121.560096975","lat":"31.2258849591","category":"269","category_name":"烧烤","address":"浦东新区芳甸路199弄40号大拇指广场1楼(联洋广场对面)"},{"poiid":"B2094750DA6AAAFD489A","title":"必胜客上海大拇指店","lon":"121.559555","lat":"31.222763","category":"500","category_name":"未知分类","address":null},{"poiid":"B2094757D06BAAFC469A","title":"亚洲蕉叶(大拇指)","lon":"121.55961868","lat":"31.2262073214","category":"110","category_name":"其他亚洲菜","address":"浦东新区芳甸路199弄55号大拇指广场内(迎春路口)"},{"poiid":"B2094750D665A4FE449D","title":"太平洋咖啡(大拇指广场店)","lon":"121.56","lat":"31.2263","category":"260","category_name":"其他","address":"浦东新区芳甸路199弄大拇指广场11号1楼(近杨高中路)"},{"poiid":"B2094757D164A5F5469D","title":"爱手爱脚","lon":"121.56403249","lat":"31.224996078","category":"500","category_name":"未知分类","address":"上海联洋大拇指广场"},{"poiid":"B2094655D36CA6F44692","title":"丁香路锦绣路","lon":"121.56621","lat":"31.22586","category":"38","category_name":"公交车站","address":""},{"poiid":"B2094757D16BA7FE439F","title":"斗牛士台湾牛肉面","lon":"121.56136397","lat":"31.226743979","category":"68","category_name":"快餐厅","address":"浦东新区芳甸路199弄38号1楼(大拇指广场)"},{"poiid":"B2094757D66CA3FB489F","title":"联洋地段医院","lon":"121.56191597","lat":"31.226475972","category":"162","category_name":"医院","address":"上海市浦东新区芳甸路"},{"poiid":"B2094654DA69A1FE4993","title":"上海联洋社区卫生服务中心","lon":"121.56135","lat":"31.22681","category":"162","category_name":"医院","address":"浦东新区紫槐路120号(近迎春路)"},{"poiid":"B2094757D06FA5FC419A","title":"藏珑泰极(大拇指广场店)","lon":"121.56025","lat":"31.22682","category":"99","category_name":"泰国／越南菜品餐厅","address":"浦东新区芳甸路199弄大拇指广场19号3楼(近丁香路)"},{"poiid":"B2094654DB6AA6FF449F","title":"证大丽笙酒店","lon":"121.56049","lat":"31.22634","category":"213","category_name":"五星级宾馆","address":"浦东新区迎春路1199号(近芳甸路)"},{"poiid":"B2094757D569A1FD4199","title":"埔里老镇","lon":"121.5603125","lat":"31.22719916","category":"91","category_name":"台湾菜","address":"浦东新区芳甸路199弄大拇指广场19号2楼(近迎春路)"},{"poiid":"B2094757D068A2FD489E","title":"九间堂","lon":"121.5620138","lat":"31.222304185","category":"500","category_name":"未知分类","address":"浦东新区芳甸路599弄1号(近锦绣路)"},{"poiid":"B2094757D069A4F4439D","title":"丰收日(联洋店)","lon":"121.559593975","lat":"31.2257219552","category":"75","category_name":"浙江菜","address":"浦东新区芳甸路300号联洋广场A区4楼(近迎春路)"},{"poiid":"B2094757D069A0F84892","title":"希腊餐厅(芳甸路店)","lon":"121.559723585","lat":"31.2261000756","category":"94","category_name":"西餐厅","address":"浦东新区芳甸路199弄证大大拇指广场43号1楼41铺(近杨高中路)"},{"poiid":"B2094757D068A3FC4199","title":"韩林炭烤(联洋店)","lon":"121.55924","lat":"31.22601","category":"96","category_name":"韩国料理","address":"上海浦东新区芳甸路199弄证大大拇指广场48号(近杨高中路)  "},{"poiid":"B2094655D26EA0FC4492","title":"沃歌斯","lon":"121.55816","lat":"31.23072","category":"94","category_name":"西餐厅","address":"浦东新区芳甸路199弄证大大拇指广场31号(南洋泾路杨高中路)"},{"poiid":"B2094655D265A2FD429D","title":"联洋营业厅","lon":"121.5592","lat":"31.22576","category":"151","category_name":"电讯营业厅","address":"浦东新区芳甸路285号"},{"poiid":"B2094751D469A0F8479C","title":"唐鱼儿麻辣鲜鱼火锅","lon":"121.560104","lat":"31.225509","category":"86","category_name":"火锅店","address":"浦东新区芳甸路199弄40号大拇指广场46号(近迎春路)"},{"poiid":"B2094757D06FABFD429C","title":"蒂梵尼造型设计(联洋广场店)","lon":"121.55922","lat":"31.22583","category":"148","category_name":"美容美发店","address":"浦东新区芳甸路300号联洋广场B区3楼(近大拇指广场)"},{"poiid":"B2094751D46BABFD469F","title":"义面屋","lon":"121.55899","lat":"31.225021","category":"94","category_name":"西餐厅","address":"浦东新区芳甸路199弄大拇指广场19号(预计12月开业)"},{"poiid":"B2094750DA68A4F4449A","title":"Blue Marlin","lon":"121.560188","lat":"31.227334","category":"248","category_name":"生活娱乐","address":"浦东新区芳甸路199弄17号大拇指广场"},{"poiid":"B2094751D569AAFE499B","title":"Lapasta 義麵屋","lon":"121.559636","lat":"31.226118","category":"247","category_name":"餐饮美食","address":"浦東新區芳甸路199弄33號2樓"},{"poiid":"B2094757D068A1F9429C","title":"家乐福(大拇指广场店)","lon":"121.55993652","lat":"31.226459503","category":"118","category_name":"超级市场","address":"上海浦东新区芳甸路199弄 大拇指广场地下一层"},{"poiid":"B2094757D065A0F44593","title":"爱尔兰文化餐厅","lon":"121.5593","lat":"31.22628","category":"94","category_name":"西餐厅","address":"浦东新区芳甸路199弄40号大拇指广场20号(迎春路口)"},{"poiid":"B2094757D16FA3F4489D","title":"韩林碳烤","lon":"121.56340789","lat":"31.223962783","category":"247","category_name":"餐饮美食","address":"上海大拇指广场"},{"poiid":"B2094757D569A3FB409D","title":"仁恒河滨城一期","lon":"121.566375","lat":"31.22726806","category":"47","category_name":"住宅区","address":"上海市浦东新区丁香路1599弄"},{"poiid":"B2094753DA6FA7F94793","title":"Mr.Pizza","lon":"121.564018","lat":"31.223802","category":"500","category_name":"未知分类","address":"上海市 上海市迎春路1089号大拇指广场(近芳甸路)"},{"poiid":"B2094654DA69A1FF459E","title":"泓叶","lon":"121.55912","lat":"31.22608","category":"76","category_name":"上海菜","address":"浦东新区芳甸路199弄40号大拇指广场内(迎春路口)"},{"poiid":"B2094750D165A2F84892","title":"深井大叔(大拇指店)","lon":"121.559715","lat":"31.226057","category":"72","category_name":"广东菜","address":"浦东新区芳甸路199弄证大大拇指广场43号1楼"},{"poiid":"B2094757D16CA4FE4293","title":"海游吞拿","lon":"121.55948767","lat":"31.225968761","category":"95","category_name":"日本料理","address":"芳甸路199弄大拇指广场2楼近杨高中路"},{"poiid":"B2094655D26DA7F44893","title":"金色维也纳(北门)","lon":"121.56318","lat":"31.22383","category":"47","category_name":"住宅区","address":"锦绣路333弄1-56号"},{"poiid":"B2094655D26DABFC4392","title":"浦东虹桥花园","lon":"121.56442","lat":"31.226006","category":"47","category_name":"住宅区","address":"锦绣路300弄1-37号"},{"poiid":"B2094757D568A0FF4498","title":"九间堂别墅","lon":"121.5613469","lat":"31.22273611","category":"47","category_name":"住宅区","address":"上海市浦东新区锦安东路88弄"},{"poiid":"B2094654DA69A2FA4492","title":"金色维也纳","lon":"121.56512","lat":"31.22323","category":"47","category_name":"住宅区","address":"锦绣路333弄1-56号"},{"poiid":"B2094757D065A4F94598","title":"张博士茗茶馆","lon":"121.56254497","lat":"31.223913912","category":"247","category_name":"餐饮美食","address":"上海浦东新区芳甸路300号联洋广场B栋4楼(大拇指广场对面)  "},{"poiid":"B2094757D16CA7FF499A","title":"来吃面","lon":"121.562294","lat":"31.223865509","category":"247","category_name":"餐饮美食","address":"上海市浦东新区芳甸路300号B区104"},{"poiid":"B2094757D568A5FF489D","title":"近江和牛正传日本料理","lon":"121.55987901","lat":"31.22658773","category":"95","category_name":"日本料理","address":"浦东新区芳甸路199弄大拇指广场2楼(丁香路芳甸路)"},{"poiid":"B2094757D06AAAFD4099","title":"颐品茶道(大拇指广场店)","lon":"121.56114","lat":"31.22609","category":"260","category_name":"其他","address":"浦东新区迎春路1199号上海证大丽笙酒店旁(近芳甸路)"},{"poiid":"B2094751D36BA5FF4992","title":"家有好面（大拇指广场店）","lon":"121.55975","lat":"31.22646","category":"68","category_name":"快餐厅","address":"浦东新区芳甸路199弄38号大拇指广场1楼(近杨高中路)"},{"poiid":"B2094757D165A0FB4093","title":"九城会馆","lon":"121.56373","lat":"31.22408","category":"220","category_name":"运动场所","address":"浦东新区锦绣路300弄35号(锦绣路紫槐路)"},{"poiid":"B2094757D168A3FE4293","title":"京世造型","lon":"121.55998807","lat":"31.225717235","category":"148","category_name":"美容美发店","address":"上海迎春路1110号(近芳甸路)"},{"poiid":"B2094757D06AA2F84499","title":"棒约翰比萨 芳甸路店 Papa John's Pizza","lon":"121.559246054","lat":"31.227108793","category":"94","category_name":"西餐厅","address":"浦东新区芳甸路199弄大拇指广场15号(丁香路紫槐路)"},{"poiid":"B2094655D26DA0FD4799","title":"聚湘阁 大拇指广场店","lon":"121.559246054","lat":"31.227108793","category":"77","category_name":"湖南菜","address":"浦东新区芳甸路199弄40号大拇指广场内(迎春路口)"},{"poiid":"B2094757DA69A1FB409F","title":"上海证大丽笙酒店","lon":"121.56059833886","lat":"31.226293396117","category":"72","category_name":"广东菜","address":"浦东新区迎春路1199号上海证大丽笙酒店3楼(近紫槐路)"},{"poiid":"B2094757D068A6F4449B","title":"巴黎贝甜(芳甸店)","lon":"121.55991","lat":"31.22645","category":"67","category_name":"甜品店","address":"浦东新区芳甸路199弄证大大拇指广场1楼35号(近杨高中路)"},{"poiid":"B2094757D16AA4F84093","title":"宠乐道宠物医院柳杉分院","lon":"121.56647197","lat":"31.224570928","category":"162","category_name":"医院","address":"上海市浦东新区柳杉路47号"},{"poiid":"B2094757D069ABF44893","title":"世纪公园球场","lon":"121.559737308","lat":"31.2259069596","category":"196","category_name":"公园","address":"浦东新区锦绣路1001号世纪公园门(近七号线花木路站)"},{"poiid":"B2094655D268A3FC419C","title":"柏尔口腔","lon":"121.5624","lat":"31.22696","category":"162","category_name":"医院","address":"迎春路1301"},{"poiid":"B2094757D16FA2FF4193","title":"东方幼儿园(联洋部)","lon":"121.561307","lat":"31.227765","category":"57","category_name":"幼儿园","address":"浦东新区紫槐路30号(近联洋社区)"},{"poiid":"B2094757D66EA4FA4992","title":"小南国日式烧烤","lon":"121.560096975","lat":"31.2258849591","category":"269","category_name":"烧烤","address":"浦东新区芳甸路199弄40号大拇指广场1楼(联洋广场对面)"},{"poiid":"B2094750DA6AAAFD489A","title":"必胜客上海大拇指店","lon":"121.559555","lat":"31.222763","category":"500","category_name":"未知分类","address":null},{"poiid":"B2094757D06BAAFC469A","title":"亚洲蕉叶(大拇指)","lon":"121.55961868","lat":"31.2262073214","category":"110","category_name":"其他亚洲菜","address":"浦东新区芳甸路199弄55号大拇指广场内(迎春路口)"},{"poiid":"B2094750D665A4FE449D","title":"太平洋咖啡(大拇指广场店)","lon":"121.56","lat":"31.2263","category":"260","category_name":"其他","address":"浦东新区芳甸路199弄大拇指广场11号1楼(近杨高中路)"},{"poiid":"B2094757D164A5F5469D","title":"爱手爱脚","lon":"121.56403249","lat":"31.224996078","category":"500","category_name":"未知分类","address":"上海联洋大拇指广场"},{"poiid":"B2094655D36CA6F44692","title":"丁香路锦绣路","lon":"121.56621","lat":"31.22586","category":"38","category_name":"公交车站","address":""},{"poiid":"B2094757D16BA7FE439F","title":"斗牛士台湾牛肉面","lon":"121.56136397","lat":"31.226743979","category":"68","category_name":"快餐厅","address":"浦东新区芳甸路199弄38号1楼(大拇指广场)"},{"poiid":"B2094757D66CA3FB489F","title":"联洋地段医院","lon":"121.56191597","lat":"31.226475972","category":"162","category_name":"医院","address":"上海市浦东新区芳甸路"},{"poiid":"B2094654DA69A1FE4993","title":"上海联洋社区卫生服务中心","lon":"121.56135","lat":"31.22681","category":"162","category_name":"医院","address":"浦东新区紫槐路120号(近迎春路)"}]