[{"poiid":"B2094654DB65A1FE4298","title":"上海文化广场","lon":"121.46212","lat":"31.21173","category":"202","category_name":"公园广场","address":"卢湾区复兴中路576号(近陕西南路)"},{"poiid":"B2094757D06FA3FE439E","title":"天辣绿色时尚餐厅","lon":"121.46432","lat":"31.20454","category":"71","category_name":"四川菜","address":"卢湾区徐家汇路618号日月光广场4楼(近瑞金二路)"},{"poiid":"B2094757D06FA7FF4092","title":"老洋房花园饭店","lon":"121.46436","lat":"31.20902","category":"76","category_name":"上海菜","address":"卢湾区绍兴路27号(近瑞金二路)"},{"poiid":"B2094753D76FAAFA449C","title":"上海滩国泰旗舰店","lon":"121.466011","lat":"31.216125","category":"249","category_name":"购物服务","address":"淮海中路868号"},{"poiid":"B209475CD564A7F84292","title":"上海滩新天地店","lon":"121.47463","lat":"31.22164","category":"119","category_name":"商场","address":"\"太仓路181弄新天地北里15号\r\n\""},{"poiid":"B209475CD564A7F8439E","title":"上海滩中信泰富店","lon":"121.45602","lat":"31.22851","category":"119","category_name":"商场","address":"\"南京西路1168号中信泰富广场，店铺号221.\r\n\""},{"poiid":"B2094757D06FA1FC4099","title":"汉源书店","lon":"121.46486","lat":"31.20902","category":"260","category_name":"其他","address":"卢湾区绍兴路27号(近瑞金二路)"},{"poiid":"B2094750D26CA5F5449E","title":"百合福","lon":"121.465373","lat":"31.209495","category":"500","category_name":"未知分类","address":"徐家汇路618号日月光中心广场5楼"},{"poiid":"B2094757D06FA2FA489F","title":"Le Creme Milano(永嘉路店)","lon":"121.4610629","lat":"31.210917858","category":"113","category_name":"冷饮店","address":"上海徐汇区陕西南路434号(近永嘉路)"},{"poiid":"B2094757D06BA4F94993","title":"Fée-café","lon":"121.46402373","lat":"31.208885845","category":"260","category_name":"其他","address":"卢湾区绍兴路15-1号(近瑞金二路)"},{"poiid":"B2094757D06FA7F9409B","title":"Las Tapas(茂名南路店)","lon":"121.46401","lat":"31.21097","category":"94","category_name":"西餐厅","address":"卢湾区茂名南路207-4号(近复兴中路)"},{"poiid":"B2094757D06FA2FC409E","title":"蓝蛙(茂名店)","lon":"121.46315667","lat":"31.212204032","category":"260","category_name":"其他","address":"卢湾区茂名南路207号(近复兴中路)"},{"poiid":"B2094757D06FA7FF499D","title":"Vienna Cafe","lon":"121.46324557","lat":"31.208931419","category":"260","category_name":"其他","address":"卢湾区绍兴路25弄2号(近陕西南路)"},{"poiid":"B2094750D268A5FC4399","title":"Mimosa","lon":"121.461822","lat":"31.210657","category":"94","category_name":"西餐厅","address":"卢湾区永嘉路43号(近陕西南路)"},{"poiid":"B2094757D06FA4F44193","title":"绍兴路","lon":"121.46502887","lat":"31.209877647","category":"260","category_name":"其他","address":"上海市卢湾区绍兴路"},{"poiid":"B2094752DB6EA5FB4493","title":"徹思叔叔现烘起司蛋糕","lon":"121.46351","lat":"31.208374","category":"247","category_name":"餐饮美食","address":"上海市 日月光店"},{"poiid":"B2094757D06FAAF44092","title":"酒池星座(永嘉路店)","lon":"121.46370962","lat":"31.2108551502","category":"260","category_name":"其他","address":"卢湾区永嘉路31号2楼(近茂名南路)"},{"poiid":"B2094757D16EA0F9449A","title":"永康路","lon":"121.460757538","lat":"31.2108748877","category":"500","category_name":"未知分类","address":"上海徐汇区永康路"},{"poiid":"B2094757DB69A1FC4393","title":"圣摩珂咖啡 日月光店ST-MARC CAFE","lon":"121.464463","lat":"31.2096","category":"247","category_name":"餐饮美食","address":"卢湾区徐家汇路618号日月光中心广场1楼(近泰康路)"},{"poiid":"B2094757D06FA5FE459A","title":"卢湾区图书馆","lon":"121.4621","lat":"31.20881","category":"181","category_name":"图书馆","address":"上海卢湾区陕西南路235号(近绍兴路)"},{"poiid":"B2094757D76EAAFE439B","title":"玛哪胜地 绍兴路店 MANNE et SANTE","lon":"121.462357054","lat":"31.208839793","category":"112","category_name":"糕饼店","address":"卢湾区绍兴路96号甲2楼(近陕西南路)"},{"poiid":"B2094757D06FA3F4499E","title":"Mi Tierra","lon":"121.46475","lat":"31.21089","category":"94","category_name":"西餐厅","address":"卢湾区永嘉路17号(近茂名南路)"},{"poiid":"B2094654DB6AA7F54498","title":"笙馆(绍兴路店)","lon":"121.46401","lat":"31.20989","category":"247","category_name":"餐饮美食","address":"卢湾区绍兴路54号(近陕西南路)查看地图"},{"poiid":"B2094654DA6EA1FA4793","title":"上海电视大学卢湾分校","lon":"121.46333","lat":"31.2076","category":"53","category_name":"成人教育","address":"卢湾区建国西路154号(近陕西南路)"},{"poiid":"B2094757D569A7F54693","title":"茂名大厦写字楼","lon":"121.4637981","lat":"31.21081111","category":"46","category_name":"楼宇","address":"卢湾区永嘉路27-35号"},{"poiid":"B2094757D06AA2FE419F","title":"嘉善路永嘉路","lon":"121.46058735","lat":"31.209750078","category":"500","category_name":"未知分类","address":"上海嘉善路永嘉路"},{"poiid":"B2094757DB6FA5FB4598","title":"蔡家法式","lon":"121.464036","lat":"31.208159","category":"247","category_name":"餐饮美食","address":"日月光"},{"poiid":"B2094757D66BA6FA449E","title":"袋鼠酒吧 kangaroo bar","lon":"121.46255709061","lat":"31.210679062652","category":"172","category_name":"酒吧","address":"卢湾区永嘉路35号(茂名南路口)"},{"poiid":"B2094757D068A3F8449C","title":"裕华大厦","lon":"121.464","lat":"31.2089","category":"46","category_name":"楼宇","address":"铁西兴华南街与十马路交汇处"},{"poiid":"B2094757D16EA2F84098","title":"玛娜圣地","lon":"121.46361541","lat":"31.209356308","category":"65","category_name":"咖啡厅","address":"上海绍兴路96号"},{"poiid":"B2094757D06EABF5499F","title":"新单位","lon":"121.461281","lat":"31.210108","category":"46","category_name":"楼宇","address":"卢湾区永嘉路50号(近陕西南路)"},{"poiid":"B2094757D068A5FA4693","title":"绍兴公园","lon":"121.46341907","lat":"31.2094594357","category":"196","category_name":"公园","address":"卢湾区绍兴路62号(近陕西南路)"},{"poiid":"B2094757D069A3F94499","title":"双彩虹盲人按摩院(陕西店)","lon":"121.46314","lat":"31.21046","category":"149","category_name":"洗浴推拿场所","address":"上海卢湾区永嘉路45号(陕西南路口)"},{"poiid":"B2094757D06FAAF84598","title":"轻工大厦","lon":"121.464","lat":"31.2087","category":"46","category_name":"楼宇","address":"肇嘉浜路376号"},{"poiid":"B2094752D265A6FE4798","title":"正豪大大雞排（日月光中心）","lon":"121.461313","lat":"31.209285","category":"247","category_name":"餐饮美食","address":null},{"poiid":"B2094654DB64A6FB469F","title":"汉庭酒店(陕西南路店)","lon":"121.46183","lat":"31.20946","category":"216","category_name":"经济型连锁酒店","address":"卢湾区陕西南路233号(近永嘉路)"},{"poiid":"B2094757DA65A5FD499A","title":"一面行","lon":"121.462445","lat":"31.209391","category":"247","category_name":"餐饮美食","address":"卢湾区徐家汇路618号日月光广场B2美食广场F-35号商铺(近瑞金二路)"},{"poiid":"B2094751D36AA0FB469C","title":"The PlumpOyster普朗姆生蚝吧","lon":"121.462948","lat":"31.21048","category":"247","category_name":"餐饮美食","address":"建国中路171／169号301"},{"poiid":"B2094757D068A2FD469A","title":"星座酒吧","lon":"121.46367251","lat":"31.210932298","category":"172","category_name":"酒吧","address":"上海永嘉路"},{"poiid":"B2094757DB68AAFF4599","title":"sugar box","lon":"121.4640398044557","lat":"31.20811991048077","category":"247","category_name":"餐饮美食","address":"卢湾区徐家汇路618号日月光中心广场1楼F01号铺(近瑞金二路)"},{"poiid":"B2094654DA6EA1F4429C","title":"上海文化广场(南门)","lon":"121.46263","lat":"31.21077","category":"202","category_name":"公园广场","address":"上海卢湾区复兴中路597号(近陕西南路)"},{"poiid":"B2094752DA64A4FF4292","title":"德站琪日月光广场店","lon":"121.463011","lat":"31.209153","category":"500","category_name":"未知分类","address":"上海市 日月光广场"},{"poiid":"B2094750D26DA7F44492","title":"蝴姬日本料理","lon":"121.46288","lat":"31.210676","category":"247","category_name":"餐饮美食","address":"卢湾区徐家汇路618号日月光中心广场4楼(近瑞金二路)"},{"poiid":"B2094655D268A4FF449A","title":"上海市卢湾区业余大学","lon":"121.46333","lat":"31.2076","category":"53","category_name":"成人教育","address":"建国西路154号"},{"poiid":"B2094753D269A0FF479B","title":"韩国叔叔的小厨","lon":"121.462599","lat":"31.208528","category":"500","category_name":"未知分类","address":"上海市 日月光地下B2"},{"poiid":"B2094654DA6DA6FA449A","title":"太原邸","lon":"121.463","lat":"31.21","category":"47","category_name":"住宅区","address":"上海市徐汇区太原路289弄"},{"poiid":"B2094750DA6EA2FC4193","title":"Padparadscha","lon":"121.463813","lat":"31.209194","category":"65","category_name":"咖啡厅","address":"卢湾区绍兴路19号(近日月光中心)"},{"poiid":"B2094752D465A3FB489E","title":"candy lab","lon":"121.464053","lat":"31.210595","category":"248","category_name":"生活娱乐","address":"田子坊210弄20号"},{"poiid":"B2094654DA6EA1FB469A","title":"Pane e Vino","lon":"121.46327","lat":"31.21199","category":"94","category_name":"西餐厅","address":"卢湾区思南路47号(近复兴中路)"},{"poiid":"B2094750D26FA4FC4193","title":"le cafe des stagiaires","lon":"121.4624","lat":"31.20882","category":"113","category_name":"冷饮店","address":"卢湾区永康路52号(近襄阳路)"},{"poiid":"B2094654DB65A1FE4298","title":"上海文化广场","lon":"121.46212","lat":"31.21173","category":"202","category_name":"公园广场","address":"卢湾区复兴中路576号(近陕西南路)"},{"poiid":"B2094757D06FA3FE439E","title":"天辣绿色时尚餐厅","lon":"121.46432","lat":"31.20454","category":"71","category_name":"四川菜","address":"卢湾区徐家汇路618号日月光广场4楼(近瑞金二路)"},{"poiid":"B2094757D06FA7FF4092","title":"老洋房花园饭店","lon":"121.46436","lat":"31.20902","category":"76","category_name":"上海菜","address":"卢湾区绍兴路27号(近瑞金二路)"},{"poiid":"B2094753D76FAAFA449C","title":"上海滩国泰旗舰店","lon":"121.466011","lat":"31.216125","category":"249","category_name":"购物服务","address":"淮海中路868号"},{"poiid":"B209475CD564A7F84292","title":"上海滩新天地店","lon":"121.47463","lat":"31.22164","category":"119","category_name":"商场","address":"\"太仓路181弄新天地北里15号\r\n\""},{"poiid":"B209475CD564A7F8439E","title":"上海滩中信泰富店","lon":"121.45602","lat":"31.22851","category":"119","category_name":"商场","address":"\"南京西路1168号中信泰富广场，店铺号221.\r\n\""},{"poiid":"B2094757D06FA1FC4099","title":"汉源书店","lon":"121.46486","lat":"31.20902","category":"260","category_name":"其他","address":"卢湾区绍兴路27号(近瑞金二路)"},{"poiid":"B2094750D26CA5F5449E","title":"百合福","lon":"121.465373","lat":"31.209495","category":"500","category_name":"未知分类","address":"徐家汇路618号日月光中心广场5楼"},{"poiid":"B2094757D06FA2FA489F","title":"Le Creme Milano(永嘉路店)","lon":"121.4610629","lat":"31.210917858","category":"113","category_name":"冷饮店","address":"上海徐汇区陕西南路434号(近永嘉路)"},{"poiid":"B2094757D06BA4F94993","title":"Fée-café","lon":"121.46402373","lat":"31.208885845","category":"260","category_name":"其他","address":"卢湾区绍兴路15-1号(近瑞金二路)"},{"poiid":"B2094757D06FA7F9409B","title":"Las Tapas(茂名南路店)","lon":"121.46401","lat":"31.21097","category":"94","category_name":"西餐厅","address":"卢湾区茂名南路207-4号(近复兴中路)"},{"poiid":"B2094757D06FA2FC409E","title":"蓝蛙(茂名店)","lon":"121.46315667","lat":"31.212204032","category":"260","category_name":"其他","address":"卢湾区茂名南路207号(近复兴中路)"},{"poiid":"B2094757D06FA7FF499D","title":"Vienna Cafe","lon":"121.46324557","lat":"31.208931419","category":"260","category_name":"其他","address":"卢湾区绍兴路25弄2号(近陕西南路)"},{"poiid":"B2094750D268A5FC4399","title":"Mimosa","lon":"121.461822","lat":"31.210657","category":"94","category_name":"西餐厅","address":"卢湾区永嘉路43号(近陕西南路)"},{"poiid":"B2094757D06FA4F44193","title":"绍兴路","lon":"121.46502887","lat":"31.209877647","category":"260","category_name":"其他","address":"上海市卢湾区绍兴路"},{"poiid":"B2094752DB6EA5FB4493","title":"徹思叔叔现烘起司蛋糕","lon":"121.46351","lat":"31.208374","category":"247","category_name":"餐饮美食","address":"上海市 日月光店"},{"poiid":"B2094757D06FAAF44092","title":"酒池星座(永嘉路店)","lon":"121.46370962","lat":"31.2108551502","category":"260","category_name":"其他","address":"卢湾区永嘉路31号2楼(近茂名南路)"},{"poiid":"B2094757D16EA0F9449A","title":"永康路","lon":"121.460757538","lat":"31.2108748877","category":"500","category_name":"未知分类","address":"上海徐汇区永康路"},{"poiid":"B2094757DB69A1FC4393","title":"圣摩珂咖啡 日月光店ST-MARC CAFE","lon":"121.464463","lat":"31.2096","category":"247","category_name":"餐饮美食","address":"卢湾区徐家汇路618号日月光中心广场1楼(近泰康路)"},{"poiid":"B2094757D06FA5FE459A","title":"卢湾区图书馆","lon":"121.4621","lat":"31.20881","category":"181","category_name":"图书馆","address":"上海卢湾区陕西南路235号(近绍兴路)"},{"poiid":"B2094757D76EAAFE439B","title":"玛哪胜地 绍兴路店 MANNE et SANTE","lon":"121.462357054","lat":"31.208839793","category":"112","category_name":"糕饼店","address":"卢湾区绍兴路96号甲2楼(近陕西南路)"},{"poiid":"B2094757D06FA3F4499E","title":"Mi Tierra","lon":"121.46475","lat":"31.21089","category":"94","category_name":"西餐厅","address":"卢湾区永嘉路17号(近茂名南路)"},{"poiid":"B2094654DB6AA7F54498","title":"笙馆(绍兴路店)","lon":"121.46401","lat":"31.20989","category":"247","category_name":"餐饮美食","address":"卢湾区绍兴路54号(近陕西南路)查看地图"},{"poiid":"B2094654DA6EA1FA4793","title":"上海电视大学卢湾分校","lon":"121.46333","lat":"31.2076","category":"53","category_name":"成人教育","address":"卢湾区建国西路154号(近陕西南路)"},{"poiid":"B2094757D569A7F54693","title":"茂名大厦写字楼","lon":"121.4637981","lat":"31.21081111","category":"46","category_name":"楼宇","address":"卢湾区永嘉路27-35号"},{"poiid":"B2094757D06AA2FE419F","title":"嘉善路永嘉路","lon":"121.46058735","lat":"31.209750078","category":"500","category_name":"未知分类","address":"上海嘉善路永嘉路"},{"poiid":"B2094757DB6FA5FB4598","title":"蔡家法式","lon":"121.464036","lat":"31.208159","category":"247","category_name":"餐饮美食","address":"日月光"},{"poiid":"B2094757D66BA6FA449E","title":"袋鼠酒吧 kangaroo bar","lon":"121.46255709061","lat":"31.210679062652","category":"172","category_name":"酒吧","address":"卢湾区永嘉路35号(茂名南路口)"},{"poiid":"B2094757D068A3F8449C","title":"裕华大厦","lon":"121.464","lat":"31.2089","category":"46","category_name":"楼宇","address":"铁西兴华南街与十马路交汇处"},{"poiid":"B2094757D16EA2F84098","title":"玛娜圣地","lon":"121.46361541","lat":"31.209356308","category":"65","category_name":"咖啡厅","address":"上海绍兴路96号"},{"poiid":"B2094757D06EABF5499F","title":"新单位","lon":"121.461281","lat":"31.210108","category":"46","category_name":"楼宇","address":"卢湾区永嘉路50号(近陕西南路)"},{"poiid":"B2094757D068A5FA4693","title":"绍兴公园","lon":"121.46341907","lat":"31.2094594357","category":"196","category_name":"公园","address":"卢湾区绍兴路62号(近陕西南路)"},{"poiid":"B2094757D069A3F94499","title":"双彩虹盲人按摩院(陕西店)","lon":"121.46314","lat":"31.21046","category":"149","category_name":"洗浴推拿场所","address":"上海卢湾区永嘉路45号(陕西南路口)"},{"poiid":"B2094757D06FAAF84598","title":"轻工大厦","lon":"121.464","lat":"31.2087","category":"46","category_name":"楼宇","address":"肇嘉浜路376号"},{"poiid":"B2094752D265A6FE4798","title":"正豪大大雞排（日月光中心）","lon":"121.461313","lat":"31.209285","category":"247","category_name":"餐饮美食","address":null},{"poiid":"B2094654DB64A6FB469F","title":"汉庭酒店(陕西南路店)","lon":"121.46183","lat":"31.20946","category":"216","category_name":"经济型连锁酒店","address":"卢湾区陕西南路233号(近永嘉路)"},{"poiid":"B2094757DA65A5FD499A","title":"一面行","lon":"121.462445","lat":"31.209391","category":"247","category_name":"餐饮美食","address":"卢湾区徐家汇路618号日月光广场B2美食广场F-35号商铺(近瑞金二路)"},{"poiid":"B2094751D36AA0FB469C","title":"The PlumpOyster普朗姆生蚝吧","lon":"121.462948","lat":"31.21048","category":"247","category_name":"餐饮美食","address":"建国中路171／169号301"},{"poiid":"B2094757D068A2FD469A","title":"星座酒吧","lon":"121.46367251","lat":"31.210932298","category":"172","category_name":"酒吧","address":"上海永嘉路"},{"poiid":"B2094757DB68AAFF4599","title":"sugar box","lon":"121.4640398044557","lat":"31.20811991048077","category":"247","category_name":"餐饮美食","address":"卢湾区徐家汇路618号日月光中心广场1楼F01号铺(近瑞金二路)"},{"poiid":"B2094654DA6EA1F4429C","title":"上海文化广场(南门)","lon":"121.46263","lat":"31.21077","category":"202","category_name":"公园广场","address":"上海卢湾区复兴中路597号(近陕西南路)"},{"poiid":"B2094752DA64A4FF4292","title":"德站琪日月光广场店","lon":"121.463011","lat":"31.209153","category":"500","category_name":"未知分类","address":"上海市 日月光广场"},{"poiid":"B2094750D26DA7F44492","title":"蝴姬日本料理","lon":"121.46288","lat":"31.210676","category":"247","category_name":"餐饮美食","address":"卢湾区徐家汇路618号日月光中心广场4楼(近瑞金二路)"},{"poiid":"B2094655D268A4FF449A","title":"上海市卢湾区业余大学","lon":"121.46333","lat":"31.2076","category":"53","category_name":"成人教育","address":"建国西路154号"},{"poiid":"B2094753D269A0FF479B","title":"韩国叔叔的小厨","lon":"121.462599","lat":"31.208528","category":"500","category_name":"未知分类","address":"上海市 日月光地下B2"},{"poiid":"B2094654DA6DA6FA449A","title":"太原邸","lon":"121.463","lat":"31.21","category":"47","category_name":"住宅区","address":"上海市徐汇区太原路289弄"},{"poiid":"B2094750DA6EA2FC4193","title":"Padparadscha","lon":"121.463813","lat":"31.209194","category":"65","category_name":"咖啡厅","address":"卢湾区绍兴路19号(近日月光中心)"},{"poiid":"B2094752D465A3FB489E","title":"candy lab","lon":"121.464053","lat":"31.210595","category":"248","category_name":"生活娱乐","address":"田子坊210弄20号"},{"poiid":"B2094654DA6EA1FB469A","title":"Pane e Vino","lon":"121.46327","lat":"31.21199","category":"94","category_name":"西餐厅","address":"卢湾区思南路47号(近复兴中路)"},{"poiid":"B2094750D26FA4FC4193","title":"le cafe des stagiaires","lon":"121.4624","lat":"31.20882","category":"113","category_name":"冷饮店","address":"卢湾区永康路52号(近襄阳路)"},{"poiid":"B2094654DB65A1FE4298","title":"上海文化广场","lon":"121.46212","lat":"31.21173","category":"202","category_name":"公园广场","address":"卢湾区复兴中路576号(近陕西南路)"},{"poiid":"B2094757D06FA3FE439E","title":"天辣绿色时尚餐厅","lon":"121.46432","lat":"31.20454","category":"71","category_name":"四川菜","address":"卢湾区徐家汇路618号日月光广场4楼(近瑞金二路)"},{"poiid":"B2094757D06FA7FF4092","title":"老洋房花园饭店","lon":"121.46436","lat":"31.20902","category":"76","category_name":"上海菜","address":"卢湾区绍兴路27号(近瑞金二路)"},{"poiid":"B2094753D76FAAFA449C","title":"上海滩国泰旗舰店","lon":"121.466011","lat":"31.216125","category":"249","category_name":"购物服务","address":"淮海中路868号"},{"poiid":"B209475CD564A7F84292","title":"上海滩新天地店","lon":"121.47463","lat":"31.22164","category":"119","category_name":"商场","address":"\"太仓路181弄新天地北里15号\r\n\""},{"poiid":"B209475CD564A7F8439E","title":"上海滩中信泰富店","lon":"121.45602","lat":"31.22851","category":"119","category_name":"商场","address":"\"南京西路1168号中信泰富广场，店铺号221.\r\n\""},{"poiid":"B2094757D06FA1FC4099","title":"汉源书店","lon":"121.46486","lat":"31.20902","category":"260","category_name":"其他","address":"卢湾区绍兴路27号(近瑞金二路)"},{"poiid":"B2094750D26CA5F5449E","title":"百合福","lon":"121.465373","lat":"31.209495","category":"500","category_name":"未知分类","address":"徐家汇路618号日月光中心广场5楼"},{"poiid":"B2094757D06FA2FA489F","title":"Le Creme Milano(永嘉路店)","lon":"121.4610629","lat":"31.210917858","category":"113","category_name":"冷饮店","address":"上海徐汇区陕西南路434号(近永嘉路)"},{"poiid":"B2094757D06BA4F94993","title":"Fée-café","lon":"121.46402373","lat":"31.208885845","category":"260","category_name":"其他","address":"卢湾区绍兴路15-1号(近瑞金二路)"},{"poiid":"B2094757D06FA7F9409B","title":"Las Tapas(茂名南路店)","lon":"121.46401","lat":"31.21097","category":"94","category_name":"西餐厅","address":"卢湾区茂名南路207-4号(近复兴中路)"},{"poiid":"B2094757D06FA2FC409E","title":"蓝蛙(茂名店)","lon":"121.46315667","lat":"31.212204032","category":"260","category_name":"其他","address":"卢湾区茂名南路207号(近复兴中路)"},{"poiid":"B2094757D06FA7FF499D","title":"Vienna Cafe","lon":"121.46324557","lat":"31.208931419","category":"260","category_name":"其他","address":"卢湾区绍兴路25弄2号(近陕西南路)"},{"poiid":"B2094750D268A5FC4399","title":"Mimosa","lon":"121.461822","lat":"31.210657","category":"94","category_name":"西餐厅","address":"卢湾区永嘉路43号(近陕西南路)"},{"poiid":"B2094757D06FA4F44193","title":"绍兴路","lon":"121.46502887","lat":"31.209877647","category":"260","category_name":"其他","address":"上海市卢湾区绍兴路"},{"poiid":"B2094752DB6EA5FB4493","title":"徹思叔叔现烘起司蛋糕","lon":"121.46351","lat":"31.208374","category":"247","category_name":"餐饮美食","address":"上海市 日月光店"},{"poiid":"B2094757D06FAAF44092","title":"酒池星座(永嘉路店)","lon":"121.46370962","lat":"31.2108551502","category":"260","category_name":"其他","address":"卢湾区永嘉路31号2楼(近茂名南路)"},{"poiid":"B2094757D16EA0F9449A","title":"永康路","lon":"121.460757538","lat":"31.2108748877","category":"500","category_name":"未知分类","address":"上海徐汇区永康路"},{"poiid":"B2094757DB69A1FC4393","title":"圣摩珂咖啡 日月光店ST-MARC CAFE","lon":"121.464463","lat":"31.2096","category":"247","category_name":"餐饮美食","address":"卢湾区徐家汇路618号日月光中心广场1楼(近泰康路)"},{"poiid":"B2094757D06FA5FE459A","title":"卢湾区图书馆","lon":"121.4621","lat":"31.20881","category":"181","category_name":"图书馆","address":"上海卢湾区陕西南路235号(近绍兴路)"},{"poiid":"B2094757D76EAAFE439B","title":"玛哪胜地 绍兴路店 MANNE et SANTE","lon":"121.462357054","lat":"31.208839793","category":"112","category_name":"糕饼店","address":"卢湾区绍兴路96号甲2楼(近陕西南路)"},{"poiid":"B2094757D06FA3F4499E","title":"Mi Tierra","lon":"121.46475","lat":"31.21089","category":"94","category_name":"西餐厅","address":"卢湾区永嘉路17号(近茂名南路)"},{"poiid":"B2094654DB6AA7F54498","title":"笙馆(绍兴路店)","lon":"121.46401","lat":"31.20989","category":"247","category_name":"餐饮美食","address":"卢湾区绍兴路54号(近陕西南路)查看地图"},{"poiid":"B2094654DA6EA1FA4793","title":"上海电视大学卢湾分校","lon":"121.46333","lat":"31.2076","category":"53","category_name":"成人教育","address":"卢湾区建国西路154号(近陕西南路)"},{"poiid":"B2094757D569A7F54693","title":"茂名大厦写字楼","lon":"121.4637981","lat":"31.21081111","category":"46","category_name":"楼宇","address":"卢湾区永嘉路27-35号"},{"poiid":"B2094757D06AA2FE419F","title":"嘉善路永嘉路","lon":"121.46058735","lat":"31.209750078","category":"500","category_name":"未知分类","address":"上海嘉善路永嘉路"},{"poiid":"B2094757DB6FA5FB4598","title":"蔡家法式","lon":"121.464036","lat":"31.208159","category":"247","category_name":"餐饮美食","address":"日月光"},{"poiid":"B2094757D66BA6FA449E","title":"袋鼠酒吧 kangaroo bar","lon":"121.46255709061","lat":"31.210679062652","category":"172","category_name":"酒吧","address":"卢湾区永嘉路35号(茂名南路口)"},{"poiid":"B2094757D068A3F8449C","title":"裕华大厦","lon":"121.464","lat":"31.2089","category":"46","category_name":"楼宇","address":"铁西兴华南街与十马路交汇处"},{"poiid":"B2094757D16EA2F84098","title":"玛娜圣地","lon":"121.46361541","lat":"31.209356308","category":"65","category_name":"咖啡厅","address":"上海绍兴路96号"},{"poiid":"B2094757D06EABF5499F","title":"新单位","lon":"121.461281","lat":"31.210108","category":"46","category_name":"楼宇","address":"卢湾区永嘉路50号(近陕西南路)"},{"poiid":"B2094757D068A5FA4693","title":"绍兴公园","lon":"121.46341907","lat":"31.2094594357","category":"196","category_name":"公园","address":"卢湾区绍兴路62号(近陕西南路)"},{"poiid":"B2094757D069A3F94499","title":"双彩虹盲人按摩院(陕西店)","lon":"121.46314","lat":"31.21046","category":"149","category_name":"洗浴推拿场所","address":"上海卢湾区永嘉路45号(陕西南路口)"},{"poiid":"B2094757D06FAAF84598","title":"轻工大厦","lon":"121.464","lat":"31.2087","category":"46","category_name":"楼宇","address":"肇嘉浜路376号"},{"poiid":"B2094752D265A6FE4798","title":"正豪大大雞排（日月光中心）","lon":"121.461313","lat":"31.209285","category":"247","category_name":"餐饮美食","address":null},{"poiid":"B2094654DB64A6FB469F","title":"汉庭酒店(陕西南路店)","lon":"121.46183","lat":"31.20946","category":"216","category_name":"经济型连锁酒店","address":"卢湾区陕西南路233号(近永嘉路)"},{"poiid":"B2094757DA65A5FD499A","title":"一面行","lon":"121.462445","lat":"31.209391","category":"247","category_name":"餐饮美食","address":"卢湾区徐家汇路618号日月光广场B2美食广场F-35号商铺(近瑞金二路)"},{"poiid":"B2094751D36AA0FB469C","title":"The PlumpOyster普朗姆生蚝吧","lon":"121.462948","lat":"31.21048","category":"247","category_name":"餐饮美食","address":"建国中路171／169号301"},{"poiid":"B2094757D068A2FD469A","title":"星座酒吧","lon":"121.46367251","lat":"31.210932298","category":"172","category_name":"酒吧","address":"上海永嘉路"},{"poiid":"B2094757DB68AAFF4599","title":"sugar box","lon":"121.4640398044557","lat":"31.20811991048077","category":"247","category_name":"餐饮美食","address":"卢湾区徐家汇路618号日月光中心广场1楼F01号铺(近瑞金二路)"},{"poiid":"B2094654DA6EA1F4429C","title":"上海文化广场(南门)","lon":"121.46263","lat":"31.21077","category":"202","category_name":"公园广场","address":"上海卢湾区复兴中路597号(近陕西南路)"},{"poiid":"B2094752DA64A4FF4292","title":"德站琪日月光广场店","lon":"121.463011","lat":"31.209153","category":"500","category_name":"未知分类","address":"上海市 日月光广场"},{"poiid":"B2094750D26DA7F44492","title":"蝴姬日本料理","lon":"121.46288","lat":"31.210676","category":"247","category_name":"餐饮美食","address":"卢湾区徐家汇路618号日月光中心广场4楼(近瑞金二路)"},{"poiid":"B2094655D268A4FF449A","title":"上海市卢湾区业余大学","lon":"121.46333","lat":"31.2076","category":"53","category_name":"成人教育","address":"建国西路154号"},{"poiid":"B2094753D269A0FF479B","title":"韩国叔叔的小厨","lon":"121.462599","lat":"31.208528","category":"500","category_name":"未知分类","address":"上海市 日月光地下B2"},{"poiid":"B2094654DA6DA6FA449A","title":"太原邸","lon":"121.463","lat":"31.21","category":"47","category_name":"住宅区","address":"上海市徐汇区太原路289弄"},{"poiid":"B2094750DA6EA2FC4193","title":"Padparadscha","lon":"121.463813","lat":"31.209194","category":"65","category_name":"咖啡厅","address":"卢湾区绍兴路19号(近日月光中心)"},{"poiid":"B2094752D465A3FB489E","title":"candy lab","lon":"121.464053","lat":"31.210595","category":"248","category_name":"生活娱乐","address":"田子坊210弄20号"},{"poiid":"B2094654DA6EA1FB469A","title":"Pane e Vino","lon":"121.46327","lat":"31.21199","category":"94","category_name":"西餐厅","address":"卢湾区思南路47号(近复兴中路)"},{"poiid":"B2094750D26FA4FC4193","title":"le cafe des stagiaires","lon":"121.4624","lat":"31.20882","category":"113","category_name":"冷饮店","address":"卢湾区永康路52号(近襄阳路)"},{"poiid":"B2094654DB65A1FE4298","title":"上海文化广场","lon":"121.46212","lat":"31.21173","category":"202","category_name":"公园广场","address":"卢湾区复兴中路576号(近陕西南路)"},{"poiid":"B2094757D06FA3FE439E","title":"天辣绿色时尚餐厅","lon":"121.46432","lat":"31.20454","category":"71","category_name":"四川菜","address":"卢湾区徐家汇路618号日月光广场4楼(近瑞金二路)"},{"poiid":"B2094757D06FA7FF4092","title":"老洋房花园饭店","lon":"121.46436","lat":"31.20902","category":"76","category_name":"上海菜","address":"卢湾区绍兴路27号(近瑞金二路)"},{"poiid":"B2094753D76FAAFA449C","title":"上海滩国泰旗舰店","lon":"121.466011","lat":"31.216125","category":"249","category_name":"购物服务","address":"淮海中路868号"},{"poiid":"B209475CD564A7F84292","title":"上海滩新天地店","lon":"121.47463","lat":"31.22164","category":"119","category_name":"商场","address":"\"太仓路181弄新天地北里15号\r\n\""},{"poiid":"B209475CD564A7F8439E","title":"上海滩中信泰富店","lon":"121.45602","lat":"31.22851","category":"119","category_name":"商场","address":"\"南京西路1168号中信泰富广场，店铺号221.\r\n\""},{"poiid":"B2094757D06FA1FC4099","title":"汉源书店","lon":"121.46486","lat":"31.20902","category":"260","category_name":"其他","address":"卢湾区绍兴路27号(近瑞金二路)"},{"poiid":"B2094750D26CA5F5449E","title":"百合福","lon":"121.465373","lat":"31.209495","category":"500","category_name":"未知分类","address":"徐家汇路618号日月光中心广场5楼"},{"poiid":"B2094757D06FA2FA489F","title":"Le Creme Milano(永嘉路店)","lon":"121.4610629","lat":"31.210917858","category":"113","category_name":"冷饮店","address":"上海徐汇区陕西南路434号(近永嘉路)"},{"poiid":"B2094757D06BA4F94993","title":"Fée-café","lon":"121.46402373","lat":"31.208885845","category":"260","category_name":"其他","address":"卢湾区绍兴路15-1号(近瑞金二路)"},{"poiid":"B2094757D06FA7F9409B","title":"Las Tapas(茂名南路店)","lon":"121.46401","lat":"31.21097","category":"94","category_name":"西餐厅","address":"卢湾区茂名南路207-4号(近复兴中路)"},{"poiid":"B2094757D06FA2FC409E","title":"蓝蛙(茂名店)","lon":"121.46315667","lat":"31.212204032","category":"260","category_name":"其他","address":"卢湾区茂名南路207号(近复兴中路)"},{"poiid":"B2094757D06FA7FF499D","title":"Vienna Cafe","lon":"121.46324557","lat":"31.208931419","category":"260","category_name":"其他","address":"卢湾区绍兴路25弄2号(近陕西南路)"},{"poiid":"B2094750D268A5FC4399","title":"Mimosa","lon":"121.461822","lat":"31.210657","category":"94","category_name":"西餐厅","address":"卢湾区永嘉路43号(近陕西南路)"},{"poiid":"B2094757D06FA4F44193","title":"绍兴路","lon":"121.46502887","lat":"31.209877647","category":"260","category_name":"其他","address":"上海市卢湾区绍兴路"},{"poiid":"B2094752DB6EA5FB4493","title":"徹思叔叔现烘起司蛋糕","lon":"121.46351","lat":"31.208374","category":"247","category_name":"餐饮美食","address":"上海市 日月光店"},{"poiid":"B2094757D06FAAF44092","title":"酒池星座(永嘉路店)","lon":"121.46370962","lat":"31.2108551502","category":"260","category_name":"其他","address":"卢湾区永嘉路31号2楼(近茂名南路)"},{"poiid":"B2094757D16EA0F9449A","title":"永康路","lon":"121.460757538","lat":"31.2108748877","category":"500","category_name":"未知分类","address":"上海徐汇区永康路"},{"poiid":"B2094757DB69A1FC4393","title":"圣摩珂咖啡 日月光店ST-MARC CAFE","lon":"121.464463","lat":"31.2096","category":"247","category_name":"餐饮美食","address":"卢湾区徐家汇路618号日月光中心广场1楼(近泰康路)"},{"poiid":"B2094757D06FA5FE459A","title":"卢湾区图书馆","lon":"121.4621","lat":"31.20881","category":"181","category_name":"图书馆","address":"上海卢湾区陕西南路235号(近绍兴路)"},{"poiid":"B2094757D76EAAFE439B","title":"玛哪胜地 绍兴路店 MANNE et SANTE","lon":"121.462357054","lat":"31.208839793","category":"112","category_name":"糕饼店","address":"卢湾区绍兴路96号甲2楼(近陕西南路)"},{"poiid":"B2094757D06FA3F4499E","title":"Mi Tierra","lon":"121.46475","lat":"31.21089","category":"94","category_name":"西餐厅","address":"卢湾区永嘉路17号(近茂名南路)"},{"poiid":"B2094654DB6AA7F54498","title":"笙馆(绍兴路店)","lon":"121.46401","lat":"31.20989","category":"247","category_name":"餐饮美食","address":"卢湾区绍兴路54号(近陕西南路)查看地图"},{"poiid":"B2094654DA6EA1FA4793","title":"上海电视大学卢湾分校","lon":"121.46333","lat":"31.2076","category":"53","category_name":"成人教育","address":"卢湾区建国西路154号(近陕西南路)"},{"poiid":"B2094757D569A7F54693","title":"茂名大厦写字楼","lon":"121.4637981","lat":"31.21081111","category":"46","category_name":"楼宇","address":"卢湾区永嘉路27-35号"},{"poiid":"B2094757D06AA2FE419F","title":"嘉善路永嘉路","lon":"121.46058735","lat":"31.209750078","category":"500","category_name":"未知分类","address":"上海嘉善路永嘉路"},{"poiid":"B2094757DB6FA5FB4598","title":"蔡家法式","lon":"121.464036","lat":"31.208159","category":"247","category_name":"餐饮美食","address":"日月光"},{"poiid":"B2094757D66BA6FA449E","title":"袋鼠酒吧 kangaroo bar","lon":"121.46255709061","lat":"31.210679062652","category":"172","category_name":"酒吧","address":"卢湾区永嘉路35号(茂名南路口)"},{"poiid":"B2094757D068A3F8449C","title":"裕华大厦","lon":"121.464","lat":"31.2089","category":"46","category_name":"楼宇","address":"铁西兴华南街与十马路交汇处"},{"poiid":"B2094757D16EA2F84098","title":"玛娜圣地","lon":"121.46361541","lat":"31.209356308","category":"65","category_name":"咖啡厅","address":"上海绍兴路96号"},{"poiid":"B2094757D06EABF5499F","title":"新单位","lon":"121.461281","lat":"31.210108","category":"46","category_name":"楼宇","address":"卢湾区永嘉路50号(近陕西南路)"},{"poiid":"B2094757D068A5FA4693","title":"绍兴公园","lon":"121.46341907","lat":"31.2094594357","category":"196","category_name":"公园","address":"卢湾区绍兴路62号(近陕西南路)"},{"poiid":"B2094757D069A3F94499","title":"双彩虹盲人按摩院(陕西店)","lon":"121.46314","lat":"31.21046","category":"149","category_name":"洗浴推拿场所","address":"上海卢湾区永嘉路45号(陕西南路口)"},{"poiid":"B2094757D06FAAF84598","title":"轻工大厦","lon":"121.464","lat":"31.2087","category":"46","category_name":"楼宇","address":"肇嘉浜路376号"},{"poiid":"B2094752D265A6FE4798","title":"正豪大大雞排（日月光中心）","lon":"121.461313","lat":"31.209285","category":"247","category_name":"餐饮美食","address":null},{"poiid":"B2094654DB64A6FB469F","title":"汉庭酒店(陕西南路店)","lon":"121.46183","lat":"31.20946","category":"216","category_name":"经济型连锁酒店","address":"卢湾区陕西南路233号(近永嘉路)"},{"poiid":"B2094757DA65A5FD499A","title":"一面行","lon":"121.462445","lat":"31.209391","category":"247","category_name":"餐饮美食","address":"卢湾区徐家汇路618号日月光广场B2美食广场F-35号商铺(近瑞金二路)"},{"poiid":"B2094751D36AA0FB469C","title":"The PlumpOyster普朗姆生蚝吧","lon":"121.462948","lat":"31.21048","category":"247","category_name":"餐饮美食","address":"建国中路171／169号301"},{"poiid":"B2094757D068A2FD469A","title":"星座酒吧","lon":"121.46367251","lat":"31.210932298","category":"172","category_name":"酒吧","address":"上海永嘉路"},{"poiid":"B2094757DB68AAFF4599","title":"sugar box","lon":"121.4640398044557","lat":"31.20811991048077","category":"247","category_name":"餐饮美食","address":"卢湾区徐家汇路618号日月光中心广场1楼F01号铺(近瑞金二路)"},{"poiid":"B2094654DA6EA1F4429C","title":"上海文化广场(南门)","lon":"121.46263","lat":"31.21077","category":"202","category_name":"公园广场","address":"上海卢湾区复兴中路597号(近陕西南路)"},{"poiid":"B2094752DA64A4FF4292","title":"德站琪日月光广场店","lon":"121.463011","lat":"31.209153","category":"500","category_name":"未知分类","address":"上海市 日月光广场"},{"poiid":"B2094750D26DA7F44492","title":"蝴姬日本料理","lon":"121.46288","lat":"31.210676","category":"247","category_name":"餐饮美食","address":"卢湾区徐家汇路618号日月光中心广场4楼(近瑞金二路)"},{"poiid":"B2094655D268A4FF449A","title":"上海市卢湾区业余大学","lon":"121.46333","lat":"31.2076","category":"53","category_name":"成人教育","address":"建国西路154号"},{"poiid":"B2094753D269A0FF479B","title":"韩国叔叔的小厨","lon":"121.462599","lat":"31.208528","category":"500","category_name":"未知分类","address":"上海市 日月光地下B2"},{"poiid":"B2094654DA6DA6FA449A","title":"太原邸","lon":"121.463","lat":"31.21","category":"47","category_name":"住宅区","address":"上海市徐汇区太原路289弄"},{"poiid":"B2094750DA6EA2FC4193","title":"Padparadscha","lon":"121.463813","lat":"31.209194","category":"65","category_name":"咖啡厅","address":"卢湾区绍兴路19号(近日月光中心)"},{"poiid":"B2094752D465A3FB489E","title":"candy lab","lon":"121.464053","lat":"31.210595","category":"248","category_name":"生活娱乐","address":"田子坊210弄20号"},{"poiid":"B2094654DA6EA1FB469A","title":"Pane e Vino","lon":"121.46327","lat":"31.21199","category":"94","category_name":"西餐厅","address":"卢湾区思南路47号(近复兴中路)"},{"poiid":"B2094750D26FA4FC4193","title":"le cafe des stagiaires","lon":"121.4624","lat":"31.20882","category":"113","category_name":"冷饮店","address":"卢湾区永康路52号(近襄阳路)"}]