[{"poiid":"B2094654DB65A4FE409B","title":"上海立信会计学院","lon":"121.19864","lat":"31.04493","category":"671","category_name":"高校中心点","address":"上海近郊松江区文翔路2800号"},{"poiid":"B2094757D06EAAF8439F","title":"泰晤士小镇小区","lon":"121.20448030631","lat":"31.035668438909","category":"250","category_name":"公园户外","address":"上海市松江区玉华路仓桥镇"},{"poiid":"B2094757D06FA1F54092","title":"复旦大学上海视觉艺术学院(松江文翔路校区)","lon":"121.20691781406879","lat":"31.0461274825704","category":"52","category_name":"高等院校","address":"上海松江区文翔路2200号"},{"poiid":"B2094757D06EAAFF439A","title":"松江大学城四期学生公寓","lon":"121.199562277","lat":"31.0495922066","category":"253","category_name":"校园生活","address":"上海松江区松江大学城文汇路1000弄"},{"poiid":"B2094757D06FA0F4479A","title":"松江大学城三期寝室","lon":"121.20460969","lat":"31.050815503","category":"253","category_name":"校园生活","address":"上海文汇路800弄"},{"poiid":"B2094757D06BABFC489B","title":"松江大学城三期","lon":"121.203803149","lat":"31.0493673889","category":"252","category_name":"楼宇机构","address":"上海文汇路800弄"},{"poiid":"B2094757D068A4F84199","title":"文汇路","lon":"121.202765","lat":"31.049669","category":"260","category_name":"其他","address":"上海市松江区文汇路"},{"poiid":"B2094757D06FA0F5479A","title":"立信会计学院图书馆","lon":"121.197523143","lat":"31.0473464077","category":"253","category_name":"校园生活","address":"松江区松江文翔路2800号"},{"poiid":"B2094757D068A1FF409F","title":"华亭湖时代大酒店","lon":"121.20665","lat":"31.0384","category":"76","category_name":"上海菜","address":"松江区滨湖路99号(滨湖路新松江路)"},{"poiid":"B2094757D06FA0F9449C","title":"肯德基 KFC (大学城店)","lon":"121.20284","lat":"31.049604","category":"68","category_name":"快餐厅","address":"松江区文汇路818号(近龙源路)"},{"poiid":"B2094757D06FA0FD499D","title":"立信会计学院三号楼","lon":"121.198651","lat":"31.044932","category":"253","category_name":"校园生活","address":"上海市松江区文翔路2800号"},{"poiid":"B2094757D66EA7F8429C","title":"阁楼上的猫","lon":"121.205550196","lat":"31.0499700858","category":"260","category_name":"其他","address":"松江区文汇路樱花广场3楼"},{"poiid":"B2094757D16FA7FE439A","title":"8898","lon":"121.21052","lat":"31.03914","category":"260","category_name":"其他","address":"松江区新松江路1296号(近江学路)"},{"poiid":"B2094757D068A0F4419D","title":"甜满多","lon":"121.199608396","lat":"31.0500254036","category":"113","category_name":"冷饮店","address":"松江区大学城4期文汇路988弄(尚网旁)"},{"poiid":"B2094757D168A7FA419A","title":"立信斗兽场图书馆","lon":"121.19694446","lat":"31.046554862","category":"181","category_name":"图书馆","address":"上海市松江区文汇路"},{"poiid":"B2094757D068A7F5409F","title":"复旦大学上海视觉艺术学院实训楼","lon":"121.20693206","lat":"31.049365997","category":"500","category_name":"未知分类","address":"上海松江区文翔路2200号"},{"poiid":"B2094757D069A2FB4992","title":"紫东新苑","lon":"121.20824","lat":"31.043177","category":"47","category_name":"住宅区","address":"中艺花园位于宝山海江路9号"},{"poiid":"B2094757D064AAFB429E","title":"华东政法大学明珠楼","lon":"121.2053139","lat":"31.050214021","category":"181","category_name":"图书馆","address":"上海华东政法大学"},{"poiid":"B2094757D068A7FD4098","title":"复旦大学上海视觉艺术学院逸飞楼","lon":"121.207051","lat":"31.046188","category":"253","category_name":"校园生活","address":"上海松江區文翔路2200號"},{"poiid":"B2094757D06FA6FB409E","title":"立信会计学院二号楼","lon":"121.19853514","lat":"31.0461744047","category":"253","category_name":"校园生活","address":"上海文翔路2800号"},{"poiid":"B2094757D16CAAFD429B","title":"上海立信会计学院六号楼","lon":"121.20170246","lat":"31.04192926","category":"500","category_name":"未知分类","address":"上海市松江区文翔路2800号"},{"poiid":"B2094757D068A0FC459A","title":"宝寿司(松江大学城店)","lon":"121.20033521","lat":"31.049643199","category":"95","category_name":"日本料理","address":"松江区文汇路928弄102室(龙源路口)"},{"poiid":"B2094757D06FA6FB459B","title":"立信会计学院四号楼","lon":"121.19712313","lat":"31.043998408","category":"253","category_name":"校园生活","address":"上海市松江区文翔路2800号"},{"poiid":"B2094757D06FA7F94399","title":"立信会计学院五号楼","lon":"121.19723578","lat":"31.044692951","category":"253","category_name":"校园生活","address":"上海市松江区文翔路2800号"},{"poiid":"B2094750D56FA3F4459D","title":"花神咖啡馆","lon":"121.203689","lat":"31.049484","category":"260","category_name":"其他","address":"松江区文汇路770号201室(近龙源路)"},{"poiid":"B2094655D268A5FB419F","title":"上海视觉艺术学院(西门)","lon":"121.20129","lat":"31.04483","category":"52","category_name":"高等院校","address":""},{"poiid":"B2094655D264A4FC499B","title":"松江大学城800弄","lon":"121.20311","lat":"31.0494","category":"52","category_name":"高等院校","address":"文汇路800弄"},{"poiid":"B2094654DB6EA2FB419E","title":"松江区教师进修学院附属幼儿园","lon":"121.202","lat":"31.04164","category":"57","category_name":"幼儿园","address":"松江区龙源路180号"},{"poiid":"B2094654DB6EA2FB419B","title":"中国电信新城电信分局","lon":"121.20203","lat":"31.04308","category":"263","category_name":"公司","address":""},{"poiid":"B2094654DB6EA2FB419D","title":"世纪新城(新松江路)","lon":"121.20455","lat":"31.03912","category":"47","category_name":"住宅区","address":"上海市松江区文翔路"},{"poiid":"B2094751D46BA4FC4998","title":"皇家海港大酒楼","lon":"121.2066558","lat":"31.0447566","category":"247","category_name":"餐饮美食","address":"松江区江学路899号(近新松江路)"},{"poiid":"B2094757DA6FA3FC499D","title":"菲芘酒吧","lon":"121.207674999999","lat":"31.0440599999999","category":"248","category_name":"生活娱乐","address":"松江区东明国际商城17幢(近江学路,文翔路)"},{"poiid":"B2094757D569A1FE489C","title":"复旦上海视觉艺术学院图文楼","lon":"121.2069161","lat":"31.04613306","category":"52","category_name":"高等院校","address":"文翔路2200号"},{"poiid":"B2094655D36CA1FF499B","title":"龙源路文翔路","lon":"121.20102","lat":"31.04401","category":"38","category_name":"公交车站","address":""},{"poiid":"B2094753D76EA0F9449E","title":"Ciao意大利餐厅","lon":"121.203155","lat":"31.04154","category":"500","category_name":"未知分类","address":"上海市 泰晤士小镇"},{"poiid":"B2094757D16FABFF449A","title":"simply時尚吧檯小火鍋","lon":"121.200606796","lat":"31.0481068459","category":"86","category_name":"火锅店","address":"松江区文汇路818号2楼(近龙源路)"},{"poiid":"B2094757D16AA6FF4699","title":"立信会计学院一号楼","lon":"121.199517367","lat":"31.0443440138","category":"500","category_name":"未知分类","address":"上海松江区文翔路2800号"},{"poiid":"B2094654DB6EA2FB419F","title":"松江区实验小学(新城校区)","lon":"121.20212","lat":"31.04025","category":"56","category_name":"小学","address":"龙源路1号"},{"poiid":"B2094654DB64A0FC4192","title":"翔仔好味馆","lon":"121.20716","lat":"31.0496","category":"68","category_name":"快餐厅","address":"松江区文汇路686号(近MZONE)"},{"poiid":"B2094757D569A1FB489D","title":"立信学院松江食堂","lon":"121.1986461","lat":"31.04493306","category":"68","category_name":"快餐厅","address":"闵行区黄桦路286号(红松路黄桦路)"},{"poiid":"B2094757D068A7FF419D","title":"川菜映象(三期店)","lon":"121.20335","lat":"31.04952","category":"71","category_name":"四川菜","address":"上海近郊松江区大学城文汇路838弄101号(近东北一家人店)"},{"poiid":"B2094757D164A4FE4493","title":"松江大学城三期宿舍5号楼","lon":"121.201027","lat":"31.042878","category":"500","category_name":"未知分类","address":"上海松江大学城三期宿舍5号楼"},{"poiid":"B2094757D16EA2FD4992","title":"景怡花苑","lon":"121.19908","lat":"31.041189","category":"500","category_name":"未知分类","address":"上海市松江区龙源路99弄"},{"poiid":"B2094654DB6DA4F4499E","title":"快客(龙源路)","lon":"121.20072","lat":"31.04057","category":"117","category_name":"便民商店/便利店","address":""},{"poiid":"B2094655D268A5FB419D","title":"上海视觉艺术学院(西二门)","lon":"121.20128","lat":"31.04677","category":"52","category_name":"高等院校","address":""},{"poiid":"B2094757D568A0FF409A","title":"复旦上海视觉艺术学院行政楼","lon":"121.2069161","lat":"31.04613306","category":"52","category_name":"高等院校","address":"文翔路2200号"},{"poiid":"B2094757D068A1F54992","title":"Coffee Track(咖啡轨迹)","lon":"121.20586115","lat":"31.0495663827","category":"65","category_name":"咖啡厅","address":"松江区文汇路166弄30号(近上外)"},{"poiid":"B2094654DB6EA3FA439A","title":"上海视觉艺术学院(南门)","lon":"121.20655","lat":"31.04368","category":"52","category_name":"高等院校","address":""},{"poiid":"B2094757D064A5FA469A","title":"上海工程技术大学松江食堂","lon":"121.20362","lat":"31.04913","category":"68","category_name":"快餐厅","address":"松江区松江龙腾路333号上海工程技术大学"},{"poiid":"B2094654DB6DA4F44998","title":"上海立信会计学院门诊部","lon":"121.19953","lat":"31.04427","category":"162","category_name":"医院","address":""},{"poiid":"B2094654DB65A4FE409B","title":"上海立信会计学院","lon":"121.19864","lat":"31.04493","category":"671","category_name":"高校中心点","address":"上海近郊松江区文翔路2800号"},{"poiid":"B2094757D06EAAF8439F","title":"泰晤士小镇小区","lon":"121.20448030631","lat":"31.035668438909","category":"250","category_name":"公园户外","address":"上海市松江区玉华路仓桥镇"},{"poiid":"B2094757D06FA1F54092","title":"复旦大学上海视觉艺术学院(松江文翔路校区)","lon":"121.20691781406879","lat":"31.0461274825704","category":"52","category_name":"高等院校","address":"上海松江区文翔路2200号"},{"poiid":"B2094757D06EAAFF439A","title":"松江大学城四期学生公寓","lon":"121.199562277","lat":"31.0495922066","category":"253","category_name":"校园生活","address":"上海松江区松江大学城文汇路1000弄"},{"poiid":"B2094757D06FA0F4479A","title":"松江大学城三期寝室","lon":"121.20460969","lat":"31.050815503","category":"253","category_name":"校园生活","address":"上海文汇路800弄"},{"poiid":"B2094757D06BABFC489B","title":"松江大学城三期","lon":"121.203803149","lat":"31.0493673889","category":"252","category_name":"楼宇机构","address":"上海文汇路800弄"},{"poiid":"B2094757D068A4F84199","title":"文汇路","lon":"121.202765","lat":"31.049669","category":"260","category_name":"其他","address":"上海市松江区文汇路"},{"poiid":"B2094757D06FA0F5479A","title":"立信会计学院图书馆","lon":"121.197523143","lat":"31.0473464077","category":"253","category_name":"校园生活","address":"松江区松江文翔路2800号"},{"poiid":"B2094757D068A1FF409F","title":"华亭湖时代大酒店","lon":"121.20665","lat":"31.0384","category":"76","category_name":"上海菜","address":"松江区滨湖路99号(滨湖路新松江路)"},{"poiid":"B2094757D06FA0F9449C","title":"肯德基 KFC (大学城店)","lon":"121.20284","lat":"31.049604","category":"68","category_name":"快餐厅","address":"松江区文汇路818号(近龙源路)"},{"poiid":"B2094757D06FA0FD499D","title":"立信会计学院三号楼","lon":"121.198651","lat":"31.044932","category":"253","category_name":"校园生活","address":"上海市松江区文翔路2800号"},{"poiid":"B2094757D66EA7F8429C","title":"阁楼上的猫","lon":"121.205550196","lat":"31.0499700858","category":"260","category_name":"其他","address":"松江区文汇路樱花广场3楼"},{"poiid":"B2094757D16FA7FE439A","title":"8898","lon":"121.21052","lat":"31.03914","category":"260","category_name":"其他","address":"松江区新松江路1296号(近江学路)"},{"poiid":"B2094757D068A0F4419D","title":"甜满多","lon":"121.199608396","lat":"31.0500254036","category":"113","category_name":"冷饮店","address":"松江区大学城4期文汇路988弄(尚网旁)"},{"poiid":"B2094757D168A7FA419A","title":"立信斗兽场图书馆","lon":"121.19694446","lat":"31.046554862","category":"181","category_name":"图书馆","address":"上海市松江区文汇路"},{"poiid":"B2094757D068A7F5409F","title":"复旦大学上海视觉艺术学院实训楼","lon":"121.20693206","lat":"31.049365997","category":"500","category_name":"未知分类","address":"上海松江区文翔路2200号"},{"poiid":"B2094757D069A2FB4992","title":"紫东新苑","lon":"121.20824","lat":"31.043177","category":"47","category_name":"住宅区","address":"中艺花园位于宝山海江路9号"},{"poiid":"B2094757D064AAFB429E","title":"华东政法大学明珠楼","lon":"121.2053139","lat":"31.050214021","category":"181","category_name":"图书馆","address":"上海华东政法大学"},{"poiid":"B2094757D068A7FD4098","title":"复旦大学上海视觉艺术学院逸飞楼","lon":"121.207051","lat":"31.046188","category":"253","category_name":"校园生活","address":"上海松江區文翔路2200號"},{"poiid":"B2094757D06FA6FB409E","title":"立信会计学院二号楼","lon":"121.19853514","lat":"31.0461744047","category":"253","category_name":"校园生活","address":"上海文翔路2800号"},{"poiid":"B2094757D16CAAFD429B","title":"上海立信会计学院六号楼","lon":"121.20170246","lat":"31.04192926","category":"500","category_name":"未知分类","address":"上海市松江区文翔路2800号"},{"poiid":"B2094757D068A0FC459A","title":"宝寿司(松江大学城店)","lon":"121.20033521","lat":"31.049643199","category":"95","category_name":"日本料理","address":"松江区文汇路928弄102室(龙源路口)"},{"poiid":"B2094757D06FA6FB459B","title":"立信会计学院四号楼","lon":"121.19712313","lat":"31.043998408","category":"253","category_name":"校园生活","address":"上海市松江区文翔路2800号"},{"poiid":"B2094757D06FA7F94399","title":"立信会计学院五号楼","lon":"121.19723578","lat":"31.044692951","category":"253","category_name":"校园生活","address":"上海市松江区文翔路2800号"},{"poiid":"B2094750D56FA3F4459D","title":"花神咖啡馆","lon":"121.203689","lat":"31.049484","category":"260","category_name":"其他","address":"松江区文汇路770号201室(近龙源路)"},{"poiid":"B2094655D268A5FB419F","title":"上海视觉艺术学院(西门)","lon":"121.20129","lat":"31.04483","category":"52","category_name":"高等院校","address":""},{"poiid":"B2094655D264A4FC499B","title":"松江大学城800弄","lon":"121.20311","lat":"31.0494","category":"52","category_name":"高等院校","address":"文汇路800弄"},{"poiid":"B2094654DB6EA2FB419E","title":"松江区教师进修学院附属幼儿园","lon":"121.202","lat":"31.04164","category":"57","category_name":"幼儿园","address":"松江区龙源路180号"},{"poiid":"B2094654DB6EA2FB419B","title":"中国电信新城电信分局","lon":"121.20203","lat":"31.04308","category":"263","category_name":"公司","address":""},{"poiid":"B2094654DB6EA2FB419D","title":"世纪新城(新松江路)","lon":"121.20455","lat":"31.03912","category":"47","category_name":"住宅区","address":"上海市松江区文翔路"},{"poiid":"B2094751D46BA4FC4998","title":"皇家海港大酒楼","lon":"121.2066558","lat":"31.0447566","category":"247","category_name":"餐饮美食","address":"松江区江学路899号(近新松江路)"},{"poiid":"B2094757DA6FA3FC499D","title":"菲芘酒吧","lon":"121.207674999999","lat":"31.0440599999999","category":"248","category_name":"生活娱乐","address":"松江区东明国际商城17幢(近江学路,文翔路)"},{"poiid":"B2094757D569A1FE489C","title":"复旦上海视觉艺术学院图文楼","lon":"121.2069161","lat":"31.04613306","category":"52","category_name":"高等院校","address":"文翔路2200号"},{"poiid":"B2094655D36CA1FF499B","title":"龙源路文翔路","lon":"121.20102","lat":"31.04401","category":"38","category_name":"公交车站","address":""},{"poiid":"B2094753D76EA0F9449E","title":"Ciao意大利餐厅","lon":"121.203155","lat":"31.04154","category":"500","category_name":"未知分类","address":"上海市 泰晤士小镇"},{"poiid":"B2094757D16FABFF449A","title":"simply時尚吧檯小火鍋","lon":"121.200606796","lat":"31.0481068459","category":"86","category_name":"火锅店","address":"松江区文汇路818号2楼(近龙源路)"},{"poiid":"B2094757D16AA6FF4699","title":"立信会计学院一号楼","lon":"121.199517367","lat":"31.0443440138","category":"500","category_name":"未知分类","address":"上海松江区文翔路2800号"},{"poiid":"B2094654DB6EA2FB419F","title":"松江区实验小学(新城校区)","lon":"121.20212","lat":"31.04025","category":"56","category_name":"小学","address":"龙源路1号"},{"poiid":"B2094654DB64A0FC4192","title":"翔仔好味馆","lon":"121.20716","lat":"31.0496","category":"68","category_name":"快餐厅","address":"松江区文汇路686号(近MZONE)"},{"poiid":"B2094757D569A1FB489D","title":"立信学院松江食堂","lon":"121.1986461","lat":"31.04493306","category":"68","category_name":"快餐厅","address":"闵行区黄桦路286号(红松路黄桦路)"},{"poiid":"B2094757D068A7FF419D","title":"川菜映象(三期店)","lon":"121.20335","lat":"31.04952","category":"71","category_name":"四川菜","address":"上海近郊松江区大学城文汇路838弄101号(近东北一家人店)"},{"poiid":"B2094757D164A4FE4493","title":"松江大学城三期宿舍5号楼","lon":"121.201027","lat":"31.042878","category":"500","category_name":"未知分类","address":"上海松江大学城三期宿舍5号楼"},{"poiid":"B2094757D16EA2FD4992","title":"景怡花苑","lon":"121.19908","lat":"31.041189","category":"500","category_name":"未知分类","address":"上海市松江区龙源路99弄"},{"poiid":"B2094654DB6DA4F4499E","title":"快客(龙源路)","lon":"121.20072","lat":"31.04057","category":"117","category_name":"便民商店/便利店","address":""},{"poiid":"B2094655D268A5FB419D","title":"上海视觉艺术学院(西二门)","lon":"121.20128","lat":"31.04677","category":"52","category_name":"高等院校","address":""},{"poiid":"B2094757D568A0FF409A","title":"复旦上海视觉艺术学院行政楼","lon":"121.2069161","lat":"31.04613306","category":"52","category_name":"高等院校","address":"文翔路2200号"},{"poiid":"B2094757D068A1F54992","title":"Coffee Track(咖啡轨迹)","lon":"121.20586115","lat":"31.0495663827","category":"65","category_name":"咖啡厅","address":"松江区文汇路166弄30号(近上外)"},{"poiid":"B2094654DB6EA3FA439A","title":"上海视觉艺术学院(南门)","lon":"121.20655","lat":"31.04368","category":"52","category_name":"高等院校","address":""},{"poiid":"B2094757D064A5FA469A","title":"上海工程技术大学松江食堂","lon":"121.20362","lat":"31.04913","category":"68","category_name":"快餐厅","address":"松江区松江龙腾路333号上海工程技术大学"},{"poiid":"B2094654DB6DA4F44998","title":"上海立信会计学院门诊部","lon":"121.19953","lat":"31.04427","category":"162","category_name":"医院","address":""},{"poiid":"B2094654DB65A4FE409B","title":"上海立信会计学院","lon":"121.19864","lat":"31.04493","category":"671","category_name":"高校中心点","address":"上海近郊松江区文翔路2800号"},{"poiid":"B2094757D06EAAF8439F","title":"泰晤士小镇小区","lon":"121.20448030631","lat":"31.035668438909","category":"250","category_name":"公园户外","address":"上海市松江区玉华路仓桥镇"},{"poiid":"B2094757D06FA1F54092","title":"复旦大学上海视觉艺术学院(松江文翔路校区)","lon":"121.20691781406879","lat":"31.0461274825704","category":"52","category_name":"高等院校","address":"上海松江区文翔路2200号"},{"poiid":"B2094757D06EAAFF439A","title":"松江大学城四期学生公寓","lon":"121.199562277","lat":"31.0495922066","category":"253","category_name":"校园生活","address":"上海松江区松江大学城文汇路1000弄"},{"poiid":"B2094757D06FA0F4479A","title":"松江大学城三期寝室","lon":"121.20460969","lat":"31.050815503","category":"253","category_name":"校园生活","address":"上海文汇路800弄"},{"poiid":"B2094757D06BABFC489B","title":"松江大学城三期","lon":"121.203803149","lat":"31.0493673889","category":"252","category_name":"楼宇机构","address":"上海文汇路800弄"},{"poiid":"B2094757D068A4F84199","title":"文汇路","lon":"121.202765","lat":"31.049669","category":"260","category_name":"其他","address":"上海市松江区文汇路"},{"poiid":"B2094757D06FA0F5479A","title":"立信会计学院图书馆","lon":"121.197523143","lat":"31.0473464077","category":"253","category_name":"校园生活","address":"松江区松江文翔路2800号"},{"poiid":"B2094757D068A1FF409F","title":"华亭湖时代大酒店","lon":"121.20665","lat":"31.0384","category":"76","category_name":"上海菜","address":"松江区滨湖路99号(滨湖路新松江路)"},{"poiid":"B2094757D06FA0F9449C","title":"肯德基 KFC (大学城店)","lon":"121.20284","lat":"31.049604","category":"68","category_name":"快餐厅","address":"松江区文汇路818号(近龙源路)"},{"poiid":"B2094757D06FA0FD499D","title":"立信会计学院三号楼","lon":"121.198651","lat":"31.044932","category":"253","category_name":"校园生活","address":"上海市松江区文翔路2800号"},{"poiid":"B2094757D66EA7F8429C","title":"阁楼上的猫","lon":"121.205550196","lat":"31.0499700858","category":"260","category_name":"其他","address":"松江区文汇路樱花广场3楼"},{"poiid":"B2094757D16FA7FE439A","title":"8898","lon":"121.21052","lat":"31.03914","category":"260","category_name":"其他","address":"松江区新松江路1296号(近江学路)"},{"poiid":"B2094757D068A0F4419D","title":"甜满多","lon":"121.199608396","lat":"31.0500254036","category":"113","category_name":"冷饮店","address":"松江区大学城4期文汇路988弄(尚网旁)"},{"poiid":"B2094757D168A7FA419A","title":"立信斗兽场图书馆","lon":"121.19694446","lat":"31.046554862","category":"181","category_name":"图书馆","address":"上海市松江区文汇路"},{"poiid":"B2094757D068A7F5409F","title":"复旦大学上海视觉艺术学院实训楼","lon":"121.20693206","lat":"31.049365997","category":"500","category_name":"未知分类","address":"上海松江区文翔路2200号"},{"poiid":"B2094757D069A2FB4992","title":"紫东新苑","lon":"121.20824","lat":"31.043177","category":"47","category_name":"住宅区","address":"中艺花园位于宝山海江路9号"},{"poiid":"B2094757D064AAFB429E","title":"华东政法大学明珠楼","lon":"121.2053139","lat":"31.050214021","category":"181","category_name":"图书馆","address":"上海华东政法大学"},{"poiid":"B2094757D068A7FD4098","title":"复旦大学上海视觉艺术学院逸飞楼","lon":"121.207051","lat":"31.046188","category":"253","category_name":"校园生活","address":"上海松江區文翔路2200號"},{"poiid":"B2094757D06FA6FB409E","title":"立信会计学院二号楼","lon":"121.19853514","lat":"31.0461744047","category":"253","category_name":"校园生活","address":"上海文翔路2800号"},{"poiid":"B2094757D16CAAFD429B","title":"上海立信会计学院六号楼","lon":"121.20170246","lat":"31.04192926","category":"500","category_name":"未知分类","address":"上海市松江区文翔路2800号"},{"poiid":"B2094757D068A0FC459A","title":"宝寿司(松江大学城店)","lon":"121.20033521","lat":"31.049643199","category":"95","category_name":"日本料理","address":"松江区文汇路928弄102室(龙源路口)"},{"poiid":"B2094757D06FA6FB459B","title":"立信会计学院四号楼","lon":"121.19712313","lat":"31.043998408","category":"253","category_name":"校园生活","address":"上海市松江区文翔路2800号"},{"poiid":"B2094757D06FA7F94399","title":"立信会计学院五号楼","lon":"121.19723578","lat":"31.044692951","category":"253","category_name":"校园生活","address":"上海市松江区文翔路2800号"},{"poiid":"B2094750D56FA3F4459D","title":"花神咖啡馆","lon":"121.203689","lat":"31.049484","category":"260","category_name":"其他","address":"松江区文汇路770号201室(近龙源路)"},{"poiid":"B2094655D268A5FB419F","title":"上海视觉艺术学院(西门)","lon":"121.20129","lat":"31.04483","category":"52","category_name":"高等院校","address":""},{"poiid":"B2094655D264A4FC499B","title":"松江大学城800弄","lon":"121.20311","lat":"31.0494","category":"52","category_name":"高等院校","address":"文汇路800弄"},{"poiid":"B2094654DB6EA2FB419E","title":"松江区教师进修学院附属幼儿园","lon":"121.202","lat":"31.04164","category":"57","category_name":"幼儿园","address":"松江区龙源路180号"},{"poiid":"B2094654DB6EA2FB419B","title":"中国电信新城电信分局","lon":"121.20203","lat":"31.04308","category":"263","category_name":"公司","address":""},{"poiid":"B2094654DB6EA2FB419D","title":"世纪新城(新松江路)","lon":"121.20455","lat":"31.03912","category":"47","category_name":"住宅区","address":"上海市松江区文翔路"},{"poiid":"B2094751D46BA4FC4998","title":"皇家海港大酒楼","lon":"121.2066558","lat":"31.0447566","category":"247","category_name":"餐饮美食","address":"松江区江学路899号(近新松江路)"},{"poiid":"B2094757DA6FA3FC499D","title":"菲芘酒吧","lon":"121.207674999999","lat":"31.0440599999999","category":"248","category_name":"生活娱乐","address":"松江区东明国际商城17幢(近江学路,文翔路)"},{"poiid":"B2094757D569A1FE489C","title":"复旦上海视觉艺术学院图文楼","lon":"121.2069161","lat":"31.04613306","category":"52","category_name":"高等院校","address":"文翔路2200号"},{"poiid":"B2094655D36CA1FF499B","title":"龙源路文翔路","lon":"121.20102","lat":"31.04401","category":"38","category_name":"公交车站","address":""},{"poiid":"B2094753D76EA0F9449E","title":"Ciao意大利餐厅","lon":"121.203155","lat":"31.04154","category":"500","category_name":"未知分类","address":"上海市 泰晤士小镇"},{"poiid":"B2094757D16FABFF449A","title":"simply時尚吧檯小火鍋","lon":"121.200606796","lat":"31.0481068459","category":"86","category_name":"火锅店","address":"松江区文汇路818号2楼(近龙源路)"},{"poiid":"B2094757D16AA6FF4699","title":"立信会计学院一号楼","lon":"121.199517367","lat":"31.0443440138","category":"500","category_name":"未知分类","address":"上海松江区文翔路2800号"},{"poiid":"B2094654DB6EA2FB419F","title":"松江区实验小学(新城校区)","lon":"121.20212","lat":"31.04025","category":"56","category_name":"小学","address":"龙源路1号"},{"poiid":"B2094654DB64A0FC4192","title":"翔仔好味馆","lon":"121.20716","lat":"31.0496","category":"68","category_name":"快餐厅","address":"松江区文汇路686号(近MZONE)"},{"poiid":"B2094757D569A1FB489D","title":"立信学院松江食堂","lon":"121.1986461","lat":"31.04493306","category":"68","category_name":"快餐厅","address":"闵行区黄桦路286号(红松路黄桦路)"},{"poiid":"B2094757D068A7FF419D","title":"川菜映象(三期店)","lon":"121.20335","lat":"31.04952","category":"71","category_name":"四川菜","address":"上海近郊松江区大学城文汇路838弄101号(近东北一家人店)"},{"poiid":"B2094757D164A4FE4493","title":"松江大学城三期宿舍5号楼","lon":"121.201027","lat":"31.042878","category":"500","category_name":"未知分类","address":"上海松江大学城三期宿舍5号楼"},{"poiid":"B2094757D16EA2FD4992","title":"景怡花苑","lon":"121.19908","lat":"31.041189","category":"500","category_name":"未知分类","address":"上海市松江区龙源路99弄"},{"poiid":"B2094654DB6DA4F4499E","title":"快客(龙源路)","lon":"121.20072","lat":"31.04057","category":"117","category_name":"便民商店/便利店","address":""},{"poiid":"B2094655D268A5FB419D","title":"上海视觉艺术学院(西二门)","lon":"121.20128","lat":"31.04677","category":"52","category_name":"高等院校","address":""},{"poiid":"B2094757D568A0FF409A","title":"复旦上海视觉艺术学院行政楼","lon":"121.2069161","lat":"31.04613306","category":"52","category_name":"高等院校","address":"文翔路2200号"},{"poiid":"B2094757D068A1F54992","title":"Coffee Track(咖啡轨迹)","lon":"121.20586115","lat":"31.0495663827","category":"65","category_name":"咖啡厅","address":"松江区文汇路166弄30号(近上外)"},{"poiid":"B2094654DB6EA3FA439A","title":"上海视觉艺术学院(南门)","lon":"121.20655","lat":"31.04368","category":"52","category_name":"高等院校","address":""},{"poiid":"B2094757D064A5FA469A","title":"上海工程技术大学松江食堂","lon":"121.20362","lat":"31.04913","category":"68","category_name":"快餐厅","address":"松江区松江龙腾路333号上海工程技术大学"},{"poiid":"B2094654DB6DA4F44998","title":"上海立信会计学院门诊部","lon":"121.19953","lat":"31.04427","category":"162","category_name":"医院","address":""},{"poiid":"B2094654DB65A4FE409B","title":"上海立信会计学院","lon":"121.19864","lat":"31.04493","category":"671","category_name":"高校中心点","address":"上海近郊松江区文翔路2800号"},{"poiid":"B2094757D06EAAF8439F","title":"泰晤士小镇小区","lon":"121.20448030631","lat":"31.035668438909","category":"250","category_name":"公园户外","address":"上海市松江区玉华路仓桥镇"},{"poiid":"B2094757D06FA1F54092","title":"复旦大学上海视觉艺术学院(松江文翔路校区)","lon":"121.20691781406879","lat":"31.0461274825704","category":"52","category_name":"高等院校","address":"上海松江区文翔路2200号"},{"poiid":"B2094757D06EAAFF439A","title":"松江大学城四期学生公寓","lon":"121.199562277","lat":"31.0495922066","category":"253","category_name":"校园生活","address":"上海松江区松江大学城文汇路1000弄"},{"poiid":"B2094757D06FA0F4479A","title":"松江大学城三期寝室","lon":"121.20460969","lat":"31.050815503","category":"253","category_name":"校园生活","address":"上海文汇路800弄"},{"poiid":"B2094757D06BABFC489B","title":"松江大学城三期","lon":"121.203803149","lat":"31.0493673889","category":"252","category_name":"楼宇机构","address":"上海文汇路800弄"},{"poiid":"B2094757D068A4F84199","title":"文汇路","lon":"121.202765","lat":"31.049669","category":"260","category_name":"其他","address":"上海市松江区文汇路"},{"poiid":"B2094757D06FA0F5479A","title":"立信会计学院图书馆","lon":"121.197523143","lat":"31.0473464077","category":"253","category_name":"校园生活","address":"松江区松江文翔路2800号"},{"poiid":"B2094757D068A1FF409F","title":"华亭湖时代大酒店","lon":"121.20665","lat":"31.0384","category":"76","category_name":"上海菜","address":"松江区滨湖路99号(滨湖路新松江路)"},{"poiid":"B2094757D06FA0F9449C","title":"肯德基 KFC (大学城店)","lon":"121.20284","lat":"31.049604","category":"68","category_name":"快餐厅","address":"松江区文汇路818号(近龙源路)"},{"poiid":"B2094757D06FA0FD499D","title":"立信会计学院三号楼","lon":"121.198651","lat":"31.044932","category":"253","category_name":"校园生活","address":"上海市松江区文翔路2800号"},{"poiid":"B2094757D66EA7F8429C","title":"阁楼上的猫","lon":"121.205550196","lat":"31.0499700858","category":"260","category_name":"其他","address":"松江区文汇路樱花广场3楼"},{"poiid":"B2094757D16FA7FE439A","title":"8898","lon":"121.21052","lat":"31.03914","category":"260","category_name":"其他","address":"松江区新松江路1296号(近江学路)"},{"poiid":"B2094757D068A0F4419D","title":"甜满多","lon":"121.199608396","lat":"31.0500254036","category":"113","category_name":"冷饮店","address":"松江区大学城4期文汇路988弄(尚网旁)"},{"poiid":"B2094757D168A7FA419A","title":"立信斗兽场图书馆","lon":"121.19694446","lat":"31.046554862","category":"181","category_name":"图书馆","address":"上海市松江区文汇路"},{"poiid":"B2094757D068A7F5409F","title":"复旦大学上海视觉艺术学院实训楼","lon":"121.20693206","lat":"31.049365997","category":"500","category_name":"未知分类","address":"上海松江区文翔路2200号"},{"poiid":"B2094757D069A2FB4992","title":"紫东新苑","lon":"121.20824","lat":"31.043177","category":"47","category_name":"住宅区","address":"中艺花园位于宝山海江路9号"},{"poiid":"B2094757D064AAFB429E","title":"华东政法大学明珠楼","lon":"121.2053139","lat":"31.050214021","category":"181","category_name":"图书馆","address":"上海华东政法大学"},{"poiid":"B2094757D068A7FD4098","title":"复旦大学上海视觉艺术学院逸飞楼","lon":"121.207051","lat":"31.046188","category":"253","category_name":"校园生活","address":"上海松江區文翔路2200號"},{"poiid":"B2094757D06FA6FB409E","title":"立信会计学院二号楼","lon":"121.19853514","lat":"31.0461744047","category":"253","category_name":"校园生活","address":"上海文翔路2800号"},{"poiid":"B2094757D16CAAFD429B","title":"上海立信会计学院六号楼","lon":"121.20170246","lat":"31.04192926","category":"500","category_name":"未知分类","address":"上海市松江区文翔路2800号"},{"poiid":"B2094757D068A0FC459A","title":"宝寿司(松江大学城店)","lon":"121.20033521","lat":"31.049643199","category":"95","category_name":"日本料理","address":"松江区文汇路928弄102室(龙源路口)"},{"poiid":"B2094757D06FA6FB459B","title":"立信会计学院四号楼","lon":"121.19712313","lat":"31.043998408","category":"253","category_name":"校园生活","address":"上海市松江区文翔路2800号"},{"poiid":"B2094757D06FA7F94399","title":"立信会计学院五号楼","lon":"121.19723578","lat":"31.044692951","category":"253","category_name":"校园生活","address":"上海市松江区文翔路2800号"},{"poiid":"B2094750D56FA3F4459D","title":"花神咖啡馆","lon":"121.203689","lat":"31.049484","category":"260","category_name":"其他","address":"松江区文汇路770号201室(近龙源路)"},{"poiid":"B2094655D268A5FB419F","title":"上海视觉艺术学院(西门)","lon":"121.20129","lat":"31.04483","category":"52","category_name":"高等院校","address":""},{"poiid":"B2094655D264A4FC499B","title":"松江大学城800弄","lon":"121.20311","lat":"31.0494","category":"52","category_name":"高等院校","address":"文汇路800弄"},{"poiid":"B2094654DB6EA2FB419E","title":"松江区教师进修学院附属幼儿园","lon":"121.202","lat":"31.04164","category":"57","category_name":"幼儿园","address":"松江区龙源路180号"},{"poiid":"B2094654DB6EA2FB419B","title":"中国电信新城电信分局","lon":"121.20203","lat":"31.04308","category":"263","category_name":"公司","address":""},{"poiid":"B2094654DB6EA2FB419D","title":"世纪新城(新松江路)","lon":"121.20455","lat":"31.03912","category":"47","category_name":"住宅区","address":"上海市松江区文翔路"},{"poiid":"B2094751D46BA4FC4998","title":"皇家海港大酒楼","lon":"121.2066558","lat":"31.0447566","category":"247","category_name":"餐饮美食","address":"松江区江学路899号(近新松江路)"},{"poiid":"B2094757DA6FA3FC499D","title":"菲芘酒吧","lon":"121.207674999999","lat":"31.0440599999999","category":"248","category_name":"生活娱乐","address":"松江区东明国际商城17幢(近江学路,文翔路)"},{"poiid":"B2094757D569A1FE489C","title":"复旦上海视觉艺术学院图文楼","lon":"121.2069161","lat":"31.04613306","category":"52","category_name":"高等院校","address":"文翔路2200号"},{"poiid":"B2094655D36CA1FF499B","title":"龙源路文翔路","lon":"121.20102","lat":"31.04401","category":"38","category_name":"公交车站","address":""},{"poiid":"B2094753D76EA0F9449E","title":"Ciao意大利餐厅","lon":"121.203155","lat":"31.04154","category":"500","category_name":"未知分类","address":"上海市 泰晤士小镇"},{"poiid":"B2094757D16FABFF449A","title":"simply時尚吧檯小火鍋","lon":"121.200606796","lat":"31.0481068459","category":"86","category_name":"火锅店","address":"松江区文汇路818号2楼(近龙源路)"},{"poiid":"B2094757D16AA6FF4699","title":"立信会计学院一号楼","lon":"121.199517367","lat":"31.0443440138","category":"500","category_name":"未知分类","address":"上海松江区文翔路2800号"},{"poiid":"B2094654DB6EA2FB419F","title":"松江区实验小学(新城校区)","lon":"121.20212","lat":"31.04025","category":"56","category_name":"小学","address":"龙源路1号"},{"poiid":"B2094654DB64A0FC4192","title":"翔仔好味馆","lon":"121.20716","lat":"31.0496","category":"68","category_name":"快餐厅","address":"松江区文汇路686号(近MZONE)"},{"poiid":"B2094757D569A1FB489D","title":"立信学院松江食堂","lon":"121.1986461","lat":"31.04493306","category":"68","category_name":"快餐厅","address":"闵行区黄桦路286号(红松路黄桦路)"},{"poiid":"B2094757D068A7FF419D","title":"川菜映象(三期店)","lon":"121.20335","lat":"31.04952","category":"71","category_name":"四川菜","address":"上海近郊松江区大学城文汇路838弄101号(近东北一家人店)"},{"poiid":"B2094757D164A4FE4493","title":"松江大学城三期宿舍5号楼","lon":"121.201027","lat":"31.042878","category":"500","category_name":"未知分类","address":"上海松江大学城三期宿舍5号楼"},{"poiid":"B2094757D16EA2FD4992","title":"景怡花苑","lon":"121.19908","lat":"31.041189","category":"500","category_name":"未知分类","address":"上海市松江区龙源路99弄"},{"poiid":"B2094654DB6DA4F4499E","title":"快客(龙源路)","lon":"121.20072","lat":"31.04057","category":"117","category_name":"便民商店/便利店","address":""},{"poiid":"B2094655D268A5FB419D","title":"上海视觉艺术学院(西二门)","lon":"121.20128","lat":"31.04677","category":"52","category_name":"高等院校","address":""},{"poiid":"B2094757D568A0FF409A","title":"复旦上海视觉艺术学院行政楼","lon":"121.2069161","lat":"31.04613306","category":"52","category_name":"高等院校","address":"文翔路2200号"},{"poiid":"B2094757D068A1F54992","title":"Coffee Track(咖啡轨迹)","lon":"121.20586115","lat":"31.0495663827","category":"65","category_name":"咖啡厅","address":"松江区文汇路166弄30号(近上外)"},{"poiid":"B2094654DB6EA3FA439A","title":"上海视觉艺术学院(南门)","lon":"121.20655","lat":"31.04368","category":"52","category_name":"高等院校","address":""},{"poiid":"B2094757D064A5FA469A","title":"上海工程技术大学松江食堂","lon":"121.20362","lat":"31.04913","category":"68","category_name":"快餐厅","address":"松江区松江龙腾路333号上海工程技术大学"},{"poiid":"B2094654DB6DA4F44998","title":"上海立信会计学院门诊部","lon":"121.19953","lat":"31.04427","category":"162","category_name":"医院","address":""}]