[{"poiid":"B2094655D268A3FF449E","title":"世博演艺中心","lon":"121.494","lat":"31.18899","category":"180","category_name":"剧场","address":"上海市浦东新区世博大道"},{"poiid":"B2094757D064ABFB4392","title":"梅赛德斯奔驰文化中心音乐俱乐部","lon":"121.495735738","lat":"31.1882344057","category":"500","category_name":"未知分类","address":"上海世博大道1200号西门一层"},{"poiid":"B2094750D365ABFA4392","title":"梅赛得斯-奔驰文化中心","lon":"121.493125","lat":"31.189492","category":"500","category_name":"未知分类","address":"世博大道1200号"},{"poiid":"B2094654DA6AA3FE479D","title":"上海浦东游泳馆","lon":"121.50572","lat":"31.18856","category":"231","category_name":"游泳馆","address":"浦东新区浦东南路3669号"},{"poiid":"B2094757D06FA0F8439A","title":"宝莱纳餐厅(世博店)","lon":"121.504113332","lat":"31.1982851473","category":"260","category_name":"其他","address":"浦东新区世博大道555号1-2楼(近雪野路)"},{"poiid":"B2094757D06FA2FE4092","title":"世纪星滑冰俱乐部(Century Star Rink)","lon":"121.49329056","lat":"31.18833552","category":"260","category_name":"其他","address":"浦东新区世博大道1200号梅赛德斯奔驰文化中心B1楼"},{"poiid":"B2094750D66CA7F9449E","title":"月亮船","lon":"121.496009","lat":"31.188825","category":"500","category_name":"未知分类","address":null},{"poiid":"B2094757DA6EA4F8459F","title":"世博场馆沙特阿拉伯馆","lon":"121.4958","lat":"31.188443","category":"252","category_name":"楼宇机构","address":"浦东新区博成路1221号(近高科西路口)"},{"poiid":"B2094757D06FA7FA4093","title":"浦东游泳馆新羽毛球馆","lon":"121.505721806","lat":"31.1885572023","category":"220","category_name":"运动场所","address":"浦东新区浦东南路3669号浦东游泳馆南门内(近沂林路)"},{"poiid":"B2094751D56BA1F5479A","title":"世博源(The River Mall)","lon":"121.491795","lat":"31.187409","category":"247","category_name":"餐饮美食","address":"浦东新区世博大道1368号(近中华艺术宫)"},{"poiid":"B2094757D168AAF4469C","title":"上海世博园","lon":"121.506916","lat":"31.193412","category":"500","category_name":"未知分类","address":"中国上海"},{"poiid":"B2094757D06FA5F9429C","title":"多利萝玛(Tony Roma's)","lon":"121.5040196","lat":"31.196038751","category":"94","category_name":"西餐厅","address":"浦东新区世博村B地块雪野路1057号B9-101C室(近沂南路)"},{"poiid":"B2094757D468AAFE419C","title":"蜀府 世博店","lon":"121.50602","lat":"31.19398","category":"71","category_name":"四川菜","address":"浦东新区世博大道1200号梅赛德斯奔驰中心6楼"},{"poiid":"B2094757D06FA7F44493","title":"浦东新区社会保险事业管理中心","lon":"121.50377231","lat":"31.185200481","category":"260","category_name":"其他","address":"上海浦东南路浦东南路3993号"},{"poiid":"B2094757D065A0FD4493","title":"Bubba's Texas-style BBQ(世博村店)","lon":"121.504977","lat":"31.196236","category":"94","category_name":"西餐厅","address":"浦东新区雪野路240号(近沂南路)"},{"poiid":"B2094655D26BA2F54492","title":"浦东南路华丰路","lon":"121.50691","lat":"31.19281","category":"38","category_name":"公交车站","address":""},{"poiid":"B2094751D464A7F9499C","title":"梅赛德斯文化中心","lon":"121.492462","lat":"31.188721","category":"500","category_name":"未知分类","address":"上海浦东"},{"poiid":"B2094757D66CA4FE479B","title":"滨江大道-世博段","lon":"121.502270053","lat":"31.1976926018","category":"500","category_name":"未知分类","address":"上海世博大道沿江段"},{"poiid":"B2094757D06FA4FE4698","title":"味千拉面(世博文化中心店)","lon":"121.49320902","lat":"31.188971979","category":"68","category_name":"快餐厅","address":"浦东新区世博大道1200号B1层B101-103号"},{"poiid":"B2094757D069A6FB4698","title":"汉庭快捷浦东南路店(原世博村店)","lon":"121.50672","lat":"31.19234","category":"217","category_name":"旅馆招待所","address":"上海浦东新区浦东南路3500号(近华丰路)  "},{"poiid":"B2094654DA6AA3F9439C","title":"世博大厦","lon":"121.50595","lat":"31.1911","category":"46","category_name":"楼宇","address":"上海浦东南路3588号"},{"poiid":"B2094757D16DAAF4429E","title":"仙炙轩 世博店 Ambrosia","lon":"121.504652","lat":"31.200724","category":"247","category_name":"餐饮美食","address":"浦东新区世博大道555号4楼(雪野路口)"},{"poiid":"B2094654DB65A7FA4298","title":"格林豪泰上海世博园酒店","lon":"121.50691","lat":"31.19341","category":"216","category_name":"经济型连锁酒店","address":"上海市浦东新区浦东南路3500号(近南码头路)"},{"poiid":"B2094757D068A3F94492","title":"世博会阿联酋馆","lon":"121.49784","lat":"31.18622","category":"260","category_name":"其他","address":"上海浦东新区国展路近云台路(原上海世博会A片区)"},{"poiid":"B2094752D065A0FE449B","title":"王鼎日本料理铁板烧","lon":"121.492686","lat":"31.189287","category":"247","category_name":"餐饮美食","address":"世博大道1368号世博源1LM03-04号铺(近梅赛德斯奔驰文化中心西门)"},{"poiid":"B2094757D068ABFE4999","title":"上海世博东湖公寓酒店","lon":"121.505364591","lat":"31.1967514842","category":"217","category_name":"旅馆招待所","address":"浦东新区雪野路999号"},{"poiid":"B2094654DA68A6FA4993","title":"浦东长途汽车客运总站","lon":"121.50264","lat":"31.18449","category":"35","category_name":"长途汽车站","address":"浦东新区浦东南路3843号(近莲南路)"},{"poiid":"B2094751DA69A7F44992","title":"王鼎","lon":"121.492645","lat":"31.189255","category":"247","category_name":"餐饮美食","address":"浦东新区世博大道1368号世博源1LM03-04号铺(近梅赛德斯奔驰文化中心西门)"},{"poiid":"B2094757D065A5F9499F","title":"Lavazza红磡意大利餐厅","lon":"121.50086773","lat":"31.194968549","category":"500","category_name":"未知分类","address":"浦东新区世博大道690号(近白莲泾公园)"},{"poiid":"B2094750DB6AA7F5439D","title":"上海新国际博览中心","lon":"121.493598","lat":"31.189872","category":"500","category_name":"未知分类","address":"浦东新区龙阳路2345号"},{"poiid":"B2094753D665AAF84998","title":"上海儿童艺术剧场","lon":"121.494537","lat":"31.19647","category":"500","category_name":"未知分类","address":"上海市 苗江路800号"},{"poiid":"B2094750D26EA2FA4093","title":"大悦城","lon":"121.503593","lat":"31.190885","category":"500","category_name":"未知分类","address":"西藏南路曲阜路"},{"poiid":"B2094757D06FA4FB4492","title":"上海世博会事务协调局","lon":"121.50553894","lat":"31.191095352","category":"46","category_name":"楼宇","address":"上海浦东南路3588号"},{"poiid":"B2094751D26BA4F4419A","title":"世博洲际酒店","lon":"121.500463","lat":"31.191658","category":"256","category_name":"外国餐厅","address":"上海市 雪野路"},{"poiid":"B2094757D16EA0FB469A","title":"星巴克 STARBUCKS (嘉年华店)","lon":"121.50054073","lat":"31.191624477","category":"65","category_name":"咖啡厅","address":"上海浦东新区白莲泾路(世博大道与浦东南路间，原世博园4号口)"},{"poiid":"B2094757D168A4FB479A","title":"海逸酒家","lon":"121.497772217","lat":"31.1877937317","category":"247","category_name":"餐饮美食","address":"浦东新区世博大道1200号世博文化中心6楼"},{"poiid":"B2094750DA64ABFE4493","title":"上海世博园沙特馆","lon":"121.495628","lat":"31.188323","category":"500","category_name":"未知分类","address":null},{"poiid":"B2094757D06BA3F5499A","title":"世博会L1码头","lon":"121.50177002","lat":"31.195886611","category":"500","category_name":"未知分类","address":"上海世博会L1码头"},{"poiid":"B2094752D768A3FA4299","title":"梅赛德斯奔驰文化中心","lon":"121.499401","lat":"31.194805","category":"500","category_name":"未知分类","address":null},{"poiid":"B2094752D669A5F54993","title":"梅赛德斯奔驰文化中心","lon":"121.499021","lat":"31.186684","category":"500","category_name":"未知分类","address":null},{"poiid":"B2094655D26FAAF8499B","title":"上海世博会世博园区样板组团工程观摩会","lon":"121.49868","lat":"31.18991","category":"46","category_name":"楼宇","address":""},{"poiid":"B2094655D26BABFE4699","title":"集散广场(L2轮渡码头东)","lon":"121.49696","lat":"31.19167","category":"201","category_name":"城市广场","address":"上海世博园区"},{"poiid":"B2094752DB6DA3FB429B","title":"梅德赛斯奔驰文化中心","lon":"121.493049","lat":"31.188869","category":"500","category_name":"未知分类","address":"上海市 世博大道"},{"poiid":"B2094655D36CA3FD4492","title":"罗森","lon":"121.4996","lat":"31.18985","category":"117","category_name":"便民商店/便利店","address":"上海世博园区"},{"poiid":"B2094655D26EA5FC4198","title":"星巴克(中融店)","lon":"121.5019","lat":"31.18414","category":"65","category_name":"咖啡厅","address":"浦东新区浦东南路1068号中融国际商城1楼"},{"poiid":"B2094655D264A6F8479A","title":"哈撒克斯坦馆","lon":"121.49919","lat":"31.18996","category":"183","category_name":"展览馆","address":"上海世博园区"},{"poiid":"B2094757D164A5F94299","title":"乐町","lon":"121.49369173","lat":"31.189618435","category":"95","category_name":"日本料理","address":"浦东新区世博大道1200号世博文化中心6楼605室(近中国馆)"},{"poiid":"B2094757D568AAF8469A","title":"休闲广场(亚洲广场东北)","lon":"121.4975973","lat":"31.19002477","category":"201","category_name":"城市广场","address":"上海世博园区"},{"poiid":"B2094655D268A6F84092","title":"亚美尼亚租赁馆","lon":"121.49816","lat":"31.19035","category":"183","category_name":"展览馆","address":""},{"poiid":"B2094757D06AA6F54493","title":"世博村","lon":"121.50436693","lat":"31.197464102","category":"47","category_name":"住宅区","address":"上海浦东新区雪野路(近沂南路)"},{"poiid":"B2094655D268A3FF449E","title":"世博演艺中心","lon":"121.494","lat":"31.18899","category":"180","category_name":"剧场","address":"上海市浦东新区世博大道"},{"poiid":"B2094757D064ABFB4392","title":"梅赛德斯奔驰文化中心音乐俱乐部","lon":"121.495735738","lat":"31.1882344057","category":"500","category_name":"未知分类","address":"上海世博大道1200号西门一层"},{"poiid":"B2094750D365ABFA4392","title":"梅赛得斯-奔驰文化中心","lon":"121.493125","lat":"31.189492","category":"500","category_name":"未知分类","address":"世博大道1200号"},{"poiid":"B2094654DA6AA3FE479D","title":"上海浦东游泳馆","lon":"121.50572","lat":"31.18856","category":"231","category_name":"游泳馆","address":"浦东新区浦东南路3669号"},{"poiid":"B2094757D06FA0F8439A","title":"宝莱纳餐厅(世博店)","lon":"121.504113332","lat":"31.1982851473","category":"260","category_name":"其他","address":"浦东新区世博大道555号1-2楼(近雪野路)"},{"poiid":"B2094757D06FA2FE4092","title":"世纪星滑冰俱乐部(Century Star Rink)","lon":"121.49329056","lat":"31.18833552","category":"260","category_name":"其他","address":"浦东新区世博大道1200号梅赛德斯奔驰文化中心B1楼"},{"poiid":"B2094750D66CA7F9449E","title":"月亮船","lon":"121.496009","lat":"31.188825","category":"500","category_name":"未知分类","address":null},{"poiid":"B2094757DA6EA4F8459F","title":"世博场馆沙特阿拉伯馆","lon":"121.4958","lat":"31.188443","category":"252","category_name":"楼宇机构","address":"浦东新区博成路1221号(近高科西路口)"},{"poiid":"B2094757D06FA7FA4093","title":"浦东游泳馆新羽毛球馆","lon":"121.505721806","lat":"31.1885572023","category":"220","category_name":"运动场所","address":"浦东新区浦东南路3669号浦东游泳馆南门内(近沂林路)"},{"poiid":"B2094751D56BA1F5479A","title":"世博源(The River Mall)","lon":"121.491795","lat":"31.187409","category":"247","category_name":"餐饮美食","address":"浦东新区世博大道1368号(近中华艺术宫)"},{"poiid":"B2094757D168AAF4469C","title":"上海世博园","lon":"121.506916","lat":"31.193412","category":"500","category_name":"未知分类","address":"中国上海"},{"poiid":"B2094757D06FA5F9429C","title":"多利萝玛(Tony Roma's)","lon":"121.5040196","lat":"31.196038751","category":"94","category_name":"西餐厅","address":"浦东新区世博村B地块雪野路1057号B9-101C室(近沂南路)"},{"poiid":"B2094757D468AAFE419C","title":"蜀府 世博店","lon":"121.50602","lat":"31.19398","category":"71","category_name":"四川菜","address":"浦东新区世博大道1200号梅赛德斯奔驰中心6楼"},{"poiid":"B2094757D06FA7F44493","title":"浦东新区社会保险事业管理中心","lon":"121.50377231","lat":"31.185200481","category":"260","category_name":"其他","address":"上海浦东南路浦东南路3993号"},{"poiid":"B2094757D065A0FD4493","title":"Bubba's Texas-style BBQ(世博村店)","lon":"121.504977","lat":"31.196236","category":"94","category_name":"西餐厅","address":"浦东新区雪野路240号(近沂南路)"},{"poiid":"B2094655D26BA2F54492","title":"浦东南路华丰路","lon":"121.50691","lat":"31.19281","category":"38","category_name":"公交车站","address":""},{"poiid":"B2094751D464A7F9499C","title":"梅赛德斯文化中心","lon":"121.492462","lat":"31.188721","category":"500","category_name":"未知分类","address":"上海浦东"},{"poiid":"B2094757D66CA4FE479B","title":"滨江大道-世博段","lon":"121.502270053","lat":"31.1976926018","category":"500","category_name":"未知分类","address":"上海世博大道沿江段"},{"poiid":"B2094757D06FA4FE4698","title":"味千拉面(世博文化中心店)","lon":"121.49320902","lat":"31.188971979","category":"68","category_name":"快餐厅","address":"浦东新区世博大道1200号B1层B101-103号"},{"poiid":"B2094757D069A6FB4698","title":"汉庭快捷浦东南路店(原世博村店)","lon":"121.50672","lat":"31.19234","category":"217","category_name":"旅馆招待所","address":"上海浦东新区浦东南路3500号(近华丰路)  "},{"poiid":"B2094654DA6AA3F9439C","title":"世博大厦","lon":"121.50595","lat":"31.1911","category":"46","category_name":"楼宇","address":"上海浦东南路3588号"},{"poiid":"B2094757D16DAAF4429E","title":"仙炙轩 世博店 Ambrosia","lon":"121.504652","lat":"31.200724","category":"247","category_name":"餐饮美食","address":"浦东新区世博大道555号4楼(雪野路口)"},{"poiid":"B2094654DB65A7FA4298","title":"格林豪泰上海世博园酒店","lon":"121.50691","lat":"31.19341","category":"216","category_name":"经济型连锁酒店","address":"上海市浦东新区浦东南路3500号(近南码头路)"},{"poiid":"B2094757D068A3F94492","title":"世博会阿联酋馆","lon":"121.49784","lat":"31.18622","category":"260","category_name":"其他","address":"上海浦东新区国展路近云台路(原上海世博会A片区)"},{"poiid":"B2094752D065A0FE449B","title":"王鼎日本料理铁板烧","lon":"121.492686","lat":"31.189287","category":"247","category_name":"餐饮美食","address":"世博大道1368号世博源1LM03-04号铺(近梅赛德斯奔驰文化中心西门)"},{"poiid":"B2094757D068ABFE4999","title":"上海世博东湖公寓酒店","lon":"121.505364591","lat":"31.1967514842","category":"217","category_name":"旅馆招待所","address":"浦东新区雪野路999号"},{"poiid":"B2094654DA68A6FA4993","title":"浦东长途汽车客运总站","lon":"121.50264","lat":"31.18449","category":"35","category_name":"长途汽车站","address":"浦东新区浦东南路3843号(近莲南路)"},{"poiid":"B2094751DA69A7F44992","title":"王鼎","lon":"121.492645","lat":"31.189255","category":"247","category_name":"餐饮美食","address":"浦东新区世博大道1368号世博源1LM03-04号铺(近梅赛德斯奔驰文化中心西门)"},{"poiid":"B2094757D065A5F9499F","title":"Lavazza红磡意大利餐厅","lon":"121.50086773","lat":"31.194968549","category":"500","category_name":"未知分类","address":"浦东新区世博大道690号(近白莲泾公园)"},{"poiid":"B2094750DB6AA7F5439D","title":"上海新国际博览中心","lon":"121.493598","lat":"31.189872","category":"500","category_name":"未知分类","address":"浦东新区龙阳路2345号"},{"poiid":"B2094753D665AAF84998","title":"上海儿童艺术剧场","lon":"121.494537","lat":"31.19647","category":"500","category_name":"未知分类","address":"上海市 苗江路800号"},{"poiid":"B2094750D26EA2FA4093","title":"大悦城","lon":"121.503593","lat":"31.190885","category":"500","category_name":"未知分类","address":"西藏南路曲阜路"},{"poiid":"B2094757D06FA4FB4492","title":"上海世博会事务协调局","lon":"121.50553894","lat":"31.191095352","category":"46","category_name":"楼宇","address":"上海浦东南路3588号"},{"poiid":"B2094751D26BA4F4419A","title":"世博洲际酒店","lon":"121.500463","lat":"31.191658","category":"256","category_name":"外国餐厅","address":"上海市 雪野路"},{"poiid":"B2094757D16EA0FB469A","title":"星巴克 STARBUCKS (嘉年华店)","lon":"121.50054073","lat":"31.191624477","category":"65","category_name":"咖啡厅","address":"上海浦东新区白莲泾路(世博大道与浦东南路间，原世博园4号口)"},{"poiid":"B2094757D168A4FB479A","title":"海逸酒家","lon":"121.497772217","lat":"31.1877937317","category":"247","category_name":"餐饮美食","address":"浦东新区世博大道1200号世博文化中心6楼"},{"poiid":"B2094750DA64ABFE4493","title":"上海世博园沙特馆","lon":"121.495628","lat":"31.188323","category":"500","category_name":"未知分类","address":null},{"poiid":"B2094757D06BA3F5499A","title":"世博会L1码头","lon":"121.50177002","lat":"31.195886611","category":"500","category_name":"未知分类","address":"上海世博会L1码头"},{"poiid":"B2094752D768A3FA4299","title":"梅赛德斯奔驰文化中心","lon":"121.499401","lat":"31.194805","category":"500","category_name":"未知分类","address":null},{"poiid":"B2094752D669A5F54993","title":"梅赛德斯奔驰文化中心","lon":"121.499021","lat":"31.186684","category":"500","category_name":"未知分类","address":null},{"poiid":"B2094655D26FAAF8499B","title":"上海世博会世博园区样板组团工程观摩会","lon":"121.49868","lat":"31.18991","category":"46","category_name":"楼宇","address":""},{"poiid":"B2094655D26BABFE4699","title":"集散广场(L2轮渡码头东)","lon":"121.49696","lat":"31.19167","category":"201","category_name":"城市广场","address":"上海世博园区"},{"poiid":"B2094752DB6DA3FB429B","title":"梅德赛斯奔驰文化中心","lon":"121.493049","lat":"31.188869","category":"500","category_name":"未知分类","address":"上海市 世博大道"},{"poiid":"B2094655D36CA3FD4492","title":"罗森","lon":"121.4996","lat":"31.18985","category":"117","category_name":"便民商店/便利店","address":"上海世博园区"},{"poiid":"B2094655D26EA5FC4198","title":"星巴克(中融店)","lon":"121.5019","lat":"31.18414","category":"65","category_name":"咖啡厅","address":"浦东新区浦东南路1068号中融国际商城1楼"},{"poiid":"B2094655D264A6F8479A","title":"哈撒克斯坦馆","lon":"121.49919","lat":"31.18996","category":"183","category_name":"展览馆","address":"上海世博园区"},{"poiid":"B2094757D164A5F94299","title":"乐町","lon":"121.49369173","lat":"31.189618435","category":"95","category_name":"日本料理","address":"浦东新区世博大道1200号世博文化中心6楼605室(近中国馆)"},{"poiid":"B2094757D568AAF8469A","title":"休闲广场(亚洲广场东北)","lon":"121.4975973","lat":"31.19002477","category":"201","category_name":"城市广场","address":"上海世博园区"},{"poiid":"B2094655D268A6F84092","title":"亚美尼亚租赁馆","lon":"121.49816","lat":"31.19035","category":"183","category_name":"展览馆","address":""},{"poiid":"B2094757D06AA6F54493","title":"世博村","lon":"121.50436693","lat":"31.197464102","category":"47","category_name":"住宅区","address":"上海浦东新区雪野路(近沂南路)"},{"poiid":"B2094655D268A3FF449E","title":"世博演艺中心","lon":"121.494","lat":"31.18899","category":"180","category_name":"剧场","address":"上海市浦东新区世博大道"},{"poiid":"B2094757D064ABFB4392","title":"梅赛德斯奔驰文化中心音乐俱乐部","lon":"121.495735738","lat":"31.1882344057","category":"500","category_name":"未知分类","address":"上海世博大道1200号西门一层"},{"poiid":"B2094750D365ABFA4392","title":"梅赛得斯-奔驰文化中心","lon":"121.493125","lat":"31.189492","category":"500","category_name":"未知分类","address":"世博大道1200号"},{"poiid":"B2094654DA6AA3FE479D","title":"上海浦东游泳馆","lon":"121.50572","lat":"31.18856","category":"231","category_name":"游泳馆","address":"浦东新区浦东南路3669号"},{"poiid":"B2094757D06FA0F8439A","title":"宝莱纳餐厅(世博店)","lon":"121.504113332","lat":"31.1982851473","category":"260","category_name":"其他","address":"浦东新区世博大道555号1-2楼(近雪野路)"},{"poiid":"B2094757D06FA2FE4092","title":"世纪星滑冰俱乐部(Century Star Rink)","lon":"121.49329056","lat":"31.18833552","category":"260","category_name":"其他","address":"浦东新区世博大道1200号梅赛德斯奔驰文化中心B1楼"},{"poiid":"B2094750D66CA7F9449E","title":"月亮船","lon":"121.496009","lat":"31.188825","category":"500","category_name":"未知分类","address":null},{"poiid":"B2094757DA6EA4F8459F","title":"世博场馆沙特阿拉伯馆","lon":"121.4958","lat":"31.188443","category":"252","category_name":"楼宇机构","address":"浦东新区博成路1221号(近高科西路口)"},{"poiid":"B2094757D06FA7FA4093","title":"浦东游泳馆新羽毛球馆","lon":"121.505721806","lat":"31.1885572023","category":"220","category_name":"运动场所","address":"浦东新区浦东南路3669号浦东游泳馆南门内(近沂林路)"},{"poiid":"B2094751D56BA1F5479A","title":"世博源(The River Mall)","lon":"121.491795","lat":"31.187409","category":"247","category_name":"餐饮美食","address":"浦东新区世博大道1368号(近中华艺术宫)"},{"poiid":"B2094757D168AAF4469C","title":"上海世博园","lon":"121.506916","lat":"31.193412","category":"500","category_name":"未知分类","address":"中国上海"},{"poiid":"B2094757D06FA5F9429C","title":"多利萝玛(Tony Roma's)","lon":"121.5040196","lat":"31.196038751","category":"94","category_name":"西餐厅","address":"浦东新区世博村B地块雪野路1057号B9-101C室(近沂南路)"},{"poiid":"B2094757D468AAFE419C","title":"蜀府 世博店","lon":"121.50602","lat":"31.19398","category":"71","category_name":"四川菜","address":"浦东新区世博大道1200号梅赛德斯奔驰中心6楼"},{"poiid":"B2094757D06FA7F44493","title":"浦东新区社会保险事业管理中心","lon":"121.50377231","lat":"31.185200481","category":"260","category_name":"其他","address":"上海浦东南路浦东南路3993号"},{"poiid":"B2094757D065A0FD4493","title":"Bubba's Texas-style BBQ(世博村店)","lon":"121.504977","lat":"31.196236","category":"94","category_name":"西餐厅","address":"浦东新区雪野路240号(近沂南路)"},{"poiid":"B2094655D26BA2F54492","title":"浦东南路华丰路","lon":"121.50691","lat":"31.19281","category":"38","category_name":"公交车站","address":""},{"poiid":"B2094751D464A7F9499C","title":"梅赛德斯文化中心","lon":"121.492462","lat":"31.188721","category":"500","category_name":"未知分类","address":"上海浦东"},{"poiid":"B2094757D66CA4FE479B","title":"滨江大道-世博段","lon":"121.502270053","lat":"31.1976926018","category":"500","category_name":"未知分类","address":"上海世博大道沿江段"},{"poiid":"B2094757D06FA4FE4698","title":"味千拉面(世博文化中心店)","lon":"121.49320902","lat":"31.188971979","category":"68","category_name":"快餐厅","address":"浦东新区世博大道1200号B1层B101-103号"},{"poiid":"B2094757D069A6FB4698","title":"汉庭快捷浦东南路店(原世博村店)","lon":"121.50672","lat":"31.19234","category":"217","category_name":"旅馆招待所","address":"上海浦东新区浦东南路3500号(近华丰路)  "},{"poiid":"B2094654DA6AA3F9439C","title":"世博大厦","lon":"121.50595","lat":"31.1911","category":"46","category_name":"楼宇","address":"上海浦东南路3588号"},{"poiid":"B2094757D16DAAF4429E","title":"仙炙轩 世博店 Ambrosia","lon":"121.504652","lat":"31.200724","category":"247","category_name":"餐饮美食","address":"浦东新区世博大道555号4楼(雪野路口)"},{"poiid":"B2094654DB65A7FA4298","title":"格林豪泰上海世博园酒店","lon":"121.50691","lat":"31.19341","category":"216","category_name":"经济型连锁酒店","address":"上海市浦东新区浦东南路3500号(近南码头路)"},{"poiid":"B2094757D068A3F94492","title":"世博会阿联酋馆","lon":"121.49784","lat":"31.18622","category":"260","category_name":"其他","address":"上海浦东新区国展路近云台路(原上海世博会A片区)"},{"poiid":"B2094752D065A0FE449B","title":"王鼎日本料理铁板烧","lon":"121.492686","lat":"31.189287","category":"247","category_name":"餐饮美食","address":"世博大道1368号世博源1LM03-04号铺(近梅赛德斯奔驰文化中心西门)"},{"poiid":"B2094757D068ABFE4999","title":"上海世博东湖公寓酒店","lon":"121.505364591","lat":"31.1967514842","category":"217","category_name":"旅馆招待所","address":"浦东新区雪野路999号"},{"poiid":"B2094654DA68A6FA4993","title":"浦东长途汽车客运总站","lon":"121.50264","lat":"31.18449","category":"35","category_name":"长途汽车站","address":"浦东新区浦东南路3843号(近莲南路)"},{"poiid":"B2094751DA69A7F44992","title":"王鼎","lon":"121.492645","lat":"31.189255","category":"247","category_name":"餐饮美食","address":"浦东新区世博大道1368号世博源1LM03-04号铺(近梅赛德斯奔驰文化中心西门)"},{"poiid":"B2094757D065A5F9499F","title":"Lavazza红磡意大利餐厅","lon":"121.50086773","lat":"31.194968549","category":"500","category_name":"未知分类","address":"浦东新区世博大道690号(近白莲泾公园)"},{"poiid":"B2094750DB6AA7F5439D","title":"上海新国际博览中心","lon":"121.493598","lat":"31.189872","category":"500","category_name":"未知分类","address":"浦东新区龙阳路2345号"},{"poiid":"B2094753D665AAF84998","title":"上海儿童艺术剧场","lon":"121.494537","lat":"31.19647","category":"500","category_name":"未知分类","address":"上海市 苗江路800号"},{"poiid":"B2094750D26EA2FA4093","title":"大悦城","lon":"121.503593","lat":"31.190885","category":"500","category_name":"未知分类","address":"西藏南路曲阜路"},{"poiid":"B2094757D06FA4FB4492","title":"上海世博会事务协调局","lon":"121.50553894","lat":"31.191095352","category":"46","category_name":"楼宇","address":"上海浦东南路3588号"},{"poiid":"B2094751D26BA4F4419A","title":"世博洲际酒店","lon":"121.500463","lat":"31.191658","category":"256","category_name":"外国餐厅","address":"上海市 雪野路"},{"poiid":"B2094757D16EA0FB469A","title":"星巴克 STARBUCKS (嘉年华店)","lon":"121.50054073","lat":"31.191624477","category":"65","category_name":"咖啡厅","address":"上海浦东新区白莲泾路(世博大道与浦东南路间，原世博园4号口)"},{"poiid":"B2094757D168A4FB479A","title":"海逸酒家","lon":"121.497772217","lat":"31.1877937317","category":"247","category_name":"餐饮美食","address":"浦东新区世博大道1200号世博文化中心6楼"},{"poiid":"B2094750DA64ABFE4493","title":"上海世博园沙特馆","lon":"121.495628","lat":"31.188323","category":"500","category_name":"未知分类","address":null},{"poiid":"B2094757D06BA3F5499A","title":"世博会L1码头","lon":"121.50177002","lat":"31.195886611","category":"500","category_name":"未知分类","address":"上海世博会L1码头"},{"poiid":"B2094752D768A3FA4299","title":"梅赛德斯奔驰文化中心","lon":"121.499401","lat":"31.194805","category":"500","category_name":"未知分类","address":null},{"poiid":"B2094752D669A5F54993","title":"梅赛德斯奔驰文化中心","lon":"121.499021","lat":"31.186684","category":"500","category_name":"未知分类","address":null},{"poiid":"B2094655D26FAAF8499B","title":"上海世博会世博园区样板组团工程观摩会","lon":"121.49868","lat":"31.18991","category":"46","category_name":"楼宇","address":""},{"poiid":"B2094655D26BABFE4699","title":"集散广场(L2轮渡码头东)","lon":"121.49696","lat":"31.19167","category":"201","category_name":"城市广场","address":"上海世博园区"},{"poiid":"B2094752DB6DA3FB429B","title":"梅德赛斯奔驰文化中心","lon":"121.493049","lat":"31.188869","category":"500","category_name":"未知分类","address":"上海市 世博大道"},{"poiid":"B2094655D36CA3FD4492","title":"罗森","lon":"121.4996","lat":"31.18985","category":"117","category_name":"便民商店/便利店","address":"上海世博园区"},{"poiid":"B2094655D26EA5FC4198","title":"星巴克(中融店)","lon":"121.5019","lat":"31.18414","category":"65","category_name":"咖啡厅","address":"浦东新区浦东南路1068号中融国际商城1楼"},{"poiid":"B2094655D264A6F8479A","title":"哈撒克斯坦馆","lon":"121.49919","lat":"31.18996","category":"183","category_name":"展览馆","address":"上海世博园区"},{"poiid":"B2094757D164A5F94299","title":"乐町","lon":"121.49369173","lat":"31.189618435","category":"95","category_name":"日本料理","address":"浦东新区世博大道1200号世博文化中心6楼605室(近中国馆)"},{"poiid":"B2094757D568AAF8469A","title":"休闲广场(亚洲广场东北)","lon":"121.4975973","lat":"31.19002477","category":"201","category_name":"城市广场","address":"上海世博园区"},{"poiid":"B2094655D268A6F84092","title":"亚美尼亚租赁馆","lon":"121.49816","lat":"31.19035","category":"183","category_name":"展览馆","address":""},{"poiid":"B2094757D06AA6F54493","title":"世博村","lon":"121.50436693","lat":"31.197464102","category":"47","category_name":"住宅区","address":"上海浦东新区雪野路(近沂南路)"},{"poiid":"B2094655D268A3FF449E","title":"世博演艺中心","lon":"121.494","lat":"31.18899","category":"180","category_name":"剧场","address":"上海市浦东新区世博大道"},{"poiid":"B2094757D064ABFB4392","title":"梅赛德斯奔驰文化中心音乐俱乐部","lon":"121.495735738","lat":"31.1882344057","category":"500","category_name":"未知分类","address":"上海世博大道1200号西门一层"},{"poiid":"B2094750D365ABFA4392","title":"梅赛得斯-奔驰文化中心","lon":"121.493125","lat":"31.189492","category":"500","category_name":"未知分类","address":"世博大道1200号"},{"poiid":"B2094654DA6AA3FE479D","title":"上海浦东游泳馆","lon":"121.50572","lat":"31.18856","category":"231","category_name":"游泳馆","address":"浦东新区浦东南路3669号"},{"poiid":"B2094757D06FA0F8439A","title":"宝莱纳餐厅(世博店)","lon":"121.504113332","lat":"31.1982851473","category":"260","category_name":"其他","address":"浦东新区世博大道555号1-2楼(近雪野路)"},{"poiid":"B2094757D06FA2FE4092","title":"世纪星滑冰俱乐部(Century Star Rink)","lon":"121.49329056","lat":"31.18833552","category":"260","category_name":"其他","address":"浦东新区世博大道1200号梅赛德斯奔驰文化中心B1楼"},{"poiid":"B2094750D66CA7F9449E","title":"月亮船","lon":"121.496009","lat":"31.188825","category":"500","category_name":"未知分类","address":null},{"poiid":"B2094757DA6EA4F8459F","title":"世博场馆沙特阿拉伯馆","lon":"121.4958","lat":"31.188443","category":"252","category_name":"楼宇机构","address":"浦东新区博成路1221号(近高科西路口)"},{"poiid":"B2094757D06FA7FA4093","title":"浦东游泳馆新羽毛球馆","lon":"121.505721806","lat":"31.1885572023","category":"220","category_name":"运动场所","address":"浦东新区浦东南路3669号浦东游泳馆南门内(近沂林路)"},{"poiid":"B2094751D56BA1F5479A","title":"世博源(The River Mall)","lon":"121.491795","lat":"31.187409","category":"247","category_name":"餐饮美食","address":"浦东新区世博大道1368号(近中华艺术宫)"},{"poiid":"B2094757D168AAF4469C","title":"上海世博园","lon":"121.506916","lat":"31.193412","category":"500","category_name":"未知分类","address":"中国上海"},{"poiid":"B2094757D06FA5F9429C","title":"多利萝玛(Tony Roma's)","lon":"121.5040196","lat":"31.196038751","category":"94","category_name":"西餐厅","address":"浦东新区世博村B地块雪野路1057号B9-101C室(近沂南路)"},{"poiid":"B2094757D468AAFE419C","title":"蜀府 世博店","lon":"121.50602","lat":"31.19398","category":"71","category_name":"四川菜","address":"浦东新区世博大道1200号梅赛德斯奔驰中心6楼"},{"poiid":"B2094757D06FA7F44493","title":"浦东新区社会保险事业管理中心","lon":"121.50377231","lat":"31.185200481","category":"260","category_name":"其他","address":"上海浦东南路浦东南路3993号"},{"poiid":"B2094757D065A0FD4493","title":"Bubba's Texas-style BBQ(世博村店)","lon":"121.504977","lat":"31.196236","category":"94","category_name":"西餐厅","address":"浦东新区雪野路240号(近沂南路)"},{"poiid":"B2094655D26BA2F54492","title":"浦东南路华丰路","lon":"121.50691","lat":"31.19281","category":"38","category_name":"公交车站","address":""},{"poiid":"B2094751D464A7F9499C","title":"梅赛德斯文化中心","lon":"121.492462","lat":"31.188721","category":"500","category_name":"未知分类","address":"上海浦东"},{"poiid":"B2094757D66CA4FE479B","title":"滨江大道-世博段","lon":"121.502270053","lat":"31.1976926018","category":"500","category_name":"未知分类","address":"上海世博大道沿江段"},{"poiid":"B2094757D06FA4FE4698","title":"味千拉面(世博文化中心店)","lon":"121.49320902","lat":"31.188971979","category":"68","category_name":"快餐厅","address":"浦东新区世博大道1200号B1层B101-103号"},{"poiid":"B2094757D069A6FB4698","title":"汉庭快捷浦东南路店(原世博村店)","lon":"121.50672","lat":"31.19234","category":"217","category_name":"旅馆招待所","address":"上海浦东新区浦东南路3500号(近华丰路)  "},{"poiid":"B2094654DA6AA3F9439C","title":"世博大厦","lon":"121.50595","lat":"31.1911","category":"46","category_name":"楼宇","address":"上海浦东南路3588号"},{"poiid":"B2094757D16DAAF4429E","title":"仙炙轩 世博店 Ambrosia","lon":"121.504652","lat":"31.200724","category":"247","category_name":"餐饮美食","address":"浦东新区世博大道555号4楼(雪野路口)"},{"poiid":"B2094654DB65A7FA4298","title":"格林豪泰上海世博园酒店","lon":"121.50691","lat":"31.19341","category":"216","category_name":"经济型连锁酒店","address":"上海市浦东新区浦东南路3500号(近南码头路)"},{"poiid":"B2094757D068A3F94492","title":"世博会阿联酋馆","lon":"121.49784","lat":"31.18622","category":"260","category_name":"其他","address":"上海浦东新区国展路近云台路(原上海世博会A片区)"},{"poiid":"B2094752D065A0FE449B","title":"王鼎日本料理铁板烧","lon":"121.492686","lat":"31.189287","category":"247","category_name":"餐饮美食","address":"世博大道1368号世博源1LM03-04号铺(近梅赛德斯奔驰文化中心西门)"},{"poiid":"B2094757D068ABFE4999","title":"上海世博东湖公寓酒店","lon":"121.505364591","lat":"31.1967514842","category":"217","category_name":"旅馆招待所","address":"浦东新区雪野路999号"},{"poiid":"B2094654DA68A6FA4993","title":"浦东长途汽车客运总站","lon":"121.50264","lat":"31.18449","category":"35","category_name":"长途汽车站","address":"浦东新区浦东南路3843号(近莲南路)"},{"poiid":"B2094751DA69A7F44992","title":"王鼎","lon":"121.492645","lat":"31.189255","category":"247","category_name":"餐饮美食","address":"浦东新区世博大道1368号世博源1LM03-04号铺(近梅赛德斯奔驰文化中心西门)"},{"poiid":"B2094757D065A5F9499F","title":"Lavazza红磡意大利餐厅","lon":"121.50086773","lat":"31.194968549","category":"500","category_name":"未知分类","address":"浦东新区世博大道690号(近白莲泾公园)"},{"poiid":"B2094750DB6AA7F5439D","title":"上海新国际博览中心","lon":"121.493598","lat":"31.189872","category":"500","category_name":"未知分类","address":"浦东新区龙阳路2345号"},{"poiid":"B2094753D665AAF84998","title":"上海儿童艺术剧场","lon":"121.494537","lat":"31.19647","category":"500","category_name":"未知分类","address":"上海市 苗江路800号"},{"poiid":"B2094750D26EA2FA4093","title":"大悦城","lon":"121.503593","lat":"31.190885","category":"500","category_name":"未知分类","address":"西藏南路曲阜路"},{"poiid":"B2094757D06FA4FB4492","title":"上海世博会事务协调局","lon":"121.50553894","lat":"31.191095352","category":"46","category_name":"楼宇","address":"上海浦东南路3588号"},{"poiid":"B2094751D26BA4F4419A","title":"世博洲际酒店","lon":"121.500463","lat":"31.191658","category":"256","category_name":"外国餐厅","address":"上海市 雪野路"},{"poiid":"B2094757D16EA0FB469A","title":"星巴克 STARBUCKS (嘉年华店)","lon":"121.50054073","lat":"31.191624477","category":"65","category_name":"咖啡厅","address":"上海浦东新区白莲泾路(世博大道与浦东南路间，原世博园4号口)"},{"poiid":"B2094757D168A4FB479A","title":"海逸酒家","lon":"121.497772217","lat":"31.1877937317","category":"247","category_name":"餐饮美食","address":"浦东新区世博大道1200号世博文化中心6楼"},{"poiid":"B2094750DA64ABFE4493","title":"上海世博园沙特馆","lon":"121.495628","lat":"31.188323","category":"500","category_name":"未知分类","address":null},{"poiid":"B2094757D06BA3F5499A","title":"世博会L1码头","lon":"121.50177002","lat":"31.195886611","category":"500","category_name":"未知分类","address":"上海世博会L1码头"},{"poiid":"B2094752D768A3FA4299","title":"梅赛德斯奔驰文化中心","lon":"121.499401","lat":"31.194805","category":"500","category_name":"未知分类","address":null},{"poiid":"B2094752D669A5F54993","title":"梅赛德斯奔驰文化中心","lon":"121.499021","lat":"31.186684","category":"500","category_name":"未知分类","address":null},{"poiid":"B2094655D26FAAF8499B","title":"上海世博会世博园区样板组团工程观摩会","lon":"121.49868","lat":"31.18991","category":"46","category_name":"楼宇","address":""},{"poiid":"B2094655D26BABFE4699","title":"集散广场(L2轮渡码头东)","lon":"121.49696","lat":"31.19167","category":"201","category_name":"城市广场","address":"上海世博园区"},{"poiid":"B2094752DB6DA3FB429B","title":"梅德赛斯奔驰文化中心","lon":"121.493049","lat":"31.188869","category":"500","category_name":"未知分类","address":"上海市 世博大道"},{"poiid":"B2094655D36CA3FD4492","title":"罗森","lon":"121.4996","lat":"31.18985","category":"117","category_name":"便民商店/便利店","address":"上海世博园区"},{"poiid":"B2094655D26EA5FC4198","title":"星巴克(中融店)","lon":"121.5019","lat":"31.18414","category":"65","category_name":"咖啡厅","address":"浦东新区浦东南路1068号中融国际商城1楼"},{"poiid":"B2094655D264A6F8479A","title":"哈撒克斯坦馆","lon":"121.49919","lat":"31.18996","category":"183","category_name":"展览馆","address":"上海世博园区"},{"poiid":"B2094757D164A5F94299","title":"乐町","lon":"121.49369173","lat":"31.189618435","category":"95","category_name":"日本料理","address":"浦东新区世博大道1200号世博文化中心6楼605室(近中国馆)"},{"poiid":"B2094757D568AAF8469A","title":"休闲广场(亚洲广场东北)","lon":"121.4975973","lat":"31.19002477","category":"201","category_name":"城市广场","address":"上海世博园区"},{"poiid":"B2094655D268A6F84092","title":"亚美尼亚租赁馆","lon":"121.49816","lat":"31.19035","category":"183","category_name":"展览馆","address":""},{"poiid":"B2094757D06AA6F54493","title":"世博村","lon":"121.50436693","lat":"31.197464102","category":"47","category_name":"住宅区","address":"上海浦东新区雪野路(近沂南路)"}]