[{"poiid":"B2094757D06FA3FF4298","title":"上海兴荣温德姆至尊豪廷酒店","lon":"121.55508","lat":"31.25322","category":"213","category_name":"五星级宾馆","address":"浦东新区浦东大道2288号(万德路口)"},{"poiid":"B2094757D06FA2F54398","title":"杨浦大桥","lon":"121.545651781","lat":"31.2549775114","category":"260","category_name":"其他","address":"上海杨浦区宁国路-浦东新区罗山路"},{"poiid":"B2094655D26BA2F5479C","title":"浦东大道德平路","lon":"121.55705","lat":"31.25607","category":"38","category_name":"公交车站","address":""},{"poiid":"B2094757D06FA5F4479A","title":"一品粤珍(浦东大道店)","lon":"121.549017","lat":"31.247599","category":"72","category_name":"广东菜","address":"浦东新区浦东大道2000号2-3楼(崮山路口)"},{"poiid":"B2094757D06FA7FB439C","title":"新新潘晓婷桌球俱乐部","lon":"121.554184","lat":"31.253674","category":"171","category_name":"台球厅","address":"上海浦东大道2311号5楼"},{"poiid":"B2094757D06FA5F94299","title":"浦东大道歇浦路","lon":"121.550818","lat":"31.250203","category":"260","category_name":"其他","address":"上海浦东大道歇浦路"},{"poiid":"B2094757D06FA7FB429D","title":"崮山路","lon":"121.54972","lat":"31.247619","category":"260","category_name":"其他","address":"上海浦东新区 崮山路"},{"poiid":"B2094757D068A0FD419C","title":"德平路公交站(近浦东大道)","lon":"121.556913","lat":"31.254067","category":"38","category_name":"公交车站","address":"上海德平路浦东大道"},{"poiid":"B2094654D568A4F9409F","title":"仁和宾馆(浦东大道)","lon":"121.54971","lat":"31.24841","category":"215","category_name":"三星级宾馆","address":"上海市浦东新区浦东大道2056号"},{"poiid":"B2094654D568A4FB4198","title":"景缘国际酒店","lon":"121.55422","lat":"31.25439","category":"214","category_name":"四星级宾馆","address":"上海市浦东新区浦东大道2333号(近德平路)"},{"poiid":"B2094757D06FA0F8449F","title":"龙珠广场","lon":"121.557","lat":"31.2563","category":"46","category_name":"楼宇","address":"卫清西路139_149号等"},{"poiid":"B2094757D069A5FE4793","title":"豪享来上海崮山店","lon":"121.555","lat":"31.251","category":"247","category_name":"餐饮美食","address":"上海市浦东新区崮山路327号"},{"poiid":"B2094654DA69A3F4489C","title":"阳光世界","lon":"121.555","lat":"31.2539","category":"46","category_name":"楼宇","address":"虹口区海宁路,吴淞路口"},{"poiid":"B2094655D26FABFB449A","title":"海防新村","lon":"121.55309","lat":"31.248438","category":"47","category_name":"住宅区","address":"上海浦东海防新村"},{"poiid":"B2094757DB6DA5F94693","title":"如家快捷酒店（上海浦东大道罗山路杨浦大桥店）","lon":"121.550926566","lat":"31.25193282","category":"216","category_name":"经济型连锁酒店","address":"浦东新区浦东大道(近东方路)"},{"poiid":"B2094757D06AABFD489B","title":"莫泰168(杨浦大桥店)","lon":"121.55553","lat":"31.25391","category":"500","category_name":"未知分类","address":"上海市浦东大道2330号(近罗山路)"},{"poiid":"B2094655D36CA3FC4693","title":"上海通榕驾驶员培训学校","lon":"121.5508","lat":"31.2516","category":"192","category_name":"驾校","address":"浦东大道2175号"},{"poiid":"B2094757D664A3FE449D","title":"蜀华火锅 崮山路店","lon":"121.550912","lat":"31.24723","category":"86","category_name":"火锅店","address":"浦东新区崮山路95号(近浦东大道)"},{"poiid":"B2094654DA68ABFA4998","title":"星宇大楼","lon":"121.551","lat":"31.2526","category":"46","category_name":"楼宇","address":"浦东大道1695弄1幢1号"},{"poiid":"B2094757D069A4FD429E","title":"浦东新区中医医院(罗山分院)","lon":"121.557627451","lat":"31.2503135797","category":"162","category_name":"医院","address":"浦东新区万德路49号(近德平路菜场)"},{"poiid":"B2094757DB68A0FD429D","title":"黑马酒吧 Dark House Bar","lon":"121.5509948780889","lat":"31.25457606662349","category":"247","category_name":"餐饮美食","address":"浦东新区浦东大道2402号(近德平路)"},{"poiid":"B2094654DB6BABF4469D","title":"凌四小区","lon":"121.552","lat":"31.253","category":"47","category_name":"住宅区","address":"浦东大道1851弄1-66号"},{"poiid":"B2094757D069ABFE439B","title":"小绍兴(德平店)","lon":"121.55628","lat":"31.25447","category":"68","category_name":"快餐厅","address":"浦东新区德平路8号(近浦东大道)"},{"poiid":"B2094757D068A7FA419E","title":"凌高小区","lon":"121.55047305","lat":"31.246869671","category":"252","category_name":"楼宇机构","address":"上海栖山路401弄"},{"poiid":"B2094757D069A6F4409D","title":"鼎丰人家(德平店)","lon":"121.55825","lat":"31.25268","category":"76","category_name":"上海菜","address":"浦东新区德平路44号(栖山路口)"},{"poiid":"B2094655D26CA4FA489F","title":"杨浦大桥观光进口","lon":"121.55039","lat":"31.25168","category":"250","category_name":"公园户外","address":""},{"poiid":"B2094757D66FA0F8499E","title":"红房子医院","lon":"121.5439571","lat":"31.252780053","category":"162","category_name":"医院","address":"上海眉州路"},{"poiid":"B2094757D16CA2FC4998","title":"东方城市公寓","lon":"121.54860963","lat":"31.246827428","category":"252","category_name":"楼宇机构","address":"上海市浦东新区苗圃路60弄"},{"poiid":"B2094654D568A4FA499B","title":"海翔大楼","lon":"121.55194","lat":"31.25162","category":"46","category_name":"楼宇","address":"浦东大道2187-2标识"},{"poiid":"B2094655D36CA2FC4092","title":"丸ちゃんの焼肉","lon":"121.55397","lat":"31.25351","category":"87","category_name":"特色／地方风味餐厅","address":"浦东新区浦东大道988弄东晶国际(近源深路)"},{"poiid":"B2094757D065A7FF499B","title":"歇浦路轮渡站","lon":"121.54695015","lat":"31.252636375","category":"35","category_name":"长途汽车站","address":"上海歇浦路1号"},{"poiid":"B2094757D16CA2FE409D","title":"平凡的一天","lon":"121.551976","lat":"31.251604","category":"247","category_name":"餐饮美食","address":"上海一天"},{"poiid":"B2094655D26FA0FC4798","title":"宏殿大厦","lon":"121.55143","lat":"31.25095","category":"46","category_name":"楼宇","address":"浦东大道2175"},{"poiid":"B2094654D568A4F94099","title":"海皇一品","lon":"121.54971","lat":"31.24841","category":"72","category_name":"广东菜","address":"浦东新区浦东大道2056号仁和宾馆21楼(崮山路浦东大道)"},{"poiid":"B2094757D065A2FA449E","title":"鼎茶(乳山店)","lon":"121.5516931","lat":"31.25120502","category":"247","category_name":"餐饮美食","address":"上海市浦东新区乳山路209号"},{"poiid":"B2094655D265A3FD4992","title":"上安公馆","lon":"121.55305","lat":"31.25252","category":"47","category_name":"住宅区","address":"上安公馆位于浦东浦东大道2160号"},{"poiid":"B2094654D568A4F9409D","title":"上安大厦商务楼","lon":"121.55075","lat":"31.2494","category":"46","category_name":"楼宇","address":"浦东大道2188号"},{"poiid":"B2094655D26EAAFE4393","title":"格林豪泰酒店(浦东大道店)","lon":"121.55316","lat":"31.25289","category":"216","category_name":"经济型连锁酒店","address":"浦东新区浦东大道2255号"},{"poiid":"B2094654DB65A3FC4599","title":"上海市邦德高级中学","lon":"121.5531","lat":"31.25277","category":"55","category_name":"中学","address":"浦东大道2311号"},{"poiid":"B2094750D76FA0FD459A","title":"咱家东北菜","lon":"121.551","lat":"31.2474","category":"82","category_name":"东北菜","address":"浦东新区崮山路71号(近栖山路)"},{"poiid":"B2094654DA68ABF4429F","title":"申城公寓","lon":"121.549412","lat":"31.250585","category":"46","category_name":"楼宇","address":"巨野路22号"},{"poiid":"B2094654D568A4FA469F","title":"龙珠公寓","lon":"121.5498","lat":"31.250195","category":"47","category_name":"住宅区","address":"龙珠公寓位于浦东浦东歇浦路288号"},{"poiid":"B2094655D26CA7F9449A","title":"好德便利No.059","lon":"121.55081","lat":"31.25036","category":"117","category_name":"便民商店/便利店","address":"浦东大道2145号"},{"poiid":"B2094655D26AA0FF449C","title":"新新潘晓婷撞球俱乐部(新里程店)","lon":"121.55422","lat":"31.25439","category":"247","category_name":"餐饮美食","address":"浦东新区浦东大道2333号2-4楼(近德平路)"},{"poiid":"B2094757D06AA5FC439E","title":"吉祥馄饨 德平路店 Gll Wonton","lon":"121.557189","lat":"31.256476","category":"68","category_name":"快餐厅","address":"浦东新区浦东大道2373号(近德平路)"},{"poiid":"B2094654DB6BA1F8449F","title":"可的浦东大道店","lon":"121.55076","lat":"31.25029","category":"117","category_name":"便民商店/便利店","address":"浦东大道2141"},{"poiid":"B2094655D264A1F5449F","title":"可的超市(海运店)","lon":"121.55359","lat":"31.2531","category":"117","category_name":"便民商店/便利店","address":"浦东大道1472号"},{"poiid":"B2094654D568A4FA449C","title":"申佳宾馆","lon":"121.55167","lat":"31.24921","category":"250","category_name":"公园户外","address":"浦东新区浦东大道2188号海防新村74号"},{"poiid":"B2094750DB64A4FB499A","title":"上海公立医院","lon":"121.547248","lat":"31.248956","category":"162","category_name":"医院","address":null},{"poiid":"B2094752D46AA1FC439B","title":"苗圃加油站","lon":"121.552999","lat":"31.249517","category":"153","category_name":"加油站","address":"上海市浦东新区苗圃路151号(栖山路口)"},{"poiid":"B2094757D06FA3FF4298","title":"上海兴荣温德姆至尊豪廷酒店","lon":"121.55508","lat":"31.25322","category":"213","category_name":"五星级宾馆","address":"浦东新区浦东大道2288号(万德路口)"},{"poiid":"B2094757D06FA2F54398","title":"杨浦大桥","lon":"121.545651781","lat":"31.2549775114","category":"260","category_name":"其他","address":"上海杨浦区宁国路-浦东新区罗山路"},{"poiid":"B2094655D26BA2F5479C","title":"浦东大道德平路","lon":"121.55705","lat":"31.25607","category":"38","category_name":"公交车站","address":""},{"poiid":"B2094757D06FA5F4479A","title":"一品粤珍(浦东大道店)","lon":"121.549017","lat":"31.247599","category":"72","category_name":"广东菜","address":"浦东新区浦东大道2000号2-3楼(崮山路口)"},{"poiid":"B2094757D06FA7FB439C","title":"新新潘晓婷桌球俱乐部","lon":"121.554184","lat":"31.253674","category":"171","category_name":"台球厅","address":"上海浦东大道2311号5楼"},{"poiid":"B2094757D06FA5F94299","title":"浦东大道歇浦路","lon":"121.550818","lat":"31.250203","category":"260","category_name":"其他","address":"上海浦东大道歇浦路"},{"poiid":"B2094757D06FA7FB429D","title":"崮山路","lon":"121.54972","lat":"31.247619","category":"260","category_name":"其他","address":"上海浦东新区 崮山路"},{"poiid":"B2094757D068A0FD419C","title":"德平路公交站(近浦东大道)","lon":"121.556913","lat":"31.254067","category":"38","category_name":"公交车站","address":"上海德平路浦东大道"},{"poiid":"B2094654D568A4F9409F","title":"仁和宾馆(浦东大道)","lon":"121.54971","lat":"31.24841","category":"215","category_name":"三星级宾馆","address":"上海市浦东新区浦东大道2056号"},{"poiid":"B2094654D568A4FB4198","title":"景缘国际酒店","lon":"121.55422","lat":"31.25439","category":"214","category_name":"四星级宾馆","address":"上海市浦东新区浦东大道2333号(近德平路)"},{"poiid":"B2094757D06FA0F8449F","title":"龙珠广场","lon":"121.557","lat":"31.2563","category":"46","category_name":"楼宇","address":"卫清西路139_149号等"},{"poiid":"B2094757D069A5FE4793","title":"豪享来上海崮山店","lon":"121.555","lat":"31.251","category":"247","category_name":"餐饮美食","address":"上海市浦东新区崮山路327号"},{"poiid":"B2094654DA69A3F4489C","title":"阳光世界","lon":"121.555","lat":"31.2539","category":"46","category_name":"楼宇","address":"虹口区海宁路,吴淞路口"},{"poiid":"B2094655D26FABFB449A","title":"海防新村","lon":"121.55309","lat":"31.248438","category":"47","category_name":"住宅区","address":"上海浦东海防新村"},{"poiid":"B2094757DB6DA5F94693","title":"如家快捷酒店（上海浦东大道罗山路杨浦大桥店）","lon":"121.550926566","lat":"31.25193282","category":"216","category_name":"经济型连锁酒店","address":"浦东新区浦东大道(近东方路)"},{"poiid":"B2094757D06AABFD489B","title":"莫泰168(杨浦大桥店)","lon":"121.55553","lat":"31.25391","category":"500","category_name":"未知分类","address":"上海市浦东大道2330号(近罗山路)"},{"poiid":"B2094655D36CA3FC4693","title":"上海通榕驾驶员培训学校","lon":"121.5508","lat":"31.2516","category":"192","category_name":"驾校","address":"浦东大道2175号"},{"poiid":"B2094757D664A3FE449D","title":"蜀华火锅 崮山路店","lon":"121.550912","lat":"31.24723","category":"86","category_name":"火锅店","address":"浦东新区崮山路95号(近浦东大道)"},{"poiid":"B2094654DA68ABFA4998","title":"星宇大楼","lon":"121.551","lat":"31.2526","category":"46","category_name":"楼宇","address":"浦东大道1695弄1幢1号"},{"poiid":"B2094757D069A4FD429E","title":"浦东新区中医医院(罗山分院)","lon":"121.557627451","lat":"31.2503135797","category":"162","category_name":"医院","address":"浦东新区万德路49号(近德平路菜场)"},{"poiid":"B2094757DB68A0FD429D","title":"黑马酒吧 Dark House Bar","lon":"121.5509948780889","lat":"31.25457606662349","category":"247","category_name":"餐饮美食","address":"浦东新区浦东大道2402号(近德平路)"},{"poiid":"B2094654DB6BABF4469D","title":"凌四小区","lon":"121.552","lat":"31.253","category":"47","category_name":"住宅区","address":"浦东大道1851弄1-66号"},{"poiid":"B2094757D069ABFE439B","title":"小绍兴(德平店)","lon":"121.55628","lat":"31.25447","category":"68","category_name":"快餐厅","address":"浦东新区德平路8号(近浦东大道)"},{"poiid":"B2094757D068A7FA419E","title":"凌高小区","lon":"121.55047305","lat":"31.246869671","category":"252","category_name":"楼宇机构","address":"上海栖山路401弄"},{"poiid":"B2094757D069A6F4409D","title":"鼎丰人家(德平店)","lon":"121.55825","lat":"31.25268","category":"76","category_name":"上海菜","address":"浦东新区德平路44号(栖山路口)"},{"poiid":"B2094655D26CA4FA489F","title":"杨浦大桥观光进口","lon":"121.55039","lat":"31.25168","category":"250","category_name":"公园户外","address":""},{"poiid":"B2094757D66FA0F8499E","title":"红房子医院","lon":"121.5439571","lat":"31.252780053","category":"162","category_name":"医院","address":"上海眉州路"},{"poiid":"B2094757D16CA2FC4998","title":"东方城市公寓","lon":"121.54860963","lat":"31.246827428","category":"252","category_name":"楼宇机构","address":"上海市浦东新区苗圃路60弄"},{"poiid":"B2094654D568A4FA499B","title":"海翔大楼","lon":"121.55194","lat":"31.25162","category":"46","category_name":"楼宇","address":"浦东大道2187-2标识"},{"poiid":"B2094655D36CA2FC4092","title":"丸ちゃんの焼肉","lon":"121.55397","lat":"31.25351","category":"87","category_name":"特色／地方风味餐厅","address":"浦东新区浦东大道988弄东晶国际(近源深路)"},{"poiid":"B2094757D065A7FF499B","title":"歇浦路轮渡站","lon":"121.54695015","lat":"31.252636375","category":"35","category_name":"长途汽车站","address":"上海歇浦路1号"},{"poiid":"B2094757D16CA2FE409D","title":"平凡的一天","lon":"121.551976","lat":"31.251604","category":"247","category_name":"餐饮美食","address":"上海一天"},{"poiid":"B2094655D26FA0FC4798","title":"宏殿大厦","lon":"121.55143","lat":"31.25095","category":"46","category_name":"楼宇","address":"浦东大道2175"},{"poiid":"B2094654D568A4F94099","title":"海皇一品","lon":"121.54971","lat":"31.24841","category":"72","category_name":"广东菜","address":"浦东新区浦东大道2056号仁和宾馆21楼(崮山路浦东大道)"},{"poiid":"B2094757D065A2FA449E","title":"鼎茶(乳山店)","lon":"121.5516931","lat":"31.25120502","category":"247","category_name":"餐饮美食","address":"上海市浦东新区乳山路209号"},{"poiid":"B2094655D265A3FD4992","title":"上安公馆","lon":"121.55305","lat":"31.25252","category":"47","category_name":"住宅区","address":"上安公馆位于浦东浦东大道2160号"},{"poiid":"B2094654D568A4F9409D","title":"上安大厦商务楼","lon":"121.55075","lat":"31.2494","category":"46","category_name":"楼宇","address":"浦东大道2188号"},{"poiid":"B2094655D26EAAFE4393","title":"格林豪泰酒店(浦东大道店)","lon":"121.55316","lat":"31.25289","category":"216","category_name":"经济型连锁酒店","address":"浦东新区浦东大道2255号"},{"poiid":"B2094654DB65A3FC4599","title":"上海市邦德高级中学","lon":"121.5531","lat":"31.25277","category":"55","category_name":"中学","address":"浦东大道2311号"},{"poiid":"B2094750D76FA0FD459A","title":"咱家东北菜","lon":"121.551","lat":"31.2474","category":"82","category_name":"东北菜","address":"浦东新区崮山路71号(近栖山路)"},{"poiid":"B2094654DA68ABF4429F","title":"申城公寓","lon":"121.549412","lat":"31.250585","category":"46","category_name":"楼宇","address":"巨野路22号"},{"poiid":"B2094654D568A4FA469F","title":"龙珠公寓","lon":"121.5498","lat":"31.250195","category":"47","category_name":"住宅区","address":"龙珠公寓位于浦东浦东歇浦路288号"},{"poiid":"B2094655D26CA7F9449A","title":"好德便利No.059","lon":"121.55081","lat":"31.25036","category":"117","category_name":"便民商店/便利店","address":"浦东大道2145号"},{"poiid":"B2094655D26AA0FF449C","title":"新新潘晓婷撞球俱乐部(新里程店)","lon":"121.55422","lat":"31.25439","category":"247","category_name":"餐饮美食","address":"浦东新区浦东大道2333号2-4楼(近德平路)"},{"poiid":"B2094757D06AA5FC439E","title":"吉祥馄饨 德平路店 Gll Wonton","lon":"121.557189","lat":"31.256476","category":"68","category_name":"快餐厅","address":"浦东新区浦东大道2373号(近德平路)"},{"poiid":"B2094654DB6BA1F8449F","title":"可的浦东大道店","lon":"121.55076","lat":"31.25029","category":"117","category_name":"便民商店/便利店","address":"浦东大道2141"},{"poiid":"B2094655D264A1F5449F","title":"可的超市(海运店)","lon":"121.55359","lat":"31.2531","category":"117","category_name":"便民商店/便利店","address":"浦东大道1472号"},{"poiid":"B2094654D568A4FA449C","title":"申佳宾馆","lon":"121.55167","lat":"31.24921","category":"250","category_name":"公园户外","address":"浦东新区浦东大道2188号海防新村74号"},{"poiid":"B2094750DB64A4FB499A","title":"上海公立医院","lon":"121.547248","lat":"31.248956","category":"162","category_name":"医院","address":null},{"poiid":"B2094752D46AA1FC439B","title":"苗圃加油站","lon":"121.552999","lat":"31.249517","category":"153","category_name":"加油站","address":"上海市浦东新区苗圃路151号(栖山路口)"},{"poiid":"B2094757D06FA3FF4298","title":"上海兴荣温德姆至尊豪廷酒店","lon":"121.55508","lat":"31.25322","category":"213","category_name":"五星级宾馆","address":"浦东新区浦东大道2288号(万德路口)"},{"poiid":"B2094757D06FA2F54398","title":"杨浦大桥","lon":"121.545651781","lat":"31.2549775114","category":"260","category_name":"其他","address":"上海杨浦区宁国路-浦东新区罗山路"},{"poiid":"B2094655D26BA2F5479C","title":"浦东大道德平路","lon":"121.55705","lat":"31.25607","category":"38","category_name":"公交车站","address":""},{"poiid":"B2094757D06FA5F4479A","title":"一品粤珍(浦东大道店)","lon":"121.549017","lat":"31.247599","category":"72","category_name":"广东菜","address":"浦东新区浦东大道2000号2-3楼(崮山路口)"},{"poiid":"B2094757D06FA7FB439C","title":"新新潘晓婷桌球俱乐部","lon":"121.554184","lat":"31.253674","category":"171","category_name":"台球厅","address":"上海浦东大道2311号5楼"},{"poiid":"B2094757D06FA5F94299","title":"浦东大道歇浦路","lon":"121.550818","lat":"31.250203","category":"260","category_name":"其他","address":"上海浦东大道歇浦路"},{"poiid":"B2094757D06FA7FB429D","title":"崮山路","lon":"121.54972","lat":"31.247619","category":"260","category_name":"其他","address":"上海浦东新区 崮山路"},{"poiid":"B2094757D068A0FD419C","title":"德平路公交站(近浦东大道)","lon":"121.556913","lat":"31.254067","category":"38","category_name":"公交车站","address":"上海德平路浦东大道"},{"poiid":"B2094654D568A4F9409F","title":"仁和宾馆(浦东大道)","lon":"121.54971","lat":"31.24841","category":"215","category_name":"三星级宾馆","address":"上海市浦东新区浦东大道2056号"},{"poiid":"B2094654D568A4FB4198","title":"景缘国际酒店","lon":"121.55422","lat":"31.25439","category":"214","category_name":"四星级宾馆","address":"上海市浦东新区浦东大道2333号(近德平路)"},{"poiid":"B2094757D06FA0F8449F","title":"龙珠广场","lon":"121.557","lat":"31.2563","category":"46","category_name":"楼宇","address":"卫清西路139_149号等"},{"poiid":"B2094757D069A5FE4793","title":"豪享来上海崮山店","lon":"121.555","lat":"31.251","category":"247","category_name":"餐饮美食","address":"上海市浦东新区崮山路327号"},{"poiid":"B2094654DA69A3F4489C","title":"阳光世界","lon":"121.555","lat":"31.2539","category":"46","category_name":"楼宇","address":"虹口区海宁路,吴淞路口"},{"poiid":"B2094655D26FABFB449A","title":"海防新村","lon":"121.55309","lat":"31.248438","category":"47","category_name":"住宅区","address":"上海浦东海防新村"},{"poiid":"B2094757DB6DA5F94693","title":"如家快捷酒店（上海浦东大道罗山路杨浦大桥店）","lon":"121.550926566","lat":"31.25193282","category":"216","category_name":"经济型连锁酒店","address":"浦东新区浦东大道(近东方路)"},{"poiid":"B2094757D06AABFD489B","title":"莫泰168(杨浦大桥店)","lon":"121.55553","lat":"31.25391","category":"500","category_name":"未知分类","address":"上海市浦东大道2330号(近罗山路)"},{"poiid":"B2094655D36CA3FC4693","title":"上海通榕驾驶员培训学校","lon":"121.5508","lat":"31.2516","category":"192","category_name":"驾校","address":"浦东大道2175号"},{"poiid":"B2094757D664A3FE449D","title":"蜀华火锅 崮山路店","lon":"121.550912","lat":"31.24723","category":"86","category_name":"火锅店","address":"浦东新区崮山路95号(近浦东大道)"},{"poiid":"B2094654DA68ABFA4998","title":"星宇大楼","lon":"121.551","lat":"31.2526","category":"46","category_name":"楼宇","address":"浦东大道1695弄1幢1号"},{"poiid":"B2094757D069A4FD429E","title":"浦东新区中医医院(罗山分院)","lon":"121.557627451","lat":"31.2503135797","category":"162","category_name":"医院","address":"浦东新区万德路49号(近德平路菜场)"},{"poiid":"B2094757DB68A0FD429D","title":"黑马酒吧 Dark House Bar","lon":"121.5509948780889","lat":"31.25457606662349","category":"247","category_name":"餐饮美食","address":"浦东新区浦东大道2402号(近德平路)"},{"poiid":"B2094654DB6BABF4469D","title":"凌四小区","lon":"121.552","lat":"31.253","category":"47","category_name":"住宅区","address":"浦东大道1851弄1-66号"},{"poiid":"B2094757D069ABFE439B","title":"小绍兴(德平店)","lon":"121.55628","lat":"31.25447","category":"68","category_name":"快餐厅","address":"浦东新区德平路8号(近浦东大道)"},{"poiid":"B2094757D068A7FA419E","title":"凌高小区","lon":"121.55047305","lat":"31.246869671","category":"252","category_name":"楼宇机构","address":"上海栖山路401弄"},{"poiid":"B2094757D069A6F4409D","title":"鼎丰人家(德平店)","lon":"121.55825","lat":"31.25268","category":"76","category_name":"上海菜","address":"浦东新区德平路44号(栖山路口)"},{"poiid":"B2094655D26CA4FA489F","title":"杨浦大桥观光进口","lon":"121.55039","lat":"31.25168","category":"250","category_name":"公园户外","address":""},{"poiid":"B2094757D66FA0F8499E","title":"红房子医院","lon":"121.5439571","lat":"31.252780053","category":"162","category_name":"医院","address":"上海眉州路"},{"poiid":"B2094757D16CA2FC4998","title":"东方城市公寓","lon":"121.54860963","lat":"31.246827428","category":"252","category_name":"楼宇机构","address":"上海市浦东新区苗圃路60弄"},{"poiid":"B2094654D568A4FA499B","title":"海翔大楼","lon":"121.55194","lat":"31.25162","category":"46","category_name":"楼宇","address":"浦东大道2187-2标识"},{"poiid":"B2094655D36CA2FC4092","title":"丸ちゃんの焼肉","lon":"121.55397","lat":"31.25351","category":"87","category_name":"特色／地方风味餐厅","address":"浦东新区浦东大道988弄东晶国际(近源深路)"},{"poiid":"B2094757D065A7FF499B","title":"歇浦路轮渡站","lon":"121.54695015","lat":"31.252636375","category":"35","category_name":"长途汽车站","address":"上海歇浦路1号"},{"poiid":"B2094757D16CA2FE409D","title":"平凡的一天","lon":"121.551976","lat":"31.251604","category":"247","category_name":"餐饮美食","address":"上海一天"},{"poiid":"B2094655D26FA0FC4798","title":"宏殿大厦","lon":"121.55143","lat":"31.25095","category":"46","category_name":"楼宇","address":"浦东大道2175"},{"poiid":"B2094654D568A4F94099","title":"海皇一品","lon":"121.54971","lat":"31.24841","category":"72","category_name":"广东菜","address":"浦东新区浦东大道2056号仁和宾馆21楼(崮山路浦东大道)"},{"poiid":"B2094757D065A2FA449E","title":"鼎茶(乳山店)","lon":"121.5516931","lat":"31.25120502","category":"247","category_name":"餐饮美食","address":"上海市浦东新区乳山路209号"},{"poiid":"B2094655D265A3FD4992","title":"上安公馆","lon":"121.55305","lat":"31.25252","category":"47","category_name":"住宅区","address":"上安公馆位于浦东浦东大道2160号"},{"poiid":"B2094654D568A4F9409D","title":"上安大厦商务楼","lon":"121.55075","lat":"31.2494","category":"46","category_name":"楼宇","address":"浦东大道2188号"},{"poiid":"B2094655D26EAAFE4393","title":"格林豪泰酒店(浦东大道店)","lon":"121.55316","lat":"31.25289","category":"216","category_name":"经济型连锁酒店","address":"浦东新区浦东大道2255号"},{"poiid":"B2094654DB65A3FC4599","title":"上海市邦德高级中学","lon":"121.5531","lat":"31.25277","category":"55","category_name":"中学","address":"浦东大道2311号"},{"poiid":"B2094750D76FA0FD459A","title":"咱家东北菜","lon":"121.551","lat":"31.2474","category":"82","category_name":"东北菜","address":"浦东新区崮山路71号(近栖山路)"},{"poiid":"B2094654DA68ABF4429F","title":"申城公寓","lon":"121.549412","lat":"31.250585","category":"46","category_name":"楼宇","address":"巨野路22号"},{"poiid":"B2094654D568A4FA469F","title":"龙珠公寓","lon":"121.5498","lat":"31.250195","category":"47","category_name":"住宅区","address":"龙珠公寓位于浦东浦东歇浦路288号"},{"poiid":"B2094655D26CA7F9449A","title":"好德便利No.059","lon":"121.55081","lat":"31.25036","category":"117","category_name":"便民商店/便利店","address":"浦东大道2145号"},{"poiid":"B2094655D26AA0FF449C","title":"新新潘晓婷撞球俱乐部(新里程店)","lon":"121.55422","lat":"31.25439","category":"247","category_name":"餐饮美食","address":"浦东新区浦东大道2333号2-4楼(近德平路)"},{"poiid":"B2094757D06AA5FC439E","title":"吉祥馄饨 德平路店 Gll Wonton","lon":"121.557189","lat":"31.256476","category":"68","category_name":"快餐厅","address":"浦东新区浦东大道2373号(近德平路)"},{"poiid":"B2094654DB6BA1F8449F","title":"可的浦东大道店","lon":"121.55076","lat":"31.25029","category":"117","category_name":"便民商店/便利店","address":"浦东大道2141"},{"poiid":"B2094655D264A1F5449F","title":"可的超市(海运店)","lon":"121.55359","lat":"31.2531","category":"117","category_name":"便民商店/便利店","address":"浦东大道1472号"},{"poiid":"B2094654D568A4FA449C","title":"申佳宾馆","lon":"121.55167","lat":"31.24921","category":"250","category_name":"公园户外","address":"浦东新区浦东大道2188号海防新村74号"},{"poiid":"B2094750DB64A4FB499A","title":"上海公立医院","lon":"121.547248","lat":"31.248956","category":"162","category_name":"医院","address":null},{"poiid":"B2094752D46AA1FC439B","title":"苗圃加油站","lon":"121.552999","lat":"31.249517","category":"153","category_name":"加油站","address":"上海市浦东新区苗圃路151号(栖山路口)"},{"poiid":"B2094757D06FA3FF4298","title":"上海兴荣温德姆至尊豪廷酒店","lon":"121.55508","lat":"31.25322","category":"213","category_name":"五星级宾馆","address":"浦东新区浦东大道2288号(万德路口)"},{"poiid":"B2094757D06FA2F54398","title":"杨浦大桥","lon":"121.545651781","lat":"31.2549775114","category":"260","category_name":"其他","address":"上海杨浦区宁国路-浦东新区罗山路"},{"poiid":"B2094655D26BA2F5479C","title":"浦东大道德平路","lon":"121.55705","lat":"31.25607","category":"38","category_name":"公交车站","address":""},{"poiid":"B2094757D06FA5F4479A","title":"一品粤珍(浦东大道店)","lon":"121.549017","lat":"31.247599","category":"72","category_name":"广东菜","address":"浦东新区浦东大道2000号2-3楼(崮山路口)"},{"poiid":"B2094757D06FA7FB439C","title":"新新潘晓婷桌球俱乐部","lon":"121.554184","lat":"31.253674","category":"171","category_name":"台球厅","address":"上海浦东大道2311号5楼"},{"poiid":"B2094757D06FA5F94299","title":"浦东大道歇浦路","lon":"121.550818","lat":"31.250203","category":"260","category_name":"其他","address":"上海浦东大道歇浦路"},{"poiid":"B2094757D06FA7FB429D","title":"崮山路","lon":"121.54972","lat":"31.247619","category":"260","category_name":"其他","address":"上海浦东新区 崮山路"},{"poiid":"B2094757D068A0FD419C","title":"德平路公交站(近浦东大道)","lon":"121.556913","lat":"31.254067","category":"38","category_name":"公交车站","address":"上海德平路浦东大道"},{"poiid":"B2094654D568A4F9409F","title":"仁和宾馆(浦东大道)","lon":"121.54971","lat":"31.24841","category":"215","category_name":"三星级宾馆","address":"上海市浦东新区浦东大道2056号"},{"poiid":"B2094654D568A4FB4198","title":"景缘国际酒店","lon":"121.55422","lat":"31.25439","category":"214","category_name":"四星级宾馆","address":"上海市浦东新区浦东大道2333号(近德平路)"},{"poiid":"B2094757D06FA0F8449F","title":"龙珠广场","lon":"121.557","lat":"31.2563","category":"46","category_name":"楼宇","address":"卫清西路139_149号等"},{"poiid":"B2094757D069A5FE4793","title":"豪享来上海崮山店","lon":"121.555","lat":"31.251","category":"247","category_name":"餐饮美食","address":"上海市浦东新区崮山路327号"},{"poiid":"B2094654DA69A3F4489C","title":"阳光世界","lon":"121.555","lat":"31.2539","category":"46","category_name":"楼宇","address":"虹口区海宁路,吴淞路口"},{"poiid":"B2094655D26FABFB449A","title":"海防新村","lon":"121.55309","lat":"31.248438","category":"47","category_name":"住宅区","address":"上海浦东海防新村"},{"poiid":"B2094757DB6DA5F94693","title":"如家快捷酒店（上海浦东大道罗山路杨浦大桥店）","lon":"121.550926566","lat":"31.25193282","category":"216","category_name":"经济型连锁酒店","address":"浦东新区浦东大道(近东方路)"},{"poiid":"B2094757D06AABFD489B","title":"莫泰168(杨浦大桥店)","lon":"121.55553","lat":"31.25391","category":"500","category_name":"未知分类","address":"上海市浦东大道2330号(近罗山路)"},{"poiid":"B2094655D36CA3FC4693","title":"上海通榕驾驶员培训学校","lon":"121.5508","lat":"31.2516","category":"192","category_name":"驾校","address":"浦东大道2175号"},{"poiid":"B2094757D664A3FE449D","title":"蜀华火锅 崮山路店","lon":"121.550912","lat":"31.24723","category":"86","category_name":"火锅店","address":"浦东新区崮山路95号(近浦东大道)"},{"poiid":"B2094654DA68ABFA4998","title":"星宇大楼","lon":"121.551","lat":"31.2526","category":"46","category_name":"楼宇","address":"浦东大道1695弄1幢1号"},{"poiid":"B2094757D069A4FD429E","title":"浦东新区中医医院(罗山分院)","lon":"121.557627451","lat":"31.2503135797","category":"162","category_name":"医院","address":"浦东新区万德路49号(近德平路菜场)"},{"poiid":"B2094757DB68A0FD429D","title":"黑马酒吧 Dark House Bar","lon":"121.5509948780889","lat":"31.25457606662349","category":"247","category_name":"餐饮美食","address":"浦东新区浦东大道2402号(近德平路)"},{"poiid":"B2094654DB6BABF4469D","title":"凌四小区","lon":"121.552","lat":"31.253","category":"47","category_name":"住宅区","address":"浦东大道1851弄1-66号"},{"poiid":"B2094757D069ABFE439B","title":"小绍兴(德平店)","lon":"121.55628","lat":"31.25447","category":"68","category_name":"快餐厅","address":"浦东新区德平路8号(近浦东大道)"},{"poiid":"B2094757D068A7FA419E","title":"凌高小区","lon":"121.55047305","lat":"31.246869671","category":"252","category_name":"楼宇机构","address":"上海栖山路401弄"},{"poiid":"B2094757D069A6F4409D","title":"鼎丰人家(德平店)","lon":"121.55825","lat":"31.25268","category":"76","category_name":"上海菜","address":"浦东新区德平路44号(栖山路口)"},{"poiid":"B2094655D26CA4FA489F","title":"杨浦大桥观光进口","lon":"121.55039","lat":"31.25168","category":"250","category_name":"公园户外","address":""},{"poiid":"B2094757D66FA0F8499E","title":"红房子医院","lon":"121.5439571","lat":"31.252780053","category":"162","category_name":"医院","address":"上海眉州路"},{"poiid":"B2094757D16CA2FC4998","title":"东方城市公寓","lon":"121.54860963","lat":"31.246827428","category":"252","category_name":"楼宇机构","address":"上海市浦东新区苗圃路60弄"},{"poiid":"B2094654D568A4FA499B","title":"海翔大楼","lon":"121.55194","lat":"31.25162","category":"46","category_name":"楼宇","address":"浦东大道2187-2标识"},{"poiid":"B2094655D36CA2FC4092","title":"丸ちゃんの焼肉","lon":"121.55397","lat":"31.25351","category":"87","category_name":"特色／地方风味餐厅","address":"浦东新区浦东大道988弄东晶国际(近源深路)"},{"poiid":"B2094757D065A7FF499B","title":"歇浦路轮渡站","lon":"121.54695015","lat":"31.252636375","category":"35","category_name":"长途汽车站","address":"上海歇浦路1号"},{"poiid":"B2094757D16CA2FE409D","title":"平凡的一天","lon":"121.551976","lat":"31.251604","category":"247","category_name":"餐饮美食","address":"上海一天"},{"poiid":"B2094655D26FA0FC4798","title":"宏殿大厦","lon":"121.55143","lat":"31.25095","category":"46","category_name":"楼宇","address":"浦东大道2175"},{"poiid":"B2094654D568A4F94099","title":"海皇一品","lon":"121.54971","lat":"31.24841","category":"72","category_name":"广东菜","address":"浦东新区浦东大道2056号仁和宾馆21楼(崮山路浦东大道)"},{"poiid":"B2094757D065A2FA449E","title":"鼎茶(乳山店)","lon":"121.5516931","lat":"31.25120502","category":"247","category_name":"餐饮美食","address":"上海市浦东新区乳山路209号"},{"poiid":"B2094655D265A3FD4992","title":"上安公馆","lon":"121.55305","lat":"31.25252","category":"47","category_name":"住宅区","address":"上安公馆位于浦东浦东大道2160号"},{"poiid":"B2094654D568A4F9409D","title":"上安大厦商务楼","lon":"121.55075","lat":"31.2494","category":"46","category_name":"楼宇","address":"浦东大道2188号"},{"poiid":"B2094655D26EAAFE4393","title":"格林豪泰酒店(浦东大道店)","lon":"121.55316","lat":"31.25289","category":"216","category_name":"经济型连锁酒店","address":"浦东新区浦东大道2255号"},{"poiid":"B2094654DB65A3FC4599","title":"上海市邦德高级中学","lon":"121.5531","lat":"31.25277","category":"55","category_name":"中学","address":"浦东大道2311号"},{"poiid":"B2094750D76FA0FD459A","title":"咱家东北菜","lon":"121.551","lat":"31.2474","category":"82","category_name":"东北菜","address":"浦东新区崮山路71号(近栖山路)"},{"poiid":"B2094654DA68ABF4429F","title":"申城公寓","lon":"121.549412","lat":"31.250585","category":"46","category_name":"楼宇","address":"巨野路22号"},{"poiid":"B2094654D568A4FA469F","title":"龙珠公寓","lon":"121.5498","lat":"31.250195","category":"47","category_name":"住宅区","address":"龙珠公寓位于浦东浦东歇浦路288号"},{"poiid":"B2094655D26CA7F9449A","title":"好德便利No.059","lon":"121.55081","lat":"31.25036","category":"117","category_name":"便民商店/便利店","address":"浦东大道2145号"},{"poiid":"B2094655D26AA0FF449C","title":"新新潘晓婷撞球俱乐部(新里程店)","lon":"121.55422","lat":"31.25439","category":"247","category_name":"餐饮美食","address":"浦东新区浦东大道2333号2-4楼(近德平路)"},{"poiid":"B2094757D06AA5FC439E","title":"吉祥馄饨 德平路店 Gll Wonton","lon":"121.557189","lat":"31.256476","category":"68","category_name":"快餐厅","address":"浦东新区浦东大道2373号(近德平路)"},{"poiid":"B2094654DB6BA1F8449F","title":"可的浦东大道店","lon":"121.55076","lat":"31.25029","category":"117","category_name":"便民商店/便利店","address":"浦东大道2141"},{"poiid":"B2094655D264A1F5449F","title":"可的超市(海运店)","lon":"121.55359","lat":"31.2531","category":"117","category_name":"便民商店/便利店","address":"浦东大道1472号"},{"poiid":"B2094654D568A4FA449C","title":"申佳宾馆","lon":"121.55167","lat":"31.24921","category":"250","category_name":"公园户外","address":"浦东新区浦东大道2188号海防新村74号"},{"poiid":"B2094750DB64A4FB499A","title":"上海公立医院","lon":"121.547248","lat":"31.248956","category":"162","category_name":"医院","address":null},{"poiid":"B2094752D46AA1FC439B","title":"苗圃加油站","lon":"121.552999","lat":"31.249517","category":"153","category_name":"加油站","address":"上海市浦东新区苗圃路151号(栖山路口)"}]