[{"poiid":"B2094654DA69A3FE4799","title":"上海科技馆","lon":"121.54144","lat":"31.21851","category":"186","category_name":"科技馆","address":"浦东新区世纪大道2000号"},{"poiid":"B2094654DA69A3FE4792","title":"上海东方艺术中心(Shanghai Oriental Art Center)","lon":"121.54141","lat":"31.22273","category":"180","category_name":"剧场","address":"上海浦东新区丁香路425号(近世纪大道)"},{"poiid":"B2094654DA69A3FF4898","title":"上海市公安局出入境管理局","lon":"121.54994","lat":"31.22182","category":"252","category_name":"楼宇机构","address":"浦东新区民生路1500"},{"poiid":"B2094655D26BA2F5439C","title":"浦东市民中心","lon":"121.54692","lat":"31.22326","category":"38","category_name":"公交车站","address":"合欢路2号"},{"poiid":"B2094654DA69A3FF4899","title":"上海浦东展览馆","lon":"121.54872","lat":"31.22144","category":"183","category_name":"展览馆","address":"浦东新区合欢路201号(迎春路口)"},{"poiid":"B2094654DA69A2F54798","title":"世纪皇冠假日酒店","lon":"121.55118","lat":"31.22346","category":"213","category_name":"五星级宾馆","address":"浦东新区民生路1433号(近迎春路)"},{"poiid":"B2094757D06EAAFA449A","title":"上海科技馆地铁站","lon":"121.54296","lat":"31.219458","category":"36","category_name":"地铁站","address":"上海轨道交通 二号线 轨交上海科技馆站 2"},{"poiid":"B2094757D06FA2FA429A","title":"上海东方艺术中心Shanghai Oriental Art Center","lon":"121.54141842189642","lat":"31.22291030374493","category":"179","category_name":"音乐厅","address":"上海浦东新区丁香路425号"},{"poiid":"B2094757D06AA3F84792","title":"浦东新区民政局","lon":"121.546454","lat":"31.224071","category":"500","category_name":"未知分类","address":"上海合欢路2号"},{"poiid":"B2094757D06FA6F54999","title":"东怡大酒店","lon":"121.54299542","lat":"31.22411864","category":"217","category_name":"旅馆招待所","address":"浦东新区丁香路555号(东方艺术中心旁)"},{"poiid":"B2094655D26BA2F54398","title":"浦东新区办公中心","lon":"121.54511","lat":"31.22245","category":"38","category_name":"公交车站","address":""},{"poiid":"B2094757D06FA0F44798","title":"上海浦东出入境检验检疫局","lon":"121.54857635","lat":"31.225637435","category":"500","category_name":"未知分类","address":"上海民生路1208号"},{"poiid":"B2094654DA69A3FE489F","title":"浦东新区人民法院","lon":"121.54447","lat":"31.22483","category":"608","category_name":"法院","address":"上海市浦东新区丁香路611号"},{"poiid":"B2094757D068A0F44198","title":"上海东方艺术中心-演奏厅(Shanghai Oriental Art Center - Performance Hall)","lon":"121.541374736","lat":"31.2227814309","category":"260","category_name":"其他","address":"上海浦东新区丁香路425号"},{"poiid":"B2094757D068A1F54693","title":"浦东新区青少年活动中心","lon":"121.54725","lat":"31.22036","category":"249","category_name":"购物服务","address":"上海浦东新区迎春路318号  "},{"poiid":"B2094654DB6BABF5459D","title":"世纪公园(二号门)","lon":"121.55191","lat":"31.21911","category":"680","category_name":"楼宇机构","address":"锦绣路901号"},{"poiid":"B2094757D06FAAFD499A","title":"中国银联","lon":"121.5502","lat":"31.22055","category":"46","category_name":"楼宇","address":"浦东新区含笑路36号银联大厦(含笑路民生路)"},{"poiid":"B2094757D465ABFD4299","title":"慕尼黑皇家啤酒屋 Hofbraeu","lon":"121.54320301081","lat":"31.215851278023","category":"247","category_name":"餐饮美食","address":"浦东新区锦延路309号(近锦绣路)"},{"poiid":"B2094757D069A3FE479C","title":"宝燕壹号","lon":"121.550677","lat":"31.224298","category":"75","category_name":"浙江菜","address":"浦东新区民生路1399号太平人寿大厦1-2楼(近丁香路)"},{"poiid":"B2094757D068A3FD439B","title":"上海人家精作坊(汇商店)","lon":"121.54943","lat":"31.22415","category":"76","category_name":"上海菜","address":"浦东新区民生路1286号汇商大厦3-4楼(丁香路口)"},{"poiid":"B2094757D068A1FD409D","title":"和记小菜精菜坊","lon":"121.55141","lat":"31.22311","category":"76","category_name":"上海菜","address":"浦东新区民生路1433号世纪皇冠酒店3楼(近迎春路)"},{"poiid":"B2094757D068A0F4479C","title":"上海移动浦东大楼","lon":"121.549956738","lat":"31.2248151847","category":"500","category_name":"未知分类","address":"上海迎春路670号"},{"poiid":"B2094757D16DABF8489C","title":"浦东新区政府大楼一号楼","lon":"121.544685364","lat":"31.2216567993","category":"500","category_name":"未知分类","address":"上海锦带路22号"},{"poiid":"B2094757D16CA6FE409B","title":"世纪皇冠假日酒店咖啡园","lon":"121.551","lat":"31.22299","category":"268","category_name":"自助","address":"浦东新区民生路1433号上海世纪皇冠假日酒店1楼大堂(迎春路口)"},{"poiid":"B2094757D068ABF54998","title":"肯德基KFC(科技馆店)","lon":"121.542076333","lat":"31.2193652614","category":"68","category_name":"快餐厅","address":"浦东新区世纪大道2002号亚太盛汇广场B1楼(近二号线上海科技馆站)"},{"poiid":"B2094757D069A2FD449C","title":"张家浜创意街","lon":"121.54472","lat":"31.21655","category":"116","category_name":"特色商业街","address":"上海浦东新区锦延路(近锦绣路)"},{"poiid":"B2094757D068A4F4489B","title":"上海移动民生大楼","lon":"121.55168467","lat":"31.2229133452","category":"46","category_name":"楼宇","address":"上海迎春路670号"},{"poiid":"B2094655D26EA2FF4192","title":"法国餐馆巴黎上海","lon":"121.54141","lat":"31.22273","category":"97","category_name":"法式菜品餐厅","address":"浦东新区丁香路425号上海东方艺术中心B1楼(近世纪大道)"},{"poiid":"B2094757D06AA1FE4093","title":"Daisy's kitchen","lon":"121.54391","lat":"31.21765","category":"94","category_name":"西餐厅","address":"浦东新区世纪大道2002号亚太盛汇南广场J-06号(近地铁二号线上海科技馆站)"},{"poiid":"B2094757D16CAAFB419C","title":"上海银监局","lon":"121.54826773","lat":"31.224110169","category":"500","category_name":"未知分类","address":"上海合欢路35号"},{"poiid":"B2094757D069A7F8409B","title":"浦东新区公安分局","lon":"121.54691967","lat":"31.224898359","category":"500","category_name":"未知分类","address":"上海浦东新区丁香路655号"},{"poiid":"B2094655D26DAAFA4993","title":"上海亚太盛汇休闲购物广场","lon":"121.54371","lat":"31.21829","category":"119","category_name":"商场","address":"亚太盛汇位于浦东浦东新区世纪大道2002号(杨高路地铁站)"},{"poiid":"B2094757D66CA7FA409F","title":"中国证监会上海证监局","lon":"121.54776273","lat":"31.22228513","category":"500","category_name":"未知分类","address":"上海市浦东新区迎春路555号"},{"poiid":"B2094757D069A5FF4398","title":"出入境管理局咖啡厅","lon":"121.549943794","lat":"31.2217617086","category":"260","category_name":"其他","address":"浦东新区民生路1500号上海出入境管理局1楼(含笑路民生路)"},{"poiid":"B2094655D26EA5F44598","title":"次郎日式快餐 科技馆店","lon":"121.540979054","lat":"31.220935793","category":"68","category_name":"快餐厅","address":"浦东新区世纪大道2002号亚太盛汇广场B区07室(近二号线上海科技馆站)"},{"poiid":"B2094654DA69A2F44893","title":"太平人寿大厦","lon":"121.55068","lat":"31.22429","category":"46","category_name":"楼宇","address":"闸北区江场西路395号"},{"poiid":"B2094757D06EAAF8469A","title":"上海东方体育中心","lon":"121.544721","lat":"31.221959","category":"220","category_name":"运动场所","address":"上海浦东新区耀体路701号"},{"poiid":"B2094751D36CA5FD479C","title":"四季亭(民生路店)","lon":"121.55096","lat":"31.22329","category":"95","category_name":"日本料理","address":"浦东新区民生路1433号世纪皇冠假日酒店2楼(近迎春路路口)"},{"poiid":"B2094655D36CA7F94799","title":"合欢路含笑路","lon":"121.54809","lat":"31.22015","category":"38","category_name":"公交车站","address":""},{"poiid":"B2094654DB6AA7FB439A","title":"浦东新区行政办公中心食堂","lon":"121.541247554","lat":"31.221065493","category":"247","category_name":"餐饮美食","address":"世纪大道2001号近锦带路"},{"poiid":"B2094655D264ABFC4193","title":"土控大楼","lon":"121.54897","lat":"31.22009","category":"46","category_name":"楼宇","address":"朝阳华威桥东北角"},{"poiid":"B2094654DA69A3FE479B","title":"世纪广场(世纪大道)","lon":"121.54129","lat":"31.22065","category":"201","category_name":"城市广场","address":"从东方明珠至浦东世纪公园全长约55公里"},{"poiid":"B2094757D065A5F5479D","title":"浦东新区","lon":"121.544723139","lat":"31.2219468141","category":"250","category_name":"公园户外","address":"上海浦东新区区域"},{"poiid":"B2094655D26DA5F5449B","title":"金鹰大厦A栋","lon":"121.55009","lat":"31.21998","category":"46","category_name":"楼宇","address":"民生路1518"},{"poiid":"B2094654DB65A7FC409E","title":"全家便利店(科技馆店)","lon":"121.54596","lat":"31.21885","category":"117","category_name":"便民商店/便利店","address":"浦东新区锦绣路(地铁2号线科技馆站3号出口)"},{"poiid":"B2094757D165AAF44893","title":"成山路820号","lon":"121.546246","lat":"31.220835","category":"500","category_name":"未知分类","address":"上海浦东新区办公中心"},{"poiid":"B2094757D169A0FD4093","title":"Latina","lon":"121.542421568","lat":"31.2196233141","category":"500","category_name":"未知分类","address":"上海科技馆"},{"poiid":"B2094655D268ABFD469A","title":"上海海事法院","lon":"121.5491","lat":"31.223","category":"608","category_name":"法院","address":"迎春路567号"},{"poiid":"B2094757D06BA1F4499C","title":"芳华路","lon":"121.54811859","lat":"31.221250534","category":"500","category_name":"未知分类","address":"上海浦东新区"},{"poiid":"B2094750D364ABFA489A","title":"上海新国际会展中心","lon":"121.550224","lat":"31.223012","category":"500","category_name":"未知分类","address":"浦东"},{"poiid":"B2094654DA69A3FE4799","title":"上海科技馆","lon":"121.54144","lat":"31.21851","category":"186","category_name":"科技馆","address":"浦东新区世纪大道2000号"},{"poiid":"B2094654DA69A3FE4792","title":"上海东方艺术中心(Shanghai Oriental Art Center)","lon":"121.54141","lat":"31.22273","category":"180","category_name":"剧场","address":"上海浦东新区丁香路425号(近世纪大道)"},{"poiid":"B2094654DA69A3FF4898","title":"上海市公安局出入境管理局","lon":"121.54994","lat":"31.22182","category":"252","category_name":"楼宇机构","address":"浦东新区民生路1500"},{"poiid":"B2094655D26BA2F5439C","title":"浦东市民中心","lon":"121.54692","lat":"31.22326","category":"38","category_name":"公交车站","address":"合欢路2号"},{"poiid":"B2094654DA69A3FF4899","title":"上海浦东展览馆","lon":"121.54872","lat":"31.22144","category":"183","category_name":"展览馆","address":"浦东新区合欢路201号(迎春路口)"},{"poiid":"B2094654DA69A2F54798","title":"世纪皇冠假日酒店","lon":"121.55118","lat":"31.22346","category":"213","category_name":"五星级宾馆","address":"浦东新区民生路1433号(近迎春路)"},{"poiid":"B2094757D06EAAFA449A","title":"上海科技馆地铁站","lon":"121.54296","lat":"31.219458","category":"36","category_name":"地铁站","address":"上海轨道交通 二号线 轨交上海科技馆站 2"},{"poiid":"B2094757D06FA2FA429A","title":"上海东方艺术中心Shanghai Oriental Art Center","lon":"121.54141842189642","lat":"31.22291030374493","category":"179","category_name":"音乐厅","address":"上海浦东新区丁香路425号"},{"poiid":"B2094757D06AA3F84792","title":"浦东新区民政局","lon":"121.546454","lat":"31.224071","category":"500","category_name":"未知分类","address":"上海合欢路2号"},{"poiid":"B2094757D06FA6F54999","title":"东怡大酒店","lon":"121.54299542","lat":"31.22411864","category":"217","category_name":"旅馆招待所","address":"浦东新区丁香路555号(东方艺术中心旁)"},{"poiid":"B2094655D26BA2F54398","title":"浦东新区办公中心","lon":"121.54511","lat":"31.22245","category":"38","category_name":"公交车站","address":""},{"poiid":"B2094757D06FA0F44798","title":"上海浦东出入境检验检疫局","lon":"121.54857635","lat":"31.225637435","category":"500","category_name":"未知分类","address":"上海民生路1208号"},{"poiid":"B2094654DA69A3FE489F","title":"浦东新区人民法院","lon":"121.54447","lat":"31.22483","category":"608","category_name":"法院","address":"上海市浦东新区丁香路611号"},{"poiid":"B2094757D068A0F44198","title":"上海东方艺术中心-演奏厅(Shanghai Oriental Art Center - Performance Hall)","lon":"121.541374736","lat":"31.2227814309","category":"260","category_name":"其他","address":"上海浦东新区丁香路425号"},{"poiid":"B2094757D068A1F54693","title":"浦东新区青少年活动中心","lon":"121.54725","lat":"31.22036","category":"249","category_name":"购物服务","address":"上海浦东新区迎春路318号  "},{"poiid":"B2094654DB6BABF5459D","title":"世纪公园(二号门)","lon":"121.55191","lat":"31.21911","category":"680","category_name":"楼宇机构","address":"锦绣路901号"},{"poiid":"B2094757D06FAAFD499A","title":"中国银联","lon":"121.5502","lat":"31.22055","category":"46","category_name":"楼宇","address":"浦东新区含笑路36号银联大厦(含笑路民生路)"},{"poiid":"B2094757D465ABFD4299","title":"慕尼黑皇家啤酒屋 Hofbraeu","lon":"121.54320301081","lat":"31.215851278023","category":"247","category_name":"餐饮美食","address":"浦东新区锦延路309号(近锦绣路)"},{"poiid":"B2094757D069A3FE479C","title":"宝燕壹号","lon":"121.550677","lat":"31.224298","category":"75","category_name":"浙江菜","address":"浦东新区民生路1399号太平人寿大厦1-2楼(近丁香路)"},{"poiid":"B2094757D068A3FD439B","title":"上海人家精作坊(汇商店)","lon":"121.54943","lat":"31.22415","category":"76","category_name":"上海菜","address":"浦东新区民生路1286号汇商大厦3-4楼(丁香路口)"},{"poiid":"B2094757D068A1FD409D","title":"和记小菜精菜坊","lon":"121.55141","lat":"31.22311","category":"76","category_name":"上海菜","address":"浦东新区民生路1433号世纪皇冠酒店3楼(近迎春路)"},{"poiid":"B2094757D068A0F4479C","title":"上海移动浦东大楼","lon":"121.549956738","lat":"31.2248151847","category":"500","category_name":"未知分类","address":"上海迎春路670号"},{"poiid":"B2094757D16DABF8489C","title":"浦东新区政府大楼一号楼","lon":"121.544685364","lat":"31.2216567993","category":"500","category_name":"未知分类","address":"上海锦带路22号"},{"poiid":"B2094757D16CA6FE409B","title":"世纪皇冠假日酒店咖啡园","lon":"121.551","lat":"31.22299","category":"268","category_name":"自助","address":"浦东新区民生路1433号上海世纪皇冠假日酒店1楼大堂(迎春路口)"},{"poiid":"B2094757D068ABF54998","title":"肯德基KFC(科技馆店)","lon":"121.542076333","lat":"31.2193652614","category":"68","category_name":"快餐厅","address":"浦东新区世纪大道2002号亚太盛汇广场B1楼(近二号线上海科技馆站)"},{"poiid":"B2094757D069A2FD449C","title":"张家浜创意街","lon":"121.54472","lat":"31.21655","category":"116","category_name":"特色商业街","address":"上海浦东新区锦延路(近锦绣路)"},{"poiid":"B2094757D068A4F4489B","title":"上海移动民生大楼","lon":"121.55168467","lat":"31.2229133452","category":"46","category_name":"楼宇","address":"上海迎春路670号"},{"poiid":"B2094655D26EA2FF4192","title":"法国餐馆巴黎上海","lon":"121.54141","lat":"31.22273","category":"97","category_name":"法式菜品餐厅","address":"浦东新区丁香路425号上海东方艺术中心B1楼(近世纪大道)"},{"poiid":"B2094757D06AA1FE4093","title":"Daisy's kitchen","lon":"121.54391","lat":"31.21765","category":"94","category_name":"西餐厅","address":"浦东新区世纪大道2002号亚太盛汇南广场J-06号(近地铁二号线上海科技馆站)"},{"poiid":"B2094757D16CAAFB419C","title":"上海银监局","lon":"121.54826773","lat":"31.224110169","category":"500","category_name":"未知分类","address":"上海合欢路35号"},{"poiid":"B2094757D069A7F8409B","title":"浦东新区公安分局","lon":"121.54691967","lat":"31.224898359","category":"500","category_name":"未知分类","address":"上海浦东新区丁香路655号"},{"poiid":"B2094655D26DAAFA4993","title":"上海亚太盛汇休闲购物广场","lon":"121.54371","lat":"31.21829","category":"119","category_name":"商场","address":"亚太盛汇位于浦东浦东新区世纪大道2002号(杨高路地铁站)"},{"poiid":"B2094757D66CA7FA409F","title":"中国证监会上海证监局","lon":"121.54776273","lat":"31.22228513","category":"500","category_name":"未知分类","address":"上海市浦东新区迎春路555号"},{"poiid":"B2094757D069A5FF4398","title":"出入境管理局咖啡厅","lon":"121.549943794","lat":"31.2217617086","category":"260","category_name":"其他","address":"浦东新区民生路1500号上海出入境管理局1楼(含笑路民生路)"},{"poiid":"B2094655D26EA5F44598","title":"次郎日式快餐 科技馆店","lon":"121.540979054","lat":"31.220935793","category":"68","category_name":"快餐厅","address":"浦东新区世纪大道2002号亚太盛汇广场B区07室(近二号线上海科技馆站)"},{"poiid":"B2094654DA69A2F44893","title":"太平人寿大厦","lon":"121.55068","lat":"31.22429","category":"46","category_name":"楼宇","address":"闸北区江场西路395号"},{"poiid":"B2094757D06EAAF8469A","title":"上海东方体育中心","lon":"121.544721","lat":"31.221959","category":"220","category_name":"运动场所","address":"上海浦东新区耀体路701号"},{"poiid":"B2094751D36CA5FD479C","title":"四季亭(民生路店)","lon":"121.55096","lat":"31.22329","category":"95","category_name":"日本料理","address":"浦东新区民生路1433号世纪皇冠假日酒店2楼(近迎春路路口)"},{"poiid":"B2094655D36CA7F94799","title":"合欢路含笑路","lon":"121.54809","lat":"31.22015","category":"38","category_name":"公交车站","address":""},{"poiid":"B2094654DB6AA7FB439A","title":"浦东新区行政办公中心食堂","lon":"121.541247554","lat":"31.221065493","category":"247","category_name":"餐饮美食","address":"世纪大道2001号近锦带路"},{"poiid":"B2094655D264ABFC4193","title":"土控大楼","lon":"121.54897","lat":"31.22009","category":"46","category_name":"楼宇","address":"朝阳华威桥东北角"},{"poiid":"B2094654DA69A3FE479B","title":"世纪广场(世纪大道)","lon":"121.54129","lat":"31.22065","category":"201","category_name":"城市广场","address":"从东方明珠至浦东世纪公园全长约55公里"},{"poiid":"B2094757D065A5F5479D","title":"浦东新区","lon":"121.544723139","lat":"31.2219468141","category":"250","category_name":"公园户外","address":"上海浦东新区区域"},{"poiid":"B2094655D26DA5F5449B","title":"金鹰大厦A栋","lon":"121.55009","lat":"31.21998","category":"46","category_name":"楼宇","address":"民生路1518"},{"poiid":"B2094654DB65A7FC409E","title":"全家便利店(科技馆店)","lon":"121.54596","lat":"31.21885","category":"117","category_name":"便民商店/便利店","address":"浦东新区锦绣路(地铁2号线科技馆站3号出口)"},{"poiid":"B2094757D165AAF44893","title":"成山路820号","lon":"121.546246","lat":"31.220835","category":"500","category_name":"未知分类","address":"上海浦东新区办公中心"},{"poiid":"B2094757D169A0FD4093","title":"Latina","lon":"121.542421568","lat":"31.2196233141","category":"500","category_name":"未知分类","address":"上海科技馆"},{"poiid":"B2094655D268ABFD469A","title":"上海海事法院","lon":"121.5491","lat":"31.223","category":"608","category_name":"法院","address":"迎春路567号"},{"poiid":"B2094757D06BA1F4499C","title":"芳华路","lon":"121.54811859","lat":"31.221250534","category":"500","category_name":"未知分类","address":"上海浦东新区"},{"poiid":"B2094750D364ABFA489A","title":"上海新国际会展中心","lon":"121.550224","lat":"31.223012","category":"500","category_name":"未知分类","address":"浦东"},{"poiid":"B2094654DA69A3FE4799","title":"上海科技馆","lon":"121.54144","lat":"31.21851","category":"186","category_name":"科技馆","address":"浦东新区世纪大道2000号"},{"poiid":"B2094654DA69A3FE4792","title":"上海东方艺术中心(Shanghai Oriental Art Center)","lon":"121.54141","lat":"31.22273","category":"180","category_name":"剧场","address":"上海浦东新区丁香路425号(近世纪大道)"},{"poiid":"B2094654DA69A3FF4898","title":"上海市公安局出入境管理局","lon":"121.54994","lat":"31.22182","category":"252","category_name":"楼宇机构","address":"浦东新区民生路1500"},{"poiid":"B2094655D26BA2F5439C","title":"浦东市民中心","lon":"121.54692","lat":"31.22326","category":"38","category_name":"公交车站","address":"合欢路2号"},{"poiid":"B2094654DA69A3FF4899","title":"上海浦东展览馆","lon":"121.54872","lat":"31.22144","category":"183","category_name":"展览馆","address":"浦东新区合欢路201号(迎春路口)"},{"poiid":"B2094654DA69A2F54798","title":"世纪皇冠假日酒店","lon":"121.55118","lat":"31.22346","category":"213","category_name":"五星级宾馆","address":"浦东新区民生路1433号(近迎春路)"},{"poiid":"B2094757D06EAAFA449A","title":"上海科技馆地铁站","lon":"121.54296","lat":"31.219458","category":"36","category_name":"地铁站","address":"上海轨道交通 二号线 轨交上海科技馆站 2"},{"poiid":"B2094757D06FA2FA429A","title":"上海东方艺术中心Shanghai Oriental Art Center","lon":"121.54141842189642","lat":"31.22291030374493","category":"179","category_name":"音乐厅","address":"上海浦东新区丁香路425号"},{"poiid":"B2094757D06AA3F84792","title":"浦东新区民政局","lon":"121.546454","lat":"31.224071","category":"500","category_name":"未知分类","address":"上海合欢路2号"},{"poiid":"B2094757D06FA6F54999","title":"东怡大酒店","lon":"121.54299542","lat":"31.22411864","category":"217","category_name":"旅馆招待所","address":"浦东新区丁香路555号(东方艺术中心旁)"},{"poiid":"B2094655D26BA2F54398","title":"浦东新区办公中心","lon":"121.54511","lat":"31.22245","category":"38","category_name":"公交车站","address":""},{"poiid":"B2094757D06FA0F44798","title":"上海浦东出入境检验检疫局","lon":"121.54857635","lat":"31.225637435","category":"500","category_name":"未知分类","address":"上海民生路1208号"},{"poiid":"B2094654DA69A3FE489F","title":"浦东新区人民法院","lon":"121.54447","lat":"31.22483","category":"608","category_name":"法院","address":"上海市浦东新区丁香路611号"},{"poiid":"B2094757D068A0F44198","title":"上海东方艺术中心-演奏厅(Shanghai Oriental Art Center - Performance Hall)","lon":"121.541374736","lat":"31.2227814309","category":"260","category_name":"其他","address":"上海浦东新区丁香路425号"},{"poiid":"B2094757D068A1F54693","title":"浦东新区青少年活动中心","lon":"121.54725","lat":"31.22036","category":"249","category_name":"购物服务","address":"上海浦东新区迎春路318号  "},{"poiid":"B2094654DB6BABF5459D","title":"世纪公园(二号门)","lon":"121.55191","lat":"31.21911","category":"680","category_name":"楼宇机构","address":"锦绣路901号"},{"poiid":"B2094757D06FAAFD499A","title":"中国银联","lon":"121.5502","lat":"31.22055","category":"46","category_name":"楼宇","address":"浦东新区含笑路36号银联大厦(含笑路民生路)"},{"poiid":"B2094757D465ABFD4299","title":"慕尼黑皇家啤酒屋 Hofbraeu","lon":"121.54320301081","lat":"31.215851278023","category":"247","category_name":"餐饮美食","address":"浦东新区锦延路309号(近锦绣路)"},{"poiid":"B2094757D069A3FE479C","title":"宝燕壹号","lon":"121.550677","lat":"31.224298","category":"75","category_name":"浙江菜","address":"浦东新区民生路1399号太平人寿大厦1-2楼(近丁香路)"},{"poiid":"B2094757D068A3FD439B","title":"上海人家精作坊(汇商店)","lon":"121.54943","lat":"31.22415","category":"76","category_name":"上海菜","address":"浦东新区民生路1286号汇商大厦3-4楼(丁香路口)"},{"poiid":"B2094757D068A1FD409D","title":"和记小菜精菜坊","lon":"121.55141","lat":"31.22311","category":"76","category_name":"上海菜","address":"浦东新区民生路1433号世纪皇冠酒店3楼(近迎春路)"},{"poiid":"B2094757D068A0F4479C","title":"上海移动浦东大楼","lon":"121.549956738","lat":"31.2248151847","category":"500","category_name":"未知分类","address":"上海迎春路670号"},{"poiid":"B2094757D16DABF8489C","title":"浦东新区政府大楼一号楼","lon":"121.544685364","lat":"31.2216567993","category":"500","category_name":"未知分类","address":"上海锦带路22号"},{"poiid":"B2094757D16CA6FE409B","title":"世纪皇冠假日酒店咖啡园","lon":"121.551","lat":"31.22299","category":"268","category_name":"自助","address":"浦东新区民生路1433号上海世纪皇冠假日酒店1楼大堂(迎春路口)"},{"poiid":"B2094757D068ABF54998","title":"肯德基KFC(科技馆店)","lon":"121.542076333","lat":"31.2193652614","category":"68","category_name":"快餐厅","address":"浦东新区世纪大道2002号亚太盛汇广场B1楼(近二号线上海科技馆站)"},{"poiid":"B2094757D069A2FD449C","title":"张家浜创意街","lon":"121.54472","lat":"31.21655","category":"116","category_name":"特色商业街","address":"上海浦东新区锦延路(近锦绣路)"},{"poiid":"B2094757D068A4F4489B","title":"上海移动民生大楼","lon":"121.55168467","lat":"31.2229133452","category":"46","category_name":"楼宇","address":"上海迎春路670号"},{"poiid":"B2094655D26EA2FF4192","title":"法国餐馆巴黎上海","lon":"121.54141","lat":"31.22273","category":"97","category_name":"法式菜品餐厅","address":"浦东新区丁香路425号上海东方艺术中心B1楼(近世纪大道)"},{"poiid":"B2094757D06AA1FE4093","title":"Daisy's kitchen","lon":"121.54391","lat":"31.21765","category":"94","category_name":"西餐厅","address":"浦东新区世纪大道2002号亚太盛汇南广场J-06号(近地铁二号线上海科技馆站)"},{"poiid":"B2094757D16CAAFB419C","title":"上海银监局","lon":"121.54826773","lat":"31.224110169","category":"500","category_name":"未知分类","address":"上海合欢路35号"},{"poiid":"B2094757D069A7F8409B","title":"浦东新区公安分局","lon":"121.54691967","lat":"31.224898359","category":"500","category_name":"未知分类","address":"上海浦东新区丁香路655号"},{"poiid":"B2094655D26DAAFA4993","title":"上海亚太盛汇休闲购物广场","lon":"121.54371","lat":"31.21829","category":"119","category_name":"商场","address":"亚太盛汇位于浦东浦东新区世纪大道2002号(杨高路地铁站)"},{"poiid":"B2094757D66CA7FA409F","title":"中国证监会上海证监局","lon":"121.54776273","lat":"31.22228513","category":"500","category_name":"未知分类","address":"上海市浦东新区迎春路555号"},{"poiid":"B2094757D069A5FF4398","title":"出入境管理局咖啡厅","lon":"121.549943794","lat":"31.2217617086","category":"260","category_name":"其他","address":"浦东新区民生路1500号上海出入境管理局1楼(含笑路民生路)"},{"poiid":"B2094655D26EA5F44598","title":"次郎日式快餐 科技馆店","lon":"121.540979054","lat":"31.220935793","category":"68","category_name":"快餐厅","address":"浦东新区世纪大道2002号亚太盛汇广场B区07室(近二号线上海科技馆站)"},{"poiid":"B2094654DA69A2F44893","title":"太平人寿大厦","lon":"121.55068","lat":"31.22429","category":"46","category_name":"楼宇","address":"闸北区江场西路395号"},{"poiid":"B2094757D06EAAF8469A","title":"上海东方体育中心","lon":"121.544721","lat":"31.221959","category":"220","category_name":"运动场所","address":"上海浦东新区耀体路701号"},{"poiid":"B2094751D36CA5FD479C","title":"四季亭(民生路店)","lon":"121.55096","lat":"31.22329","category":"95","category_name":"日本料理","address":"浦东新区民生路1433号世纪皇冠假日酒店2楼(近迎春路路口)"},{"poiid":"B2094655D36CA7F94799","title":"合欢路含笑路","lon":"121.54809","lat":"31.22015","category":"38","category_name":"公交车站","address":""},{"poiid":"B2094654DB6AA7FB439A","title":"浦东新区行政办公中心食堂","lon":"121.541247554","lat":"31.221065493","category":"247","category_name":"餐饮美食","address":"世纪大道2001号近锦带路"},{"poiid":"B2094655D264ABFC4193","title":"土控大楼","lon":"121.54897","lat":"31.22009","category":"46","category_name":"楼宇","address":"朝阳华威桥东北角"},{"poiid":"B2094654DA69A3FE479B","title":"世纪广场(世纪大道)","lon":"121.54129","lat":"31.22065","category":"201","category_name":"城市广场","address":"从东方明珠至浦东世纪公园全长约55公里"},{"poiid":"B2094757D065A5F5479D","title":"浦东新区","lon":"121.544723139","lat":"31.2219468141","category":"250","category_name":"公园户外","address":"上海浦东新区区域"},{"poiid":"B2094655D26DA5F5449B","title":"金鹰大厦A栋","lon":"121.55009","lat":"31.21998","category":"46","category_name":"楼宇","address":"民生路1518"},{"poiid":"B2094654DB65A7FC409E","title":"全家便利店(科技馆店)","lon":"121.54596","lat":"31.21885","category":"117","category_name":"便民商店/便利店","address":"浦东新区锦绣路(地铁2号线科技馆站3号出口)"},{"poiid":"B2094757D165AAF44893","title":"成山路820号","lon":"121.546246","lat":"31.220835","category":"500","category_name":"未知分类","address":"上海浦东新区办公中心"},{"poiid":"B2094757D169A0FD4093","title":"Latina","lon":"121.542421568","lat":"31.2196233141","category":"500","category_name":"未知分类","address":"上海科技馆"},{"poiid":"B2094655D268ABFD469A","title":"上海海事法院","lon":"121.5491","lat":"31.223","category":"608","category_name":"法院","address":"迎春路567号"},{"poiid":"B2094757D06BA1F4499C","title":"芳华路","lon":"121.54811859","lat":"31.221250534","category":"500","category_name":"未知分类","address":"上海浦东新区"},{"poiid":"B2094750D364ABFA489A","title":"上海新国际会展中心","lon":"121.550224","lat":"31.223012","category":"500","category_name":"未知分类","address":"浦东"},{"poiid":"B2094654DA69A3FE4799","title":"上海科技馆","lon":"121.54144","lat":"31.21851","category":"186","category_name":"科技馆","address":"浦东新区世纪大道2000号"},{"poiid":"B2094654DA69A3FE4792","title":"上海东方艺术中心(Shanghai Oriental Art Center)","lon":"121.54141","lat":"31.22273","category":"180","category_name":"剧场","address":"上海浦东新区丁香路425号(近世纪大道)"},{"poiid":"B2094654DA69A3FF4898","title":"上海市公安局出入境管理局","lon":"121.54994","lat":"31.22182","category":"252","category_name":"楼宇机构","address":"浦东新区民生路1500"},{"poiid":"B2094655D26BA2F5439C","title":"浦东市民中心","lon":"121.54692","lat":"31.22326","category":"38","category_name":"公交车站","address":"合欢路2号"},{"poiid":"B2094654DA69A3FF4899","title":"上海浦东展览馆","lon":"121.54872","lat":"31.22144","category":"183","category_name":"展览馆","address":"浦东新区合欢路201号(迎春路口)"},{"poiid":"B2094654DA69A2F54798","title":"世纪皇冠假日酒店","lon":"121.55118","lat":"31.22346","category":"213","category_name":"五星级宾馆","address":"浦东新区民生路1433号(近迎春路)"},{"poiid":"B2094757D06EAAFA449A","title":"上海科技馆地铁站","lon":"121.54296","lat":"31.219458","category":"36","category_name":"地铁站","address":"上海轨道交通 二号线 轨交上海科技馆站 2"},{"poiid":"B2094757D06FA2FA429A","title":"上海东方艺术中心Shanghai Oriental Art Center","lon":"121.54141842189642","lat":"31.22291030374493","category":"179","category_name":"音乐厅","address":"上海浦东新区丁香路425号"},{"poiid":"B2094757D06AA3F84792","title":"浦东新区民政局","lon":"121.546454","lat":"31.224071","category":"500","category_name":"未知分类","address":"上海合欢路2号"},{"poiid":"B2094757D06FA6F54999","title":"东怡大酒店","lon":"121.54299542","lat":"31.22411864","category":"217","category_name":"旅馆招待所","address":"浦东新区丁香路555号(东方艺术中心旁)"},{"poiid":"B2094655D26BA2F54398","title":"浦东新区办公中心","lon":"121.54511","lat":"31.22245","category":"38","category_name":"公交车站","address":""},{"poiid":"B2094757D06FA0F44798","title":"上海浦东出入境检验检疫局","lon":"121.54857635","lat":"31.225637435","category":"500","category_name":"未知分类","address":"上海民生路1208号"},{"poiid":"B2094654DA69A3FE489F","title":"浦东新区人民法院","lon":"121.54447","lat":"31.22483","category":"608","category_name":"法院","address":"上海市浦东新区丁香路611号"},{"poiid":"B2094757D068A0F44198","title":"上海东方艺术中心-演奏厅(Shanghai Oriental Art Center - Performance Hall)","lon":"121.541374736","lat":"31.2227814309","category":"260","category_name":"其他","address":"上海浦东新区丁香路425号"},{"poiid":"B2094757D068A1F54693","title":"浦东新区青少年活动中心","lon":"121.54725","lat":"31.22036","category":"249","category_name":"购物服务","address":"上海浦东新区迎春路318号  "},{"poiid":"B2094654DB6BABF5459D","title":"世纪公园(二号门)","lon":"121.55191","lat":"31.21911","category":"680","category_name":"楼宇机构","address":"锦绣路901号"},{"poiid":"B2094757D06FAAFD499A","title":"中国银联","lon":"121.5502","lat":"31.22055","category":"46","category_name":"楼宇","address":"浦东新区含笑路36号银联大厦(含笑路民生路)"},{"poiid":"B2094757D465ABFD4299","title":"慕尼黑皇家啤酒屋 Hofbraeu","lon":"121.54320301081","lat":"31.215851278023","category":"247","category_name":"餐饮美食","address":"浦东新区锦延路309号(近锦绣路)"},{"poiid":"B2094757D069A3FE479C","title":"宝燕壹号","lon":"121.550677","lat":"31.224298","category":"75","category_name":"浙江菜","address":"浦东新区民生路1399号太平人寿大厦1-2楼(近丁香路)"},{"poiid":"B2094757D068A3FD439B","title":"上海人家精作坊(汇商店)","lon":"121.54943","lat":"31.22415","category":"76","category_name":"上海菜","address":"浦东新区民生路1286号汇商大厦3-4楼(丁香路口)"},{"poiid":"B2094757D068A1FD409D","title":"和记小菜精菜坊","lon":"121.55141","lat":"31.22311","category":"76","category_name":"上海菜","address":"浦东新区民生路1433号世纪皇冠酒店3楼(近迎春路)"},{"poiid":"B2094757D068A0F4479C","title":"上海移动浦东大楼","lon":"121.549956738","lat":"31.2248151847","category":"500","category_name":"未知分类","address":"上海迎春路670号"},{"poiid":"B2094757D16DABF8489C","title":"浦东新区政府大楼一号楼","lon":"121.544685364","lat":"31.2216567993","category":"500","category_name":"未知分类","address":"上海锦带路22号"},{"poiid":"B2094757D16CA6FE409B","title":"世纪皇冠假日酒店咖啡园","lon":"121.551","lat":"31.22299","category":"268","category_name":"自助","address":"浦东新区民生路1433号上海世纪皇冠假日酒店1楼大堂(迎春路口)"},{"poiid":"B2094757D068ABF54998","title":"肯德基KFC(科技馆店)","lon":"121.542076333","lat":"31.2193652614","category":"68","category_name":"快餐厅","address":"浦东新区世纪大道2002号亚太盛汇广场B1楼(近二号线上海科技馆站)"},{"poiid":"B2094757D069A2FD449C","title":"张家浜创意街","lon":"121.54472","lat":"31.21655","category":"116","category_name":"特色商业街","address":"上海浦东新区锦延路(近锦绣路)"},{"poiid":"B2094757D068A4F4489B","title":"上海移动民生大楼","lon":"121.55168467","lat":"31.2229133452","category":"46","category_name":"楼宇","address":"上海迎春路670号"},{"poiid":"B2094655D26EA2FF4192","title":"法国餐馆巴黎上海","lon":"121.54141","lat":"31.22273","category":"97","category_name":"法式菜品餐厅","address":"浦东新区丁香路425号上海东方艺术中心B1楼(近世纪大道)"},{"poiid":"B2094757D06AA1FE4093","title":"Daisy's kitchen","lon":"121.54391","lat":"31.21765","category":"94","category_name":"西餐厅","address":"浦东新区世纪大道2002号亚太盛汇南广场J-06号(近地铁二号线上海科技馆站)"},{"poiid":"B2094757D16CAAFB419C","title":"上海银监局","lon":"121.54826773","lat":"31.224110169","category":"500","category_name":"未知分类","address":"上海合欢路35号"},{"poiid":"B2094757D069A7F8409B","title":"浦东新区公安分局","lon":"121.54691967","lat":"31.224898359","category":"500","category_name":"未知分类","address":"上海浦东新区丁香路655号"},{"poiid":"B2094655D26DAAFA4993","title":"上海亚太盛汇休闲购物广场","lon":"121.54371","lat":"31.21829","category":"119","category_name":"商场","address":"亚太盛汇位于浦东浦东新区世纪大道2002号(杨高路地铁站)"},{"poiid":"B2094757D66CA7FA409F","title":"中国证监会上海证监局","lon":"121.54776273","lat":"31.22228513","category":"500","category_name":"未知分类","address":"上海市浦东新区迎春路555号"},{"poiid":"B2094757D069A5FF4398","title":"出入境管理局咖啡厅","lon":"121.549943794","lat":"31.2217617086","category":"260","category_name":"其他","address":"浦东新区民生路1500号上海出入境管理局1楼(含笑路民生路)"},{"poiid":"B2094655D26EA5F44598","title":"次郎日式快餐 科技馆店","lon":"121.540979054","lat":"31.220935793","category":"68","category_name":"快餐厅","address":"浦东新区世纪大道2002号亚太盛汇广场B区07室(近二号线上海科技馆站)"},{"poiid":"B2094654DA69A2F44893","title":"太平人寿大厦","lon":"121.55068","lat":"31.22429","category":"46","category_name":"楼宇","address":"闸北区江场西路395号"},{"poiid":"B2094757D06EAAF8469A","title":"上海东方体育中心","lon":"121.544721","lat":"31.221959","category":"220","category_name":"运动场所","address":"上海浦东新区耀体路701号"},{"poiid":"B2094751D36CA5FD479C","title":"四季亭(民生路店)","lon":"121.55096","lat":"31.22329","category":"95","category_name":"日本料理","address":"浦东新区民生路1433号世纪皇冠假日酒店2楼(近迎春路路口)"},{"poiid":"B2094655D36CA7F94799","title":"合欢路含笑路","lon":"121.54809","lat":"31.22015","category":"38","category_name":"公交车站","address":""},{"poiid":"B2094654DB6AA7FB439A","title":"浦东新区行政办公中心食堂","lon":"121.541247554","lat":"31.221065493","category":"247","category_name":"餐饮美食","address":"世纪大道2001号近锦带路"},{"poiid":"B2094655D264ABFC4193","title":"土控大楼","lon":"121.54897","lat":"31.22009","category":"46","category_name":"楼宇","address":"朝阳华威桥东北角"},{"poiid":"B2094654DA69A3FE479B","title":"世纪广场(世纪大道)","lon":"121.54129","lat":"31.22065","category":"201","category_name":"城市广场","address":"从东方明珠至浦东世纪公园全长约55公里"},{"poiid":"B2094757D065A5F5479D","title":"浦东新区","lon":"121.544723139","lat":"31.2219468141","category":"250","category_name":"公园户外","address":"上海浦东新区区域"},{"poiid":"B2094655D26DA5F5449B","title":"金鹰大厦A栋","lon":"121.55009","lat":"31.21998","category":"46","category_name":"楼宇","address":"民生路1518"},{"poiid":"B2094654DB65A7FC409E","title":"全家便利店(科技馆店)","lon":"121.54596","lat":"31.21885","category":"117","category_name":"便民商店/便利店","address":"浦东新区锦绣路(地铁2号线科技馆站3号出口)"},{"poiid":"B2094757D165AAF44893","title":"成山路820号","lon":"121.546246","lat":"31.220835","category":"500","category_name":"未知分类","address":"上海浦东新区办公中心"},{"poiid":"B2094757D169A0FD4093","title":"Latina","lon":"121.542421568","lat":"31.2196233141","category":"500","category_name":"未知分类","address":"上海科技馆"},{"poiid":"B2094655D268ABFD469A","title":"上海海事法院","lon":"121.5491","lat":"31.223","category":"608","category_name":"法院","address":"迎春路567号"},{"poiid":"B2094757D06BA1F4499C","title":"芳华路","lon":"121.54811859","lat":"31.221250534","category":"500","category_name":"未知分类","address":"上海浦东新区"},{"poiid":"B2094750D364ABFA489A","title":"上海新国际会展中心","lon":"121.550224","lat":"31.223012","category":"500","category_name":"未知分类","address":"浦东"}]