[{"poiid":"B2094757D06EAAFE4398","title":"上海歌城(中兴路店)","lon":"121.46375","lat":"31.25196","category":"170","category_name":"KTV","address":"闸北区中兴路1233号中兴财富广场1幢1-2号(近共和新路)"},{"poiid":"B2094757D06FA4FC4798","title":"申宴酒楼(王子百货店)","lon":"121.46458","lat":"31.25343","category":"76","category_name":"上海菜","address":"闸北区中华新路567号王子百货5楼(近共和新路)"},{"poiid":"B2094757D06EAAFC489B","title":"嘉里不夜城","lon":"121.463","lat":"31.2514","category":"500","category_name":"未知分类","address":"上海市松江区涞坊路599弄"},{"poiid":"B209475CD564A7F8439E","title":"上海滩中信泰富店","lon":"121.45602","lat":"31.22851","category":"119","category_name":"商场","address":"\"南京西路1168号中信泰富广场，店铺号221.\r\n\""},{"poiid":"B2094757D06FA3FF4593","title":"王子百货","lon":"121.4646","lat":"31.2533","category":"119","category_name":"商场","address":"闸北区中华新路567号(近共和新路)"},{"poiid":"B2094757D06AA0FC4499","title":"南北高架","lon":"121.46357196","lat":"31.250989706","category":"500","category_name":"未知分类","address":"上海天目西路至中环"},{"poiid":"B2094757D06FA1F84099","title":"城上城","lon":"121.46487666","lat":"31.249323921","category":"47","category_name":"住宅区","address":"上海闸北区虬江路1488弄"},{"poiid":"B2094757D068A2FD469B","title":"共和新路中兴路","lon":"121.463348","lat":"31.251093","category":"500","category_name":"未知分类","address":"上海共和新路中兴路"},{"poiid":"B2094757D06FA4F9429C","title":"青年餐厅(火车站店)","lon":"121.46552","lat":"31.25192","category":"71","category_name":"四川菜","address":"闸北区中兴路1122号2楼(近共和新路)"},{"poiid":"B2094757D06FAAFD4093","title":"泰煌火锅(闸北店)","lon":"121.46591","lat":"31.25375","category":"86","category_name":"火锅店","address":"闸北区中华新路479号(近共和新路)"},{"poiid":"B2094655D268A7FF489A","title":"中土大厦","lon":"121.463746","lat":"31.250478","category":"46","category_name":"楼宇","address":"上海市闸北区共和新路666号"},{"poiid":"B2094757D06FAAFA419E","title":"汉中广场","lon":"121.465","lat":"31.2486","category":"500","category_name":"未知分类","address":"上海市四川北路1851号"},{"poiid":"B2094757D069A2FF409A","title":"闸北游泳馆","lon":"121.465370616","lat":"31.2542683436","category":"231","category_name":"游泳馆","address":"闸北区中华新路483号(近共和新路)"},{"poiid":"B2094757D168A5FB439F","title":"上海火车站6号候车室","lon":"121.463178","lat":"31.251041","category":"22","category_name":"火车站","address":"闸北区上海火车站"},{"poiid":"B2094757D065A3F94093","title":"味千拉面 中华新路店","lon":"121.464265","lat":"31.253818","category":"95","category_name":"日本料理","address":"闸北区共和新路567号(近中华新路)"},{"poiid":"B2094757D06BA6FD489A","title":"金光大道大酒家(中兴路店)","lon":"121.46483","lat":"31.25215","category":"76","category_name":"上海菜","address":"闸北区中兴路1111号(近共和新路)"},{"poiid":"B2094757D06FA6FB429A","title":"DQ冰雪皇后(王子百货店)","lon":"121.46437","lat":"31.25342","category":"113","category_name":"冷饮店","address":"闸北区中华新路567号王子百货1楼(近共和新路)"},{"poiid":"B2094757D069A6FF4093","title":"贵州苗家酸汤鱼馆 中兴路店","lon":"121.463040054","lat":"31.252511793","category":"83","category_name":"云贵菜","address":"闸北区中兴路1233号中兴财富广场内(近共和新路)"},{"poiid":"B2094655D26EA5FD459B","title":"亚繁风尚商务酒店(上海中兴路店)","lon":"121.46503","lat":"31.25213","category":"250","category_name":"公园户外","address":"上海市闸北区中兴路1122号（近共和新路）"},{"poiid":"B2094757D068A4F9499D","title":"兴中心创意园 RED PLUS","lon":"121.467529233","lat":"31.252842315","category":"46","category_name":"楼宇","address":"上海西藏北路605"},{"poiid":"B2094654D56CA2F5469B","title":"中国移动(虬江路)","lon":"121.46797","lat":"31.25004","category":"138","category_name":"家电电子卖场","address":""},{"poiid":"B2094750D665A1FD439F","title":"鼎新小馆","lon":"121.466","lat":"31.2527","category":"76","category_name":"上海菜","address":"闸北区中兴路1055号(近共和新路)"},{"poiid":"B2094654D564AAFA449B","title":"汇贡大厦","lon":"121.465","lat":"31.2528","category":"46","category_name":"楼宇","address":"浦东区崂山东路410号"},{"poiid":"B2094757D068ABF44092","title":"德笼馆(中兴路店)","lon":"121.46578","lat":"31.25238","category":"247","category_name":"餐饮美食","address":"上海闸北区中兴路1089号(近共和新路)  "},{"poiid":"B2094655D36DA1FB409F","title":"西藏北路","lon":"121.46786","lat":"31.253","category":"38","category_name":"公交车站","address":""},{"poiid":"B2094654D56CA2FA409E","title":"沙湾小镇茶餐厅","lon":"121.46447","lat":"31.24968","category":"72","category_name":"广东菜","address":"闸北区虬江路1504号城上城(近共和新路)"},{"poiid":"B2094654D56CA1FC4199","title":"和记渔村","lon":"121.46476723949","lat":"31.252307982736","category":"76","category_name":"上海菜","address":"闸北区中兴路1098号(近共和新路)"},{"poiid":"B2094757D169A4FE419F","title":"闸北区中心医院急诊药房","lon":"121.463735103","lat":"31.252413046","category":"500","category_name":"未知分类","address":"上海中华新路619号"},{"poiid":"B2094757DA65AAFA459F","title":"上海紫金东悦酒店——原（上海乐久大酒店）","lon":"121.4647043","lat":"31.25089638","category":"215","category_name":"三星级宾馆","address":"闸北区永兴路669号(近共和新路)"},{"poiid":"B2094654D56CA1FC4499","title":"鹿角亭湘菜馆","lon":"121.46419","lat":"31.25096","category":"77","category_name":"湖南菜","address":"闸北区永兴路701号(共和新路)"},{"poiid":"B2094757D069A1F5429B","title":"复元坊","lon":"121.46567","lat":"31.250195","category":"47","category_name":"住宅区","address":"上海虬江路1431弄"},{"poiid":"B2094757D069A7FD4293","title":"圣贤居温泉浴场","lon":"121.46686","lat":"31.25233","category":"149","category_name":"洗浴推拿场所","address":"闸北区中兴路1032号(近西藏北路)"},{"poiid":"B2094655D26CAAFD409B","title":"卓悦居","lon":"121.463","lat":"31.2516","category":"47","category_name":"住宅区","address":"民立路289弄"},{"poiid":"B2094654D56CA2F5429B","title":"光华坊","lon":"121.46649","lat":"31.25143","category":"47","category_name":"住宅区","address":"上海市闸北区永兴路595弄"},{"poiid":"B2094757D068A5FB4799","title":"中兴财富国际公寓","lon":"121.46307","lat":"31.253281","category":"47","category_name":"住宅区","address":"上海市闸北区中华新路588弄"},{"poiid":"B2094655D26AA6F54199","title":"泰煌鸡中华新路店","lon":"121.46564","lat":"31.25402","category":"68","category_name":"快餐厅","address":"闸北区中华新路479号(近共和新路)"},{"poiid":"B2094757D66BA4FC409C","title":"大家乐港式茶餐厅","lon":"121.463040054","lat":"31.252511793","category":"257","category_name":"中餐厅","address":"共和新路570号中兴财富休闲广场内近中兴路"},{"poiid":"B2094654D56CA2F5409B","title":"闸北区永兴路第二小学","lon":"121.46569","lat":"31.25136","category":"56","category_name":"小学","address":"永兴路621"},{"poiid":"B2094757D06BABF8459F","title":"超谊小笼馆","lon":"121.46648904","lat":"31.250645737","category":"68","category_name":"快餐厅","address":"闸北区虬江路1450号(近永兴小马路)"},{"poiid":"B2094654DA6CABFE4493","title":"康吉大厦","lon":"121.462","lat":"31.2518","category":"46","category_name":"楼宇","address":"天目西路290号"},{"poiid":"B2094757D06BA7FE449E","title":"七号线镇坪路站","lon":"121.466072703","lat":"31.2509469154","category":"500","category_name":"未知分类","address":"上海市镇坪路中山北路"},{"poiid":"B2094757D66DA2FA4092","title":"O  Hair Salon","lon":"121.463479103","lat":"31.2503690033","category":"500","category_name":"未知分类","address":"上海市闸北区虬江路1452号"},{"poiid":"B209475CD169A2F4429C","title":"上海新天地","lon":"121.466247","lat":"31.252174","category":"500","category_name":"未知分类","address":"上海市 上海新天地"},{"poiid":"B2094654DB6AAAFE4893","title":"上海如来大酒店","lon":"121.46625","lat":"31.25278","category":"250","category_name":"公园户外","address":"闸北区中兴路1055号(近共和新路)"},{"poiid":"B2094654D56CA2F4479F","title":"界点桌球俱乐部","lon":"121.46422","lat":"31.2503","category":"171","category_name":"台球厅","address":"凯鹏大厦4层"},{"poiid":"B2094654DB69A0F9409E","title":"芝麻餐馆 中华新路店","lon":"121.466356","lat":"31.254173","category":"76","category_name":"上海菜","address":"闸北区中华新路567号王子百货4楼(近共和新路)"},{"poiid":"B2094654DB64ABFD429A","title":"友谊商务楼","lon":"121.46531","lat":"31.25218","category":"46","category_name":"楼宇","address":"中兴路1122-1132"},{"poiid":"B2094757D06AA0FD499C","title":"闸北区教师进修学院","lon":"121.465089","lat":"31.253687241","category":"253","category_name":"校园生活","address":"上海中华新路482号"},{"poiid":"B2094757D66CA3FF429E","title":"KFC 火车站北广场店","lon":"121.4632851","lat":"31.250672009","category":"68","category_name":"快餐厅","address":"上海市闸北区大统路"},{"poiid":"B2094654D56CA1FC4498","title":"好德便利No.510","lon":"121.46414","lat":"31.25102","category":"117","category_name":"便民商店/便利店","address":"共和新路451"},{"poiid":"B2094757D06EAAFE4398","title":"上海歌城(中兴路店)","lon":"121.46375","lat":"31.25196","category":"170","category_name":"KTV","address":"闸北区中兴路1233号中兴财富广场1幢1-2号(近共和新路)"},{"poiid":"B2094757D06FA4FC4798","title":"申宴酒楼(王子百货店)","lon":"121.46458","lat":"31.25343","category":"76","category_name":"上海菜","address":"闸北区中华新路567号王子百货5楼(近共和新路)"},{"poiid":"B2094757D06EAAFC489B","title":"嘉里不夜城","lon":"121.463","lat":"31.2514","category":"500","category_name":"未知分类","address":"上海市松江区涞坊路599弄"},{"poiid":"B209475CD564A7F8439E","title":"上海滩中信泰富店","lon":"121.45602","lat":"31.22851","category":"119","category_name":"商场","address":"\"南京西路1168号中信泰富广场，店铺号221.\r\n\""},{"poiid":"B2094757D06FA3FF4593","title":"王子百货","lon":"121.4646","lat":"31.2533","category":"119","category_name":"商场","address":"闸北区中华新路567号(近共和新路)"},{"poiid":"B2094757D06AA0FC4499","title":"南北高架","lon":"121.46357196","lat":"31.250989706","category":"500","category_name":"未知分类","address":"上海天目西路至中环"},{"poiid":"B2094757D06FA1F84099","title":"城上城","lon":"121.46487666","lat":"31.249323921","category":"47","category_name":"住宅区","address":"上海闸北区虬江路1488弄"},{"poiid":"B2094757D068A2FD469B","title":"共和新路中兴路","lon":"121.463348","lat":"31.251093","category":"500","category_name":"未知分类","address":"上海共和新路中兴路"},{"poiid":"B2094757D06FA4F9429C","title":"青年餐厅(火车站店)","lon":"121.46552","lat":"31.25192","category":"71","category_name":"四川菜","address":"闸北区中兴路1122号2楼(近共和新路)"},{"poiid":"B2094757D06FAAFD4093","title":"泰煌火锅(闸北店)","lon":"121.46591","lat":"31.25375","category":"86","category_name":"火锅店","address":"闸北区中华新路479号(近共和新路)"},{"poiid":"B2094655D268A7FF489A","title":"中土大厦","lon":"121.463746","lat":"31.250478","category":"46","category_name":"楼宇","address":"上海市闸北区共和新路666号"},{"poiid":"B2094757D06FAAFA419E","title":"汉中广场","lon":"121.465","lat":"31.2486","category":"500","category_name":"未知分类","address":"上海市四川北路1851号"},{"poiid":"B2094757D069A2FF409A","title":"闸北游泳馆","lon":"121.465370616","lat":"31.2542683436","category":"231","category_name":"游泳馆","address":"闸北区中华新路483号(近共和新路)"},{"poiid":"B2094757D168A5FB439F","title":"上海火车站6号候车室","lon":"121.463178","lat":"31.251041","category":"22","category_name":"火车站","address":"闸北区上海火车站"},{"poiid":"B2094757D065A3F94093","title":"味千拉面 中华新路店","lon":"121.464265","lat":"31.253818","category":"95","category_name":"日本料理","address":"闸北区共和新路567号(近中华新路)"},{"poiid":"B2094757D06BA6FD489A","title":"金光大道大酒家(中兴路店)","lon":"121.46483","lat":"31.25215","category":"76","category_name":"上海菜","address":"闸北区中兴路1111号(近共和新路)"},{"poiid":"B2094757D06FA6FB429A","title":"DQ冰雪皇后(王子百货店)","lon":"121.46437","lat":"31.25342","category":"113","category_name":"冷饮店","address":"闸北区中华新路567号王子百货1楼(近共和新路)"},{"poiid":"B2094757D069A6FF4093","title":"贵州苗家酸汤鱼馆 中兴路店","lon":"121.463040054","lat":"31.252511793","category":"83","category_name":"云贵菜","address":"闸北区中兴路1233号中兴财富广场内(近共和新路)"},{"poiid":"B2094655D26EA5FD459B","title":"亚繁风尚商务酒店(上海中兴路店)","lon":"121.46503","lat":"31.25213","category":"250","category_name":"公园户外","address":"上海市闸北区中兴路1122号（近共和新路）"},{"poiid":"B2094757D068A4F9499D","title":"兴中心创意园 RED PLUS","lon":"121.467529233","lat":"31.252842315","category":"46","category_name":"楼宇","address":"上海西藏北路605"},{"poiid":"B2094654D56CA2F5469B","title":"中国移动(虬江路)","lon":"121.46797","lat":"31.25004","category":"138","category_name":"家电电子卖场","address":""},{"poiid":"B2094750D665A1FD439F","title":"鼎新小馆","lon":"121.466","lat":"31.2527","category":"76","category_name":"上海菜","address":"闸北区中兴路1055号(近共和新路)"},{"poiid":"B2094654D564AAFA449B","title":"汇贡大厦","lon":"121.465","lat":"31.2528","category":"46","category_name":"楼宇","address":"浦东区崂山东路410号"},{"poiid":"B2094757D068ABF44092","title":"德笼馆(中兴路店)","lon":"121.46578","lat":"31.25238","category":"247","category_name":"餐饮美食","address":"上海闸北区中兴路1089号(近共和新路)  "},{"poiid":"B2094655D36DA1FB409F","title":"西藏北路","lon":"121.46786","lat":"31.253","category":"38","category_name":"公交车站","address":""},{"poiid":"B2094654D56CA2FA409E","title":"沙湾小镇茶餐厅","lon":"121.46447","lat":"31.24968","category":"72","category_name":"广东菜","address":"闸北区虬江路1504号城上城(近共和新路)"},{"poiid":"B2094654D56CA1FC4199","title":"和记渔村","lon":"121.46476723949","lat":"31.252307982736","category":"76","category_name":"上海菜","address":"闸北区中兴路1098号(近共和新路)"},{"poiid":"B2094757D169A4FE419F","title":"闸北区中心医院急诊药房","lon":"121.463735103","lat":"31.252413046","category":"500","category_name":"未知分类","address":"上海中华新路619号"},{"poiid":"B2094757DA65AAFA459F","title":"上海紫金东悦酒店——原（上海乐久大酒店）","lon":"121.4647043","lat":"31.25089638","category":"215","category_name":"三星级宾馆","address":"闸北区永兴路669号(近共和新路)"},{"poiid":"B2094654D56CA1FC4499","title":"鹿角亭湘菜馆","lon":"121.46419","lat":"31.25096","category":"77","category_name":"湖南菜","address":"闸北区永兴路701号(共和新路)"},{"poiid":"B2094757D069A1F5429B","title":"复元坊","lon":"121.46567","lat":"31.250195","category":"47","category_name":"住宅区","address":"上海虬江路1431弄"},{"poiid":"B2094757D069A7FD4293","title":"圣贤居温泉浴场","lon":"121.46686","lat":"31.25233","category":"149","category_name":"洗浴推拿场所","address":"闸北区中兴路1032号(近西藏北路)"},{"poiid":"B2094655D26CAAFD409B","title":"卓悦居","lon":"121.463","lat":"31.2516","category":"47","category_name":"住宅区","address":"民立路289弄"},{"poiid":"B2094654D56CA2F5429B","title":"光华坊","lon":"121.46649","lat":"31.25143","category":"47","category_name":"住宅区","address":"上海市闸北区永兴路595弄"},{"poiid":"B2094757D068A5FB4799","title":"中兴财富国际公寓","lon":"121.46307","lat":"31.253281","category":"47","category_name":"住宅区","address":"上海市闸北区中华新路588弄"},{"poiid":"B2094655D26AA6F54199","title":"泰煌鸡中华新路店","lon":"121.46564","lat":"31.25402","category":"68","category_name":"快餐厅","address":"闸北区中华新路479号(近共和新路)"},{"poiid":"B2094757D66BA4FC409C","title":"大家乐港式茶餐厅","lon":"121.463040054","lat":"31.252511793","category":"257","category_name":"中餐厅","address":"共和新路570号中兴财富休闲广场内近中兴路"},{"poiid":"B2094654D56CA2F5409B","title":"闸北区永兴路第二小学","lon":"121.46569","lat":"31.25136","category":"56","category_name":"小学","address":"永兴路621"},{"poiid":"B2094757D06BABF8459F","title":"超谊小笼馆","lon":"121.46648904","lat":"31.250645737","category":"68","category_name":"快餐厅","address":"闸北区虬江路1450号(近永兴小马路)"},{"poiid":"B2094654DA6CABFE4493","title":"康吉大厦","lon":"121.462","lat":"31.2518","category":"46","category_name":"楼宇","address":"天目西路290号"},{"poiid":"B2094757D06BA7FE449E","title":"七号线镇坪路站","lon":"121.466072703","lat":"31.2509469154","category":"500","category_name":"未知分类","address":"上海市镇坪路中山北路"},{"poiid":"B2094757D66DA2FA4092","title":"O  Hair Salon","lon":"121.463479103","lat":"31.2503690033","category":"500","category_name":"未知分类","address":"上海市闸北区虬江路1452号"},{"poiid":"B209475CD169A2F4429C","title":"上海新天地","lon":"121.466247","lat":"31.252174","category":"500","category_name":"未知分类","address":"上海市 上海新天地"},{"poiid":"B2094654DB6AAAFE4893","title":"上海如来大酒店","lon":"121.46625","lat":"31.25278","category":"250","category_name":"公园户外","address":"闸北区中兴路1055号(近共和新路)"},{"poiid":"B2094654D56CA2F4479F","title":"界点桌球俱乐部","lon":"121.46422","lat":"31.2503","category":"171","category_name":"台球厅","address":"凯鹏大厦4层"},{"poiid":"B2094654DB69A0F9409E","title":"芝麻餐馆 中华新路店","lon":"121.466356","lat":"31.254173","category":"76","category_name":"上海菜","address":"闸北区中华新路567号王子百货4楼(近共和新路)"},{"poiid":"B2094654DB64ABFD429A","title":"友谊商务楼","lon":"121.46531","lat":"31.25218","category":"46","category_name":"楼宇","address":"中兴路1122-1132"},{"poiid":"B2094757D06AA0FD499C","title":"闸北区教师进修学院","lon":"121.465089","lat":"31.253687241","category":"253","category_name":"校园生活","address":"上海中华新路482号"},{"poiid":"B2094757D66CA3FF429E","title":"KFC 火车站北广场店","lon":"121.4632851","lat":"31.250672009","category":"68","category_name":"快餐厅","address":"上海市闸北区大统路"},{"poiid":"B2094654D56CA1FC4498","title":"好德便利No.510","lon":"121.46414","lat":"31.25102","category":"117","category_name":"便民商店/便利店","address":"共和新路451"},{"poiid":"B2094757D06EAAFE4398","title":"上海歌城(中兴路店)","lon":"121.46375","lat":"31.25196","category":"170","category_name":"KTV","address":"闸北区中兴路1233号中兴财富广场1幢1-2号(近共和新路)"},{"poiid":"B2094757D06FA4FC4798","title":"申宴酒楼(王子百货店)","lon":"121.46458","lat":"31.25343","category":"76","category_name":"上海菜","address":"闸北区中华新路567号王子百货5楼(近共和新路)"},{"poiid":"B2094757D06EAAFC489B","title":"嘉里不夜城","lon":"121.463","lat":"31.2514","category":"500","category_name":"未知分类","address":"上海市松江区涞坊路599弄"},{"poiid":"B209475CD564A7F8439E","title":"上海滩中信泰富店","lon":"121.45602","lat":"31.22851","category":"119","category_name":"商场","address":"\"南京西路1168号中信泰富广场，店铺号221.\r\n\""},{"poiid":"B2094757D06FA3FF4593","title":"王子百货","lon":"121.4646","lat":"31.2533","category":"119","category_name":"商场","address":"闸北区中华新路567号(近共和新路)"},{"poiid":"B2094757D06AA0FC4499","title":"南北高架","lon":"121.46357196","lat":"31.250989706","category":"500","category_name":"未知分类","address":"上海天目西路至中环"},{"poiid":"B2094757D06FA1F84099","title":"城上城","lon":"121.46487666","lat":"31.249323921","category":"47","category_name":"住宅区","address":"上海闸北区虬江路1488弄"},{"poiid":"B2094757D068A2FD469B","title":"共和新路中兴路","lon":"121.463348","lat":"31.251093","category":"500","category_name":"未知分类","address":"上海共和新路中兴路"},{"poiid":"B2094757D06FA4F9429C","title":"青年餐厅(火车站店)","lon":"121.46552","lat":"31.25192","category":"71","category_name":"四川菜","address":"闸北区中兴路1122号2楼(近共和新路)"},{"poiid":"B2094757D06FAAFD4093","title":"泰煌火锅(闸北店)","lon":"121.46591","lat":"31.25375","category":"86","category_name":"火锅店","address":"闸北区中华新路479号(近共和新路)"},{"poiid":"B2094655D268A7FF489A","title":"中土大厦","lon":"121.463746","lat":"31.250478","category":"46","category_name":"楼宇","address":"上海市闸北区共和新路666号"},{"poiid":"B2094757D06FAAFA419E","title":"汉中广场","lon":"121.465","lat":"31.2486","category":"500","category_name":"未知分类","address":"上海市四川北路1851号"},{"poiid":"B2094757D069A2FF409A","title":"闸北游泳馆","lon":"121.465370616","lat":"31.2542683436","category":"231","category_name":"游泳馆","address":"闸北区中华新路483号(近共和新路)"},{"poiid":"B2094757D168A5FB439F","title":"上海火车站6号候车室","lon":"121.463178","lat":"31.251041","category":"22","category_name":"火车站","address":"闸北区上海火车站"},{"poiid":"B2094757D065A3F94093","title":"味千拉面 中华新路店","lon":"121.464265","lat":"31.253818","category":"95","category_name":"日本料理","address":"闸北区共和新路567号(近中华新路)"},{"poiid":"B2094757D06BA6FD489A","title":"金光大道大酒家(中兴路店)","lon":"121.46483","lat":"31.25215","category":"76","category_name":"上海菜","address":"闸北区中兴路1111号(近共和新路)"},{"poiid":"B2094757D06FA6FB429A","title":"DQ冰雪皇后(王子百货店)","lon":"121.46437","lat":"31.25342","category":"113","category_name":"冷饮店","address":"闸北区中华新路567号王子百货1楼(近共和新路)"},{"poiid":"B2094757D069A6FF4093","title":"贵州苗家酸汤鱼馆 中兴路店","lon":"121.463040054","lat":"31.252511793","category":"83","category_name":"云贵菜","address":"闸北区中兴路1233号中兴财富广场内(近共和新路)"},{"poiid":"B2094655D26EA5FD459B","title":"亚繁风尚商务酒店(上海中兴路店)","lon":"121.46503","lat":"31.25213","category":"250","category_name":"公园户外","address":"上海市闸北区中兴路1122号（近共和新路）"},{"poiid":"B2094757D068A4F9499D","title":"兴中心创意园 RED PLUS","lon":"121.467529233","lat":"31.252842315","category":"46","category_name":"楼宇","address":"上海西藏北路605"},{"poiid":"B2094654D56CA2F5469B","title":"中国移动(虬江路)","lon":"121.46797","lat":"31.25004","category":"138","category_name":"家电电子卖场","address":""},{"poiid":"B2094750D665A1FD439F","title":"鼎新小馆","lon":"121.466","lat":"31.2527","category":"76","category_name":"上海菜","address":"闸北区中兴路1055号(近共和新路)"},{"poiid":"B2094654D564AAFA449B","title":"汇贡大厦","lon":"121.465","lat":"31.2528","category":"46","category_name":"楼宇","address":"浦东区崂山东路410号"},{"poiid":"B2094757D068ABF44092","title":"德笼馆(中兴路店)","lon":"121.46578","lat":"31.25238","category":"247","category_name":"餐饮美食","address":"上海闸北区中兴路1089号(近共和新路)  "},{"poiid":"B2094655D36DA1FB409F","title":"西藏北路","lon":"121.46786","lat":"31.253","category":"38","category_name":"公交车站","address":""},{"poiid":"B2094654D56CA2FA409E","title":"沙湾小镇茶餐厅","lon":"121.46447","lat":"31.24968","category":"72","category_name":"广东菜","address":"闸北区虬江路1504号城上城(近共和新路)"},{"poiid":"B2094654D56CA1FC4199","title":"和记渔村","lon":"121.46476723949","lat":"31.252307982736","category":"76","category_name":"上海菜","address":"闸北区中兴路1098号(近共和新路)"},{"poiid":"B2094757D169A4FE419F","title":"闸北区中心医院急诊药房","lon":"121.463735103","lat":"31.252413046","category":"500","category_name":"未知分类","address":"上海中华新路619号"},{"poiid":"B2094757DA65AAFA459F","title":"上海紫金东悦酒店——原（上海乐久大酒店）","lon":"121.4647043","lat":"31.25089638","category":"215","category_name":"三星级宾馆","address":"闸北区永兴路669号(近共和新路)"},{"poiid":"B2094654D56CA1FC4499","title":"鹿角亭湘菜馆","lon":"121.46419","lat":"31.25096","category":"77","category_name":"湖南菜","address":"闸北区永兴路701号(共和新路)"},{"poiid":"B2094757D069A1F5429B","title":"复元坊","lon":"121.46567","lat":"31.250195","category":"47","category_name":"住宅区","address":"上海虬江路1431弄"},{"poiid":"B2094757D069A7FD4293","title":"圣贤居温泉浴场","lon":"121.46686","lat":"31.25233","category":"149","category_name":"洗浴推拿场所","address":"闸北区中兴路1032号(近西藏北路)"},{"poiid":"B2094655D26CAAFD409B","title":"卓悦居","lon":"121.463","lat":"31.2516","category":"47","category_name":"住宅区","address":"民立路289弄"},{"poiid":"B2094654D56CA2F5429B","title":"光华坊","lon":"121.46649","lat":"31.25143","category":"47","category_name":"住宅区","address":"上海市闸北区永兴路595弄"},{"poiid":"B2094757D068A5FB4799","title":"中兴财富国际公寓","lon":"121.46307","lat":"31.253281","category":"47","category_name":"住宅区","address":"上海市闸北区中华新路588弄"},{"poiid":"B2094655D26AA6F54199","title":"泰煌鸡中华新路店","lon":"121.46564","lat":"31.25402","category":"68","category_name":"快餐厅","address":"闸北区中华新路479号(近共和新路)"},{"poiid":"B2094757D66BA4FC409C","title":"大家乐港式茶餐厅","lon":"121.463040054","lat":"31.252511793","category":"257","category_name":"中餐厅","address":"共和新路570号中兴财富休闲广场内近中兴路"},{"poiid":"B2094654D56CA2F5409B","title":"闸北区永兴路第二小学","lon":"121.46569","lat":"31.25136","category":"56","category_name":"小学","address":"永兴路621"},{"poiid":"B2094757D06BABF8459F","title":"超谊小笼馆","lon":"121.46648904","lat":"31.250645737","category":"68","category_name":"快餐厅","address":"闸北区虬江路1450号(近永兴小马路)"},{"poiid":"B2094654DA6CABFE4493","title":"康吉大厦","lon":"121.462","lat":"31.2518","category":"46","category_name":"楼宇","address":"天目西路290号"},{"poiid":"B2094757D06BA7FE449E","title":"七号线镇坪路站","lon":"121.466072703","lat":"31.2509469154","category":"500","category_name":"未知分类","address":"上海市镇坪路中山北路"},{"poiid":"B2094757D66DA2FA4092","title":"O  Hair Salon","lon":"121.463479103","lat":"31.2503690033","category":"500","category_name":"未知分类","address":"上海市闸北区虬江路1452号"},{"poiid":"B209475CD169A2F4429C","title":"上海新天地","lon":"121.466247","lat":"31.252174","category":"500","category_name":"未知分类","address":"上海市 上海新天地"},{"poiid":"B2094654DB6AAAFE4893","title":"上海如来大酒店","lon":"121.46625","lat":"31.25278","category":"250","category_name":"公园户外","address":"闸北区中兴路1055号(近共和新路)"},{"poiid":"B2094654D56CA2F4479F","title":"界点桌球俱乐部","lon":"121.46422","lat":"31.2503","category":"171","category_name":"台球厅","address":"凯鹏大厦4层"},{"poiid":"B2094654DB69A0F9409E","title":"芝麻餐馆 中华新路店","lon":"121.466356","lat":"31.254173","category":"76","category_name":"上海菜","address":"闸北区中华新路567号王子百货4楼(近共和新路)"},{"poiid":"B2094654DB64ABFD429A","title":"友谊商务楼","lon":"121.46531","lat":"31.25218","category":"46","category_name":"楼宇","address":"中兴路1122-1132"},{"poiid":"B2094757D06AA0FD499C","title":"闸北区教师进修学院","lon":"121.465089","lat":"31.253687241","category":"253","category_name":"校园生活","address":"上海中华新路482号"},{"poiid":"B2094757D66CA3FF429E","title":"KFC 火车站北广场店","lon":"121.4632851","lat":"31.250672009","category":"68","category_name":"快餐厅","address":"上海市闸北区大统路"},{"poiid":"B2094654D56CA1FC4498","title":"好德便利No.510","lon":"121.46414","lat":"31.25102","category":"117","category_name":"便民商店/便利店","address":"共和新路451"},{"poiid":"B2094757D06EAAFE4398","title":"上海歌城(中兴路店)","lon":"121.46375","lat":"31.25196","category":"170","category_name":"KTV","address":"闸北区中兴路1233号中兴财富广场1幢1-2号(近共和新路)"},{"poiid":"B2094757D06FA4FC4798","title":"申宴酒楼(王子百货店)","lon":"121.46458","lat":"31.25343","category":"76","category_name":"上海菜","address":"闸北区中华新路567号王子百货5楼(近共和新路)"},{"poiid":"B2094757D06EAAFC489B","title":"嘉里不夜城","lon":"121.463","lat":"31.2514","category":"500","category_name":"未知分类","address":"上海市松江区涞坊路599弄"},{"poiid":"B209475CD564A7F8439E","title":"上海滩中信泰富店","lon":"121.45602","lat":"31.22851","category":"119","category_name":"商场","address":"\"南京西路1168号中信泰富广场，店铺号221.\r\n\""},{"poiid":"B2094757D06FA3FF4593","title":"王子百货","lon":"121.4646","lat":"31.2533","category":"119","category_name":"商场","address":"闸北区中华新路567号(近共和新路)"},{"poiid":"B2094757D06AA0FC4499","title":"南北高架","lon":"121.46357196","lat":"31.250989706","category":"500","category_name":"未知分类","address":"上海天目西路至中环"},{"poiid":"B2094757D06FA1F84099","title":"城上城","lon":"121.46487666","lat":"31.249323921","category":"47","category_name":"住宅区","address":"上海闸北区虬江路1488弄"},{"poiid":"B2094757D068A2FD469B","title":"共和新路中兴路","lon":"121.463348","lat":"31.251093","category":"500","category_name":"未知分类","address":"上海共和新路中兴路"},{"poiid":"B2094757D06FA4F9429C","title":"青年餐厅(火车站店)","lon":"121.46552","lat":"31.25192","category":"71","category_name":"四川菜","address":"闸北区中兴路1122号2楼(近共和新路)"},{"poiid":"B2094757D06FAAFD4093","title":"泰煌火锅(闸北店)","lon":"121.46591","lat":"31.25375","category":"86","category_name":"火锅店","address":"闸北区中华新路479号(近共和新路)"},{"poiid":"B2094655D268A7FF489A","title":"中土大厦","lon":"121.463746","lat":"31.250478","category":"46","category_name":"楼宇","address":"上海市闸北区共和新路666号"},{"poiid":"B2094757D06FAAFA419E","title":"汉中广场","lon":"121.465","lat":"31.2486","category":"500","category_name":"未知分类","address":"上海市四川北路1851号"},{"poiid":"B2094757D069A2FF409A","title":"闸北游泳馆","lon":"121.465370616","lat":"31.2542683436","category":"231","category_name":"游泳馆","address":"闸北区中华新路483号(近共和新路)"},{"poiid":"B2094757D168A5FB439F","title":"上海火车站6号候车室","lon":"121.463178","lat":"31.251041","category":"22","category_name":"火车站","address":"闸北区上海火车站"},{"poiid":"B2094757D065A3F94093","title":"味千拉面 中华新路店","lon":"121.464265","lat":"31.253818","category":"95","category_name":"日本料理","address":"闸北区共和新路567号(近中华新路)"},{"poiid":"B2094757D06BA6FD489A","title":"金光大道大酒家(中兴路店)","lon":"121.46483","lat":"31.25215","category":"76","category_name":"上海菜","address":"闸北区中兴路1111号(近共和新路)"},{"poiid":"B2094757D06FA6FB429A","title":"DQ冰雪皇后(王子百货店)","lon":"121.46437","lat":"31.25342","category":"113","category_name":"冷饮店","address":"闸北区中华新路567号王子百货1楼(近共和新路)"},{"poiid":"B2094757D069A6FF4093","title":"贵州苗家酸汤鱼馆 中兴路店","lon":"121.463040054","lat":"31.252511793","category":"83","category_name":"云贵菜","address":"闸北区中兴路1233号中兴财富广场内(近共和新路)"},{"poiid":"B2094655D26EA5FD459B","title":"亚繁风尚商务酒店(上海中兴路店)","lon":"121.46503","lat":"31.25213","category":"250","category_name":"公园户外","address":"上海市闸北区中兴路1122号（近共和新路）"},{"poiid":"B2094757D068A4F9499D","title":"兴中心创意园 RED PLUS","lon":"121.467529233","lat":"31.252842315","category":"46","category_name":"楼宇","address":"上海西藏北路605"},{"poiid":"B2094654D56CA2F5469B","title":"中国移动(虬江路)","lon":"121.46797","lat":"31.25004","category":"138","category_name":"家电电子卖场","address":""},{"poiid":"B2094750D665A1FD439F","title":"鼎新小馆","lon":"121.466","lat":"31.2527","category":"76","category_name":"上海菜","address":"闸北区中兴路1055号(近共和新路)"},{"poiid":"B2094654D564AAFA449B","title":"汇贡大厦","lon":"121.465","lat":"31.2528","category":"46","category_name":"楼宇","address":"浦东区崂山东路410号"},{"poiid":"B2094757D068ABF44092","title":"德笼馆(中兴路店)","lon":"121.46578","lat":"31.25238","category":"247","category_name":"餐饮美食","address":"上海闸北区中兴路1089号(近共和新路)  "},{"poiid":"B2094655D36DA1FB409F","title":"西藏北路","lon":"121.46786","lat":"31.253","category":"38","category_name":"公交车站","address":""},{"poiid":"B2094654D56CA2FA409E","title":"沙湾小镇茶餐厅","lon":"121.46447","lat":"31.24968","category":"72","category_name":"广东菜","address":"闸北区虬江路1504号城上城(近共和新路)"},{"poiid":"B2094654D56CA1FC4199","title":"和记渔村","lon":"121.46476723949","lat":"31.252307982736","category":"76","category_name":"上海菜","address":"闸北区中兴路1098号(近共和新路)"},{"poiid":"B2094757D169A4FE419F","title":"闸北区中心医院急诊药房","lon":"121.463735103","lat":"31.252413046","category":"500","category_name":"未知分类","address":"上海中华新路619号"},{"poiid":"B2094757DA65AAFA459F","title":"上海紫金东悦酒店——原（上海乐久大酒店）","lon":"121.4647043","lat":"31.25089638","category":"215","category_name":"三星级宾馆","address":"闸北区永兴路669号(近共和新路)"},{"poiid":"B2094654D56CA1FC4499","title":"鹿角亭湘菜馆","lon":"121.46419","lat":"31.25096","category":"77","category_name":"湖南菜","address":"闸北区永兴路701号(共和新路)"},{"poiid":"B2094757D069A1F5429B","title":"复元坊","lon":"121.46567","lat":"31.250195","category":"47","category_name":"住宅区","address":"上海虬江路1431弄"},{"poiid":"B2094757D069A7FD4293","title":"圣贤居温泉浴场","lon":"121.46686","lat":"31.25233","category":"149","category_name":"洗浴推拿场所","address":"闸北区中兴路1032号(近西藏北路)"},{"poiid":"B2094655D26CAAFD409B","title":"卓悦居","lon":"121.463","lat":"31.2516","category":"47","category_name":"住宅区","address":"民立路289弄"},{"poiid":"B2094654D56CA2F5429B","title":"光华坊","lon":"121.46649","lat":"31.25143","category":"47","category_name":"住宅区","address":"上海市闸北区永兴路595弄"},{"poiid":"B2094757D068A5FB4799","title":"中兴财富国际公寓","lon":"121.46307","lat":"31.253281","category":"47","category_name":"住宅区","address":"上海市闸北区中华新路588弄"},{"poiid":"B2094655D26AA6F54199","title":"泰煌鸡中华新路店","lon":"121.46564","lat":"31.25402","category":"68","category_name":"快餐厅","address":"闸北区中华新路479号(近共和新路)"},{"poiid":"B2094757D66BA4FC409C","title":"大家乐港式茶餐厅","lon":"121.463040054","lat":"31.252511793","category":"257","category_name":"中餐厅","address":"共和新路570号中兴财富休闲广场内近中兴路"},{"poiid":"B2094654D56CA2F5409B","title":"闸北区永兴路第二小学","lon":"121.46569","lat":"31.25136","category":"56","category_name":"小学","address":"永兴路621"},{"poiid":"B2094757D06BABF8459F","title":"超谊小笼馆","lon":"121.46648904","lat":"31.250645737","category":"68","category_name":"快餐厅","address":"闸北区虬江路1450号(近永兴小马路)"},{"poiid":"B2094654DA6CABFE4493","title":"康吉大厦","lon":"121.462","lat":"31.2518","category":"46","category_name":"楼宇","address":"天目西路290号"},{"poiid":"B2094757D06BA7FE449E","title":"七号线镇坪路站","lon":"121.466072703","lat":"31.2509469154","category":"500","category_name":"未知分类","address":"上海市镇坪路中山北路"},{"poiid":"B2094757D66DA2FA4092","title":"O  Hair Salon","lon":"121.463479103","lat":"31.2503690033","category":"500","category_name":"未知分类","address":"上海市闸北区虬江路1452号"},{"poiid":"B209475CD169A2F4429C","title":"上海新天地","lon":"121.466247","lat":"31.252174","category":"500","category_name":"未知分类","address":"上海市 上海新天地"},{"poiid":"B2094654DB6AAAFE4893","title":"上海如来大酒店","lon":"121.46625","lat":"31.25278","category":"250","category_name":"公园户外","address":"闸北区中兴路1055号(近共和新路)"},{"poiid":"B2094654D56CA2F4479F","title":"界点桌球俱乐部","lon":"121.46422","lat":"31.2503","category":"171","category_name":"台球厅","address":"凯鹏大厦4层"},{"poiid":"B2094654DB69A0F9409E","title":"芝麻餐馆 中华新路店","lon":"121.466356","lat":"31.254173","category":"76","category_name":"上海菜","address":"闸北区中华新路567号王子百货4楼(近共和新路)"},{"poiid":"B2094654DB64ABFD429A","title":"友谊商务楼","lon":"121.46531","lat":"31.25218","category":"46","category_name":"楼宇","address":"中兴路1122-1132"},{"poiid":"B2094757D06AA0FD499C","title":"闸北区教师进修学院","lon":"121.465089","lat":"31.253687241","category":"253","category_name":"校园生活","address":"上海中华新路482号"},{"poiid":"B2094757D66CA3FF429E","title":"KFC 火车站北广场店","lon":"121.4632851","lat":"31.250672009","category":"68","category_name":"快餐厅","address":"上海市闸北区大统路"},{"poiid":"B2094654D56CA1FC4498","title":"好德便利No.510","lon":"121.46414","lat":"31.25102","category":"117","category_name":"便民商店/便利店","address":"共和新路451"}]