[{"poiid":"B2094654DB6AA6F8409C","title":"上海外滩茂悦大酒店","lon":"121.49345","lat":"31.24541","category":"268","category_name":"自助","address":"虹口区黄浦路199号上海外滩茂悦大酒店东楼3楼(黄浦路南浔路)"},{"poiid":"B2094654DA6FA5F8429A","title":"宏伊国际广场","lon":"121.491","lat":"31.2427","category":"46","category_name":"楼宇","address":"张杨路560号,张杨路620号"},{"poiid":"B2094654DA6FA7FD4993","title":"上海国际会议中心(Shanghai International Conference Center)","lon":"121.49694","lat":"31.23946","category":"185","category_name":"会展中心","address":"浦东新区滨江大道2727号(近丰和路)"},{"poiid":"B209475CD564A7F84292","title":"上海滩新天地店","lon":"121.47463","lat":"31.22164","category":"119","category_name":"商场","address":"\"太仓路181弄新天地北里15号\r\n\""},{"poiid":"B209475CD564A7F84392","title":"上海滩浦东香格里拉店","lon":"121.50058","lat":"31.23634","category":"119","category_name":"商场","address":"浦东富成路33号香格里拉酒店内大堂层"},{"poiid":"B2094757D06FA2FA419C","title":"非常时髦酒吧","lon":"121.49312","lat":"31.24427","category":"260","category_name":"其他","address":"虹口区黄浦路199号上海外滩茂悦大酒店西楼32楼(近武昌路)"},{"poiid":"B2094757D064A5FD4593","title":"外灘","lon":"121.49375073","lat":"31.240939528","category":"500","category_name":"未知分类","address":"上海市黄浦区南苏州路"},{"poiid":"B2094757D06FA1F8489C","title":"浦江饭店","lon":"121.490758631","lat":"31.2440953723","category":"215","category_name":"三星级宾馆","address":"上海虹口区黄浦路15号(近北苏州路)"},{"poiid":"B2094757D06FA7F5479A","title":"海鸥饭店","lon":"121.49201","lat":"31.24348","category":"217","category_name":"旅馆招待所","address":"上海市虹口区黄浦路60号(外滩地区,近北苏州路)"},{"poiid":"B2094757D06FA1FD439B","title":"COSTA COFFEE(新外滩店)","lon":"121.490879","lat":"31.240587","category":"65","category_name":"咖啡厅","address":"黄浦区中山东一路388号(北京东路口)"},{"poiid":"B2094757D06FA4FA429D","title":"小南国(国际会议中心店)","lon":"121.496985714","lat":"31.2393948139","category":"76","category_name":"上海菜","address":"浦东新区滨江大道2727号国际会议中心7楼(近东方明珠电视塔)"},{"poiid":"B2094655D26DAAF8459A","title":"The Kitchen Salvatore Cuomo","lon":"121.49733","lat":"31.24084","category":"94","category_name":"西餐厅","address":"浦东新区陆家嘴西路2967号D座(近丰和路滨江大道海鸥舫)"},{"poiid":"B2094654DB6AA0FF409B","title":"海鸥滨江观景餐厅","lon":"121.49178","lat":"31.24379","category":"91","category_name":"台湾菜","address":"虹口区黄浦路60号海鸥饭店外防汛墙上(近苏州路)"},{"poiid":"B2094655D26DA3FF489B","title":"外滩12号大楼","lon":"121.497","lat":"31.2418","category":"46","category_name":"楼宇","address":"黄浦区中山东一路12号"},{"poiid":"B2094750D26FA3FE4698","title":"上海大自然野生昆虫馆","lon":"121.497772","lat":"31.240335","category":"627","category_name":"一般地点标志","address":"上海市浦东新区丰和路1号"},{"poiid":"B2094655D26AAAFA4692","title":"非常时髦餐厅 西餐厅 VUE Restaurant","lon":"121.492828054","lat":"31.244858793","category":"94","category_name":"西餐厅","address":"黄浦路199号上海外滩茂悦大酒店西楼30-31楼近武昌路东大名路"},{"poiid":"B2094757D16AA6FE4393","title":"海鸥坊","lon":"121.493078738","lat":"31.2429645715","category":"500","category_name":"未知分类","address":"上海陆家嘴滨江大道"},{"poiid":"B2094654DA6FA4F94593","title":"新黄浦金融大厦","lon":"121.495","lat":"31.2443","category":"46","category_name":"楼宇","address":"黄浦区南京东路61号"},{"poiid":"B2094757D068A1F44792","title":"hyatt on the bund","lon":"121.49350738","lat":"31.245241165","category":"219","category_name":"其他","address":"上海虹口区黄浦路199号"},{"poiid":"B2094757D169ABFF409D","title":"枫雅日本料理","lon":"121.495364738","lat":"31.2381594691","category":"95","category_name":"日本料理","address":"浦东新区陆家嘴西路2967号北滨江B座(近滨江大道)"},{"poiid":"B2094757D068A3F5429C","title":"香荟","lon":"121.49387","lat":"31.24487","category":"268","category_name":"自助","address":"虹口区黄浦路199号上海外滩茂悦大酒店西楼2楼(近武昌路)"},{"poiid":"B2094757DB6FA2FF419C","title":"避風塘","lon":"121.4943869958333","lat":"31.23857748583332","category":"500","category_name":"未知分类","address":"正大廣場"},{"poiid":"B2094654DA6FA7FD499F","title":"东方明珠游船码头","lon":"121.49693","lat":"31.24078","category":"34","category_name":"港口码头","address":"滨江大道2852号"},{"poiid":"B2094757D06FA3F9419B","title":"外滩70号","lon":"121.491915686","lat":"31.2439247339","category":"47","category_name":"住宅区","address":"虹口区黄浦路70号(海鸥饭店旁)"},{"poiid":"B2094757D069A3F8409A","title":"中央大厦","lon":"121.49451437013","lat":"31.24349460374","category":"46","category_name":"楼宇","address":"上海市四川中路321号"},{"poiid":"B2094655D36CA5FC439A","title":"大名路白渡桥","lon":"121.49374","lat":"31.24626","category":"38","category_name":"公交车站","address":""},{"poiid":"B2094757D468ABF84399","title":"上海早晨1846 Astor House","lon":"121.49121013388","lat":"31.244136011901","category":"74","category_name":"江苏菜","address":"黄浦路15号浦江饭店近长治路"},{"poiid":"B2094655D26EAAF4479C","title":"仙踪林(滨江店)","lon":"121.4957","lat":"31.23923","category":"247","category_name":"餐饮美食","address":"浦东新区陆家嘴西路2967号北滨江大道A座(丰和路陆家嘴西路)"},{"poiid":"B2094750DB69AAFF4398","title":"全景会所","lon":"121.493553","lat":"31.244453","category":"248","category_name":"生活娱乐","address":"黄埔路108号"},{"poiid":"B2094655D26BA3FD4399","title":"新大陆中国厨房 Xindalu-China Kitchen","lon":"121.492828054","lat":"31.244858793","category":"260","category_name":"其他","address":"虹口区黄浦路199号上海外滩茂悦大酒店东楼大堂(近武昌路)"},{"poiid":"B2094752D66FA2F4479A","title":"蒗葶泰式酒吧餐厅","lon":"121.498146","lat":"31.241444","category":"256","category_name":"外国餐厅","address":"上海市 滨江大道2600号"},{"poiid":"B2094654DA6FABFE459E","title":"高登金融大厦","lon":"121.497","lat":"31.2388","category":"46","category_name":"楼宇","address":"上海市黄浦区延安东路58号"},{"poiid":"B2094757DA6AAAF54598","title":"Matto","lon":"121.4938641230534","lat":"31.23920718760844","category":"247","category_name":"餐饮美食","address":"浦东正大广场1楼"},{"poiid":"B2094654DA6FA5FA4499","title":"解放日报大厦","lon":"121.491","lat":"31.2418","category":"46","category_name":"楼宇","address":"铁西兴华南街与十马路交汇处"},{"poiid":"B2094750DB6EA6F8429A","title":"上海苏荷国际青年旅舍外滩店","lon":"121.494377","lat":"31.244222","category":"251","category_name":"出行住宿","address":"虹口区大名路239号(近南浔路)"},{"poiid":"B2094752D66FAAFA439A","title":"Kathleen Waitan","lon":"121.494514","lat":"31.245559","category":"247","category_name":"餐饮美食","address":"黄浦路200号"},{"poiid":"B2094750D269A3FA4792","title":"上海港国际客运码头","lon":"121.494224","lat":"31.243591","category":"250","category_name":"公园户外","address":"东大名路500号"},{"poiid":"B2094757D06BA3FD4499","title":"俄罗斯驻上海总领事馆","lon":"121.49113","lat":"31.24361","category":"179","category_name":"音乐厅","address":"虹口区黄浦路20号(黄浦路金山路)"},{"poiid":"B2094757D068A5F54292","title":"人民英雄纪念塔","lon":"121.49044","lat":"31.24202","category":"260","category_name":"其他","address":"黄浦区中山东一路500号黄浦公园(近黄浦公园)"},{"poiid":"B2094757DB69A6F84493","title":"hoF bar&brasserie","lon":"121.497146","lat":"31.241518","category":"247","category_name":"餐饮美食","address":"陆家嘴环路1318号"},{"poiid":"B2094655D268A7F5489F","title":"汉庭酒店（外滩外白渡桥店）","lon":"121.49462","lat":"31.24575","category":"216","category_name":"经济型连锁酒店","address":"上海虹口区黄浦路200号A(近外白渡桥)  "},{"poiid":"B2094750DB6DA0F9409A","title":"上海东方明珠267米旋转餐厅","lon":"121.4954625","lat":"31.2414666","category":"247","category_name":"餐饮美食","address":null},{"poiid":"B2094752D36DABFB4299","title":"Capo at Rockbund","lon":"121.491364","lat":"31.24234","category":"500","category_name":"未知分类","address":"益豐外灘源5樓"},{"poiid":"B2094757D16CA1F54792","title":"黄埔号豪华游轮","lon":"121.49297","lat":"31.24429","category":"260","category_name":"其他","address":"虹口区黄浦路108号(黄浦路扬子江路)"},{"poiid":"B2094654DA6FA4FA4999","title":"上投大厦","lon":"121.494","lat":"31.2429","category":"46","category_name":"楼宇","address":"九江路111号"},{"poiid":"B2094654DA6FABFB409B","title":"福州大楼","lon":"121.494","lat":"31.2407","category":"46","category_name":"楼宇","address":"上海黄浦区江西中路170号(福州路口)"},{"poiid":"B2094655D26DA5FE4898","title":"滨江大道(三号门)","lon":"121.49707","lat":"31.24047","category":"116","category_name":"特色商业街","address":""},{"poiid":"B2094655D264A2FF489F","title":"佳成大厦","lon":"121.49242753967","lat":"31.241712946161","category":"46","category_name":"楼宇","address":"上海市闵行区莲花南路1500弄"},{"poiid":"B2094757D569A6FC409C","title":"许留山","lon":"121.491199","lat":"31.24170709","category":"95","category_name":"日本料理","address":"中山东一路外滩451"},{"poiid":"B2094757D665A4FC489B","title":"黄浦饭店","lon":"121.49260621534","lat":"31.244331714831","category":"76","category_name":"上海菜","address":"虹口区黄浦路106号"},{"poiid":"B2094654DB6AA6F8409C","title":"上海外滩茂悦大酒店","lon":"121.49345","lat":"31.24541","category":"268","category_name":"自助","address":"虹口区黄浦路199号上海外滩茂悦大酒店东楼3楼(黄浦路南浔路)"},{"poiid":"B2094654DA6FA5F8429A","title":"宏伊国际广场","lon":"121.491","lat":"31.2427","category":"46","category_name":"楼宇","address":"张杨路560号,张杨路620号"},{"poiid":"B2094654DA6FA7FD4993","title":"上海国际会议中心(Shanghai International Conference Center)","lon":"121.49694","lat":"31.23946","category":"185","category_name":"会展中心","address":"浦东新区滨江大道2727号(近丰和路)"},{"poiid":"B209475CD564A7F84292","title":"上海滩新天地店","lon":"121.47463","lat":"31.22164","category":"119","category_name":"商场","address":"\"太仓路181弄新天地北里15号\r\n\""},{"poiid":"B209475CD564A7F84392","title":"上海滩浦东香格里拉店","lon":"121.50058","lat":"31.23634","category":"119","category_name":"商场","address":"浦东富成路33号香格里拉酒店内大堂层"},{"poiid":"B2094757D06FA2FA419C","title":"非常时髦酒吧","lon":"121.49312","lat":"31.24427","category":"260","category_name":"其他","address":"虹口区黄浦路199号上海外滩茂悦大酒店西楼32楼(近武昌路)"},{"poiid":"B2094757D064A5FD4593","title":"外灘","lon":"121.49375073","lat":"31.240939528","category":"500","category_name":"未知分类","address":"上海市黄浦区南苏州路"},{"poiid":"B2094757D06FA1F8489C","title":"浦江饭店","lon":"121.490758631","lat":"31.2440953723","category":"215","category_name":"三星级宾馆","address":"上海虹口区黄浦路15号(近北苏州路)"},{"poiid":"B2094757D06FA7F5479A","title":"海鸥饭店","lon":"121.49201","lat":"31.24348","category":"217","category_name":"旅馆招待所","address":"上海市虹口区黄浦路60号(外滩地区,近北苏州路)"},{"poiid":"B2094757D06FA1FD439B","title":"COSTA COFFEE(新外滩店)","lon":"121.490879","lat":"31.240587","category":"65","category_name":"咖啡厅","address":"黄浦区中山东一路388号(北京东路口)"},{"poiid":"B2094757D06FA4FA429D","title":"小南国(国际会议中心店)","lon":"121.496985714","lat":"31.2393948139","category":"76","category_name":"上海菜","address":"浦东新区滨江大道2727号国际会议中心7楼(近东方明珠电视塔)"},{"poiid":"B2094655D26DAAF8459A","title":"The Kitchen Salvatore Cuomo","lon":"121.49733","lat":"31.24084","category":"94","category_name":"西餐厅","address":"浦东新区陆家嘴西路2967号D座(近丰和路滨江大道海鸥舫)"},{"poiid":"B2094654DB6AA0FF409B","title":"海鸥滨江观景餐厅","lon":"121.49178","lat":"31.24379","category":"91","category_name":"台湾菜","address":"虹口区黄浦路60号海鸥饭店外防汛墙上(近苏州路)"},{"poiid":"B2094655D26DA3FF489B","title":"外滩12号大楼","lon":"121.497","lat":"31.2418","category":"46","category_name":"楼宇","address":"黄浦区中山东一路12号"},{"poiid":"B2094750D26FA3FE4698","title":"上海大自然野生昆虫馆","lon":"121.497772","lat":"31.240335","category":"627","category_name":"一般地点标志","address":"上海市浦东新区丰和路1号"},{"poiid":"B2094655D26AAAFA4692","title":"非常时髦餐厅 西餐厅 VUE Restaurant","lon":"121.492828054","lat":"31.244858793","category":"94","category_name":"西餐厅","address":"黄浦路199号上海外滩茂悦大酒店西楼30-31楼近武昌路东大名路"},{"poiid":"B2094757D16AA6FE4393","title":"海鸥坊","lon":"121.493078738","lat":"31.2429645715","category":"500","category_name":"未知分类","address":"上海陆家嘴滨江大道"},{"poiid":"B2094654DA6FA4F94593","title":"新黄浦金融大厦","lon":"121.495","lat":"31.2443","category":"46","category_name":"楼宇","address":"黄浦区南京东路61号"},{"poiid":"B2094757D068A1F44792","title":"hyatt on the bund","lon":"121.49350738","lat":"31.245241165","category":"219","category_name":"其他","address":"上海虹口区黄浦路199号"},{"poiid":"B2094757D169ABFF409D","title":"枫雅日本料理","lon":"121.495364738","lat":"31.2381594691","category":"95","category_name":"日本料理","address":"浦东新区陆家嘴西路2967号北滨江B座(近滨江大道)"},{"poiid":"B2094757D068A3F5429C","title":"香荟","lon":"121.49387","lat":"31.24487","category":"268","category_name":"自助","address":"虹口区黄浦路199号上海外滩茂悦大酒店西楼2楼(近武昌路)"},{"poiid":"B2094757DB6FA2FF419C","title":"避風塘","lon":"121.4943869958333","lat":"31.23857748583332","category":"500","category_name":"未知分类","address":"正大廣場"},{"poiid":"B2094654DA6FA7FD499F","title":"东方明珠游船码头","lon":"121.49693","lat":"31.24078","category":"34","category_name":"港口码头","address":"滨江大道2852号"},{"poiid":"B2094757D06FA3F9419B","title":"外滩70号","lon":"121.491915686","lat":"31.2439247339","category":"47","category_name":"住宅区","address":"虹口区黄浦路70号(海鸥饭店旁)"},{"poiid":"B2094757D069A3F8409A","title":"中央大厦","lon":"121.49451437013","lat":"31.24349460374","category":"46","category_name":"楼宇","address":"上海市四川中路321号"},{"poiid":"B2094655D36CA5FC439A","title":"大名路白渡桥","lon":"121.49374","lat":"31.24626","category":"38","category_name":"公交车站","address":""},{"poiid":"B2094757D468ABF84399","title":"上海早晨1846 Astor House","lon":"121.49121013388","lat":"31.244136011901","category":"74","category_name":"江苏菜","address":"黄浦路15号浦江饭店近长治路"},{"poiid":"B2094655D26EAAF4479C","title":"仙踪林(滨江店)","lon":"121.4957","lat":"31.23923","category":"247","category_name":"餐饮美食","address":"浦东新区陆家嘴西路2967号北滨江大道A座(丰和路陆家嘴西路)"},{"poiid":"B2094750DB69AAFF4398","title":"全景会所","lon":"121.493553","lat":"31.244453","category":"248","category_name":"生活娱乐","address":"黄埔路108号"},{"poiid":"B2094655D26BA3FD4399","title":"新大陆中国厨房 Xindalu-China Kitchen","lon":"121.492828054","lat":"31.244858793","category":"260","category_name":"其他","address":"虹口区黄浦路199号上海外滩茂悦大酒店东楼大堂(近武昌路)"},{"poiid":"B2094752D66FA2F4479A","title":"蒗葶泰式酒吧餐厅","lon":"121.498146","lat":"31.241444","category":"256","category_name":"外国餐厅","address":"上海市 滨江大道2600号"},{"poiid":"B2094654DA6FABFE459E","title":"高登金融大厦","lon":"121.497","lat":"31.2388","category":"46","category_name":"楼宇","address":"上海市黄浦区延安东路58号"},{"poiid":"B2094757DA6AAAF54598","title":"Matto","lon":"121.4938641230534","lat":"31.23920718760844","category":"247","category_name":"餐饮美食","address":"浦东正大广场1楼"},{"poiid":"B2094654DA6FA5FA4499","title":"解放日报大厦","lon":"121.491","lat":"31.2418","category":"46","category_name":"楼宇","address":"铁西兴华南街与十马路交汇处"},{"poiid":"B2094750DB6EA6F8429A","title":"上海苏荷国际青年旅舍外滩店","lon":"121.494377","lat":"31.244222","category":"251","category_name":"出行住宿","address":"虹口区大名路239号(近南浔路)"},{"poiid":"B2094752D66FAAFA439A","title":"Kathleen Waitan","lon":"121.494514","lat":"31.245559","category":"247","category_name":"餐饮美食","address":"黄浦路200号"},{"poiid":"B2094750D269A3FA4792","title":"上海港国际客运码头","lon":"121.494224","lat":"31.243591","category":"250","category_name":"公园户外","address":"东大名路500号"},{"poiid":"B2094757D06BA3FD4499","title":"俄罗斯驻上海总领事馆","lon":"121.49113","lat":"31.24361","category":"179","category_name":"音乐厅","address":"虹口区黄浦路20号(黄浦路金山路)"},{"poiid":"B2094757D068A5F54292","title":"人民英雄纪念塔","lon":"121.49044","lat":"31.24202","category":"260","category_name":"其他","address":"黄浦区中山东一路500号黄浦公园(近黄浦公园)"},{"poiid":"B2094757DB69A6F84493","title":"hoF bar&brasserie","lon":"121.497146","lat":"31.241518","category":"247","category_name":"餐饮美食","address":"陆家嘴环路1318号"},{"poiid":"B2094655D268A7F5489F","title":"汉庭酒店（外滩外白渡桥店）","lon":"121.49462","lat":"31.24575","category":"216","category_name":"经济型连锁酒店","address":"上海虹口区黄浦路200号A(近外白渡桥)  "},{"poiid":"B2094750DB6DA0F9409A","title":"上海东方明珠267米旋转餐厅","lon":"121.4954625","lat":"31.2414666","category":"247","category_name":"餐饮美食","address":null},{"poiid":"B2094752D36DABFB4299","title":"Capo at Rockbund","lon":"121.491364","lat":"31.24234","category":"500","category_name":"未知分类","address":"益豐外灘源5樓"},{"poiid":"B2094757D16CA1F54792","title":"黄埔号豪华游轮","lon":"121.49297","lat":"31.24429","category":"260","category_name":"其他","address":"虹口区黄浦路108号(黄浦路扬子江路)"},{"poiid":"B2094654DA6FA4FA4999","title":"上投大厦","lon":"121.494","lat":"31.2429","category":"46","category_name":"楼宇","address":"九江路111号"},{"poiid":"B2094654DA6FABFB409B","title":"福州大楼","lon":"121.494","lat":"31.2407","category":"46","category_name":"楼宇","address":"上海黄浦区江西中路170号(福州路口)"},{"poiid":"B2094655D26DA5FE4898","title":"滨江大道(三号门)","lon":"121.49707","lat":"31.24047","category":"116","category_name":"特色商业街","address":""},{"poiid":"B2094655D264A2FF489F","title":"佳成大厦","lon":"121.49242753967","lat":"31.241712946161","category":"46","category_name":"楼宇","address":"上海市闵行区莲花南路1500弄"},{"poiid":"B2094757D569A6FC409C","title":"许留山","lon":"121.491199","lat":"31.24170709","category":"95","category_name":"日本料理","address":"中山东一路外滩451"},{"poiid":"B2094757D665A4FC489B","title":"黄浦饭店","lon":"121.49260621534","lat":"31.244331714831","category":"76","category_name":"上海菜","address":"虹口区黄浦路106号"},{"poiid":"B2094654DB6AA6F8409C","title":"上海外滩茂悦大酒店","lon":"121.49345","lat":"31.24541","category":"268","category_name":"自助","address":"虹口区黄浦路199号上海外滩茂悦大酒店东楼3楼(黄浦路南浔路)"},{"poiid":"B2094654DA6FA5F8429A","title":"宏伊国际广场","lon":"121.491","lat":"31.2427","category":"46","category_name":"楼宇","address":"张杨路560号,张杨路620号"},{"poiid":"B2094654DA6FA7FD4993","title":"上海国际会议中心(Shanghai International Conference Center)","lon":"121.49694","lat":"31.23946","category":"185","category_name":"会展中心","address":"浦东新区滨江大道2727号(近丰和路)"},{"poiid":"B209475CD564A7F84292","title":"上海滩新天地店","lon":"121.47463","lat":"31.22164","category":"119","category_name":"商场","address":"\"太仓路181弄新天地北里15号\r\n\""},{"poiid":"B209475CD564A7F84392","title":"上海滩浦东香格里拉店","lon":"121.50058","lat":"31.23634","category":"119","category_name":"商场","address":"浦东富成路33号香格里拉酒店内大堂层"},{"poiid":"B2094757D06FA2FA419C","title":"非常时髦酒吧","lon":"121.49312","lat":"31.24427","category":"260","category_name":"其他","address":"虹口区黄浦路199号上海外滩茂悦大酒店西楼32楼(近武昌路)"},{"poiid":"B2094757D064A5FD4593","title":"外灘","lon":"121.49375073","lat":"31.240939528","category":"500","category_name":"未知分类","address":"上海市黄浦区南苏州路"},{"poiid":"B2094757D06FA1F8489C","title":"浦江饭店","lon":"121.490758631","lat":"31.2440953723","category":"215","category_name":"三星级宾馆","address":"上海虹口区黄浦路15号(近北苏州路)"},{"poiid":"B2094757D06FA7F5479A","title":"海鸥饭店","lon":"121.49201","lat":"31.24348","category":"217","category_name":"旅馆招待所","address":"上海市虹口区黄浦路60号(外滩地区,近北苏州路)"},{"poiid":"B2094757D06FA1FD439B","title":"COSTA COFFEE(新外滩店)","lon":"121.490879","lat":"31.240587","category":"65","category_name":"咖啡厅","address":"黄浦区中山东一路388号(北京东路口)"},{"poiid":"B2094757D06FA4FA429D","title":"小南国(国际会议中心店)","lon":"121.496985714","lat":"31.2393948139","category":"76","category_name":"上海菜","address":"浦东新区滨江大道2727号国际会议中心7楼(近东方明珠电视塔)"},{"poiid":"B2094655D26DAAF8459A","title":"The Kitchen Salvatore Cuomo","lon":"121.49733","lat":"31.24084","category":"94","category_name":"西餐厅","address":"浦东新区陆家嘴西路2967号D座(近丰和路滨江大道海鸥舫)"},{"poiid":"B2094654DB6AA0FF409B","title":"海鸥滨江观景餐厅","lon":"121.49178","lat":"31.24379","category":"91","category_name":"台湾菜","address":"虹口区黄浦路60号海鸥饭店外防汛墙上(近苏州路)"},{"poiid":"B2094655D26DA3FF489B","title":"外滩12号大楼","lon":"121.497","lat":"31.2418","category":"46","category_name":"楼宇","address":"黄浦区中山东一路12号"},{"poiid":"B2094750D26FA3FE4698","title":"上海大自然野生昆虫馆","lon":"121.497772","lat":"31.240335","category":"627","category_name":"一般地点标志","address":"上海市浦东新区丰和路1号"},{"poiid":"B2094655D26AAAFA4692","title":"非常时髦餐厅 西餐厅 VUE Restaurant","lon":"121.492828054","lat":"31.244858793","category":"94","category_name":"西餐厅","address":"黄浦路199号上海外滩茂悦大酒店西楼30-31楼近武昌路东大名路"},{"poiid":"B2094757D16AA6FE4393","title":"海鸥坊","lon":"121.493078738","lat":"31.2429645715","category":"500","category_name":"未知分类","address":"上海陆家嘴滨江大道"},{"poiid":"B2094654DA6FA4F94593","title":"新黄浦金融大厦","lon":"121.495","lat":"31.2443","category":"46","category_name":"楼宇","address":"黄浦区南京东路61号"},{"poiid":"B2094757D068A1F44792","title":"hyatt on the bund","lon":"121.49350738","lat":"31.245241165","category":"219","category_name":"其他","address":"上海虹口区黄浦路199号"},{"poiid":"B2094757D169ABFF409D","title":"枫雅日本料理","lon":"121.495364738","lat":"31.2381594691","category":"95","category_name":"日本料理","address":"浦东新区陆家嘴西路2967号北滨江B座(近滨江大道)"},{"poiid":"B2094757D068A3F5429C","title":"香荟","lon":"121.49387","lat":"31.24487","category":"268","category_name":"自助","address":"虹口区黄浦路199号上海外滩茂悦大酒店西楼2楼(近武昌路)"},{"poiid":"B2094757DB6FA2FF419C","title":"避風塘","lon":"121.4943869958333","lat":"31.23857748583332","category":"500","category_name":"未知分类","address":"正大廣場"},{"poiid":"B2094654DA6FA7FD499F","title":"东方明珠游船码头","lon":"121.49693","lat":"31.24078","category":"34","category_name":"港口码头","address":"滨江大道2852号"},{"poiid":"B2094757D06FA3F9419B","title":"外滩70号","lon":"121.491915686","lat":"31.2439247339","category":"47","category_name":"住宅区","address":"虹口区黄浦路70号(海鸥饭店旁)"},{"poiid":"B2094757D069A3F8409A","title":"中央大厦","lon":"121.49451437013","lat":"31.24349460374","category":"46","category_name":"楼宇","address":"上海市四川中路321号"},{"poiid":"B2094655D36CA5FC439A","title":"大名路白渡桥","lon":"121.49374","lat":"31.24626","category":"38","category_name":"公交车站","address":""},{"poiid":"B2094757D468ABF84399","title":"上海早晨1846 Astor House","lon":"121.49121013388","lat":"31.244136011901","category":"74","category_name":"江苏菜","address":"黄浦路15号浦江饭店近长治路"},{"poiid":"B2094655D26EAAF4479C","title":"仙踪林(滨江店)","lon":"121.4957","lat":"31.23923","category":"247","category_name":"餐饮美食","address":"浦东新区陆家嘴西路2967号北滨江大道A座(丰和路陆家嘴西路)"},{"poiid":"B2094750DB69AAFF4398","title":"全景会所","lon":"121.493553","lat":"31.244453","category":"248","category_name":"生活娱乐","address":"黄埔路108号"},{"poiid":"B2094655D26BA3FD4399","title":"新大陆中国厨房 Xindalu-China Kitchen","lon":"121.492828054","lat":"31.244858793","category":"260","category_name":"其他","address":"虹口区黄浦路199号上海外滩茂悦大酒店东楼大堂(近武昌路)"},{"poiid":"B2094752D66FA2F4479A","title":"蒗葶泰式酒吧餐厅","lon":"121.498146","lat":"31.241444","category":"256","category_name":"外国餐厅","address":"上海市 滨江大道2600号"},{"poiid":"B2094654DA6FABFE459E","title":"高登金融大厦","lon":"121.497","lat":"31.2388","category":"46","category_name":"楼宇","address":"上海市黄浦区延安东路58号"},{"poiid":"B2094757DA6AAAF54598","title":"Matto","lon":"121.4938641230534","lat":"31.23920718760844","category":"247","category_name":"餐饮美食","address":"浦东正大广场1楼"},{"poiid":"B2094654DA6FA5FA4499","title":"解放日报大厦","lon":"121.491","lat":"31.2418","category":"46","category_name":"楼宇","address":"铁西兴华南街与十马路交汇处"},{"poiid":"B2094750DB6EA6F8429A","title":"上海苏荷国际青年旅舍外滩店","lon":"121.494377","lat":"31.244222","category":"251","category_name":"出行住宿","address":"虹口区大名路239号(近南浔路)"},{"poiid":"B2094752D66FAAFA439A","title":"Kathleen Waitan","lon":"121.494514","lat":"31.245559","category":"247","category_name":"餐饮美食","address":"黄浦路200号"},{"poiid":"B2094750D269A3FA4792","title":"上海港国际客运码头","lon":"121.494224","lat":"31.243591","category":"250","category_name":"公园户外","address":"东大名路500号"},{"poiid":"B2094757D06BA3FD4499","title":"俄罗斯驻上海总领事馆","lon":"121.49113","lat":"31.24361","category":"179","category_name":"音乐厅","address":"虹口区黄浦路20号(黄浦路金山路)"},{"poiid":"B2094757D068A5F54292","title":"人民英雄纪念塔","lon":"121.49044","lat":"31.24202","category":"260","category_name":"其他","address":"黄浦区中山东一路500号黄浦公园(近黄浦公园)"},{"poiid":"B2094757DB69A6F84493","title":"hoF bar&brasserie","lon":"121.497146","lat":"31.241518","category":"247","category_name":"餐饮美食","address":"陆家嘴环路1318号"},{"poiid":"B2094655D268A7F5489F","title":"汉庭酒店（外滩外白渡桥店）","lon":"121.49462","lat":"31.24575","category":"216","category_name":"经济型连锁酒店","address":"上海虹口区黄浦路200号A(近外白渡桥)  "},{"poiid":"B2094750DB6DA0F9409A","title":"上海东方明珠267米旋转餐厅","lon":"121.4954625","lat":"31.2414666","category":"247","category_name":"餐饮美食","address":null},{"poiid":"B2094752D36DABFB4299","title":"Capo at Rockbund","lon":"121.491364","lat":"31.24234","category":"500","category_name":"未知分类","address":"益豐外灘源5樓"},{"poiid":"B2094757D16CA1F54792","title":"黄埔号豪华游轮","lon":"121.49297","lat":"31.24429","category":"260","category_name":"其他","address":"虹口区黄浦路108号(黄浦路扬子江路)"},{"poiid":"B2094654DA6FA4FA4999","title":"上投大厦","lon":"121.494","lat":"31.2429","category":"46","category_name":"楼宇","address":"九江路111号"},{"poiid":"B2094654DA6FABFB409B","title":"福州大楼","lon":"121.494","lat":"31.2407","category":"46","category_name":"楼宇","address":"上海黄浦区江西中路170号(福州路口)"},{"poiid":"B2094655D26DA5FE4898","title":"滨江大道(三号门)","lon":"121.49707","lat":"31.24047","category":"116","category_name":"特色商业街","address":""},{"poiid":"B2094655D264A2FF489F","title":"佳成大厦","lon":"121.49242753967","lat":"31.241712946161","category":"46","category_name":"楼宇","address":"上海市闵行区莲花南路1500弄"},{"poiid":"B2094757D569A6FC409C","title":"许留山","lon":"121.491199","lat":"31.24170709","category":"95","category_name":"日本料理","address":"中山东一路外滩451"},{"poiid":"B2094757D665A4FC489B","title":"黄浦饭店","lon":"121.49260621534","lat":"31.244331714831","category":"76","category_name":"上海菜","address":"虹口区黄浦路106号"},{"poiid":"B2094654DB6AA6F8409C","title":"上海外滩茂悦大酒店","lon":"121.49345","lat":"31.24541","category":"268","category_name":"自助","address":"虹口区黄浦路199号上海外滩茂悦大酒店东楼3楼(黄浦路南浔路)"},{"poiid":"B2094654DA6FA5F8429A","title":"宏伊国际广场","lon":"121.491","lat":"31.2427","category":"46","category_name":"楼宇","address":"张杨路560号,张杨路620号"},{"poiid":"B2094654DA6FA7FD4993","title":"上海国际会议中心(Shanghai International Conference Center)","lon":"121.49694","lat":"31.23946","category":"185","category_name":"会展中心","address":"浦东新区滨江大道2727号(近丰和路)"},{"poiid":"B209475CD564A7F84292","title":"上海滩新天地店","lon":"121.47463","lat":"31.22164","category":"119","category_name":"商场","address":"\"太仓路181弄新天地北里15号\r\n\""},{"poiid":"B209475CD564A7F84392","title":"上海滩浦东香格里拉店","lon":"121.50058","lat":"31.23634","category":"119","category_name":"商场","address":"浦东富成路33号香格里拉酒店内大堂层"},{"poiid":"B2094757D06FA2FA419C","title":"非常时髦酒吧","lon":"121.49312","lat":"31.24427","category":"260","category_name":"其他","address":"虹口区黄浦路199号上海外滩茂悦大酒店西楼32楼(近武昌路)"},{"poiid":"B2094757D064A5FD4593","title":"外灘","lon":"121.49375073","lat":"31.240939528","category":"500","category_name":"未知分类","address":"上海市黄浦区南苏州路"},{"poiid":"B2094757D06FA1F8489C","title":"浦江饭店","lon":"121.490758631","lat":"31.2440953723","category":"215","category_name":"三星级宾馆","address":"上海虹口区黄浦路15号(近北苏州路)"},{"poiid":"B2094757D06FA7F5479A","title":"海鸥饭店","lon":"121.49201","lat":"31.24348","category":"217","category_name":"旅馆招待所","address":"上海市虹口区黄浦路60号(外滩地区,近北苏州路)"},{"poiid":"B2094757D06FA1FD439B","title":"COSTA COFFEE(新外滩店)","lon":"121.490879","lat":"31.240587","category":"65","category_name":"咖啡厅","address":"黄浦区中山东一路388号(北京东路口)"},{"poiid":"B2094757D06FA4FA429D","title":"小南国(国际会议中心店)","lon":"121.496985714","lat":"31.2393948139","category":"76","category_name":"上海菜","address":"浦东新区滨江大道2727号国际会议中心7楼(近东方明珠电视塔)"},{"poiid":"B2094655D26DAAF8459A","title":"The Kitchen Salvatore Cuomo","lon":"121.49733","lat":"31.24084","category":"94","category_name":"西餐厅","address":"浦东新区陆家嘴西路2967号D座(近丰和路滨江大道海鸥舫)"},{"poiid":"B2094654DB6AA0FF409B","title":"海鸥滨江观景餐厅","lon":"121.49178","lat":"31.24379","category":"91","category_name":"台湾菜","address":"虹口区黄浦路60号海鸥饭店外防汛墙上(近苏州路)"},{"poiid":"B2094655D26DA3FF489B","title":"外滩12号大楼","lon":"121.497","lat":"31.2418","category":"46","category_name":"楼宇","address":"黄浦区中山东一路12号"},{"poiid":"B2094750D26FA3FE4698","title":"上海大自然野生昆虫馆","lon":"121.497772","lat":"31.240335","category":"627","category_name":"一般地点标志","address":"上海市浦东新区丰和路1号"},{"poiid":"B2094655D26AAAFA4692","title":"非常时髦餐厅 西餐厅 VUE Restaurant","lon":"121.492828054","lat":"31.244858793","category":"94","category_name":"西餐厅","address":"黄浦路199号上海外滩茂悦大酒店西楼30-31楼近武昌路东大名路"},{"poiid":"B2094757D16AA6FE4393","title":"海鸥坊","lon":"121.493078738","lat":"31.2429645715","category":"500","category_name":"未知分类","address":"上海陆家嘴滨江大道"},{"poiid":"B2094654DA6FA4F94593","title":"新黄浦金融大厦","lon":"121.495","lat":"31.2443","category":"46","category_name":"楼宇","address":"黄浦区南京东路61号"},{"poiid":"B2094757D068A1F44792","title":"hyatt on the bund","lon":"121.49350738","lat":"31.245241165","category":"219","category_name":"其他","address":"上海虹口区黄浦路199号"},{"poiid":"B2094757D169ABFF409D","title":"枫雅日本料理","lon":"121.495364738","lat":"31.2381594691","category":"95","category_name":"日本料理","address":"浦东新区陆家嘴西路2967号北滨江B座(近滨江大道)"},{"poiid":"B2094757D068A3F5429C","title":"香荟","lon":"121.49387","lat":"31.24487","category":"268","category_name":"自助","address":"虹口区黄浦路199号上海外滩茂悦大酒店西楼2楼(近武昌路)"},{"poiid":"B2094757DB6FA2FF419C","title":"避風塘","lon":"121.4943869958333","lat":"31.23857748583332","category":"500","category_name":"未知分类","address":"正大廣場"},{"poiid":"B2094654DA6FA7FD499F","title":"东方明珠游船码头","lon":"121.49693","lat":"31.24078","category":"34","category_name":"港口码头","address":"滨江大道2852号"},{"poiid":"B2094757D06FA3F9419B","title":"外滩70号","lon":"121.491915686","lat":"31.2439247339","category":"47","category_name":"住宅区","address":"虹口区黄浦路70号(海鸥饭店旁)"},{"poiid":"B2094757D069A3F8409A","title":"中央大厦","lon":"121.49451437013","lat":"31.24349460374","category":"46","category_name":"楼宇","address":"上海市四川中路321号"},{"poiid":"B2094655D36CA5FC439A","title":"大名路白渡桥","lon":"121.49374","lat":"31.24626","category":"38","category_name":"公交车站","address":""},{"poiid":"B2094757D468ABF84399","title":"上海早晨1846 Astor House","lon":"121.49121013388","lat":"31.244136011901","category":"74","category_name":"江苏菜","address":"黄浦路15号浦江饭店近长治路"},{"poiid":"B2094655D26EAAF4479C","title":"仙踪林(滨江店)","lon":"121.4957","lat":"31.23923","category":"247","category_name":"餐饮美食","address":"浦东新区陆家嘴西路2967号北滨江大道A座(丰和路陆家嘴西路)"},{"poiid":"B2094750DB69AAFF4398","title":"全景会所","lon":"121.493553","lat":"31.244453","category":"248","category_name":"生活娱乐","address":"黄埔路108号"},{"poiid":"B2094655D26BA3FD4399","title":"新大陆中国厨房 Xindalu-China Kitchen","lon":"121.492828054","lat":"31.244858793","category":"260","category_name":"其他","address":"虹口区黄浦路199号上海外滩茂悦大酒店东楼大堂(近武昌路)"},{"poiid":"B2094752D66FA2F4479A","title":"蒗葶泰式酒吧餐厅","lon":"121.498146","lat":"31.241444","category":"256","category_name":"外国餐厅","address":"上海市 滨江大道2600号"},{"poiid":"B2094654DA6FABFE459E","title":"高登金融大厦","lon":"121.497","lat":"31.2388","category":"46","category_name":"楼宇","address":"上海市黄浦区延安东路58号"},{"poiid":"B2094757DA6AAAF54598","title":"Matto","lon":"121.4938641230534","lat":"31.23920718760844","category":"247","category_name":"餐饮美食","address":"浦东正大广场1楼"},{"poiid":"B2094654DA6FA5FA4499","title":"解放日报大厦","lon":"121.491","lat":"31.2418","category":"46","category_name":"楼宇","address":"铁西兴华南街与十马路交汇处"},{"poiid":"B2094750DB6EA6F8429A","title":"上海苏荷国际青年旅舍外滩店","lon":"121.494377","lat":"31.244222","category":"251","category_name":"出行住宿","address":"虹口区大名路239号(近南浔路)"},{"poiid":"B2094752D66FAAFA439A","title":"Kathleen Waitan","lon":"121.494514","lat":"31.245559","category":"247","category_name":"餐饮美食","address":"黄浦路200号"},{"poiid":"B2094750D269A3FA4792","title":"上海港国际客运码头","lon":"121.494224","lat":"31.243591","category":"250","category_name":"公园户外","address":"东大名路500号"},{"poiid":"B2094757D06BA3FD4499","title":"俄罗斯驻上海总领事馆","lon":"121.49113","lat":"31.24361","category":"179","category_name":"音乐厅","address":"虹口区黄浦路20号(黄浦路金山路)"},{"poiid":"B2094757D068A5F54292","title":"人民英雄纪念塔","lon":"121.49044","lat":"31.24202","category":"260","category_name":"其他","address":"黄浦区中山东一路500号黄浦公园(近黄浦公园)"},{"poiid":"B2094757DB69A6F84493","title":"hoF bar&brasserie","lon":"121.497146","lat":"31.241518","category":"247","category_name":"餐饮美食","address":"陆家嘴环路1318号"},{"poiid":"B2094655D268A7F5489F","title":"汉庭酒店（外滩外白渡桥店）","lon":"121.49462","lat":"31.24575","category":"216","category_name":"经济型连锁酒店","address":"上海虹口区黄浦路200号A(近外白渡桥)  "},{"poiid":"B2094750DB6DA0F9409A","title":"上海东方明珠267米旋转餐厅","lon":"121.4954625","lat":"31.2414666","category":"247","category_name":"餐饮美食","address":null},{"poiid":"B2094752D36DABFB4299","title":"Capo at Rockbund","lon":"121.491364","lat":"31.24234","category":"500","category_name":"未知分类","address":"益豐外灘源5樓"},{"poiid":"B2094757D16CA1F54792","title":"黄埔号豪华游轮","lon":"121.49297","lat":"31.24429","category":"260","category_name":"其他","address":"虹口区黄浦路108号(黄浦路扬子江路)"},{"poiid":"B2094654DA6FA4FA4999","title":"上投大厦","lon":"121.494","lat":"31.2429","category":"46","category_name":"楼宇","address":"九江路111号"},{"poiid":"B2094654DA6FABFB409B","title":"福州大楼","lon":"121.494","lat":"31.2407","category":"46","category_name":"楼宇","address":"上海黄浦区江西中路170号(福州路口)"},{"poiid":"B2094655D26DA5FE4898","title":"滨江大道(三号门)","lon":"121.49707","lat":"31.24047","category":"116","category_name":"特色商业街","address":""},{"poiid":"B2094655D264A2FF489F","title":"佳成大厦","lon":"121.49242753967","lat":"31.241712946161","category":"46","category_name":"楼宇","address":"上海市闵行区莲花南路1500弄"},{"poiid":"B2094757D569A6FC409C","title":"许留山","lon":"121.491199","lat":"31.24170709","category":"95","category_name":"日本料理","address":"中山东一路外滩451"},{"poiid":"B2094757D665A4FC489B","title":"黄浦饭店","lon":"121.49260621534","lat":"31.244331714831","category":"76","category_name":"上海菜","address":"虹口区黄浦路106号"}]