[{"poiid":"B2094654DA69A7FB4599","title":"金茂大厦","lon":"121.5124569976","lat":"31.240872238236","category":"46","category_name":"楼宇","address":"浦东新区世纪大道88号金茂大厦内(近二号线陆家嘴站)"},{"poiid":"B2094654DB6BAAF8479D","title":"环球金融中心","lon":"121.514","lat":"31.241","category":"46","category_name":"楼宇","address":"上海市浦东新区陆家嘴世纪大道8号"},{"poiid":"B2094757D06EAAF4499F","title":"柚子(陆家嘴店)","lon":"121.50722621","lat":"31.240286474","category":"95","category_name":"日本料理","address":"浦东新区陆家嘴环路1000号恒生大楼46楼(近银城中路)"},{"poiid":"B209475CD564A7F84392","title":"上海滩浦东香格里拉店","lon":"121.50058","lat":"31.23634","category":"119","category_name":"商场","address":"浦东富成路33号香格里拉酒店内大堂层"},{"poiid":"B2094757D06FA3F8439A","title":"时代金融中心","lon":"121.513","lat":"31.2467","category":"46","category_name":"楼宇","address":"上海市浦东新区银城中路68号"},{"poiid":"B2094757D06EAAFC429A","title":"恒生银行大厦","lon":"121.50714642","lat":"31.240029324","category":"46","category_name":"楼宇","address":"浦东新区金湘路225弄"},{"poiid":"B2094654DA6FA7FE449F","title":"未来资产大厦","lon":"121.50676432182","lat":"31.240975297556","category":"46","category_name":"楼宇","address":"卫清西路139_149号等"},{"poiid":"B2094655D268A3FB439E","title":"东亚银行金融大厦","lon":"121.509","lat":"31.2399","category":"46","category_name":"楼宇","address":"陆家嘴花园石桥路66号"},{"poiid":"B2094757D06FABFD4792","title":"中融碧玉蓝天大厦","lon":"121.507242203","lat":"31.2415278323","category":"46","category_name":"楼宇","address":"上海市浦东新区银城中路8号"},{"poiid":"B2094655D268A4F9409E","title":"太平金融大厦","lon":"121.51","lat":"31.2396","category":"46","category_name":"楼宇","address":"上海市浦东新区陆家嘴环路、花园石桥路"},{"poiid":"B2094757D06FA1FA4498","title":"招商局大厦","lon":"121.515135","lat":"31.242879","category":"46","category_name":"楼宇","address":"浦东新区陆家嘴东路161号"},{"poiid":"B2094757D068A2FC4593","title":"民生银行大厦(陆家嘴)","lon":"121.50841305","lat":"31.240807181","category":"46","category_name":"楼宇","address":"上海浦东新区浦东南路100号(浦东南路银城中路)"},{"poiid":"B2094757D06FA2F4419E","title":"新上海国际大厦","lon":"121.50929927","lat":"31.238815674","category":"46","category_name":"楼宇","address":"浦东南路360号，中国人民银行北侧"},{"poiid":"B2094757D06FA4FA499A","title":"晶采轩(浦东店)","lon":"121.50676","lat":"31.24102","category":"72","category_name":"广东菜","address":"浦东新区银城中路68号时代金融中心2-3楼(金洲街银城中路)"},{"poiid":"B2094751D36BA4F5469D","title":"上海浦东文华东方酒店","lon":"121.50686659720611","lat":"31.243665106676545","category":"251","category_name":"出行住宿","address":"浦东新区浦东南路111号"},{"poiid":"B2094757D06FA6FD479E","title":"工行上海分行","lon":"121.51130276","lat":"31.23914032","category":"500","category_name":"未知分类","address":"上海浦東大道9號"},{"poiid":"B2094655D26FA5FF479B","title":"华能联合大厦","lon":"121.515","lat":"31.245","category":"46","category_name":"楼宇","address":"朝阳华威桥东北角"},{"poiid":"B2094757D068AAFC469B","title":"保利广场","lon":"121.514956916","lat":"31.2433600232","category":"500","category_name":"未知分类","address":"闸北区共和新路3703,3737号"},{"poiid":"B2094757D06FA7F9449C","title":"瑞慈健康管理中心(华夏银行店)","lon":"121.50933","lat":"31.2392","category":"162","category_name":"医院","address":"浦东新区浦东南路256号华夏银行大厦3楼(近浦东大道)"},{"poiid":"B2094757D06FA7F54993","title":"老山东鲁菜馆","lon":"121.510469","lat":"31.239297","category":"73","category_name":"山东菜","address":"浦东新区浦东南路379号金穗大厦6楼(近浦东大道)"},{"poiid":"B2094757D068A4FE4098","title":"顺峰(浦东银城店)","lon":"121.50784301","lat":"31.24158287","category":"72","category_name":"广东菜","address":"浦东新区银城中路8号碧玉蓝天3-4楼(金洲街银城中路)"},{"poiid":"B2094757D06FAAFF439E","title":"中国船舶大厦","lon":"121.510881","lat":"31.238821","category":"46","category_name":"楼宇","address":"上海市宝山区牡丹江路1228号"},{"poiid":"B2094757D06FA2FF419F","title":"星巴克(时代金融店)","lon":"121.506498","lat":"31.241296","category":"65","category_name":"咖啡厅","address":"浦东新区银城中路68号时代金融中心2楼(近汇丰大厦)"},{"poiid":"B2094757D068A6FC449A","title":"即墨路","lon":"121.51289367","lat":"31.239175796","category":"500","category_name":"未知分类","address":"上海即墨路"},{"poiid":"B2094655D26FA5FE4498","title":"汇丰大厦","lon":"121.514","lat":"31.2458","category":"46","category_name":"楼宇","address":"上海陆家嘴环路1000号"},{"poiid":"B2094655D268A4F4449A","title":"浦江双辉大厦","lon":"121.51042","lat":"31.24277","category":"46","category_name":"楼宇","address":"静安区南京西路555路"},{"poiid":"B2094753DB68A4F84292","title":"上海浦东文华东方大酒店","lon":"121.507225","lat":"31.243402","category":"500","category_name":"未知分类","address":"上海市 浦东南路111号"},{"poiid":"B2094753D26FA4F8429E","title":"文華廚房","lon":"121.507316","lat":"31.243278","category":"249","category_name":"购物服务","address":"上海市 浦東南路111號"},{"poiid":"B2094757D065A5FF4598","title":"La Foret","lon":"121.510756","lat":"31.242361","category":"67","category_name":"甜品店","address":"浦东新区世纪大道8号国金中心LG2-C3室(近陆家嘴地铁站)"},{"poiid":"B2094757D06AA6FA4192","title":"泰东路渡口","lon":"121.50572636","lat":"31.2436887252","category":"34","category_name":"港口码头","address":"上海浦东新区滨江大道"},{"poiid":"B2094757D16DA6FD499B","title":"上海农商银行总行","lon":"121.50773373","lat":"31.241263535","category":"150","category_name":"银行","address":"上海中融碧玉蓝天大厦(银城中路8号)"},{"poiid":"B2094757D06FA6F5479E","title":"民生银行上海分行","lon":"121.50772374","lat":"31.240858936","category":"150","category_name":"银行","address":"上海浦东南路100号"},{"poiid":"B2094750DA6AA0F9409A","title":"北外滩滨江大道","lon":"121.512023","lat":"31.244825","category":"250","category_name":"公园户外","address":null},{"poiid":"B2094750D665A1FB499C","title":"天厨日式料理","lon":"121.507","lat":"31.2402","category":"95","category_name":"日本料理","address":"浦东新区陆家嘴环路1000号恒生银行大厦2楼(近银城中路)"},{"poiid":"B209475CDB68A6FC4798","title":"上海浦东文华东方大酒店","lon":"121.509819","lat":"31.242807","category":"500","category_name":"未知分类","address":"浦东南路111号"},{"poiid":"B2094753D56CA0F54798","title":"皇玺酒家","lon":"121.50669","lat":"31.243375","category":"247","category_name":"餐饮美食","address":"上海市 浦东南路27号"},{"poiid":"B209475CD069A3FA419D","title":"皇璽","lon":"121.50641","lat":"31.24304","category":"47","category_name":"住宅区","address":"浦东南路27号(近银城路)"},{"poiid":"B209475CD06EA3FF499E","title":"文华厨房","lon":"121.50745","lat":"31.24278","category":"268","category_name":"自助","address":"浦东南路111号文华东方酒店内(近泰公线渡口)"},{"poiid":"B209475CDA6FA4F54092","title":"文华东方酒店","lon":"121.509796","lat":"31.242868","category":"500","category_name":"未知分类","address":"上海市 上海浦东新区浦东南路111号"},{"poiid":"B2094753D76EA0F4429A","title":"皇玺","lon":"121.51065","lat":"31.241565","category":"47","category_name":"住宅区","address":"上海市 浦东南路27号"},{"poiid":"B2094757D068A3FF4899","title":"华夏银行上海分行","lon":"121.508972168","lat":"31.2394714355","category":"125","category_name":"书店","address":"上海浦东南路256号 （近东城路）"},{"poiid":"B2094757D06AAAFD4992","title":"上岛咖啡 陆家嘴金融店 UBC Coffee","lon":"121.51266479492","lat":"31.240152359009","category":"260","category_name":"其他","address":"浦东新区即墨路39号(近昌邑路)"},{"poiid":"B2094654DA69A0FC449F","title":"世纪金融大厦","lon":"121.51198","lat":"31.23891","category":"46","category_name":"楼宇","address":"浦东大道9号"},{"poiid":"B2094757D465A3F9439D","title":"柯记港式茶餐厅","lon":"121.513903054","lat":"31.240806793","category":"72","category_name":"广东菜","address":"浦东新区昌邑路88号(近即墨路)"},{"poiid":"B209475CD764A1FE4098","title":"58 扒房  58°Grill","lon":"121.507403","lat":"31.2428164","category":"104","category_name":"牛扒店","address":"浦东南路111号浦东文华东方酒店"},{"poiid":"B2094654DA69A0FC479F","title":"浦江茗园","lon":"121.5135","lat":"31.241152","category":"47","category_name":"住宅区","address":"上海市浦东新区昌邑路55弄"},{"poiid":"B2094752D469A3FC429F","title":"陆家嘴 时代金融中心","lon":"121.50914","lat":"31.243335","category":"263","category_name":"公司","address":"银城中路68号"},{"poiid":"B209475CD365A5F9479F","title":"雍颐庭","lon":"121.50745","lat":"31.24278","category":"76","category_name":"上海菜","address":"浦东南路111号文华东方酒店内(近泰公线渡口)"},{"poiid":"B209475CD76AA2F54798","title":"文华东方大酒店","lon":"121.508308","lat":"31.24405","category":"500","category_name":"未知分类","address":"上海市 浦东新区111号"},{"poiid":"B2094753D669A3FB4398","title":"文華東方酒店","lon":"121.507972","lat":"31.243326","category":"500","category_name":"未知分类","address":"上海市 浦东南路111号上海浦东文华东方酒店"},{"poiid":"B2094654DA69A7FB4599","title":"金茂大厦","lon":"121.5124569976","lat":"31.240872238236","category":"46","category_name":"楼宇","address":"浦东新区世纪大道88号金茂大厦内(近二号线陆家嘴站)"},{"poiid":"B2094654DB6BAAF8479D","title":"环球金融中心","lon":"121.514","lat":"31.241","category":"46","category_name":"楼宇","address":"上海市浦东新区陆家嘴世纪大道8号"},{"poiid":"B2094757D06EAAF4499F","title":"柚子(陆家嘴店)","lon":"121.50722621","lat":"31.240286474","category":"95","category_name":"日本料理","address":"浦东新区陆家嘴环路1000号恒生大楼46楼(近银城中路)"},{"poiid":"B209475CD564A7F84392","title":"上海滩浦东香格里拉店","lon":"121.50058","lat":"31.23634","category":"119","category_name":"商场","address":"浦东富成路33号香格里拉酒店内大堂层"},{"poiid":"B2094757D06FA3F8439A","title":"时代金融中心","lon":"121.513","lat":"31.2467","category":"46","category_name":"楼宇","address":"上海市浦东新区银城中路68号"},{"poiid":"B2094757D06EAAFC429A","title":"恒生银行大厦","lon":"121.50714642","lat":"31.240029324","category":"46","category_name":"楼宇","address":"浦东新区金湘路225弄"},{"poiid":"B2094654DA6FA7FE449F","title":"未来资产大厦","lon":"121.50676432182","lat":"31.240975297556","category":"46","category_name":"楼宇","address":"卫清西路139_149号等"},{"poiid":"B2094655D268A3FB439E","title":"东亚银行金融大厦","lon":"121.509","lat":"31.2399","category":"46","category_name":"楼宇","address":"陆家嘴花园石桥路66号"},{"poiid":"B2094757D06FABFD4792","title":"中融碧玉蓝天大厦","lon":"121.507242203","lat":"31.2415278323","category":"46","category_name":"楼宇","address":"上海市浦东新区银城中路8号"},{"poiid":"B2094655D268A4F9409E","title":"太平金融大厦","lon":"121.51","lat":"31.2396","category":"46","category_name":"楼宇","address":"上海市浦东新区陆家嘴环路、花园石桥路"},{"poiid":"B2094757D06FA1FA4498","title":"招商局大厦","lon":"121.515135","lat":"31.242879","category":"46","category_name":"楼宇","address":"浦东新区陆家嘴东路161号"},{"poiid":"B2094757D068A2FC4593","title":"民生银行大厦(陆家嘴)","lon":"121.50841305","lat":"31.240807181","category":"46","category_name":"楼宇","address":"上海浦东新区浦东南路100号(浦东南路银城中路)"},{"poiid":"B2094757D06FA2F4419E","title":"新上海国际大厦","lon":"121.50929927","lat":"31.238815674","category":"46","category_name":"楼宇","address":"浦东南路360号，中国人民银行北侧"},{"poiid":"B2094757D06FA4FA499A","title":"晶采轩(浦东店)","lon":"121.50676","lat":"31.24102","category":"72","category_name":"广东菜","address":"浦东新区银城中路68号时代金融中心2-3楼(金洲街银城中路)"},{"poiid":"B2094751D36BA4F5469D","title":"上海浦东文华东方酒店","lon":"121.50686659720611","lat":"31.243665106676545","category":"251","category_name":"出行住宿","address":"浦东新区浦东南路111号"},{"poiid":"B2094757D06FA6FD479E","title":"工行上海分行","lon":"121.51130276","lat":"31.23914032","category":"500","category_name":"未知分类","address":"上海浦東大道9號"},{"poiid":"B2094655D26FA5FF479B","title":"华能联合大厦","lon":"121.515","lat":"31.245","category":"46","category_name":"楼宇","address":"朝阳华威桥东北角"},{"poiid":"B2094757D068AAFC469B","title":"保利广场","lon":"121.514956916","lat":"31.2433600232","category":"500","category_name":"未知分类","address":"闸北区共和新路3703,3737号"},{"poiid":"B2094757D06FA7F9449C","title":"瑞慈健康管理中心(华夏银行店)","lon":"121.50933","lat":"31.2392","category":"162","category_name":"医院","address":"浦东新区浦东南路256号华夏银行大厦3楼(近浦东大道)"},{"poiid":"B2094757D06FA7F54993","title":"老山东鲁菜馆","lon":"121.510469","lat":"31.239297","category":"73","category_name":"山东菜","address":"浦东新区浦东南路379号金穗大厦6楼(近浦东大道)"},{"poiid":"B2094757D068A4FE4098","title":"顺峰(浦东银城店)","lon":"121.50784301","lat":"31.24158287","category":"72","category_name":"广东菜","address":"浦东新区银城中路8号碧玉蓝天3-4楼(金洲街银城中路)"},{"poiid":"B2094757D06FAAFF439E","title":"中国船舶大厦","lon":"121.510881","lat":"31.238821","category":"46","category_name":"楼宇","address":"上海市宝山区牡丹江路1228号"},{"poiid":"B2094757D06FA2FF419F","title":"星巴克(时代金融店)","lon":"121.506498","lat":"31.241296","category":"65","category_name":"咖啡厅","address":"浦东新区银城中路68号时代金融中心2楼(近汇丰大厦)"},{"poiid":"B2094757D068A6FC449A","title":"即墨路","lon":"121.51289367","lat":"31.239175796","category":"500","category_name":"未知分类","address":"上海即墨路"},{"poiid":"B2094655D26FA5FE4498","title":"汇丰大厦","lon":"121.514","lat":"31.2458","category":"46","category_name":"楼宇","address":"上海陆家嘴环路1000号"},{"poiid":"B2094655D268A4F4449A","title":"浦江双辉大厦","lon":"121.51042","lat":"31.24277","category":"46","category_name":"楼宇","address":"静安区南京西路555路"},{"poiid":"B2094753DB68A4F84292","title":"上海浦东文华东方大酒店","lon":"121.507225","lat":"31.243402","category":"500","category_name":"未知分类","address":"上海市 浦东南路111号"},{"poiid":"B2094753D26FA4F8429E","title":"文華廚房","lon":"121.507316","lat":"31.243278","category":"249","category_name":"购物服务","address":"上海市 浦東南路111號"},{"poiid":"B2094757D065A5FF4598","title":"La Foret","lon":"121.510756","lat":"31.242361","category":"67","category_name":"甜品店","address":"浦东新区世纪大道8号国金中心LG2-C3室(近陆家嘴地铁站)"},{"poiid":"B2094757D06AA6FA4192","title":"泰东路渡口","lon":"121.50572636","lat":"31.2436887252","category":"34","category_name":"港口码头","address":"上海浦东新区滨江大道"},{"poiid":"B2094757D16DA6FD499B","title":"上海农商银行总行","lon":"121.50773373","lat":"31.241263535","category":"150","category_name":"银行","address":"上海中融碧玉蓝天大厦(银城中路8号)"},{"poiid":"B2094757D06FA6F5479E","title":"民生银行上海分行","lon":"121.50772374","lat":"31.240858936","category":"150","category_name":"银行","address":"上海浦东南路100号"},{"poiid":"B2094750DA6AA0F9409A","title":"北外滩滨江大道","lon":"121.512023","lat":"31.244825","category":"250","category_name":"公园户外","address":null},{"poiid":"B2094750D665A1FB499C","title":"天厨日式料理","lon":"121.507","lat":"31.2402","category":"95","category_name":"日本料理","address":"浦东新区陆家嘴环路1000号恒生银行大厦2楼(近银城中路)"},{"poiid":"B209475CDB68A6FC4798","title":"上海浦东文华东方大酒店","lon":"121.509819","lat":"31.242807","category":"500","category_name":"未知分类","address":"浦东南路111号"},{"poiid":"B2094753D56CA0F54798","title":"皇玺酒家","lon":"121.50669","lat":"31.243375","category":"247","category_name":"餐饮美食","address":"上海市 浦东南路27号"},{"poiid":"B209475CD069A3FA419D","title":"皇璽","lon":"121.50641","lat":"31.24304","category":"47","category_name":"住宅区","address":"浦东南路27号(近银城路)"},{"poiid":"B209475CD06EA3FF499E","title":"文华厨房","lon":"121.50745","lat":"31.24278","category":"268","category_name":"自助","address":"浦东南路111号文华东方酒店内(近泰公线渡口)"},{"poiid":"B209475CDA6FA4F54092","title":"文华东方酒店","lon":"121.509796","lat":"31.242868","category":"500","category_name":"未知分类","address":"上海市 上海浦东新区浦东南路111号"},{"poiid":"B2094753D76EA0F4429A","title":"皇玺","lon":"121.51065","lat":"31.241565","category":"47","category_name":"住宅区","address":"上海市 浦东南路27号"},{"poiid":"B2094757D068A3FF4899","title":"华夏银行上海分行","lon":"121.508972168","lat":"31.2394714355","category":"125","category_name":"书店","address":"上海浦东南路256号 （近东城路）"},{"poiid":"B2094757D06AAAFD4992","title":"上岛咖啡 陆家嘴金融店 UBC Coffee","lon":"121.51266479492","lat":"31.240152359009","category":"260","category_name":"其他","address":"浦东新区即墨路39号(近昌邑路)"},{"poiid":"B2094654DA69A0FC449F","title":"世纪金融大厦","lon":"121.51198","lat":"31.23891","category":"46","category_name":"楼宇","address":"浦东大道9号"},{"poiid":"B2094757D465A3F9439D","title":"柯记港式茶餐厅","lon":"121.513903054","lat":"31.240806793","category":"72","category_name":"广东菜","address":"浦东新区昌邑路88号(近即墨路)"},{"poiid":"B209475CD764A1FE4098","title":"58 扒房  58°Grill","lon":"121.507403","lat":"31.2428164","category":"104","category_name":"牛扒店","address":"浦东南路111号浦东文华东方酒店"},{"poiid":"B2094654DA69A0FC479F","title":"浦江茗园","lon":"121.5135","lat":"31.241152","category":"47","category_name":"住宅区","address":"上海市浦东新区昌邑路55弄"},{"poiid":"B2094752D469A3FC429F","title":"陆家嘴 时代金融中心","lon":"121.50914","lat":"31.243335","category":"263","category_name":"公司","address":"银城中路68号"},{"poiid":"B209475CD365A5F9479F","title":"雍颐庭","lon":"121.50745","lat":"31.24278","category":"76","category_name":"上海菜","address":"浦东南路111号文华东方酒店内(近泰公线渡口)"},{"poiid":"B209475CD76AA2F54798","title":"文华东方大酒店","lon":"121.508308","lat":"31.24405","category":"500","category_name":"未知分类","address":"上海市 浦东新区111号"},{"poiid":"B2094753D669A3FB4398","title":"文華東方酒店","lon":"121.507972","lat":"31.243326","category":"500","category_name":"未知分类","address":"上海市 浦东南路111号上海浦东文华东方酒店"},{"poiid":"B2094654DA69A7FB4599","title":"金茂大厦","lon":"121.5124569976","lat":"31.240872238236","category":"46","category_name":"楼宇","address":"浦东新区世纪大道88号金茂大厦内(近二号线陆家嘴站)"},{"poiid":"B2094654DB6BAAF8479D","title":"环球金融中心","lon":"121.514","lat":"31.241","category":"46","category_name":"楼宇","address":"上海市浦东新区陆家嘴世纪大道8号"},{"poiid":"B2094757D06EAAF4499F","title":"柚子(陆家嘴店)","lon":"121.50722621","lat":"31.240286474","category":"95","category_name":"日本料理","address":"浦东新区陆家嘴环路1000号恒生大楼46楼(近银城中路)"},{"poiid":"B209475CD564A7F84392","title":"上海滩浦东香格里拉店","lon":"121.50058","lat":"31.23634","category":"119","category_name":"商场","address":"浦东富成路33号香格里拉酒店内大堂层"},{"poiid":"B2094757D06FA3F8439A","title":"时代金融中心","lon":"121.513","lat":"31.2467","category":"46","category_name":"楼宇","address":"上海市浦东新区银城中路68号"},{"poiid":"B2094757D06EAAFC429A","title":"恒生银行大厦","lon":"121.50714642","lat":"31.240029324","category":"46","category_name":"楼宇","address":"浦东新区金湘路225弄"},{"poiid":"B2094654DA6FA7FE449F","title":"未来资产大厦","lon":"121.50676432182","lat":"31.240975297556","category":"46","category_name":"楼宇","address":"卫清西路139_149号等"},{"poiid":"B2094655D268A3FB439E","title":"东亚银行金融大厦","lon":"121.509","lat":"31.2399","category":"46","category_name":"楼宇","address":"陆家嘴花园石桥路66号"},{"poiid":"B2094757D06FABFD4792","title":"中融碧玉蓝天大厦","lon":"121.507242203","lat":"31.2415278323","category":"46","category_name":"楼宇","address":"上海市浦东新区银城中路8号"},{"poiid":"B2094655D268A4F9409E","title":"太平金融大厦","lon":"121.51","lat":"31.2396","category":"46","category_name":"楼宇","address":"上海市浦东新区陆家嘴环路、花园石桥路"},{"poiid":"B2094757D06FA1FA4498","title":"招商局大厦","lon":"121.515135","lat":"31.242879","category":"46","category_name":"楼宇","address":"浦东新区陆家嘴东路161号"},{"poiid":"B2094757D068A2FC4593","title":"民生银行大厦(陆家嘴)","lon":"121.50841305","lat":"31.240807181","category":"46","category_name":"楼宇","address":"上海浦东新区浦东南路100号(浦东南路银城中路)"},{"poiid":"B2094757D06FA2F4419E","title":"新上海国际大厦","lon":"121.50929927","lat":"31.238815674","category":"46","category_name":"楼宇","address":"浦东南路360号，中国人民银行北侧"},{"poiid":"B2094757D06FA4FA499A","title":"晶采轩(浦东店)","lon":"121.50676","lat":"31.24102","category":"72","category_name":"广东菜","address":"浦东新区银城中路68号时代金融中心2-3楼(金洲街银城中路)"},{"poiid":"B2094751D36BA4F5469D","title":"上海浦东文华东方酒店","lon":"121.50686659720611","lat":"31.243665106676545","category":"251","category_name":"出行住宿","address":"浦东新区浦东南路111号"},{"poiid":"B2094757D06FA6FD479E","title":"工行上海分行","lon":"121.51130276","lat":"31.23914032","category":"500","category_name":"未知分类","address":"上海浦東大道9號"},{"poiid":"B2094655D26FA5FF479B","title":"华能联合大厦","lon":"121.515","lat":"31.245","category":"46","category_name":"楼宇","address":"朝阳华威桥东北角"},{"poiid":"B2094757D068AAFC469B","title":"保利广场","lon":"121.514956916","lat":"31.2433600232","category":"500","category_name":"未知分类","address":"闸北区共和新路3703,3737号"},{"poiid":"B2094757D06FA7F9449C","title":"瑞慈健康管理中心(华夏银行店)","lon":"121.50933","lat":"31.2392","category":"162","category_name":"医院","address":"浦东新区浦东南路256号华夏银行大厦3楼(近浦东大道)"},{"poiid":"B2094757D06FA7F54993","title":"老山东鲁菜馆","lon":"121.510469","lat":"31.239297","category":"73","category_name":"山东菜","address":"浦东新区浦东南路379号金穗大厦6楼(近浦东大道)"},{"poiid":"B2094757D068A4FE4098","title":"顺峰(浦东银城店)","lon":"121.50784301","lat":"31.24158287","category":"72","category_name":"广东菜","address":"浦东新区银城中路8号碧玉蓝天3-4楼(金洲街银城中路)"},{"poiid":"B2094757D06FAAFF439E","title":"中国船舶大厦","lon":"121.510881","lat":"31.238821","category":"46","category_name":"楼宇","address":"上海市宝山区牡丹江路1228号"},{"poiid":"B2094757D06FA2FF419F","title":"星巴克(时代金融店)","lon":"121.506498","lat":"31.241296","category":"65","category_name":"咖啡厅","address":"浦东新区银城中路68号时代金融中心2楼(近汇丰大厦)"},{"poiid":"B2094757D068A6FC449A","title":"即墨路","lon":"121.51289367","lat":"31.239175796","category":"500","category_name":"未知分类","address":"上海即墨路"},{"poiid":"B2094655D26FA5FE4498","title":"汇丰大厦","lon":"121.514","lat":"31.2458","category":"46","category_name":"楼宇","address":"上海陆家嘴环路1000号"},{"poiid":"B2094655D268A4F4449A","title":"浦江双辉大厦","lon":"121.51042","lat":"31.24277","category":"46","category_name":"楼宇","address":"静安区南京西路555路"},{"poiid":"B2094753DB68A4F84292","title":"上海浦东文华东方大酒店","lon":"121.507225","lat":"31.243402","category":"500","category_name":"未知分类","address":"上海市 浦东南路111号"},{"poiid":"B2094753D26FA4F8429E","title":"文華廚房","lon":"121.507316","lat":"31.243278","category":"249","category_name":"购物服务","address":"上海市 浦東南路111號"},{"poiid":"B2094757D065A5FF4598","title":"La Foret","lon":"121.510756","lat":"31.242361","category":"67","category_name":"甜品店","address":"浦东新区世纪大道8号国金中心LG2-C3室(近陆家嘴地铁站)"},{"poiid":"B2094757D06AA6FA4192","title":"泰东路渡口","lon":"121.50572636","lat":"31.2436887252","category":"34","category_name":"港口码头","address":"上海浦东新区滨江大道"},{"poiid":"B2094757D16DA6FD499B","title":"上海农商银行总行","lon":"121.50773373","lat":"31.241263535","category":"150","category_name":"银行","address":"上海中融碧玉蓝天大厦(银城中路8号)"},{"poiid":"B2094757D06FA6F5479E","title":"民生银行上海分行","lon":"121.50772374","lat":"31.240858936","category":"150","category_name":"银行","address":"上海浦东南路100号"},{"poiid":"B2094750DA6AA0F9409A","title":"北外滩滨江大道","lon":"121.512023","lat":"31.244825","category":"250","category_name":"公园户外","address":null},{"poiid":"B2094750D665A1FB499C","title":"天厨日式料理","lon":"121.507","lat":"31.2402","category":"95","category_name":"日本料理","address":"浦东新区陆家嘴环路1000号恒生银行大厦2楼(近银城中路)"},{"poiid":"B209475CDB68A6FC4798","title":"上海浦东文华东方大酒店","lon":"121.509819","lat":"31.242807","category":"500","category_name":"未知分类","address":"浦东南路111号"},{"poiid":"B2094753D56CA0F54798","title":"皇玺酒家","lon":"121.50669","lat":"31.243375","category":"247","category_name":"餐饮美食","address":"上海市 浦东南路27号"},{"poiid":"B209475CD069A3FA419D","title":"皇璽","lon":"121.50641","lat":"31.24304","category":"47","category_name":"住宅区","address":"浦东南路27号(近银城路)"},{"poiid":"B209475CD06EA3FF499E","title":"文华厨房","lon":"121.50745","lat":"31.24278","category":"268","category_name":"自助","address":"浦东南路111号文华东方酒店内(近泰公线渡口)"},{"poiid":"B209475CDA6FA4F54092","title":"文华东方酒店","lon":"121.509796","lat":"31.242868","category":"500","category_name":"未知分类","address":"上海市 上海浦东新区浦东南路111号"},{"poiid":"B2094753D76EA0F4429A","title":"皇玺","lon":"121.51065","lat":"31.241565","category":"47","category_name":"住宅区","address":"上海市 浦东南路27号"},{"poiid":"B2094757D068A3FF4899","title":"华夏银行上海分行","lon":"121.508972168","lat":"31.2394714355","category":"125","category_name":"书店","address":"上海浦东南路256号 （近东城路）"},{"poiid":"B2094757D06AAAFD4992","title":"上岛咖啡 陆家嘴金融店 UBC Coffee","lon":"121.51266479492","lat":"31.240152359009","category":"260","category_name":"其他","address":"浦东新区即墨路39号(近昌邑路)"},{"poiid":"B2094654DA69A0FC449F","title":"世纪金融大厦","lon":"121.51198","lat":"31.23891","category":"46","category_name":"楼宇","address":"浦东大道9号"},{"poiid":"B2094757D465A3F9439D","title":"柯记港式茶餐厅","lon":"121.513903054","lat":"31.240806793","category":"72","category_name":"广东菜","address":"浦东新区昌邑路88号(近即墨路)"},{"poiid":"B209475CD764A1FE4098","title":"58 扒房  58°Grill","lon":"121.507403","lat":"31.2428164","category":"104","category_name":"牛扒店","address":"浦东南路111号浦东文华东方酒店"},{"poiid":"B2094654DA69A0FC479F","title":"浦江茗园","lon":"121.5135","lat":"31.241152","category":"47","category_name":"住宅区","address":"上海市浦东新区昌邑路55弄"},{"poiid":"B2094752D469A3FC429F","title":"陆家嘴 时代金融中心","lon":"121.50914","lat":"31.243335","category":"263","category_name":"公司","address":"银城中路68号"},{"poiid":"B209475CD365A5F9479F","title":"雍颐庭","lon":"121.50745","lat":"31.24278","category":"76","category_name":"上海菜","address":"浦东南路111号文华东方酒店内(近泰公线渡口)"},{"poiid":"B209475CD76AA2F54798","title":"文华东方大酒店","lon":"121.508308","lat":"31.24405","category":"500","category_name":"未知分类","address":"上海市 浦东新区111号"},{"poiid":"B2094753D669A3FB4398","title":"文華東方酒店","lon":"121.507972","lat":"31.243326","category":"500","category_name":"未知分类","address":"上海市 浦东南路111号上海浦东文华东方酒店"},{"poiid":"B2094654DA69A7FB4599","title":"金茂大厦","lon":"121.5124569976","lat":"31.240872238236","category":"46","category_name":"楼宇","address":"浦东新区世纪大道88号金茂大厦内(近二号线陆家嘴站)"},{"poiid":"B2094654DB6BAAF8479D","title":"环球金融中心","lon":"121.514","lat":"31.241","category":"46","category_name":"楼宇","address":"上海市浦东新区陆家嘴世纪大道8号"},{"poiid":"B2094757D06EAAF4499F","title":"柚子(陆家嘴店)","lon":"121.50722621","lat":"31.240286474","category":"95","category_name":"日本料理","address":"浦东新区陆家嘴环路1000号恒生大楼46楼(近银城中路)"},{"poiid":"B209475CD564A7F84392","title":"上海滩浦东香格里拉店","lon":"121.50058","lat":"31.23634","category":"119","category_name":"商场","address":"浦东富成路33号香格里拉酒店内大堂层"},{"poiid":"B2094757D06FA3F8439A","title":"时代金融中心","lon":"121.513","lat":"31.2467","category":"46","category_name":"楼宇","address":"上海市浦东新区银城中路68号"},{"poiid":"B2094757D06EAAFC429A","title":"恒生银行大厦","lon":"121.50714642","lat":"31.240029324","category":"46","category_name":"楼宇","address":"浦东新区金湘路225弄"},{"poiid":"B2094654DA6FA7FE449F","title":"未来资产大厦","lon":"121.50676432182","lat":"31.240975297556","category":"46","category_name":"楼宇","address":"卫清西路139_149号等"},{"poiid":"B2094655D268A3FB439E","title":"东亚银行金融大厦","lon":"121.509","lat":"31.2399","category":"46","category_name":"楼宇","address":"陆家嘴花园石桥路66号"},{"poiid":"B2094757D06FABFD4792","title":"中融碧玉蓝天大厦","lon":"121.507242203","lat":"31.2415278323","category":"46","category_name":"楼宇","address":"上海市浦东新区银城中路8号"},{"poiid":"B2094655D268A4F9409E","title":"太平金融大厦","lon":"121.51","lat":"31.2396","category":"46","category_name":"楼宇","address":"上海市浦东新区陆家嘴环路、花园石桥路"},{"poiid":"B2094757D06FA1FA4498","title":"招商局大厦","lon":"121.515135","lat":"31.242879","category":"46","category_name":"楼宇","address":"浦东新区陆家嘴东路161号"},{"poiid":"B2094757D068A2FC4593","title":"民生银行大厦(陆家嘴)","lon":"121.50841305","lat":"31.240807181","category":"46","category_name":"楼宇","address":"上海浦东新区浦东南路100号(浦东南路银城中路)"},{"poiid":"B2094757D06FA2F4419E","title":"新上海国际大厦","lon":"121.50929927","lat":"31.238815674","category":"46","category_name":"楼宇","address":"浦东南路360号，中国人民银行北侧"},{"poiid":"B2094757D06FA4FA499A","title":"晶采轩(浦东店)","lon":"121.50676","lat":"31.24102","category":"72","category_name":"广东菜","address":"浦东新区银城中路68号时代金融中心2-3楼(金洲街银城中路)"},{"poiid":"B2094751D36BA4F5469D","title":"上海浦东文华东方酒店","lon":"121.50686659720611","lat":"31.243665106676545","category":"251","category_name":"出行住宿","address":"浦东新区浦东南路111号"},{"poiid":"B2094757D06FA6FD479E","title":"工行上海分行","lon":"121.51130276","lat":"31.23914032","category":"500","category_name":"未知分类","address":"上海浦東大道9號"},{"poiid":"B2094655D26FA5FF479B","title":"华能联合大厦","lon":"121.515","lat":"31.245","category":"46","category_name":"楼宇","address":"朝阳华威桥东北角"},{"poiid":"B2094757D068AAFC469B","title":"保利广场","lon":"121.514956916","lat":"31.2433600232","category":"500","category_name":"未知分类","address":"闸北区共和新路3703,3737号"},{"poiid":"B2094757D06FA7F9449C","title":"瑞慈健康管理中心(华夏银行店)","lon":"121.50933","lat":"31.2392","category":"162","category_name":"医院","address":"浦东新区浦东南路256号华夏银行大厦3楼(近浦东大道)"},{"poiid":"B2094757D06FA7F54993","title":"老山东鲁菜馆","lon":"121.510469","lat":"31.239297","category":"73","category_name":"山东菜","address":"浦东新区浦东南路379号金穗大厦6楼(近浦东大道)"},{"poiid":"B2094757D068A4FE4098","title":"顺峰(浦东银城店)","lon":"121.50784301","lat":"31.24158287","category":"72","category_name":"广东菜","address":"浦东新区银城中路8号碧玉蓝天3-4楼(金洲街银城中路)"},{"poiid":"B2094757D06FAAFF439E","title":"中国船舶大厦","lon":"121.510881","lat":"31.238821","category":"46","category_name":"楼宇","address":"上海市宝山区牡丹江路1228号"},{"poiid":"B2094757D06FA2FF419F","title":"星巴克(时代金融店)","lon":"121.506498","lat":"31.241296","category":"65","category_name":"咖啡厅","address":"浦东新区银城中路68号时代金融中心2楼(近汇丰大厦)"},{"poiid":"B2094757D068A6FC449A","title":"即墨路","lon":"121.51289367","lat":"31.239175796","category":"500","category_name":"未知分类","address":"上海即墨路"},{"poiid":"B2094655D26FA5FE4498","title":"汇丰大厦","lon":"121.514","lat":"31.2458","category":"46","category_name":"楼宇","address":"上海陆家嘴环路1000号"},{"poiid":"B2094655D268A4F4449A","title":"浦江双辉大厦","lon":"121.51042","lat":"31.24277","category":"46","category_name":"楼宇","address":"静安区南京西路555路"},{"poiid":"B2094753DB68A4F84292","title":"上海浦东文华东方大酒店","lon":"121.507225","lat":"31.243402","category":"500","category_name":"未知分类","address":"上海市 浦东南路111号"},{"poiid":"B2094753D26FA4F8429E","title":"文華廚房","lon":"121.507316","lat":"31.243278","category":"249","category_name":"购物服务","address":"上海市 浦東南路111號"},{"poiid":"B2094757D065A5FF4598","title":"La Foret","lon":"121.510756","lat":"31.242361","category":"67","category_name":"甜品店","address":"浦东新区世纪大道8号国金中心LG2-C3室(近陆家嘴地铁站)"},{"poiid":"B2094757D06AA6FA4192","title":"泰东路渡口","lon":"121.50572636","lat":"31.2436887252","category":"34","category_name":"港口码头","address":"上海浦东新区滨江大道"},{"poiid":"B2094757D16DA6FD499B","title":"上海农商银行总行","lon":"121.50773373","lat":"31.241263535","category":"150","category_name":"银行","address":"上海中融碧玉蓝天大厦(银城中路8号)"},{"poiid":"B2094757D06FA6F5479E","title":"民生银行上海分行","lon":"121.50772374","lat":"31.240858936","category":"150","category_name":"银行","address":"上海浦东南路100号"},{"poiid":"B2094750DA6AA0F9409A","title":"北外滩滨江大道","lon":"121.512023","lat":"31.244825","category":"250","category_name":"公园户外","address":null},{"poiid":"B2094750D665A1FB499C","title":"天厨日式料理","lon":"121.507","lat":"31.2402","category":"95","category_name":"日本料理","address":"浦东新区陆家嘴环路1000号恒生银行大厦2楼(近银城中路)"},{"poiid":"B209475CDB68A6FC4798","title":"上海浦东文华东方大酒店","lon":"121.509819","lat":"31.242807","category":"500","category_name":"未知分类","address":"浦东南路111号"},{"poiid":"B2094753D56CA0F54798","title":"皇玺酒家","lon":"121.50669","lat":"31.243375","category":"247","category_name":"餐饮美食","address":"上海市 浦东南路27号"},{"poiid":"B209475CD069A3FA419D","title":"皇璽","lon":"121.50641","lat":"31.24304","category":"47","category_name":"住宅区","address":"浦东南路27号(近银城路)"},{"poiid":"B209475CD06EA3FF499E","title":"文华厨房","lon":"121.50745","lat":"31.24278","category":"268","category_name":"自助","address":"浦东南路111号文华东方酒店内(近泰公线渡口)"},{"poiid":"B209475CDA6FA4F54092","title":"文华东方酒店","lon":"121.509796","lat":"31.242868","category":"500","category_name":"未知分类","address":"上海市 上海浦东新区浦东南路111号"},{"poiid":"B2094753D76EA0F4429A","title":"皇玺","lon":"121.51065","lat":"31.241565","category":"47","category_name":"住宅区","address":"上海市 浦东南路27号"},{"poiid":"B2094757D068A3FF4899","title":"华夏银行上海分行","lon":"121.508972168","lat":"31.2394714355","category":"125","category_name":"书店","address":"上海浦东南路256号 （近东城路）"},{"poiid":"B2094757D06AAAFD4992","title":"上岛咖啡 陆家嘴金融店 UBC Coffee","lon":"121.51266479492","lat":"31.240152359009","category":"260","category_name":"其他","address":"浦东新区即墨路39号(近昌邑路)"},{"poiid":"B2094654DA69A0FC449F","title":"世纪金融大厦","lon":"121.51198","lat":"31.23891","category":"46","category_name":"楼宇","address":"浦东大道9号"},{"poiid":"B2094757D465A3F9439D","title":"柯记港式茶餐厅","lon":"121.513903054","lat":"31.240806793","category":"72","category_name":"广东菜","address":"浦东新区昌邑路88号(近即墨路)"},{"poiid":"B209475CD764A1FE4098","title":"58 扒房  58°Grill","lon":"121.507403","lat":"31.2428164","category":"104","category_name":"牛扒店","address":"浦东南路111号浦东文华东方酒店"},{"poiid":"B2094654DA69A0FC479F","title":"浦江茗园","lon":"121.5135","lat":"31.241152","category":"47","category_name":"住宅区","address":"上海市浦东新区昌邑路55弄"},{"poiid":"B2094752D469A3FC429F","title":"陆家嘴 时代金融中心","lon":"121.50914","lat":"31.243335","category":"263","category_name":"公司","address":"银城中路68号"},{"poiid":"B209475CD365A5F9479F","title":"雍颐庭","lon":"121.50745","lat":"31.24278","category":"76","category_name":"上海菜","address":"浦东南路111号文华东方酒店内(近泰公线渡口)"},{"poiid":"B209475CD76AA2F54798","title":"文华东方大酒店","lon":"121.508308","lat":"31.24405","category":"500","category_name":"未知分类","address":"上海市 浦东新区111号"},{"poiid":"B2094753D669A3FB4398","title":"文華東方酒店","lon":"121.507972","lat":"31.243326","category":"500","category_name":"未知分类","address":"上海市 浦东南路111号上海浦东文华东方酒店"}]