[{"poiid":"B2094757D06EAAFB4398","title":"邮电新村地铁站","lon":"121.49450107","lat":"31.268612797","category":"36","category_name":"地铁站","address":"上海轨道交通 十号线 轨交邮电新村站 10"},{"poiid":"B2094750D365A4F94493","title":"顺风大酒店(瑞虹路店)","lon":"121.4979346984253","lat":"31.261761356687256","category":"75","category_name":"浙江菜","address":"虹口区瑞虹路116号瑞虹坊2楼(近临平北路)"},{"poiid":"B2094654D56DAAFB4899","title":"上海电信培训中心","lon":"121.50069","lat":"31.27137","category":"76","category_name":"上海菜","address":"虹口区天宝路879号(近和平公园)"},{"poiid":"B2094757D06FA3FA489E","title":"瑞虹新城一期","lon":"121.495416194","lat":"31.263365933","category":"47","category_name":"住宅区","address":"上海市虹口区临平路333号"},{"poiid":"B2094757D06FA1FC4092","title":"卜蜂莲花(新港路店)","lon":"121.4988","lat":"31.26934","category":"118","category_name":"超级市场","address":"虹口区新港路245号飘鹰大厦内(近四平路)"},{"poiid":"B2094757D06FA5FB4198","title":"华东师大一附中","lon":"121.50121","lat":"31.26504","category":"253","category_name":"校园生活","address":"上海虹口区虹关路88号(近瑞虹路)  "},{"poiid":"B2094757D06FA1F54993","title":"又一村","lon":"121.49597072163","lat":"31.270121884137","category":"68","category_name":"快餐厅","address":"虹口区四平路591号(近新港路)"},{"poiid":"B2094654D56DABFA469D","title":"爱家国际大厦","lon":"121.498","lat":"31.2673","category":"46","category_name":"楼宇","address":"上海市虹口区物华路288号"},{"poiid":"B2094654DB6BA3F94492","title":"和平公园(三号门)","lon":"121.50074","lat":"31.27164","category":"680","category_name":"楼宇机构","address":"天宝路891"},{"poiid":"B2094751D264A6F9439B","title":"La Tagliatella 纯意堂","lon":"121.498318","lat":"31.262375","category":"98","category_name":"意式菜品餐厅","address":"虹口区飞虹支路118号(近地铁4号线临平路站)"},{"poiid":"B2094757D06FA5FE449E","title":"四平路曲阳路口","lon":"121.495693","lat":"31.269823","category":"500","category_name":"未知分类","address":"上海四平路曲阳路"},{"poiid":"B2094757D06FA0FE469E","title":"邮电新村","lon":"121.49442895","lat":"31.270637995","category":"47","category_name":"住宅区","address":"上海四平路621弄〔近密云路〕"},{"poiid":"B2094654DB65A6FC469D","title":"易买得(瑞虹店)","lon":"121.49843","lat":"31.26181","category":"118","category_name":"超级市场","address":"虹口区临平路133弄瑞虹生活广场内(近飞虹路)"},{"poiid":"B2094654D56CA0FB499A","title":"金陵国际大厦","lon":"121.496","lat":"31.2713","category":"46","category_name":"楼宇","address":"海淀区城府路,中关村东路交叉处西北方向"},{"poiid":"B2094757D068A7F4469A","title":"和平公园生态动物岛","lon":"121.500744","lat":"31.271649","category":"196","category_name":"公园","address":"上海虹口区天宝路891号(和平公园内)"},{"poiid":"B2094654D56DAAF4409E","title":"飘鹰世纪大厦","lon":"121.498608","lat":"31.269361","category":"46","category_name":"楼宇","address":"天宝路578号"},{"poiid":"B2094750D26AA0F4409F","title":"大家乐香港新一代茶餐厅瑞虹店","lon":"121.498779","lat":"31.262537","category":"247","category_name":"餐饮美食","address":"瑞虹路（瑞虹坊）"},{"poiid":"B2094654D56DABF54398","title":"上海商贸大厦","lon":"121.497","lat":"31.2681","category":"46","category_name":"楼宇","address":"人民路885号-889号"},{"poiid":"B2094757D56CA1FB419E","title":"星巴克 海上海店 Starbucks Cafe","lon":"121.507325054","lat":"31.264995793","category":"247","category_name":"餐饮美食","address":"虹口区飞虹路568弄30号海上海内C7室近大连路"},{"poiid":"B2094757D069A3FF469D","title":"新港路天宝路","lon":"121.499649","lat":"31.268623","category":"500","category_name":"未知分类","address":"上海虹口区天宝路新港路"},{"poiid":"B2094654DB6BA3F9479E","title":"和平公园(四号门)","lon":"121.50157","lat":"31.26928","category":"680","category_name":"楼宇机构","address":"新港路168"},{"poiid":"B2094757D069A0F8489E","title":"萨莉亚（新港路店）","lon":"121.4985635","lat":"31.270082015","category":"94","category_name":"西餐厅","address":"虹口区新港路245号飘鹰大厦1楼(近四平路)"},{"poiid":"B2094655D26BA5FA449E","title":"中信和平家园","lon":"121.49881","lat":"31.26959","category":"47","category_name":"住宅区","address":"虹口区新港路227号"},{"poiid":"B2094654D56DAAFC419A","title":"海事大厦","lon":"121.4972158025","lat":"31.268584709787","category":"46","category_name":"楼宇","address":"昌平区回龙观镇国际信息产业基地高新二街"},{"poiid":"B2094750D26CA3FE459B","title":"唐韵秦风 瑞虹路店","lon":"121.49840354919","lat":"31.261897695753","category":"84","category_name":"西北菜","address":"虹口区瑞虹路138号瑞虹坊2楼(近临平路)"},{"poiid":"B2094654D56DABFA479A","title":"麒麟大厦","lon":"121.498","lat":"31.2677","category":"46","category_name":"楼宇","address":"崇文区夕照寺大街"},{"poiid":"B2094757DA6EAAF8439C","title":"深井大叔港式烧腊(瑞虹生活广场店)","lon":"121.49768","lat":"31.2613","category":"72","category_name":"广东菜","address":"虹口区临平路133弄瑞虹生活广场1-01室(近天宝路)"},{"poiid":"B2094757D06FA4FF429E","title":"肯德基 KFC (天宝店)","lon":"121.49895817","lat":"31.269665163","category":"68","category_name":"快餐厅","address":"虹口区新港路245号卜蜂莲花内(近四平路)"},{"poiid":"B2094654D56CA7FE4392","title":"龙邸大厦","lon":"121.495557","lat":"31.266546","category":"46","category_name":"楼宇","address":"徐汇区田林路388号"},{"poiid":"B2094757D665A2FB4993","title":"潮汕砂锅粥","lon":"121.497189","lat":"31.270722","category":"72","category_name":"广东菜","address":"虹口区四平路712号湘满园楼上"},{"poiid":"B2094757D16CA2FB4699","title":"福龙大厦","lon":"121.496","lat":"31.2681","category":"46","category_name":"楼宇","address":"上海市虹口区四平路277号"},{"poiid":"B2094757D064A7FC4498","title":"华师大一附中羽毛球馆","lon":"121.50126","lat":"31.26654","category":"68","category_name":"快餐厅","address":"虹口区虹关路88号(近瑞虹二期)"},{"poiid":"B2094757D065A0FF439D","title":"四平路密云路","lon":"121.4962091","lat":"31.271177438","category":"500","category_name":"未知分类","address":"上海市虹口区曲阳路"},{"poiid":"B2094757D164A7F5469B","title":"瑞虹新城","lon":"121.495373","lat":"31.263544","category":"47","category_name":"住宅区","address":"虹口区临平路333号"},{"poiid":"B2094757D068A1FC489D","title":"老四烧烤(新港路店)","lon":"121.49694","lat":"31.27003","category":"257","category_name":"中餐厅","address":"虹口区新港路(四平路口)"},{"poiid":"B2094654D56CA7FE409C","title":"喜临门大厦","lon":"121.496","lat":"31.2675","category":"46","category_name":"楼宇","address":"长宁路1158号贝多芬广场618室"},{"poiid":"B2094757D46FA3FF4292","title":"85度C 临平店","lon":"121.496640054","lat":"31.262250793","category":"67","category_name":"甜品店","address":"虹口区临平路327号(近天宝路)"},{"poiid":"B2094654D56DAAF4409F","title":"飘鹰(新港)大酒店","lon":"121.49909","lat":"31.26932","category":"76","category_name":"上海菜","address":"虹口区天宝路578号4楼(近新港路)"},{"poiid":"B2094757D16CA3FA4992","title":"同济大学雅憩","lon":"121.49458812","lat":"31.266952489","category":"253","category_name":"校园生活","address":"上海同济大学四平路建筑与城规学苑"},{"poiid":"B2094655D26BA2FB489F","title":"四平路新港路","lon":"121.49595","lat":"31.26991","category":"38","category_name":"公交车站","address":""},{"poiid":"B2094655D26CA1FC4898","title":"恒城花苑","lon":"121.497","lat":"31.2702","category":"47","category_name":"住宅区","address":"恒城花苑位于虹口四平路311号"},{"poiid":"B2094655D26CA1F5409B","title":"天宝路358弄小区(东门)","lon":"121.49839","lat":"31.2663","category":"47","category_name":"住宅区","address":"天宝路358弄1-11号"},{"poiid":"B2094757D66EA3FE459A","title":"中信虹港名庭","lon":"121.50181876618","lat":"31.265746806585","category":"47","category_name":"住宅区","address":"奉贤海湾旅游区人民塘路1019弄"},{"poiid":"B2094757DA6BA0FE459B","title":"建邦大厦","lon":"121.497618","lat":"31.266483","category":"252","category_name":"楼宇机构","address":"古墩路与余杭塘路交汇处西南角(余杭塘路279号)"},{"poiid":"B2094654D56DABFA4898","title":"虹临大厦","lon":"121.498","lat":"31.2691","category":"46","category_name":"楼宇","address":"上海临平北路68号"},{"poiid":"B2094757D76CA3F84298","title":"卧云茶敘","lon":"121.493871","lat":"31.268995","category":"66","category_name":"茶艺馆","address":"虹口区曲阳路26号(近四平路)"},{"poiid":"B2094655D265A7FA499A","title":"瑞虹新城(北门)","lon":"121.50056","lat":"31.2663","category":"47","category_name":"住宅区","address":"瑞虹路375号"},{"poiid":"B2094757D16AABFF479D","title":"新港地段医院","lon":"121.50064","lat":"31.266","category":"162","category_name":"医院","address":"虹口区瑞虹路480号(近天镇路)"},{"poiid":"B2094753D468ABFF459C","title":"上海黄浦江外滩","lon":"121.496299","lat":"31.264156","category":"500","category_name":"未知分类","address":"上海市 黄浦江"},{"poiid":"B2094757D16FA1F84498","title":"瑞虹路新港路","lon":"121.499085803","lat":"31.2668252971","category":"500","category_name":"未知分类","address":"上海虹口区瑞虹路新港路"},{"poiid":"B2094757D06EAAFB4398","title":"邮电新村地铁站","lon":"121.49450107","lat":"31.268612797","category":"36","category_name":"地铁站","address":"上海轨道交通 十号线 轨交邮电新村站 10"},{"poiid":"B2094750D365A4F94493","title":"顺风大酒店(瑞虹路店)","lon":"121.4979346984253","lat":"31.261761356687256","category":"75","category_name":"浙江菜","address":"虹口区瑞虹路116号瑞虹坊2楼(近临平北路)"},{"poiid":"B2094654D56DAAFB4899","title":"上海电信培训中心","lon":"121.50069","lat":"31.27137","category":"76","category_name":"上海菜","address":"虹口区天宝路879号(近和平公园)"},{"poiid":"B2094757D06FA3FA489E","title":"瑞虹新城一期","lon":"121.495416194","lat":"31.263365933","category":"47","category_name":"住宅区","address":"上海市虹口区临平路333号"},{"poiid":"B2094757D06FA1FC4092","title":"卜蜂莲花(新港路店)","lon":"121.4988","lat":"31.26934","category":"118","category_name":"超级市场","address":"虹口区新港路245号飘鹰大厦内(近四平路)"},{"poiid":"B2094757D06FA5FB4198","title":"华东师大一附中","lon":"121.50121","lat":"31.26504","category":"253","category_name":"校园生活","address":"上海虹口区虹关路88号(近瑞虹路)  "},{"poiid":"B2094757D06FA1F54993","title":"又一村","lon":"121.49597072163","lat":"31.270121884137","category":"68","category_name":"快餐厅","address":"虹口区四平路591号(近新港路)"},{"poiid":"B2094654D56DABFA469D","title":"爱家国际大厦","lon":"121.498","lat":"31.2673","category":"46","category_name":"楼宇","address":"上海市虹口区物华路288号"},{"poiid":"B2094654DB6BA3F94492","title":"和平公园(三号门)","lon":"121.50074","lat":"31.27164","category":"680","category_name":"楼宇机构","address":"天宝路891"},{"poiid":"B2094751D264A6F9439B","title":"La Tagliatella 纯意堂","lon":"121.498318","lat":"31.262375","category":"98","category_name":"意式菜品餐厅","address":"虹口区飞虹支路118号(近地铁4号线临平路站)"},{"poiid":"B2094757D06FA5FE449E","title":"四平路曲阳路口","lon":"121.495693","lat":"31.269823","category":"500","category_name":"未知分类","address":"上海四平路曲阳路"},{"poiid":"B2094757D06FA0FE469E","title":"邮电新村","lon":"121.49442895","lat":"31.270637995","category":"47","category_name":"住宅区","address":"上海四平路621弄〔近密云路〕"},{"poiid":"B2094654DB65A6FC469D","title":"易买得(瑞虹店)","lon":"121.49843","lat":"31.26181","category":"118","category_name":"超级市场","address":"虹口区临平路133弄瑞虹生活广场内(近飞虹路)"},{"poiid":"B2094654D56CA0FB499A","title":"金陵国际大厦","lon":"121.496","lat":"31.2713","category":"46","category_name":"楼宇","address":"海淀区城府路,中关村东路交叉处西北方向"},{"poiid":"B2094757D068A7F4469A","title":"和平公园生态动物岛","lon":"121.500744","lat":"31.271649","category":"196","category_name":"公园","address":"上海虹口区天宝路891号(和平公园内)"},{"poiid":"B2094654D56DAAF4409E","title":"飘鹰世纪大厦","lon":"121.498608","lat":"31.269361","category":"46","category_name":"楼宇","address":"天宝路578号"},{"poiid":"B2094750D26AA0F4409F","title":"大家乐香港新一代茶餐厅瑞虹店","lon":"121.498779","lat":"31.262537","category":"247","category_name":"餐饮美食","address":"瑞虹路（瑞虹坊）"},{"poiid":"B2094654D56DABF54398","title":"上海商贸大厦","lon":"121.497","lat":"31.2681","category":"46","category_name":"楼宇","address":"人民路885号-889号"},{"poiid":"B2094757D56CA1FB419E","title":"星巴克 海上海店 Starbucks Cafe","lon":"121.507325054","lat":"31.264995793","category":"247","category_name":"餐饮美食","address":"虹口区飞虹路568弄30号海上海内C7室近大连路"},{"poiid":"B2094757D069A3FF469D","title":"新港路天宝路","lon":"121.499649","lat":"31.268623","category":"500","category_name":"未知分类","address":"上海虹口区天宝路新港路"},{"poiid":"B2094654DB6BA3F9479E","title":"和平公园(四号门)","lon":"121.50157","lat":"31.26928","category":"680","category_name":"楼宇机构","address":"新港路168"},{"poiid":"B2094757D069A0F8489E","title":"萨莉亚（新港路店）","lon":"121.4985635","lat":"31.270082015","category":"94","category_name":"西餐厅","address":"虹口区新港路245号飘鹰大厦1楼(近四平路)"},{"poiid":"B2094655D26BA5FA449E","title":"中信和平家园","lon":"121.49881","lat":"31.26959","category":"47","category_name":"住宅区","address":"虹口区新港路227号"},{"poiid":"B2094654D56DAAFC419A","title":"海事大厦","lon":"121.4972158025","lat":"31.268584709787","category":"46","category_name":"楼宇","address":"昌平区回龙观镇国际信息产业基地高新二街"},{"poiid":"B2094750D26CA3FE459B","title":"唐韵秦风 瑞虹路店","lon":"121.49840354919","lat":"31.261897695753","category":"84","category_name":"西北菜","address":"虹口区瑞虹路138号瑞虹坊2楼(近临平路)"},{"poiid":"B2094654D56DABFA479A","title":"麒麟大厦","lon":"121.498","lat":"31.2677","category":"46","category_name":"楼宇","address":"崇文区夕照寺大街"},{"poiid":"B2094757DA6EAAF8439C","title":"深井大叔港式烧腊(瑞虹生活广场店)","lon":"121.49768","lat":"31.2613","category":"72","category_name":"广东菜","address":"虹口区临平路133弄瑞虹生活广场1-01室(近天宝路)"},{"poiid":"B2094757D06FA4FF429E","title":"肯德基 KFC (天宝店)","lon":"121.49895817","lat":"31.269665163","category":"68","category_name":"快餐厅","address":"虹口区新港路245号卜蜂莲花内(近四平路)"},{"poiid":"B2094654D56CA7FE4392","title":"龙邸大厦","lon":"121.495557","lat":"31.266546","category":"46","category_name":"楼宇","address":"徐汇区田林路388号"},{"poiid":"B2094757D665A2FB4993","title":"潮汕砂锅粥","lon":"121.497189","lat":"31.270722","category":"72","category_name":"广东菜","address":"虹口区四平路712号湘满园楼上"},{"poiid":"B2094757D16CA2FB4699","title":"福龙大厦","lon":"121.496","lat":"31.2681","category":"46","category_name":"楼宇","address":"上海市虹口区四平路277号"},{"poiid":"B2094757D064A7FC4498","title":"华师大一附中羽毛球馆","lon":"121.50126","lat":"31.26654","category":"68","category_name":"快餐厅","address":"虹口区虹关路88号(近瑞虹二期)"},{"poiid":"B2094757D065A0FF439D","title":"四平路密云路","lon":"121.4962091","lat":"31.271177438","category":"500","category_name":"未知分类","address":"上海市虹口区曲阳路"},{"poiid":"B2094757D164A7F5469B","title":"瑞虹新城","lon":"121.495373","lat":"31.263544","category":"47","category_name":"住宅区","address":"虹口区临平路333号"},{"poiid":"B2094757D068A1FC489D","title":"老四烧烤(新港路店)","lon":"121.49694","lat":"31.27003","category":"257","category_name":"中餐厅","address":"虹口区新港路(四平路口)"},{"poiid":"B2094654D56CA7FE409C","title":"喜临门大厦","lon":"121.496","lat":"31.2675","category":"46","category_name":"楼宇","address":"长宁路1158号贝多芬广场618室"},{"poiid":"B2094757D46FA3FF4292","title":"85度C 临平店","lon":"121.496640054","lat":"31.262250793","category":"67","category_name":"甜品店","address":"虹口区临平路327号(近天宝路)"},{"poiid":"B2094654D56DAAF4409F","title":"飘鹰(新港)大酒店","lon":"121.49909","lat":"31.26932","category":"76","category_name":"上海菜","address":"虹口区天宝路578号4楼(近新港路)"},{"poiid":"B2094757D16CA3FA4992","title":"同济大学雅憩","lon":"121.49458812","lat":"31.266952489","category":"253","category_name":"校园生活","address":"上海同济大学四平路建筑与城规学苑"},{"poiid":"B2094655D26BA2FB489F","title":"四平路新港路","lon":"121.49595","lat":"31.26991","category":"38","category_name":"公交车站","address":""},{"poiid":"B2094655D26CA1FC4898","title":"恒城花苑","lon":"121.497","lat":"31.2702","category":"47","category_name":"住宅区","address":"恒城花苑位于虹口四平路311号"},{"poiid":"B2094655D26CA1F5409B","title":"天宝路358弄小区(东门)","lon":"121.49839","lat":"31.2663","category":"47","category_name":"住宅区","address":"天宝路358弄1-11号"},{"poiid":"B2094757D66EA3FE459A","title":"中信虹港名庭","lon":"121.50181876618","lat":"31.265746806585","category":"47","category_name":"住宅区","address":"奉贤海湾旅游区人民塘路1019弄"},{"poiid":"B2094757DA6BA0FE459B","title":"建邦大厦","lon":"121.497618","lat":"31.266483","category":"252","category_name":"楼宇机构","address":"古墩路与余杭塘路交汇处西南角(余杭塘路279号)"},{"poiid":"B2094654D56DABFA4898","title":"虹临大厦","lon":"121.498","lat":"31.2691","category":"46","category_name":"楼宇","address":"上海临平北路68号"},{"poiid":"B2094757D76CA3F84298","title":"卧云茶敘","lon":"121.493871","lat":"31.268995","category":"66","category_name":"茶艺馆","address":"虹口区曲阳路26号(近四平路)"},{"poiid":"B2094655D265A7FA499A","title":"瑞虹新城(北门)","lon":"121.50056","lat":"31.2663","category":"47","category_name":"住宅区","address":"瑞虹路375号"},{"poiid":"B2094757D16AABFF479D","title":"新港地段医院","lon":"121.50064","lat":"31.266","category":"162","category_name":"医院","address":"虹口区瑞虹路480号(近天镇路)"},{"poiid":"B2094753D468ABFF459C","title":"上海黄浦江外滩","lon":"121.496299","lat":"31.264156","category":"500","category_name":"未知分类","address":"上海市 黄浦江"},{"poiid":"B2094757D16FA1F84498","title":"瑞虹路新港路","lon":"121.499085803","lat":"31.2668252971","category":"500","category_name":"未知分类","address":"上海虹口区瑞虹路新港路"},{"poiid":"B2094757D06EAAFB4398","title":"邮电新村地铁站","lon":"121.49450107","lat":"31.268612797","category":"36","category_name":"地铁站","address":"上海轨道交通 十号线 轨交邮电新村站 10"},{"poiid":"B2094750D365A4F94493","title":"顺风大酒店(瑞虹路店)","lon":"121.4979346984253","lat":"31.261761356687256","category":"75","category_name":"浙江菜","address":"虹口区瑞虹路116号瑞虹坊2楼(近临平北路)"},{"poiid":"B2094654D56DAAFB4899","title":"上海电信培训中心","lon":"121.50069","lat":"31.27137","category":"76","category_name":"上海菜","address":"虹口区天宝路879号(近和平公园)"},{"poiid":"B2094757D06FA3FA489E","title":"瑞虹新城一期","lon":"121.495416194","lat":"31.263365933","category":"47","category_name":"住宅区","address":"上海市虹口区临平路333号"},{"poiid":"B2094757D06FA1FC4092","title":"卜蜂莲花(新港路店)","lon":"121.4988","lat":"31.26934","category":"118","category_name":"超级市场","address":"虹口区新港路245号飘鹰大厦内(近四平路)"},{"poiid":"B2094757D06FA5FB4198","title":"华东师大一附中","lon":"121.50121","lat":"31.26504","category":"253","category_name":"校园生活","address":"上海虹口区虹关路88号(近瑞虹路)  "},{"poiid":"B2094757D06FA1F54993","title":"又一村","lon":"121.49597072163","lat":"31.270121884137","category":"68","category_name":"快餐厅","address":"虹口区四平路591号(近新港路)"},{"poiid":"B2094654D56DABFA469D","title":"爱家国际大厦","lon":"121.498","lat":"31.2673","category":"46","category_name":"楼宇","address":"上海市虹口区物华路288号"},{"poiid":"B2094654DB6BA3F94492","title":"和平公园(三号门)","lon":"121.50074","lat":"31.27164","category":"680","category_name":"楼宇机构","address":"天宝路891"},{"poiid":"B2094751D264A6F9439B","title":"La Tagliatella 纯意堂","lon":"121.498318","lat":"31.262375","category":"98","category_name":"意式菜品餐厅","address":"虹口区飞虹支路118号(近地铁4号线临平路站)"},{"poiid":"B2094757D06FA5FE449E","title":"四平路曲阳路口","lon":"121.495693","lat":"31.269823","category":"500","category_name":"未知分类","address":"上海四平路曲阳路"},{"poiid":"B2094757D06FA0FE469E","title":"邮电新村","lon":"121.49442895","lat":"31.270637995","category":"47","category_name":"住宅区","address":"上海四平路621弄〔近密云路〕"},{"poiid":"B2094654DB65A6FC469D","title":"易买得(瑞虹店)","lon":"121.49843","lat":"31.26181","category":"118","category_name":"超级市场","address":"虹口区临平路133弄瑞虹生活广场内(近飞虹路)"},{"poiid":"B2094654D56CA0FB499A","title":"金陵国际大厦","lon":"121.496","lat":"31.2713","category":"46","category_name":"楼宇","address":"海淀区城府路,中关村东路交叉处西北方向"},{"poiid":"B2094757D068A7F4469A","title":"和平公园生态动物岛","lon":"121.500744","lat":"31.271649","category":"196","category_name":"公园","address":"上海虹口区天宝路891号(和平公园内)"},{"poiid":"B2094654D56DAAF4409E","title":"飘鹰世纪大厦","lon":"121.498608","lat":"31.269361","category":"46","category_name":"楼宇","address":"天宝路578号"},{"poiid":"B2094750D26AA0F4409F","title":"大家乐香港新一代茶餐厅瑞虹店","lon":"121.498779","lat":"31.262537","category":"247","category_name":"餐饮美食","address":"瑞虹路（瑞虹坊）"},{"poiid":"B2094654D56DABF54398","title":"上海商贸大厦","lon":"121.497","lat":"31.2681","category":"46","category_name":"楼宇","address":"人民路885号-889号"},{"poiid":"B2094757D56CA1FB419E","title":"星巴克 海上海店 Starbucks Cafe","lon":"121.507325054","lat":"31.264995793","category":"247","category_name":"餐饮美食","address":"虹口区飞虹路568弄30号海上海内C7室近大连路"},{"poiid":"B2094757D069A3FF469D","title":"新港路天宝路","lon":"121.499649","lat":"31.268623","category":"500","category_name":"未知分类","address":"上海虹口区天宝路新港路"},{"poiid":"B2094654DB6BA3F9479E","title":"和平公园(四号门)","lon":"121.50157","lat":"31.26928","category":"680","category_name":"楼宇机构","address":"新港路168"},{"poiid":"B2094757D069A0F8489E","title":"萨莉亚（新港路店）","lon":"121.4985635","lat":"31.270082015","category":"94","category_name":"西餐厅","address":"虹口区新港路245号飘鹰大厦1楼(近四平路)"},{"poiid":"B2094655D26BA5FA449E","title":"中信和平家园","lon":"121.49881","lat":"31.26959","category":"47","category_name":"住宅区","address":"虹口区新港路227号"},{"poiid":"B2094654D56DAAFC419A","title":"海事大厦","lon":"121.4972158025","lat":"31.268584709787","category":"46","category_name":"楼宇","address":"昌平区回龙观镇国际信息产业基地高新二街"},{"poiid":"B2094750D26CA3FE459B","title":"唐韵秦风 瑞虹路店","lon":"121.49840354919","lat":"31.261897695753","category":"84","category_name":"西北菜","address":"虹口区瑞虹路138号瑞虹坊2楼(近临平路)"},{"poiid":"B2094654D56DABFA479A","title":"麒麟大厦","lon":"121.498","lat":"31.2677","category":"46","category_name":"楼宇","address":"崇文区夕照寺大街"},{"poiid":"B2094757DA6EAAF8439C","title":"深井大叔港式烧腊(瑞虹生活广场店)","lon":"121.49768","lat":"31.2613","category":"72","category_name":"广东菜","address":"虹口区临平路133弄瑞虹生活广场1-01室(近天宝路)"},{"poiid":"B2094757D06FA4FF429E","title":"肯德基 KFC (天宝店)","lon":"121.49895817","lat":"31.269665163","category":"68","category_name":"快餐厅","address":"虹口区新港路245号卜蜂莲花内(近四平路)"},{"poiid":"B2094654D56CA7FE4392","title":"龙邸大厦","lon":"121.495557","lat":"31.266546","category":"46","category_name":"楼宇","address":"徐汇区田林路388号"},{"poiid":"B2094757D665A2FB4993","title":"潮汕砂锅粥","lon":"121.497189","lat":"31.270722","category":"72","category_name":"广东菜","address":"虹口区四平路712号湘满园楼上"},{"poiid":"B2094757D16CA2FB4699","title":"福龙大厦","lon":"121.496","lat":"31.2681","category":"46","category_name":"楼宇","address":"上海市虹口区四平路277号"},{"poiid":"B2094757D064A7FC4498","title":"华师大一附中羽毛球馆","lon":"121.50126","lat":"31.26654","category":"68","category_name":"快餐厅","address":"虹口区虹关路88号(近瑞虹二期)"},{"poiid":"B2094757D065A0FF439D","title":"四平路密云路","lon":"121.4962091","lat":"31.271177438","category":"500","category_name":"未知分类","address":"上海市虹口区曲阳路"},{"poiid":"B2094757D164A7F5469B","title":"瑞虹新城","lon":"121.495373","lat":"31.263544","category":"47","category_name":"住宅区","address":"虹口区临平路333号"},{"poiid":"B2094757D068A1FC489D","title":"老四烧烤(新港路店)","lon":"121.49694","lat":"31.27003","category":"257","category_name":"中餐厅","address":"虹口区新港路(四平路口)"},{"poiid":"B2094654D56CA7FE409C","title":"喜临门大厦","lon":"121.496","lat":"31.2675","category":"46","category_name":"楼宇","address":"长宁路1158号贝多芬广场618室"},{"poiid":"B2094757D46FA3FF4292","title":"85度C 临平店","lon":"121.496640054","lat":"31.262250793","category":"67","category_name":"甜品店","address":"虹口区临平路327号(近天宝路)"},{"poiid":"B2094654D56DAAF4409F","title":"飘鹰(新港)大酒店","lon":"121.49909","lat":"31.26932","category":"76","category_name":"上海菜","address":"虹口区天宝路578号4楼(近新港路)"},{"poiid":"B2094757D16CA3FA4992","title":"同济大学雅憩","lon":"121.49458812","lat":"31.266952489","category":"253","category_name":"校园生活","address":"上海同济大学四平路建筑与城规学苑"},{"poiid":"B2094655D26BA2FB489F","title":"四平路新港路","lon":"121.49595","lat":"31.26991","category":"38","category_name":"公交车站","address":""},{"poiid":"B2094655D26CA1FC4898","title":"恒城花苑","lon":"121.497","lat":"31.2702","category":"47","category_name":"住宅区","address":"恒城花苑位于虹口四平路311号"},{"poiid":"B2094655D26CA1F5409B","title":"天宝路358弄小区(东门)","lon":"121.49839","lat":"31.2663","category":"47","category_name":"住宅区","address":"天宝路358弄1-11号"},{"poiid":"B2094757D66EA3FE459A","title":"中信虹港名庭","lon":"121.50181876618","lat":"31.265746806585","category":"47","category_name":"住宅区","address":"奉贤海湾旅游区人民塘路1019弄"},{"poiid":"B2094757DA6BA0FE459B","title":"建邦大厦","lon":"121.497618","lat":"31.266483","category":"252","category_name":"楼宇机构","address":"古墩路与余杭塘路交汇处西南角(余杭塘路279号)"},{"poiid":"B2094654D56DABFA4898","title":"虹临大厦","lon":"121.498","lat":"31.2691","category":"46","category_name":"楼宇","address":"上海临平北路68号"},{"poiid":"B2094757D76CA3F84298","title":"卧云茶敘","lon":"121.493871","lat":"31.268995","category":"66","category_name":"茶艺馆","address":"虹口区曲阳路26号(近四平路)"},{"poiid":"B2094655D265A7FA499A","title":"瑞虹新城(北门)","lon":"121.50056","lat":"31.2663","category":"47","category_name":"住宅区","address":"瑞虹路375号"},{"poiid":"B2094757D16AABFF479D","title":"新港地段医院","lon":"121.50064","lat":"31.266","category":"162","category_name":"医院","address":"虹口区瑞虹路480号(近天镇路)"},{"poiid":"B2094753D468ABFF459C","title":"上海黄浦江外滩","lon":"121.496299","lat":"31.264156","category":"500","category_name":"未知分类","address":"上海市 黄浦江"},{"poiid":"B2094757D16FA1F84498","title":"瑞虹路新港路","lon":"121.499085803","lat":"31.2668252971","category":"500","category_name":"未知分类","address":"上海虹口区瑞虹路新港路"},{"poiid":"B2094757D06EAAFB4398","title":"邮电新村地铁站","lon":"121.49450107","lat":"31.268612797","category":"36","category_name":"地铁站","address":"上海轨道交通 十号线 轨交邮电新村站 10"},{"poiid":"B2094750D365A4F94493","title":"顺风大酒店(瑞虹路店)","lon":"121.4979346984253","lat":"31.261761356687256","category":"75","category_name":"浙江菜","address":"虹口区瑞虹路116号瑞虹坊2楼(近临平北路)"},{"poiid":"B2094654D56DAAFB4899","title":"上海电信培训中心","lon":"121.50069","lat":"31.27137","category":"76","category_name":"上海菜","address":"虹口区天宝路879号(近和平公园)"},{"poiid":"B2094757D06FA3FA489E","title":"瑞虹新城一期","lon":"121.495416194","lat":"31.263365933","category":"47","category_name":"住宅区","address":"上海市虹口区临平路333号"},{"poiid":"B2094757D06FA1FC4092","title":"卜蜂莲花(新港路店)","lon":"121.4988","lat":"31.26934","category":"118","category_name":"超级市场","address":"虹口区新港路245号飘鹰大厦内(近四平路)"},{"poiid":"B2094757D06FA5FB4198","title":"华东师大一附中","lon":"121.50121","lat":"31.26504","category":"253","category_name":"校园生活","address":"上海虹口区虹关路88号(近瑞虹路)  "},{"poiid":"B2094757D06FA1F54993","title":"又一村","lon":"121.49597072163","lat":"31.270121884137","category":"68","category_name":"快餐厅","address":"虹口区四平路591号(近新港路)"},{"poiid":"B2094654D56DABFA469D","title":"爱家国际大厦","lon":"121.498","lat":"31.2673","category":"46","category_name":"楼宇","address":"上海市虹口区物华路288号"},{"poiid":"B2094654DB6BA3F94492","title":"和平公园(三号门)","lon":"121.50074","lat":"31.27164","category":"680","category_name":"楼宇机构","address":"天宝路891"},{"poiid":"B2094751D264A6F9439B","title":"La Tagliatella 纯意堂","lon":"121.498318","lat":"31.262375","category":"98","category_name":"意式菜品餐厅","address":"虹口区飞虹支路118号(近地铁4号线临平路站)"},{"poiid":"B2094757D06FA5FE449E","title":"四平路曲阳路口","lon":"121.495693","lat":"31.269823","category":"500","category_name":"未知分类","address":"上海四平路曲阳路"},{"poiid":"B2094757D06FA0FE469E","title":"邮电新村","lon":"121.49442895","lat":"31.270637995","category":"47","category_name":"住宅区","address":"上海四平路621弄〔近密云路〕"},{"poiid":"B2094654DB65A6FC469D","title":"易买得(瑞虹店)","lon":"121.49843","lat":"31.26181","category":"118","category_name":"超级市场","address":"虹口区临平路133弄瑞虹生活广场内(近飞虹路)"},{"poiid":"B2094654D56CA0FB499A","title":"金陵国际大厦","lon":"121.496","lat":"31.2713","category":"46","category_name":"楼宇","address":"海淀区城府路,中关村东路交叉处西北方向"},{"poiid":"B2094757D068A7F4469A","title":"和平公园生态动物岛","lon":"121.500744","lat":"31.271649","category":"196","category_name":"公园","address":"上海虹口区天宝路891号(和平公园内)"},{"poiid":"B2094654D56DAAF4409E","title":"飘鹰世纪大厦","lon":"121.498608","lat":"31.269361","category":"46","category_name":"楼宇","address":"天宝路578号"},{"poiid":"B2094750D26AA0F4409F","title":"大家乐香港新一代茶餐厅瑞虹店","lon":"121.498779","lat":"31.262537","category":"247","category_name":"餐饮美食","address":"瑞虹路（瑞虹坊）"},{"poiid":"B2094654D56DABF54398","title":"上海商贸大厦","lon":"121.497","lat":"31.2681","category":"46","category_name":"楼宇","address":"人民路885号-889号"},{"poiid":"B2094757D56CA1FB419E","title":"星巴克 海上海店 Starbucks Cafe","lon":"121.507325054","lat":"31.264995793","category":"247","category_name":"餐饮美食","address":"虹口区飞虹路568弄30号海上海内C7室近大连路"},{"poiid":"B2094757D069A3FF469D","title":"新港路天宝路","lon":"121.499649","lat":"31.268623","category":"500","category_name":"未知分类","address":"上海虹口区天宝路新港路"},{"poiid":"B2094654DB6BA3F9479E","title":"和平公园(四号门)","lon":"121.50157","lat":"31.26928","category":"680","category_name":"楼宇机构","address":"新港路168"},{"poiid":"B2094757D069A0F8489E","title":"萨莉亚（新港路店）","lon":"121.4985635","lat":"31.270082015","category":"94","category_name":"西餐厅","address":"虹口区新港路245号飘鹰大厦1楼(近四平路)"},{"poiid":"B2094655D26BA5FA449E","title":"中信和平家园","lon":"121.49881","lat":"31.26959","category":"47","category_name":"住宅区","address":"虹口区新港路227号"},{"poiid":"B2094654D56DAAFC419A","title":"海事大厦","lon":"121.4972158025","lat":"31.268584709787","category":"46","category_name":"楼宇","address":"昌平区回龙观镇国际信息产业基地高新二街"},{"poiid":"B2094750D26CA3FE459B","title":"唐韵秦风 瑞虹路店","lon":"121.49840354919","lat":"31.261897695753","category":"84","category_name":"西北菜","address":"虹口区瑞虹路138号瑞虹坊2楼(近临平路)"},{"poiid":"B2094654D56DABFA479A","title":"麒麟大厦","lon":"121.498","lat":"31.2677","category":"46","category_name":"楼宇","address":"崇文区夕照寺大街"},{"poiid":"B2094757DA6EAAF8439C","title":"深井大叔港式烧腊(瑞虹生活广场店)","lon":"121.49768","lat":"31.2613","category":"72","category_name":"广东菜","address":"虹口区临平路133弄瑞虹生活广场1-01室(近天宝路)"},{"poiid":"B2094757D06FA4FF429E","title":"肯德基 KFC (天宝店)","lon":"121.49895817","lat":"31.269665163","category":"68","category_name":"快餐厅","address":"虹口区新港路245号卜蜂莲花内(近四平路)"},{"poiid":"B2094654D56CA7FE4392","title":"龙邸大厦","lon":"121.495557","lat":"31.266546","category":"46","category_name":"楼宇","address":"徐汇区田林路388号"},{"poiid":"B2094757D665A2FB4993","title":"潮汕砂锅粥","lon":"121.497189","lat":"31.270722","category":"72","category_name":"广东菜","address":"虹口区四平路712号湘满园楼上"},{"poiid":"B2094757D16CA2FB4699","title":"福龙大厦","lon":"121.496","lat":"31.2681","category":"46","category_name":"楼宇","address":"上海市虹口区四平路277号"},{"poiid":"B2094757D064A7FC4498","title":"华师大一附中羽毛球馆","lon":"121.50126","lat":"31.26654","category":"68","category_name":"快餐厅","address":"虹口区虹关路88号(近瑞虹二期)"},{"poiid":"B2094757D065A0FF439D","title":"四平路密云路","lon":"121.4962091","lat":"31.271177438","category":"500","category_name":"未知分类","address":"上海市虹口区曲阳路"},{"poiid":"B2094757D164A7F5469B","title":"瑞虹新城","lon":"121.495373","lat":"31.263544","category":"47","category_name":"住宅区","address":"虹口区临平路333号"},{"poiid":"B2094757D068A1FC489D","title":"老四烧烤(新港路店)","lon":"121.49694","lat":"31.27003","category":"257","category_name":"中餐厅","address":"虹口区新港路(四平路口)"},{"poiid":"B2094654D56CA7FE409C","title":"喜临门大厦","lon":"121.496","lat":"31.2675","category":"46","category_name":"楼宇","address":"长宁路1158号贝多芬广场618室"},{"poiid":"B2094757D46FA3FF4292","title":"85度C 临平店","lon":"121.496640054","lat":"31.262250793","category":"67","category_name":"甜品店","address":"虹口区临平路327号(近天宝路)"},{"poiid":"B2094654D56DAAF4409F","title":"飘鹰(新港)大酒店","lon":"121.49909","lat":"31.26932","category":"76","category_name":"上海菜","address":"虹口区天宝路578号4楼(近新港路)"},{"poiid":"B2094757D16CA3FA4992","title":"同济大学雅憩","lon":"121.49458812","lat":"31.266952489","category":"253","category_name":"校园生活","address":"上海同济大学四平路建筑与城规学苑"},{"poiid":"B2094655D26BA2FB489F","title":"四平路新港路","lon":"121.49595","lat":"31.26991","category":"38","category_name":"公交车站","address":""},{"poiid":"B2094655D26CA1FC4898","title":"恒城花苑","lon":"121.497","lat":"31.2702","category":"47","category_name":"住宅区","address":"恒城花苑位于虹口四平路311号"},{"poiid":"B2094655D26CA1F5409B","title":"天宝路358弄小区(东门)","lon":"121.49839","lat":"31.2663","category":"47","category_name":"住宅区","address":"天宝路358弄1-11号"},{"poiid":"B2094757D66EA3FE459A","title":"中信虹港名庭","lon":"121.50181876618","lat":"31.265746806585","category":"47","category_name":"住宅区","address":"奉贤海湾旅游区人民塘路1019弄"},{"poiid":"B2094757DA6BA0FE459B","title":"建邦大厦","lon":"121.497618","lat":"31.266483","category":"252","category_name":"楼宇机构","address":"古墩路与余杭塘路交汇处西南角(余杭塘路279号)"},{"poiid":"B2094654D56DABFA4898","title":"虹临大厦","lon":"121.498","lat":"31.2691","category":"46","category_name":"楼宇","address":"上海临平北路68号"},{"poiid":"B2094757D76CA3F84298","title":"卧云茶敘","lon":"121.493871","lat":"31.268995","category":"66","category_name":"茶艺馆","address":"虹口区曲阳路26号(近四平路)"},{"poiid":"B2094655D265A7FA499A","title":"瑞虹新城(北门)","lon":"121.50056","lat":"31.2663","category":"47","category_name":"住宅区","address":"瑞虹路375号"},{"poiid":"B2094757D16AABFF479D","title":"新港地段医院","lon":"121.50064","lat":"31.266","category":"162","category_name":"医院","address":"虹口区瑞虹路480号(近天镇路)"},{"poiid":"B2094753D468ABFF459C","title":"上海黄浦江外滩","lon":"121.496299","lat":"31.264156","category":"500","category_name":"未知分类","address":"上海市 黄浦江"},{"poiid":"B2094757D16FA1F84498","title":"瑞虹路新港路","lon":"121.499085803","lat":"31.2668252971","category":"500","category_name":"未知分类","address":"上海虹口区瑞虹路新港路"}]