[{"poiid":"B2094757D06EAAFA499C","title":"上海东方佘山索菲特大酒店","lon":"121.22456062","lat":"31.113434248","category":"217","category_name":"旅馆招待所","address":"松江区泗陈公路3388弄"},{"poiid":"B2094757D06EAAFC4193","title":"佘山地铁站","lon":"121.229661","lat":"31.105242","category":"36","category_name":"地铁站","address":"上海轨道交通 九号线 轨交佘山站 9"},{"poiid":"B2094757D06FA1FD479B","title":"欢乐谷 绝顶雄风","lon":"121.22014617","lat":"31.098506927","category":"195","category_name":"游乐场","address":"松江区佘山镇林湖路888号上海欢乐谷内"},{"poiid":"B2094757D06FA4FD4992","title":"上海佘山国际高尔夫俱乐部","lon":"121.228","lat":"31.11","category":"500","category_name":"未知分类","address":"上海市松江区佘山旅游度假区林荫新路288弄"},{"poiid":"B2094757D064AAFA4693","title":"欢乐谷 古木游龙","lon":"121.221438196","lat":"31.098652128","category":"500","category_name":"未知分类","address":"上海市松江区林荫新路"},{"poiid":"B2094757D468ABF84792","title":"佘山索菲特大酒店自助餐厅 全天候餐厅","lon":"121.22442146469791","lat":"31.114018076927728","category":"268","category_name":"自助","address":"泗泾镇泗陈公路3388弄黄河佘山索菲特大酒店1楼近嘉松公路"},{"poiid":"B2094654DA6BABF8479C","title":"新凯家园","lon":"121.23679","lat":"31.104221","category":"47","category_name":"住宅区","address":"松江区古楼公路1858弄"},{"poiid":"B2094654DA6BABF94498","title":"佘山银湖别墅","lon":"121.24036","lat":"31.11974","category":"47","category_name":"住宅区","address":"松江区泗陈公路2888弄"},{"poiid":"B2094757D06FABF94293","title":"欢乐谷 大摆锤","lon":"121.22387695","lat":"31.098340988","category":"195","category_name":"游乐场","address":"松江区佘山镇林湖路888号上海欢乐谷内"},{"poiid":"B2094757D068A1FE439E","title":"欢乐谷 蓝月飞车","lon":"121.21751619","lat":"31.099986156","category":"195","category_name":"游乐场","address":"松江区佘山镇林湖路888号上海欢乐谷内"},{"poiid":"B2094757D069A5F4469D","title":"新凯家园二期","lon":"121.238588196","lat":"31.1074093156","category":"47","category_name":"住宅区","address":"上海市新家园路"},{"poiid":"B2094757D06AABFD439E","title":"上海人家私房菜--佘山店","lon":"121.22350719","lat":"31.113488445","category":"76","category_name":"上海菜","address":"松江区泗陈公路3388号佘山索菲特酒店(近嘉松公路)"},{"poiid":"B2094757D568ABFF4493","title":"佘山国家旅游度假区","lon":"121.22851698","lat":"31.10490424","category":"207","category_name":"度假疗养场所","address":"中国上海市松江区林荫大道"},{"poiid":"B2094757D064A6FA439B","title":"VIE全天候餐厅","lon":"121.22358","lat":"31.11264","category":"268","category_name":"自助","address":"松江区泗泾镇泗陈公路3388弄东方佘山索菲特大酒店1楼(近嘉松公路)"},{"poiid":"B2094750D665A7FC409D","title":"千江月海鲜大酒店","lon":"121.238","lat":"31.1043","category":"260","category_name":"其他","address":"松江区古楼路1886号(近9号线佘山站)"},{"poiid":"B2094655D36DA7F4499B","title":"泗陈公路","lon":"121.22786","lat":"31.11099","category":"38","category_name":"公交车站","address":""},{"poiid":"B2094757D069A6F8439C","title":"湖光山色舫","lon":"121.24426","lat":"31.11","category":"76","category_name":"上海菜","address":"松江区泗泾镇泗凤路588号"},{"poiid":"B2094757D464A7F84792","title":"湖光山色农家土菜馆","lon":"121.2383897874","lat":"31.116690130831","category":"76","category_name":"上海菜","address":"泗泾镇泗凤公路588号近嘉松南路"},{"poiid":"B2094757D568A5F94899","title":"明珠大厦","lon":"121.2317","lat":"31.1154","category":"46","category_name":"楼宇","address":"水城南路55号"},{"poiid":"B2094750D56FA1FD419F","title":"新凯家园三期","lon":"121.227973","lat":"31.114662","category":"47","category_name":"住宅区","address":null},{"poiid":"B2094655D26AA0FA459F","title":"地铁佘山站","lon":"121.22966","lat":"31.10525","category":"36","category_name":"地铁站","address":""},{"poiid":"B2094654DA6BABFB479A","title":"圣塔路斯","lon":"121.24774","lat":"31.105677","category":"47","category_name":"住宅区","address":"松江区泗泾古楼公路1198号"},{"poiid":"B2094654DB69A7FF459A","title":"上海佘山银湖酒店有限公司游泳馆","lon":"121.23299","lat":"31.11499","category":"231","category_name":"游泳馆","address":"松江区泗泾镇泗陈公路888弄1号"},{"poiid":"B2094750DA65A7FE419B","title":"辰山植物园","lon":"121.238159","lat":"31.111351","category":"196","category_name":"公园","address":null},{"poiid":"B2094655D36DA2F9439C","title":"泗凤公路新河桥","lon":"121.23115","lat":"31.10856","category":"250","category_name":"公园户外","address":""},{"poiid":"B2094757DA6EAAFC479C","title":"华润置地佘山九里","lon":"121.239136","lat":"31.108664","category":"252","category_name":"楼宇机构","address":"松江区古楼公路529号"},{"poiid":"B2094757D66BA7F84193","title":"哈里欧咖啡 Hecto Coffee","lon":"121.229454054","lat":"31.104683793","category":"65","category_name":"咖啡厅","address":"松江区嘉松南路2699号(佘山地铁站对面)"},{"poiid":"B2094757D16EA4FE439F","title":"上海人家","lon":"121.22377548","lat":"31.113351526","category":"247","category_name":"餐饮美食","address":"上海泗陈公路3388号"},{"poiid":"B2094751DA6EA7FF489D","title":"星濠国际影城","lon":"121.233539","lat":"31.104018","category":"178","category_name":"电影院","address":"松江区泗泾镇古楼公路1886号"},{"poiid":"B2094757D569A2FF439F","title":"佘山东郡","lon":"121.23667209","lat":"31.10390652","category":"47","category_name":"住宅区","address":"松江区泗泾古楼路1269弄(近嘉松南路)"},{"poiid":"B2094757D568AAFC4399","title":"佘山湾","lon":"121.242136","lat":"31.114921","category":"47","category_name":"住宅区","address":"上海市松江区新家园路5号"},{"poiid":"B2094757D06AA4FE429C","title":"欢乐谷 蚂蚁城堡","lon":"121.23590457","lat":"31.101645835","category":"195","category_name":"游乐场","address":"松江区佘山镇林湖路888号上海欢乐谷内"},{"poiid":"B2094757D465A1FE4999","title":"王子饭店","lon":"121.226482054","lat":"31.123340793","category":"72","category_name":"广东菜","address":"松江区泗陈公路3388弄2号东方佘山索菲特大酒店内(近嘉松南路)"},{"poiid":"B2094757D569A2FA489A","title":"佘山月湖山庄","lon":"121.22485","lat":"31.102179","category":"47","category_name":"住宅区","address":"林荫道1888号"},{"poiid":"B2094751D568A2FD439A","title":"上海星濠国际影城","lon":"121.233195","lat":"31.105209","category":"248","category_name":"生活娱乐","address":"松江区泗泾镇古楼路1876-1886号(近9号线佘山地铁站)"},{"poiid":"B2094750D565A6FD4899","title":"泗泾医院","lon":"121.240005","lat":"31.105981","category":"162","category_name":"医院","address":null},{"poiid":"B2094654DA6BABFF479C","title":"湖光山色","lon":"121.24421","lat":"31.11044","category":"250","category_name":"公园户外","address":""},{"poiid":"B2094751DA6CA5FE469D","title":"炫麦量贩","lon":"121.228558","lat":"31.105566","category":"248","category_name":"生活娱乐","address":"泗泾古楼路"},{"poiid":"B2094757D168A6FC4098","title":"田字坊","lon":"121.229928376","lat":"31.1039230509","category":"500","category_name":"未知分类","address":"上海泰康路"},{"poiid":"B2094757D568A4F94498","title":"尊龙国际会所","lon":"121.22373128","lat":"31.11330295","category":"251","category_name":"出行住宿","address":"中国上海市松江区泗陈公路"},{"poiid":"B2094757D06FA6F9499E","title":"谷木游龙","lon":"121.223876953","lat":"31.0983409882","category":"500","category_name":"未知分类","address":"上海欢乐谷内"},{"poiid":"B2094757D06AA7FA4193","title":"上海欢乐谷 峡谷漂流","lon":"121.24267782","lat":"31.103349371","category":"500","category_name":"未知分类","address":"上海松江区佘山镇林湖路888号"},{"poiid":"B2094757D164A7F94293","title":"张小妹粽子","lon":"121.245003696","lat":"31.1118399106","category":"257","category_name":"中餐厅","address":"松江区泗泾镇江川北路151号(近泗陈公路)"},{"poiid":"B2094757D66DABFE469F","title":"金地∙佘山天境","lon":"121.22669319","lat":"31.127497746","category":"500","category_name":"未知分类","address":"上海嘉松中路6888弄"},{"poiid":"B2094654DA6BABFF479F","title":"幽篁","lon":"121.22407","lat":"31.10376","category":"47","category_name":"住宅区","address":"林荫新路255弄"},{"poiid":"B2094655D265A7FF4393","title":"LaScala","lon":"121.22206","lat":"31.10409","category":"247","category_name":"餐饮美食","address":"松江佘山国家旅游度假区林荫新路288弄佘山高尔夫郡乡村俱乐部2层"},{"poiid":"B2094757D568A4F44893","title":"虹桥万豪酒店","lon":"121.222","lat":"31.1135","category":"251","category_name":"出行住宿","address":"虹桥路2270号"},{"poiid":"B2094654DA6BA4FB479E","title":"佘山高尔夫郡","lon":"121.21918","lat":"31.102373","category":"47","category_name":"住宅区","address":"松江区佘山旅游度假区林荫新路288弄"},{"poiid":"B2094753D46AA1FE4692","title":"玛雅水上公园","lon":"121.234367","lat":"31.101167","category":"500","category_name":"未知分类","address":"上海市 佘山"},{"poiid":"B2094757D16AA5FB409C","title":"米兰诺贵都","lon":"121.245977196","lat":"31.1034752313","category":"47","category_name":"住宅区","address":"上海市松江区古楼路"},{"poiid":"B2094757D06EAAFA499C","title":"上海东方佘山索菲特大酒店","lon":"121.22456062","lat":"31.113434248","category":"217","category_name":"旅馆招待所","address":"松江区泗陈公路3388弄"},{"poiid":"B2094757D06EAAFC4193","title":"佘山地铁站","lon":"121.229661","lat":"31.105242","category":"36","category_name":"地铁站","address":"上海轨道交通 九号线 轨交佘山站 9"},{"poiid":"B2094757D06FA1FD479B","title":"欢乐谷 绝顶雄风","lon":"121.22014617","lat":"31.098506927","category":"195","category_name":"游乐场","address":"松江区佘山镇林湖路888号上海欢乐谷内"},{"poiid":"B2094757D06FA4FD4992","title":"上海佘山国际高尔夫俱乐部","lon":"121.228","lat":"31.11","category":"500","category_name":"未知分类","address":"上海市松江区佘山旅游度假区林荫新路288弄"},{"poiid":"B2094757D064AAFA4693","title":"欢乐谷 古木游龙","lon":"121.221438196","lat":"31.098652128","category":"500","category_name":"未知分类","address":"上海市松江区林荫新路"},{"poiid":"B2094757D468ABF84792","title":"佘山索菲特大酒店自助餐厅 全天候餐厅","lon":"121.22442146469791","lat":"31.114018076927728","category":"268","category_name":"自助","address":"泗泾镇泗陈公路3388弄黄河佘山索菲特大酒店1楼近嘉松公路"},{"poiid":"B2094654DA6BABF8479C","title":"新凯家园","lon":"121.23679","lat":"31.104221","category":"47","category_name":"住宅区","address":"松江区古楼公路1858弄"},{"poiid":"B2094654DA6BABF94498","title":"佘山银湖别墅","lon":"121.24036","lat":"31.11974","category":"47","category_name":"住宅区","address":"松江区泗陈公路2888弄"},{"poiid":"B2094757D06FABF94293","title":"欢乐谷 大摆锤","lon":"121.22387695","lat":"31.098340988","category":"195","category_name":"游乐场","address":"松江区佘山镇林湖路888号上海欢乐谷内"},{"poiid":"B2094757D068A1FE439E","title":"欢乐谷 蓝月飞车","lon":"121.21751619","lat":"31.099986156","category":"195","category_name":"游乐场","address":"松江区佘山镇林湖路888号上海欢乐谷内"},{"poiid":"B2094757D069A5F4469D","title":"新凯家园二期","lon":"121.238588196","lat":"31.1074093156","category":"47","category_name":"住宅区","address":"上海市新家园路"},{"poiid":"B2094757D06AABFD439E","title":"上海人家私房菜--佘山店","lon":"121.22350719","lat":"31.113488445","category":"76","category_name":"上海菜","address":"松江区泗陈公路3388号佘山索菲特酒店(近嘉松公路)"},{"poiid":"B2094757D568ABFF4493","title":"佘山国家旅游度假区","lon":"121.22851698","lat":"31.10490424","category":"207","category_name":"度假疗养场所","address":"中国上海市松江区林荫大道"},{"poiid":"B2094757D064A6FA439B","title":"VIE全天候餐厅","lon":"121.22358","lat":"31.11264","category":"268","category_name":"自助","address":"松江区泗泾镇泗陈公路3388弄东方佘山索菲特大酒店1楼(近嘉松公路)"},{"poiid":"B2094750D665A7FC409D","title":"千江月海鲜大酒店","lon":"121.238","lat":"31.1043","category":"260","category_name":"其他","address":"松江区古楼路1886号(近9号线佘山站)"},{"poiid":"B2094655D36DA7F4499B","title":"泗陈公路","lon":"121.22786","lat":"31.11099","category":"38","category_name":"公交车站","address":""},{"poiid":"B2094757D069A6F8439C","title":"湖光山色舫","lon":"121.24426","lat":"31.11","category":"76","category_name":"上海菜","address":"松江区泗泾镇泗凤路588号"},{"poiid":"B2094757D464A7F84792","title":"湖光山色农家土菜馆","lon":"121.2383897874","lat":"31.116690130831","category":"76","category_name":"上海菜","address":"泗泾镇泗凤公路588号近嘉松南路"},{"poiid":"B2094757D568A5F94899","title":"明珠大厦","lon":"121.2317","lat":"31.1154","category":"46","category_name":"楼宇","address":"水城南路55号"},{"poiid":"B2094750D56FA1FD419F","title":"新凯家园三期","lon":"121.227973","lat":"31.114662","category":"47","category_name":"住宅区","address":null},{"poiid":"B2094655D26AA0FA459F","title":"地铁佘山站","lon":"121.22966","lat":"31.10525","category":"36","category_name":"地铁站","address":""},{"poiid":"B2094654DA6BABFB479A","title":"圣塔路斯","lon":"121.24774","lat":"31.105677","category":"47","category_name":"住宅区","address":"松江区泗泾古楼公路1198号"},{"poiid":"B2094654DB69A7FF459A","title":"上海佘山银湖酒店有限公司游泳馆","lon":"121.23299","lat":"31.11499","category":"231","category_name":"游泳馆","address":"松江区泗泾镇泗陈公路888弄1号"},{"poiid":"B2094750DA65A7FE419B","title":"辰山植物园","lon":"121.238159","lat":"31.111351","category":"196","category_name":"公园","address":null},{"poiid":"B2094655D36DA2F9439C","title":"泗凤公路新河桥","lon":"121.23115","lat":"31.10856","category":"250","category_name":"公园户外","address":""},{"poiid":"B2094757DA6EAAFC479C","title":"华润置地佘山九里","lon":"121.239136","lat":"31.108664","category":"252","category_name":"楼宇机构","address":"松江区古楼公路529号"},{"poiid":"B2094757D66BA7F84193","title":"哈里欧咖啡 Hecto Coffee","lon":"121.229454054","lat":"31.104683793","category":"65","category_name":"咖啡厅","address":"松江区嘉松南路2699号(佘山地铁站对面)"},{"poiid":"B2094757D16EA4FE439F","title":"上海人家","lon":"121.22377548","lat":"31.113351526","category":"247","category_name":"餐饮美食","address":"上海泗陈公路3388号"},{"poiid":"B2094751DA6EA7FF489D","title":"星濠国际影城","lon":"121.233539","lat":"31.104018","category":"178","category_name":"电影院","address":"松江区泗泾镇古楼公路1886号"},{"poiid":"B2094757D569A2FF439F","title":"佘山东郡","lon":"121.23667209","lat":"31.10390652","category":"47","category_name":"住宅区","address":"松江区泗泾古楼路1269弄(近嘉松南路)"},{"poiid":"B2094757D568AAFC4399","title":"佘山湾","lon":"121.242136","lat":"31.114921","category":"47","category_name":"住宅区","address":"上海市松江区新家园路5号"},{"poiid":"B2094757D06AA4FE429C","title":"欢乐谷 蚂蚁城堡","lon":"121.23590457","lat":"31.101645835","category":"195","category_name":"游乐场","address":"松江区佘山镇林湖路888号上海欢乐谷内"},{"poiid":"B2094757D465A1FE4999","title":"王子饭店","lon":"121.226482054","lat":"31.123340793","category":"72","category_name":"广东菜","address":"松江区泗陈公路3388弄2号东方佘山索菲特大酒店内(近嘉松南路)"},{"poiid":"B2094757D569A2FA489A","title":"佘山月湖山庄","lon":"121.22485","lat":"31.102179","category":"47","category_name":"住宅区","address":"林荫道1888号"},{"poiid":"B2094751D568A2FD439A","title":"上海星濠国际影城","lon":"121.233195","lat":"31.105209","category":"248","category_name":"生活娱乐","address":"松江区泗泾镇古楼路1876-1886号(近9号线佘山地铁站)"},{"poiid":"B2094750D565A6FD4899","title":"泗泾医院","lon":"121.240005","lat":"31.105981","category":"162","category_name":"医院","address":null},{"poiid":"B2094654DA6BABFF479C","title":"湖光山色","lon":"121.24421","lat":"31.11044","category":"250","category_name":"公园户外","address":""},{"poiid":"B2094751DA6CA5FE469D","title":"炫麦量贩","lon":"121.228558","lat":"31.105566","category":"248","category_name":"生活娱乐","address":"泗泾古楼路"},{"poiid":"B2094757D168A6FC4098","title":"田字坊","lon":"121.229928376","lat":"31.1039230509","category":"500","category_name":"未知分类","address":"上海泰康路"},{"poiid":"B2094757D568A4F94498","title":"尊龙国际会所","lon":"121.22373128","lat":"31.11330295","category":"251","category_name":"出行住宿","address":"中国上海市松江区泗陈公路"},{"poiid":"B2094757D06FA6F9499E","title":"谷木游龙","lon":"121.223876953","lat":"31.0983409882","category":"500","category_name":"未知分类","address":"上海欢乐谷内"},{"poiid":"B2094757D06AA7FA4193","title":"上海欢乐谷 峡谷漂流","lon":"121.24267782","lat":"31.103349371","category":"500","category_name":"未知分类","address":"上海松江区佘山镇林湖路888号"},{"poiid":"B2094757D164A7F94293","title":"张小妹粽子","lon":"121.245003696","lat":"31.1118399106","category":"257","category_name":"中餐厅","address":"松江区泗泾镇江川北路151号(近泗陈公路)"},{"poiid":"B2094757D66DABFE469F","title":"金地∙佘山天境","lon":"121.22669319","lat":"31.127497746","category":"500","category_name":"未知分类","address":"上海嘉松中路6888弄"},{"poiid":"B2094654DA6BABFF479F","title":"幽篁","lon":"121.22407","lat":"31.10376","category":"47","category_name":"住宅区","address":"林荫新路255弄"},{"poiid":"B2094655D265A7FF4393","title":"LaScala","lon":"121.22206","lat":"31.10409","category":"247","category_name":"餐饮美食","address":"松江佘山国家旅游度假区林荫新路288弄佘山高尔夫郡乡村俱乐部2层"},{"poiid":"B2094757D568A4F44893","title":"虹桥万豪酒店","lon":"121.222","lat":"31.1135","category":"251","category_name":"出行住宿","address":"虹桥路2270号"},{"poiid":"B2094654DA6BA4FB479E","title":"佘山高尔夫郡","lon":"121.21918","lat":"31.102373","category":"47","category_name":"住宅区","address":"松江区佘山旅游度假区林荫新路288弄"},{"poiid":"B2094753D46AA1FE4692","title":"玛雅水上公园","lon":"121.234367","lat":"31.101167","category":"500","category_name":"未知分类","address":"上海市 佘山"},{"poiid":"B2094757D16AA5FB409C","title":"米兰诺贵都","lon":"121.245977196","lat":"31.1034752313","category":"47","category_name":"住宅区","address":"上海市松江区古楼路"}]