[{"poiid":"B2094655D36CA2F44693","title":"上海南站","lon":"121.42971","lat":"31.15507","category":"38","category_name":"公交车站","address":""},{"poiid":"B2094655D26FA6F9429E","title":"星巴克(上海南站店)","lon":"121.429487","lat":"31.153302","category":"65","category_name":"咖啡厅","address":"徐汇区沪闵路9001-3号盛泰购物中心南商场1-B27号铺(近上海南站)"},{"poiid":"B2094757D06EAAFE409E","title":"上海南站地铁站","lon":"121.430219","lat":"31.154675","category":"36","category_name":"地铁站","address":"上海轨道交通 一号线 三号线 轨交上海南站站 轻轨 1 3"},{"poiid":"B2094757D06FA6FE459E","title":"盛泰时尚购物中心(原银泰)","lon":"121.430518","lat":"31.152855","category":"119","category_name":"商场","address":"徐汇区老沪闵路289号上海南站下沉式广场南广场/北广场"},{"poiid":"B2094757D068A7F94493","title":"上海地铁梅陇基地","lon":"121.42351945","lat":"31.149536729","category":"46","category_name":"楼宇","address":"上海市徐汇区老沪闵路1号(沪闵路口)"},{"poiid":"B2094757D568A0FF449F","title":"上海南站南北广场","lon":"121.4294872","lat":"31.15330222","category":"22","category_name":"火车站","address":"老沪闵路289号"},{"poiid":"B2094750D665A0FA4392","title":"必胜客(上海南站店)","lon":"121.428","lat":"31.1547","category":"94","category_name":"西餐厅","address":"徐汇区沪闵路9001-3号上海南站北广场B1楼C区北1-c1-1号(近石龙路)"},{"poiid":"B2094757D06FA7F8459D","title":"上海南站南广场公交枢纽","lon":"121.42879486","lat":"31.154157638","category":"22","category_name":"火车站","address":"上海南站南广场"},{"poiid":"B2094757D06FA6F4409F","title":"桂林路沪闵路","lon":"121.423251","lat":"31.153142","category":"260","category_name":"其他","address":"上海徐汇区桂林路沪闵路口"},{"poiid":"B2094757D069A4FA419E","title":"上海长途客运南站候车大厅","lon":"121.42932733","lat":"31.154564354","category":"500","category_name":"未知分类","address":"上海石龙路999号"},{"poiid":"B2094757D06FA4FE4992","title":"肯德基 KFC (柳州2店)","lon":"121.428634","lat":"31.154984","category":"68","category_name":"快餐厅","address":"徐汇区地铁一号线上海南站地铁换乘通道内(近石龙路)"},{"poiid":"B2094757D068A5FB479A","title":"东方既白(上海南站店)","lon":"121.42789","lat":"31.15478","category":"68","category_name":"快餐厅","address":"徐汇区沪闵路9001-3号上海南站北广场内(近石龙路)"},{"poiid":"B2094757D068ABF4449F","title":"桂林东街","lon":"121.422745","lat":"31.157641","category":"260","category_name":"其他","address":"上海徐汇区桂林东街"},{"poiid":"B2094750DA6AA4FB4998","title":"上海南站金山铁路达到出发处","lon":"121.428573","lat":"31.151111","category":"251","category_name":"出行住宿","address":null},{"poiid":"B209475DD264A1FB409D","title":"上海中星铂尔曼大酒店","lon":"121.427803","lat":"31.158374","category":"500","category_name":"未知分类","address":"上海市 上海市徐汇区浦北路1号"},{"poiid":"B2094655D26AA0F9419E","title":"地铁上海南站站","lon":"121.42914","lat":"31.15673","category":"36","category_name":"地铁站","address":""},{"poiid":"B2094655D264A0F54399","title":"DQ上海南站店","lon":"121.42744","lat":"31.15411","category":"113","category_name":"冷饮店","address":"沪闵路9001-3号银泰购物中心北1-B24"},{"poiid":"B2094757D06FA0FA469E","title":"银泰百利时尚中心","lon":"121.42835","lat":"31.15426","category":"119","category_name":"商场","address":"徐汇区老沪闵路289号上海南站下沉式广场  "},{"poiid":"B2094757D464A7F4439E","title":"香乡村大龙虾 浦北路店","lon":"121.421373054","lat":"31.154949793","category":"68","category_name":"快餐厅","address":"徐汇区浦北路331号(桂林路口)"},{"poiid":"B2094654DB6CA1F4489D","title":"豪享来上海沪闵店","lon":"121.429","lat":"31.149","category":"247","category_name":"餐饮美食","address":"上海市徐汇区老沪闵路660号"},{"poiid":"B2094757D068A7FF449C","title":"食其家(上海南站店)","lon":"121.427833","lat":"31.153902","category":"95","category_name":"日本料理","address":"徐汇区沪闵路9001-3号银泰购物中心B2楼A区南2-A座7(近上海南站)"},{"poiid":"B2094757D068ABFF4698","title":"沪闵路柳州路","lon":"121.42828705","lat":"31.156362876","category":"260","category_name":"其他","address":"上海沪闵路柳州路"},{"poiid":"B2094757DB68AAF9499B","title":"小杨生煎(南站店)","lon":"121.43025093127449","lat":"31.15485663026557","category":"257","category_name":"中餐厅","address":"徐汇区沪闵路9001-3号上海南站北广场B1楼"},{"poiid":"B2094757D06BA7F4469C","title":"真功夫(上海南站店)","lon":"121.4274","lat":"31.15396","category":"68","category_name":"快餐厅","address":"徐汇区沪闵路9001-3号上海南站北广场内(近地铁一号线4号出口)"},{"poiid":"B2094757D06AA6F8429F","title":"徐汇区科技幼儿园","lon":"121.428773586","lat":"31.1493918514","category":"57","category_name":"幼儿园","address":"徐汇区嘉陵路28号"},{"poiid":"B2094757D068A6FC4492","title":"海上名邸","lon":"121.423313","lat":"31.154853","category":"47","category_name":"住宅区","address":"上海桂林东街28弄"},{"poiid":"B2094654DB65A0FF469D","title":"上海南站北广场(B1西北进站口)","lon":"121.42843","lat":"31.15316","category":"22","category_name":"火车站","address":""},{"poiid":"B2094757D168A0F8439F","title":"85度C(南站北广场店)","lon":"121.4325","lat":"31.152","category":"112","category_name":"糕饼店","address":"徐汇区地铁一号线上海南站地下商场北馆B1楼C区1-C2-3号(近石龙路)"},{"poiid":"B2094655D26FA3F9469D","title":"上海南站南广场(B1东南进站口)","lon":"121.43043","lat":"31.15282","category":"22","category_name":"火车站","address":""},{"poiid":"B2094751D56FA7FC459F","title":"拿渡麻辣香锅","lon":"121.426949","lat":"31.153312","category":"247","category_name":"餐饮美食","address":"上海南站 银泰广场 B2"},{"poiid":"B209475CD26FA0FA429B","title":"田子坊","lon":"121.424812","lat":"31.154321","category":"500","category_name":"未知分类","address":"上海市 上海泰康路"},{"poiid":"B2094655D36CA7F4449C","title":"桂林西街","lon":"121.42326","lat":"31.15322","category":"38","category_name":"公交车站","address":""},{"poiid":"B2094655D26FA5F84093","title":"金塘小区","lon":"121.4259","lat":"31.148438","category":"47","category_name":"住宅区","address":"老沪闵路333弄1-97号"},{"poiid":"B2094757D06BA4FA479F","title":"上海地铁梅陇基地多功能厅","lon":"121.424393","lat":"31.151034","category":"46","category_name":"楼宇","address":"徐汇区老沪闵路1号(近桂林路)"},{"poiid":"B2094757D168A3FA439A","title":"浦北路桂林路","lon":"121.42126578","lat":"31.154662754","category":"500","category_name":"未知分类","address":"上海浦北路桂林路"},{"poiid":"B2094655D26EABF84398","title":"上海南站北广场(东北出口)","lon":"121.42922","lat":"31.15398","category":"22","category_name":"火车站","address":""},{"poiid":"B2094757D16FA7FA409D","title":"乐乐驿站","lon":"121.424579386","lat":"31.1525406129","category":"46","category_name":"楼宇","address":"上海桂林东街"},{"poiid":"B2094752D565A3F54599","title":"新石器烤肉","lon":"121.426377","lat":"31.154295","category":"247","category_name":"餐饮美食","address":"上海南站"},{"poiid":"B2094654DA65A6FD449A","title":"上海南站(南门)","lon":"121.43005","lat":"31.1526","category":"22","category_name":"火车站","address":""},{"poiid":"B2094655D26BABFF4993","title":"快乐柠檬 上海南站店 Happy Lemon","lon":"121.429858054","lat":"31.155409793","category":"247","category_name":"餐饮美食","address":"上海南站地铁换乘通道内"},{"poiid":"B2094655D36CA7FD479F","title":"沪闵路桂林路","lon":"121.42424","lat":"31.15252","category":"38","category_name":"公交车站","address":""},{"poiid":"B2094655D26FA6FA469D","title":"寿山坊","lon":"121.4224","lat":"31.15266","category":"47","category_name":"住宅区","address":"桂林西街201弄1-51号"},{"poiid":"B2094654DA65A6FD439C","title":"城市动力广场","lon":"121.42649","lat":"31.15402","category":"201","category_name":"城市广场","address":"漕河泾镇"},{"poiid":"B2094750D768A2FA429C","title":"赛百味(上海南站店)","lon":"121.428","lat":"31.1547","category":"94","category_name":"西餐厅","address":"徐汇区沪闵路9001-3号银泰购物中心北商场A4-1号(近上海南站)"},{"poiid":"B2094655D26BA0FF4693","title":"争鲜外带寿司 上海南站店","lon":"121.428453054","lat":"31.155505793","category":"95","category_name":"日本料理","address":"闵行区沪闵路7388号南方商城3F(近莲花路)"},{"poiid":"B2094757D468A7FD489C","title":"吉野家 柳州路店","lon":"121.429398054","lat":"31.155362793","category":"72","category_name":"广东菜","address":"徐汇区地铁一号线三号线上海南站地铁换乘通道内(近石龙路)"},{"poiid":"B2094757D66CA6FE479E","title":"莫泰168","lon":"121.422375586","lat":"31.1542439461","category":"500","category_name":"未知分类","address":"徐汇区桂林路17号"},{"poiid":"B2094752D365ABFA459B","title":"百春原","lon":"121.427363","lat":"31.152479","category":"247","category_name":"餐饮美食","address":"上海市徐汇区石龙路上海南站盛泰商场B2"},{"poiid":"B2094750D56FABF5489D","title":"康师傅面馆","lon":"121.43","lat":"31.1544","category":"68","category_name":"快餐厅","address":"徐汇区地铁上海南站站一、三号线换乘通道"},{"poiid":"B2094757D568ABFA459D","title":"安徒生冰淇淋上海南站店","lon":"121.4274361","lat":"31.15411111","category":"247","category_name":"餐饮美食","address":"沪闵路9001-3号上海南站北广场B1层"},{"poiid":"B2094655D36CA2F44693","title":"上海南站","lon":"121.42971","lat":"31.15507","category":"38","category_name":"公交车站","address":""},{"poiid":"B2094655D26FA6F9429E","title":"星巴克(上海南站店)","lon":"121.429487","lat":"31.153302","category":"65","category_name":"咖啡厅","address":"徐汇区沪闵路9001-3号盛泰购物中心南商场1-B27号铺(近上海南站)"},{"poiid":"B2094757D06EAAFE409E","title":"上海南站地铁站","lon":"121.430219","lat":"31.154675","category":"36","category_name":"地铁站","address":"上海轨道交通 一号线 三号线 轨交上海南站站 轻轨 1 3"},{"poiid":"B2094757D06FA6FE459E","title":"盛泰时尚购物中心(原银泰)","lon":"121.430518","lat":"31.152855","category":"119","category_name":"商场","address":"徐汇区老沪闵路289号上海南站下沉式广场南广场/北广场"},{"poiid":"B2094757D068A7F94493","title":"上海地铁梅陇基地","lon":"121.42351945","lat":"31.149536729","category":"46","category_name":"楼宇","address":"上海市徐汇区老沪闵路1号(沪闵路口)"},{"poiid":"B2094757D568A0FF449F","title":"上海南站南北广场","lon":"121.4294872","lat":"31.15330222","category":"22","category_name":"火车站","address":"老沪闵路289号"},{"poiid":"B2094750D665A0FA4392","title":"必胜客(上海南站店)","lon":"121.428","lat":"31.1547","category":"94","category_name":"西餐厅","address":"徐汇区沪闵路9001-3号上海南站北广场B1楼C区北1-c1-1号(近石龙路)"},{"poiid":"B2094757D06FA7F8459D","title":"上海南站南广场公交枢纽","lon":"121.42879486","lat":"31.154157638","category":"22","category_name":"火车站","address":"上海南站南广场"},{"poiid":"B2094757D06FA6F4409F","title":"桂林路沪闵路","lon":"121.423251","lat":"31.153142","category":"260","category_name":"其他","address":"上海徐汇区桂林路沪闵路口"},{"poiid":"B2094757D069A4FA419E","title":"上海长途客运南站候车大厅","lon":"121.42932733","lat":"31.154564354","category":"500","category_name":"未知分类","address":"上海石龙路999号"},{"poiid":"B2094757D06FA4FE4992","title":"肯德基 KFC (柳州2店)","lon":"121.428634","lat":"31.154984","category":"68","category_name":"快餐厅","address":"徐汇区地铁一号线上海南站地铁换乘通道内(近石龙路)"},{"poiid":"B2094757D068A5FB479A","title":"东方既白(上海南站店)","lon":"121.42789","lat":"31.15478","category":"68","category_name":"快餐厅","address":"徐汇区沪闵路9001-3号上海南站北广场内(近石龙路)"},{"poiid":"B2094757D068ABF4449F","title":"桂林东街","lon":"121.422745","lat":"31.157641","category":"260","category_name":"其他","address":"上海徐汇区桂林东街"},{"poiid":"B2094750DA6AA4FB4998","title":"上海南站金山铁路达到出发处","lon":"121.428573","lat":"31.151111","category":"251","category_name":"出行住宿","address":null},{"poiid":"B209475DD264A1FB409D","title":"上海中星铂尔曼大酒店","lon":"121.427803","lat":"31.158374","category":"500","category_name":"未知分类","address":"上海市 上海市徐汇区浦北路1号"},{"poiid":"B2094655D26AA0F9419E","title":"地铁上海南站站","lon":"121.42914","lat":"31.15673","category":"36","category_name":"地铁站","address":""},{"poiid":"B2094655D264A0F54399","title":"DQ上海南站店","lon":"121.42744","lat":"31.15411","category":"113","category_name":"冷饮店","address":"沪闵路9001-3号银泰购物中心北1-B24"},{"poiid":"B2094757D06FA0FA469E","title":"银泰百利时尚中心","lon":"121.42835","lat":"31.15426","category":"119","category_name":"商场","address":"徐汇区老沪闵路289号上海南站下沉式广场  "},{"poiid":"B2094757D464A7F4439E","title":"香乡村大龙虾 浦北路店","lon":"121.421373054","lat":"31.154949793","category":"68","category_name":"快餐厅","address":"徐汇区浦北路331号(桂林路口)"},{"poiid":"B2094654DB6CA1F4489D","title":"豪享来上海沪闵店","lon":"121.429","lat":"31.149","category":"247","category_name":"餐饮美食","address":"上海市徐汇区老沪闵路660号"},{"poiid":"B2094757D068A7FF449C","title":"食其家(上海南站店)","lon":"121.427833","lat":"31.153902","category":"95","category_name":"日本料理","address":"徐汇区沪闵路9001-3号银泰购物中心B2楼A区南2-A座7(近上海南站)"},{"poiid":"B2094757D068ABFF4698","title":"沪闵路柳州路","lon":"121.42828705","lat":"31.156362876","category":"260","category_name":"其他","address":"上海沪闵路柳州路"},{"poiid":"B2094757DB68AAF9499B","title":"小杨生煎(南站店)","lon":"121.43025093127449","lat":"31.15485663026557","category":"257","category_name":"中餐厅","address":"徐汇区沪闵路9001-3号上海南站北广场B1楼"},{"poiid":"B2094757D06BA7F4469C","title":"真功夫(上海南站店)","lon":"121.4274","lat":"31.15396","category":"68","category_name":"快餐厅","address":"徐汇区沪闵路9001-3号上海南站北广场内(近地铁一号线4号出口)"},{"poiid":"B2094757D06AA6F8429F","title":"徐汇区科技幼儿园","lon":"121.428773586","lat":"31.1493918514","category":"57","category_name":"幼儿园","address":"徐汇区嘉陵路28号"},{"poiid":"B2094757D068A6FC4492","title":"海上名邸","lon":"121.423313","lat":"31.154853","category":"47","category_name":"住宅区","address":"上海桂林东街28弄"},{"poiid":"B2094654DB65A0FF469D","title":"上海南站北广场(B1西北进站口)","lon":"121.42843","lat":"31.15316","category":"22","category_name":"火车站","address":""},{"poiid":"B2094757D168A0F8439F","title":"85度C(南站北广场店)","lon":"121.4325","lat":"31.152","category":"112","category_name":"糕饼店","address":"徐汇区地铁一号线上海南站地下商场北馆B1楼C区1-C2-3号(近石龙路)"},{"poiid":"B2094655D26FA3F9469D","title":"上海南站南广场(B1东南进站口)","lon":"121.43043","lat":"31.15282","category":"22","category_name":"火车站","address":""},{"poiid":"B2094751D56FA7FC459F","title":"拿渡麻辣香锅","lon":"121.426949","lat":"31.153312","category":"247","category_name":"餐饮美食","address":"上海南站 银泰广场 B2"},{"poiid":"B209475CD26FA0FA429B","title":"田子坊","lon":"121.424812","lat":"31.154321","category":"500","category_name":"未知分类","address":"上海市 上海泰康路"},{"poiid":"B2094655D36CA7F4449C","title":"桂林西街","lon":"121.42326","lat":"31.15322","category":"38","category_name":"公交车站","address":""},{"poiid":"B2094655D26FA5F84093","title":"金塘小区","lon":"121.4259","lat":"31.148438","category":"47","category_name":"住宅区","address":"老沪闵路333弄1-97号"},{"poiid":"B2094757D06BA4FA479F","title":"上海地铁梅陇基地多功能厅","lon":"121.424393","lat":"31.151034","category":"46","category_name":"楼宇","address":"徐汇区老沪闵路1号(近桂林路)"},{"poiid":"B2094757D168A3FA439A","title":"浦北路桂林路","lon":"121.42126578","lat":"31.154662754","category":"500","category_name":"未知分类","address":"上海浦北路桂林路"},{"poiid":"B2094655D26EABF84398","title":"上海南站北广场(东北出口)","lon":"121.42922","lat":"31.15398","category":"22","category_name":"火车站","address":""},{"poiid":"B2094757D16FA7FA409D","title":"乐乐驿站","lon":"121.424579386","lat":"31.1525406129","category":"46","category_name":"楼宇","address":"上海桂林东街"},{"poiid":"B2094752D565A3F54599","title":"新石器烤肉","lon":"121.426377","lat":"31.154295","category":"247","category_name":"餐饮美食","address":"上海南站"},{"poiid":"B2094654DA65A6FD449A","title":"上海南站(南门)","lon":"121.43005","lat":"31.1526","category":"22","category_name":"火车站","address":""},{"poiid":"B2094655D26BABFF4993","title":"快乐柠檬 上海南站店 Happy Lemon","lon":"121.429858054","lat":"31.155409793","category":"247","category_name":"餐饮美食","address":"上海南站地铁换乘通道内"},{"poiid":"B2094655D36CA7FD479F","title":"沪闵路桂林路","lon":"121.42424","lat":"31.15252","category":"38","category_name":"公交车站","address":""},{"poiid":"B2094655D26FA6FA469D","title":"寿山坊","lon":"121.4224","lat":"31.15266","category":"47","category_name":"住宅区","address":"桂林西街201弄1-51号"},{"poiid":"B2094654DA65A6FD439C","title":"城市动力广场","lon":"121.42649","lat":"31.15402","category":"201","category_name":"城市广场","address":"漕河泾镇"},{"poiid":"B2094750D768A2FA429C","title":"赛百味(上海南站店)","lon":"121.428","lat":"31.1547","category":"94","category_name":"西餐厅","address":"徐汇区沪闵路9001-3号银泰购物中心北商场A4-1号(近上海南站)"},{"poiid":"B2094655D26BA0FF4693","title":"争鲜外带寿司 上海南站店","lon":"121.428453054","lat":"31.155505793","category":"95","category_name":"日本料理","address":"闵行区沪闵路7388号南方商城3F(近莲花路)"},{"poiid":"B2094757D468A7FD489C","title":"吉野家 柳州路店","lon":"121.429398054","lat":"31.155362793","category":"72","category_name":"广东菜","address":"徐汇区地铁一号线三号线上海南站地铁换乘通道内(近石龙路)"},{"poiid":"B2094757D66CA6FE479E","title":"莫泰168","lon":"121.422375586","lat":"31.1542439461","category":"500","category_name":"未知分类","address":"徐汇区桂林路17号"},{"poiid":"B2094752D365ABFA459B","title":"百春原","lon":"121.427363","lat":"31.152479","category":"247","category_name":"餐饮美食","address":"上海市徐汇区石龙路上海南站盛泰商场B2"},{"poiid":"B2094750D56FABF5489D","title":"康师傅面馆","lon":"121.43","lat":"31.1544","category":"68","category_name":"快餐厅","address":"徐汇区地铁上海南站站一、三号线换乘通道"},{"poiid":"B2094757D568ABFA459D","title":"安徒生冰淇淋上海南站店","lon":"121.4274361","lat":"31.15411111","category":"247","category_name":"餐饮美食","address":"沪闵路9001-3号上海南站北广场B1层"},{"poiid":"B2094655D36CA2F44693","title":"上海南站","lon":"121.42971","lat":"31.15507","category":"38","category_name":"公交车站","address":""},{"poiid":"B2094655D26FA6F9429E","title":"星巴克(上海南站店)","lon":"121.429487","lat":"31.153302","category":"65","category_name":"咖啡厅","address":"徐汇区沪闵路9001-3号盛泰购物中心南商场1-B27号铺(近上海南站)"},{"poiid":"B2094757D06EAAFE409E","title":"上海南站地铁站","lon":"121.430219","lat":"31.154675","category":"36","category_name":"地铁站","address":"上海轨道交通 一号线 三号线 轨交上海南站站 轻轨 1 3"},{"poiid":"B2094757D06FA6FE459E","title":"盛泰时尚购物中心(原银泰)","lon":"121.430518","lat":"31.152855","category":"119","category_name":"商场","address":"徐汇区老沪闵路289号上海南站下沉式广场南广场/北广场"},{"poiid":"B2094757D068A7F94493","title":"上海地铁梅陇基地","lon":"121.42351945","lat":"31.149536729","category":"46","category_name":"楼宇","address":"上海市徐汇区老沪闵路1号(沪闵路口)"},{"poiid":"B2094757D568A0FF449F","title":"上海南站南北广场","lon":"121.4294872","lat":"31.15330222","category":"22","category_name":"火车站","address":"老沪闵路289号"},{"poiid":"B2094750D665A0FA4392","title":"必胜客(上海南站店)","lon":"121.428","lat":"31.1547","category":"94","category_name":"西餐厅","address":"徐汇区沪闵路9001-3号上海南站北广场B1楼C区北1-c1-1号(近石龙路)"},{"poiid":"B2094757D06FA7F8459D","title":"上海南站南广场公交枢纽","lon":"121.42879486","lat":"31.154157638","category":"22","category_name":"火车站","address":"上海南站南广场"},{"poiid":"B2094757D06FA6F4409F","title":"桂林路沪闵路","lon":"121.423251","lat":"31.153142","category":"260","category_name":"其他","address":"上海徐汇区桂林路沪闵路口"},{"poiid":"B2094757D069A4FA419E","title":"上海长途客运南站候车大厅","lon":"121.42932733","lat":"31.154564354","category":"500","category_name":"未知分类","address":"上海石龙路999号"},{"poiid":"B2094757D06FA4FE4992","title":"肯德基 KFC (柳州2店)","lon":"121.428634","lat":"31.154984","category":"68","category_name":"快餐厅","address":"徐汇区地铁一号线上海南站地铁换乘通道内(近石龙路)"},{"poiid":"B2094757D068A5FB479A","title":"东方既白(上海南站店)","lon":"121.42789","lat":"31.15478","category":"68","category_name":"快餐厅","address":"徐汇区沪闵路9001-3号上海南站北广场内(近石龙路)"},{"poiid":"B2094757D068ABF4449F","title":"桂林东街","lon":"121.422745","lat":"31.157641","category":"260","category_name":"其他","address":"上海徐汇区桂林东街"},{"poiid":"B2094750DA6AA4FB4998","title":"上海南站金山铁路达到出发处","lon":"121.428573","lat":"31.151111","category":"251","category_name":"出行住宿","address":null},{"poiid":"B209475DD264A1FB409D","title":"上海中星铂尔曼大酒店","lon":"121.427803","lat":"31.158374","category":"500","category_name":"未知分类","address":"上海市 上海市徐汇区浦北路1号"},{"poiid":"B2094655D26AA0F9419E","title":"地铁上海南站站","lon":"121.42914","lat":"31.15673","category":"36","category_name":"地铁站","address":""},{"poiid":"B2094655D264A0F54399","title":"DQ上海南站店","lon":"121.42744","lat":"31.15411","category":"113","category_name":"冷饮店","address":"沪闵路9001-3号银泰购物中心北1-B24"},{"poiid":"B2094757D06FA0FA469E","title":"银泰百利时尚中心","lon":"121.42835","lat":"31.15426","category":"119","category_name":"商场","address":"徐汇区老沪闵路289号上海南站下沉式广场  "},{"poiid":"B2094757D464A7F4439E","title":"香乡村大龙虾 浦北路店","lon":"121.421373054","lat":"31.154949793","category":"68","category_name":"快餐厅","address":"徐汇区浦北路331号(桂林路口)"},{"poiid":"B2094654DB6CA1F4489D","title":"豪享来上海沪闵店","lon":"121.429","lat":"31.149","category":"247","category_name":"餐饮美食","address":"上海市徐汇区老沪闵路660号"},{"poiid":"B2094757D068A7FF449C","title":"食其家(上海南站店)","lon":"121.427833","lat":"31.153902","category":"95","category_name":"日本料理","address":"徐汇区沪闵路9001-3号银泰购物中心B2楼A区南2-A座7(近上海南站)"},{"poiid":"B2094757D068ABFF4698","title":"沪闵路柳州路","lon":"121.42828705","lat":"31.156362876","category":"260","category_name":"其他","address":"上海沪闵路柳州路"},{"poiid":"B2094757DB68AAF9499B","title":"小杨生煎(南站店)","lon":"121.43025093127449","lat":"31.15485663026557","category":"257","category_name":"中餐厅","address":"徐汇区沪闵路9001-3号上海南站北广场B1楼"},{"poiid":"B2094757D06BA7F4469C","title":"真功夫(上海南站店)","lon":"121.4274","lat":"31.15396","category":"68","category_name":"快餐厅","address":"徐汇区沪闵路9001-3号上海南站北广场内(近地铁一号线4号出口)"},{"poiid":"B2094757D06AA6F8429F","title":"徐汇区科技幼儿园","lon":"121.428773586","lat":"31.1493918514","category":"57","category_name":"幼儿园","address":"徐汇区嘉陵路28号"},{"poiid":"B2094757D068A6FC4492","title":"海上名邸","lon":"121.423313","lat":"31.154853","category":"47","category_name":"住宅区","address":"上海桂林东街28弄"},{"poiid":"B2094654DB65A0FF469D","title":"上海南站北广场(B1西北进站口)","lon":"121.42843","lat":"31.15316","category":"22","category_name":"火车站","address":""},{"poiid":"B2094757D168A0F8439F","title":"85度C(南站北广场店)","lon":"121.4325","lat":"31.152","category":"112","category_name":"糕饼店","address":"徐汇区地铁一号线上海南站地下商场北馆B1楼C区1-C2-3号(近石龙路)"},{"poiid":"B2094655D26FA3F9469D","title":"上海南站南广场(B1东南进站口)","lon":"121.43043","lat":"31.15282","category":"22","category_name":"火车站","address":""},{"poiid":"B2094751D56FA7FC459F","title":"拿渡麻辣香锅","lon":"121.426949","lat":"31.153312","category":"247","category_name":"餐饮美食","address":"上海南站 银泰广场 B2"},{"poiid":"B209475CD26FA0FA429B","title":"田子坊","lon":"121.424812","lat":"31.154321","category":"500","category_name":"未知分类","address":"上海市 上海泰康路"},{"poiid":"B2094655D36CA7F4449C","title":"桂林西街","lon":"121.42326","lat":"31.15322","category":"38","category_name":"公交车站","address":""},{"poiid":"B2094655D26FA5F84093","title":"金塘小区","lon":"121.4259","lat":"31.148438","category":"47","category_name":"住宅区","address":"老沪闵路333弄1-97号"},{"poiid":"B2094757D06BA4FA479F","title":"上海地铁梅陇基地多功能厅","lon":"121.424393","lat":"31.151034","category":"46","category_name":"楼宇","address":"徐汇区老沪闵路1号(近桂林路)"},{"poiid":"B2094757D168A3FA439A","title":"浦北路桂林路","lon":"121.42126578","lat":"31.154662754","category":"500","category_name":"未知分类","address":"上海浦北路桂林路"},{"poiid":"B2094655D26EABF84398","title":"上海南站北广场(东北出口)","lon":"121.42922","lat":"31.15398","category":"22","category_name":"火车站","address":""},{"poiid":"B2094757D16FA7FA409D","title":"乐乐驿站","lon":"121.424579386","lat":"31.1525406129","category":"46","category_name":"楼宇","address":"上海桂林东街"},{"poiid":"B2094752D565A3F54599","title":"新石器烤肉","lon":"121.426377","lat":"31.154295","category":"247","category_name":"餐饮美食","address":"上海南站"},{"poiid":"B2094654DA65A6FD449A","title":"上海南站(南门)","lon":"121.43005","lat":"31.1526","category":"22","category_name":"火车站","address":""},{"poiid":"B2094655D26BABFF4993","title":"快乐柠檬 上海南站店 Happy Lemon","lon":"121.429858054","lat":"31.155409793","category":"247","category_name":"餐饮美食","address":"上海南站地铁换乘通道内"},{"poiid":"B2094655D36CA7FD479F","title":"沪闵路桂林路","lon":"121.42424","lat":"31.15252","category":"38","category_name":"公交车站","address":""},{"poiid":"B2094655D26FA6FA469D","title":"寿山坊","lon":"121.4224","lat":"31.15266","category":"47","category_name":"住宅区","address":"桂林西街201弄1-51号"},{"poiid":"B2094654DA65A6FD439C","title":"城市动力广场","lon":"121.42649","lat":"31.15402","category":"201","category_name":"城市广场","address":"漕河泾镇"},{"poiid":"B2094750D768A2FA429C","title":"赛百味(上海南站店)","lon":"121.428","lat":"31.1547","category":"94","category_name":"西餐厅","address":"徐汇区沪闵路9001-3号银泰购物中心北商场A4-1号(近上海南站)"},{"poiid":"B2094655D26BA0FF4693","title":"争鲜外带寿司 上海南站店","lon":"121.428453054","lat":"31.155505793","category":"95","category_name":"日本料理","address":"闵行区沪闵路7388号南方商城3F(近莲花路)"},{"poiid":"B2094757D468A7FD489C","title":"吉野家 柳州路店","lon":"121.429398054","lat":"31.155362793","category":"72","category_name":"广东菜","address":"徐汇区地铁一号线三号线上海南站地铁换乘通道内(近石龙路)"},{"poiid":"B2094757D66CA6FE479E","title":"莫泰168","lon":"121.422375586","lat":"31.1542439461","category":"500","category_name":"未知分类","address":"徐汇区桂林路17号"},{"poiid":"B2094752D365ABFA459B","title":"百春原","lon":"121.427363","lat":"31.152479","category":"247","category_name":"餐饮美食","address":"上海市徐汇区石龙路上海南站盛泰商场B2"},{"poiid":"B2094750D56FABF5489D","title":"康师傅面馆","lon":"121.43","lat":"31.1544","category":"68","category_name":"快餐厅","address":"徐汇区地铁上海南站站一、三号线换乘通道"},{"poiid":"B2094757D568ABFA459D","title":"安徒生冰淇淋上海南站店","lon":"121.4274361","lat":"31.15411111","category":"247","category_name":"餐饮美食","address":"沪闵路9001-3号上海南站北广场B1层"},{"poiid":"B2094655D36CA2F44693","title":"上海南站","lon":"121.42971","lat":"31.15507","category":"38","category_name":"公交车站","address":""},{"poiid":"B2094655D26FA6F9429E","title":"星巴克(上海南站店)","lon":"121.429487","lat":"31.153302","category":"65","category_name":"咖啡厅","address":"徐汇区沪闵路9001-3号盛泰购物中心南商场1-B27号铺(近上海南站)"},{"poiid":"B2094757D06EAAFE409E","title":"上海南站地铁站","lon":"121.430219","lat":"31.154675","category":"36","category_name":"地铁站","address":"上海轨道交通 一号线 三号线 轨交上海南站站 轻轨 1 3"},{"poiid":"B2094757D06FA6FE459E","title":"盛泰时尚购物中心(原银泰)","lon":"121.430518","lat":"31.152855","category":"119","category_name":"商场","address":"徐汇区老沪闵路289号上海南站下沉式广场南广场/北广场"},{"poiid":"B2094757D068A7F94493","title":"上海地铁梅陇基地","lon":"121.42351945","lat":"31.149536729","category":"46","category_name":"楼宇","address":"上海市徐汇区老沪闵路1号(沪闵路口)"},{"poiid":"B2094757D568A0FF449F","title":"上海南站南北广场","lon":"121.4294872","lat":"31.15330222","category":"22","category_name":"火车站","address":"老沪闵路289号"},{"poiid":"B2094750D665A0FA4392","title":"必胜客(上海南站店)","lon":"121.428","lat":"31.1547","category":"94","category_name":"西餐厅","address":"徐汇区沪闵路9001-3号上海南站北广场B1楼C区北1-c1-1号(近石龙路)"},{"poiid":"B2094757D06FA7F8459D","title":"上海南站南广场公交枢纽","lon":"121.42879486","lat":"31.154157638","category":"22","category_name":"火车站","address":"上海南站南广场"},{"poiid":"B2094757D06FA6F4409F","title":"桂林路沪闵路","lon":"121.423251","lat":"31.153142","category":"260","category_name":"其他","address":"上海徐汇区桂林路沪闵路口"},{"poiid":"B2094757D069A4FA419E","title":"上海长途客运南站候车大厅","lon":"121.42932733","lat":"31.154564354","category":"500","category_name":"未知分类","address":"上海石龙路999号"},{"poiid":"B2094757D06FA4FE4992","title":"肯德基 KFC (柳州2店)","lon":"121.428634","lat":"31.154984","category":"68","category_name":"快餐厅","address":"徐汇区地铁一号线上海南站地铁换乘通道内(近石龙路)"},{"poiid":"B2094757D068A5FB479A","title":"东方既白(上海南站店)","lon":"121.42789","lat":"31.15478","category":"68","category_name":"快餐厅","address":"徐汇区沪闵路9001-3号上海南站北广场内(近石龙路)"},{"poiid":"B2094757D068ABF4449F","title":"桂林东街","lon":"121.422745","lat":"31.157641","category":"260","category_name":"其他","address":"上海徐汇区桂林东街"},{"poiid":"B2094750DA6AA4FB4998","title":"上海南站金山铁路达到出发处","lon":"121.428573","lat":"31.151111","category":"251","category_name":"出行住宿","address":null},{"poiid":"B209475DD264A1FB409D","title":"上海中星铂尔曼大酒店","lon":"121.427803","lat":"31.158374","category":"500","category_name":"未知分类","address":"上海市 上海市徐汇区浦北路1号"},{"poiid":"B2094655D26AA0F9419E","title":"地铁上海南站站","lon":"121.42914","lat":"31.15673","category":"36","category_name":"地铁站","address":""},{"poiid":"B2094655D264A0F54399","title":"DQ上海南站店","lon":"121.42744","lat":"31.15411","category":"113","category_name":"冷饮店","address":"沪闵路9001-3号银泰购物中心北1-B24"},{"poiid":"B2094757D06FA0FA469E","title":"银泰百利时尚中心","lon":"121.42835","lat":"31.15426","category":"119","category_name":"商场","address":"徐汇区老沪闵路289号上海南站下沉式广场  "},{"poiid":"B2094757D464A7F4439E","title":"香乡村大龙虾 浦北路店","lon":"121.421373054","lat":"31.154949793","category":"68","category_name":"快餐厅","address":"徐汇区浦北路331号(桂林路口)"},{"poiid":"B2094654DB6CA1F4489D","title":"豪享来上海沪闵店","lon":"121.429","lat":"31.149","category":"247","category_name":"餐饮美食","address":"上海市徐汇区老沪闵路660号"},{"poiid":"B2094757D068A7FF449C","title":"食其家(上海南站店)","lon":"121.427833","lat":"31.153902","category":"95","category_name":"日本料理","address":"徐汇区沪闵路9001-3号银泰购物中心B2楼A区南2-A座7(近上海南站)"},{"poiid":"B2094757D068ABFF4698","title":"沪闵路柳州路","lon":"121.42828705","lat":"31.156362876","category":"260","category_name":"其他","address":"上海沪闵路柳州路"},{"poiid":"B2094757DB68AAF9499B","title":"小杨生煎(南站店)","lon":"121.43025093127449","lat":"31.15485663026557","category":"257","category_name":"中餐厅","address":"徐汇区沪闵路9001-3号上海南站北广场B1楼"},{"poiid":"B2094757D06BA7F4469C","title":"真功夫(上海南站店)","lon":"121.4274","lat":"31.15396","category":"68","category_name":"快餐厅","address":"徐汇区沪闵路9001-3号上海南站北广场内(近地铁一号线4号出口)"},{"poiid":"B2094757D06AA6F8429F","title":"徐汇区科技幼儿园","lon":"121.428773586","lat":"31.1493918514","category":"57","category_name":"幼儿园","address":"徐汇区嘉陵路28号"},{"poiid":"B2094757D068A6FC4492","title":"海上名邸","lon":"121.423313","lat":"31.154853","category":"47","category_name":"住宅区","address":"上海桂林东街28弄"},{"poiid":"B2094654DB65A0FF469D","title":"上海南站北广场(B1西北进站口)","lon":"121.42843","lat":"31.15316","category":"22","category_name":"火车站","address":""},{"poiid":"B2094757D168A0F8439F","title":"85度C(南站北广场店)","lon":"121.4325","lat":"31.152","category":"112","category_name":"糕饼店","address":"徐汇区地铁一号线上海南站地下商场北馆B1楼C区1-C2-3号(近石龙路)"},{"poiid":"B2094655D26FA3F9469D","title":"上海南站南广场(B1东南进站口)","lon":"121.43043","lat":"31.15282","category":"22","category_name":"火车站","address":""},{"poiid":"B2094751D56FA7FC459F","title":"拿渡麻辣香锅","lon":"121.426949","lat":"31.153312","category":"247","category_name":"餐饮美食","address":"上海南站 银泰广场 B2"},{"poiid":"B209475CD26FA0FA429B","title":"田子坊","lon":"121.424812","lat":"31.154321","category":"500","category_name":"未知分类","address":"上海市 上海泰康路"},{"poiid":"B2094655D36CA7F4449C","title":"桂林西街","lon":"121.42326","lat":"31.15322","category":"38","category_name":"公交车站","address":""},{"poiid":"B2094655D26FA5F84093","title":"金塘小区","lon":"121.4259","lat":"31.148438","category":"47","category_name":"住宅区","address":"老沪闵路333弄1-97号"},{"poiid":"B2094757D06BA4FA479F","title":"上海地铁梅陇基地多功能厅","lon":"121.424393","lat":"31.151034","category":"46","category_name":"楼宇","address":"徐汇区老沪闵路1号(近桂林路)"},{"poiid":"B2094757D168A3FA439A","title":"浦北路桂林路","lon":"121.42126578","lat":"31.154662754","category":"500","category_name":"未知分类","address":"上海浦北路桂林路"},{"poiid":"B2094655D26EABF84398","title":"上海南站北广场(东北出口)","lon":"121.42922","lat":"31.15398","category":"22","category_name":"火车站","address":""},{"poiid":"B2094757D16FA7FA409D","title":"乐乐驿站","lon":"121.424579386","lat":"31.1525406129","category":"46","category_name":"楼宇","address":"上海桂林东街"},{"poiid":"B2094752D565A3F54599","title":"新石器烤肉","lon":"121.426377","lat":"31.154295","category":"247","category_name":"餐饮美食","address":"上海南站"},{"poiid":"B2094654DA65A6FD449A","title":"上海南站(南门)","lon":"121.43005","lat":"31.1526","category":"22","category_name":"火车站","address":""},{"poiid":"B2094655D26BABFF4993","title":"快乐柠檬 上海南站店 Happy Lemon","lon":"121.429858054","lat":"31.155409793","category":"247","category_name":"餐饮美食","address":"上海南站地铁换乘通道内"},{"poiid":"B2094655D36CA7FD479F","title":"沪闵路桂林路","lon":"121.42424","lat":"31.15252","category":"38","category_name":"公交车站","address":""},{"poiid":"B2094655D26FA6FA469D","title":"寿山坊","lon":"121.4224","lat":"31.15266","category":"47","category_name":"住宅区","address":"桂林西街201弄1-51号"},{"poiid":"B2094654DA65A6FD439C","title":"城市动力广场","lon":"121.42649","lat":"31.15402","category":"201","category_name":"城市广场","address":"漕河泾镇"},{"poiid":"B2094750D768A2FA429C","title":"赛百味(上海南站店)","lon":"121.428","lat":"31.1547","category":"94","category_name":"西餐厅","address":"徐汇区沪闵路9001-3号银泰购物中心北商场A4-1号(近上海南站)"},{"poiid":"B2094655D26BA0FF4693","title":"争鲜外带寿司 上海南站店","lon":"121.428453054","lat":"31.155505793","category":"95","category_name":"日本料理","address":"闵行区沪闵路7388号南方商城3F(近莲花路)"},{"poiid":"B2094757D468A7FD489C","title":"吉野家 柳州路店","lon":"121.429398054","lat":"31.155362793","category":"72","category_name":"广东菜","address":"徐汇区地铁一号线三号线上海南站地铁换乘通道内(近石龙路)"},{"poiid":"B2094757D66CA6FE479E","title":"莫泰168","lon":"121.422375586","lat":"31.1542439461","category":"500","category_name":"未知分类","address":"徐汇区桂林路17号"},{"poiid":"B2094752D365ABFA459B","title":"百春原","lon":"121.427363","lat":"31.152479","category":"247","category_name":"餐饮美食","address":"上海市徐汇区石龙路上海南站盛泰商场B2"},{"poiid":"B2094750D56FABF5489D","title":"康师傅面馆","lon":"121.43","lat":"31.1544","category":"68","category_name":"快餐厅","address":"徐汇区地铁上海南站站一、三号线换乘通道"},{"poiid":"B2094757D568ABFA459D","title":"安徒生冰淇淋上海南站店","lon":"121.4274361","lat":"31.15411111","category":"247","category_name":"餐饮美食","address":"沪闵路9001-3号上海南站北广场B1层"}]