[{"poiid":"B2094655D36CA5FA479C","title":"曹家渡","lon":"121.42757","lat":"31.22761","category":"38","category_name":"公交车站","address":""},{"poiid":"B2094757D06FA0FA449A","title":"长宁路江苏路","lon":"121.428071","lat":"31.225633","category":"500","category_name":"未知分类","address":"上海市长宁区长宁路江苏路"},{"poiid":"B2094757D068A2FB419F","title":"吉臣酒店","lon":"121.429710815","lat":"31.2278964211","category":"217","category_name":"旅馆招待所","address":"静安区万航渡路818号(近长寿路)"},{"poiid":"B209475CD564A7F8439E","title":"上海滩中信泰富店","lon":"121.45602","lat":"31.22851","category":"119","category_name":"商场","address":"\"南京西路1168号中信泰富广场，店铺号221.\r\n\""},{"poiid":"B2094654DB65A4F84892","title":"柔日本料理 YAWARA","lon":"121.429154054","lat":"31.228230793","category":"247","category_name":"餐饮美食","address":"静安区万航渡路818号吉臣酒店4楼(近康定路)"},{"poiid":"B2094757D468ABFA4792","title":"和平官邸5号","lon":"121.432227","lat":"31.224611","category":"247","category_name":"餐饮美食","address":"静安区武定西路1317弄10号(近万航渡路)"},{"poiid":"B2094654DB6BA6FE499E","title":"开开广场(万航渡路)","lon":"121.42865","lat":"31.22811","category":"46","category_name":"楼宇","address":"上海万航渡路888号10楼"},{"poiid":"B2094757D06FA4FA479B","title":"绿地商务大厦","lon":"121.43222758119","lat":"31.225661116139","category":"46","category_name":"楼宇","address":"上海市长宁区愚园路1258号"},{"poiid":"B2094750DA6BA4FC4692","title":"敦煌楼兰州拉面","lon":"121.429443","lat":"31.225271","category":"247","category_name":"餐饮美食","address":"长宁区长宁路436号(近江苏路)"},{"poiid":"B2094757D069A1F44498","title":"Mokkos","lon":"121.433256152","lat":"31.2250710167","category":"260","category_name":"其他","address":"长宁区武定西路1245号103室(近万航渡路)"},{"poiid":"B2094757D069A5F8469A","title":"静安丽舍","lon":"121.43063354","lat":"31.2261734","category":"500","category_name":"未知分类","address":"万航渡路858弄25-27号"},{"poiid":"B2094757D06FABFB479F","title":"高荣小区","lon":"121.43186669","lat":"31.226825114","category":"47","category_name":"住宅区","address":"万航渡路661弄1-42号"},{"poiid":"B209475CD76DA7F4419F","title":"唐宫海鲜舫","lon":"121.432838","lat":"31.227283","category":"247","category_name":"餐饮美食","address":"上海市 万航渡路889号悦达889广场4楼"},{"poiid":"B2094757D56CA2FF419E","title":"一线烫捞 悦达广场店","lon":"121.4294761","lat":"31.2284633","category":"68","category_name":"快餐厅","address":"静安区万航渡路889号悦达广场B1楼(近长寿路)"},{"poiid":"B2094655D26CAAFC459E","title":"海森国际大厦(康定路)","lon":"121.43","lat":"31.22844","category":"46","category_name":"楼宇","address":"海森国际大厦位于静安康定路1469号(近万航渡路)"},{"poiid":"B2094655D264A4F9499E","title":"港人情味茶餐厅 康定路店","lon":"121.42934694949","lat":"31.228463845861","category":"72","category_name":"广东菜","address":"静安区康定路1596号(近万航渡路)"},{"poiid":"B2094654DB6BA6FF4093","title":"金峰世纪大厦(万航渡路)","lon":"121.4307","lat":"31.22793","category":"46","category_name":"楼宇","address":"上海市静安区万航渡路789号"},{"poiid":"B2094757D068A2FC4998","title":"红宝石 万航渡路店 Ruby","lon":"121.433935054","lat":"31.225951793","category":"67","category_name":"甜品店","address":"静安区万航渡路625号(近武定西路)"},{"poiid":"B2094750DA6EA3FB4293","title":"889广场","lon":"121.430061","lat":"31.228359","category":"249","category_name":"购物服务","address":"静安区万航渡路"},{"poiid":"B2094757D068A6FF4693","title":"王家沙点心店(万航渡路店)","lon":"121.43307","lat":"31.22653","category":"68","category_name":"快餐厅","address":"静安区万航渡路673号(康定路与武定西路间)"},{"poiid":"B2094757D46AA4F9429F","title":"味千拉面 悦达889广场店","lon":"121.42899","lat":"31.22864","category":"95","category_name":"日本料理","address":"静安区万航渡路889号悦达889广场4楼(近长寿路)"},{"poiid":"B2094757D069ABF94493","title":"集鲜阁","lon":"121.43094","lat":"31.22766","category":"76","category_name":"上海菜","address":"静安区万航渡路789号3楼(近康定路)"},{"poiid":"B2094757D069A0F4479A","title":"天乐酒家","lon":"121.43225563741","lat":"31.226646519422","category":"76","category_name":"上海菜","address":"静安区万航渡路628号(近武定西路)"},{"poiid":"B2094654D565A2F54092","title":"万航渡路小学","lon":"121.4316","lat":"31.22656","category":"56","category_name":"小学","address":"静安区万航渡路690号(近康定路)"},{"poiid":"B2094753D46BA3FD4692","title":"环球港","lon":"121.430648","lat":"31.22647","category":"500","category_name":"未知分类","address":"上海市 中山北路3300号"},{"poiid":"B2094757D06AA6F8409D","title":"老盛兴苏州汤包馆(江苏路店)","lon":"121.42741","lat":"31.22355","category":"68","category_name":"快餐厅","address":"长宁区长宁路351号(近江苏路)"},{"poiid":"B2094753D569A6FA4793","title":"小辉哥火锅（悦达889）","lon":"121.428993","lat":"31.22879","category":"247","category_name":"餐饮美食","address":"上海市 静安区万航渡路889号3层"},{"poiid":"B2094757D068A7F8479B","title":"中行小区","lon":"121.43359768","lat":"31.226565699","category":"47","category_name":"住宅区","address":"上海市长宁区淮海西路346弄5号楼"},{"poiid":"B2094757D16FABF94098","title":"老城隍庙特色小吃","lon":"121.431796","lat":"31.227323","category":"257","category_name":"中餐厅","address":"静安区万航渡路725号(近武定西路)"},{"poiid":"B2094750D76FA5F8479D","title":"食在高包子(万航渡路店)","lon":"121.432","lat":"31.2271","category":"68","category_name":"快餐厅","address":"静安区万航渡路693号(近武定西路)"},{"poiid":"B209475CD564ABF44292","title":"鱼酷","lon":"121.429283","lat":"31.227117","category":"500","category_name":"未知分类","address":"上海市 万航渡路悦达889广场四楼"},{"poiid":"B2094655D26EA7FC4093","title":"游泳池棋牌室","lon":"121.43153","lat":"31.22717","category":"231","category_name":"游泳馆","address":"万航渡路724弄1-27号"},{"poiid":"B2094654DB6BA6FE499A","title":"万航公寓(西北门)","lon":"121.43153","lat":"31.22608","category":"47","category_name":"住宅区","address":"万航渡路676弄52"},{"poiid":"B2094654DB69A7FE479A","title":"上海市总工会静安区工人游泳池","lon":"121.43153","lat":"31.22717","category":"231","category_name":"游泳馆","address":"静安区万航渡路724弄(近武定西路)"},{"poiid":"B2094654D565A1FD4693","title":"静安面包房(万航渡路)","lon":"121.43249","lat":"31.22694","category":"112","category_name":"糕饼店","address":"静安区万航渡路689号(近康定路)"},{"poiid":"B2094654DB6BA6FE4892","title":"曹家渡派出所(武定西路)","lon":"121.4319","lat":"31.22475","category":"248","category_name":"生活娱乐","address":"武定西路1368"},{"poiid":"B2094655D26CABF4419B","title":"高荣小区(边门)","lon":"121.43225","lat":"31.22732","category":"47","category_name":"住宅区","address":"万航渡路661弄1-68号"},{"poiid":"B2094654DB6BA6FE4992","title":"鑫康苑边门(万航渡路)","lon":"121.43047","lat":"31.22798","category":"47","category_name":"住宅区","address":"上海市静安区万航渡路829弄"},{"poiid":"B2094655D26CABFB429A","title":"上海正航商务酒店","lon":"121.42913","lat":"31.22677","category":"76","category_name":"上海菜","address":"静安区万航渡路858弄15号(近曹家渡)"},{"poiid":"B2094757D16EA7FD459C","title":"曹家渡街道社区文化中心","lon":"121.43141758","lat":"31.225278334","category":"500","category_name":"未知分类","address":"静安区武定西路1344弄12号"},{"poiid":"B209475DD364A4F4499C","title":"蛋糕细语 the icing room","lon":"121.431526","lat":"31.225811","category":"500","category_name":"未知分类","address":"上海市 淮海中路999号环贸iapm 广场LG2"},{"poiid":"B2094654D565A1FD449A","title":"正龙桂林米粉(万航渡路)","lon":"121.43031","lat":"31.22814","category":"87","category_name":"特色／地方风味餐厅","address":"静安区万航渡路803号(近康定路)"},{"poiid":"B2094654D565A2F54093","title":"万航公寓","lon":"121.43196","lat":"31.225796","category":"47","category_name":"住宅区","address":"万航渡路676弄52"},{"poiid":"B2094654D565A1FD469E","title":"港式甜品","lon":"121.43224","lat":"31.22707","category":"112","category_name":"糕饼店","address":"万航渡路699、699-1"},{"poiid":"B2094654D565A2F4459B","title":"鑫阳公寓","lon":"121.43038","lat":"31.225157","category":"47","category_name":"住宅区","address":"上海武定西路1398弄9号"},{"poiid":"B2094654DB6BA6FE499B","title":"长白山大厦(吉臣酒店东)","lon":"121.43006","lat":"31.22786","category":"46","category_name":"楼宇","address":"万航渡路818号"},{"poiid":"B2094654DB6BA6FE489C","title":"静安城振阳公寓","lon":"121.43142","lat":"31.22521","category":"47","category_name":"住宅区","address":"武定西路1388号"},{"poiid":"B2094654D565A2F44492","title":"静安城汽车公寓","lon":"121.43142","lat":"31.2252","category":"47","category_name":"住宅区","address":"武定西路1398弄3号"},{"poiid":"B2094654D565A1F84198","title":"上海工艺美术职业学院","lon":"121.43133","lat":"31.22803","category":"671","category_name":"高校中心点","address":"万航渡路767弄20号"},{"poiid":"B2094757D069ABF4499C","title":"泰煌鸡(万航渡路店)","lon":"121.43379844","lat":"31.2269859112","category":"68","category_name":"快餐厅","address":"静安区万航渡路615号(近武定西路)"},{"poiid":"B2094655D36CA5FA479C","title":"曹家渡","lon":"121.42757","lat":"31.22761","category":"38","category_name":"公交车站","address":""},{"poiid":"B2094757D06FA0FA449A","title":"长宁路江苏路","lon":"121.428071","lat":"31.225633","category":"500","category_name":"未知分类","address":"上海市长宁区长宁路江苏路"},{"poiid":"B2094757D068A2FB419F","title":"吉臣酒店","lon":"121.429710815","lat":"31.2278964211","category":"217","category_name":"旅馆招待所","address":"静安区万航渡路818号(近长寿路)"},{"poiid":"B209475CD564A7F8439E","title":"上海滩中信泰富店","lon":"121.45602","lat":"31.22851","category":"119","category_name":"商场","address":"\"南京西路1168号中信泰富广场，店铺号221.\r\n\""},{"poiid":"B2094654DB65A4F84892","title":"柔日本料理 YAWARA","lon":"121.429154054","lat":"31.228230793","category":"247","category_name":"餐饮美食","address":"静安区万航渡路818号吉臣酒店4楼(近康定路)"},{"poiid":"B2094757D468ABFA4792","title":"和平官邸5号","lon":"121.432227","lat":"31.224611","category":"247","category_name":"餐饮美食","address":"静安区武定西路1317弄10号(近万航渡路)"},{"poiid":"B2094654DB6BA6FE499E","title":"开开广场(万航渡路)","lon":"121.42865","lat":"31.22811","category":"46","category_name":"楼宇","address":"上海万航渡路888号10楼"},{"poiid":"B2094757D06FA4FA479B","title":"绿地商务大厦","lon":"121.43222758119","lat":"31.225661116139","category":"46","category_name":"楼宇","address":"上海市长宁区愚园路1258号"},{"poiid":"B2094750DA6BA4FC4692","title":"敦煌楼兰州拉面","lon":"121.429443","lat":"31.225271","category":"247","category_name":"餐饮美食","address":"长宁区长宁路436号(近江苏路)"},{"poiid":"B2094757D069A1F44498","title":"Mokkos","lon":"121.433256152","lat":"31.2250710167","category":"260","category_name":"其他","address":"长宁区武定西路1245号103室(近万航渡路)"},{"poiid":"B2094757D069A5F8469A","title":"静安丽舍","lon":"121.43063354","lat":"31.2261734","category":"500","category_name":"未知分类","address":"万航渡路858弄25-27号"},{"poiid":"B2094757D06FABFB479F","title":"高荣小区","lon":"121.43186669","lat":"31.226825114","category":"47","category_name":"住宅区","address":"万航渡路661弄1-42号"},{"poiid":"B209475CD76DA7F4419F","title":"唐宫海鲜舫","lon":"121.432838","lat":"31.227283","category":"247","category_name":"餐饮美食","address":"上海市 万航渡路889号悦达889广场4楼"},{"poiid":"B2094757D56CA2FF419E","title":"一线烫捞 悦达广场店","lon":"121.4294761","lat":"31.2284633","category":"68","category_name":"快餐厅","address":"静安区万航渡路889号悦达广场B1楼(近长寿路)"},{"poiid":"B2094655D26CAAFC459E","title":"海森国际大厦(康定路)","lon":"121.43","lat":"31.22844","category":"46","category_name":"楼宇","address":"海森国际大厦位于静安康定路1469号(近万航渡路)"},{"poiid":"B2094655D264A4F9499E","title":"港人情味茶餐厅 康定路店","lon":"121.42934694949","lat":"31.228463845861","category":"72","category_name":"广东菜","address":"静安区康定路1596号(近万航渡路)"},{"poiid":"B2094654DB6BA6FF4093","title":"金峰世纪大厦(万航渡路)","lon":"121.4307","lat":"31.22793","category":"46","category_name":"楼宇","address":"上海市静安区万航渡路789号"},{"poiid":"B2094757D068A2FC4998","title":"红宝石 万航渡路店 Ruby","lon":"121.433935054","lat":"31.225951793","category":"67","category_name":"甜品店","address":"静安区万航渡路625号(近武定西路)"},{"poiid":"B2094750DA6EA3FB4293","title":"889广场","lon":"121.430061","lat":"31.228359","category":"249","category_name":"购物服务","address":"静安区万航渡路"},{"poiid":"B2094757D068A6FF4693","title":"王家沙点心店(万航渡路店)","lon":"121.43307","lat":"31.22653","category":"68","category_name":"快餐厅","address":"静安区万航渡路673号(康定路与武定西路间)"},{"poiid":"B2094757D46AA4F9429F","title":"味千拉面 悦达889广场店","lon":"121.42899","lat":"31.22864","category":"95","category_name":"日本料理","address":"静安区万航渡路889号悦达889广场4楼(近长寿路)"},{"poiid":"B2094757D069ABF94493","title":"集鲜阁","lon":"121.43094","lat":"31.22766","category":"76","category_name":"上海菜","address":"静安区万航渡路789号3楼(近康定路)"},{"poiid":"B2094757D069A0F4479A","title":"天乐酒家","lon":"121.43225563741","lat":"31.226646519422","category":"76","category_name":"上海菜","address":"静安区万航渡路628号(近武定西路)"},{"poiid":"B2094654D565A2F54092","title":"万航渡路小学","lon":"121.4316","lat":"31.22656","category":"56","category_name":"小学","address":"静安区万航渡路690号(近康定路)"},{"poiid":"B2094753D46BA3FD4692","title":"环球港","lon":"121.430648","lat":"31.22647","category":"500","category_name":"未知分类","address":"上海市 中山北路3300号"},{"poiid":"B2094757D06AA6F8409D","title":"老盛兴苏州汤包馆(江苏路店)","lon":"121.42741","lat":"31.22355","category":"68","category_name":"快餐厅","address":"长宁区长宁路351号(近江苏路)"},{"poiid":"B2094753D569A6FA4793","title":"小辉哥火锅（悦达889）","lon":"121.428993","lat":"31.22879","category":"247","category_name":"餐饮美食","address":"上海市 静安区万航渡路889号3层"},{"poiid":"B2094757D068A7F8479B","title":"中行小区","lon":"121.43359768","lat":"31.226565699","category":"47","category_name":"住宅区","address":"上海市长宁区淮海西路346弄5号楼"},{"poiid":"B2094757D16FABF94098","title":"老城隍庙特色小吃","lon":"121.431796","lat":"31.227323","category":"257","category_name":"中餐厅","address":"静安区万航渡路725号(近武定西路)"},{"poiid":"B2094750D76FA5F8479D","title":"食在高包子(万航渡路店)","lon":"121.432","lat":"31.2271","category":"68","category_name":"快餐厅","address":"静安区万航渡路693号(近武定西路)"},{"poiid":"B209475CD564ABF44292","title":"鱼酷","lon":"121.429283","lat":"31.227117","category":"500","category_name":"未知分类","address":"上海市 万航渡路悦达889广场四楼"},{"poiid":"B2094655D26EA7FC4093","title":"游泳池棋牌室","lon":"121.43153","lat":"31.22717","category":"231","category_name":"游泳馆","address":"万航渡路724弄1-27号"},{"poiid":"B2094654DB6BA6FE499A","title":"万航公寓(西北门)","lon":"121.43153","lat":"31.22608","category":"47","category_name":"住宅区","address":"万航渡路676弄52"},{"poiid":"B2094654DB69A7FE479A","title":"上海市总工会静安区工人游泳池","lon":"121.43153","lat":"31.22717","category":"231","category_name":"游泳馆","address":"静安区万航渡路724弄(近武定西路)"},{"poiid":"B2094654D565A1FD4693","title":"静安面包房(万航渡路)","lon":"121.43249","lat":"31.22694","category":"112","category_name":"糕饼店","address":"静安区万航渡路689号(近康定路)"},{"poiid":"B2094654DB6BA6FE4892","title":"曹家渡派出所(武定西路)","lon":"121.4319","lat":"31.22475","category":"248","category_name":"生活娱乐","address":"武定西路1368"},{"poiid":"B2094655D26CABF4419B","title":"高荣小区(边门)","lon":"121.43225","lat":"31.22732","category":"47","category_name":"住宅区","address":"万航渡路661弄1-68号"},{"poiid":"B2094654DB6BA6FE4992","title":"鑫康苑边门(万航渡路)","lon":"121.43047","lat":"31.22798","category":"47","category_name":"住宅区","address":"上海市静安区万航渡路829弄"},{"poiid":"B2094655D26CABFB429A","title":"上海正航商务酒店","lon":"121.42913","lat":"31.22677","category":"76","category_name":"上海菜","address":"静安区万航渡路858弄15号(近曹家渡)"},{"poiid":"B2094757D16EA7FD459C","title":"曹家渡街道社区文化中心","lon":"121.43141758","lat":"31.225278334","category":"500","category_name":"未知分类","address":"静安区武定西路1344弄12号"},{"poiid":"B209475DD364A4F4499C","title":"蛋糕细语 the icing room","lon":"121.431526","lat":"31.225811","category":"500","category_name":"未知分类","address":"上海市 淮海中路999号环贸iapm 广场LG2"},{"poiid":"B2094654D565A1FD449A","title":"正龙桂林米粉(万航渡路)","lon":"121.43031","lat":"31.22814","category":"87","category_name":"特色／地方风味餐厅","address":"静安区万航渡路803号(近康定路)"},{"poiid":"B2094654D565A2F54093","title":"万航公寓","lon":"121.43196","lat":"31.225796","category":"47","category_name":"住宅区","address":"万航渡路676弄52"},{"poiid":"B2094654D565A1FD469E","title":"港式甜品","lon":"121.43224","lat":"31.22707","category":"112","category_name":"糕饼店","address":"万航渡路699、699-1"},{"poiid":"B2094654D565A2F4459B","title":"鑫阳公寓","lon":"121.43038","lat":"31.225157","category":"47","category_name":"住宅区","address":"上海武定西路1398弄9号"},{"poiid":"B2094654DB6BA6FE499B","title":"长白山大厦(吉臣酒店东)","lon":"121.43006","lat":"31.22786","category":"46","category_name":"楼宇","address":"万航渡路818号"},{"poiid":"B2094654DB6BA6FE489C","title":"静安城振阳公寓","lon":"121.43142","lat":"31.22521","category":"47","category_name":"住宅区","address":"武定西路1388号"},{"poiid":"B2094654D565A2F44492","title":"静安城汽车公寓","lon":"121.43142","lat":"31.2252","category":"47","category_name":"住宅区","address":"武定西路1398弄3号"},{"poiid":"B2094654D565A1F84198","title":"上海工艺美术职业学院","lon":"121.43133","lat":"31.22803","category":"671","category_name":"高校中心点","address":"万航渡路767弄20号"},{"poiid":"B2094757D069ABF4499C","title":"泰煌鸡(万航渡路店)","lon":"121.43379844","lat":"31.2269859112","category":"68","category_name":"快餐厅","address":"静安区万航渡路615号(近武定西路)"},{"poiid":"B2094655D36CA5FA479C","title":"曹家渡","lon":"121.42757","lat":"31.22761","category":"38","category_name":"公交车站","address":""},{"poiid":"B2094757D06FA0FA449A","title":"长宁路江苏路","lon":"121.428071","lat":"31.225633","category":"500","category_name":"未知分类","address":"上海市长宁区长宁路江苏路"},{"poiid":"B2094757D068A2FB419F","title":"吉臣酒店","lon":"121.429710815","lat":"31.2278964211","category":"217","category_name":"旅馆招待所","address":"静安区万航渡路818号(近长寿路)"},{"poiid":"B209475CD564A7F8439E","title":"上海滩中信泰富店","lon":"121.45602","lat":"31.22851","category":"119","category_name":"商场","address":"\"南京西路1168号中信泰富广场，店铺号221.\r\n\""},{"poiid":"B2094654DB65A4F84892","title":"柔日本料理 YAWARA","lon":"121.429154054","lat":"31.228230793","category":"247","category_name":"餐饮美食","address":"静安区万航渡路818号吉臣酒店4楼(近康定路)"},{"poiid":"B2094757D468ABFA4792","title":"和平官邸5号","lon":"121.432227","lat":"31.224611","category":"247","category_name":"餐饮美食","address":"静安区武定西路1317弄10号(近万航渡路)"},{"poiid":"B2094654DB6BA6FE499E","title":"开开广场(万航渡路)","lon":"121.42865","lat":"31.22811","category":"46","category_name":"楼宇","address":"上海万航渡路888号10楼"},{"poiid":"B2094757D06FA4FA479B","title":"绿地商务大厦","lon":"121.43222758119","lat":"31.225661116139","category":"46","category_name":"楼宇","address":"上海市长宁区愚园路1258号"},{"poiid":"B2094750DA6BA4FC4692","title":"敦煌楼兰州拉面","lon":"121.429443","lat":"31.225271","category":"247","category_name":"餐饮美食","address":"长宁区长宁路436号(近江苏路)"},{"poiid":"B2094757D069A1F44498","title":"Mokkos","lon":"121.433256152","lat":"31.2250710167","category":"260","category_name":"其他","address":"长宁区武定西路1245号103室(近万航渡路)"},{"poiid":"B2094757D069A5F8469A","title":"静安丽舍","lon":"121.43063354","lat":"31.2261734","category":"500","category_name":"未知分类","address":"万航渡路858弄25-27号"},{"poiid":"B2094757D06FABFB479F","title":"高荣小区","lon":"121.43186669","lat":"31.226825114","category":"47","category_name":"住宅区","address":"万航渡路661弄1-42号"},{"poiid":"B209475CD76DA7F4419F","title":"唐宫海鲜舫","lon":"121.432838","lat":"31.227283","category":"247","category_name":"餐饮美食","address":"上海市 万航渡路889号悦达889广场4楼"},{"poiid":"B2094757D56CA2FF419E","title":"一线烫捞 悦达广场店","lon":"121.4294761","lat":"31.2284633","category":"68","category_name":"快餐厅","address":"静安区万航渡路889号悦达广场B1楼(近长寿路)"},{"poiid":"B2094655D26CAAFC459E","title":"海森国际大厦(康定路)","lon":"121.43","lat":"31.22844","category":"46","category_name":"楼宇","address":"海森国际大厦位于静安康定路1469号(近万航渡路)"},{"poiid":"B2094655D264A4F9499E","title":"港人情味茶餐厅 康定路店","lon":"121.42934694949","lat":"31.228463845861","category":"72","category_name":"广东菜","address":"静安区康定路1596号(近万航渡路)"},{"poiid":"B2094654DB6BA6FF4093","title":"金峰世纪大厦(万航渡路)","lon":"121.4307","lat":"31.22793","category":"46","category_name":"楼宇","address":"上海市静安区万航渡路789号"},{"poiid":"B2094757D068A2FC4998","title":"红宝石 万航渡路店 Ruby","lon":"121.433935054","lat":"31.225951793","category":"67","category_name":"甜品店","address":"静安区万航渡路625号(近武定西路)"},{"poiid":"B2094750DA6EA3FB4293","title":"889广场","lon":"121.430061","lat":"31.228359","category":"249","category_name":"购物服务","address":"静安区万航渡路"},{"poiid":"B2094757D068A6FF4693","title":"王家沙点心店(万航渡路店)","lon":"121.43307","lat":"31.22653","category":"68","category_name":"快餐厅","address":"静安区万航渡路673号(康定路与武定西路间)"},{"poiid":"B2094757D46AA4F9429F","title":"味千拉面 悦达889广场店","lon":"121.42899","lat":"31.22864","category":"95","category_name":"日本料理","address":"静安区万航渡路889号悦达889广场4楼(近长寿路)"},{"poiid":"B2094757D069ABF94493","title":"集鲜阁","lon":"121.43094","lat":"31.22766","category":"76","category_name":"上海菜","address":"静安区万航渡路789号3楼(近康定路)"},{"poiid":"B2094757D069A0F4479A","title":"天乐酒家","lon":"121.43225563741","lat":"31.226646519422","category":"76","category_name":"上海菜","address":"静安区万航渡路628号(近武定西路)"},{"poiid":"B2094654D565A2F54092","title":"万航渡路小学","lon":"121.4316","lat":"31.22656","category":"56","category_name":"小学","address":"静安区万航渡路690号(近康定路)"},{"poiid":"B2094753D46BA3FD4692","title":"环球港","lon":"121.430648","lat":"31.22647","category":"500","category_name":"未知分类","address":"上海市 中山北路3300号"},{"poiid":"B2094757D06AA6F8409D","title":"老盛兴苏州汤包馆(江苏路店)","lon":"121.42741","lat":"31.22355","category":"68","category_name":"快餐厅","address":"长宁区长宁路351号(近江苏路)"},{"poiid":"B2094753D569A6FA4793","title":"小辉哥火锅（悦达889）","lon":"121.428993","lat":"31.22879","category":"247","category_name":"餐饮美食","address":"上海市 静安区万航渡路889号3层"},{"poiid":"B2094757D068A7F8479B","title":"中行小区","lon":"121.43359768","lat":"31.226565699","category":"47","category_name":"住宅区","address":"上海市长宁区淮海西路346弄5号楼"},{"poiid":"B2094757D16FABF94098","title":"老城隍庙特色小吃","lon":"121.431796","lat":"31.227323","category":"257","category_name":"中餐厅","address":"静安区万航渡路725号(近武定西路)"},{"poiid":"B2094750D76FA5F8479D","title":"食在高包子(万航渡路店)","lon":"121.432","lat":"31.2271","category":"68","category_name":"快餐厅","address":"静安区万航渡路693号(近武定西路)"},{"poiid":"B209475CD564ABF44292","title":"鱼酷","lon":"121.429283","lat":"31.227117","category":"500","category_name":"未知分类","address":"上海市 万航渡路悦达889广场四楼"},{"poiid":"B2094655D26EA7FC4093","title":"游泳池棋牌室","lon":"121.43153","lat":"31.22717","category":"231","category_name":"游泳馆","address":"万航渡路724弄1-27号"},{"poiid":"B2094654DB6BA6FE499A","title":"万航公寓(西北门)","lon":"121.43153","lat":"31.22608","category":"47","category_name":"住宅区","address":"万航渡路676弄52"},{"poiid":"B2094654DB69A7FE479A","title":"上海市总工会静安区工人游泳池","lon":"121.43153","lat":"31.22717","category":"231","category_name":"游泳馆","address":"静安区万航渡路724弄(近武定西路)"},{"poiid":"B2094654D565A1FD4693","title":"静安面包房(万航渡路)","lon":"121.43249","lat":"31.22694","category":"112","category_name":"糕饼店","address":"静安区万航渡路689号(近康定路)"},{"poiid":"B2094654DB6BA6FE4892","title":"曹家渡派出所(武定西路)","lon":"121.4319","lat":"31.22475","category":"248","category_name":"生活娱乐","address":"武定西路1368"},{"poiid":"B2094655D26CABF4419B","title":"高荣小区(边门)","lon":"121.43225","lat":"31.22732","category":"47","category_name":"住宅区","address":"万航渡路661弄1-68号"},{"poiid":"B2094654DB6BA6FE4992","title":"鑫康苑边门(万航渡路)","lon":"121.43047","lat":"31.22798","category":"47","category_name":"住宅区","address":"上海市静安区万航渡路829弄"},{"poiid":"B2094655D26CABFB429A","title":"上海正航商务酒店","lon":"121.42913","lat":"31.22677","category":"76","category_name":"上海菜","address":"静安区万航渡路858弄15号(近曹家渡)"},{"poiid":"B2094757D16EA7FD459C","title":"曹家渡街道社区文化中心","lon":"121.43141758","lat":"31.225278334","category":"500","category_name":"未知分类","address":"静安区武定西路1344弄12号"},{"poiid":"B209475DD364A4F4499C","title":"蛋糕细语 the icing room","lon":"121.431526","lat":"31.225811","category":"500","category_name":"未知分类","address":"上海市 淮海中路999号环贸iapm 广场LG2"},{"poiid":"B2094654D565A1FD449A","title":"正龙桂林米粉(万航渡路)","lon":"121.43031","lat":"31.22814","category":"87","category_name":"特色／地方风味餐厅","address":"静安区万航渡路803号(近康定路)"},{"poiid":"B2094654D565A2F54093","title":"万航公寓","lon":"121.43196","lat":"31.225796","category":"47","category_name":"住宅区","address":"万航渡路676弄52"},{"poiid":"B2094654D565A1FD469E","title":"港式甜品","lon":"121.43224","lat":"31.22707","category":"112","category_name":"糕饼店","address":"万航渡路699、699-1"},{"poiid":"B2094654D565A2F4459B","title":"鑫阳公寓","lon":"121.43038","lat":"31.225157","category":"47","category_name":"住宅区","address":"上海武定西路1398弄9号"},{"poiid":"B2094654DB6BA6FE499B","title":"长白山大厦(吉臣酒店东)","lon":"121.43006","lat":"31.22786","category":"46","category_name":"楼宇","address":"万航渡路818号"},{"poiid":"B2094654DB6BA6FE489C","title":"静安城振阳公寓","lon":"121.43142","lat":"31.22521","category":"47","category_name":"住宅区","address":"武定西路1388号"},{"poiid":"B2094654D565A2F44492","title":"静安城汽车公寓","lon":"121.43142","lat":"31.2252","category":"47","category_name":"住宅区","address":"武定西路1398弄3号"},{"poiid":"B2094654D565A1F84198","title":"上海工艺美术职业学院","lon":"121.43133","lat":"31.22803","category":"671","category_name":"高校中心点","address":"万航渡路767弄20号"},{"poiid":"B2094757D069ABF4499C","title":"泰煌鸡(万航渡路店)","lon":"121.43379844","lat":"31.2269859112","category":"68","category_name":"快餐厅","address":"静安区万航渡路615号(近武定西路)"},{"poiid":"B2094655D36CA5FA479C","title":"曹家渡","lon":"121.42757","lat":"31.22761","category":"38","category_name":"公交车站","address":""},{"poiid":"B2094757D06FA0FA449A","title":"长宁路江苏路","lon":"121.428071","lat":"31.225633","category":"500","category_name":"未知分类","address":"上海市长宁区长宁路江苏路"},{"poiid":"B2094757D068A2FB419F","title":"吉臣酒店","lon":"121.429710815","lat":"31.2278964211","category":"217","category_name":"旅馆招待所","address":"静安区万航渡路818号(近长寿路)"},{"poiid":"B209475CD564A7F8439E","title":"上海滩中信泰富店","lon":"121.45602","lat":"31.22851","category":"119","category_name":"商场","address":"\"南京西路1168号中信泰富广场，店铺号221.\r\n\""},{"poiid":"B2094654DB65A4F84892","title":"柔日本料理 YAWARA","lon":"121.429154054","lat":"31.228230793","category":"247","category_name":"餐饮美食","address":"静安区万航渡路818号吉臣酒店4楼(近康定路)"},{"poiid":"B2094757D468ABFA4792","title":"和平官邸5号","lon":"121.432227","lat":"31.224611","category":"247","category_name":"餐饮美食","address":"静安区武定西路1317弄10号(近万航渡路)"},{"poiid":"B2094654DB6BA6FE499E","title":"开开广场(万航渡路)","lon":"121.42865","lat":"31.22811","category":"46","category_name":"楼宇","address":"上海万航渡路888号10楼"},{"poiid":"B2094757D06FA4FA479B","title":"绿地商务大厦","lon":"121.43222758119","lat":"31.225661116139","category":"46","category_name":"楼宇","address":"上海市长宁区愚园路1258号"},{"poiid":"B2094750DA6BA4FC4692","title":"敦煌楼兰州拉面","lon":"121.429443","lat":"31.225271","category":"247","category_name":"餐饮美食","address":"长宁区长宁路436号(近江苏路)"},{"poiid":"B2094757D069A1F44498","title":"Mokkos","lon":"121.433256152","lat":"31.2250710167","category":"260","category_name":"其他","address":"长宁区武定西路1245号103室(近万航渡路)"},{"poiid":"B2094757D069A5F8469A","title":"静安丽舍","lon":"121.43063354","lat":"31.2261734","category":"500","category_name":"未知分类","address":"万航渡路858弄25-27号"},{"poiid":"B2094757D06FABFB479F","title":"高荣小区","lon":"121.43186669","lat":"31.226825114","category":"47","category_name":"住宅区","address":"万航渡路661弄1-42号"},{"poiid":"B209475CD76DA7F4419F","title":"唐宫海鲜舫","lon":"121.432838","lat":"31.227283","category":"247","category_name":"餐饮美食","address":"上海市 万航渡路889号悦达889广场4楼"},{"poiid":"B2094757D56CA2FF419E","title":"一线烫捞 悦达广场店","lon":"121.4294761","lat":"31.2284633","category":"68","category_name":"快餐厅","address":"静安区万航渡路889号悦达广场B1楼(近长寿路)"},{"poiid":"B2094655D26CAAFC459E","title":"海森国际大厦(康定路)","lon":"121.43","lat":"31.22844","category":"46","category_name":"楼宇","address":"海森国际大厦位于静安康定路1469号(近万航渡路)"},{"poiid":"B2094655D264A4F9499E","title":"港人情味茶餐厅 康定路店","lon":"121.42934694949","lat":"31.228463845861","category":"72","category_name":"广东菜","address":"静安区康定路1596号(近万航渡路)"},{"poiid":"B2094654DB6BA6FF4093","title":"金峰世纪大厦(万航渡路)","lon":"121.4307","lat":"31.22793","category":"46","category_name":"楼宇","address":"上海市静安区万航渡路789号"},{"poiid":"B2094757D068A2FC4998","title":"红宝石 万航渡路店 Ruby","lon":"121.433935054","lat":"31.225951793","category":"67","category_name":"甜品店","address":"静安区万航渡路625号(近武定西路)"},{"poiid":"B2094750DA6EA3FB4293","title":"889广场","lon":"121.430061","lat":"31.228359","category":"249","category_name":"购物服务","address":"静安区万航渡路"},{"poiid":"B2094757D068A6FF4693","title":"王家沙点心店(万航渡路店)","lon":"121.43307","lat":"31.22653","category":"68","category_name":"快餐厅","address":"静安区万航渡路673号(康定路与武定西路间)"},{"poiid":"B2094757D46AA4F9429F","title":"味千拉面 悦达889广场店","lon":"121.42899","lat":"31.22864","category":"95","category_name":"日本料理","address":"静安区万航渡路889号悦达889广场4楼(近长寿路)"},{"poiid":"B2094757D069ABF94493","title":"集鲜阁","lon":"121.43094","lat":"31.22766","category":"76","category_name":"上海菜","address":"静安区万航渡路789号3楼(近康定路)"},{"poiid":"B2094757D069A0F4479A","title":"天乐酒家","lon":"121.43225563741","lat":"31.226646519422","category":"76","category_name":"上海菜","address":"静安区万航渡路628号(近武定西路)"},{"poiid":"B2094654D565A2F54092","title":"万航渡路小学","lon":"121.4316","lat":"31.22656","category":"56","category_name":"小学","address":"静安区万航渡路690号(近康定路)"},{"poiid":"B2094753D46BA3FD4692","title":"环球港","lon":"121.430648","lat":"31.22647","category":"500","category_name":"未知分类","address":"上海市 中山北路3300号"},{"poiid":"B2094757D06AA6F8409D","title":"老盛兴苏州汤包馆(江苏路店)","lon":"121.42741","lat":"31.22355","category":"68","category_name":"快餐厅","address":"长宁区长宁路351号(近江苏路)"},{"poiid":"B2094753D569A6FA4793","title":"小辉哥火锅（悦达889）","lon":"121.428993","lat":"31.22879","category":"247","category_name":"餐饮美食","address":"上海市 静安区万航渡路889号3层"},{"poiid":"B2094757D068A7F8479B","title":"中行小区","lon":"121.43359768","lat":"31.226565699","category":"47","category_name":"住宅区","address":"上海市长宁区淮海西路346弄5号楼"},{"poiid":"B2094757D16FABF94098","title":"老城隍庙特色小吃","lon":"121.431796","lat":"31.227323","category":"257","category_name":"中餐厅","address":"静安区万航渡路725号(近武定西路)"},{"poiid":"B2094750D76FA5F8479D","title":"食在高包子(万航渡路店)","lon":"121.432","lat":"31.2271","category":"68","category_name":"快餐厅","address":"静安区万航渡路693号(近武定西路)"},{"poiid":"B209475CD564ABF44292","title":"鱼酷","lon":"121.429283","lat":"31.227117","category":"500","category_name":"未知分类","address":"上海市 万航渡路悦达889广场四楼"},{"poiid":"B2094655D26EA7FC4093","title":"游泳池棋牌室","lon":"121.43153","lat":"31.22717","category":"231","category_name":"游泳馆","address":"万航渡路724弄1-27号"},{"poiid":"B2094654DB6BA6FE499A","title":"万航公寓(西北门)","lon":"121.43153","lat":"31.22608","category":"47","category_name":"住宅区","address":"万航渡路676弄52"},{"poiid":"B2094654DB69A7FE479A","title":"上海市总工会静安区工人游泳池","lon":"121.43153","lat":"31.22717","category":"231","category_name":"游泳馆","address":"静安区万航渡路724弄(近武定西路)"},{"poiid":"B2094654D565A1FD4693","title":"静安面包房(万航渡路)","lon":"121.43249","lat":"31.22694","category":"112","category_name":"糕饼店","address":"静安区万航渡路689号(近康定路)"},{"poiid":"B2094654DB6BA6FE4892","title":"曹家渡派出所(武定西路)","lon":"121.4319","lat":"31.22475","category":"248","category_name":"生活娱乐","address":"武定西路1368"},{"poiid":"B2094655D26CABF4419B","title":"高荣小区(边门)","lon":"121.43225","lat":"31.22732","category":"47","category_name":"住宅区","address":"万航渡路661弄1-68号"},{"poiid":"B2094654DB6BA6FE4992","title":"鑫康苑边门(万航渡路)","lon":"121.43047","lat":"31.22798","category":"47","category_name":"住宅区","address":"上海市静安区万航渡路829弄"},{"poiid":"B2094655D26CABFB429A","title":"上海正航商务酒店","lon":"121.42913","lat":"31.22677","category":"76","category_name":"上海菜","address":"静安区万航渡路858弄15号(近曹家渡)"},{"poiid":"B2094757D16EA7FD459C","title":"曹家渡街道社区文化中心","lon":"121.43141758","lat":"31.225278334","category":"500","category_name":"未知分类","address":"静安区武定西路1344弄12号"},{"poiid":"B209475DD364A4F4499C","title":"蛋糕细语 the icing room","lon":"121.431526","lat":"31.225811","category":"500","category_name":"未知分类","address":"上海市 淮海中路999号环贸iapm 广场LG2"},{"poiid":"B2094654D565A1FD449A","title":"正龙桂林米粉(万航渡路)","lon":"121.43031","lat":"31.22814","category":"87","category_name":"特色／地方风味餐厅","address":"静安区万航渡路803号(近康定路)"},{"poiid":"B2094654D565A2F54093","title":"万航公寓","lon":"121.43196","lat":"31.225796","category":"47","category_name":"住宅区","address":"万航渡路676弄52"},{"poiid":"B2094654D565A1FD469E","title":"港式甜品","lon":"121.43224","lat":"31.22707","category":"112","category_name":"糕饼店","address":"万航渡路699、699-1"},{"poiid":"B2094654D565A2F4459B","title":"鑫阳公寓","lon":"121.43038","lat":"31.225157","category":"47","category_name":"住宅区","address":"上海武定西路1398弄9号"},{"poiid":"B2094654DB6BA6FE499B","title":"长白山大厦(吉臣酒店东)","lon":"121.43006","lat":"31.22786","category":"46","category_name":"楼宇","address":"万航渡路818号"},{"poiid":"B2094654DB6BA6FE489C","title":"静安城振阳公寓","lon":"121.43142","lat":"31.22521","category":"47","category_name":"住宅区","address":"武定西路1388号"},{"poiid":"B2094654D565A2F44492","title":"静安城汽车公寓","lon":"121.43142","lat":"31.2252","category":"47","category_name":"住宅区","address":"武定西路1398弄3号"},{"poiid":"B2094654D565A1F84198","title":"上海工艺美术职业学院","lon":"121.43133","lat":"31.22803","category":"671","category_name":"高校中心点","address":"万航渡路767弄20号"},{"poiid":"B2094757D069ABF4499C","title":"泰煌鸡(万航渡路店)","lon":"121.43379844","lat":"31.2269859112","category":"68","category_name":"快餐厅","address":"静安区万航渡路615号(近武定西路)"}]