[{"poiid":"B2094757D06EAAF9489A","title":"上海海事大学(海港大道校区)","lon":"121.90657019","lat":"30.878326929","category":"52","category_name":"高等院校","address":"上海浦东新区临港新城海港大道1550号"},{"poiid":"B2094654DB65A6FD479F","title":"上海海洋大学临港新校区","lon":"121.89657","lat":"30.8837","category":"52","category_name":"高等院校","address":"浦东新区临港新城沪城环路999号"},{"poiid":"B2094757D06FAAFF429B","title":"上海海洋大学图文信息中心","lon":"121.89948981","lat":"30.881426301","category":"500","category_name":"未知分类","address":"上海海洋大学内"},{"poiid":"B2094757D16DA1FD409C","title":"中远图书馆","lon":"121.905413","lat":"30.874088","category":"181","category_name":"图书馆","address":"上海海事大学"},{"poiid":"B2094757D06FA6FA4492","title":"上海电机学院(临港校区)","lon":"121.88798904","lat":"30.886849223","category":"52","category_name":"高等院校","address":"浦东新区临港新城橄榄路1350号(近南汇党校)"},{"poiid":"B2094757D06AA2FC479C","title":"上海海事大学(临港校区)北苑学生宿舍区","lon":"121.905355627","lat":"30.8738600646","category":"253","category_name":"校园生活","address":"上海市浦东新区海港大道1550号"},{"poiid":"B2094655D36CA7FF4092","title":"沪城环路共享区","lon":"121.90263","lat":"30.8852","category":"38","category_name":"公交车站","address":""},{"poiid":"B2094757D06FA0F4499C","title":"上海海洋大学第一教学楼","lon":"121.896582","lat":"30.8837","category":"253","category_name":"校园生活","address":"上海临港新城沪城环路999号"},{"poiid":"B2094654DB68ABF44493","title":"洋山保税港区","lon":"121.88819","lat":"30.87725","category":"45","category_name":"产业园区","address":""},{"poiid":"B2094757D06FA7F8489D","title":"上海海事大学(临港校区)第三教学区","lon":"121.91082","lat":"30.875928878","category":"253","category_name":"校园生活","address":"上海市浦东新区海港大道1550号"},{"poiid":"B2094757D16BA0FA469E","title":"海事大学女生寝室","lon":"121.902822558","lat":"30.8751568556","category":"500","category_name":"未知分类","address":null},{"poiid":"B2094757D06FA4FF4793","title":"上海海事大学(临港校区)第二教学区","lon":"121.905453","lat":"30.874115","category":"253","category_name":"校园生活","address":"上海浦东新区海港大道1550号"},{"poiid":"B2094757D06FA7FB439D","title":"上海海洋大学(沪城环路校区)","lon":"121.90060424","lat":"30.890630722","category":"253","category_name":"校园生活","address":"上海市浦东新区沪城环路999号"},{"poiid":"B2094757D06AA0FB4492","title":"上海海事大学(临港校区)大礼堂","lon":"121.90343856","lat":"30.879207117","category":"249","category_name":"购物服务","address":"浦东新区临港新城海港大道1550号上海海事大学内(近古棕路)"},{"poiid":"B2094757D069A2FC459F","title":"上海海洋大学第二教学楼","lon":"121.900772","lat":"30.880862","category":"253","category_name":"校园生活","address":"浦东新区临港新城沪城环路999号上海海洋大学内"},{"poiid":"B2094750D56EA4FD439B","title":"Fatty\\'s Fresh Cafe老费 咖啡馆","lon":"121.901016","lat":"30.879924","category":"247","category_name":"餐饮美食","address":"浦东新区沪城环路699号157号(近汇海广场)"},{"poiid":"B2094757D06FA1FB469B","title":"深水港商务广场","lon":"121.88806915","lat":"30.877120971","category":"46","category_name":"楼宇","address":"上海浦东新区芦潮港镇顺通路9号"},{"poiid":"B2094757D068A5F5489F","title":"上海海洋大学第四教学楼","lon":"121.90187072","lat":"30.888212204","category":"253","category_name":"校园生活","address":"上海市浦东新区沪城环路999号"},{"poiid":"B2094757D16EA3FE469C","title":"上海海事大学(临港校区)商船学院","lon":"121.90733695","lat":"30.871158156","category":"500","category_name":"未知分类","address":"浦东新区临港新城海港大道1550号上海海事大学院内(近古棕路)"},{"poiid":"B2094757D068AAF4449C","title":"沪城环路共享区站(公交龙港快线,龙芦线,龙临线,申港1路,洋山线,芦杜线)","lon":"121.90233929","lat":"30.8807908037","category":"38","category_name":"公交车站","address":"上海市浦东新区沪城环路699弄"},{"poiid":"B2094757D16EA1FF409A","title":"上海海洋大学体育馆","lon":"121.900365958","lat":"30.8819844249","category":"500","category_name":"未知分类","address":"上海市浦东新区沪城环路"},{"poiid":"B2094757D068ABF84999","title":"汇海街广场(沪城环路大学共享区)","lon":"121.90245127","lat":"30.881785586","category":"250","category_name":"公园户外","address":"上海浦东新区沪城环路699弄"},{"poiid":"B2094757D168AAFA499E","title":"上海海洋大学 图书馆","lon":"121.89720504","lat":"30.882000115","category":"181","category_name":"图书馆","address":"浦东新区临港新城护城环路999号"},{"poiid":"B2094757D064A1F54193","title":"上海海洋大学第八小区","lon":"121.89609559","lat":"30.879217446","category":"500","category_name":"未知分类","address":"上海沪城环路999号"},{"poiid":"B2094757D068A0FF4699","title":"上海海洋大学第一食堂","lon":"121.90174102","lat":"30.878427505","category":"247","category_name":"餐饮美食","address":"沪城环路 999号上海海洋大学"},{"poiid":"B2094757D16BA5FE459C","title":"上海海洋大学第五小区","lon":"121.89729785","lat":"30.879183955","category":"500","category_name":"未知分类","address":"上海浦东新区临港新城沪城环路999号"},{"poiid":"B2094757D06AA6F84699","title":"上海海事大学(临港校区)第一教学区","lon":"121.90536364","lat":"30.8744290326","category":"253","category_name":"校园生活","address":"上海浦东新区海港大道1550号"},{"poiid":"B2094757D16CAAF9409D","title":"苏武牧羊(沪城环路共享区店)","lon":"121.902345441","lat":"30.881098034","category":"73","category_name":"山东菜","address":"浦东新区沪城环路海事商业广场(近海事大学临港校区)"},{"poiid":"B2094757D06EABF5479C","title":"上海海洋大学第三教学楼","lon":"121.900566101","lat":"30.8905506134","category":"253","category_name":"校园生活","address":"上海市浦东新区沪城环路999号上海海洋大学内"},{"poiid":"B2094757D16BA2FD4499","title":"福寿司","lon":"121.902099258","lat":"30.8816497166","category":"95","category_name":"日本料理","address":"浦东新区临港新城海港大道1550号共享区2楼"},{"poiid":"B2094757D068A4FE4898","title":"上海海洋大学第十小区","lon":"121.896567","lat":"30.883692","category":"500","category_name":"未知分类","address":"上海沪城环路999号"},{"poiid":"B2094757D76DA1FD4999","title":"果麦de鲜饮创作 海洋大学店 Gomax","lon":"121.901952","lat":"30.886009","category":"67","category_name":"甜品店","address":"浦东新区沪城环路海事大学临港校区海事商业广场C-104号商铺"},{"poiid":"B2094757D168A2F5429C","title":"村夫烤鱼(沪城环路共享区店)","lon":"121.902493529","lat":"30.8813801804","category":"86","category_name":"火锅店","address":"上海市浦东新区沪城环路699弄"},{"poiid":"B2094757D06AA6FC479F","title":"上海海事大学(临港校区)体育馆","lon":"121.90532699","lat":"30.8740139785","category":"220","category_name":"运动场所","address":"浦东新区临港新城海港大道1550号上海海事大学院内"},{"poiid":"B2094757D06BA1FE459C","title":"上海海洋大学学生活动中心","lon":"121.89658355","lat":"30.883699417","category":"500","category_name":"未知分类","address":"上海沪城环路999号"},{"poiid":"B2094750D464A4FD409F","title":"中原郎烧烤","lon":"121.90206","lat":"30.8844","category":"269","category_name":"烧烤","address":"浦东新区临港新城沪城环路699号海事大学共享区A区131号"},{"poiid":"B2094757D16DABF54098","title":"上海电机学院(临港校区)图书馆","lon":"121.888338458","lat":"30.8774607127","category":"181","category_name":"图书馆","address":"上海浦东新区临港新城橄榄路1350号"},{"poiid":"B2094757D069AAFB449F","title":"上海海洋大学第二食堂","lon":"121.901872","lat":"30.888212","category":"253","category_name":"校园生活","address":"上海市浦东新区沪城环路999号"},{"poiid":"B2094757D06AA3FA4593","title":"上海海事大学(临港校区)北商铺广场","lon":"121.902618036","lat":"30.8755915464","category":"250","category_name":"公园户外","address":"上海市浦东新区海港大道1550号上海海事大学(临港校区) 北极一路北海五路"},{"poiid":"B2094655D36CA6FC409B","title":"古棕路沪城环路","lon":"121.90394","lat":"30.87893","category":"38","category_name":"公交车站","address":""},{"poiid":"B2094757D66CA3F8499E","title":"信息学院","lon":"121.90190887","lat":"30.884069442","category":"253","category_name":"校园生活","address":"上海海洋大学内"},{"poiid":"B2094757D16EA3FC4798","title":"吉祥馄饨(沪城环路共享区店)","lon":"121.900778","lat":"30.886684","category":"68","category_name":"快餐厅","address":"浦东新区临港新城海港大道1550号上海海事大学海事共享区"},{"poiid":"B2094757D168ABF84592","title":"上海海洋大学第一小区宿舍","lon":"121.896742006","lat":"30.883528992","category":"253","category_name":"校园生活","address":"上海市浦东新区沪城环路999号"},{"poiid":"B2094757D069A5F84893","title":"上海海洋大学公共实验楼","lon":"121.901217","lat":"30.879176","category":"253","category_name":"校园生活","address":"南汇区沪城环路999号上海海洋大学内"},{"poiid":"B2094757D569A1FE4699","title":"海洋大学临港校区一食堂","lon":"121.896572","lat":"30.883717","category":"257","category_name":"中餐厅","address":"临港新城沪城环路999号"},{"poiid":"B2094655D36CA7FF409F","title":"沪城环路橄榄路","lon":"121.89685","lat":"30.88924","category":"38","category_name":"公交车站","address":""},{"poiid":"B2094752D16EA1F4419D","title":"24K主题歌城","lon":"121.903213","lat":"30.887109","category":"248","category_name":"生活娱乐","address":"上海临港新城古棕路580号农工商卖场2楼"},{"poiid":"B2094757D164ABF4449E","title":"上海海洋大学行政楼","lon":"121.897438958","lat":"30.8838744717","category":"500","category_name":"未知分类","address":"上海临港新城"},{"poiid":"B2094757D165A3F5449E","title":"逸仙路长江路(张华浜)站(公交51,90,116,159,160,726,728,813)","lon":"121.900660958","lat":"30.8791913556","category":"38","category_name":"公交车站","address":"上海市宝山区逸仙路长江路"},{"poiid":"B2094757DA64A5FC429C","title":"上海海洋大学第六小区","lon":"121.892622","lat":"30.880606","category":"253","category_name":"校园生活","address":"上海海洋大学沪城环路999号"},{"poiid":"B2094757D06EAAF9489A","title":"上海海事大学(海港大道校区)","lon":"121.90657019","lat":"30.878326929","category":"52","category_name":"高等院校","address":"上海浦东新区临港新城海港大道1550号"},{"poiid":"B2094654DB65A6FD479F","title":"上海海洋大学临港新校区","lon":"121.89657","lat":"30.8837","category":"52","category_name":"高等院校","address":"浦东新区临港新城沪城环路999号"},{"poiid":"B2094757D06FAAFF429B","title":"上海海洋大学图文信息中心","lon":"121.89948981","lat":"30.881426301","category":"500","category_name":"未知分类","address":"上海海洋大学内"},{"poiid":"B2094757D16DA1FD409C","title":"中远图书馆","lon":"121.905413","lat":"30.874088","category":"181","category_name":"图书馆","address":"上海海事大学"},{"poiid":"B2094757D06FA6FA4492","title":"上海电机学院(临港校区)","lon":"121.88798904","lat":"30.886849223","category":"52","category_name":"高等院校","address":"浦东新区临港新城橄榄路1350号(近南汇党校)"},{"poiid":"B2094757D06AA2FC479C","title":"上海海事大学(临港校区)北苑学生宿舍区","lon":"121.905355627","lat":"30.8738600646","category":"253","category_name":"校园生活","address":"上海市浦东新区海港大道1550号"},{"poiid":"B2094655D36CA7FF4092","title":"沪城环路共享区","lon":"121.90263","lat":"30.8852","category":"38","category_name":"公交车站","address":""},{"poiid":"B2094757D06FA0F4499C","title":"上海海洋大学第一教学楼","lon":"121.896582","lat":"30.8837","category":"253","category_name":"校园生活","address":"上海临港新城沪城环路999号"},{"poiid":"B2094654DB68ABF44493","title":"洋山保税港区","lon":"121.88819","lat":"30.87725","category":"45","category_name":"产业园区","address":""},{"poiid":"B2094757D06FA7F8489D","title":"上海海事大学(临港校区)第三教学区","lon":"121.91082","lat":"30.875928878","category":"253","category_name":"校园生活","address":"上海市浦东新区海港大道1550号"},{"poiid":"B2094757D16BA0FA469E","title":"海事大学女生寝室","lon":"121.902822558","lat":"30.8751568556","category":"500","category_name":"未知分类","address":null},{"poiid":"B2094757D06FA4FF4793","title":"上海海事大学(临港校区)第二教学区","lon":"121.905453","lat":"30.874115","category":"253","category_name":"校园生活","address":"上海浦东新区海港大道1550号"},{"poiid":"B2094757D06FA7FB439D","title":"上海海洋大学(沪城环路校区)","lon":"121.90060424","lat":"30.890630722","category":"253","category_name":"校园生活","address":"上海市浦东新区沪城环路999号"},{"poiid":"B2094757D06AA0FB4492","title":"上海海事大学(临港校区)大礼堂","lon":"121.90343856","lat":"30.879207117","category":"249","category_name":"购物服务","address":"浦东新区临港新城海港大道1550号上海海事大学内(近古棕路)"},{"poiid":"B2094757D069A2FC459F","title":"上海海洋大学第二教学楼","lon":"121.900772","lat":"30.880862","category":"253","category_name":"校园生活","address":"浦东新区临港新城沪城环路999号上海海洋大学内"},{"poiid":"B2094750D56EA4FD439B","title":"Fatty\\'s Fresh Cafe老费 咖啡馆","lon":"121.901016","lat":"30.879924","category":"247","category_name":"餐饮美食","address":"浦东新区沪城环路699号157号(近汇海广场)"},{"poiid":"B2094757D06FA1FB469B","title":"深水港商务广场","lon":"121.88806915","lat":"30.877120971","category":"46","category_name":"楼宇","address":"上海浦东新区芦潮港镇顺通路9号"},{"poiid":"B2094757D068A5F5489F","title":"上海海洋大学第四教学楼","lon":"121.90187072","lat":"30.888212204","category":"253","category_name":"校园生活","address":"上海市浦东新区沪城环路999号"},{"poiid":"B2094757D16EA3FE469C","title":"上海海事大学(临港校区)商船学院","lon":"121.90733695","lat":"30.871158156","category":"500","category_name":"未知分类","address":"浦东新区临港新城海港大道1550号上海海事大学院内(近古棕路)"},{"poiid":"B2094757D068AAF4449C","title":"沪城环路共享区站(公交龙港快线,龙芦线,龙临线,申港1路,洋山线,芦杜线)","lon":"121.90233929","lat":"30.8807908037","category":"38","category_name":"公交车站","address":"上海市浦东新区沪城环路699弄"},{"poiid":"B2094757D16EA1FF409A","title":"上海海洋大学体育馆","lon":"121.900365958","lat":"30.8819844249","category":"500","category_name":"未知分类","address":"上海市浦东新区沪城环路"},{"poiid":"B2094757D068ABF84999","title":"汇海街广场(沪城环路大学共享区)","lon":"121.90245127","lat":"30.881785586","category":"250","category_name":"公园户外","address":"上海浦东新区沪城环路699弄"},{"poiid":"B2094757D168AAFA499E","title":"上海海洋大学 图书馆","lon":"121.89720504","lat":"30.882000115","category":"181","category_name":"图书馆","address":"浦东新区临港新城护城环路999号"},{"poiid":"B2094757D064A1F54193","title":"上海海洋大学第八小区","lon":"121.89609559","lat":"30.879217446","category":"500","category_name":"未知分类","address":"上海沪城环路999号"},{"poiid":"B2094757D068A0FF4699","title":"上海海洋大学第一食堂","lon":"121.90174102","lat":"30.878427505","category":"247","category_name":"餐饮美食","address":"沪城环路 999号上海海洋大学"},{"poiid":"B2094757D16BA5FE459C","title":"上海海洋大学第五小区","lon":"121.89729785","lat":"30.879183955","category":"500","category_name":"未知分类","address":"上海浦东新区临港新城沪城环路999号"},{"poiid":"B2094757D06AA6F84699","title":"上海海事大学(临港校区)第一教学区","lon":"121.90536364","lat":"30.8744290326","category":"253","category_name":"校园生活","address":"上海浦东新区海港大道1550号"},{"poiid":"B2094757D16CAAF9409D","title":"苏武牧羊(沪城环路共享区店)","lon":"121.902345441","lat":"30.881098034","category":"73","category_name":"山东菜","address":"浦东新区沪城环路海事商业广场(近海事大学临港校区)"},{"poiid":"B2094757D06EABF5479C","title":"上海海洋大学第三教学楼","lon":"121.900566101","lat":"30.8905506134","category":"253","category_name":"校园生活","address":"上海市浦东新区沪城环路999号上海海洋大学内"},{"poiid":"B2094757D16BA2FD4499","title":"福寿司","lon":"121.902099258","lat":"30.8816497166","category":"95","category_name":"日本料理","address":"浦东新区临港新城海港大道1550号共享区2楼"},{"poiid":"B2094757D068A4FE4898","title":"上海海洋大学第十小区","lon":"121.896567","lat":"30.883692","category":"500","category_name":"未知分类","address":"上海沪城环路999号"},{"poiid":"B2094757D76DA1FD4999","title":"果麦de鲜饮创作 海洋大学店 Gomax","lon":"121.901952","lat":"30.886009","category":"67","category_name":"甜品店","address":"浦东新区沪城环路海事大学临港校区海事商业广场C-104号商铺"},{"poiid":"B2094757D168A2F5429C","title":"村夫烤鱼(沪城环路共享区店)","lon":"121.902493529","lat":"30.8813801804","category":"86","category_name":"火锅店","address":"上海市浦东新区沪城环路699弄"},{"poiid":"B2094757D06AA6FC479F","title":"上海海事大学(临港校区)体育馆","lon":"121.90532699","lat":"30.8740139785","category":"220","category_name":"运动场所","address":"浦东新区临港新城海港大道1550号上海海事大学院内"},{"poiid":"B2094757D06BA1FE459C","title":"上海海洋大学学生活动中心","lon":"121.89658355","lat":"30.883699417","category":"500","category_name":"未知分类","address":"上海沪城环路999号"},{"poiid":"B2094750D464A4FD409F","title":"中原郎烧烤","lon":"121.90206","lat":"30.8844","category":"269","category_name":"烧烤","address":"浦东新区临港新城沪城环路699号海事大学共享区A区131号"},{"poiid":"B2094757D16DABF54098","title":"上海电机学院(临港校区)图书馆","lon":"121.888338458","lat":"30.8774607127","category":"181","category_name":"图书馆","address":"上海浦东新区临港新城橄榄路1350号"},{"poiid":"B2094757D069AAFB449F","title":"上海海洋大学第二食堂","lon":"121.901872","lat":"30.888212","category":"253","category_name":"校园生活","address":"上海市浦东新区沪城环路999号"},{"poiid":"B2094757D06AA3FA4593","title":"上海海事大学(临港校区)北商铺广场","lon":"121.902618036","lat":"30.8755915464","category":"250","category_name":"公园户外","address":"上海市浦东新区海港大道1550号上海海事大学(临港校区) 北极一路北海五路"},{"poiid":"B2094655D36CA6FC409B","title":"古棕路沪城环路","lon":"121.90394","lat":"30.87893","category":"38","category_name":"公交车站","address":""},{"poiid":"B2094757D66CA3F8499E","title":"信息学院","lon":"121.90190887","lat":"30.884069442","category":"253","category_name":"校园生活","address":"上海海洋大学内"},{"poiid":"B2094757D16EA3FC4798","title":"吉祥馄饨(沪城环路共享区店)","lon":"121.900778","lat":"30.886684","category":"68","category_name":"快餐厅","address":"浦东新区临港新城海港大道1550号上海海事大学海事共享区"},{"poiid":"B2094757D168ABF84592","title":"上海海洋大学第一小区宿舍","lon":"121.896742006","lat":"30.883528992","category":"253","category_name":"校园生活","address":"上海市浦东新区沪城环路999号"},{"poiid":"B2094757D069A5F84893","title":"上海海洋大学公共实验楼","lon":"121.901217","lat":"30.879176","category":"253","category_name":"校园生活","address":"南汇区沪城环路999号上海海洋大学内"},{"poiid":"B2094757D569A1FE4699","title":"海洋大学临港校区一食堂","lon":"121.896572","lat":"30.883717","category":"257","category_name":"中餐厅","address":"临港新城沪城环路999号"},{"poiid":"B2094655D36CA7FF409F","title":"沪城环路橄榄路","lon":"121.89685","lat":"30.88924","category":"38","category_name":"公交车站","address":""},{"poiid":"B2094752D16EA1F4419D","title":"24K主题歌城","lon":"121.903213","lat":"30.887109","category":"248","category_name":"生活娱乐","address":"上海临港新城古棕路580号农工商卖场2楼"},{"poiid":"B2094757D164ABF4449E","title":"上海海洋大学行政楼","lon":"121.897438958","lat":"30.8838744717","category":"500","category_name":"未知分类","address":"上海临港新城"},{"poiid":"B2094757D165A3F5449E","title":"逸仙路长江路(张华浜)站(公交51,90,116,159,160,726,728,813)","lon":"121.900660958","lat":"30.8791913556","category":"38","category_name":"公交车站","address":"上海市宝山区逸仙路长江路"},{"poiid":"B2094757DA64A5FC429C","title":"上海海洋大学第六小区","lon":"121.892622","lat":"30.880606","category":"253","category_name":"校园生活","address":"上海海洋大学沪城环路999号"},{"poiid":"B2094757D06EAAF9489A","title":"上海海事大学(海港大道校区)","lon":"121.90657019","lat":"30.878326929","category":"52","category_name":"高等院校","address":"上海浦东新区临港新城海港大道1550号"},{"poiid":"B2094654DB65A6FD479F","title":"上海海洋大学临港新校区","lon":"121.89657","lat":"30.8837","category":"52","category_name":"高等院校","address":"浦东新区临港新城沪城环路999号"},{"poiid":"B2094757D06FAAFF429B","title":"上海海洋大学图文信息中心","lon":"121.89948981","lat":"30.881426301","category":"500","category_name":"未知分类","address":"上海海洋大学内"},{"poiid":"B2094757D16DA1FD409C","title":"中远图书馆","lon":"121.905413","lat":"30.874088","category":"181","category_name":"图书馆","address":"上海海事大学"},{"poiid":"B2094757D06FA6FA4492","title":"上海电机学院(临港校区)","lon":"121.88798904","lat":"30.886849223","category":"52","category_name":"高等院校","address":"浦东新区临港新城橄榄路1350号(近南汇党校)"},{"poiid":"B2094757D06AA2FC479C","title":"上海海事大学(临港校区)北苑学生宿舍区","lon":"121.905355627","lat":"30.8738600646","category":"253","category_name":"校园生活","address":"上海市浦东新区海港大道1550号"},{"poiid":"B2094655D36CA7FF4092","title":"沪城环路共享区","lon":"121.90263","lat":"30.8852","category":"38","category_name":"公交车站","address":""},{"poiid":"B2094757D06FA0F4499C","title":"上海海洋大学第一教学楼","lon":"121.896582","lat":"30.8837","category":"253","category_name":"校园生活","address":"上海临港新城沪城环路999号"},{"poiid":"B2094654DB68ABF44493","title":"洋山保税港区","lon":"121.88819","lat":"30.87725","category":"45","category_name":"产业园区","address":""},{"poiid":"B2094757D06FA7F8489D","title":"上海海事大学(临港校区)第三教学区","lon":"121.91082","lat":"30.875928878","category":"253","category_name":"校园生活","address":"上海市浦东新区海港大道1550号"},{"poiid":"B2094757D16BA0FA469E","title":"海事大学女生寝室","lon":"121.902822558","lat":"30.8751568556","category":"500","category_name":"未知分类","address":null},{"poiid":"B2094757D06FA4FF4793","title":"上海海事大学(临港校区)第二教学区","lon":"121.905453","lat":"30.874115","category":"253","category_name":"校园生活","address":"上海浦东新区海港大道1550号"},{"poiid":"B2094757D06FA7FB439D","title":"上海海洋大学(沪城环路校区)","lon":"121.90060424","lat":"30.890630722","category":"253","category_name":"校园生活","address":"上海市浦东新区沪城环路999号"},{"poiid":"B2094757D06AA0FB4492","title":"上海海事大学(临港校区)大礼堂","lon":"121.90343856","lat":"30.879207117","category":"249","category_name":"购物服务","address":"浦东新区临港新城海港大道1550号上海海事大学内(近古棕路)"},{"poiid":"B2094757D069A2FC459F","title":"上海海洋大学第二教学楼","lon":"121.900772","lat":"30.880862","category":"253","category_name":"校园生活","address":"浦东新区临港新城沪城环路999号上海海洋大学内"},{"poiid":"B2094750D56EA4FD439B","title":"Fatty\\'s Fresh Cafe老费 咖啡馆","lon":"121.901016","lat":"30.879924","category":"247","category_name":"餐饮美食","address":"浦东新区沪城环路699号157号(近汇海广场)"},{"poiid":"B2094757D06FA1FB469B","title":"深水港商务广场","lon":"121.88806915","lat":"30.877120971","category":"46","category_name":"楼宇","address":"上海浦东新区芦潮港镇顺通路9号"},{"poiid":"B2094757D068A5F5489F","title":"上海海洋大学第四教学楼","lon":"121.90187072","lat":"30.888212204","category":"253","category_name":"校园生活","address":"上海市浦东新区沪城环路999号"},{"poiid":"B2094757D16EA3FE469C","title":"上海海事大学(临港校区)商船学院","lon":"121.90733695","lat":"30.871158156","category":"500","category_name":"未知分类","address":"浦东新区临港新城海港大道1550号上海海事大学院内(近古棕路)"},{"poiid":"B2094757D068AAF4449C","title":"沪城环路共享区站(公交龙港快线,龙芦线,龙临线,申港1路,洋山线,芦杜线)","lon":"121.90233929","lat":"30.8807908037","category":"38","category_name":"公交车站","address":"上海市浦东新区沪城环路699弄"},{"poiid":"B2094757D16EA1FF409A","title":"上海海洋大学体育馆","lon":"121.900365958","lat":"30.8819844249","category":"500","category_name":"未知分类","address":"上海市浦东新区沪城环路"},{"poiid":"B2094757D068ABF84999","title":"汇海街广场(沪城环路大学共享区)","lon":"121.90245127","lat":"30.881785586","category":"250","category_name":"公园户外","address":"上海浦东新区沪城环路699弄"},{"poiid":"B2094757D168AAFA499E","title":"上海海洋大学 图书馆","lon":"121.89720504","lat":"30.882000115","category":"181","category_name":"图书馆","address":"浦东新区临港新城护城环路999号"},{"poiid":"B2094757D064A1F54193","title":"上海海洋大学第八小区","lon":"121.89609559","lat":"30.879217446","category":"500","category_name":"未知分类","address":"上海沪城环路999号"},{"poiid":"B2094757D068A0FF4699","title":"上海海洋大学第一食堂","lon":"121.90174102","lat":"30.878427505","category":"247","category_name":"餐饮美食","address":"沪城环路 999号上海海洋大学"},{"poiid":"B2094757D16BA5FE459C","title":"上海海洋大学第五小区","lon":"121.89729785","lat":"30.879183955","category":"500","category_name":"未知分类","address":"上海浦东新区临港新城沪城环路999号"},{"poiid":"B2094757D06AA6F84699","title":"上海海事大学(临港校区)第一教学区","lon":"121.90536364","lat":"30.8744290326","category":"253","category_name":"校园生活","address":"上海浦东新区海港大道1550号"},{"poiid":"B2094757D16CAAF9409D","title":"苏武牧羊(沪城环路共享区店)","lon":"121.902345441","lat":"30.881098034","category":"73","category_name":"山东菜","address":"浦东新区沪城环路海事商业广场(近海事大学临港校区)"},{"poiid":"B2094757D06EABF5479C","title":"上海海洋大学第三教学楼","lon":"121.900566101","lat":"30.8905506134","category":"253","category_name":"校园生活","address":"上海市浦东新区沪城环路999号上海海洋大学内"},{"poiid":"B2094757D16BA2FD4499","title":"福寿司","lon":"121.902099258","lat":"30.8816497166","category":"95","category_name":"日本料理","address":"浦东新区临港新城海港大道1550号共享区2楼"},{"poiid":"B2094757D068A4FE4898","title":"上海海洋大学第十小区","lon":"121.896567","lat":"30.883692","category":"500","category_name":"未知分类","address":"上海沪城环路999号"},{"poiid":"B2094757D76DA1FD4999","title":"果麦de鲜饮创作 海洋大学店 Gomax","lon":"121.901952","lat":"30.886009","category":"67","category_name":"甜品店","address":"浦东新区沪城环路海事大学临港校区海事商业广场C-104号商铺"},{"poiid":"B2094757D168A2F5429C","title":"村夫烤鱼(沪城环路共享区店)","lon":"121.902493529","lat":"30.8813801804","category":"86","category_name":"火锅店","address":"上海市浦东新区沪城环路699弄"},{"poiid":"B2094757D06AA6FC479F","title":"上海海事大学(临港校区)体育馆","lon":"121.90532699","lat":"30.8740139785","category":"220","category_name":"运动场所","address":"浦东新区临港新城海港大道1550号上海海事大学院内"},{"poiid":"B2094757D06BA1FE459C","title":"上海海洋大学学生活动中心","lon":"121.89658355","lat":"30.883699417","category":"500","category_name":"未知分类","address":"上海沪城环路999号"},{"poiid":"B2094750D464A4FD409F","title":"中原郎烧烤","lon":"121.90206","lat":"30.8844","category":"269","category_name":"烧烤","address":"浦东新区临港新城沪城环路699号海事大学共享区A区131号"},{"poiid":"B2094757D16DABF54098","title":"上海电机学院(临港校区)图书馆","lon":"121.888338458","lat":"30.8774607127","category":"181","category_name":"图书馆","address":"上海浦东新区临港新城橄榄路1350号"},{"poiid":"B2094757D069AAFB449F","title":"上海海洋大学第二食堂","lon":"121.901872","lat":"30.888212","category":"253","category_name":"校园生活","address":"上海市浦东新区沪城环路999号"},{"poiid":"B2094757D06AA3FA4593","title":"上海海事大学(临港校区)北商铺广场","lon":"121.902618036","lat":"30.8755915464","category":"250","category_name":"公园户外","address":"上海市浦东新区海港大道1550号上海海事大学(临港校区) 北极一路北海五路"},{"poiid":"B2094655D36CA6FC409B","title":"古棕路沪城环路","lon":"121.90394","lat":"30.87893","category":"38","category_name":"公交车站","address":""},{"poiid":"B2094757D66CA3F8499E","title":"信息学院","lon":"121.90190887","lat":"30.884069442","category":"253","category_name":"校园生活","address":"上海海洋大学内"},{"poiid":"B2094757D16EA3FC4798","title":"吉祥馄饨(沪城环路共享区店)","lon":"121.900778","lat":"30.886684","category":"68","category_name":"快餐厅","address":"浦东新区临港新城海港大道1550号上海海事大学海事共享区"},{"poiid":"B2094757D168ABF84592","title":"上海海洋大学第一小区宿舍","lon":"121.896742006","lat":"30.883528992","category":"253","category_name":"校园生活","address":"上海市浦东新区沪城环路999号"},{"poiid":"B2094757D069A5F84893","title":"上海海洋大学公共实验楼","lon":"121.901217","lat":"30.879176","category":"253","category_name":"校园生活","address":"南汇区沪城环路999号上海海洋大学内"},{"poiid":"B2094757D569A1FE4699","title":"海洋大学临港校区一食堂","lon":"121.896572","lat":"30.883717","category":"257","category_name":"中餐厅","address":"临港新城沪城环路999号"},{"poiid":"B2094655D36CA7FF409F","title":"沪城环路橄榄路","lon":"121.89685","lat":"30.88924","category":"38","category_name":"公交车站","address":""},{"poiid":"B2094752D16EA1F4419D","title":"24K主题歌城","lon":"121.903213","lat":"30.887109","category":"248","category_name":"生活娱乐","address":"上海临港新城古棕路580号农工商卖场2楼"},{"poiid":"B2094757D164ABF4449E","title":"上海海洋大学行政楼","lon":"121.897438958","lat":"30.8838744717","category":"500","category_name":"未知分类","address":"上海临港新城"},{"poiid":"B2094757D165A3F5449E","title":"逸仙路长江路(张华浜)站(公交51,90,116,159,160,726,728,813)","lon":"121.900660958","lat":"30.8791913556","category":"38","category_name":"公交车站","address":"上海市宝山区逸仙路长江路"},{"poiid":"B2094757DA64A5FC429C","title":"上海海洋大学第六小区","lon":"121.892622","lat":"30.880606","category":"253","category_name":"校园生活","address":"上海海洋大学沪城环路999号"}]