[{"poiid":"B2094750D664A4FA419A","title":"耳光馄饨","lon":"121.481","lat":"31.216","category":"68","category_name":"快餐厅","address":"黄浦区肇周路209-213号(近合肥路)"},{"poiid":"B2094757D06FA3FF479D","title":"长脚汤面","lon":"121.480717","lat":"31.216623","category":"68","category_name":"快餐厅","address":"卢湾区肇周路166弄弄堂里(近济南路)"},{"poiid":"B2094757D66FA7FA4499","title":"阿婆粢饭糕","lon":"121.482015738","lat":"31.2140172676","category":"247","category_name":"餐饮美食","address":"上海市卢湾区肇周路近合肥路"},{"poiid":"B2094753D76FAAFA449C","title":"上海滩国泰旗舰店","lon":"121.466011","lat":"31.216125","category":"249","category_name":"购物服务","address":"淮海中路868号"},{"poiid":"B209475CD564A7F84292","title":"上海滩新天地店","lon":"121.47463","lat":"31.22164","category":"119","category_name":"商场","address":"\"太仓路181弄新天地北里15号\r\n\""},{"poiid":"B209475CD564A7F8439E","title":"上海滩中信泰富店","lon":"121.45602","lat":"31.22851","category":"119","category_name":"商场","address":"\"南京西路1168号中信泰富广场，店铺号221.\r\n\""},{"poiid":"B2094757D16CA7F84792","title":"肇周路","lon":"121.480401738","lat":"31.2139469532","category":"500","category_name":"未知分类","address":"上海市卢湾区"},{"poiid":"B2094757D06FA1FF4392","title":"麟笼坊特色小笼包(建国东路店)","lon":"121.48073","lat":"31.21366","category":"68","category_name":"快餐厅","address":"卢湾区建国东路10号(近肇周路口)"},{"poiid":"B2094757D06AA6FE469C","title":"新天地style","lon":"121.47919464","lat":"31.214149475","category":"500","category_name":"未知分类","address":"上海复兴中路马当路"},{"poiid":"B2094757D16CA5FC459F","title":"肇州路馄饨","lon":"121.48104573","lat":"31.215022976","category":"500","category_name":"未知分类","address":"上海肇州路合肥路"},{"poiid":"B2094750D365A5FE4698","title":"阿婆豆浆油条","lon":"121.482063","lat":"31.214328","category":"247","category_name":"餐饮美食","address":"卢湾区肇周路309号(建国新路口)"},{"poiid":"B2094757D06AA2FB459F","title":"十号线老西门站","lon":"121.481291738","lat":"31.2153389828","category":"500","category_name":"未知分类","address":"上海老西门"},{"poiid":"B2094757D068A1FD409A","title":"盛兴点心店","lon":"121.479443054","lat":"31.212018793","category":"87","category_name":"特色／地方风味餐厅","address":"卢湾区顺昌路528号(近永年路)"},{"poiid":"B2094757D068A1F5429E","title":"顺昌路","lon":"121.478856","lat":"31.214754","category":"500","category_name":"未知分类","address":"上海卢湾区顺昌路"},{"poiid":"B2094757D06FAAF4419B","title":"沪南体育活动中心","lon":"121.48268","lat":"31.21256","category":"220","category_name":"运动场所","address":"黄浦区方斜路515号(近大吉路)"},{"poiid":"B2094757D069A7FC409A","title":"一品居热气羊肉馆(顺昌店)","lon":"121.47938","lat":"31.21213","category":"86","category_name":"火锅店","address":"卢湾区顺昌路512号(近永年路)"},{"poiid":"B2094753D76AA7F8459F","title":"韵色","lon":"121.482657","lat":"31.213799","category":"76","category_name":"上海菜","address":"上海市黄浦区方斜路446号(近建国新路)"},{"poiid":"B2094757D06AA4F5499E","title":"central studios奂镜","lon":"121.477864","lat":"31.213331","category":"500","category_name":"未知分类","address":"上海市黄陂南路751号1号楼1楼"},{"poiid":"B2094757D66BA4FC439B","title":"集宾酒楼","lon":"121.48026588107","lat":"31.213340264741","category":"76","category_name":"上海菜","address":"卢湾区建国东路23号(近顺昌路)"},{"poiid":"B2094655D36CA0F9499F","title":"建国东路肇周路","lon":"121.48026","lat":"31.21362","category":"38","category_name":"公交车站","address":""},{"poiid":"B2094654DB6BA4FF489B","title":"森绿温馨小吃(顺昌路)","lon":"121.47945","lat":"31.21288","category":"76","category_name":"上海菜","address":"卢湾区顺昌路503号(近建国东路)"},{"poiid":"B2094654DA6EA7FA479B","title":"建国电影院","lon":"121.48078","lat":"31.21367","category":"178","category_name":"电影院","address":"建国东路11"},{"poiid":"B2094654DA6EA7F5489C","title":"复旦大学上海市红房子妇产科医院","lon":"121.48274","lat":"31.21366","category":"162","category_name":"医院","address":"方斜路419"},{"poiid":"B2094757D66BA5F4489E","title":"亦熠餐厅","lon":"121.481064054","lat":"31.213391793","category":"76","category_name":"上海菜","address":"黄浦区肇周路340号(近建国中路)"},{"poiid":"B2094655D36CA0F94992","title":"建国东路","lon":"121.48","lat":"31.21353","category":"38","category_name":"公交车站","address":"上海建国东路39弄"},{"poiid":"B2094654DB69A5F4409A","title":"重庆鸡公煲 顺昌路店","lon":"121.479501054","lat":"31.212284793","category":"71","category_name":"四川菜","address":"卢湾区顺昌路530号(近永年路)"},{"poiid":"B2094750D768A0F5439D","title":"老刘烧烤","lon":"121.482","lat":"31.2135","category":"68","category_name":"快餐厅","address":"黄浦区大吉路华联超市门口(方斜路口)"},{"poiid":"B209475DD66DA1FC429F","title":"吉友粥底火锅","lon":"121.480743","lat":"31.213748","category":"247","category_name":"餐饮美食","address":"上海市 上海市建国东路23号(近肇周路)"},{"poiid":"B2094654DA6EA7FA4598","title":"上海市卢湾区顺昌医院(建国东路)","lon":"121.47956","lat":"31.21347","category":"162","category_name":"医院","address":"建国东路80号"},{"poiid":"B2094654DB6BA4FF489A","title":"可的(常盛酒楼西)","lon":"121.48008","lat":"31.21346","category":"117","category_name":"便民商店/便利店","address":"建国东路43-47"},{"poiid":"B2094655D268A2FD499F","title":"梨园坊(北门)","lon":"121.4804","lat":"31.21356","category":"47","category_name":"住宅区","address":"建国东路31弄1-12号"},{"poiid":"B2094654DB6BA4FF4898","title":"老北京涮锅(顺昌路)","lon":"121.47952","lat":"31.2125","category":"86","category_name":"火锅店","address":"卢湾区顺昌路531号(近永年路)"},{"poiid":"B2094750D768A0F4439D","title":"川香阁鱼庄","lon":"121.481","lat":"31.2131","category":"71","category_name":"四川菜","address":"卢湾区肇周路348号(建国东路建国新路)"},{"poiid":"B2094654DB6BA4FF479E","title":"大康里小区(建国东路)","lon":"121.4804","lat":"31.21375","category":"47","category_name":"住宅区","address":"建国东路36弄1-101号"},{"poiid":"B2094655D36CA1FF419B","title":"顺昌路建国东路","lon":"121.47906","lat":"31.21428","category":"38","category_name":"公交车站","address":""},{"poiid":"B2094654DA6EA7FA4593","title":"龙妹保健品连锁店","lon":"121.47991","lat":"31.21359","category":"162","category_name":"医院","address":"建国东路56"},{"poiid":"B2094655D265A6FD459C","title":"东成饮食店","lon":"121.47938","lat":"31.21316","category":"68","category_name":"快餐厅","address":"卢湾区顺昌路485号"},{"poiid":"B2094757D66AA4F44198","title":"鼎乐酒家","lon":"121.48018955369","lat":"31.212505124381","category":"76","category_name":"上海菜","address":"卢湾区永年路54号(永年路肇周路)"},{"poiid":"B2094654DA6DA5FD4599","title":"新电大厦","lon":"121.479","lat":"31.2154","category":"46","category_name":"楼宇","address":"沈河区文化东路8号"},{"poiid":"B2094654DA6EA7FB439D","title":"上海市李惠利中学","lon":"121.48121","lat":"31.21181","category":"55","category_name":"中学","address":"卢湾区肇周路420号(陆家浜路徐家汇路)"},{"poiid":"B2094655D26CA4F94193","title":"松龄里","lon":"121.47985","lat":"31.21372","category":"47","category_name":"住宅区","address":"建国东路58弄1-2号"},{"poiid":"B2094654DB6BA4FF4792","title":"思家公寓","lon":"121.48029","lat":"31.213007","category":"47","category_name":"住宅区","address":"建国东路37弄1-2号"},{"poiid":"B2094654DA6EA7FA499D","title":"长顺来","lon":"121.4795","lat":"31.2126","category":"76","category_name":"上海菜","address":"卢湾区顺昌路517号(近建国东路)"},{"poiid":"B2094654DB6AA6FE469D","title":"中国电信(车墩营业厅)","lon":"121.48104","lat":"31.2138","category":"151","category_name":"电讯营业厅","address":"松江区金三角集资房114房(近马路)"},{"poiid":"B2094757D16BA7F94993","title":"港麗餐廳長寧龍之夢店","lon":"121.480421738","lat":"31.2144219633","category":"500","category_name":"未知分类","address":"上海市長寧路1018號"},{"poiid":"B2094654DB64A4FC4593","title":"南鼎建国大厦(后门)","lon":"121.4815","lat":"31.21387","category":"47","category_name":"住宅区","address":"上海市黄浦区唐家湾路158号"},{"poiid":"B2094654DA6EA7FA459B","title":"良友金伴(建国东路)","lon":"121.47935","lat":"31.2134","category":"117","category_name":"便民商店/便利店","address":"建国东路92"},{"poiid":"B2094654DA6EA7FA4493","title":"东风腌腊商店","lon":"121.47934","lat":"31.21342","category":"247","category_name":"餐饮美食","address":"卢湾区顺昌路469号(近建国东路)"},{"poiid":"B2094757D66DAAFF499F","title":"冷馄饨","lon":"121.48063773","lat":"31.215786992","category":"247","category_name":"餐饮美食","address":"上海肇周路"},{"poiid":"B2094654DA6EA7F44192","title":"品客小站","lon":"121.4816","lat":"31.21273","category":"68","category_name":"快餐厅","address":"黄浦区肇周路395号(近徐家汇路)"},{"poiid":"B2094750D664A4FA419A","title":"耳光馄饨","lon":"121.481","lat":"31.216","category":"68","category_name":"快餐厅","address":"黄浦区肇周路209-213号(近合肥路)"},{"poiid":"B2094757D06FA3FF479D","title":"长脚汤面","lon":"121.480717","lat":"31.216623","category":"68","category_name":"快餐厅","address":"卢湾区肇周路166弄弄堂里(近济南路)"},{"poiid":"B2094757D66FA7FA4499","title":"阿婆粢饭糕","lon":"121.482015738","lat":"31.2140172676","category":"247","category_name":"餐饮美食","address":"上海市卢湾区肇周路近合肥路"},{"poiid":"B2094753D76FAAFA449C","title":"上海滩国泰旗舰店","lon":"121.466011","lat":"31.216125","category":"249","category_name":"购物服务","address":"淮海中路868号"},{"poiid":"B209475CD564A7F84292","title":"上海滩新天地店","lon":"121.47463","lat":"31.22164","category":"119","category_name":"商场","address":"\"太仓路181弄新天地北里15号\r\n\""},{"poiid":"B209475CD564A7F8439E","title":"上海滩中信泰富店","lon":"121.45602","lat":"31.22851","category":"119","category_name":"商场","address":"\"南京西路1168号中信泰富广场，店铺号221.\r\n\""},{"poiid":"B2094757D16CA7F84792","title":"肇周路","lon":"121.480401738","lat":"31.2139469532","category":"500","category_name":"未知分类","address":"上海市卢湾区"},{"poiid":"B2094757D06FA1FF4392","title":"麟笼坊特色小笼包(建国东路店)","lon":"121.48073","lat":"31.21366","category":"68","category_name":"快餐厅","address":"卢湾区建国东路10号(近肇周路口)"},{"poiid":"B2094757D06AA6FE469C","title":"新天地style","lon":"121.47919464","lat":"31.214149475","category":"500","category_name":"未知分类","address":"上海复兴中路马当路"},{"poiid":"B2094757D16CA5FC459F","title":"肇州路馄饨","lon":"121.48104573","lat":"31.215022976","category":"500","category_name":"未知分类","address":"上海肇州路合肥路"},{"poiid":"B2094750D365A5FE4698","title":"阿婆豆浆油条","lon":"121.482063","lat":"31.214328","category":"247","category_name":"餐饮美食","address":"卢湾区肇周路309号(建国新路口)"},{"poiid":"B2094757D06AA2FB459F","title":"十号线老西门站","lon":"121.481291738","lat":"31.2153389828","category":"500","category_name":"未知分类","address":"上海老西门"},{"poiid":"B2094757D068A1FD409A","title":"盛兴点心店","lon":"121.479443054","lat":"31.212018793","category":"87","category_name":"特色／地方风味餐厅","address":"卢湾区顺昌路528号(近永年路)"},{"poiid":"B2094757D068A1F5429E","title":"顺昌路","lon":"121.478856","lat":"31.214754","category":"500","category_name":"未知分类","address":"上海卢湾区顺昌路"},{"poiid":"B2094757D06FAAF4419B","title":"沪南体育活动中心","lon":"121.48268","lat":"31.21256","category":"220","category_name":"运动场所","address":"黄浦区方斜路515号(近大吉路)"},{"poiid":"B2094757D069A7FC409A","title":"一品居热气羊肉馆(顺昌店)","lon":"121.47938","lat":"31.21213","category":"86","category_name":"火锅店","address":"卢湾区顺昌路512号(近永年路)"},{"poiid":"B2094753D76AA7F8459F","title":"韵色","lon":"121.482657","lat":"31.213799","category":"76","category_name":"上海菜","address":"上海市黄浦区方斜路446号(近建国新路)"},{"poiid":"B2094757D06AA4F5499E","title":"central studios奂镜","lon":"121.477864","lat":"31.213331","category":"500","category_name":"未知分类","address":"上海市黄陂南路751号1号楼1楼"},{"poiid":"B2094757D66BA4FC439B","title":"集宾酒楼","lon":"121.48026588107","lat":"31.213340264741","category":"76","category_name":"上海菜","address":"卢湾区建国东路23号(近顺昌路)"},{"poiid":"B2094655D36CA0F9499F","title":"建国东路肇周路","lon":"121.48026","lat":"31.21362","category":"38","category_name":"公交车站","address":""},{"poiid":"B2094654DB6BA4FF489B","title":"森绿温馨小吃(顺昌路)","lon":"121.47945","lat":"31.21288","category":"76","category_name":"上海菜","address":"卢湾区顺昌路503号(近建国东路)"},{"poiid":"B2094654DA6EA7FA479B","title":"建国电影院","lon":"121.48078","lat":"31.21367","category":"178","category_name":"电影院","address":"建国东路11"},{"poiid":"B2094654DA6EA7F5489C","title":"复旦大学上海市红房子妇产科医院","lon":"121.48274","lat":"31.21366","category":"162","category_name":"医院","address":"方斜路419"},{"poiid":"B2094757D66BA5F4489E","title":"亦熠餐厅","lon":"121.481064054","lat":"31.213391793","category":"76","category_name":"上海菜","address":"黄浦区肇周路340号(近建国中路)"},{"poiid":"B2094655D36CA0F94992","title":"建国东路","lon":"121.48","lat":"31.21353","category":"38","category_name":"公交车站","address":"上海建国东路39弄"},{"poiid":"B2094654DB69A5F4409A","title":"重庆鸡公煲 顺昌路店","lon":"121.479501054","lat":"31.212284793","category":"71","category_name":"四川菜","address":"卢湾区顺昌路530号(近永年路)"},{"poiid":"B2094750D768A0F5439D","title":"老刘烧烤","lon":"121.482","lat":"31.2135","category":"68","category_name":"快餐厅","address":"黄浦区大吉路华联超市门口(方斜路口)"},{"poiid":"B209475DD66DA1FC429F","title":"吉友粥底火锅","lon":"121.480743","lat":"31.213748","category":"247","category_name":"餐饮美食","address":"上海市 上海市建国东路23号(近肇周路)"},{"poiid":"B2094654DA6EA7FA4598","title":"上海市卢湾区顺昌医院(建国东路)","lon":"121.47956","lat":"31.21347","category":"162","category_name":"医院","address":"建国东路80号"},{"poiid":"B2094654DB6BA4FF489A","title":"可的(常盛酒楼西)","lon":"121.48008","lat":"31.21346","category":"117","category_name":"便民商店/便利店","address":"建国东路43-47"},{"poiid":"B2094655D268A2FD499F","title":"梨园坊(北门)","lon":"121.4804","lat":"31.21356","category":"47","category_name":"住宅区","address":"建国东路31弄1-12号"},{"poiid":"B2094654DB6BA4FF4898","title":"老北京涮锅(顺昌路)","lon":"121.47952","lat":"31.2125","category":"86","category_name":"火锅店","address":"卢湾区顺昌路531号(近永年路)"},{"poiid":"B2094750D768A0F4439D","title":"川香阁鱼庄","lon":"121.481","lat":"31.2131","category":"71","category_name":"四川菜","address":"卢湾区肇周路348号(建国东路建国新路)"},{"poiid":"B2094654DB6BA4FF479E","title":"大康里小区(建国东路)","lon":"121.4804","lat":"31.21375","category":"47","category_name":"住宅区","address":"建国东路36弄1-101号"},{"poiid":"B2094655D36CA1FF419B","title":"顺昌路建国东路","lon":"121.47906","lat":"31.21428","category":"38","category_name":"公交车站","address":""},{"poiid":"B2094654DA6EA7FA4593","title":"龙妹保健品连锁店","lon":"121.47991","lat":"31.21359","category":"162","category_name":"医院","address":"建国东路56"},{"poiid":"B2094655D265A6FD459C","title":"东成饮食店","lon":"121.47938","lat":"31.21316","category":"68","category_name":"快餐厅","address":"卢湾区顺昌路485号"},{"poiid":"B2094757D66AA4F44198","title":"鼎乐酒家","lon":"121.48018955369","lat":"31.212505124381","category":"76","category_name":"上海菜","address":"卢湾区永年路54号(永年路肇周路)"},{"poiid":"B2094654DA6DA5FD4599","title":"新电大厦","lon":"121.479","lat":"31.2154","category":"46","category_name":"楼宇","address":"沈河区文化东路8号"},{"poiid":"B2094654DA6EA7FB439D","title":"上海市李惠利中学","lon":"121.48121","lat":"31.21181","category":"55","category_name":"中学","address":"卢湾区肇周路420号(陆家浜路徐家汇路)"},{"poiid":"B2094655D26CA4F94193","title":"松龄里","lon":"121.47985","lat":"31.21372","category":"47","category_name":"住宅区","address":"建国东路58弄1-2号"},{"poiid":"B2094654DB6BA4FF4792","title":"思家公寓","lon":"121.48029","lat":"31.213007","category":"47","category_name":"住宅区","address":"建国东路37弄1-2号"},{"poiid":"B2094654DA6EA7FA499D","title":"长顺来","lon":"121.4795","lat":"31.2126","category":"76","category_name":"上海菜","address":"卢湾区顺昌路517号(近建国东路)"},{"poiid":"B2094654DB6AA6FE469D","title":"中国电信(车墩营业厅)","lon":"121.48104","lat":"31.2138","category":"151","category_name":"电讯营业厅","address":"松江区金三角集资房114房(近马路)"},{"poiid":"B2094757D16BA7F94993","title":"港麗餐廳長寧龍之夢店","lon":"121.480421738","lat":"31.2144219633","category":"500","category_name":"未知分类","address":"上海市長寧路1018號"},{"poiid":"B2094654DB64A4FC4593","title":"南鼎建国大厦(后门)","lon":"121.4815","lat":"31.21387","category":"47","category_name":"住宅区","address":"上海市黄浦区唐家湾路158号"},{"poiid":"B2094654DA6EA7FA459B","title":"良友金伴(建国东路)","lon":"121.47935","lat":"31.2134","category":"117","category_name":"便民商店/便利店","address":"建国东路92"},{"poiid":"B2094654DA6EA7FA4493","title":"东风腌腊商店","lon":"121.47934","lat":"31.21342","category":"247","category_name":"餐饮美食","address":"卢湾区顺昌路469号(近建国东路)"},{"poiid":"B2094757D66DAAFF499F","title":"冷馄饨","lon":"121.48063773","lat":"31.215786992","category":"247","category_name":"餐饮美食","address":"上海肇周路"},{"poiid":"B2094654DA6EA7F44192","title":"品客小站","lon":"121.4816","lat":"31.21273","category":"68","category_name":"快餐厅","address":"黄浦区肇周路395号(近徐家汇路)"},{"poiid":"B2094750D664A4FA419A","title":"耳光馄饨","lon":"121.481","lat":"31.216","category":"68","category_name":"快餐厅","address":"黄浦区肇周路209-213号(近合肥路)"},{"poiid":"B2094757D06FA3FF479D","title":"长脚汤面","lon":"121.480717","lat":"31.216623","category":"68","category_name":"快餐厅","address":"卢湾区肇周路166弄弄堂里(近济南路)"},{"poiid":"B2094757D66FA7FA4499","title":"阿婆粢饭糕","lon":"121.482015738","lat":"31.2140172676","category":"247","category_name":"餐饮美食","address":"上海市卢湾区肇周路近合肥路"},{"poiid":"B2094753D76FAAFA449C","title":"上海滩国泰旗舰店","lon":"121.466011","lat":"31.216125","category":"249","category_name":"购物服务","address":"淮海中路868号"},{"poiid":"B209475CD564A7F84292","title":"上海滩新天地店","lon":"121.47463","lat":"31.22164","category":"119","category_name":"商场","address":"\"太仓路181弄新天地北里15号\r\n\""},{"poiid":"B209475CD564A7F8439E","title":"上海滩中信泰富店","lon":"121.45602","lat":"31.22851","category":"119","category_name":"商场","address":"\"南京西路1168号中信泰富广场，店铺号221.\r\n\""},{"poiid":"B2094757D16CA7F84792","title":"肇周路","lon":"121.480401738","lat":"31.2139469532","category":"500","category_name":"未知分类","address":"上海市卢湾区"},{"poiid":"B2094757D06FA1FF4392","title":"麟笼坊特色小笼包(建国东路店)","lon":"121.48073","lat":"31.21366","category":"68","category_name":"快餐厅","address":"卢湾区建国东路10号(近肇周路口)"},{"poiid":"B2094757D06AA6FE469C","title":"新天地style","lon":"121.47919464","lat":"31.214149475","category":"500","category_name":"未知分类","address":"上海复兴中路马当路"},{"poiid":"B2094757D16CA5FC459F","title":"肇州路馄饨","lon":"121.48104573","lat":"31.215022976","category":"500","category_name":"未知分类","address":"上海肇州路合肥路"},{"poiid":"B2094750D365A5FE4698","title":"阿婆豆浆油条","lon":"121.482063","lat":"31.214328","category":"247","category_name":"餐饮美食","address":"卢湾区肇周路309号(建国新路口)"},{"poiid":"B2094757D06AA2FB459F","title":"十号线老西门站","lon":"121.481291738","lat":"31.2153389828","category":"500","category_name":"未知分类","address":"上海老西门"},{"poiid":"B2094757D068A1FD409A","title":"盛兴点心店","lon":"121.479443054","lat":"31.212018793","category":"87","category_name":"特色／地方风味餐厅","address":"卢湾区顺昌路528号(近永年路)"},{"poiid":"B2094757D068A1F5429E","title":"顺昌路","lon":"121.478856","lat":"31.214754","category":"500","category_name":"未知分类","address":"上海卢湾区顺昌路"},{"poiid":"B2094757D06FAAF4419B","title":"沪南体育活动中心","lon":"121.48268","lat":"31.21256","category":"220","category_name":"运动场所","address":"黄浦区方斜路515号(近大吉路)"},{"poiid":"B2094757D069A7FC409A","title":"一品居热气羊肉馆(顺昌店)","lon":"121.47938","lat":"31.21213","category":"86","category_name":"火锅店","address":"卢湾区顺昌路512号(近永年路)"},{"poiid":"B2094753D76AA7F8459F","title":"韵色","lon":"121.482657","lat":"31.213799","category":"76","category_name":"上海菜","address":"上海市黄浦区方斜路446号(近建国新路)"},{"poiid":"B2094757D06AA4F5499E","title":"central studios奂镜","lon":"121.477864","lat":"31.213331","category":"500","category_name":"未知分类","address":"上海市黄陂南路751号1号楼1楼"},{"poiid":"B2094757D66BA4FC439B","title":"集宾酒楼","lon":"121.48026588107","lat":"31.213340264741","category":"76","category_name":"上海菜","address":"卢湾区建国东路23号(近顺昌路)"},{"poiid":"B2094655D36CA0F9499F","title":"建国东路肇周路","lon":"121.48026","lat":"31.21362","category":"38","category_name":"公交车站","address":""},{"poiid":"B2094654DB6BA4FF489B","title":"森绿温馨小吃(顺昌路)","lon":"121.47945","lat":"31.21288","category":"76","category_name":"上海菜","address":"卢湾区顺昌路503号(近建国东路)"},{"poiid":"B2094654DA6EA7FA479B","title":"建国电影院","lon":"121.48078","lat":"31.21367","category":"178","category_name":"电影院","address":"建国东路11"},{"poiid":"B2094654DA6EA7F5489C","title":"复旦大学上海市红房子妇产科医院","lon":"121.48274","lat":"31.21366","category":"162","category_name":"医院","address":"方斜路419"},{"poiid":"B2094757D66BA5F4489E","title":"亦熠餐厅","lon":"121.481064054","lat":"31.213391793","category":"76","category_name":"上海菜","address":"黄浦区肇周路340号(近建国中路)"},{"poiid":"B2094655D36CA0F94992","title":"建国东路","lon":"121.48","lat":"31.21353","category":"38","category_name":"公交车站","address":"上海建国东路39弄"},{"poiid":"B2094654DB69A5F4409A","title":"重庆鸡公煲 顺昌路店","lon":"121.479501054","lat":"31.212284793","category":"71","category_name":"四川菜","address":"卢湾区顺昌路530号(近永年路)"},{"poiid":"B2094750D768A0F5439D","title":"老刘烧烤","lon":"121.482","lat":"31.2135","category":"68","category_name":"快餐厅","address":"黄浦区大吉路华联超市门口(方斜路口)"},{"poiid":"B209475DD66DA1FC429F","title":"吉友粥底火锅","lon":"121.480743","lat":"31.213748","category":"247","category_name":"餐饮美食","address":"上海市 上海市建国东路23号(近肇周路)"},{"poiid":"B2094654DA6EA7FA4598","title":"上海市卢湾区顺昌医院(建国东路)","lon":"121.47956","lat":"31.21347","category":"162","category_name":"医院","address":"建国东路80号"},{"poiid":"B2094654DB6BA4FF489A","title":"可的(常盛酒楼西)","lon":"121.48008","lat":"31.21346","category":"117","category_name":"便民商店/便利店","address":"建国东路43-47"},{"poiid":"B2094655D268A2FD499F","title":"梨园坊(北门)","lon":"121.4804","lat":"31.21356","category":"47","category_name":"住宅区","address":"建国东路31弄1-12号"},{"poiid":"B2094654DB6BA4FF4898","title":"老北京涮锅(顺昌路)","lon":"121.47952","lat":"31.2125","category":"86","category_name":"火锅店","address":"卢湾区顺昌路531号(近永年路)"},{"poiid":"B2094750D768A0F4439D","title":"川香阁鱼庄","lon":"121.481","lat":"31.2131","category":"71","category_name":"四川菜","address":"卢湾区肇周路348号(建国东路建国新路)"},{"poiid":"B2094654DB6BA4FF479E","title":"大康里小区(建国东路)","lon":"121.4804","lat":"31.21375","category":"47","category_name":"住宅区","address":"建国东路36弄1-101号"},{"poiid":"B2094655D36CA1FF419B","title":"顺昌路建国东路","lon":"121.47906","lat":"31.21428","category":"38","category_name":"公交车站","address":""},{"poiid":"B2094654DA6EA7FA4593","title":"龙妹保健品连锁店","lon":"121.47991","lat":"31.21359","category":"162","category_name":"医院","address":"建国东路56"},{"poiid":"B2094655D265A6FD459C","title":"东成饮食店","lon":"121.47938","lat":"31.21316","category":"68","category_name":"快餐厅","address":"卢湾区顺昌路485号"},{"poiid":"B2094757D66AA4F44198","title":"鼎乐酒家","lon":"121.48018955369","lat":"31.212505124381","category":"76","category_name":"上海菜","address":"卢湾区永年路54号(永年路肇周路)"},{"poiid":"B2094654DA6DA5FD4599","title":"新电大厦","lon":"121.479","lat":"31.2154","category":"46","category_name":"楼宇","address":"沈河区文化东路8号"},{"poiid":"B2094654DA6EA7FB439D","title":"上海市李惠利中学","lon":"121.48121","lat":"31.21181","category":"55","category_name":"中学","address":"卢湾区肇周路420号(陆家浜路徐家汇路)"},{"poiid":"B2094655D26CA4F94193","title":"松龄里","lon":"121.47985","lat":"31.21372","category":"47","category_name":"住宅区","address":"建国东路58弄1-2号"},{"poiid":"B2094654DB6BA4FF4792","title":"思家公寓","lon":"121.48029","lat":"31.213007","category":"47","category_name":"住宅区","address":"建国东路37弄1-2号"},{"poiid":"B2094654DA6EA7FA499D","title":"长顺来","lon":"121.4795","lat":"31.2126","category":"76","category_name":"上海菜","address":"卢湾区顺昌路517号(近建国东路)"},{"poiid":"B2094654DB6AA6FE469D","title":"中国电信(车墩营业厅)","lon":"121.48104","lat":"31.2138","category":"151","category_name":"电讯营业厅","address":"松江区金三角集资房114房(近马路)"},{"poiid":"B2094757D16BA7F94993","title":"港麗餐廳長寧龍之夢店","lon":"121.480421738","lat":"31.2144219633","category":"500","category_name":"未知分类","address":"上海市長寧路1018號"},{"poiid":"B2094654DB64A4FC4593","title":"南鼎建国大厦(后门)","lon":"121.4815","lat":"31.21387","category":"47","category_name":"住宅区","address":"上海市黄浦区唐家湾路158号"},{"poiid":"B2094654DA6EA7FA459B","title":"良友金伴(建国东路)","lon":"121.47935","lat":"31.2134","category":"117","category_name":"便民商店/便利店","address":"建国东路92"},{"poiid":"B2094654DA6EA7FA4493","title":"东风腌腊商店","lon":"121.47934","lat":"31.21342","category":"247","category_name":"餐饮美食","address":"卢湾区顺昌路469号(近建国东路)"},{"poiid":"B2094757D66DAAFF499F","title":"冷馄饨","lon":"121.48063773","lat":"31.215786992","category":"247","category_name":"餐饮美食","address":"上海肇周路"},{"poiid":"B2094654DA6EA7F44192","title":"品客小站","lon":"121.4816","lat":"31.21273","category":"68","category_name":"快餐厅","address":"黄浦区肇周路395号(近徐家汇路)"},{"poiid":"B2094750D664A4FA419A","title":"耳光馄饨","lon":"121.481","lat":"31.216","category":"68","category_name":"快餐厅","address":"黄浦区肇周路209-213号(近合肥路)"},{"poiid":"B2094757D06FA3FF479D","title":"长脚汤面","lon":"121.480717","lat":"31.216623","category":"68","category_name":"快餐厅","address":"卢湾区肇周路166弄弄堂里(近济南路)"},{"poiid":"B2094757D66FA7FA4499","title":"阿婆粢饭糕","lon":"121.482015738","lat":"31.2140172676","category":"247","category_name":"餐饮美食","address":"上海市卢湾区肇周路近合肥路"},{"poiid":"B2094753D76FAAFA449C","title":"上海滩国泰旗舰店","lon":"121.466011","lat":"31.216125","category":"249","category_name":"购物服务","address":"淮海中路868号"},{"poiid":"B209475CD564A7F84292","title":"上海滩新天地店","lon":"121.47463","lat":"31.22164","category":"119","category_name":"商场","address":"\"太仓路181弄新天地北里15号\r\n\""},{"poiid":"B209475CD564A7F8439E","title":"上海滩中信泰富店","lon":"121.45602","lat":"31.22851","category":"119","category_name":"商场","address":"\"南京西路1168号中信泰富广场，店铺号221.\r\n\""},{"poiid":"B2094757D16CA7F84792","title":"肇周路","lon":"121.480401738","lat":"31.2139469532","category":"500","category_name":"未知分类","address":"上海市卢湾区"},{"poiid":"B2094757D06FA1FF4392","title":"麟笼坊特色小笼包(建国东路店)","lon":"121.48073","lat":"31.21366","category":"68","category_name":"快餐厅","address":"卢湾区建国东路10号(近肇周路口)"},{"poiid":"B2094757D06AA6FE469C","title":"新天地style","lon":"121.47919464","lat":"31.214149475","category":"500","category_name":"未知分类","address":"上海复兴中路马当路"},{"poiid":"B2094757D16CA5FC459F","title":"肇州路馄饨","lon":"121.48104573","lat":"31.215022976","category":"500","category_name":"未知分类","address":"上海肇州路合肥路"},{"poiid":"B2094750D365A5FE4698","title":"阿婆豆浆油条","lon":"121.482063","lat":"31.214328","category":"247","category_name":"餐饮美食","address":"卢湾区肇周路309号(建国新路口)"},{"poiid":"B2094757D06AA2FB459F","title":"十号线老西门站","lon":"121.481291738","lat":"31.2153389828","category":"500","category_name":"未知分类","address":"上海老西门"},{"poiid":"B2094757D068A1FD409A","title":"盛兴点心店","lon":"121.479443054","lat":"31.212018793","category":"87","category_name":"特色／地方风味餐厅","address":"卢湾区顺昌路528号(近永年路)"},{"poiid":"B2094757D068A1F5429E","title":"顺昌路","lon":"121.478856","lat":"31.214754","category":"500","category_name":"未知分类","address":"上海卢湾区顺昌路"},{"poiid":"B2094757D06FAAF4419B","title":"沪南体育活动中心","lon":"121.48268","lat":"31.21256","category":"220","category_name":"运动场所","address":"黄浦区方斜路515号(近大吉路)"},{"poiid":"B2094757D069A7FC409A","title":"一品居热气羊肉馆(顺昌店)","lon":"121.47938","lat":"31.21213","category":"86","category_name":"火锅店","address":"卢湾区顺昌路512号(近永年路)"},{"poiid":"B2094753D76AA7F8459F","title":"韵色","lon":"121.482657","lat":"31.213799","category":"76","category_name":"上海菜","address":"上海市黄浦区方斜路446号(近建国新路)"},{"poiid":"B2094757D06AA4F5499E","title":"central studios奂镜","lon":"121.477864","lat":"31.213331","category":"500","category_name":"未知分类","address":"上海市黄陂南路751号1号楼1楼"},{"poiid":"B2094757D66BA4FC439B","title":"集宾酒楼","lon":"121.48026588107","lat":"31.213340264741","category":"76","category_name":"上海菜","address":"卢湾区建国东路23号(近顺昌路)"},{"poiid":"B2094655D36CA0F9499F","title":"建国东路肇周路","lon":"121.48026","lat":"31.21362","category":"38","category_name":"公交车站","address":""},{"poiid":"B2094654DB6BA4FF489B","title":"森绿温馨小吃(顺昌路)","lon":"121.47945","lat":"31.21288","category":"76","category_name":"上海菜","address":"卢湾区顺昌路503号(近建国东路)"},{"poiid":"B2094654DA6EA7FA479B","title":"建国电影院","lon":"121.48078","lat":"31.21367","category":"178","category_name":"电影院","address":"建国东路11"},{"poiid":"B2094654DA6EA7F5489C","title":"复旦大学上海市红房子妇产科医院","lon":"121.48274","lat":"31.21366","category":"162","category_name":"医院","address":"方斜路419"},{"poiid":"B2094757D66BA5F4489E","title":"亦熠餐厅","lon":"121.481064054","lat":"31.213391793","category":"76","category_name":"上海菜","address":"黄浦区肇周路340号(近建国中路)"},{"poiid":"B2094655D36CA0F94992","title":"建国东路","lon":"121.48","lat":"31.21353","category":"38","category_name":"公交车站","address":"上海建国东路39弄"},{"poiid":"B2094654DB69A5F4409A","title":"重庆鸡公煲 顺昌路店","lon":"121.479501054","lat":"31.212284793","category":"71","category_name":"四川菜","address":"卢湾区顺昌路530号(近永年路)"},{"poiid":"B2094750D768A0F5439D","title":"老刘烧烤","lon":"121.482","lat":"31.2135","category":"68","category_name":"快餐厅","address":"黄浦区大吉路华联超市门口(方斜路口)"},{"poiid":"B209475DD66DA1FC429F","title":"吉友粥底火锅","lon":"121.480743","lat":"31.213748","category":"247","category_name":"餐饮美食","address":"上海市 上海市建国东路23号(近肇周路)"},{"poiid":"B2094654DA6EA7FA4598","title":"上海市卢湾区顺昌医院(建国东路)","lon":"121.47956","lat":"31.21347","category":"162","category_name":"医院","address":"建国东路80号"},{"poiid":"B2094654DB6BA4FF489A","title":"可的(常盛酒楼西)","lon":"121.48008","lat":"31.21346","category":"117","category_name":"便民商店/便利店","address":"建国东路43-47"},{"poiid":"B2094655D268A2FD499F","title":"梨园坊(北门)","lon":"121.4804","lat":"31.21356","category":"47","category_name":"住宅区","address":"建国东路31弄1-12号"},{"poiid":"B2094654DB6BA4FF4898","title":"老北京涮锅(顺昌路)","lon":"121.47952","lat":"31.2125","category":"86","category_name":"火锅店","address":"卢湾区顺昌路531号(近永年路)"},{"poiid":"B2094750D768A0F4439D","title":"川香阁鱼庄","lon":"121.481","lat":"31.2131","category":"71","category_name":"四川菜","address":"卢湾区肇周路348号(建国东路建国新路)"},{"poiid":"B2094654DB6BA4FF479E","title":"大康里小区(建国东路)","lon":"121.4804","lat":"31.21375","category":"47","category_name":"住宅区","address":"建国东路36弄1-101号"},{"poiid":"B2094655D36CA1FF419B","title":"顺昌路建国东路","lon":"121.47906","lat":"31.21428","category":"38","category_name":"公交车站","address":""},{"poiid":"B2094654DA6EA7FA4593","title":"龙妹保健品连锁店","lon":"121.47991","lat":"31.21359","category":"162","category_name":"医院","address":"建国东路56"},{"poiid":"B2094655D265A6FD459C","title":"东成饮食店","lon":"121.47938","lat":"31.21316","category":"68","category_name":"快餐厅","address":"卢湾区顺昌路485号"},{"poiid":"B2094757D66AA4F44198","title":"鼎乐酒家","lon":"121.48018955369","lat":"31.212505124381","category":"76","category_name":"上海菜","address":"卢湾区永年路54号(永年路肇周路)"},{"poiid":"B2094654DA6DA5FD4599","title":"新电大厦","lon":"121.479","lat":"31.2154","category":"46","category_name":"楼宇","address":"沈河区文化东路8号"},{"poiid":"B2094654DA6EA7FB439D","title":"上海市李惠利中学","lon":"121.48121","lat":"31.21181","category":"55","category_name":"中学","address":"卢湾区肇周路420号(陆家浜路徐家汇路)"},{"poiid":"B2094655D26CA4F94193","title":"松龄里","lon":"121.47985","lat":"31.21372","category":"47","category_name":"住宅区","address":"建国东路58弄1-2号"},{"poiid":"B2094654DB6BA4FF4792","title":"思家公寓","lon":"121.48029","lat":"31.213007","category":"47","category_name":"住宅区","address":"建国东路37弄1-2号"},{"poiid":"B2094654DA6EA7FA499D","title":"长顺来","lon":"121.4795","lat":"31.2126","category":"76","category_name":"上海菜","address":"卢湾区顺昌路517号(近建国东路)"},{"poiid":"B2094654DB6AA6FE469D","title":"中国电信(车墩营业厅)","lon":"121.48104","lat":"31.2138","category":"151","category_name":"电讯营业厅","address":"松江区金三角集资房114房(近马路)"},{"poiid":"B2094757D16BA7F94993","title":"港麗餐廳長寧龍之夢店","lon":"121.480421738","lat":"31.2144219633","category":"500","category_name":"未知分类","address":"上海市長寧路1018號"},{"poiid":"B2094654DB64A4FC4593","title":"南鼎建国大厦(后门)","lon":"121.4815","lat":"31.21387","category":"47","category_name":"住宅区","address":"上海市黄浦区唐家湾路158号"},{"poiid":"B2094654DA6EA7FA459B","title":"良友金伴(建国东路)","lon":"121.47935","lat":"31.2134","category":"117","category_name":"便民商店/便利店","address":"建国东路92"},{"poiid":"B2094654DA6EA7FA4493","title":"东风腌腊商店","lon":"121.47934","lat":"31.21342","category":"247","category_name":"餐饮美食","address":"卢湾区顺昌路469号(近建国东路)"},{"poiid":"B2094757D66DAAFF499F","title":"冷馄饨","lon":"121.48063773","lat":"31.215786992","category":"247","category_name":"餐饮美食","address":"上海肇周路"},{"poiid":"B2094654DA6EA7F44192","title":"品客小站","lon":"121.4816","lat":"31.21273","category":"68","category_name":"快餐厅","address":"黄浦区肇周路395号(近徐家汇路)"}]