[{"poiid":"B2094757D06EAAF44898","title":"寿宁路小龙虾","lon":"121.48185","lat":"31.22348","category":"68","category_name":"快餐厅","address":"黄浦区寿宁路58号(柳林路寿宁路)"},{"poiid":"B2094757D06FA3F84792","title":"上海第一家香吧岛龙虾(寿宁路总店)","lon":"121.48265","lat":"31.22375","category":"68","category_name":"快餐厅","address":"卢湾区寿宁路20-24号(近西藏南路)"},{"poiid":"B2094757D66FA6FB429F","title":"长寿面馆乡吧岛香辣小龙虾(寿宁路分店)","lon":"121.48253","lat":"31.22377","category":"257","category_name":"中餐厅","address":"卢湾区寿宁路23号、35号(近西藏南路)"},{"poiid":"B2094753D76FAAFA449C","title":"上海滩国泰旗舰店","lon":"121.466011","lat":"31.216125","category":"249","category_name":"购物服务","address":"淮海中路868号"},{"poiid":"B209475CD564A7F84292","title":"上海滩新天地店","lon":"121.47463","lat":"31.22164","category":"119","category_name":"商场","address":"\"太仓路181弄新天地北里15号\r\n\""},{"poiid":"B209475CD564A7F8439E","title":"上海滩中信泰富店","lon":"121.45602","lat":"31.22851","category":"119","category_name":"商场","address":"\"南京西路1168号中信泰富广场，店铺号221.\r\n\""},{"poiid":"B209475CD564A7F84392","title":"上海滩浦东香格里拉店","lon":"121.50058","lat":"31.23634","category":"119","category_name":"商场","address":"浦东富成路33号香格里拉酒店内大堂层"},{"poiid":"B2094757D16DA1FB499B","title":"华美国际酒店","lon":"121.481757","lat":"31.22221","category":"217","category_name":"旅馆招待所","address":"黄浦区西藏南路381号(近淮海中路)"},{"poiid":"B2094757D06FA2F8489F","title":"韩记烧烤","lon":"121.48191","lat":"31.22352","category":"68","category_name":"快餐厅","address":"卢湾区寿宁路26号(近西藏南路)"},{"poiid":"B2094655D36CA1F4439B","title":"老西门","lon":"121.4842","lat":"31.22057","category":"38","category_name":"公交车站","address":"西藏南路方浜西路"},{"poiid":"B2094757D068A2FB409F","title":"寿宁路烧烤摊","lon":"121.48309","lat":"31.22394","category":"68","category_name":"快餐厅","address":"黄浦区寿宁路(人民路口)"},{"poiid":"B2094757D06FA3FE499D","title":"松屋 西藏南路店","lon":"121.481204","lat":"31.224029","category":"95","category_name":"日本料理","address":"黄浦区西藏南路279号弘基西门町(近淮海中路)"},{"poiid":"B2094757D068ABFF4592","title":"白云观","lon":"121.4838714","lat":"31.2246919829","category":"246","category_name":"回教寺","address":"黄浦区大境路239号(近青莲街)"},{"poiid":"B2094757D06FA6F84999","title":"黄浦中心","lon":"121.48331828","lat":"31.220969198","category":"46","category_name":"楼宇","address":"上海市黄浦区中华路1600号"},{"poiid":"B2094757D06FA6F8429E","title":"万商花鸟市场","lon":"121.48199","lat":"31.22132","category":"249","category_name":"购物服务","address":"黄浦区西藏南路417号(近东台路)"},{"poiid":"B2094757D068A0FC429F","title":"金天地国际大厦","lon":"121.482581","lat":"31.223014","category":"46","category_name":"楼宇","address":"黄浦区人民路998号"},{"poiid":"B2094757D068A2FB4299","title":"老西门(人民路方浜中路)站","lon":"121.484038664","lat":"31.2210625482","category":"38","category_name":"公交车站","address":"上海黄浦区人民路(11,220,135,736,920,911路)"},{"poiid":"B2094757D16CA2FF4393","title":"红梅龙虾","lon":"121.48202073","lat":"31.223744161","category":"500","category_name":"未知分类","address":"上海市寿宁路27号"},{"poiid":"B2094757D465A4F44798","title":"华哥龙虾烤鱼坊","lon":"121.482833054","lat":"31.224111793","category":"247","category_name":"餐饮美食","address":"寿宁路12号近人民路"},{"poiid":"B2094753D665A6F4409A","title":"星怡會","lon":"121.48281","lat":"31.223274","category":"500","category_name":"未知分类","address":"上海市 上海無限度廣場2樓"},{"poiid":"B2094654DA6EA6F54499","title":"二子烧烤","lon":"121.4821","lat":"31.22394","category":"68","category_name":"快餐厅","address":"卢湾区寿宁路34号(近西藏南路)"},{"poiid":"B2094655D26EABF8489A","title":"杰杰龙虾店","lon":"121.48205","lat":"31.22392","category":"68","category_name":"快餐厅","address":"黄浦区寿宁路36号(近西藏南路)"},{"poiid":"B2094654DA6EA6F54498","title":"魏氏烧烤","lon":"121.482","lat":"31.22392","category":"87","category_name":"特色／地方风味餐厅","address":"黄浦区寿宁路38号(近西藏南路)"},{"poiid":"B209475CD56EA1F4499F","title":"连卡佛LaneCrawford","lon":"121.482719","lat":"31.223199","category":"249","category_name":"购物服务","address":"上海市 淮海中路93号"},{"poiid":"B2094654DA6EA5FC479B","title":"老广东菜馆 寿宁店","lon":"121.48290379018","lat":"31.223858586579","category":"76","category_name":"上海菜","address":"黄浦区人民路924号(寿宁路口)"},{"poiid":"B2094757D064A7F54093","title":"usher OMG world tour","lon":"121.48348473","lat":"31.219800077","category":"500","category_name":"未知分类","address":"上海梅赛德斯•奔驰文化演艺中心"},{"poiid":"B2094757D06AA2F5459D","title":"豫园派出所","lon":"121.48399825","lat":"31.222190165","category":"609","category_name":"警察局","address":"上海方浜中路718号"},{"poiid":"B2094757D468A6FC4999","title":"西北郎烧烤 寿宁路店","lon":"121.482659054","lat":"31.223880793","category":"68","category_name":"快餐厅","address":"卢湾区寿宁路5号(近云南路)"},{"poiid":"B2094757D16EA6FD439E","title":"17号香吧岛龙虾","lon":"121.48212773","lat":"31.223932165","category":"247","category_name":"餐饮美食","address":"上海寿宁路"},{"poiid":"B2094750DA6BA4F5459E","title":"老西门","lon":"121.483703","lat":"31.224035","category":"627","category_name":"一般地点标志","address":"地铁老西门站"},{"poiid":"B2094654DA6EA5FF4199","title":"纯香园","lon":"121.48476","lat":"31.22209","category":"76","category_name":"上海菜","address":"黄浦区方浜中路772号(近人民路)"},{"poiid":"B2094757D064A4F9409C","title":"华哥龙虾","lon":"121.48217769","lat":"31.224411491","category":"247","category_name":"餐饮美食","address":"上海寿宁路2号"},{"poiid":"B2094654DA6EA6F54393","title":"阿军特色烧烤","lon":"121.48183","lat":"31.22385","category":"68","category_name":"快餐厅","address":"黄浦区寿宁路48号(近西藏南路)"},{"poiid":"B2094757D06AAAFD409F","title":"方浜路夜排档","lon":"121.48544973","lat":"31.223300152","category":"247","category_name":"餐饮美食","address":"上海市人民路方浜路"},{"poiid":"B2094655D265ABFC469B","title":"方中排档","lon":"121.48421","lat":"31.22172","category":"257","category_name":"中餐厅","address":"方浜中路776-780"},{"poiid":"B2094757D06FA2FF449B","title":"元利香辣蟹(亚龙广场店)","lon":"121.47998","lat":"31.22672","category":"71","category_name":"四川菜","address":"黄浦区金陵东路500号亚龙国际广场3楼301号商铺(近西藏南路)"},{"poiid":"B209475CD26BA2FC4998","title":"80后烤吧","lon":"121.484519","lat":"31.224714","category":"247","category_name":"餐饮美食","address":"上海市 亚龙广场"},{"poiid":"B2094757D16DAAF5479A","title":"老王汤圆","lon":"121.48316","lat":"31.2231","category":"68","category_name":"快餐厅","address":"黄浦区人民路958弄(近寿宁路)"},{"poiid":"B2094757D064A3F44798","title":"甜乐甜品 总店","lon":"121.48191","lat":"31.22389","category":"67","category_name":"甜品店","address":"卢湾区寿宁路42号(大境路人民路)"},{"poiid":"B2094757D168A5F4499F","title":"上海文汇工程咨询有限公司","lon":"121.484296038","lat":"31.2222114292","category":"46","category_name":"楼宇","address":"上海市黄浦区人民路998号金天地国际大厦3A"},{"poiid":"B2094757D66BA2F54892","title":"53号香巴岛","lon":"121.481501","lat":"31.223604","category":"47","category_name":"住宅区","address":"寿宁路53号近云南南路"},{"poiid":"B2094757D069A2F84099","title":"黄浦众鑫城","lon":"121.48293","lat":"31.219999","category":"47","category_name":"住宅区","address":"上海黄浦区西藏南路555弄"},{"poiid":"B209475CD46CA3FC499F","title":"Lane Crawford","lon":"121.483367","lat":"31.222442","category":"500","category_name":"未知分类","address":"上海市 上海市淮海中路99号"},{"poiid":"B209475DD46EA1FB4392","title":"滩悦","lon":"121.483413","lat":"31.223274","category":"247","category_name":"餐饮美食","address":"上海市 连卡佛大上海时代广场5F"},{"poiid":"B2094654DA6EA5FC4698","title":"万有全大境菜市场","lon":"121.48329","lat":"31.22227","category":"117","category_name":"便民商店/便利店","address":"人民路1018号"},{"poiid":"B2094757D064A6FF439B","title":"豫园方浜中路","lon":"121.48439403","lat":"31.22228863","category":"500","category_name":"未知分类","address":"上海松雪街"},{"poiid":"B2094757D06BA6FA4799","title":"肯德基常熟店","lon":"121.48379748","lat":"31.221551265","category":"500","category_name":"未知分类","address":"上海常熟路地铁站"},{"poiid":"B2094757D06AA4FC479E","title":"梅兰竹菊棋牌室","lon":"121.482820059","lat":"31.2227007989","category":"175","category_name":"棋牌室","address":"黄浦区会稽路17号(人民路口)"},{"poiid":"B2094654DB6BA4F8489E","title":"同康里","lon":"121.48205","lat":"31.222942","category":"47","category_name":"住宅区","address":"会稽路38弄1-65号"},{"poiid":"B2094757D068ABF9429A","title":"丝芙兰(无限度店)","lon":"121.48222351","lat":"31.222764968","category":"122","category_name":"个人用品/化妆品店","address":"上海淮海中路138号无限度广场一楼"},{"poiid":"B2094757D06EAAF44898","title":"寿宁路小龙虾","lon":"121.48185","lat":"31.22348","category":"68","category_name":"快餐厅","address":"黄浦区寿宁路58号(柳林路寿宁路)"},{"poiid":"B2094757D06FA3F84792","title":"上海第一家香吧岛龙虾(寿宁路总店)","lon":"121.48265","lat":"31.22375","category":"68","category_name":"快餐厅","address":"卢湾区寿宁路20-24号(近西藏南路)"},{"poiid":"B2094757D66FA6FB429F","title":"长寿面馆乡吧岛香辣小龙虾(寿宁路分店)","lon":"121.48253","lat":"31.22377","category":"257","category_name":"中餐厅","address":"卢湾区寿宁路23号、35号(近西藏南路)"},{"poiid":"B2094753D76FAAFA449C","title":"上海滩国泰旗舰店","lon":"121.466011","lat":"31.216125","category":"249","category_name":"购物服务","address":"淮海中路868号"},{"poiid":"B209475CD564A7F84292","title":"上海滩新天地店","lon":"121.47463","lat":"31.22164","category":"119","category_name":"商场","address":"\"太仓路181弄新天地北里15号\r\n\""},{"poiid":"B209475CD564A7F8439E","title":"上海滩中信泰富店","lon":"121.45602","lat":"31.22851","category":"119","category_name":"商场","address":"\"南京西路1168号中信泰富广场，店铺号221.\r\n\""},{"poiid":"B209475CD564A7F84392","title":"上海滩浦东香格里拉店","lon":"121.50058","lat":"31.23634","category":"119","category_name":"商场","address":"浦东富成路33号香格里拉酒店内大堂层"},{"poiid":"B2094757D16DA1FB499B","title":"华美国际酒店","lon":"121.481757","lat":"31.22221","category":"217","category_name":"旅馆招待所","address":"黄浦区西藏南路381号(近淮海中路)"},{"poiid":"B2094757D06FA2F8489F","title":"韩记烧烤","lon":"121.48191","lat":"31.22352","category":"68","category_name":"快餐厅","address":"卢湾区寿宁路26号(近西藏南路)"},{"poiid":"B2094655D36CA1F4439B","title":"老西门","lon":"121.4842","lat":"31.22057","category":"38","category_name":"公交车站","address":"西藏南路方浜西路"},{"poiid":"B2094757D068A2FB409F","title":"寿宁路烧烤摊","lon":"121.48309","lat":"31.22394","category":"68","category_name":"快餐厅","address":"黄浦区寿宁路(人民路口)"},{"poiid":"B2094757D06FA3FE499D","title":"松屋 西藏南路店","lon":"121.481204","lat":"31.224029","category":"95","category_name":"日本料理","address":"黄浦区西藏南路279号弘基西门町(近淮海中路)"},{"poiid":"B2094757D068ABFF4592","title":"白云观","lon":"121.4838714","lat":"31.2246919829","category":"246","category_name":"回教寺","address":"黄浦区大境路239号(近青莲街)"},{"poiid":"B2094757D06FA6F84999","title":"黄浦中心","lon":"121.48331828","lat":"31.220969198","category":"46","category_name":"楼宇","address":"上海市黄浦区中华路1600号"},{"poiid":"B2094757D06FA6F8429E","title":"万商花鸟市场","lon":"121.48199","lat":"31.22132","category":"249","category_name":"购物服务","address":"黄浦区西藏南路417号(近东台路)"},{"poiid":"B2094757D068A0FC429F","title":"金天地国际大厦","lon":"121.482581","lat":"31.223014","category":"46","category_name":"楼宇","address":"黄浦区人民路998号"},{"poiid":"B2094757D068A2FB4299","title":"老西门(人民路方浜中路)站","lon":"121.484038664","lat":"31.2210625482","category":"38","category_name":"公交车站","address":"上海黄浦区人民路(11,220,135,736,920,911路)"},{"poiid":"B2094757D16CA2FF4393","title":"红梅龙虾","lon":"121.48202073","lat":"31.223744161","category":"500","category_name":"未知分类","address":"上海市寿宁路27号"},{"poiid":"B2094757D465A4F44798","title":"华哥龙虾烤鱼坊","lon":"121.482833054","lat":"31.224111793","category":"247","category_name":"餐饮美食","address":"寿宁路12号近人民路"},{"poiid":"B2094753D665A6F4409A","title":"星怡會","lon":"121.48281","lat":"31.223274","category":"500","category_name":"未知分类","address":"上海市 上海無限度廣場2樓"},{"poiid":"B2094654DA6EA6F54499","title":"二子烧烤","lon":"121.4821","lat":"31.22394","category":"68","category_name":"快餐厅","address":"卢湾区寿宁路34号(近西藏南路)"},{"poiid":"B2094655D26EABF8489A","title":"杰杰龙虾店","lon":"121.48205","lat":"31.22392","category":"68","category_name":"快餐厅","address":"黄浦区寿宁路36号(近西藏南路)"},{"poiid":"B2094654DA6EA6F54498","title":"魏氏烧烤","lon":"121.482","lat":"31.22392","category":"87","category_name":"特色／地方风味餐厅","address":"黄浦区寿宁路38号(近西藏南路)"},{"poiid":"B209475CD56EA1F4499F","title":"连卡佛LaneCrawford","lon":"121.482719","lat":"31.223199","category":"249","category_name":"购物服务","address":"上海市 淮海中路93号"},{"poiid":"B2094654DA6EA5FC479B","title":"老广东菜馆 寿宁店","lon":"121.48290379018","lat":"31.223858586579","category":"76","category_name":"上海菜","address":"黄浦区人民路924号(寿宁路口)"},{"poiid":"B2094757D064A7F54093","title":"usher OMG world tour","lon":"121.48348473","lat":"31.219800077","category":"500","category_name":"未知分类","address":"上海梅赛德斯•奔驰文化演艺中心"},{"poiid":"B2094757D06AA2F5459D","title":"豫园派出所","lon":"121.48399825","lat":"31.222190165","category":"609","category_name":"警察局","address":"上海方浜中路718号"},{"poiid":"B2094757D468A6FC4999","title":"西北郎烧烤 寿宁路店","lon":"121.482659054","lat":"31.223880793","category":"68","category_name":"快餐厅","address":"卢湾区寿宁路5号(近云南路)"},{"poiid":"B2094757D16EA6FD439E","title":"17号香吧岛龙虾","lon":"121.48212773","lat":"31.223932165","category":"247","category_name":"餐饮美食","address":"上海寿宁路"},{"poiid":"B2094750DA6BA4F5459E","title":"老西门","lon":"121.483703","lat":"31.224035","category":"627","category_name":"一般地点标志","address":"地铁老西门站"},{"poiid":"B2094654DA6EA5FF4199","title":"纯香园","lon":"121.48476","lat":"31.22209","category":"76","category_name":"上海菜","address":"黄浦区方浜中路772号(近人民路)"},{"poiid":"B2094757D064A4F9409C","title":"华哥龙虾","lon":"121.48217769","lat":"31.224411491","category":"247","category_name":"餐饮美食","address":"上海寿宁路2号"},{"poiid":"B2094654DA6EA6F54393","title":"阿军特色烧烤","lon":"121.48183","lat":"31.22385","category":"68","category_name":"快餐厅","address":"黄浦区寿宁路48号(近西藏南路)"},{"poiid":"B2094757D06AAAFD409F","title":"方浜路夜排档","lon":"121.48544973","lat":"31.223300152","category":"247","category_name":"餐饮美食","address":"上海市人民路方浜路"},{"poiid":"B2094655D265ABFC469B","title":"方中排档","lon":"121.48421","lat":"31.22172","category":"257","category_name":"中餐厅","address":"方浜中路776-780"},{"poiid":"B2094757D06FA2FF449B","title":"元利香辣蟹(亚龙广场店)","lon":"121.47998","lat":"31.22672","category":"71","category_name":"四川菜","address":"黄浦区金陵东路500号亚龙国际广场3楼301号商铺(近西藏南路)"},{"poiid":"B209475CD26BA2FC4998","title":"80后烤吧","lon":"121.484519","lat":"31.224714","category":"247","category_name":"餐饮美食","address":"上海市 亚龙广场"},{"poiid":"B2094757D16DAAF5479A","title":"老王汤圆","lon":"121.48316","lat":"31.2231","category":"68","category_name":"快餐厅","address":"黄浦区人民路958弄(近寿宁路)"},{"poiid":"B2094757D064A3F44798","title":"甜乐甜品 总店","lon":"121.48191","lat":"31.22389","category":"67","category_name":"甜品店","address":"卢湾区寿宁路42号(大境路人民路)"},{"poiid":"B2094757D168A5F4499F","title":"上海文汇工程咨询有限公司","lon":"121.484296038","lat":"31.2222114292","category":"46","category_name":"楼宇","address":"上海市黄浦区人民路998号金天地国际大厦3A"},{"poiid":"B2094757D66BA2F54892","title":"53号香巴岛","lon":"121.481501","lat":"31.223604","category":"47","category_name":"住宅区","address":"寿宁路53号近云南南路"},{"poiid":"B2094757D069A2F84099","title":"黄浦众鑫城","lon":"121.48293","lat":"31.219999","category":"47","category_name":"住宅区","address":"上海黄浦区西藏南路555弄"},{"poiid":"B209475CD46CA3FC499F","title":"Lane Crawford","lon":"121.483367","lat":"31.222442","category":"500","category_name":"未知分类","address":"上海市 上海市淮海中路99号"},{"poiid":"B209475DD46EA1FB4392","title":"滩悦","lon":"121.483413","lat":"31.223274","category":"247","category_name":"餐饮美食","address":"上海市 连卡佛大上海时代广场5F"},{"poiid":"B2094654DA6EA5FC4698","title":"万有全大境菜市场","lon":"121.48329","lat":"31.22227","category":"117","category_name":"便民商店/便利店","address":"人民路1018号"},{"poiid":"B2094757D064A6FF439B","title":"豫园方浜中路","lon":"121.48439403","lat":"31.22228863","category":"500","category_name":"未知分类","address":"上海松雪街"},{"poiid":"B2094757D06BA6FA4799","title":"肯德基常熟店","lon":"121.48379748","lat":"31.221551265","category":"500","category_name":"未知分类","address":"上海常熟路地铁站"},{"poiid":"B2094757D06AA4FC479E","title":"梅兰竹菊棋牌室","lon":"121.482820059","lat":"31.2227007989","category":"175","category_name":"棋牌室","address":"黄浦区会稽路17号(人民路口)"},{"poiid":"B2094654DB6BA4F8489E","title":"同康里","lon":"121.48205","lat":"31.222942","category":"47","category_name":"住宅区","address":"会稽路38弄1-65号"},{"poiid":"B2094757D068ABF9429A","title":"丝芙兰(无限度店)","lon":"121.48222351","lat":"31.222764968","category":"122","category_name":"个人用品/化妆品店","address":"上海淮海中路138号无限度广场一楼"},{"poiid":"B2094757D06EAAF44898","title":"寿宁路小龙虾","lon":"121.48185","lat":"31.22348","category":"68","category_name":"快餐厅","address":"黄浦区寿宁路58号(柳林路寿宁路)"},{"poiid":"B2094757D06FA3F84792","title":"上海第一家香吧岛龙虾(寿宁路总店)","lon":"121.48265","lat":"31.22375","category":"68","category_name":"快餐厅","address":"卢湾区寿宁路20-24号(近西藏南路)"},{"poiid":"B2094757D66FA6FB429F","title":"长寿面馆乡吧岛香辣小龙虾(寿宁路分店)","lon":"121.48253","lat":"31.22377","category":"257","category_name":"中餐厅","address":"卢湾区寿宁路23号、35号(近西藏南路)"},{"poiid":"B2094753D76FAAFA449C","title":"上海滩国泰旗舰店","lon":"121.466011","lat":"31.216125","category":"249","category_name":"购物服务","address":"淮海中路868号"},{"poiid":"B209475CD564A7F84292","title":"上海滩新天地店","lon":"121.47463","lat":"31.22164","category":"119","category_name":"商场","address":"\"太仓路181弄新天地北里15号\r\n\""},{"poiid":"B209475CD564A7F8439E","title":"上海滩中信泰富店","lon":"121.45602","lat":"31.22851","category":"119","category_name":"商场","address":"\"南京西路1168号中信泰富广场，店铺号221.\r\n\""},{"poiid":"B209475CD564A7F84392","title":"上海滩浦东香格里拉店","lon":"121.50058","lat":"31.23634","category":"119","category_name":"商场","address":"浦东富成路33号香格里拉酒店内大堂层"},{"poiid":"B2094757D16DA1FB499B","title":"华美国际酒店","lon":"121.481757","lat":"31.22221","category":"217","category_name":"旅馆招待所","address":"黄浦区西藏南路381号(近淮海中路)"},{"poiid":"B2094757D06FA2F8489F","title":"韩记烧烤","lon":"121.48191","lat":"31.22352","category":"68","category_name":"快餐厅","address":"卢湾区寿宁路26号(近西藏南路)"},{"poiid":"B2094655D36CA1F4439B","title":"老西门","lon":"121.4842","lat":"31.22057","category":"38","category_name":"公交车站","address":"西藏南路方浜西路"},{"poiid":"B2094757D068A2FB409F","title":"寿宁路烧烤摊","lon":"121.48309","lat":"31.22394","category":"68","category_name":"快餐厅","address":"黄浦区寿宁路(人民路口)"},{"poiid":"B2094757D06FA3FE499D","title":"松屋 西藏南路店","lon":"121.481204","lat":"31.224029","category":"95","category_name":"日本料理","address":"黄浦区西藏南路279号弘基西门町(近淮海中路)"},{"poiid":"B2094757D068ABFF4592","title":"白云观","lon":"121.4838714","lat":"31.2246919829","category":"246","category_name":"回教寺","address":"黄浦区大境路239号(近青莲街)"},{"poiid":"B2094757D06FA6F84999","title":"黄浦中心","lon":"121.48331828","lat":"31.220969198","category":"46","category_name":"楼宇","address":"上海市黄浦区中华路1600号"},{"poiid":"B2094757D06FA6F8429E","title":"万商花鸟市场","lon":"121.48199","lat":"31.22132","category":"249","category_name":"购物服务","address":"黄浦区西藏南路417号(近东台路)"},{"poiid":"B2094757D068A0FC429F","title":"金天地国际大厦","lon":"121.482581","lat":"31.223014","category":"46","category_name":"楼宇","address":"黄浦区人民路998号"},{"poiid":"B2094757D068A2FB4299","title":"老西门(人民路方浜中路)站","lon":"121.484038664","lat":"31.2210625482","category":"38","category_name":"公交车站","address":"上海黄浦区人民路(11,220,135,736,920,911路)"},{"poiid":"B2094757D16CA2FF4393","title":"红梅龙虾","lon":"121.48202073","lat":"31.223744161","category":"500","category_name":"未知分类","address":"上海市寿宁路27号"},{"poiid":"B2094757D465A4F44798","title":"华哥龙虾烤鱼坊","lon":"121.482833054","lat":"31.224111793","category":"247","category_name":"餐饮美食","address":"寿宁路12号近人民路"},{"poiid":"B2094753D665A6F4409A","title":"星怡會","lon":"121.48281","lat":"31.223274","category":"500","category_name":"未知分类","address":"上海市 上海無限度廣場2樓"},{"poiid":"B2094654DA6EA6F54499","title":"二子烧烤","lon":"121.4821","lat":"31.22394","category":"68","category_name":"快餐厅","address":"卢湾区寿宁路34号(近西藏南路)"},{"poiid":"B2094655D26EABF8489A","title":"杰杰龙虾店","lon":"121.48205","lat":"31.22392","category":"68","category_name":"快餐厅","address":"黄浦区寿宁路36号(近西藏南路)"},{"poiid":"B2094654DA6EA6F54498","title":"魏氏烧烤","lon":"121.482","lat":"31.22392","category":"87","category_name":"特色／地方风味餐厅","address":"黄浦区寿宁路38号(近西藏南路)"},{"poiid":"B209475CD56EA1F4499F","title":"连卡佛LaneCrawford","lon":"121.482719","lat":"31.223199","category":"249","category_name":"购物服务","address":"上海市 淮海中路93号"},{"poiid":"B2094654DA6EA5FC479B","title":"老广东菜馆 寿宁店","lon":"121.48290379018","lat":"31.223858586579","category":"76","category_name":"上海菜","address":"黄浦区人民路924号(寿宁路口)"},{"poiid":"B2094757D064A7F54093","title":"usher OMG world tour","lon":"121.48348473","lat":"31.219800077","category":"500","category_name":"未知分类","address":"上海梅赛德斯•奔驰文化演艺中心"},{"poiid":"B2094757D06AA2F5459D","title":"豫园派出所","lon":"121.48399825","lat":"31.222190165","category":"609","category_name":"警察局","address":"上海方浜中路718号"},{"poiid":"B2094757D468A6FC4999","title":"西北郎烧烤 寿宁路店","lon":"121.482659054","lat":"31.223880793","category":"68","category_name":"快餐厅","address":"卢湾区寿宁路5号(近云南路)"},{"poiid":"B2094757D16EA6FD439E","title":"17号香吧岛龙虾","lon":"121.48212773","lat":"31.223932165","category":"247","category_name":"餐饮美食","address":"上海寿宁路"},{"poiid":"B2094750DA6BA4F5459E","title":"老西门","lon":"121.483703","lat":"31.224035","category":"627","category_name":"一般地点标志","address":"地铁老西门站"},{"poiid":"B2094654DA6EA5FF4199","title":"纯香园","lon":"121.48476","lat":"31.22209","category":"76","category_name":"上海菜","address":"黄浦区方浜中路772号(近人民路)"},{"poiid":"B2094757D064A4F9409C","title":"华哥龙虾","lon":"121.48217769","lat":"31.224411491","category":"247","category_name":"餐饮美食","address":"上海寿宁路2号"},{"poiid":"B2094654DA6EA6F54393","title":"阿军特色烧烤","lon":"121.48183","lat":"31.22385","category":"68","category_name":"快餐厅","address":"黄浦区寿宁路48号(近西藏南路)"},{"poiid":"B2094757D06AAAFD409F","title":"方浜路夜排档","lon":"121.48544973","lat":"31.223300152","category":"247","category_name":"餐饮美食","address":"上海市人民路方浜路"},{"poiid":"B2094655D265ABFC469B","title":"方中排档","lon":"121.48421","lat":"31.22172","category":"257","category_name":"中餐厅","address":"方浜中路776-780"},{"poiid":"B2094757D06FA2FF449B","title":"元利香辣蟹(亚龙广场店)","lon":"121.47998","lat":"31.22672","category":"71","category_name":"四川菜","address":"黄浦区金陵东路500号亚龙国际广场3楼301号商铺(近西藏南路)"},{"poiid":"B209475CD26BA2FC4998","title":"80后烤吧","lon":"121.484519","lat":"31.224714","category":"247","category_name":"餐饮美食","address":"上海市 亚龙广场"},{"poiid":"B2094757D16DAAF5479A","title":"老王汤圆","lon":"121.48316","lat":"31.2231","category":"68","category_name":"快餐厅","address":"黄浦区人民路958弄(近寿宁路)"},{"poiid":"B2094757D064A3F44798","title":"甜乐甜品 总店","lon":"121.48191","lat":"31.22389","category":"67","category_name":"甜品店","address":"卢湾区寿宁路42号(大境路人民路)"},{"poiid":"B2094757D168A5F4499F","title":"上海文汇工程咨询有限公司","lon":"121.484296038","lat":"31.2222114292","category":"46","category_name":"楼宇","address":"上海市黄浦区人民路998号金天地国际大厦3A"},{"poiid":"B2094757D66BA2F54892","title":"53号香巴岛","lon":"121.481501","lat":"31.223604","category":"47","category_name":"住宅区","address":"寿宁路53号近云南南路"},{"poiid":"B2094757D069A2F84099","title":"黄浦众鑫城","lon":"121.48293","lat":"31.219999","category":"47","category_name":"住宅区","address":"上海黄浦区西藏南路555弄"},{"poiid":"B209475CD46CA3FC499F","title":"Lane Crawford","lon":"121.483367","lat":"31.222442","category":"500","category_name":"未知分类","address":"上海市 上海市淮海中路99号"},{"poiid":"B209475DD46EA1FB4392","title":"滩悦","lon":"121.483413","lat":"31.223274","category":"247","category_name":"餐饮美食","address":"上海市 连卡佛大上海时代广场5F"},{"poiid":"B2094654DA6EA5FC4698","title":"万有全大境菜市场","lon":"121.48329","lat":"31.22227","category":"117","category_name":"便民商店/便利店","address":"人民路1018号"},{"poiid":"B2094757D064A6FF439B","title":"豫园方浜中路","lon":"121.48439403","lat":"31.22228863","category":"500","category_name":"未知分类","address":"上海松雪街"},{"poiid":"B2094757D06BA6FA4799","title":"肯德基常熟店","lon":"121.48379748","lat":"31.221551265","category":"500","category_name":"未知分类","address":"上海常熟路地铁站"},{"poiid":"B2094757D06AA4FC479E","title":"梅兰竹菊棋牌室","lon":"121.482820059","lat":"31.2227007989","category":"175","category_name":"棋牌室","address":"黄浦区会稽路17号(人民路口)"},{"poiid":"B2094654DB6BA4F8489E","title":"同康里","lon":"121.48205","lat":"31.222942","category":"47","category_name":"住宅区","address":"会稽路38弄1-65号"},{"poiid":"B2094757D068ABF9429A","title":"丝芙兰(无限度店)","lon":"121.48222351","lat":"31.222764968","category":"122","category_name":"个人用品/化妆品店","address":"上海淮海中路138号无限度广场一楼"},{"poiid":"B2094757D06EAAF44898","title":"寿宁路小龙虾","lon":"121.48185","lat":"31.22348","category":"68","category_name":"快餐厅","address":"黄浦区寿宁路58号(柳林路寿宁路)"},{"poiid":"B2094757D06FA3F84792","title":"上海第一家香吧岛龙虾(寿宁路总店)","lon":"121.48265","lat":"31.22375","category":"68","category_name":"快餐厅","address":"卢湾区寿宁路20-24号(近西藏南路)"},{"poiid":"B2094757D66FA6FB429F","title":"长寿面馆乡吧岛香辣小龙虾(寿宁路分店)","lon":"121.48253","lat":"31.22377","category":"257","category_name":"中餐厅","address":"卢湾区寿宁路23号、35号(近西藏南路)"},{"poiid":"B2094753D76FAAFA449C","title":"上海滩国泰旗舰店","lon":"121.466011","lat":"31.216125","category":"249","category_name":"购物服务","address":"淮海中路868号"},{"poiid":"B209475CD564A7F84292","title":"上海滩新天地店","lon":"121.47463","lat":"31.22164","category":"119","category_name":"商场","address":"\"太仓路181弄新天地北里15号\r\n\""},{"poiid":"B209475CD564A7F8439E","title":"上海滩中信泰富店","lon":"121.45602","lat":"31.22851","category":"119","category_name":"商场","address":"\"南京西路1168号中信泰富广场，店铺号221.\r\n\""},{"poiid":"B209475CD564A7F84392","title":"上海滩浦东香格里拉店","lon":"121.50058","lat":"31.23634","category":"119","category_name":"商场","address":"浦东富成路33号香格里拉酒店内大堂层"},{"poiid":"B2094757D16DA1FB499B","title":"华美国际酒店","lon":"121.481757","lat":"31.22221","category":"217","category_name":"旅馆招待所","address":"黄浦区西藏南路381号(近淮海中路)"},{"poiid":"B2094757D06FA2F8489F","title":"韩记烧烤","lon":"121.48191","lat":"31.22352","category":"68","category_name":"快餐厅","address":"卢湾区寿宁路26号(近西藏南路)"},{"poiid":"B2094655D36CA1F4439B","title":"老西门","lon":"121.4842","lat":"31.22057","category":"38","category_name":"公交车站","address":"西藏南路方浜西路"},{"poiid":"B2094757D068A2FB409F","title":"寿宁路烧烤摊","lon":"121.48309","lat":"31.22394","category":"68","category_name":"快餐厅","address":"黄浦区寿宁路(人民路口)"},{"poiid":"B2094757D06FA3FE499D","title":"松屋 西藏南路店","lon":"121.481204","lat":"31.224029","category":"95","category_name":"日本料理","address":"黄浦区西藏南路279号弘基西门町(近淮海中路)"},{"poiid":"B2094757D068ABFF4592","title":"白云观","lon":"121.4838714","lat":"31.2246919829","category":"246","category_name":"回教寺","address":"黄浦区大境路239号(近青莲街)"},{"poiid":"B2094757D06FA6F84999","title":"黄浦中心","lon":"121.48331828","lat":"31.220969198","category":"46","category_name":"楼宇","address":"上海市黄浦区中华路1600号"},{"poiid":"B2094757D06FA6F8429E","title":"万商花鸟市场","lon":"121.48199","lat":"31.22132","category":"249","category_name":"购物服务","address":"黄浦区西藏南路417号(近东台路)"},{"poiid":"B2094757D068A0FC429F","title":"金天地国际大厦","lon":"121.482581","lat":"31.223014","category":"46","category_name":"楼宇","address":"黄浦区人民路998号"},{"poiid":"B2094757D068A2FB4299","title":"老西门(人民路方浜中路)站","lon":"121.484038664","lat":"31.2210625482","category":"38","category_name":"公交车站","address":"上海黄浦区人民路(11,220,135,736,920,911路)"},{"poiid":"B2094757D16CA2FF4393","title":"红梅龙虾","lon":"121.48202073","lat":"31.223744161","category":"500","category_name":"未知分类","address":"上海市寿宁路27号"},{"poiid":"B2094757D465A4F44798","title":"华哥龙虾烤鱼坊","lon":"121.482833054","lat":"31.224111793","category":"247","category_name":"餐饮美食","address":"寿宁路12号近人民路"},{"poiid":"B2094753D665A6F4409A","title":"星怡會","lon":"121.48281","lat":"31.223274","category":"500","category_name":"未知分类","address":"上海市 上海無限度廣場2樓"},{"poiid":"B2094654DA6EA6F54499","title":"二子烧烤","lon":"121.4821","lat":"31.22394","category":"68","category_name":"快餐厅","address":"卢湾区寿宁路34号(近西藏南路)"},{"poiid":"B2094655D26EABF8489A","title":"杰杰龙虾店","lon":"121.48205","lat":"31.22392","category":"68","category_name":"快餐厅","address":"黄浦区寿宁路36号(近西藏南路)"},{"poiid":"B2094654DA6EA6F54498","title":"魏氏烧烤","lon":"121.482","lat":"31.22392","category":"87","category_name":"特色／地方风味餐厅","address":"黄浦区寿宁路38号(近西藏南路)"},{"poiid":"B209475CD56EA1F4499F","title":"连卡佛LaneCrawford","lon":"121.482719","lat":"31.223199","category":"249","category_name":"购物服务","address":"上海市 淮海中路93号"},{"poiid":"B2094654DA6EA5FC479B","title":"老广东菜馆 寿宁店","lon":"121.48290379018","lat":"31.223858586579","category":"76","category_name":"上海菜","address":"黄浦区人民路924号(寿宁路口)"},{"poiid":"B2094757D064A7F54093","title":"usher OMG world tour","lon":"121.48348473","lat":"31.219800077","category":"500","category_name":"未知分类","address":"上海梅赛德斯•奔驰文化演艺中心"},{"poiid":"B2094757D06AA2F5459D","title":"豫园派出所","lon":"121.48399825","lat":"31.222190165","category":"609","category_name":"警察局","address":"上海方浜中路718号"},{"poiid":"B2094757D468A6FC4999","title":"西北郎烧烤 寿宁路店","lon":"121.482659054","lat":"31.223880793","category":"68","category_name":"快餐厅","address":"卢湾区寿宁路5号(近云南路)"},{"poiid":"B2094757D16EA6FD439E","title":"17号香吧岛龙虾","lon":"121.48212773","lat":"31.223932165","category":"247","category_name":"餐饮美食","address":"上海寿宁路"},{"poiid":"B2094750DA6BA4F5459E","title":"老西门","lon":"121.483703","lat":"31.224035","category":"627","category_name":"一般地点标志","address":"地铁老西门站"},{"poiid":"B2094654DA6EA5FF4199","title":"纯香园","lon":"121.48476","lat":"31.22209","category":"76","category_name":"上海菜","address":"黄浦区方浜中路772号(近人民路)"},{"poiid":"B2094757D064A4F9409C","title":"华哥龙虾","lon":"121.48217769","lat":"31.224411491","category":"247","category_name":"餐饮美食","address":"上海寿宁路2号"},{"poiid":"B2094654DA6EA6F54393","title":"阿军特色烧烤","lon":"121.48183","lat":"31.22385","category":"68","category_name":"快餐厅","address":"黄浦区寿宁路48号(近西藏南路)"},{"poiid":"B2094757D06AAAFD409F","title":"方浜路夜排档","lon":"121.48544973","lat":"31.223300152","category":"247","category_name":"餐饮美食","address":"上海市人民路方浜路"},{"poiid":"B2094655D265ABFC469B","title":"方中排档","lon":"121.48421","lat":"31.22172","category":"257","category_name":"中餐厅","address":"方浜中路776-780"},{"poiid":"B2094757D06FA2FF449B","title":"元利香辣蟹(亚龙广场店)","lon":"121.47998","lat":"31.22672","category":"71","category_name":"四川菜","address":"黄浦区金陵东路500号亚龙国际广场3楼301号商铺(近西藏南路)"},{"poiid":"B209475CD26BA2FC4998","title":"80后烤吧","lon":"121.484519","lat":"31.224714","category":"247","category_name":"餐饮美食","address":"上海市 亚龙广场"},{"poiid":"B2094757D16DAAF5479A","title":"老王汤圆","lon":"121.48316","lat":"31.2231","category":"68","category_name":"快餐厅","address":"黄浦区人民路958弄(近寿宁路)"},{"poiid":"B2094757D064A3F44798","title":"甜乐甜品 总店","lon":"121.48191","lat":"31.22389","category":"67","category_name":"甜品店","address":"卢湾区寿宁路42号(大境路人民路)"},{"poiid":"B2094757D168A5F4499F","title":"上海文汇工程咨询有限公司","lon":"121.484296038","lat":"31.2222114292","category":"46","category_name":"楼宇","address":"上海市黄浦区人民路998号金天地国际大厦3A"},{"poiid":"B2094757D66BA2F54892","title":"53号香巴岛","lon":"121.481501","lat":"31.223604","category":"47","category_name":"住宅区","address":"寿宁路53号近云南南路"},{"poiid":"B2094757D069A2F84099","title":"黄浦众鑫城","lon":"121.48293","lat":"31.219999","category":"47","category_name":"住宅区","address":"上海黄浦区西藏南路555弄"},{"poiid":"B209475CD46CA3FC499F","title":"Lane Crawford","lon":"121.483367","lat":"31.222442","category":"500","category_name":"未知分类","address":"上海市 上海市淮海中路99号"},{"poiid":"B209475DD46EA1FB4392","title":"滩悦","lon":"121.483413","lat":"31.223274","category":"247","category_name":"餐饮美食","address":"上海市 连卡佛大上海时代广场5F"},{"poiid":"B2094654DA6EA5FC4698","title":"万有全大境菜市场","lon":"121.48329","lat":"31.22227","category":"117","category_name":"便民商店/便利店","address":"人民路1018号"},{"poiid":"B2094757D064A6FF439B","title":"豫园方浜中路","lon":"121.48439403","lat":"31.22228863","category":"500","category_name":"未知分类","address":"上海松雪街"},{"poiid":"B2094757D06BA6FA4799","title":"肯德基常熟店","lon":"121.48379748","lat":"31.221551265","category":"500","category_name":"未知分类","address":"上海常熟路地铁站"},{"poiid":"B2094757D06AA4FC479E","title":"梅兰竹菊棋牌室","lon":"121.482820059","lat":"31.2227007989","category":"175","category_name":"棋牌室","address":"黄浦区会稽路17号(人民路口)"},{"poiid":"B2094654DB6BA4F8489E","title":"同康里","lon":"121.48205","lat":"31.222942","category":"47","category_name":"住宅区","address":"会稽路38弄1-65号"},{"poiid":"B2094757D068ABF9429A","title":"丝芙兰(无限度店)","lon":"121.48222351","lat":"31.222764968","category":"122","category_name":"个人用品/化妆品店","address":"上海淮海中路138号无限度广场一楼"}]