[{"poiid":"B2094654DA6FAAFD4799","title":"外滩3号","lon":"121.49114","lat":"31.23409","category":"47","category_name":"住宅区","address":"中山东一路3"},{"poiid":"B2094757D06EABF54998","title":"上海外滩华尔道夫酒店(Waldorf Astoria Shanghai on the Bund)","lon":"121.4912967","lat":"31.232828526","category":"217","category_name":"旅馆招待所","address":"黄浦区中山东一路2号(近延安东路)"},{"poiid":"B2094757D06FA6F4479E","title":"Jean Georges","lon":"121.490883296","lat":"31.2341583825","category":"94","category_name":"西餐厅","address":"黄浦区中山东一路3号外滩3号4楼(近广东路)"},{"poiid":"B2094753D76FAAFA449C","title":"上海滩国泰旗舰店","lon":"121.466011","lat":"31.216125","category":"249","category_name":"购物服务","address":"淮海中路868号"},{"poiid":"B209475CD564A7F84292","title":"上海滩新天地店","lon":"121.47463","lat":"31.22164","category":"119","category_name":"商场","address":"\"太仓路181弄新天地北里15号\r\n\""},{"poiid":"B209475CD564A7F84392","title":"上海滩浦东香格里拉店","lon":"121.50058","lat":"31.23634","category":"119","category_name":"商场","address":"浦东富成路33号香格里拉酒店内大堂层"},{"poiid":"B2094757D06FA3F54792","title":"花马天堂云南餐厅(延安东路店)","lon":"121.49086","lat":"31.23225","category":"260","category_name":"其他","address":"黄浦区延安东路17号甲(近四川南路)"},{"poiid":"B2094654DA6FAAFC499F","title":"黄浦区中心医院","lon":"121.48899","lat":"31.23428","category":"162","category_name":"医院","address":"黄浦区四川中路109号(近广东路)"},{"poiid":"B2094757D06FA6FD4699","title":"The Glamour Bar","lon":"121.49109627","lat":"31.2341656143","category":"172","category_name":"酒吧","address":"黄浦区广东路20号外滩5号6楼(近中山东一路)"},{"poiid":"B2094654DA6FAAFD4593","title":"M on the Bund","lon":"121.49079","lat":"31.2345","category":"263","category_name":"公司","address":"中山东一路5号外滩5号7层"},{"poiid":"B209475CD769A0FC449C","title":"万岛日式料理（外滩店）","lon":"121.489715","lat":"31.23306","category":"247","category_name":"餐饮美食","address":"上海市 四川中路33号1楼"},{"poiid":"B2094654DA6FAAFD4592","title":"外滩5号","lon":"121.49078","lat":"31.2345","category":"47","category_name":"住宅区","address":"中山东一路5号"},{"poiid":"B2094757D06EAAFB499F","title":"星巴克(外滩中心店)","lon":"121.486469","lat":"31.231952","category":"260","category_name":"其他","address":"黄浦区延安东路222号1楼(近江西南路)"},{"poiid":"B2094757D06FA6FE4298","title":"海上阿叔(黄浦店)","lon":"121.48804","lat":"31.23132","category":"76","category_name":"上海菜","address":"黄浦区延安东路222号外滩中心B1楼(近江西中路)"},{"poiid":"B2094757D06FA1FA409D","title":"淮海中华大厦","lon":"121.49016706473","lat":"31.231560906818","category":"46","category_name":"楼宇","address":"朝阳华威桥东北角"},{"poiid":"B2094757D068A6F54593","title":"lost heaven","lon":"121.49070111","lat":"31.232868432","category":"500","category_name":"未知分类","address":"上海延安东路17号"},{"poiid":"B2094757D065AAFC459B","title":"赤板亭(名人大厦)","lon":"121.489254138","lat":"31.2339395791","category":"500","category_name":"未知分类","address":"上海南京路步行街"},{"poiid":"B2094757D664A3FF4599","title":"外滩华尔道夫酒店 中式餐厅","lon":"121.48994","lat":"31.23399","category":"72","category_name":"广东菜","address":"广东路51号5楼近四川中路"},{"poiid":"B2094654DA6EA6FB429C","title":"恒积大厦","lon":"121.488","lat":"31.2316","category":"46","category_name":"楼宇","address":"行宫位于沈河北站一路41号"},{"poiid":"B2094757D06FA3FD439C","title":"LAN蘭","lon":"121.48943561","lat":"31.233968149","category":"72","category_name":"广东菜","address":"黄浦区广东路102号(广东路四川中路)"},{"poiid":"B2094655D26FA2FA4099","title":"月影铁板烧景观餐厅酒廊","lon":"121.49079","lat":"31.2345","category":"97","category_name":"法式菜品餐厅","address":"黄浦区中山东一路外滩5号3楼"},{"poiid":"B2094751D56CA4FD419C","title":"Mercato","lon":"121.49088","lat":"31.23417","category":"94","category_name":"西餐厅","address":"黄浦区中山东一路3号外滩3号6楼(近广东路)"},{"poiid":"B2094757D66BA1FC489B","title":"华尔道夫酒店廊吧","lon":"121.491231","lat":"31.23389","category":"260","category_name":"其他","address":"黄浦区中山东一路2号华尔道夫酒店L层(近延安东路)"},{"poiid":"B2094750D66FA3F9489E","title":"UNICO & COLAGRECO","lon":"121.49067870373528","lat":"31.23452732944748","category":"101","category_name":"美式风味","address":"黄浦区中山东一路3号外滩3号2楼(近广东路)"},{"poiid":"B2094757D06FAAF84399","title":"申鑫大厦","lon":"121.488143","lat":"31.234771","category":"46","category_name":"楼宇","address":"上海市黄浦区宁海东路200号(北依南京路,南临淮海路)"},{"poiid":"B2094654DA6FABFE4598","title":"联谊大厦","lon":"121.48997","lat":"31.23307","category":"46","category_name":"楼宇","address":"希尔斯联邦位于沈河北站路117号(北站家乐福东北角)"},{"poiid":"B2094757D069A4FF499F","title":"老船长青年旅舍(外滩店)","lon":"121.48979","lat":"31.23509","category":"216","category_name":"经济型连锁酒店","address":"上海黄浦区延安东路7号甲(近外滩)"},{"poiid":"B2094655D26EAAF8469B","title":"望江阁","lon":"121.491266","lat":"31.234322","category":"94","category_name":"西餐厅","address":"黄浦区中山东一路3号外滩3号7楼(近广东路)"},{"poiid":"B2094654DA6EA6FA4898","title":"汇通大厦","lon":"121.488","lat":"31.2328","category":"46","category_name":"楼宇","address":"金陵东路369号"},{"poiid":"B2094757D16FA4FA409C","title":"慧丰大酒店","lon":"121.48761","lat":"31.23082","category":"76","category_name":"上海菜","address":"黄浦区延安东路55号工商联大厦3楼(近江西中路)"},{"poiid":"B2094757D069A5FA429F","title":"国拍大楼","lon":"121.488578","lat":"31.234969","category":"46","category_name":"楼宇","address":"上海福州路108号"},{"poiid":"B2094757D06FABF5479F","title":"Dai's  Kitchen","lon":"121.48997","lat":"31.23235","category":"94","category_name":"西餐厅","address":"黄浦区延安东路110号四川大楼1楼门口弄堂(四川路口)"},{"poiid":"B2094757D16CABFE429A","title":"Pelham's (上海外滩华尔道夫酒店内)","lon":"121.4914507","lat":"31.233135525","category":"217","category_name":"旅馆招待所","address":"上海市黄浦区中山东一路2号，华尔道夫会所大堂层"},{"poiid":"B2094753D76AAAF9429C","title":"鹿港小镇（宏伊店）","lon":"121.489372","lat":"31.231023","category":"500","category_name":"未知分类","address":"上海市 山东路"},{"poiid":"B2094757D069ABFA459A","title":"上海电信博物馆","lon":"121.490941","lat":"31.233238","category":"182","category_name":"博物馆","address":"黄浦区延安东路34号(近中山东一路)"},{"poiid":"B2094654DA6EA5F8479E","title":"大壶春生煎","lon":"121.49049","lat":"31.23191","category":"68","category_name":"快餐厅","address":"黄浦区四川南路11号(延安东路)"},{"poiid":"B2094757D16DA6FF4599","title":"月影","lon":"121.490579738","lat":"31.234685395","category":"249","category_name":"购物服务","address":"上海外滩5号3楼"},{"poiid":"B209475CDA68A0FC4492","title":"万岛日本料理铁板烧","lon":"121.489685","lat":"31.233085","category":"500","category_name":"未知分类","address":"上海市 四川中路33号"},{"poiid":"B2094757D069A0FE469D","title":"黄浦区中心医院中医门诊部","lon":"121.48898882","lat":"31.2342839927","category":"162","category_name":"医院","address":"上海黄浦区宁波路109号(近河南中路)"},{"poiid":"B2094655D26DAAFC4798","title":"宜兰贵斯酒店","lon":"121.48826","lat":"31.23394","category":"250","category_name":"公园户外","address":"黄浦区广东路138号(近河南中路)"},{"poiid":"B2094757D568AAFB469D","title":"中国银行大楼","lon":"121.4911828","lat":"31.23360056","category":"46","category_name":"楼宇","address":"黄浦区外滩23号，中山东一路，南京东路"},{"poiid":"B2094757D068ABFB409C","title":"五芳斋 四川中路店","lon":"121.48965177918","lat":"31.233533830051","category":"68","category_name":"快餐厅","address":"黄浦区四川中路136号(近广东路)"},{"poiid":"B2094750D26CA1FA449B","title":"蔚景阁","lon":"121.491231","lat":"31.23389","category":"76","category_name":"上海菜","address":"黄浦区中山东一路2号华尔道夫酒店5楼(近延安东路)"},{"poiid":"B209475CD168A0FC4299","title":"万岛日本料理","lon":"121.489006","lat":"31.233108","category":"500","category_name":"未知分类","address":"上海市 上海市四川中路33号一楼"},{"poiid":"B2094757D46CA7FA419C","title":"SalondeVille","lon":"121.48962","lat":"31.233869","category":"65","category_name":"咖啡厅","address":"中山东一路2号外滩华尔道夫酒店1楼近延安东路"},{"poiid":"B2094757D069A7FF4992","title":"庄氏隆兴小龙虾面馆(外滩店)","lon":"121.48941","lat":"31.23446","category":"68","category_name":"快餐厅","address":"黄浦区四川中路156号(近福州路)"},{"poiid":"B2094757D464A0FF439F","title":"33号餐厅","lon":"121.489499054","lat":"31.232973793","category":"72","category_name":"广东菜","address":"黄浦区四川中路33号1楼北大厅(近延安东路)"},{"poiid":"B2094757D06BA4FC479A","title":"仙芋奇圆","lon":"121.488421738","lat":"31.2310923185","category":"67","category_name":"甜品店","address":"黄浦区金陵东路68号工商联大厦裙楼1楼B-2铺(近江西南路)"},{"poiid":"B2094654DA6FAAF8419F","title":"上海元芳商务中心","lon":"121.48966","lat":"31.2346","category":"46","category_name":"楼宇","address":"丰台学城海鹰路1号，3号"},{"poiid":"B2094757D16CA4F94092","title":"黄埔区中心医院住院部","lon":"121.488849738","lat":"31.234963401","category":"162","category_name":"医院","address":"上海市黄浦区山东中路"},{"poiid":"B2094654DA6FAAFD4799","title":"外滩3号","lon":"121.49114","lat":"31.23409","category":"47","category_name":"住宅区","address":"中山东一路3"},{"poiid":"B2094757D06EABF54998","title":"上海外滩华尔道夫酒店(Waldorf Astoria Shanghai on the Bund)","lon":"121.4912967","lat":"31.232828526","category":"217","category_name":"旅馆招待所","address":"黄浦区中山东一路2号(近延安东路)"},{"poiid":"B2094757D06FA6F4479E","title":"Jean Georges","lon":"121.490883296","lat":"31.2341583825","category":"94","category_name":"西餐厅","address":"黄浦区中山东一路3号外滩3号4楼(近广东路)"},{"poiid":"B2094753D76FAAFA449C","title":"上海滩国泰旗舰店","lon":"121.466011","lat":"31.216125","category":"249","category_name":"购物服务","address":"淮海中路868号"},{"poiid":"B209475CD564A7F84292","title":"上海滩新天地店","lon":"121.47463","lat":"31.22164","category":"119","category_name":"商场","address":"\"太仓路181弄新天地北里15号\r\n\""},{"poiid":"B209475CD564A7F84392","title":"上海滩浦东香格里拉店","lon":"121.50058","lat":"31.23634","category":"119","category_name":"商场","address":"浦东富成路33号香格里拉酒店内大堂层"},{"poiid":"B2094757D06FA3F54792","title":"花马天堂云南餐厅(延安东路店)","lon":"121.49086","lat":"31.23225","category":"260","category_name":"其他","address":"黄浦区延安东路17号甲(近四川南路)"},{"poiid":"B2094654DA6FAAFC499F","title":"黄浦区中心医院","lon":"121.48899","lat":"31.23428","category":"162","category_name":"医院","address":"黄浦区四川中路109号(近广东路)"},{"poiid":"B2094757D06FA6FD4699","title":"The Glamour Bar","lon":"121.49109627","lat":"31.2341656143","category":"172","category_name":"酒吧","address":"黄浦区广东路20号外滩5号6楼(近中山东一路)"},{"poiid":"B2094654DA6FAAFD4593","title":"M on the Bund","lon":"121.49079","lat":"31.2345","category":"263","category_name":"公司","address":"中山东一路5号外滩5号7层"},{"poiid":"B209475CD769A0FC449C","title":"万岛日式料理（外滩店）","lon":"121.489715","lat":"31.23306","category":"247","category_name":"餐饮美食","address":"上海市 四川中路33号1楼"},{"poiid":"B2094654DA6FAAFD4592","title":"外滩5号","lon":"121.49078","lat":"31.2345","category":"47","category_name":"住宅区","address":"中山东一路5号"},{"poiid":"B2094757D06EAAFB499F","title":"星巴克(外滩中心店)","lon":"121.486469","lat":"31.231952","category":"260","category_name":"其他","address":"黄浦区延安东路222号1楼(近江西南路)"},{"poiid":"B2094757D06FA6FE4298","title":"海上阿叔(黄浦店)","lon":"121.48804","lat":"31.23132","category":"76","category_name":"上海菜","address":"黄浦区延安东路222号外滩中心B1楼(近江西中路)"},{"poiid":"B2094757D06FA1FA409D","title":"淮海中华大厦","lon":"121.49016706473","lat":"31.231560906818","category":"46","category_name":"楼宇","address":"朝阳华威桥东北角"},{"poiid":"B2094757D068A6F54593","title":"lost heaven","lon":"121.49070111","lat":"31.232868432","category":"500","category_name":"未知分类","address":"上海延安东路17号"},{"poiid":"B2094757D065AAFC459B","title":"赤板亭(名人大厦)","lon":"121.489254138","lat":"31.2339395791","category":"500","category_name":"未知分类","address":"上海南京路步行街"},{"poiid":"B2094757D664A3FF4599","title":"外滩华尔道夫酒店 中式餐厅","lon":"121.48994","lat":"31.23399","category":"72","category_name":"广东菜","address":"广东路51号5楼近四川中路"},{"poiid":"B2094654DA6EA6FB429C","title":"恒积大厦","lon":"121.488","lat":"31.2316","category":"46","category_name":"楼宇","address":"行宫位于沈河北站一路41号"},{"poiid":"B2094757D06FA3FD439C","title":"LAN蘭","lon":"121.48943561","lat":"31.233968149","category":"72","category_name":"广东菜","address":"黄浦区广东路102号(广东路四川中路)"},{"poiid":"B2094655D26FA2FA4099","title":"月影铁板烧景观餐厅酒廊","lon":"121.49079","lat":"31.2345","category":"97","category_name":"法式菜品餐厅","address":"黄浦区中山东一路外滩5号3楼"},{"poiid":"B2094751D56CA4FD419C","title":"Mercato","lon":"121.49088","lat":"31.23417","category":"94","category_name":"西餐厅","address":"黄浦区中山东一路3号外滩3号6楼(近广东路)"},{"poiid":"B2094757D66BA1FC489B","title":"华尔道夫酒店廊吧","lon":"121.491231","lat":"31.23389","category":"260","category_name":"其他","address":"黄浦区中山东一路2号华尔道夫酒店L层(近延安东路)"},{"poiid":"B2094750D66FA3F9489E","title":"UNICO & COLAGRECO","lon":"121.49067870373528","lat":"31.23452732944748","category":"101","category_name":"美式风味","address":"黄浦区中山东一路3号外滩3号2楼(近广东路)"},{"poiid":"B2094757D06FAAF84399","title":"申鑫大厦","lon":"121.488143","lat":"31.234771","category":"46","category_name":"楼宇","address":"上海市黄浦区宁海东路200号(北依南京路,南临淮海路)"},{"poiid":"B2094654DA6FABFE4598","title":"联谊大厦","lon":"121.48997","lat":"31.23307","category":"46","category_name":"楼宇","address":"希尔斯联邦位于沈河北站路117号(北站家乐福东北角)"},{"poiid":"B2094757D069A4FF499F","title":"老船长青年旅舍(外滩店)","lon":"121.48979","lat":"31.23509","category":"216","category_name":"经济型连锁酒店","address":"上海黄浦区延安东路7号甲(近外滩)"},{"poiid":"B2094655D26EAAF8469B","title":"望江阁","lon":"121.491266","lat":"31.234322","category":"94","category_name":"西餐厅","address":"黄浦区中山东一路3号外滩3号7楼(近广东路)"},{"poiid":"B2094654DA6EA6FA4898","title":"汇通大厦","lon":"121.488","lat":"31.2328","category":"46","category_name":"楼宇","address":"金陵东路369号"},{"poiid":"B2094757D16FA4FA409C","title":"慧丰大酒店","lon":"121.48761","lat":"31.23082","category":"76","category_name":"上海菜","address":"黄浦区延安东路55号工商联大厦3楼(近江西中路)"},{"poiid":"B2094757D069A5FA429F","title":"国拍大楼","lon":"121.488578","lat":"31.234969","category":"46","category_name":"楼宇","address":"上海福州路108号"},{"poiid":"B2094757D06FABF5479F","title":"Dai's  Kitchen","lon":"121.48997","lat":"31.23235","category":"94","category_name":"西餐厅","address":"黄浦区延安东路110号四川大楼1楼门口弄堂(四川路口)"},{"poiid":"B2094757D16CABFE429A","title":"Pelham's (上海外滩华尔道夫酒店内)","lon":"121.4914507","lat":"31.233135525","category":"217","category_name":"旅馆招待所","address":"上海市黄浦区中山东一路2号，华尔道夫会所大堂层"},{"poiid":"B2094753D76AAAF9429C","title":"鹿港小镇（宏伊店）","lon":"121.489372","lat":"31.231023","category":"500","category_name":"未知分类","address":"上海市 山东路"},{"poiid":"B2094757D069ABFA459A","title":"上海电信博物馆","lon":"121.490941","lat":"31.233238","category":"182","category_name":"博物馆","address":"黄浦区延安东路34号(近中山东一路)"},{"poiid":"B2094654DA6EA5F8479E","title":"大壶春生煎","lon":"121.49049","lat":"31.23191","category":"68","category_name":"快餐厅","address":"黄浦区四川南路11号(延安东路)"},{"poiid":"B2094757D16DA6FF4599","title":"月影","lon":"121.490579738","lat":"31.234685395","category":"249","category_name":"购物服务","address":"上海外滩5号3楼"},{"poiid":"B209475CDA68A0FC4492","title":"万岛日本料理铁板烧","lon":"121.489685","lat":"31.233085","category":"500","category_name":"未知分类","address":"上海市 四川中路33号"},{"poiid":"B2094757D069A0FE469D","title":"黄浦区中心医院中医门诊部","lon":"121.48898882","lat":"31.2342839927","category":"162","category_name":"医院","address":"上海黄浦区宁波路109号(近河南中路)"},{"poiid":"B2094655D26DAAFC4798","title":"宜兰贵斯酒店","lon":"121.48826","lat":"31.23394","category":"250","category_name":"公园户外","address":"黄浦区广东路138号(近河南中路)"},{"poiid":"B2094757D568AAFB469D","title":"中国银行大楼","lon":"121.4911828","lat":"31.23360056","category":"46","category_name":"楼宇","address":"黄浦区外滩23号，中山东一路，南京东路"},{"poiid":"B2094757D068ABFB409C","title":"五芳斋 四川中路店","lon":"121.48965177918","lat":"31.233533830051","category":"68","category_name":"快餐厅","address":"黄浦区四川中路136号(近广东路)"},{"poiid":"B2094750D26CA1FA449B","title":"蔚景阁","lon":"121.491231","lat":"31.23389","category":"76","category_name":"上海菜","address":"黄浦区中山东一路2号华尔道夫酒店5楼(近延安东路)"},{"poiid":"B209475CD168A0FC4299","title":"万岛日本料理","lon":"121.489006","lat":"31.233108","category":"500","category_name":"未知分类","address":"上海市 上海市四川中路33号一楼"},{"poiid":"B2094757D46CA7FA419C","title":"SalondeVille","lon":"121.48962","lat":"31.233869","category":"65","category_name":"咖啡厅","address":"中山东一路2号外滩华尔道夫酒店1楼近延安东路"},{"poiid":"B2094757D069A7FF4992","title":"庄氏隆兴小龙虾面馆(外滩店)","lon":"121.48941","lat":"31.23446","category":"68","category_name":"快餐厅","address":"黄浦区四川中路156号(近福州路)"},{"poiid":"B2094757D464A0FF439F","title":"33号餐厅","lon":"121.489499054","lat":"31.232973793","category":"72","category_name":"广东菜","address":"黄浦区四川中路33号1楼北大厅(近延安东路)"},{"poiid":"B2094757D06BA4FC479A","title":"仙芋奇圆","lon":"121.488421738","lat":"31.2310923185","category":"67","category_name":"甜品店","address":"黄浦区金陵东路68号工商联大厦裙楼1楼B-2铺(近江西南路)"},{"poiid":"B2094654DA6FAAF8419F","title":"上海元芳商务中心","lon":"121.48966","lat":"31.2346","category":"46","category_name":"楼宇","address":"丰台学城海鹰路1号，3号"},{"poiid":"B2094757D16CA4F94092","title":"黄埔区中心医院住院部","lon":"121.488849738","lat":"31.234963401","category":"162","category_name":"医院","address":"上海市黄浦区山东中路"},{"poiid":"B2094654DA6FAAFD4799","title":"外滩3号","lon":"121.49114","lat":"31.23409","category":"47","category_name":"住宅区","address":"中山东一路3"},{"poiid":"B2094757D06EABF54998","title":"上海外滩华尔道夫酒店(Waldorf Astoria Shanghai on the Bund)","lon":"121.4912967","lat":"31.232828526","category":"217","category_name":"旅馆招待所","address":"黄浦区中山东一路2号(近延安东路)"},{"poiid":"B2094757D06FA6F4479E","title":"Jean Georges","lon":"121.490883296","lat":"31.2341583825","category":"94","category_name":"西餐厅","address":"黄浦区中山东一路3号外滩3号4楼(近广东路)"},{"poiid":"B2094753D76FAAFA449C","title":"上海滩国泰旗舰店","lon":"121.466011","lat":"31.216125","category":"249","category_name":"购物服务","address":"淮海中路868号"},{"poiid":"B209475CD564A7F84292","title":"上海滩新天地店","lon":"121.47463","lat":"31.22164","category":"119","category_name":"商场","address":"\"太仓路181弄新天地北里15号\r\n\""},{"poiid":"B209475CD564A7F84392","title":"上海滩浦东香格里拉店","lon":"121.50058","lat":"31.23634","category":"119","category_name":"商场","address":"浦东富成路33号香格里拉酒店内大堂层"},{"poiid":"B2094757D06FA3F54792","title":"花马天堂云南餐厅(延安东路店)","lon":"121.49086","lat":"31.23225","category":"260","category_name":"其他","address":"黄浦区延安东路17号甲(近四川南路)"},{"poiid":"B2094654DA6FAAFC499F","title":"黄浦区中心医院","lon":"121.48899","lat":"31.23428","category":"162","category_name":"医院","address":"黄浦区四川中路109号(近广东路)"},{"poiid":"B2094757D06FA6FD4699","title":"The Glamour Bar","lon":"121.49109627","lat":"31.2341656143","category":"172","category_name":"酒吧","address":"黄浦区广东路20号外滩5号6楼(近中山东一路)"},{"poiid":"B2094654DA6FAAFD4593","title":"M on the Bund","lon":"121.49079","lat":"31.2345","category":"263","category_name":"公司","address":"中山东一路5号外滩5号7层"},{"poiid":"B209475CD769A0FC449C","title":"万岛日式料理（外滩店）","lon":"121.489715","lat":"31.23306","category":"247","category_name":"餐饮美食","address":"上海市 四川中路33号1楼"},{"poiid":"B2094654DA6FAAFD4592","title":"外滩5号","lon":"121.49078","lat":"31.2345","category":"47","category_name":"住宅区","address":"中山东一路5号"},{"poiid":"B2094757D06EAAFB499F","title":"星巴克(外滩中心店)","lon":"121.486469","lat":"31.231952","category":"260","category_name":"其他","address":"黄浦区延安东路222号1楼(近江西南路)"},{"poiid":"B2094757D06FA6FE4298","title":"海上阿叔(黄浦店)","lon":"121.48804","lat":"31.23132","category":"76","category_name":"上海菜","address":"黄浦区延安东路222号外滩中心B1楼(近江西中路)"},{"poiid":"B2094757D06FA1FA409D","title":"淮海中华大厦","lon":"121.49016706473","lat":"31.231560906818","category":"46","category_name":"楼宇","address":"朝阳华威桥东北角"},{"poiid":"B2094757D068A6F54593","title":"lost heaven","lon":"121.49070111","lat":"31.232868432","category":"500","category_name":"未知分类","address":"上海延安东路17号"},{"poiid":"B2094757D065AAFC459B","title":"赤板亭(名人大厦)","lon":"121.489254138","lat":"31.2339395791","category":"500","category_name":"未知分类","address":"上海南京路步行街"},{"poiid":"B2094757D664A3FF4599","title":"外滩华尔道夫酒店 中式餐厅","lon":"121.48994","lat":"31.23399","category":"72","category_name":"广东菜","address":"广东路51号5楼近四川中路"},{"poiid":"B2094654DA6EA6FB429C","title":"恒积大厦","lon":"121.488","lat":"31.2316","category":"46","category_name":"楼宇","address":"行宫位于沈河北站一路41号"},{"poiid":"B2094757D06FA3FD439C","title":"LAN蘭","lon":"121.48943561","lat":"31.233968149","category":"72","category_name":"广东菜","address":"黄浦区广东路102号(广东路四川中路)"},{"poiid":"B2094655D26FA2FA4099","title":"月影铁板烧景观餐厅酒廊","lon":"121.49079","lat":"31.2345","category":"97","category_name":"法式菜品餐厅","address":"黄浦区中山东一路外滩5号3楼"},{"poiid":"B2094751D56CA4FD419C","title":"Mercato","lon":"121.49088","lat":"31.23417","category":"94","category_name":"西餐厅","address":"黄浦区中山东一路3号外滩3号6楼(近广东路)"},{"poiid":"B2094757D66BA1FC489B","title":"华尔道夫酒店廊吧","lon":"121.491231","lat":"31.23389","category":"260","category_name":"其他","address":"黄浦区中山东一路2号华尔道夫酒店L层(近延安东路)"},{"poiid":"B2094750D66FA3F9489E","title":"UNICO & COLAGRECO","lon":"121.49067870373528","lat":"31.23452732944748","category":"101","category_name":"美式风味","address":"黄浦区中山东一路3号外滩3号2楼(近广东路)"},{"poiid":"B2094757D06FAAF84399","title":"申鑫大厦","lon":"121.488143","lat":"31.234771","category":"46","category_name":"楼宇","address":"上海市黄浦区宁海东路200号(北依南京路,南临淮海路)"},{"poiid":"B2094654DA6FABFE4598","title":"联谊大厦","lon":"121.48997","lat":"31.23307","category":"46","category_name":"楼宇","address":"希尔斯联邦位于沈河北站路117号(北站家乐福东北角)"},{"poiid":"B2094757D069A4FF499F","title":"老船长青年旅舍(外滩店)","lon":"121.48979","lat":"31.23509","category":"216","category_name":"经济型连锁酒店","address":"上海黄浦区延安东路7号甲(近外滩)"},{"poiid":"B2094655D26EAAF8469B","title":"望江阁","lon":"121.491266","lat":"31.234322","category":"94","category_name":"西餐厅","address":"黄浦区中山东一路3号外滩3号7楼(近广东路)"},{"poiid":"B2094654DA6EA6FA4898","title":"汇通大厦","lon":"121.488","lat":"31.2328","category":"46","category_name":"楼宇","address":"金陵东路369号"},{"poiid":"B2094757D16FA4FA409C","title":"慧丰大酒店","lon":"121.48761","lat":"31.23082","category":"76","category_name":"上海菜","address":"黄浦区延安东路55号工商联大厦3楼(近江西中路)"},{"poiid":"B2094757D069A5FA429F","title":"国拍大楼","lon":"121.488578","lat":"31.234969","category":"46","category_name":"楼宇","address":"上海福州路108号"},{"poiid":"B2094757D06FABF5479F","title":"Dai's  Kitchen","lon":"121.48997","lat":"31.23235","category":"94","category_name":"西餐厅","address":"黄浦区延安东路110号四川大楼1楼门口弄堂(四川路口)"},{"poiid":"B2094757D16CABFE429A","title":"Pelham's (上海外滩华尔道夫酒店内)","lon":"121.4914507","lat":"31.233135525","category":"217","category_name":"旅馆招待所","address":"上海市黄浦区中山东一路2号，华尔道夫会所大堂层"},{"poiid":"B2094753D76AAAF9429C","title":"鹿港小镇（宏伊店）","lon":"121.489372","lat":"31.231023","category":"500","category_name":"未知分类","address":"上海市 山东路"},{"poiid":"B2094757D069ABFA459A","title":"上海电信博物馆","lon":"121.490941","lat":"31.233238","category":"182","category_name":"博物馆","address":"黄浦区延安东路34号(近中山东一路)"},{"poiid":"B2094654DA6EA5F8479E","title":"大壶春生煎","lon":"121.49049","lat":"31.23191","category":"68","category_name":"快餐厅","address":"黄浦区四川南路11号(延安东路)"},{"poiid":"B2094757D16DA6FF4599","title":"月影","lon":"121.490579738","lat":"31.234685395","category":"249","category_name":"购物服务","address":"上海外滩5号3楼"},{"poiid":"B209475CDA68A0FC4492","title":"万岛日本料理铁板烧","lon":"121.489685","lat":"31.233085","category":"500","category_name":"未知分类","address":"上海市 四川中路33号"},{"poiid":"B2094757D069A0FE469D","title":"黄浦区中心医院中医门诊部","lon":"121.48898882","lat":"31.2342839927","category":"162","category_name":"医院","address":"上海黄浦区宁波路109号(近河南中路)"},{"poiid":"B2094655D26DAAFC4798","title":"宜兰贵斯酒店","lon":"121.48826","lat":"31.23394","category":"250","category_name":"公园户外","address":"黄浦区广东路138号(近河南中路)"},{"poiid":"B2094757D568AAFB469D","title":"中国银行大楼","lon":"121.4911828","lat":"31.23360056","category":"46","category_name":"楼宇","address":"黄浦区外滩23号，中山东一路，南京东路"},{"poiid":"B2094757D068ABFB409C","title":"五芳斋 四川中路店","lon":"121.48965177918","lat":"31.233533830051","category":"68","category_name":"快餐厅","address":"黄浦区四川中路136号(近广东路)"},{"poiid":"B2094750D26CA1FA449B","title":"蔚景阁","lon":"121.491231","lat":"31.23389","category":"76","category_name":"上海菜","address":"黄浦区中山东一路2号华尔道夫酒店5楼(近延安东路)"},{"poiid":"B209475CD168A0FC4299","title":"万岛日本料理","lon":"121.489006","lat":"31.233108","category":"500","category_name":"未知分类","address":"上海市 上海市四川中路33号一楼"},{"poiid":"B2094757D46CA7FA419C","title":"SalondeVille","lon":"121.48962","lat":"31.233869","category":"65","category_name":"咖啡厅","address":"中山东一路2号外滩华尔道夫酒店1楼近延安东路"},{"poiid":"B2094757D069A7FF4992","title":"庄氏隆兴小龙虾面馆(外滩店)","lon":"121.48941","lat":"31.23446","category":"68","category_name":"快餐厅","address":"黄浦区四川中路156号(近福州路)"},{"poiid":"B2094757D464A0FF439F","title":"33号餐厅","lon":"121.489499054","lat":"31.232973793","category":"72","category_name":"广东菜","address":"黄浦区四川中路33号1楼北大厅(近延安东路)"},{"poiid":"B2094757D06BA4FC479A","title":"仙芋奇圆","lon":"121.488421738","lat":"31.2310923185","category":"67","category_name":"甜品店","address":"黄浦区金陵东路68号工商联大厦裙楼1楼B-2铺(近江西南路)"},{"poiid":"B2094654DA6FAAF8419F","title":"上海元芳商务中心","lon":"121.48966","lat":"31.2346","category":"46","category_name":"楼宇","address":"丰台学城海鹰路1号，3号"},{"poiid":"B2094757D16CA4F94092","title":"黄埔区中心医院住院部","lon":"121.488849738","lat":"31.234963401","category":"162","category_name":"医院","address":"上海市黄浦区山东中路"},{"poiid":"B2094654DA6FAAFD4799","title":"外滩3号","lon":"121.49114","lat":"31.23409","category":"47","category_name":"住宅区","address":"中山东一路3"},{"poiid":"B2094757D06EABF54998","title":"上海外滩华尔道夫酒店(Waldorf Astoria Shanghai on the Bund)","lon":"121.4912967","lat":"31.232828526","category":"217","category_name":"旅馆招待所","address":"黄浦区中山东一路2号(近延安东路)"},{"poiid":"B2094757D06FA6F4479E","title":"Jean Georges","lon":"121.490883296","lat":"31.2341583825","category":"94","category_name":"西餐厅","address":"黄浦区中山东一路3号外滩3号4楼(近广东路)"},{"poiid":"B2094753D76FAAFA449C","title":"上海滩国泰旗舰店","lon":"121.466011","lat":"31.216125","category":"249","category_name":"购物服务","address":"淮海中路868号"},{"poiid":"B209475CD564A7F84292","title":"上海滩新天地店","lon":"121.47463","lat":"31.22164","category":"119","category_name":"商场","address":"\"太仓路181弄新天地北里15号\r\n\""},{"poiid":"B209475CD564A7F84392","title":"上海滩浦东香格里拉店","lon":"121.50058","lat":"31.23634","category":"119","category_name":"商场","address":"浦东富成路33号香格里拉酒店内大堂层"},{"poiid":"B2094757D06FA3F54792","title":"花马天堂云南餐厅(延安东路店)","lon":"121.49086","lat":"31.23225","category":"260","category_name":"其他","address":"黄浦区延安东路17号甲(近四川南路)"},{"poiid":"B2094654DA6FAAFC499F","title":"黄浦区中心医院","lon":"121.48899","lat":"31.23428","category":"162","category_name":"医院","address":"黄浦区四川中路109号(近广东路)"},{"poiid":"B2094757D06FA6FD4699","title":"The Glamour Bar","lon":"121.49109627","lat":"31.2341656143","category":"172","category_name":"酒吧","address":"黄浦区广东路20号外滩5号6楼(近中山东一路)"},{"poiid":"B2094654DA6FAAFD4593","title":"M on the Bund","lon":"121.49079","lat":"31.2345","category":"263","category_name":"公司","address":"中山东一路5号外滩5号7层"},{"poiid":"B209475CD769A0FC449C","title":"万岛日式料理（外滩店）","lon":"121.489715","lat":"31.23306","category":"247","category_name":"餐饮美食","address":"上海市 四川中路33号1楼"},{"poiid":"B2094654DA6FAAFD4592","title":"外滩5号","lon":"121.49078","lat":"31.2345","category":"47","category_name":"住宅区","address":"中山东一路5号"},{"poiid":"B2094757D06EAAFB499F","title":"星巴克(外滩中心店)","lon":"121.486469","lat":"31.231952","category":"260","category_name":"其他","address":"黄浦区延安东路222号1楼(近江西南路)"},{"poiid":"B2094757D06FA6FE4298","title":"海上阿叔(黄浦店)","lon":"121.48804","lat":"31.23132","category":"76","category_name":"上海菜","address":"黄浦区延安东路222号外滩中心B1楼(近江西中路)"},{"poiid":"B2094757D06FA1FA409D","title":"淮海中华大厦","lon":"121.49016706473","lat":"31.231560906818","category":"46","category_name":"楼宇","address":"朝阳华威桥东北角"},{"poiid":"B2094757D068A6F54593","title":"lost heaven","lon":"121.49070111","lat":"31.232868432","category":"500","category_name":"未知分类","address":"上海延安东路17号"},{"poiid":"B2094757D065AAFC459B","title":"赤板亭(名人大厦)","lon":"121.489254138","lat":"31.2339395791","category":"500","category_name":"未知分类","address":"上海南京路步行街"},{"poiid":"B2094757D664A3FF4599","title":"外滩华尔道夫酒店 中式餐厅","lon":"121.48994","lat":"31.23399","category":"72","category_name":"广东菜","address":"广东路51号5楼近四川中路"},{"poiid":"B2094654DA6EA6FB429C","title":"恒积大厦","lon":"121.488","lat":"31.2316","category":"46","category_name":"楼宇","address":"行宫位于沈河北站一路41号"},{"poiid":"B2094757D06FA3FD439C","title":"LAN蘭","lon":"121.48943561","lat":"31.233968149","category":"72","category_name":"广东菜","address":"黄浦区广东路102号(广东路四川中路)"},{"poiid":"B2094655D26FA2FA4099","title":"月影铁板烧景观餐厅酒廊","lon":"121.49079","lat":"31.2345","category":"97","category_name":"法式菜品餐厅","address":"黄浦区中山东一路外滩5号3楼"},{"poiid":"B2094751D56CA4FD419C","title":"Mercato","lon":"121.49088","lat":"31.23417","category":"94","category_name":"西餐厅","address":"黄浦区中山东一路3号外滩3号6楼(近广东路)"},{"poiid":"B2094757D66BA1FC489B","title":"华尔道夫酒店廊吧","lon":"121.491231","lat":"31.23389","category":"260","category_name":"其他","address":"黄浦区中山东一路2号华尔道夫酒店L层(近延安东路)"},{"poiid":"B2094750D66FA3F9489E","title":"UNICO & COLAGRECO","lon":"121.49067870373528","lat":"31.23452732944748","category":"101","category_name":"美式风味","address":"黄浦区中山东一路3号外滩3号2楼(近广东路)"},{"poiid":"B2094757D06FAAF84399","title":"申鑫大厦","lon":"121.488143","lat":"31.234771","category":"46","category_name":"楼宇","address":"上海市黄浦区宁海东路200号(北依南京路,南临淮海路)"},{"poiid":"B2094654DA6FABFE4598","title":"联谊大厦","lon":"121.48997","lat":"31.23307","category":"46","category_name":"楼宇","address":"希尔斯联邦位于沈河北站路117号(北站家乐福东北角)"},{"poiid":"B2094757D069A4FF499F","title":"老船长青年旅舍(外滩店)","lon":"121.48979","lat":"31.23509","category":"216","category_name":"经济型连锁酒店","address":"上海黄浦区延安东路7号甲(近外滩)"},{"poiid":"B2094655D26EAAF8469B","title":"望江阁","lon":"121.491266","lat":"31.234322","category":"94","category_name":"西餐厅","address":"黄浦区中山东一路3号外滩3号7楼(近广东路)"},{"poiid":"B2094654DA6EA6FA4898","title":"汇通大厦","lon":"121.488","lat":"31.2328","category":"46","category_name":"楼宇","address":"金陵东路369号"},{"poiid":"B2094757D16FA4FA409C","title":"慧丰大酒店","lon":"121.48761","lat":"31.23082","category":"76","category_name":"上海菜","address":"黄浦区延安东路55号工商联大厦3楼(近江西中路)"},{"poiid":"B2094757D069A5FA429F","title":"国拍大楼","lon":"121.488578","lat":"31.234969","category":"46","category_name":"楼宇","address":"上海福州路108号"},{"poiid":"B2094757D06FABF5479F","title":"Dai's  Kitchen","lon":"121.48997","lat":"31.23235","category":"94","category_name":"西餐厅","address":"黄浦区延安东路110号四川大楼1楼门口弄堂(四川路口)"},{"poiid":"B2094757D16CABFE429A","title":"Pelham's (上海外滩华尔道夫酒店内)","lon":"121.4914507","lat":"31.233135525","category":"217","category_name":"旅馆招待所","address":"上海市黄浦区中山东一路2号，华尔道夫会所大堂层"},{"poiid":"B2094753D76AAAF9429C","title":"鹿港小镇（宏伊店）","lon":"121.489372","lat":"31.231023","category":"500","category_name":"未知分类","address":"上海市 山东路"},{"poiid":"B2094757D069ABFA459A","title":"上海电信博物馆","lon":"121.490941","lat":"31.233238","category":"182","category_name":"博物馆","address":"黄浦区延安东路34号(近中山东一路)"},{"poiid":"B2094654DA6EA5F8479E","title":"大壶春生煎","lon":"121.49049","lat":"31.23191","category":"68","category_name":"快餐厅","address":"黄浦区四川南路11号(延安东路)"},{"poiid":"B2094757D16DA6FF4599","title":"月影","lon":"121.490579738","lat":"31.234685395","category":"249","category_name":"购物服务","address":"上海外滩5号3楼"},{"poiid":"B209475CDA68A0FC4492","title":"万岛日本料理铁板烧","lon":"121.489685","lat":"31.233085","category":"500","category_name":"未知分类","address":"上海市 四川中路33号"},{"poiid":"B2094757D069A0FE469D","title":"黄浦区中心医院中医门诊部","lon":"121.48898882","lat":"31.2342839927","category":"162","category_name":"医院","address":"上海黄浦区宁波路109号(近河南中路)"},{"poiid":"B2094655D26DAAFC4798","title":"宜兰贵斯酒店","lon":"121.48826","lat":"31.23394","category":"250","category_name":"公园户外","address":"黄浦区广东路138号(近河南中路)"},{"poiid":"B2094757D568AAFB469D","title":"中国银行大楼","lon":"121.4911828","lat":"31.23360056","category":"46","category_name":"楼宇","address":"黄浦区外滩23号，中山东一路，南京东路"},{"poiid":"B2094757D068ABFB409C","title":"五芳斋 四川中路店","lon":"121.48965177918","lat":"31.233533830051","category":"68","category_name":"快餐厅","address":"黄浦区四川中路136号(近广东路)"},{"poiid":"B2094750D26CA1FA449B","title":"蔚景阁","lon":"121.491231","lat":"31.23389","category":"76","category_name":"上海菜","address":"黄浦区中山东一路2号华尔道夫酒店5楼(近延安东路)"},{"poiid":"B209475CD168A0FC4299","title":"万岛日本料理","lon":"121.489006","lat":"31.233108","category":"500","category_name":"未知分类","address":"上海市 上海市四川中路33号一楼"},{"poiid":"B2094757D46CA7FA419C","title":"SalondeVille","lon":"121.48962","lat":"31.233869","category":"65","category_name":"咖啡厅","address":"中山东一路2号外滩华尔道夫酒店1楼近延安东路"},{"poiid":"B2094757D069A7FF4992","title":"庄氏隆兴小龙虾面馆(外滩店)","lon":"121.48941","lat":"31.23446","category":"68","category_name":"快餐厅","address":"黄浦区四川中路156号(近福州路)"},{"poiid":"B2094757D464A0FF439F","title":"33号餐厅","lon":"121.489499054","lat":"31.232973793","category":"72","category_name":"广东菜","address":"黄浦区四川中路33号1楼北大厅(近延安东路)"},{"poiid":"B2094757D06BA4FC479A","title":"仙芋奇圆","lon":"121.488421738","lat":"31.2310923185","category":"67","category_name":"甜品店","address":"黄浦区金陵东路68号工商联大厦裙楼1楼B-2铺(近江西南路)"},{"poiid":"B2094654DA6FAAF8419F","title":"上海元芳商务中心","lon":"121.48966","lat":"31.2346","category":"46","category_name":"楼宇","address":"丰台学城海鹰路1号，3号"},{"poiid":"B2094757D16CA4F94092","title":"黄埔区中心医院住院部","lon":"121.488849738","lat":"31.234963401","category":"162","category_name":"医院","address":"上海市黄浦区山东中路"},{"poiid":"B2094654DA6FAAFD4799","title":"外滩3号","lon":"121.49114","lat":"31.23409","category":"47","category_name":"住宅区","address":"中山东一路3"},{"poiid":"B2094757D06EABF54998","title":"上海外滩华尔道夫酒店(Waldorf Astoria Shanghai on the Bund)","lon":"121.4912967","lat":"31.232828526","category":"217","category_name":"旅馆招待所","address":"黄浦区中山东一路2号(近延安东路)"},{"poiid":"B2094757D06FA6F4479E","title":"Jean Georges","lon":"121.490883296","lat":"31.2341583825","category":"94","category_name":"西餐厅","address":"黄浦区中山东一路3号外滩3号4楼(近广东路)"},{"poiid":"B2094753D76FAAFA449C","title":"上海滩国泰旗舰店","lon":"121.466011","lat":"31.216125","category":"249","category_name":"购物服务","address":"淮海中路868号"},{"poiid":"B209475CD564A7F84292","title":"上海滩新天地店","lon":"121.47463","lat":"31.22164","category":"119","category_name":"商场","address":"\"太仓路181弄新天地北里15号\r\n\""},{"poiid":"B209475CD564A7F84392","title":"上海滩浦东香格里拉店","lon":"121.50058","lat":"31.23634","category":"119","category_name":"商场","address":"浦东富成路33号香格里拉酒店内大堂层"},{"poiid":"B2094757D06FA3F54792","title":"花马天堂云南餐厅(延安东路店)","lon":"121.49086","lat":"31.23225","category":"260","category_name":"其他","address":"黄浦区延安东路17号甲(近四川南路)"},{"poiid":"B2094654DA6FAAFC499F","title":"黄浦区中心医院","lon":"121.48899","lat":"31.23428","category":"162","category_name":"医院","address":"黄浦区四川中路109号(近广东路)"},{"poiid":"B2094757D06FA6FD4699","title":"The Glamour Bar","lon":"121.49109627","lat":"31.2341656143","category":"172","category_name":"酒吧","address":"黄浦区广东路20号外滩5号6楼(近中山东一路)"},{"poiid":"B2094654DA6FAAFD4593","title":"M on the Bund","lon":"121.49079","lat":"31.2345","category":"263","category_name":"公司","address":"中山东一路5号外滩5号7层"},{"poiid":"B209475CD769A0FC449C","title":"万岛日式料理（外滩店）","lon":"121.489715","lat":"31.23306","category":"247","category_name":"餐饮美食","address":"上海市 四川中路33号1楼"},{"poiid":"B2094654DA6FAAFD4592","title":"外滩5号","lon":"121.49078","lat":"31.2345","category":"47","category_name":"住宅区","address":"中山东一路5号"},{"poiid":"B2094757D06EAAFB499F","title":"星巴克(外滩中心店)","lon":"121.486469","lat":"31.231952","category":"260","category_name":"其他","address":"黄浦区延安东路222号1楼(近江西南路)"},{"poiid":"B2094757D06FA6FE4298","title":"海上阿叔(黄浦店)","lon":"121.48804","lat":"31.23132","category":"76","category_name":"上海菜","address":"黄浦区延安东路222号外滩中心B1楼(近江西中路)"},{"poiid":"B2094757D06FA1FA409D","title":"淮海中华大厦","lon":"121.49016706473","lat":"31.231560906818","category":"46","category_name":"楼宇","address":"朝阳华威桥东北角"},{"poiid":"B2094757D068A6F54593","title":"lost heaven","lon":"121.49070111","lat":"31.232868432","category":"500","category_name":"未知分类","address":"上海延安东路17号"},{"poiid":"B2094757D065AAFC459B","title":"赤板亭(名人大厦)","lon":"121.489254138","lat":"31.2339395791","category":"500","category_name":"未知分类","address":"上海南京路步行街"},{"poiid":"B2094757D664A3FF4599","title":"外滩华尔道夫酒店 中式餐厅","lon":"121.48994","lat":"31.23399","category":"72","category_name":"广东菜","address":"广东路51号5楼近四川中路"},{"poiid":"B2094654DA6EA6FB429C","title":"恒积大厦","lon":"121.488","lat":"31.2316","category":"46","category_name":"楼宇","address":"行宫位于沈河北站一路41号"},{"poiid":"B2094757D06FA3FD439C","title":"LAN蘭","lon":"121.48943561","lat":"31.233968149","category":"72","category_name":"广东菜","address":"黄浦区广东路102号(广东路四川中路)"},{"poiid":"B2094655D26FA2FA4099","title":"月影铁板烧景观餐厅酒廊","lon":"121.49079","lat":"31.2345","category":"97","category_name":"法式菜品餐厅","address":"黄浦区中山东一路外滩5号3楼"},{"poiid":"B2094751D56CA4FD419C","title":"Mercato","lon":"121.49088","lat":"31.23417","category":"94","category_name":"西餐厅","address":"黄浦区中山东一路3号外滩3号6楼(近广东路)"},{"poiid":"B2094757D66BA1FC489B","title":"华尔道夫酒店廊吧","lon":"121.491231","lat":"31.23389","category":"260","category_name":"其他","address":"黄浦区中山东一路2号华尔道夫酒店L层(近延安东路)"},{"poiid":"B2094750D66FA3F9489E","title":"UNICO & COLAGRECO","lon":"121.49067870373528","lat":"31.23452732944748","category":"101","category_name":"美式风味","address":"黄浦区中山东一路3号外滩3号2楼(近广东路)"},{"poiid":"B2094757D06FAAF84399","title":"申鑫大厦","lon":"121.488143","lat":"31.234771","category":"46","category_name":"楼宇","address":"上海市黄浦区宁海东路200号(北依南京路,南临淮海路)"},{"poiid":"B2094654DA6FABFE4598","title":"联谊大厦","lon":"121.48997","lat":"31.23307","category":"46","category_name":"楼宇","address":"希尔斯联邦位于沈河北站路117号(北站家乐福东北角)"},{"poiid":"B2094757D069A4FF499F","title":"老船长青年旅舍(外滩店)","lon":"121.48979","lat":"31.23509","category":"216","category_name":"经济型连锁酒店","address":"上海黄浦区延安东路7号甲(近外滩)"},{"poiid":"B2094655D26EAAF8469B","title":"望江阁","lon":"121.491266","lat":"31.234322","category":"94","category_name":"西餐厅","address":"黄浦区中山东一路3号外滩3号7楼(近广东路)"},{"poiid":"B2094654DA6EA6FA4898","title":"汇通大厦","lon":"121.488","lat":"31.2328","category":"46","category_name":"楼宇","address":"金陵东路369号"},{"poiid":"B2094757D16FA4FA409C","title":"慧丰大酒店","lon":"121.48761","lat":"31.23082","category":"76","category_name":"上海菜","address":"黄浦区延安东路55号工商联大厦3楼(近江西中路)"},{"poiid":"B2094757D069A5FA429F","title":"国拍大楼","lon":"121.488578","lat":"31.234969","category":"46","category_name":"楼宇","address":"上海福州路108号"},{"poiid":"B2094757D06FABF5479F","title":"Dai's  Kitchen","lon":"121.48997","lat":"31.23235","category":"94","category_name":"西餐厅","address":"黄浦区延安东路110号四川大楼1楼门口弄堂(四川路口)"},{"poiid":"B2094757D16CABFE429A","title":"Pelham's (上海外滩华尔道夫酒店内)","lon":"121.4914507","lat":"31.233135525","category":"217","category_name":"旅馆招待所","address":"上海市黄浦区中山东一路2号，华尔道夫会所大堂层"},{"poiid":"B2094753D76AAAF9429C","title":"鹿港小镇（宏伊店）","lon":"121.489372","lat":"31.231023","category":"500","category_name":"未知分类","address":"上海市 山东路"},{"poiid":"B2094757D069ABFA459A","title":"上海电信博物馆","lon":"121.490941","lat":"31.233238","category":"182","category_name":"博物馆","address":"黄浦区延安东路34号(近中山东一路)"},{"poiid":"B2094654DA6EA5F8479E","title":"大壶春生煎","lon":"121.49049","lat":"31.23191","category":"68","category_name":"快餐厅","address":"黄浦区四川南路11号(延安东路)"},{"poiid":"B2094757D16DA6FF4599","title":"月影","lon":"121.490579738","lat":"31.234685395","category":"249","category_name":"购物服务","address":"上海外滩5号3楼"},{"poiid":"B209475CDA68A0FC4492","title":"万岛日本料理铁板烧","lon":"121.489685","lat":"31.233085","category":"500","category_name":"未知分类","address":"上海市 四川中路33号"},{"poiid":"B2094757D069A0FE469D","title":"黄浦区中心医院中医门诊部","lon":"121.48898882","lat":"31.2342839927","category":"162","category_name":"医院","address":"上海黄浦区宁波路109号(近河南中路)"},{"poiid":"B2094655D26DAAFC4798","title":"宜兰贵斯酒店","lon":"121.48826","lat":"31.23394","category":"250","category_name":"公园户外","address":"黄浦区广东路138号(近河南中路)"},{"poiid":"B2094757D568AAFB469D","title":"中国银行大楼","lon":"121.4911828","lat":"31.23360056","category":"46","category_name":"楼宇","address":"黄浦区外滩23号，中山东一路，南京东路"},{"poiid":"B2094757D068ABFB409C","title":"五芳斋 四川中路店","lon":"121.48965177918","lat":"31.233533830051","category":"68","category_name":"快餐厅","address":"黄浦区四川中路136号(近广东路)"},{"poiid":"B2094750D26CA1FA449B","title":"蔚景阁","lon":"121.491231","lat":"31.23389","category":"76","category_name":"上海菜","address":"黄浦区中山东一路2号华尔道夫酒店5楼(近延安东路)"},{"poiid":"B209475CD168A0FC4299","title":"万岛日本料理","lon":"121.489006","lat":"31.233108","category":"500","category_name":"未知分类","address":"上海市 上海市四川中路33号一楼"},{"poiid":"B2094757D46CA7FA419C","title":"SalondeVille","lon":"121.48962","lat":"31.233869","category":"65","category_name":"咖啡厅","address":"中山东一路2号外滩华尔道夫酒店1楼近延安东路"},{"poiid":"B2094757D069A7FF4992","title":"庄氏隆兴小龙虾面馆(外滩店)","lon":"121.48941","lat":"31.23446","category":"68","category_name":"快餐厅","address":"黄浦区四川中路156号(近福州路)"},{"poiid":"B2094757D464A0FF439F","title":"33号餐厅","lon":"121.489499054","lat":"31.232973793","category":"72","category_name":"广东菜","address":"黄浦区四川中路33号1楼北大厅(近延安东路)"},{"poiid":"B2094757D06BA4FC479A","title":"仙芋奇圆","lon":"121.488421738","lat":"31.2310923185","category":"67","category_name":"甜品店","address":"黄浦区金陵东路68号工商联大厦裙楼1楼B-2铺(近江西南路)"},{"poiid":"B2094654DA6FAAF8419F","title":"上海元芳商务中心","lon":"121.48966","lat":"31.2346","category":"46","category_name":"楼宇","address":"丰台学城海鹰路1号，3号"},{"poiid":"B2094757D16CA4F94092","title":"黄埔区中心医院住院部","lon":"121.488849738","lat":"31.234963401","category":"162","category_name":"医院","address":"上海市黄浦区山东中路"}]