[{"poiid":"B2094757D06FA7FF4993","title":"上海汽车会展中心","lon":"121.16795928","lat":"31.278010673","category":"260","category_name":"其他","address":"嘉定区安亭博园路7575号"},{"poiid":"B2094757D068A0F9429F","title":"汽车博览公园","lon":"121.17890148","lat":"31.279719137","category":"196","category_name":"公园","address":"嘉定区安亭博园路7001号"},{"poiid":"B2094757D16FABFB479C","title":"嘉亭荟城市生活广场","lon":"121.165837289","lat":"31.2809907347","category":"500","category_name":"未知分类","address":"嘉定区墨玉南路1055号"},{"poiid":"B2094757D06FA5F54892","title":"汽车博物馆","lon":"121.17047944","lat":"31.278213122","category":"182","category_name":"博物馆","address":"嘉定区安亭博园路7565号(近墨玉南路)"},{"poiid":"B2094655D36CA4FD4792","title":"安亭地铁站","lon":"121.16349","lat":"31.28808","category":"36","category_name":"地铁站","address":""},{"poiid":"B2094750D36FA7F44592","title":"嘉亭荟","lon":"121.162284","lat":"31.287944","category":"249","category_name":"购物服务","address":null},{"poiid":"B2094757D66EA2FC479C","title":"上海颖奕高尔夫皇冠假日酒店","lon":"121.19218601165676","lat":"31.272550158135264","category":"214","category_name":"四星级宾馆","address":"上海市嘉定区博园路6555号"},{"poiid":"B2094757DA68A1F8449F","title":"汉泰东南亚风味餐厅(安亭店)","lon":"121.16259098052979","lat":"31.28860002389548","category":"99","category_name":"泰国／越南菜品餐厅","address":"嘉定区墨玉南路1055号嘉亭荟城市生活广场401-403铺"},{"poiid":"B2094757D06FA0FD4498","title":"上海大众汽车三厂","lon":"121.18375172","lat":"31.2878409011","category":"46","category_name":"楼宇","address":"上海嘉定区曹安公路5288号"},{"poiid":"B2094654D46BA0FF4793","title":"上海汽车集团股份有限公司","lon":"121.18931","lat":"31.2774","category":"263","category_name":"公司","address":"上海市嘉定区安研路201号"},{"poiid":"B2094655D36DA6FC4898","title":"安亭","lon":"121.16234","lat":"31.28835","category":"38","category_name":"公交车站","address":""},{"poiid":"B2094654D46BA0FF4899","title":"上海国际汽车城大厦","lon":"121.172","lat":"31.2875","category":"46","category_name":"楼宇","address":"上海市嘉定区安亭镇墨玉南路888号"},{"poiid":"B2094757D06FA6F44093","title":"安亭新镇","lon":"121.17115377","lat":"31.27022459","category":"47","category_name":"住宅区","address":"安亭镇北安德路255号"},{"poiid":"B2094757D068A2F4479D","title":"新词大酒店","lon":"121.16370824551","lat":"31.291529215577","category":"76","category_name":"上海菜","address":"嘉定区墨玉路29号(近曹安路)"},{"poiid":"B2094757D06FA7FF499B","title":"上海汽车城地铁站","lon":"121.18055783","lat":"31.285682395","category":"36","category_name":"地铁站","address":"上海轨道交通 十一号线 轨交上海汽车城站 11"},{"poiid":"B2094750D26EABF8489E","title":"星巴克 (嘉亭荟店) STARBUCKS COFFEE","lon":"121.1633617","lat":"31.2886961","category":"260","category_name":"其他","address":"嘉定区墨玉南路1055号嘉亭荟生活广场内(近曹安公路)"},{"poiid":"B2094757D06FA3F9499A","title":"台商庙会","lon":"121.1678981","lat":"31.2805262","category":"91","category_name":"台湾菜","address":"嘉定区博园路7575号(近汽车城)"},{"poiid":"B2094750D769A3FB459E","title":"鲜芋仙(嘉亭荟店)","lon":"121.163","lat":"31.2882","category":"67","category_name":"甜品店","address":"嘉定区墨玉南路1055号嘉亭荟城市生活广场2楼"},{"poiid":"B2094757DB68A5F4459A","title":"必胜客(上海嘉葶荟店)","lon":"121.1633834","lat":"31.2886966","category":"94","category_name":"西餐厅","address":"嘉定区墨玉南路1055号嘉亭荟城市生活广场2楼220号铺、223号铺(近地铁11号线安亭站)"},{"poiid":"B2094750D76FAAFC4899","title":"哈根达斯(嘉亭荟店)","lon":"121.163","lat":"31.2882","category":"113","category_name":"冷饮店","address":"嘉定区墨玉南路1055号嘉亭荟城市生活广场1楼"},{"poiid":"B2094655D36CA4FD469C","title":"安亭镇","lon":"121.16529","lat":"31.29153","category":"38","category_name":"公交车站","address":""},{"poiid":"B2094751D269A2F44399","title":"CGV国际影城(安亭店)","lon":"121.16231133862311","lat":"31.288998117584235","category":"178","category_name":"电影院","address":"嘉定区墨玉南路1055号嘉亭荟城市生活广场3楼305号(近11号线安亭汽车城站)"},{"poiid":"B2094750D76FA7FA4393","title":"望湘园(安亭店)","lon":"121.163","lat":"31.2882","category":"77","category_name":"湖南菜","address":"嘉定区墨玉南路1055号嘉亭荟广场3楼"},{"poiid":"B2094750D76DA5FB409A","title":"吉旺港式茶餐厅(嘉亭荟店)","lon":"121.163","lat":"31.2882","category":"72","category_name":"广东菜","address":"嘉定区墨玉南路1055号嘉亭荟生活广场2号A区4楼410-411号铺(近11号线安亭汽车城站)"},{"poiid":"B2094654DB65A3FE4399","title":"嘉正国际","lon":"121.16289","lat":"31.28977","category":"46","category_name":"楼宇","address":"嘉定区墨玉路28号"},{"poiid":"B2094757D06BA6FB499D","title":"上海颖奕安亭高尔夫俱乐部","lon":"121.190217789","lat":"31.2716796532","category":"500","category_name":"未知分类","address":"上海市嘉定区安亭镇博园路6555号201824"},{"poiid":"B2094757D16FABF8429D","title":"澳门豆捞坊","lon":"121.1636","lat":"31.29124","category":"86","category_name":"火锅店","address":"嘉定区墨玉南路1055号嘉亭荟城市生活广场2A412号铺(近安亭地铁站)"},{"poiid":"B2094757DB68A4F8469C","title":"小南国 嘉亭荟店","lon":"121.1633834","lat":"31.2886966","category":"76","category_name":"上海菜","address":"嘉定区墨玉南路1055号嘉亭荟生活广场2楼(近地铁11号线安亭站)"},{"poiid":"B2094757DA68A1F84499","title":"Costa Coffee(安亭店)","lon":"121.16276264190674","lat":"31.288545013134225","category":"65","category_name":"咖啡厅","address":"嘉定区墨玉南路1055号嘉亭荟城市生活广场2楼202号铺(近11号线安亭汽车城站)"},{"poiid":"B2094750D76FAAFD4999","title":"PANKOO釜山料理(嘉亭荟店)","lon":"121.163","lat":"31.2882","category":"96","category_name":"韩国料理","address":"嘉定区墨玉南路1055号嘉亭荟生活广场3楼328-329号铺(近11号线安亭汽车城站)"},{"poiid":"B2094750D26CA6FD459F","title":"避风塘 嘉亭荟","lon":"121.1633834","lat":"31.2886966","category":"72","category_name":"广东菜","address":"嘉定区墨玉南路1055弄嘉亭荟生活广场1楼111号铺(近11号线安亭汽车城站)"},{"poiid":"B2094757D06BA2FF409D","title":"甜蜜蜜安亭新镇店","lon":"121.16875457","lat":"31.275459289","category":"67","category_name":"甜品店","address":"嘉定区安亭镇安智路109、111号(近国际汽车城)"},{"poiid":"B2094757D06AA3FF4899","title":"景怡轩中餐厅","lon":"121.17162","lat":"31.283","category":"76","category_name":"上海菜","address":"嘉定区安驰路569号(近国际汽车城)"},{"poiid":"B2094750D768A1FC419A","title":"赤坂亭(嘉亭荟店)","lon":"121.163","lat":"31.2882","category":"269","category_name":"烧烤","address":"嘉定区墨玉南路1055号嘉亭荟城市生活广场3楼331号铺(近安亭汽车城地铁站)"},{"poiid":"B2094750D26CABFF439E","title":"伊秀手握寿司 嘉亭荟店","lon":"121.1633834","lat":"31.2886966","category":"95","category_name":"日本料理","address":"嘉定区墨玉南路1055号嘉亭荟城市生活广场3楼(近安亭地铁站)"},{"poiid":"B2094654DB65A2F4419A","title":"上海国际汽车城","lon":"121.17235","lat":"31.28267","category":"158","category_name":"汽车销售","address":"安驰路569号"},{"poiid":"B2094750DA6FA1FD4698","title":"一茶一坐（安亭店）","lon":"121.16338","lat":"31.28871","category":"91","category_name":"台湾菜","address":"嘉定区墨玉南路1055号嘉亭荟城市生活广场1楼122号铺(近11号线安亭汽车城站)"},{"poiid":"B2094757D66EA1FB4092","title":"西上海大众","lon":"121.162550289","lat":"31.2869238567","category":"500","category_name":"未知分类","address":"上海墨玉南路999号"},{"poiid":"B2094757D169A3F94999","title":"中环百联","lon":"121.17650928","lat":"31.275700625","category":"249","category_name":"购物服务","address":"上海真光路"},{"poiid":"B2094654D46BA2F8459B","title":"国家机动车产品质量监督检验中心(上海)","lon":"121.18338","lat":"31.28162","category":"250","category_name":"公园户外","address":"于田南路68"},{"poiid":"B2094757D064A7FF4893","title":"G2京沪G42沪蓉高速安亭汽车城收费站","lon":"121.164862811","lat":"31.2700535057","category":"267","category_name":"收费站","address":"上海G2京沪G42沪蓉高速安亭汽车城收费站"},{"poiid":"B2094655D36DA6FE449B","title":"上海汽车城","lon":"121.18056","lat":"31.28567","category":"38","category_name":"公交车站","address":""},{"poiid":"B2094655D36CA5FB4799","title":"博园路米泉南路","lon":"121.17505","lat":"31.28233","category":"38","category_name":"公交车站","address":""},{"poiid":"B2094757D069ABFB4893","title":"上海二手车市场","lon":"121.166156","lat":"31.28585","category":"500","category_name":"未知分类","address":"上海墨玉南路1000号"},{"poiid":"B2094750D76DAAF44998","title":"新石器烤肉(嘉亭荟店)","lon":"121.163","lat":"31.2882","category":"68","category_name":"快餐厅","address":"嘉定区墨玉南路1055号嘉亭荟生活广场1楼142号商铺(近曹安公路)"},{"poiid":"B2094655D36CA5FB479B","title":"博园路于田路","lon":"121.17979","lat":"31.28042","category":"38","category_name":"公交车站","address":""},{"poiid":"B2094757D06AA4FF4193","title":"上岛咖啡(安亭店)","lon":"121.16403","lat":"31.28938","category":"260","category_name":"其他","address":"嘉定区安亭镇墨玉路29号(近曹安路)"},{"poiid":"B2094757D16FA4F9489F","title":"东昌奥迪","lon":"121.17187328","lat":"31.283128778","category":"263","category_name":"公司","address":"上海博园路"},{"poiid":"B2094654DB65A2F9409A","title":"魏玛原墅","lon":"121.185","lat":"31.2769","category":"47","category_name":"住宅区","address":"安礼路118弄"},{"poiid":"B2094750D26FA6F8469D","title":"旺池 安亭店","lon":"121.1633617","lat":"31.2886961","category":"71","category_name":"四川菜","address":"嘉定区墨玉南路1055号嘉亭荟广场4楼"},{"poiid":"B2094757D06FA7FF4993","title":"上海汽车会展中心","lon":"121.16795928","lat":"31.278010673","category":"260","category_name":"其他","address":"嘉定区安亭博园路7575号"},{"poiid":"B2094757D068A0F9429F","title":"汽车博览公园","lon":"121.17890148","lat":"31.279719137","category":"196","category_name":"公园","address":"嘉定区安亭博园路7001号"},{"poiid":"B2094757D16FABFB479C","title":"嘉亭荟城市生活广场","lon":"121.165837289","lat":"31.2809907347","category":"500","category_name":"未知分类","address":"嘉定区墨玉南路1055号"},{"poiid":"B2094757D06FA5F54892","title":"汽车博物馆","lon":"121.17047944","lat":"31.278213122","category":"182","category_name":"博物馆","address":"嘉定区安亭博园路7565号(近墨玉南路)"},{"poiid":"B2094655D36CA4FD4792","title":"安亭地铁站","lon":"121.16349","lat":"31.28808","category":"36","category_name":"地铁站","address":""},{"poiid":"B2094750D36FA7F44592","title":"嘉亭荟","lon":"121.162284","lat":"31.287944","category":"249","category_name":"购物服务","address":null},{"poiid":"B2094757D66EA2FC479C","title":"上海颖奕高尔夫皇冠假日酒店","lon":"121.19218601165676","lat":"31.272550158135264","category":"214","category_name":"四星级宾馆","address":"上海市嘉定区博园路6555号"},{"poiid":"B2094757DA68A1F8449F","title":"汉泰东南亚风味餐厅(安亭店)","lon":"121.16259098052979","lat":"31.28860002389548","category":"99","category_name":"泰国／越南菜品餐厅","address":"嘉定区墨玉南路1055号嘉亭荟城市生活广场401-403铺"},{"poiid":"B2094757D06FA0FD4498","title":"上海大众汽车三厂","lon":"121.18375172","lat":"31.2878409011","category":"46","category_name":"楼宇","address":"上海嘉定区曹安公路5288号"},{"poiid":"B2094654D46BA0FF4793","title":"上海汽车集团股份有限公司","lon":"121.18931","lat":"31.2774","category":"263","category_name":"公司","address":"上海市嘉定区安研路201号"},{"poiid":"B2094655D36DA6FC4898","title":"安亭","lon":"121.16234","lat":"31.28835","category":"38","category_name":"公交车站","address":""},{"poiid":"B2094654D46BA0FF4899","title":"上海国际汽车城大厦","lon":"121.172","lat":"31.2875","category":"46","category_name":"楼宇","address":"上海市嘉定区安亭镇墨玉南路888号"},{"poiid":"B2094757D06FA6F44093","title":"安亭新镇","lon":"121.17115377","lat":"31.27022459","category":"47","category_name":"住宅区","address":"安亭镇北安德路255号"},{"poiid":"B2094757D068A2F4479D","title":"新词大酒店","lon":"121.16370824551","lat":"31.291529215577","category":"76","category_name":"上海菜","address":"嘉定区墨玉路29号(近曹安路)"},{"poiid":"B2094757D06FA7FF499B","title":"上海汽车城地铁站","lon":"121.18055783","lat":"31.285682395","category":"36","category_name":"地铁站","address":"上海轨道交通 十一号线 轨交上海汽车城站 11"},{"poiid":"B2094750D26EABF8489E","title":"星巴克 (嘉亭荟店) STARBUCKS COFFEE","lon":"121.1633617","lat":"31.2886961","category":"260","category_name":"其他","address":"嘉定区墨玉南路1055号嘉亭荟生活广场内(近曹安公路)"},{"poiid":"B2094757D06FA3F9499A","title":"台商庙会","lon":"121.1678981","lat":"31.2805262","category":"91","category_name":"台湾菜","address":"嘉定区博园路7575号(近汽车城)"},{"poiid":"B2094750D769A3FB459E","title":"鲜芋仙(嘉亭荟店)","lon":"121.163","lat":"31.2882","category":"67","category_name":"甜品店","address":"嘉定区墨玉南路1055号嘉亭荟城市生活广场2楼"},{"poiid":"B2094757DB68A5F4459A","title":"必胜客(上海嘉葶荟店)","lon":"121.1633834","lat":"31.2886966","category":"94","category_name":"西餐厅","address":"嘉定区墨玉南路1055号嘉亭荟城市生活广场2楼220号铺、223号铺(近地铁11号线安亭站)"},{"poiid":"B2094750D76FAAFC4899","title":"哈根达斯(嘉亭荟店)","lon":"121.163","lat":"31.2882","category":"113","category_name":"冷饮店","address":"嘉定区墨玉南路1055号嘉亭荟城市生活广场1楼"},{"poiid":"B2094655D36CA4FD469C","title":"安亭镇","lon":"121.16529","lat":"31.29153","category":"38","category_name":"公交车站","address":""},{"poiid":"B2094751D269A2F44399","title":"CGV国际影城(安亭店)","lon":"121.16231133862311","lat":"31.288998117584235","category":"178","category_name":"电影院","address":"嘉定区墨玉南路1055号嘉亭荟城市生活广场3楼305号(近11号线安亭汽车城站)"},{"poiid":"B2094750D76FA7FA4393","title":"望湘园(安亭店)","lon":"121.163","lat":"31.2882","category":"77","category_name":"湖南菜","address":"嘉定区墨玉南路1055号嘉亭荟广场3楼"},{"poiid":"B2094750D76DA5FB409A","title":"吉旺港式茶餐厅(嘉亭荟店)","lon":"121.163","lat":"31.2882","category":"72","category_name":"广东菜","address":"嘉定区墨玉南路1055号嘉亭荟生活广场2号A区4楼410-411号铺(近11号线安亭汽车城站)"},{"poiid":"B2094654DB65A3FE4399","title":"嘉正国际","lon":"121.16289","lat":"31.28977","category":"46","category_name":"楼宇","address":"嘉定区墨玉路28号"},{"poiid":"B2094757D06BA6FB499D","title":"上海颖奕安亭高尔夫俱乐部","lon":"121.190217789","lat":"31.2716796532","category":"500","category_name":"未知分类","address":"上海市嘉定区安亭镇博园路6555号201824"},{"poiid":"B2094757D16FABF8429D","title":"澳门豆捞坊","lon":"121.1636","lat":"31.29124","category":"86","category_name":"火锅店","address":"嘉定区墨玉南路1055号嘉亭荟城市生活广场2A412号铺(近安亭地铁站)"},{"poiid":"B2094757DB68A4F8469C","title":"小南国 嘉亭荟店","lon":"121.1633834","lat":"31.2886966","category":"76","category_name":"上海菜","address":"嘉定区墨玉南路1055号嘉亭荟生活广场2楼(近地铁11号线安亭站)"},{"poiid":"B2094757DA68A1F84499","title":"Costa Coffee(安亭店)","lon":"121.16276264190674","lat":"31.288545013134225","category":"65","category_name":"咖啡厅","address":"嘉定区墨玉南路1055号嘉亭荟城市生活广场2楼202号铺(近11号线安亭汽车城站)"},{"poiid":"B2094750D76FAAFD4999","title":"PANKOO釜山料理(嘉亭荟店)","lon":"121.163","lat":"31.2882","category":"96","category_name":"韩国料理","address":"嘉定区墨玉南路1055号嘉亭荟生活广场3楼328-329号铺(近11号线安亭汽车城站)"},{"poiid":"B2094750D26CA6FD459F","title":"避风塘 嘉亭荟","lon":"121.1633834","lat":"31.2886966","category":"72","category_name":"广东菜","address":"嘉定区墨玉南路1055弄嘉亭荟生活广场1楼111号铺(近11号线安亭汽车城站)"},{"poiid":"B2094757D06BA2FF409D","title":"甜蜜蜜安亭新镇店","lon":"121.16875457","lat":"31.275459289","category":"67","category_name":"甜品店","address":"嘉定区安亭镇安智路109、111号(近国际汽车城)"},{"poiid":"B2094757D06AA3FF4899","title":"景怡轩中餐厅","lon":"121.17162","lat":"31.283","category":"76","category_name":"上海菜","address":"嘉定区安驰路569号(近国际汽车城)"},{"poiid":"B2094750D768A1FC419A","title":"赤坂亭(嘉亭荟店)","lon":"121.163","lat":"31.2882","category":"269","category_name":"烧烤","address":"嘉定区墨玉南路1055号嘉亭荟城市生活广场3楼331号铺(近安亭汽车城地铁站)"},{"poiid":"B2094750D26CABFF439E","title":"伊秀手握寿司 嘉亭荟店","lon":"121.1633834","lat":"31.2886966","category":"95","category_name":"日本料理","address":"嘉定区墨玉南路1055号嘉亭荟城市生活广场3楼(近安亭地铁站)"},{"poiid":"B2094654DB65A2F4419A","title":"上海国际汽车城","lon":"121.17235","lat":"31.28267","category":"158","category_name":"汽车销售","address":"安驰路569号"},{"poiid":"B2094750DA6FA1FD4698","title":"一茶一坐（安亭店）","lon":"121.16338","lat":"31.28871","category":"91","category_name":"台湾菜","address":"嘉定区墨玉南路1055号嘉亭荟城市生活广场1楼122号铺(近11号线安亭汽车城站)"},{"poiid":"B2094757D66EA1FB4092","title":"西上海大众","lon":"121.162550289","lat":"31.2869238567","category":"500","category_name":"未知分类","address":"上海墨玉南路999号"},{"poiid":"B2094757D169A3F94999","title":"中环百联","lon":"121.17650928","lat":"31.275700625","category":"249","category_name":"购物服务","address":"上海真光路"},{"poiid":"B2094654D46BA2F8459B","title":"国家机动车产品质量监督检验中心(上海)","lon":"121.18338","lat":"31.28162","category":"250","category_name":"公园户外","address":"于田南路68"},{"poiid":"B2094757D064A7FF4893","title":"G2京沪G42沪蓉高速安亭汽车城收费站","lon":"121.164862811","lat":"31.2700535057","category":"267","category_name":"收费站","address":"上海G2京沪G42沪蓉高速安亭汽车城收费站"},{"poiid":"B2094655D36DA6FE449B","title":"上海汽车城","lon":"121.18056","lat":"31.28567","category":"38","category_name":"公交车站","address":""},{"poiid":"B2094655D36CA5FB4799","title":"博园路米泉南路","lon":"121.17505","lat":"31.28233","category":"38","category_name":"公交车站","address":""},{"poiid":"B2094757D069ABFB4893","title":"上海二手车市场","lon":"121.166156","lat":"31.28585","category":"500","category_name":"未知分类","address":"上海墨玉南路1000号"},{"poiid":"B2094750D76DAAF44998","title":"新石器烤肉(嘉亭荟店)","lon":"121.163","lat":"31.2882","category":"68","category_name":"快餐厅","address":"嘉定区墨玉南路1055号嘉亭荟生活广场1楼142号商铺(近曹安公路)"},{"poiid":"B2094655D36CA5FB479B","title":"博园路于田路","lon":"121.17979","lat":"31.28042","category":"38","category_name":"公交车站","address":""},{"poiid":"B2094757D06AA4FF4193","title":"上岛咖啡(安亭店)","lon":"121.16403","lat":"31.28938","category":"260","category_name":"其他","address":"嘉定区安亭镇墨玉路29号(近曹安路)"},{"poiid":"B2094757D16FA4F9489F","title":"东昌奥迪","lon":"121.17187328","lat":"31.283128778","category":"263","category_name":"公司","address":"上海博园路"},{"poiid":"B2094654DB65A2F9409A","title":"魏玛原墅","lon":"121.185","lat":"31.2769","category":"47","category_name":"住宅区","address":"安礼路118弄"},{"poiid":"B2094750D26FA6F8469D","title":"旺池 安亭店","lon":"121.1633617","lat":"31.2886961","category":"71","category_name":"四川菜","address":"嘉定区墨玉南路1055号嘉亭荟广场4楼"},{"poiid":"B2094757D06FA7FF4993","title":"上海汽车会展中心","lon":"121.16795928","lat":"31.278010673","category":"260","category_name":"其他","address":"嘉定区安亭博园路7575号"},{"poiid":"B2094757D068A0F9429F","title":"汽车博览公园","lon":"121.17890148","lat":"31.279719137","category":"196","category_name":"公园","address":"嘉定区安亭博园路7001号"},{"poiid":"B2094757D16FABFB479C","title":"嘉亭荟城市生活广场","lon":"121.165837289","lat":"31.2809907347","category":"500","category_name":"未知分类","address":"嘉定区墨玉南路1055号"},{"poiid":"B2094757D06FA5F54892","title":"汽车博物馆","lon":"121.17047944","lat":"31.278213122","category":"182","category_name":"博物馆","address":"嘉定区安亭博园路7565号(近墨玉南路)"},{"poiid":"B2094655D36CA4FD4792","title":"安亭地铁站","lon":"121.16349","lat":"31.28808","category":"36","category_name":"地铁站","address":""},{"poiid":"B2094750D36FA7F44592","title":"嘉亭荟","lon":"121.162284","lat":"31.287944","category":"249","category_name":"购物服务","address":null},{"poiid":"B2094757D66EA2FC479C","title":"上海颖奕高尔夫皇冠假日酒店","lon":"121.19218601165676","lat":"31.272550158135264","category":"214","category_name":"四星级宾馆","address":"上海市嘉定区博园路6555号"},{"poiid":"B2094757DA68A1F8449F","title":"汉泰东南亚风味餐厅(安亭店)","lon":"121.16259098052979","lat":"31.28860002389548","category":"99","category_name":"泰国／越南菜品餐厅","address":"嘉定区墨玉南路1055号嘉亭荟城市生活广场401-403铺"},{"poiid":"B2094757D06FA0FD4498","title":"上海大众汽车三厂","lon":"121.18375172","lat":"31.2878409011","category":"46","category_name":"楼宇","address":"上海嘉定区曹安公路5288号"},{"poiid":"B2094654D46BA0FF4793","title":"上海汽车集团股份有限公司","lon":"121.18931","lat":"31.2774","category":"263","category_name":"公司","address":"上海市嘉定区安研路201号"},{"poiid":"B2094655D36DA6FC4898","title":"安亭","lon":"121.16234","lat":"31.28835","category":"38","category_name":"公交车站","address":""},{"poiid":"B2094654D46BA0FF4899","title":"上海国际汽车城大厦","lon":"121.172","lat":"31.2875","category":"46","category_name":"楼宇","address":"上海市嘉定区安亭镇墨玉南路888号"},{"poiid":"B2094757D06FA6F44093","title":"安亭新镇","lon":"121.17115377","lat":"31.27022459","category":"47","category_name":"住宅区","address":"安亭镇北安德路255号"},{"poiid":"B2094757D068A2F4479D","title":"新词大酒店","lon":"121.16370824551","lat":"31.291529215577","category":"76","category_name":"上海菜","address":"嘉定区墨玉路29号(近曹安路)"},{"poiid":"B2094757D06FA7FF499B","title":"上海汽车城地铁站","lon":"121.18055783","lat":"31.285682395","category":"36","category_name":"地铁站","address":"上海轨道交通 十一号线 轨交上海汽车城站 11"},{"poiid":"B2094750D26EABF8489E","title":"星巴克 (嘉亭荟店) STARBUCKS COFFEE","lon":"121.1633617","lat":"31.2886961","category":"260","category_name":"其他","address":"嘉定区墨玉南路1055号嘉亭荟生活广场内(近曹安公路)"},{"poiid":"B2094757D06FA3F9499A","title":"台商庙会","lon":"121.1678981","lat":"31.2805262","category":"91","category_name":"台湾菜","address":"嘉定区博园路7575号(近汽车城)"},{"poiid":"B2094750D769A3FB459E","title":"鲜芋仙(嘉亭荟店)","lon":"121.163","lat":"31.2882","category":"67","category_name":"甜品店","address":"嘉定区墨玉南路1055号嘉亭荟城市生活广场2楼"},{"poiid":"B2094757DB68A5F4459A","title":"必胜客(上海嘉葶荟店)","lon":"121.1633834","lat":"31.2886966","category":"94","category_name":"西餐厅","address":"嘉定区墨玉南路1055号嘉亭荟城市生活广场2楼220号铺、223号铺(近地铁11号线安亭站)"},{"poiid":"B2094750D76FAAFC4899","title":"哈根达斯(嘉亭荟店)","lon":"121.163","lat":"31.2882","category":"113","category_name":"冷饮店","address":"嘉定区墨玉南路1055号嘉亭荟城市生活广场1楼"},{"poiid":"B2094655D36CA4FD469C","title":"安亭镇","lon":"121.16529","lat":"31.29153","category":"38","category_name":"公交车站","address":""},{"poiid":"B2094751D269A2F44399","title":"CGV国际影城(安亭店)","lon":"121.16231133862311","lat":"31.288998117584235","category":"178","category_name":"电影院","address":"嘉定区墨玉南路1055号嘉亭荟城市生活广场3楼305号(近11号线安亭汽车城站)"},{"poiid":"B2094750D76FA7FA4393","title":"望湘园(安亭店)","lon":"121.163","lat":"31.2882","category":"77","category_name":"湖南菜","address":"嘉定区墨玉南路1055号嘉亭荟广场3楼"},{"poiid":"B2094750D76DA5FB409A","title":"吉旺港式茶餐厅(嘉亭荟店)","lon":"121.163","lat":"31.2882","category":"72","category_name":"广东菜","address":"嘉定区墨玉南路1055号嘉亭荟生活广场2号A区4楼410-411号铺(近11号线安亭汽车城站)"},{"poiid":"B2094654DB65A3FE4399","title":"嘉正国际","lon":"121.16289","lat":"31.28977","category":"46","category_name":"楼宇","address":"嘉定区墨玉路28号"},{"poiid":"B2094757D06BA6FB499D","title":"上海颖奕安亭高尔夫俱乐部","lon":"121.190217789","lat":"31.2716796532","category":"500","category_name":"未知分类","address":"上海市嘉定区安亭镇博园路6555号201824"},{"poiid":"B2094757D16FABF8429D","title":"澳门豆捞坊","lon":"121.1636","lat":"31.29124","category":"86","category_name":"火锅店","address":"嘉定区墨玉南路1055号嘉亭荟城市生活广场2A412号铺(近安亭地铁站)"},{"poiid":"B2094757DB68A4F8469C","title":"小南国 嘉亭荟店","lon":"121.1633834","lat":"31.2886966","category":"76","category_name":"上海菜","address":"嘉定区墨玉南路1055号嘉亭荟生活广场2楼(近地铁11号线安亭站)"},{"poiid":"B2094757DA68A1F84499","title":"Costa Coffee(安亭店)","lon":"121.16276264190674","lat":"31.288545013134225","category":"65","category_name":"咖啡厅","address":"嘉定区墨玉南路1055号嘉亭荟城市生活广场2楼202号铺(近11号线安亭汽车城站)"},{"poiid":"B2094750D76FAAFD4999","title":"PANKOO釜山料理(嘉亭荟店)","lon":"121.163","lat":"31.2882","category":"96","category_name":"韩国料理","address":"嘉定区墨玉南路1055号嘉亭荟生活广场3楼328-329号铺(近11号线安亭汽车城站)"},{"poiid":"B2094750D26CA6FD459F","title":"避风塘 嘉亭荟","lon":"121.1633834","lat":"31.2886966","category":"72","category_name":"广东菜","address":"嘉定区墨玉南路1055弄嘉亭荟生活广场1楼111号铺(近11号线安亭汽车城站)"},{"poiid":"B2094757D06BA2FF409D","title":"甜蜜蜜安亭新镇店","lon":"121.16875457","lat":"31.275459289","category":"67","category_name":"甜品店","address":"嘉定区安亭镇安智路109、111号(近国际汽车城)"},{"poiid":"B2094757D06AA3FF4899","title":"景怡轩中餐厅","lon":"121.17162","lat":"31.283","category":"76","category_name":"上海菜","address":"嘉定区安驰路569号(近国际汽车城)"},{"poiid":"B2094750D768A1FC419A","title":"赤坂亭(嘉亭荟店)","lon":"121.163","lat":"31.2882","category":"269","category_name":"烧烤","address":"嘉定区墨玉南路1055号嘉亭荟城市生活广场3楼331号铺(近安亭汽车城地铁站)"},{"poiid":"B2094750D26CABFF439E","title":"伊秀手握寿司 嘉亭荟店","lon":"121.1633834","lat":"31.2886966","category":"95","category_name":"日本料理","address":"嘉定区墨玉南路1055号嘉亭荟城市生活广场3楼(近安亭地铁站)"},{"poiid":"B2094654DB65A2F4419A","title":"上海国际汽车城","lon":"121.17235","lat":"31.28267","category":"158","category_name":"汽车销售","address":"安驰路569号"},{"poiid":"B2094750DA6FA1FD4698","title":"一茶一坐（安亭店）","lon":"121.16338","lat":"31.28871","category":"91","category_name":"台湾菜","address":"嘉定区墨玉南路1055号嘉亭荟城市生活广场1楼122号铺(近11号线安亭汽车城站)"},{"poiid":"B2094757D66EA1FB4092","title":"西上海大众","lon":"121.162550289","lat":"31.2869238567","category":"500","category_name":"未知分类","address":"上海墨玉南路999号"},{"poiid":"B2094757D169A3F94999","title":"中环百联","lon":"121.17650928","lat":"31.275700625","category":"249","category_name":"购物服务","address":"上海真光路"},{"poiid":"B2094654D46BA2F8459B","title":"国家机动车产品质量监督检验中心(上海)","lon":"121.18338","lat":"31.28162","category":"250","category_name":"公园户外","address":"于田南路68"},{"poiid":"B2094757D064A7FF4893","title":"G2京沪G42沪蓉高速安亭汽车城收费站","lon":"121.164862811","lat":"31.2700535057","category":"267","category_name":"收费站","address":"上海G2京沪G42沪蓉高速安亭汽车城收费站"},{"poiid":"B2094655D36DA6FE449B","title":"上海汽车城","lon":"121.18056","lat":"31.28567","category":"38","category_name":"公交车站","address":""},{"poiid":"B2094655D36CA5FB4799","title":"博园路米泉南路","lon":"121.17505","lat":"31.28233","category":"38","category_name":"公交车站","address":""},{"poiid":"B2094757D069ABFB4893","title":"上海二手车市场","lon":"121.166156","lat":"31.28585","category":"500","category_name":"未知分类","address":"上海墨玉南路1000号"},{"poiid":"B2094750D76DAAF44998","title":"新石器烤肉(嘉亭荟店)","lon":"121.163","lat":"31.2882","category":"68","category_name":"快餐厅","address":"嘉定区墨玉南路1055号嘉亭荟生活广场1楼142号商铺(近曹安公路)"},{"poiid":"B2094655D36CA5FB479B","title":"博园路于田路","lon":"121.17979","lat":"31.28042","category":"38","category_name":"公交车站","address":""},{"poiid":"B2094757D06AA4FF4193","title":"上岛咖啡(安亭店)","lon":"121.16403","lat":"31.28938","category":"260","category_name":"其他","address":"嘉定区安亭镇墨玉路29号(近曹安路)"},{"poiid":"B2094757D16FA4F9489F","title":"东昌奥迪","lon":"121.17187328","lat":"31.283128778","category":"263","category_name":"公司","address":"上海博园路"},{"poiid":"B2094654DB65A2F9409A","title":"魏玛原墅","lon":"121.185","lat":"31.2769","category":"47","category_name":"住宅区","address":"安礼路118弄"},{"poiid":"B2094750D26FA6F8469D","title":"旺池 安亭店","lon":"121.1633617","lat":"31.2886961","category":"71","category_name":"四川菜","address":"嘉定区墨玉南路1055号嘉亭荟广场4楼"},{"poiid":"B2094757D06FA7FF4993","title":"上海汽车会展中心","lon":"121.16795928","lat":"31.278010673","category":"260","category_name":"其他","address":"嘉定区安亭博园路7575号"},{"poiid":"B2094757D068A0F9429F","title":"汽车博览公园","lon":"121.17890148","lat":"31.279719137","category":"196","category_name":"公园","address":"嘉定区安亭博园路7001号"},{"poiid":"B2094757D16FABFB479C","title":"嘉亭荟城市生活广场","lon":"121.165837289","lat":"31.2809907347","category":"500","category_name":"未知分类","address":"嘉定区墨玉南路1055号"},{"poiid":"B2094757D06FA5F54892","title":"汽车博物馆","lon":"121.17047944","lat":"31.278213122","category":"182","category_name":"博物馆","address":"嘉定区安亭博园路7565号(近墨玉南路)"},{"poiid":"B2094655D36CA4FD4792","title":"安亭地铁站","lon":"121.16349","lat":"31.28808","category":"36","category_name":"地铁站","address":""},{"poiid":"B2094750D36FA7F44592","title":"嘉亭荟","lon":"121.162284","lat":"31.287944","category":"249","category_name":"购物服务","address":null},{"poiid":"B2094757D66EA2FC479C","title":"上海颖奕高尔夫皇冠假日酒店","lon":"121.19218601165676","lat":"31.272550158135264","category":"214","category_name":"四星级宾馆","address":"上海市嘉定区博园路6555号"},{"poiid":"B2094757DA68A1F8449F","title":"汉泰东南亚风味餐厅(安亭店)","lon":"121.16259098052979","lat":"31.28860002389548","category":"99","category_name":"泰国／越南菜品餐厅","address":"嘉定区墨玉南路1055号嘉亭荟城市生活广场401-403铺"},{"poiid":"B2094757D06FA0FD4498","title":"上海大众汽车三厂","lon":"121.18375172","lat":"31.2878409011","category":"46","category_name":"楼宇","address":"上海嘉定区曹安公路5288号"},{"poiid":"B2094654D46BA0FF4793","title":"上海汽车集团股份有限公司","lon":"121.18931","lat":"31.2774","category":"263","category_name":"公司","address":"上海市嘉定区安研路201号"},{"poiid":"B2094655D36DA6FC4898","title":"安亭","lon":"121.16234","lat":"31.28835","category":"38","category_name":"公交车站","address":""},{"poiid":"B2094654D46BA0FF4899","title":"上海国际汽车城大厦","lon":"121.172","lat":"31.2875","category":"46","category_name":"楼宇","address":"上海市嘉定区安亭镇墨玉南路888号"},{"poiid":"B2094757D06FA6F44093","title":"安亭新镇","lon":"121.17115377","lat":"31.27022459","category":"47","category_name":"住宅区","address":"安亭镇北安德路255号"},{"poiid":"B2094757D068A2F4479D","title":"新词大酒店","lon":"121.16370824551","lat":"31.291529215577","category":"76","category_name":"上海菜","address":"嘉定区墨玉路29号(近曹安路)"},{"poiid":"B2094757D06FA7FF499B","title":"上海汽车城地铁站","lon":"121.18055783","lat":"31.285682395","category":"36","category_name":"地铁站","address":"上海轨道交通 十一号线 轨交上海汽车城站 11"},{"poiid":"B2094750D26EABF8489E","title":"星巴克 (嘉亭荟店) STARBUCKS COFFEE","lon":"121.1633617","lat":"31.2886961","category":"260","category_name":"其他","address":"嘉定区墨玉南路1055号嘉亭荟生活广场内(近曹安公路)"},{"poiid":"B2094757D06FA3F9499A","title":"台商庙会","lon":"121.1678981","lat":"31.2805262","category":"91","category_name":"台湾菜","address":"嘉定区博园路7575号(近汽车城)"},{"poiid":"B2094750D769A3FB459E","title":"鲜芋仙(嘉亭荟店)","lon":"121.163","lat":"31.2882","category":"67","category_name":"甜品店","address":"嘉定区墨玉南路1055号嘉亭荟城市生活广场2楼"},{"poiid":"B2094757DB68A5F4459A","title":"必胜客(上海嘉葶荟店)","lon":"121.1633834","lat":"31.2886966","category":"94","category_name":"西餐厅","address":"嘉定区墨玉南路1055号嘉亭荟城市生活广场2楼220号铺、223号铺(近地铁11号线安亭站)"},{"poiid":"B2094750D76FAAFC4899","title":"哈根达斯(嘉亭荟店)","lon":"121.163","lat":"31.2882","category":"113","category_name":"冷饮店","address":"嘉定区墨玉南路1055号嘉亭荟城市生活广场1楼"},{"poiid":"B2094655D36CA4FD469C","title":"安亭镇","lon":"121.16529","lat":"31.29153","category":"38","category_name":"公交车站","address":""},{"poiid":"B2094751D269A2F44399","title":"CGV国际影城(安亭店)","lon":"121.16231133862311","lat":"31.288998117584235","category":"178","category_name":"电影院","address":"嘉定区墨玉南路1055号嘉亭荟城市生活广场3楼305号(近11号线安亭汽车城站)"},{"poiid":"B2094750D76FA7FA4393","title":"望湘园(安亭店)","lon":"121.163","lat":"31.2882","category":"77","category_name":"湖南菜","address":"嘉定区墨玉南路1055号嘉亭荟广场3楼"},{"poiid":"B2094750D76DA5FB409A","title":"吉旺港式茶餐厅(嘉亭荟店)","lon":"121.163","lat":"31.2882","category":"72","category_name":"广东菜","address":"嘉定区墨玉南路1055号嘉亭荟生活广场2号A区4楼410-411号铺(近11号线安亭汽车城站)"},{"poiid":"B2094654DB65A3FE4399","title":"嘉正国际","lon":"121.16289","lat":"31.28977","category":"46","category_name":"楼宇","address":"嘉定区墨玉路28号"},{"poiid":"B2094757D06BA6FB499D","title":"上海颖奕安亭高尔夫俱乐部","lon":"121.190217789","lat":"31.2716796532","category":"500","category_name":"未知分类","address":"上海市嘉定区安亭镇博园路6555号201824"},{"poiid":"B2094757D16FABF8429D","title":"澳门豆捞坊","lon":"121.1636","lat":"31.29124","category":"86","category_name":"火锅店","address":"嘉定区墨玉南路1055号嘉亭荟城市生活广场2A412号铺(近安亭地铁站)"},{"poiid":"B2094757DB68A4F8469C","title":"小南国 嘉亭荟店","lon":"121.1633834","lat":"31.2886966","category":"76","category_name":"上海菜","address":"嘉定区墨玉南路1055号嘉亭荟生活广场2楼(近地铁11号线安亭站)"},{"poiid":"B2094757DA68A1F84499","title":"Costa Coffee(安亭店)","lon":"121.16276264190674","lat":"31.288545013134225","category":"65","category_name":"咖啡厅","address":"嘉定区墨玉南路1055号嘉亭荟城市生活广场2楼202号铺(近11号线安亭汽车城站)"},{"poiid":"B2094750D76FAAFD4999","title":"PANKOO釜山料理(嘉亭荟店)","lon":"121.163","lat":"31.2882","category":"96","category_name":"韩国料理","address":"嘉定区墨玉南路1055号嘉亭荟生活广场3楼328-329号铺(近11号线安亭汽车城站)"},{"poiid":"B2094750D26CA6FD459F","title":"避风塘 嘉亭荟","lon":"121.1633834","lat":"31.2886966","category":"72","category_name":"广东菜","address":"嘉定区墨玉南路1055弄嘉亭荟生活广场1楼111号铺(近11号线安亭汽车城站)"},{"poiid":"B2094757D06BA2FF409D","title":"甜蜜蜜安亭新镇店","lon":"121.16875457","lat":"31.275459289","category":"67","category_name":"甜品店","address":"嘉定区安亭镇安智路109、111号(近国际汽车城)"},{"poiid":"B2094757D06AA3FF4899","title":"景怡轩中餐厅","lon":"121.17162","lat":"31.283","category":"76","category_name":"上海菜","address":"嘉定区安驰路569号(近国际汽车城)"},{"poiid":"B2094750D768A1FC419A","title":"赤坂亭(嘉亭荟店)","lon":"121.163","lat":"31.2882","category":"269","category_name":"烧烤","address":"嘉定区墨玉南路1055号嘉亭荟城市生活广场3楼331号铺(近安亭汽车城地铁站)"},{"poiid":"B2094750D26CABFF439E","title":"伊秀手握寿司 嘉亭荟店","lon":"121.1633834","lat":"31.2886966","category":"95","category_name":"日本料理","address":"嘉定区墨玉南路1055号嘉亭荟城市生活广场3楼(近安亭地铁站)"},{"poiid":"B2094654DB65A2F4419A","title":"上海国际汽车城","lon":"121.17235","lat":"31.28267","category":"158","category_name":"汽车销售","address":"安驰路569号"},{"poiid":"B2094750DA6FA1FD4698","title":"一茶一坐（安亭店）","lon":"121.16338","lat":"31.28871","category":"91","category_name":"台湾菜","address":"嘉定区墨玉南路1055号嘉亭荟城市生活广场1楼122号铺(近11号线安亭汽车城站)"},{"poiid":"B2094757D66EA1FB4092","title":"西上海大众","lon":"121.162550289","lat":"31.2869238567","category":"500","category_name":"未知分类","address":"上海墨玉南路999号"},{"poiid":"B2094757D169A3F94999","title":"中环百联","lon":"121.17650928","lat":"31.275700625","category":"249","category_name":"购物服务","address":"上海真光路"},{"poiid":"B2094654D46BA2F8459B","title":"国家机动车产品质量监督检验中心(上海)","lon":"121.18338","lat":"31.28162","category":"250","category_name":"公园户外","address":"于田南路68"},{"poiid":"B2094757D064A7FF4893","title":"G2京沪G42沪蓉高速安亭汽车城收费站","lon":"121.164862811","lat":"31.2700535057","category":"267","category_name":"收费站","address":"上海G2京沪G42沪蓉高速安亭汽车城收费站"},{"poiid":"B2094655D36DA6FE449B","title":"上海汽车城","lon":"121.18056","lat":"31.28567","category":"38","category_name":"公交车站","address":""},{"poiid":"B2094655D36CA5FB4799","title":"博园路米泉南路","lon":"121.17505","lat":"31.28233","category":"38","category_name":"公交车站","address":""},{"poiid":"B2094757D069ABFB4893","title":"上海二手车市场","lon":"121.166156","lat":"31.28585","category":"500","category_name":"未知分类","address":"上海墨玉南路1000号"},{"poiid":"B2094750D76DAAF44998","title":"新石器烤肉(嘉亭荟店)","lon":"121.163","lat":"31.2882","category":"68","category_name":"快餐厅","address":"嘉定区墨玉南路1055号嘉亭荟生活广场1楼142号商铺(近曹安公路)"},{"poiid":"B2094655D36CA5FB479B","title":"博园路于田路","lon":"121.17979","lat":"31.28042","category":"38","category_name":"公交车站","address":""},{"poiid":"B2094757D06AA4FF4193","title":"上岛咖啡(安亭店)","lon":"121.16403","lat":"31.28938","category":"260","category_name":"其他","address":"嘉定区安亭镇墨玉路29号(近曹安路)"},{"poiid":"B2094757D16FA4F9489F","title":"东昌奥迪","lon":"121.17187328","lat":"31.283128778","category":"263","category_name":"公司","address":"上海博园路"},{"poiid":"B2094654DB65A2F9409A","title":"魏玛原墅","lon":"121.185","lat":"31.2769","category":"47","category_name":"住宅区","address":"安礼路118弄"},{"poiid":"B2094750D26FA6F8469D","title":"旺池 安亭店","lon":"121.1633617","lat":"31.2886961","category":"71","category_name":"四川菜","address":"嘉定区墨玉南路1055号嘉亭荟广场4楼"}]