[{"poiid":"B2094757D068A2FF459F","title":"宝山区房地产交易中心","lon":"121.49867993","lat":"31.374190423","category":"249","category_name":"购物服务","address":"上海同泰路68号4楼"},{"poiid":"B2094655D26BA2FC469E","title":"吴淞码头","lon":"121.49789","lat":"31.37766","category":"38","category_name":"公交车站","address":""},{"poiid":"B2094757D06AA6F84598","title":"吴淞客运中心客运站","lon":"121.50122083","lat":"31.378539743","category":"35","category_name":"长途汽车站","address":"上海市宝山区化成路271号"},{"poiid":"B2094757D068A1FA489F","title":"新长江大酒店","lon":"121.499050731","lat":"31.3799873487","category":"217","category_name":"旅馆招待所","address":"上海宝山区淞宝路96号"},{"poiid":"B2094757D168ABF5439C","title":"星月国际商务广场","lon":"121.50003163","lat":"31.381648607","category":"500","category_name":"未知分类","address":"徐汇宜山路425号"},{"poiid":"B2094757D068A7F84592","title":"宝山区税务局","lon":"121.499759","lat":"31.375406","category":"500","category_name":"未知分类","address":"上海淞滨路28号"},{"poiid":"B2094757D06FAAFA419A","title":"吴淞中学","lon":"121.49766","lat":"31.37568","category":"55","category_name":"中学","address":"宝山区泰和路99号(近牡丹江路)"},{"poiid":"B2094757D06AA0FB4292","title":"外环隧道","lon":"121.50563412","lat":"31.376110483","category":"500","category_name":"未知分类","address":"上海外环线"},{"poiid":"B2094757D06FA0F8489C","title":"吴淞大桥","lon":"121.494989","lat":"31.372818","category":"260","category_name":"其他","address":"上海宝山区同济路淞滨路"},{"poiid":"B2094757D06FA6FB409F","title":"吴淞轮渡站","lon":"121.5012188","lat":"31.374578336","category":"35","category_name":"长途汽车站","address":"上海宝山区淞浦路114号"},{"poiid":"B2094757D069AAFA479B","title":"渔人码头","lon":"121.49790628","lat":"31.372561055","category":"251","category_name":"出行住宿","address":"上海吴淞"},{"poiid":"B2094757D16DABFA419D","title":"三岔港轮渡站","lon":"121.506923","lat":"31.371087","category":"35","category_name":"长途汽车站","address":"上海江东路一弄38号"},{"poiid":"B2094750DB64A5FA4492","title":"巨麦时尚KTV(淞宝店)","lon":"121.50075273408515","lat":"31.381164858525576","category":"170","category_name":"KTV","address":"宝山区淞宝路155号星月广场3楼"},{"poiid":"B2094757D06FA5F8449F","title":"吴淞新城","lon":"121.49651","lat":"31.371421","category":"47","category_name":"住宅区","address":"上海市普陀区延川路299号"},{"poiid":"B2094655D36CA2FA4598","title":"三岔港","lon":"121.50869","lat":"31.3698","category":"38","category_name":"公交车站","address":"江东路121号"},{"poiid":"B2094654D46BA3F5459D","title":"上海三港码头(三岔港轮渡站东)","lon":"121.5072","lat":"31.37105","category":"34","category_name":"港口码头","address":""},{"poiid":"B2094750DA65A7F9439D","title":"弄堂口","lon":"121.500152","lat":"31.379171","category":"75","category_name":"浙江菜","address":"宝山区淞宝路155弄星月国际商务广场29号(近永清路)"},{"poiid":"B2094655D26BA1F84598","title":"牡丹江路吴淞医院","lon":"121.4972","lat":"31.37913","category":"162","category_name":"医院","address":""},{"poiid":"B2094654D469AAFD439B","title":"上海海事局吴淞海事处专用码头","lon":"121.50117","lat":"31.37341","category":"34","category_name":"港口码头","address":"淞浦路181"},{"poiid":"B2094757D165A6FF4292","title":"宝山区社会保险基金管理中心","lon":"121.495352231","lat":"31.3711405909","category":"500","category_name":"未知分类","address":"上海宝山区淞兴路309号"},{"poiid":"B2094654D46BA3FA4592","title":"上海三港集装箱码头","lon":"121.50834","lat":"31.37063","category":"34","category_name":"港口码头","address":"江东路1号"},{"poiid":"B2094654D46AA2FE419A","title":"川福火锅 淞滨店","lon":"121.49659170423","lat":"31.373469886091","category":"86","category_name":"火锅店","address":"宝山区淞滨路156号(班溪路淞滨路)"},{"poiid":"B2094757D16AAAF44499","title":"地球","lon":"121.50335447","lat":"31.372226613","category":"248","category_name":"生活娱乐","address":"上海水蓝色星球"},{"poiid":"B2094757D069AAFA4592","title":"吴淞口国际邮轮码头","lon":"121.499","lat":"31.3796","category":"260","category_name":"其他","address":"上海宝杨路1号"},{"poiid":"B2094757D069A6FF449C","title":"中国工商银行(吴淞支行)","lon":"121.49517","lat":"31.37223","category":"150","category_name":"银行","address":"上海宝山区淞滨路318号近同济路  "},{"poiid":"B2094654D46BA3FA4693","title":"三港码头(江心沙路)","lon":"121.50857","lat":"31.3698","category":"34","category_name":"港口码头","address":"江心沙路3750"},{"poiid":"B2094654D469ABF5439A","title":"长江口商城","lon":"121.50129","lat":"31.37501","category":"119","category_name":"商场","address":""},{"poiid":"B2094757D465ABF4429E","title":"淞滨路砂锅馄饨","lon":"121.501186054","lat":"31.375434793","category":"68","category_name":"快餐厅","address":"淞滨路近吴淞码头"},{"poiid":"B2094751D56FA7FA439A","title":"横店电影城","lon":"121.499498","lat":"31.378073","category":"178","category_name":"电影院","address":"上海市宝山区淞宝路155弄71号一楼"},{"poiid":"B2094757D568A0FB459D","title":"联和滨江大厦","lon":"121.501","lat":"31.377","category":"46","category_name":"楼宇","address":"丰台学城海鹰路1号,3号"},{"poiid":"B2094654D469AAFD429D","title":"吴淞站","lon":"121.501","lat":"31.37538","category":"35","category_name":"长途汽车站","address":"淞浦路100"},{"poiid":"B2094757D569A3F54099","title":"上海港吴淞客运中心客运站","lon":"121.50186089","lat":"31.37859239","category":"35","category_name":"长途汽车站","address":"中国上海市宝山区化成路"},{"poiid":"B2094757D66BA5F4429C","title":"老街小菜馆","lon":"121.49915881808","lat":"31.373547588504","category":"76","category_name":"上海菜","address":"宝山区淞兴路149号(淞兴路同泰路)"},{"poiid":"B2094757D465A0FA449D","title":"魔锅坊麻辣香锅 吴淞店","lon":"121.498840054","lat":"31.372756793","category":"71","category_name":"四川菜","address":"宝山区同泰路59号(近吴淞码头)"},{"poiid":"B2094654D469AAFD4293","title":"上海市宝山区淞兴路第一小学","lon":"121.50041","lat":"31.37365","category":"56","category_name":"小学","address":"宝山区淞兴路40号(淞滨支路淞兴西路)"},{"poiid":"B2094655D264A1F44893","title":"吴淞老镇三街坊","lon":"121.497482","lat":"31.374553","category":"47","category_name":"住宅区","address":"上海市宝山区同泰路135弄"},{"poiid":"B2094750D76EA7FF4393","title":"吴淞馄饨店","lon":"121.498","lat":"31.374","category":"68","category_name":"快餐厅","address":"宝山区北兴路84号(三阳路同泰路)"},{"poiid":"B2094654D46AA0F94199","title":"春泥酒楼","lon":"121.49774","lat":"31.37271","category":"76","category_name":"上海菜","address":"宝山区淞兴路151号(近宝山区房产交易中心)"},{"poiid":"B2094655D265ABFD469A","title":"长江口大楼","lon":"121.49967","lat":"31.37551","category":"46","category_name":"楼宇","address":"淞滨路1号"},{"poiid":"B2094654D469AAFD479C","title":"小绍兴 淞滨店","lon":"121.500228054","lat":"31.375448793","category":"68","category_name":"快餐厅","address":"宝山区淞滨路58号(淞滨路牡丹江路)"},{"poiid":"B209475DD26EAAFB4799","title":"UME影城宝山店","lon":"121.501152","lat":"31.376657","category":"500","category_name":"未知分类","address":"上海市 上海市宝山区牡丹江路318号诺亚新天地4楼"},{"poiid":"B2094757D16FA0FE429B","title":"宝山工商局","lon":"121.499763489","lat":"31.3754024506","category":"500","category_name":"未知分类","address":"上海淞滨路28号"},{"poiid":"B2094757D465A7FF4499","title":"北兴饮食店","lon":"121.499257054","lat":"31.373863793","category":"247","category_name":"餐饮美食","address":"北兴路84号近淞滨路"},{"poiid":"B2094655D36DA7F5459B","title":"淞滨路牡丹江路","lon":"121.49912","lat":"31.37502","category":"38","category_name":"公交车站","address":""},{"poiid":"B2094655D26BA1F8459B","title":"牡丹江路吴淞码头","lon":"121.49923","lat":"31.37505","category":"38","category_name":"公交车站","address":""},{"poiid":"B2094654D46AA2FE4292","title":"好德(淞滨路)","lon":"121.49941","lat":"31.37488","category":"117","category_name":"便民商店/便利店","address":""},{"poiid":"B2094654D469ABF5499C","title":"宝山区地税局","lon":"121.49997","lat":"31.37552","category":"250","category_name":"公园户外","address":"淞滨路28"},{"poiid":"B2094654D46AA2FE4298","title":"光明便利NO.410","lon":"121.49913","lat":"31.37472","category":"117","category_name":"便民商店/便利店","address":"淞滨路68甲"},{"poiid":"B2094655D36DA1F8429D","title":"外环隧道","lon":"121.50045","lat":"31.37633","category":"250","category_name":"公园户外","address":""},{"poiid":"B2094752D36DABFE499D","title":"横店影城","lon":"121.500458","lat":"31.380585","category":"178","category_name":"电影院","address":"淞宝路155号星月国际广场"},{"poiid":"B2094757D068A2FF459F","title":"宝山区房地产交易中心","lon":"121.49867993","lat":"31.374190423","category":"249","category_name":"购物服务","address":"上海同泰路68号4楼"},{"poiid":"B2094655D26BA2FC469E","title":"吴淞码头","lon":"121.49789","lat":"31.37766","category":"38","category_name":"公交车站","address":""},{"poiid":"B2094757D06AA6F84598","title":"吴淞客运中心客运站","lon":"121.50122083","lat":"31.378539743","category":"35","category_name":"长途汽车站","address":"上海市宝山区化成路271号"},{"poiid":"B2094757D068A1FA489F","title":"新长江大酒店","lon":"121.499050731","lat":"31.3799873487","category":"217","category_name":"旅馆招待所","address":"上海宝山区淞宝路96号"},{"poiid":"B2094757D168ABF5439C","title":"星月国际商务广场","lon":"121.50003163","lat":"31.381648607","category":"500","category_name":"未知分类","address":"徐汇宜山路425号"},{"poiid":"B2094757D068A7F84592","title":"宝山区税务局","lon":"121.499759","lat":"31.375406","category":"500","category_name":"未知分类","address":"上海淞滨路28号"},{"poiid":"B2094757D06FAAFA419A","title":"吴淞中学","lon":"121.49766","lat":"31.37568","category":"55","category_name":"中学","address":"宝山区泰和路99号(近牡丹江路)"},{"poiid":"B2094757D06AA0FB4292","title":"外环隧道","lon":"121.50563412","lat":"31.376110483","category":"500","category_name":"未知分类","address":"上海外环线"},{"poiid":"B2094757D06FA0F8489C","title":"吴淞大桥","lon":"121.494989","lat":"31.372818","category":"260","category_name":"其他","address":"上海宝山区同济路淞滨路"},{"poiid":"B2094757D06FA6FB409F","title":"吴淞轮渡站","lon":"121.5012188","lat":"31.374578336","category":"35","category_name":"长途汽车站","address":"上海宝山区淞浦路114号"},{"poiid":"B2094757D069AAFA479B","title":"渔人码头","lon":"121.49790628","lat":"31.372561055","category":"251","category_name":"出行住宿","address":"上海吴淞"},{"poiid":"B2094757D16DABFA419D","title":"三岔港轮渡站","lon":"121.506923","lat":"31.371087","category":"35","category_name":"长途汽车站","address":"上海江东路一弄38号"},{"poiid":"B2094750DB64A5FA4492","title":"巨麦时尚KTV(淞宝店)","lon":"121.50075273408515","lat":"31.381164858525576","category":"170","category_name":"KTV","address":"宝山区淞宝路155号星月广场3楼"},{"poiid":"B2094757D06FA5F8449F","title":"吴淞新城","lon":"121.49651","lat":"31.371421","category":"47","category_name":"住宅区","address":"上海市普陀区延川路299号"},{"poiid":"B2094655D36CA2FA4598","title":"三岔港","lon":"121.50869","lat":"31.3698","category":"38","category_name":"公交车站","address":"江东路121号"},{"poiid":"B2094654D46BA3F5459D","title":"上海三港码头(三岔港轮渡站东)","lon":"121.5072","lat":"31.37105","category":"34","category_name":"港口码头","address":""},{"poiid":"B2094750DA65A7F9439D","title":"弄堂口","lon":"121.500152","lat":"31.379171","category":"75","category_name":"浙江菜","address":"宝山区淞宝路155弄星月国际商务广场29号(近永清路)"},{"poiid":"B2094655D26BA1F84598","title":"牡丹江路吴淞医院","lon":"121.4972","lat":"31.37913","category":"162","category_name":"医院","address":""},{"poiid":"B2094654D469AAFD439B","title":"上海海事局吴淞海事处专用码头","lon":"121.50117","lat":"31.37341","category":"34","category_name":"港口码头","address":"淞浦路181"},{"poiid":"B2094757D165A6FF4292","title":"宝山区社会保险基金管理中心","lon":"121.495352231","lat":"31.3711405909","category":"500","category_name":"未知分类","address":"上海宝山区淞兴路309号"},{"poiid":"B2094654D46BA3FA4592","title":"上海三港集装箱码头","lon":"121.50834","lat":"31.37063","category":"34","category_name":"港口码头","address":"江东路1号"},{"poiid":"B2094654D46AA2FE419A","title":"川福火锅 淞滨店","lon":"121.49659170423","lat":"31.373469886091","category":"86","category_name":"火锅店","address":"宝山区淞滨路156号(班溪路淞滨路)"},{"poiid":"B2094757D16AAAF44499","title":"地球","lon":"121.50335447","lat":"31.372226613","category":"248","category_name":"生活娱乐","address":"上海水蓝色星球"},{"poiid":"B2094757D069AAFA4592","title":"吴淞口国际邮轮码头","lon":"121.499","lat":"31.3796","category":"260","category_name":"其他","address":"上海宝杨路1号"},{"poiid":"B2094757D069A6FF449C","title":"中国工商银行(吴淞支行)","lon":"121.49517","lat":"31.37223","category":"150","category_name":"银行","address":"上海宝山区淞滨路318号近同济路  "},{"poiid":"B2094654D46BA3FA4693","title":"三港码头(江心沙路)","lon":"121.50857","lat":"31.3698","category":"34","category_name":"港口码头","address":"江心沙路3750"},{"poiid":"B2094654D469ABF5439A","title":"长江口商城","lon":"121.50129","lat":"31.37501","category":"119","category_name":"商场","address":""},{"poiid":"B2094757D465ABF4429E","title":"淞滨路砂锅馄饨","lon":"121.501186054","lat":"31.375434793","category":"68","category_name":"快餐厅","address":"淞滨路近吴淞码头"},{"poiid":"B2094751D56FA7FA439A","title":"横店电影城","lon":"121.499498","lat":"31.378073","category":"178","category_name":"电影院","address":"上海市宝山区淞宝路155弄71号一楼"},{"poiid":"B2094757D568A0FB459D","title":"联和滨江大厦","lon":"121.501","lat":"31.377","category":"46","category_name":"楼宇","address":"丰台学城海鹰路1号,3号"},{"poiid":"B2094654D469AAFD429D","title":"吴淞站","lon":"121.501","lat":"31.37538","category":"35","category_name":"长途汽车站","address":"淞浦路100"},{"poiid":"B2094757D569A3F54099","title":"上海港吴淞客运中心客运站","lon":"121.50186089","lat":"31.37859239","category":"35","category_name":"长途汽车站","address":"中国上海市宝山区化成路"},{"poiid":"B2094757D66BA5F4429C","title":"老街小菜馆","lon":"121.49915881808","lat":"31.373547588504","category":"76","category_name":"上海菜","address":"宝山区淞兴路149号(淞兴路同泰路)"},{"poiid":"B2094757D465A0FA449D","title":"魔锅坊麻辣香锅 吴淞店","lon":"121.498840054","lat":"31.372756793","category":"71","category_name":"四川菜","address":"宝山区同泰路59号(近吴淞码头)"},{"poiid":"B2094654D469AAFD4293","title":"上海市宝山区淞兴路第一小学","lon":"121.50041","lat":"31.37365","category":"56","category_name":"小学","address":"宝山区淞兴路40号(淞滨支路淞兴西路)"},{"poiid":"B2094655D264A1F44893","title":"吴淞老镇三街坊","lon":"121.497482","lat":"31.374553","category":"47","category_name":"住宅区","address":"上海市宝山区同泰路135弄"},{"poiid":"B2094750D76EA7FF4393","title":"吴淞馄饨店","lon":"121.498","lat":"31.374","category":"68","category_name":"快餐厅","address":"宝山区北兴路84号(三阳路同泰路)"},{"poiid":"B2094654D46AA0F94199","title":"春泥酒楼","lon":"121.49774","lat":"31.37271","category":"76","category_name":"上海菜","address":"宝山区淞兴路151号(近宝山区房产交易中心)"},{"poiid":"B2094655D265ABFD469A","title":"长江口大楼","lon":"121.49967","lat":"31.37551","category":"46","category_name":"楼宇","address":"淞滨路1号"},{"poiid":"B2094654D469AAFD479C","title":"小绍兴 淞滨店","lon":"121.500228054","lat":"31.375448793","category":"68","category_name":"快餐厅","address":"宝山区淞滨路58号(淞滨路牡丹江路)"},{"poiid":"B209475DD26EAAFB4799","title":"UME影城宝山店","lon":"121.501152","lat":"31.376657","category":"500","category_name":"未知分类","address":"上海市 上海市宝山区牡丹江路318号诺亚新天地4楼"},{"poiid":"B2094757D16FA0FE429B","title":"宝山工商局","lon":"121.499763489","lat":"31.3754024506","category":"500","category_name":"未知分类","address":"上海淞滨路28号"},{"poiid":"B2094757D465A7FF4499","title":"北兴饮食店","lon":"121.499257054","lat":"31.373863793","category":"247","category_name":"餐饮美食","address":"北兴路84号近淞滨路"},{"poiid":"B2094655D36DA7F5459B","title":"淞滨路牡丹江路","lon":"121.49912","lat":"31.37502","category":"38","category_name":"公交车站","address":""},{"poiid":"B2094655D26BA1F8459B","title":"牡丹江路吴淞码头","lon":"121.49923","lat":"31.37505","category":"38","category_name":"公交车站","address":""},{"poiid":"B2094654D46AA2FE4292","title":"好德(淞滨路)","lon":"121.49941","lat":"31.37488","category":"117","category_name":"便民商店/便利店","address":""},{"poiid":"B2094654D469ABF5499C","title":"宝山区地税局","lon":"121.49997","lat":"31.37552","category":"250","category_name":"公园户外","address":"淞滨路28"},{"poiid":"B2094654D46AA2FE4298","title":"光明便利NO.410","lon":"121.49913","lat":"31.37472","category":"117","category_name":"便民商店/便利店","address":"淞滨路68甲"},{"poiid":"B2094655D36DA1F8429D","title":"外环隧道","lon":"121.50045","lat":"31.37633","category":"250","category_name":"公园户外","address":""},{"poiid":"B2094752D36DABFE499D","title":"横店影城","lon":"121.500458","lat":"31.380585","category":"178","category_name":"电影院","address":"淞宝路155号星月国际广场"},{"poiid":"B2094757D068A2FF459F","title":"宝山区房地产交易中心","lon":"121.49867993","lat":"31.374190423","category":"249","category_name":"购物服务","address":"上海同泰路68号4楼"},{"poiid":"B2094655D26BA2FC469E","title":"吴淞码头","lon":"121.49789","lat":"31.37766","category":"38","category_name":"公交车站","address":""},{"poiid":"B2094757D06AA6F84598","title":"吴淞客运中心客运站","lon":"121.50122083","lat":"31.378539743","category":"35","category_name":"长途汽车站","address":"上海市宝山区化成路271号"},{"poiid":"B2094757D068A1FA489F","title":"新长江大酒店","lon":"121.499050731","lat":"31.3799873487","category":"217","category_name":"旅馆招待所","address":"上海宝山区淞宝路96号"},{"poiid":"B2094757D168ABF5439C","title":"星月国际商务广场","lon":"121.50003163","lat":"31.381648607","category":"500","category_name":"未知分类","address":"徐汇宜山路425号"},{"poiid":"B2094757D068A7F84592","title":"宝山区税务局","lon":"121.499759","lat":"31.375406","category":"500","category_name":"未知分类","address":"上海淞滨路28号"},{"poiid":"B2094757D06FAAFA419A","title":"吴淞中学","lon":"121.49766","lat":"31.37568","category":"55","category_name":"中学","address":"宝山区泰和路99号(近牡丹江路)"},{"poiid":"B2094757D06AA0FB4292","title":"外环隧道","lon":"121.50563412","lat":"31.376110483","category":"500","category_name":"未知分类","address":"上海外环线"},{"poiid":"B2094757D06FA0F8489C","title":"吴淞大桥","lon":"121.494989","lat":"31.372818","category":"260","category_name":"其他","address":"上海宝山区同济路淞滨路"},{"poiid":"B2094757D06FA6FB409F","title":"吴淞轮渡站","lon":"121.5012188","lat":"31.374578336","category":"35","category_name":"长途汽车站","address":"上海宝山区淞浦路114号"},{"poiid":"B2094757D069AAFA479B","title":"渔人码头","lon":"121.49790628","lat":"31.372561055","category":"251","category_name":"出行住宿","address":"上海吴淞"},{"poiid":"B2094757D16DABFA419D","title":"三岔港轮渡站","lon":"121.506923","lat":"31.371087","category":"35","category_name":"长途汽车站","address":"上海江东路一弄38号"},{"poiid":"B2094750DB64A5FA4492","title":"巨麦时尚KTV(淞宝店)","lon":"121.50075273408515","lat":"31.381164858525576","category":"170","category_name":"KTV","address":"宝山区淞宝路155号星月广场3楼"},{"poiid":"B2094757D06FA5F8449F","title":"吴淞新城","lon":"121.49651","lat":"31.371421","category":"47","category_name":"住宅区","address":"上海市普陀区延川路299号"},{"poiid":"B2094655D36CA2FA4598","title":"三岔港","lon":"121.50869","lat":"31.3698","category":"38","category_name":"公交车站","address":"江东路121号"},{"poiid":"B2094654D46BA3F5459D","title":"上海三港码头(三岔港轮渡站东)","lon":"121.5072","lat":"31.37105","category":"34","category_name":"港口码头","address":""},{"poiid":"B2094750DA65A7F9439D","title":"弄堂口","lon":"121.500152","lat":"31.379171","category":"75","category_name":"浙江菜","address":"宝山区淞宝路155弄星月国际商务广场29号(近永清路)"},{"poiid":"B2094655D26BA1F84598","title":"牡丹江路吴淞医院","lon":"121.4972","lat":"31.37913","category":"162","category_name":"医院","address":""},{"poiid":"B2094654D469AAFD439B","title":"上海海事局吴淞海事处专用码头","lon":"121.50117","lat":"31.37341","category":"34","category_name":"港口码头","address":"淞浦路181"},{"poiid":"B2094757D165A6FF4292","title":"宝山区社会保险基金管理中心","lon":"121.495352231","lat":"31.3711405909","category":"500","category_name":"未知分类","address":"上海宝山区淞兴路309号"},{"poiid":"B2094654D46BA3FA4592","title":"上海三港集装箱码头","lon":"121.50834","lat":"31.37063","category":"34","category_name":"港口码头","address":"江东路1号"},{"poiid":"B2094654D46AA2FE419A","title":"川福火锅 淞滨店","lon":"121.49659170423","lat":"31.373469886091","category":"86","category_name":"火锅店","address":"宝山区淞滨路156号(班溪路淞滨路)"},{"poiid":"B2094757D16AAAF44499","title":"地球","lon":"121.50335447","lat":"31.372226613","category":"248","category_name":"生活娱乐","address":"上海水蓝色星球"},{"poiid":"B2094757D069AAFA4592","title":"吴淞口国际邮轮码头","lon":"121.499","lat":"31.3796","category":"260","category_name":"其他","address":"上海宝杨路1号"},{"poiid":"B2094757D069A6FF449C","title":"中国工商银行(吴淞支行)","lon":"121.49517","lat":"31.37223","category":"150","category_name":"银行","address":"上海宝山区淞滨路318号近同济路  "},{"poiid":"B2094654D46BA3FA4693","title":"三港码头(江心沙路)","lon":"121.50857","lat":"31.3698","category":"34","category_name":"港口码头","address":"江心沙路3750"},{"poiid":"B2094654D469ABF5439A","title":"长江口商城","lon":"121.50129","lat":"31.37501","category":"119","category_name":"商场","address":""},{"poiid":"B2094757D465ABF4429E","title":"淞滨路砂锅馄饨","lon":"121.501186054","lat":"31.375434793","category":"68","category_name":"快餐厅","address":"淞滨路近吴淞码头"},{"poiid":"B2094751D56FA7FA439A","title":"横店电影城","lon":"121.499498","lat":"31.378073","category":"178","category_name":"电影院","address":"上海市宝山区淞宝路155弄71号一楼"},{"poiid":"B2094757D568A0FB459D","title":"联和滨江大厦","lon":"121.501","lat":"31.377","category":"46","category_name":"楼宇","address":"丰台学城海鹰路1号,3号"},{"poiid":"B2094654D469AAFD429D","title":"吴淞站","lon":"121.501","lat":"31.37538","category":"35","category_name":"长途汽车站","address":"淞浦路100"},{"poiid":"B2094757D569A3F54099","title":"上海港吴淞客运中心客运站","lon":"121.50186089","lat":"31.37859239","category":"35","category_name":"长途汽车站","address":"中国上海市宝山区化成路"},{"poiid":"B2094757D66BA5F4429C","title":"老街小菜馆","lon":"121.49915881808","lat":"31.373547588504","category":"76","category_name":"上海菜","address":"宝山区淞兴路149号(淞兴路同泰路)"},{"poiid":"B2094757D465A0FA449D","title":"魔锅坊麻辣香锅 吴淞店","lon":"121.498840054","lat":"31.372756793","category":"71","category_name":"四川菜","address":"宝山区同泰路59号(近吴淞码头)"},{"poiid":"B2094654D469AAFD4293","title":"上海市宝山区淞兴路第一小学","lon":"121.50041","lat":"31.37365","category":"56","category_name":"小学","address":"宝山区淞兴路40号(淞滨支路淞兴西路)"},{"poiid":"B2094655D264A1F44893","title":"吴淞老镇三街坊","lon":"121.497482","lat":"31.374553","category":"47","category_name":"住宅区","address":"上海市宝山区同泰路135弄"},{"poiid":"B2094750D76EA7FF4393","title":"吴淞馄饨店","lon":"121.498","lat":"31.374","category":"68","category_name":"快餐厅","address":"宝山区北兴路84号(三阳路同泰路)"},{"poiid":"B2094654D46AA0F94199","title":"春泥酒楼","lon":"121.49774","lat":"31.37271","category":"76","category_name":"上海菜","address":"宝山区淞兴路151号(近宝山区房产交易中心)"},{"poiid":"B2094655D265ABFD469A","title":"长江口大楼","lon":"121.49967","lat":"31.37551","category":"46","category_name":"楼宇","address":"淞滨路1号"},{"poiid":"B2094654D469AAFD479C","title":"小绍兴 淞滨店","lon":"121.500228054","lat":"31.375448793","category":"68","category_name":"快餐厅","address":"宝山区淞滨路58号(淞滨路牡丹江路)"},{"poiid":"B209475DD26EAAFB4799","title":"UME影城宝山店","lon":"121.501152","lat":"31.376657","category":"500","category_name":"未知分类","address":"上海市 上海市宝山区牡丹江路318号诺亚新天地4楼"},{"poiid":"B2094757D16FA0FE429B","title":"宝山工商局","lon":"121.499763489","lat":"31.3754024506","category":"500","category_name":"未知分类","address":"上海淞滨路28号"},{"poiid":"B2094757D465A7FF4499","title":"北兴饮食店","lon":"121.499257054","lat":"31.373863793","category":"247","category_name":"餐饮美食","address":"北兴路84号近淞滨路"},{"poiid":"B2094655D36DA7F5459B","title":"淞滨路牡丹江路","lon":"121.49912","lat":"31.37502","category":"38","category_name":"公交车站","address":""},{"poiid":"B2094655D26BA1F8459B","title":"牡丹江路吴淞码头","lon":"121.49923","lat":"31.37505","category":"38","category_name":"公交车站","address":""},{"poiid":"B2094654D46AA2FE4292","title":"好德(淞滨路)","lon":"121.49941","lat":"31.37488","category":"117","category_name":"便民商店/便利店","address":""},{"poiid":"B2094654D469ABF5499C","title":"宝山区地税局","lon":"121.49997","lat":"31.37552","category":"250","category_name":"公园户外","address":"淞滨路28"},{"poiid":"B2094654D46AA2FE4298","title":"光明便利NO.410","lon":"121.49913","lat":"31.37472","category":"117","category_name":"便民商店/便利店","address":"淞滨路68甲"},{"poiid":"B2094655D36DA1F8429D","title":"外环隧道","lon":"121.50045","lat":"31.37633","category":"250","category_name":"公园户外","address":""},{"poiid":"B2094752D36DABFE499D","title":"横店影城","lon":"121.500458","lat":"31.380585","category":"178","category_name":"电影院","address":"淞宝路155号星月国际广场"}]