[{"poiid":"B2094654DB64A4FD4499","title":"世界广场","lon":"121.51498","lat":"31.23228","category":"119","category_name":"商场","address":"浦东新区浦东南路855号(近第一八佰伴)"},{"poiid":"B2094757D06BA4F5429A","title":"环球金融中心100层观光厅","lon":"121.512176738","lat":"31.2328213553","category":"500","category_name":"未知分类","address":"上海市浦东新区陆家嘴东路"},{"poiid":"B2094655D26AA0FA469C","title":"地铁东昌路站","lon":"121.51511","lat":"31.23325","category":"36","category_name":"地铁站","address":""},{"poiid":"B209475CD564A7F84392","title":"上海滩浦东香格里拉店","lon":"121.50058","lat":"31.23634","category":"119","category_name":"商场","address":"浦东富成路33号香格里拉酒店内大堂层"},{"poiid":"B2094757D169AAF9449F","title":"浦东南路东昌路","lon":"121.513675738","lat":"31.2331583625","category":"500","category_name":"未知分类","address":"上海市浦东新区陆家嘴环路"},{"poiid":"B2094757D068A3FC449F","title":"东昌路八佰半","lon":"121.5138187","lat":"31.2331371","category":"500","category_name":"未知分类","address":"上海浦东南路东昌路"},{"poiid":"B2094757DB68AAFA4799","title":"星巴克 世纪大道店 STARBUCKS COFFEE","lon":"121.5139661","lat":"31.2334014","category":"260","category_name":"其他","address":"浦东新区世纪大道800号南洋商业银行大厦内(近地铁2号线东昌路站)"},{"poiid":"B2094757DA6EA6FC459A","title":"麦当劳(世界广场店)","lon":"121.515526771546","lat":"31.2322521975298","category":"68","category_name":"快餐厅","address":"浦东新区浦东南路855号世界广场B1楼(近东昌路)"},{"poiid":"B2094757D06FA7FA409D","title":"席永记苏州汤包馆(东昌店)","lon":"121.512973","lat":"31.233044","category":"68","category_name":"快餐厅","address":"浦东新区东昌路567号(近浦东南路)"},{"poiid":"B2094757D069A6FB479A","title":"肯德基","lon":"121.514272738","lat":"31.2325353492","category":"500","category_name":"未知分类","address":"上海市浦东新区世纪大道"},{"poiid":"B2094757D169ABFD429A","title":"i.t ifc国金","lon":"121.513942538","lat":"31.2300293958","category":"500","category_name":"未知分类","address":"上海市浦东新区陆家嘴"},{"poiid":"B2094757D068A7FE4393","title":"三千丝(浦东南路店)","lon":"121.51508","lat":"31.23001","category":"500","category_name":"未知分类","address":"浦东新区浦东南路988号(浦东南路商城路)"},{"poiid":"B2094757DA6EA7F9419E","title":"汇佳桌游咖啡馆(八佰伴世界广场店)","lon":"121.514990000001","lat":"31.2324080000002","category":"247","category_name":"餐饮美食","address":"张杨路655号福兴大厦7楼"},{"poiid":"B2094752DB6BA7F54698","title":"王鼎.玉食","lon":"121.512244","lat":"31.23297","category":"500","category_name":"未知分类","address":"上海市 商城路665号"},{"poiid":"B2094757D16CABFA409E","title":"轨道交通2号线(陆家嘴)","lon":"121.512001738","lat":"31.2323463452","category":"500","category_name":"未知分类","address":"上海陆家嘴"},{"poiid":"B2094654DA69A6FD4292","title":"古都梅盲人保健按摩","lon":"121.51275","lat":"31.23296","category":"149","category_name":"洗浴推拿场所","address":"东昌路565"},{"poiid":"B2094757D16CA5F84492","title":"和良形象","lon":"121.516197238","lat":"31.2324727479","category":"148","category_name":"美容美发店","address":"上海浦东新区东昌路580号(近浦东南路)"},{"poiid":"B2094757DA6FA1F8439C","title":"世界茶饮","lon":"121.514757","lat":"31.23104","category":"247","category_name":"餐饮美食","address":"浦东新大陆广饧"},{"poiid":"B2094752D26EA6FB449B","title":"陆家嘴","lon":"121.513602","lat":"31.233073","category":"500","category_name":"未知分类","address":null},{"poiid":"B2094757D068A6FA419E","title":"古都梅(东昌路店)","lon":"121.51322","lat":"31.23242","category":"149","category_name":"洗浴推拿场所","address":"浦东新区东昌路565号院内(近浦东南路)"},{"poiid":"B2094757D06AA1FB4798","title":"交通银行(陆家嘴支行)","lon":"121.51396","lat":"31.23239","category":"150","category_name":"银行","address":"浦东新区浦东南路766号(近东昌路)"},{"poiid":"B2094757D76BA1FB4699","title":"五芳面馆 东昌店","lon":"121.51350017982","lat":"31.233085065938","category":"68","category_name":"快餐厅","address":"浦东新区浦东南路东园一村113号(近东昌路口)"},{"poiid":"B2094655D26AABFE4492","title":"镭战大联盟南外滩店","lon":"121.501408","lat":"31.204185","category":"172","category_name":"酒吧","address":"黄埔区外马路1353号"},{"poiid":"B2094757D66FA1F8449E","title":"老娘舅(世界广场店)","lon":"121.51444773","lat":"31.231959336","category":"68","category_name":"快餐厅","address":"浦东新区浦东南路855号世界广场B1楼(近东昌路)"},{"poiid":"B2094654DB6AA3F4439F","title":"香格里莱专业美发连锁浦东南路店","lon":"121.51402","lat":"31.23219","category":"148","category_name":"美容美发店","address":"浦东新区浦东南路800号"},{"poiid":"B2094757D46EA4FC4193","title":"小长安","lon":"121.513357054","lat":"31.232856793","category":"84","category_name":"西北菜","address":"浦东新区东昌路东园一村102号101室(近浦东南路)"},{"poiid":"B2094757D06FA3F8489F","title":"转角芋到爱","lon":"121.51353","lat":"31.23255","category":"67","category_name":"甜品店","address":"上海浦东新区东昌路580号(近浦东南路)  "},{"poiid":"B2094757D169ABFC4193","title":"和食居","lon":"121.514827238","lat":"31.2329044571","category":"95","category_name":"日本料理","address":"浦东新区南泉北路"},{"poiid":"B2094753D064ABFE4793","title":"派国际日式时尚沙龙","lon":"121.5142","lat":"31.23252","category":"148","category_name":"美容美发店","address":"浦东新区浦东南路855号世界广场B1楼(近东昌路)"},{"poiid":"B2094757D165A5FF4398","title":"宾家国际青年旅舍","lon":"121.5121","lat":"31.232","category":"216","category_name":"经济型连锁酒店","address":"上海浦东新区东昌路490弄东园二村210号(近浦东南路)  "},{"poiid":"B2094753D664AAFB479B","title":"正大广场","lon":"121.513038","lat":"31.234203","category":"500","category_name":"未知分类","address":"上海市 正大广场"},{"poiid":"B2094757D568A4F44892","title":"通用汽车办公楼","lon":"121.5143599","lat":"31.23312761","category":"46","category_name":"楼宇","address":"浦东新区世纪大道800号(浦东南路路口)"},{"poiid":"B2094654DA69A0FB4699","title":"东方情专业造型","lon":"121.51498","lat":"31.23229","category":"148","category_name":"美容美发店","address":"浦东南路855号世界广场1D"},{"poiid":"B2094757D06AA7F54599","title":"东川造型(旗舰店)","lon":"121.51426","lat":"31.23175","category":"148","category_name":"美容美发店","address":"上海浦东新区浦东南路800号(近东昌路)  "},{"poiid":"B2094757D664A2FC419F","title":"佳佳旺桂林米粉 东昌路店","lon":"121.513287054","lat":"31.233151793","category":"68","category_name":"快餐厅","address":"浦东新区东昌路535号(近浦东南路)"},{"poiid":"B2094757D66CA7F54093","title":"日出茶太(世界广场)","lon":"121.515219738","lat":"31.2323903461","category":"113","category_name":"冷饮店","address":"浦东新区浦东南路855号世界广场B1楼(近东昌路)"},{"poiid":"B2094655D36CA6F44393","title":"东昌路浦东南路","lon":"121.51317","lat":"31.23295","category":"38","category_name":"公交车站","address":""},{"poiid":"B2094750D16BA2F9429A","title":"地铁九号线小南门站","lon":"121.51285245619","lat":"31.232236777029","category":"627","category_name":"一般地点标志","address":"地铁九号线"},{"poiid":"B2094757D06AA7F94298","title":"中田造型","lon":"121.51473999","lat":"31.232311248","category":"148","category_name":"美容美发店","address":"上海浦东新区浦东南路855号世界广场B1楼(近东昌路地铁站3号口)"},{"poiid":"B2094655D265A6FD449A","title":"东之川造型","lon":"121.51299","lat":"31.23269","category":"148","category_name":"美容美发店","address":"东昌路568号3层"},{"poiid":"B2094757D168ABFE4993","title":"东之川","lon":"121.512430191","lat":"31.2337575915","category":"247","category_name":"餐饮美食","address":"上海东昌路568号"},{"poiid":"B2094757DB64A6F54999","title":"乐宁教育（世界广场店）","lon":"121.515","lat":"31.2323","category":"190","category_name":"培训机构","address":"上海浦东新区浦东南路855号 世界广场地下一层"},{"poiid":"B2094753D06EABF94692","title":"和良国際造型","lon":"121.51318","lat":"31.23275","category":"148","category_name":"美容美发店","address":"浦东新区东昌路580号(浦东南路口)"},{"poiid":"B2094757D06BA4FF4799","title":"组合发型(东昌路店)","lon":"121.512259151","lat":"31.2328202613","category":"148","category_name":"美容美发店","address":"浦东新区东昌路555号(近浦东南路)"},{"poiid":"B2094654DA69A0FB4199","title":"上海国际银行金融学院","lon":"121.51497","lat":"31.23228","category":"52","category_name":"高等院校","address":"浦东南路855号世界广场17层"},{"poiid":"B2094654DA69A0FA4799","title":"韦博英语培训中心浦东分部","lon":"121.51498","lat":"31.23229","category":"190","category_name":"培训机构","address":"浦东南路855号世界广场2层"},{"poiid":"B2094757D66CA4FC4693","title":"今必胜餐饮连锁","lon":"121.51250673","lat":"31.232916357","category":"68","category_name":"快餐厅","address":"浦东新区东昌路567号(近浦东南路)"},{"poiid":"B2094752D36EABFA429D","title":"东方医院","lon":"121.514188","lat":"31.232729","category":"162","category_name":"医院","address":null},{"poiid":"B2094654DA69A6FD439C","title":"中国银行上海市东昌路支行","lon":"121.51342","lat":"31.2328","category":"150","category_name":"银行","address":"东昌路590"},{"poiid":"B2094757D16CA3FE489D","title":"东园一村","lon":"121.51327592","lat":"31.231358431","category":"500","category_name":"未知分类","address":"上海市浦东新区东园一村101-139号"},{"poiid":"B2094654DB64A4FD4499","title":"世界广场","lon":"121.51498","lat":"31.23228","category":"119","category_name":"商场","address":"浦东新区浦东南路855号(近第一八佰伴)"},{"poiid":"B2094757D06BA4F5429A","title":"环球金融中心100层观光厅","lon":"121.512176738","lat":"31.2328213553","category":"500","category_name":"未知分类","address":"上海市浦东新区陆家嘴东路"},{"poiid":"B2094655D26AA0FA469C","title":"地铁东昌路站","lon":"121.51511","lat":"31.23325","category":"36","category_name":"地铁站","address":""},{"poiid":"B209475CD564A7F84392","title":"上海滩浦东香格里拉店","lon":"121.50058","lat":"31.23634","category":"119","category_name":"商场","address":"浦东富成路33号香格里拉酒店内大堂层"},{"poiid":"B2094757D169AAF9449F","title":"浦东南路东昌路","lon":"121.513675738","lat":"31.2331583625","category":"500","category_name":"未知分类","address":"上海市浦东新区陆家嘴环路"},{"poiid":"B2094757D068A3FC449F","title":"东昌路八佰半","lon":"121.5138187","lat":"31.2331371","category":"500","category_name":"未知分类","address":"上海浦东南路东昌路"},{"poiid":"B2094757DB68AAFA4799","title":"星巴克 世纪大道店 STARBUCKS COFFEE","lon":"121.5139661","lat":"31.2334014","category":"260","category_name":"其他","address":"浦东新区世纪大道800号南洋商业银行大厦内(近地铁2号线东昌路站)"},{"poiid":"B2094757DA6EA6FC459A","title":"麦当劳(世界广场店)","lon":"121.515526771546","lat":"31.2322521975298","category":"68","category_name":"快餐厅","address":"浦东新区浦东南路855号世界广场B1楼(近东昌路)"},{"poiid":"B2094757D06FA7FA409D","title":"席永记苏州汤包馆(东昌店)","lon":"121.512973","lat":"31.233044","category":"68","category_name":"快餐厅","address":"浦东新区东昌路567号(近浦东南路)"},{"poiid":"B2094757D069A6FB479A","title":"肯德基","lon":"121.514272738","lat":"31.2325353492","category":"500","category_name":"未知分类","address":"上海市浦东新区世纪大道"},{"poiid":"B2094757D169ABFD429A","title":"i.t ifc国金","lon":"121.513942538","lat":"31.2300293958","category":"500","category_name":"未知分类","address":"上海市浦东新区陆家嘴"},{"poiid":"B2094757D068A7FE4393","title":"三千丝(浦东南路店)","lon":"121.51508","lat":"31.23001","category":"500","category_name":"未知分类","address":"浦东新区浦东南路988号(浦东南路商城路)"},{"poiid":"B2094757DA6EA7F9419E","title":"汇佳桌游咖啡馆(八佰伴世界广场店)","lon":"121.514990000001","lat":"31.2324080000002","category":"247","category_name":"餐饮美食","address":"张杨路655号福兴大厦7楼"},{"poiid":"B2094752DB6BA7F54698","title":"王鼎.玉食","lon":"121.512244","lat":"31.23297","category":"500","category_name":"未知分类","address":"上海市 商城路665号"},{"poiid":"B2094757D16CABFA409E","title":"轨道交通2号线(陆家嘴)","lon":"121.512001738","lat":"31.2323463452","category":"500","category_name":"未知分类","address":"上海陆家嘴"},{"poiid":"B2094654DA69A6FD4292","title":"古都梅盲人保健按摩","lon":"121.51275","lat":"31.23296","category":"149","category_name":"洗浴推拿场所","address":"东昌路565"},{"poiid":"B2094757D16CA5F84492","title":"和良形象","lon":"121.516197238","lat":"31.2324727479","category":"148","category_name":"美容美发店","address":"上海浦东新区东昌路580号(近浦东南路)"},{"poiid":"B2094757DA6FA1F8439C","title":"世界茶饮","lon":"121.514757","lat":"31.23104","category":"247","category_name":"餐饮美食","address":"浦东新大陆广饧"},{"poiid":"B2094752D26EA6FB449B","title":"陆家嘴","lon":"121.513602","lat":"31.233073","category":"500","category_name":"未知分类","address":null},{"poiid":"B2094757D068A6FA419E","title":"古都梅(东昌路店)","lon":"121.51322","lat":"31.23242","category":"149","category_name":"洗浴推拿场所","address":"浦东新区东昌路565号院内(近浦东南路)"},{"poiid":"B2094757D06AA1FB4798","title":"交通银行(陆家嘴支行)","lon":"121.51396","lat":"31.23239","category":"150","category_name":"银行","address":"浦东新区浦东南路766号(近东昌路)"},{"poiid":"B2094757D76BA1FB4699","title":"五芳面馆 东昌店","lon":"121.51350017982","lat":"31.233085065938","category":"68","category_name":"快餐厅","address":"浦东新区浦东南路东园一村113号(近东昌路口)"},{"poiid":"B2094655D26AABFE4492","title":"镭战大联盟南外滩店","lon":"121.501408","lat":"31.204185","category":"172","category_name":"酒吧","address":"黄埔区外马路1353号"},{"poiid":"B2094757D66FA1F8449E","title":"老娘舅(世界广场店)","lon":"121.51444773","lat":"31.231959336","category":"68","category_name":"快餐厅","address":"浦东新区浦东南路855号世界广场B1楼(近东昌路)"},{"poiid":"B2094654DB6AA3F4439F","title":"香格里莱专业美发连锁浦东南路店","lon":"121.51402","lat":"31.23219","category":"148","category_name":"美容美发店","address":"浦东新区浦东南路800号"},{"poiid":"B2094757D46EA4FC4193","title":"小长安","lon":"121.513357054","lat":"31.232856793","category":"84","category_name":"西北菜","address":"浦东新区东昌路东园一村102号101室(近浦东南路)"},{"poiid":"B2094757D06FA3F8489F","title":"转角芋到爱","lon":"121.51353","lat":"31.23255","category":"67","category_name":"甜品店","address":"上海浦东新区东昌路580号(近浦东南路)  "},{"poiid":"B2094757D169ABFC4193","title":"和食居","lon":"121.514827238","lat":"31.2329044571","category":"95","category_name":"日本料理","address":"浦东新区南泉北路"},{"poiid":"B2094753D064ABFE4793","title":"派国际日式时尚沙龙","lon":"121.5142","lat":"31.23252","category":"148","category_name":"美容美发店","address":"浦东新区浦东南路855号世界广场B1楼(近东昌路)"},{"poiid":"B2094757D165A5FF4398","title":"宾家国际青年旅舍","lon":"121.5121","lat":"31.232","category":"216","category_name":"经济型连锁酒店","address":"上海浦东新区东昌路490弄东园二村210号(近浦东南路)  "},{"poiid":"B2094753D664AAFB479B","title":"正大广场","lon":"121.513038","lat":"31.234203","category":"500","category_name":"未知分类","address":"上海市 正大广场"},{"poiid":"B2094757D568A4F44892","title":"通用汽车办公楼","lon":"121.5143599","lat":"31.23312761","category":"46","category_name":"楼宇","address":"浦东新区世纪大道800号(浦东南路路口)"},{"poiid":"B2094654DA69A0FB4699","title":"东方情专业造型","lon":"121.51498","lat":"31.23229","category":"148","category_name":"美容美发店","address":"浦东南路855号世界广场1D"},{"poiid":"B2094757D06AA7F54599","title":"东川造型(旗舰店)","lon":"121.51426","lat":"31.23175","category":"148","category_name":"美容美发店","address":"上海浦东新区浦东南路800号(近东昌路)  "},{"poiid":"B2094757D664A2FC419F","title":"佳佳旺桂林米粉 东昌路店","lon":"121.513287054","lat":"31.233151793","category":"68","category_name":"快餐厅","address":"浦东新区东昌路535号(近浦东南路)"},{"poiid":"B2094757D66CA7F54093","title":"日出茶太(世界广场)","lon":"121.515219738","lat":"31.2323903461","category":"113","category_name":"冷饮店","address":"浦东新区浦东南路855号世界广场B1楼(近东昌路)"},{"poiid":"B2094655D36CA6F44393","title":"东昌路浦东南路","lon":"121.51317","lat":"31.23295","category":"38","category_name":"公交车站","address":""},{"poiid":"B2094750D16BA2F9429A","title":"地铁九号线小南门站","lon":"121.51285245619","lat":"31.232236777029","category":"627","category_name":"一般地点标志","address":"地铁九号线"},{"poiid":"B2094757D06AA7F94298","title":"中田造型","lon":"121.51473999","lat":"31.232311248","category":"148","category_name":"美容美发店","address":"上海浦东新区浦东南路855号世界广场B1楼(近东昌路地铁站3号口)"},{"poiid":"B2094655D265A6FD449A","title":"东之川造型","lon":"121.51299","lat":"31.23269","category":"148","category_name":"美容美发店","address":"东昌路568号3层"},{"poiid":"B2094757D168ABFE4993","title":"东之川","lon":"121.512430191","lat":"31.2337575915","category":"247","category_name":"餐饮美食","address":"上海东昌路568号"},{"poiid":"B2094757DB64A6F54999","title":"乐宁教育（世界广场店）","lon":"121.515","lat":"31.2323","category":"190","category_name":"培训机构","address":"上海浦东新区浦东南路855号 世界广场地下一层"},{"poiid":"B2094753D06EABF94692","title":"和良国際造型","lon":"121.51318","lat":"31.23275","category":"148","category_name":"美容美发店","address":"浦东新区东昌路580号(浦东南路口)"},{"poiid":"B2094757D06BA4FF4799","title":"组合发型(东昌路店)","lon":"121.512259151","lat":"31.2328202613","category":"148","category_name":"美容美发店","address":"浦东新区东昌路555号(近浦东南路)"},{"poiid":"B2094654DA69A0FB4199","title":"上海国际银行金融学院","lon":"121.51497","lat":"31.23228","category":"52","category_name":"高等院校","address":"浦东南路855号世界广场17层"},{"poiid":"B2094654DA69A0FA4799","title":"韦博英语培训中心浦东分部","lon":"121.51498","lat":"31.23229","category":"190","category_name":"培训机构","address":"浦东南路855号世界广场2层"},{"poiid":"B2094757D66CA4FC4693","title":"今必胜餐饮连锁","lon":"121.51250673","lat":"31.232916357","category":"68","category_name":"快餐厅","address":"浦东新区东昌路567号(近浦东南路)"},{"poiid":"B2094752D36EABFA429D","title":"东方医院","lon":"121.514188","lat":"31.232729","category":"162","category_name":"医院","address":null},{"poiid":"B2094654DA69A6FD439C","title":"中国银行上海市东昌路支行","lon":"121.51342","lat":"31.2328","category":"150","category_name":"银行","address":"东昌路590"},{"poiid":"B2094757D16CA3FE489D","title":"东园一村","lon":"121.51327592","lat":"31.231358431","category":"500","category_name":"未知分类","address":"上海市浦东新区东园一村101-139号"},{"poiid":"B2094654DB64A4FD4499","title":"世界广场","lon":"121.51498","lat":"31.23228","category":"119","category_name":"商场","address":"浦东新区浦东南路855号(近第一八佰伴)"},{"poiid":"B2094757D06BA4F5429A","title":"环球金融中心100层观光厅","lon":"121.512176738","lat":"31.2328213553","category":"500","category_name":"未知分类","address":"上海市浦东新区陆家嘴东路"},{"poiid":"B2094655D26AA0FA469C","title":"地铁东昌路站","lon":"121.51511","lat":"31.23325","category":"36","category_name":"地铁站","address":""},{"poiid":"B209475CD564A7F84392","title":"上海滩浦东香格里拉店","lon":"121.50058","lat":"31.23634","category":"119","category_name":"商场","address":"浦东富成路33号香格里拉酒店内大堂层"},{"poiid":"B2094757D169AAF9449F","title":"浦东南路东昌路","lon":"121.513675738","lat":"31.2331583625","category":"500","category_name":"未知分类","address":"上海市浦东新区陆家嘴环路"},{"poiid":"B2094757D068A3FC449F","title":"东昌路八佰半","lon":"121.5138187","lat":"31.2331371","category":"500","category_name":"未知分类","address":"上海浦东南路东昌路"},{"poiid":"B2094757DB68AAFA4799","title":"星巴克 世纪大道店 STARBUCKS COFFEE","lon":"121.5139661","lat":"31.2334014","category":"260","category_name":"其他","address":"浦东新区世纪大道800号南洋商业银行大厦内(近地铁2号线东昌路站)"},{"poiid":"B2094757DA6EA6FC459A","title":"麦当劳(世界广场店)","lon":"121.515526771546","lat":"31.2322521975298","category":"68","category_name":"快餐厅","address":"浦东新区浦东南路855号世界广场B1楼(近东昌路)"},{"poiid":"B2094757D06FA7FA409D","title":"席永记苏州汤包馆(东昌店)","lon":"121.512973","lat":"31.233044","category":"68","category_name":"快餐厅","address":"浦东新区东昌路567号(近浦东南路)"},{"poiid":"B2094757D069A6FB479A","title":"肯德基","lon":"121.514272738","lat":"31.2325353492","category":"500","category_name":"未知分类","address":"上海市浦东新区世纪大道"},{"poiid":"B2094757D169ABFD429A","title":"i.t ifc国金","lon":"121.513942538","lat":"31.2300293958","category":"500","category_name":"未知分类","address":"上海市浦东新区陆家嘴"},{"poiid":"B2094757D068A7FE4393","title":"三千丝(浦东南路店)","lon":"121.51508","lat":"31.23001","category":"500","category_name":"未知分类","address":"浦东新区浦东南路988号(浦东南路商城路)"},{"poiid":"B2094757DA6EA7F9419E","title":"汇佳桌游咖啡馆(八佰伴世界广场店)","lon":"121.514990000001","lat":"31.2324080000002","category":"247","category_name":"餐饮美食","address":"张杨路655号福兴大厦7楼"},{"poiid":"B2094752DB6BA7F54698","title":"王鼎.玉食","lon":"121.512244","lat":"31.23297","category":"500","category_name":"未知分类","address":"上海市 商城路665号"},{"poiid":"B2094757D16CABFA409E","title":"轨道交通2号线(陆家嘴)","lon":"121.512001738","lat":"31.2323463452","category":"500","category_name":"未知分类","address":"上海陆家嘴"},{"poiid":"B2094654DA69A6FD4292","title":"古都梅盲人保健按摩","lon":"121.51275","lat":"31.23296","category":"149","category_name":"洗浴推拿场所","address":"东昌路565"},{"poiid":"B2094757D16CA5F84492","title":"和良形象","lon":"121.516197238","lat":"31.2324727479","category":"148","category_name":"美容美发店","address":"上海浦东新区东昌路580号(近浦东南路)"},{"poiid":"B2094757DA6FA1F8439C","title":"世界茶饮","lon":"121.514757","lat":"31.23104","category":"247","category_name":"餐饮美食","address":"浦东新大陆广饧"},{"poiid":"B2094752D26EA6FB449B","title":"陆家嘴","lon":"121.513602","lat":"31.233073","category":"500","category_name":"未知分类","address":null},{"poiid":"B2094757D068A6FA419E","title":"古都梅(东昌路店)","lon":"121.51322","lat":"31.23242","category":"149","category_name":"洗浴推拿场所","address":"浦东新区东昌路565号院内(近浦东南路)"},{"poiid":"B2094757D06AA1FB4798","title":"交通银行(陆家嘴支行)","lon":"121.51396","lat":"31.23239","category":"150","category_name":"银行","address":"浦东新区浦东南路766号(近东昌路)"},{"poiid":"B2094757D76BA1FB4699","title":"五芳面馆 东昌店","lon":"121.51350017982","lat":"31.233085065938","category":"68","category_name":"快餐厅","address":"浦东新区浦东南路东园一村113号(近东昌路口)"},{"poiid":"B2094655D26AABFE4492","title":"镭战大联盟南外滩店","lon":"121.501408","lat":"31.204185","category":"172","category_name":"酒吧","address":"黄埔区外马路1353号"},{"poiid":"B2094757D66FA1F8449E","title":"老娘舅(世界广场店)","lon":"121.51444773","lat":"31.231959336","category":"68","category_name":"快餐厅","address":"浦东新区浦东南路855号世界广场B1楼(近东昌路)"},{"poiid":"B2094654DB6AA3F4439F","title":"香格里莱专业美发连锁浦东南路店","lon":"121.51402","lat":"31.23219","category":"148","category_name":"美容美发店","address":"浦东新区浦东南路800号"},{"poiid":"B2094757D46EA4FC4193","title":"小长安","lon":"121.513357054","lat":"31.232856793","category":"84","category_name":"西北菜","address":"浦东新区东昌路东园一村102号101室(近浦东南路)"},{"poiid":"B2094757D06FA3F8489F","title":"转角芋到爱","lon":"121.51353","lat":"31.23255","category":"67","category_name":"甜品店","address":"上海浦东新区东昌路580号(近浦东南路)  "},{"poiid":"B2094757D169ABFC4193","title":"和食居","lon":"121.514827238","lat":"31.2329044571","category":"95","category_name":"日本料理","address":"浦东新区南泉北路"},{"poiid":"B2094753D064ABFE4793","title":"派国际日式时尚沙龙","lon":"121.5142","lat":"31.23252","category":"148","category_name":"美容美发店","address":"浦东新区浦东南路855号世界广场B1楼(近东昌路)"},{"poiid":"B2094757D165A5FF4398","title":"宾家国际青年旅舍","lon":"121.5121","lat":"31.232","category":"216","category_name":"经济型连锁酒店","address":"上海浦东新区东昌路490弄东园二村210号(近浦东南路)  "},{"poiid":"B2094753D664AAFB479B","title":"正大广场","lon":"121.513038","lat":"31.234203","category":"500","category_name":"未知分类","address":"上海市 正大广场"},{"poiid":"B2094757D568A4F44892","title":"通用汽车办公楼","lon":"121.5143599","lat":"31.23312761","category":"46","category_name":"楼宇","address":"浦东新区世纪大道800号(浦东南路路口)"},{"poiid":"B2094654DA69A0FB4699","title":"东方情专业造型","lon":"121.51498","lat":"31.23229","category":"148","category_name":"美容美发店","address":"浦东南路855号世界广场1D"},{"poiid":"B2094757D06AA7F54599","title":"东川造型(旗舰店)","lon":"121.51426","lat":"31.23175","category":"148","category_name":"美容美发店","address":"上海浦东新区浦东南路800号(近东昌路)  "},{"poiid":"B2094757D664A2FC419F","title":"佳佳旺桂林米粉 东昌路店","lon":"121.513287054","lat":"31.233151793","category":"68","category_name":"快餐厅","address":"浦东新区东昌路535号(近浦东南路)"},{"poiid":"B2094757D66CA7F54093","title":"日出茶太(世界广场)","lon":"121.515219738","lat":"31.2323903461","category":"113","category_name":"冷饮店","address":"浦东新区浦东南路855号世界广场B1楼(近东昌路)"},{"poiid":"B2094655D36CA6F44393","title":"东昌路浦东南路","lon":"121.51317","lat":"31.23295","category":"38","category_name":"公交车站","address":""},{"poiid":"B2094750D16BA2F9429A","title":"地铁九号线小南门站","lon":"121.51285245619","lat":"31.232236777029","category":"627","category_name":"一般地点标志","address":"地铁九号线"},{"poiid":"B2094757D06AA7F94298","title":"中田造型","lon":"121.51473999","lat":"31.232311248","category":"148","category_name":"美容美发店","address":"上海浦东新区浦东南路855号世界广场B1楼(近东昌路地铁站3号口)"},{"poiid":"B2094655D265A6FD449A","title":"东之川造型","lon":"121.51299","lat":"31.23269","category":"148","category_name":"美容美发店","address":"东昌路568号3层"},{"poiid":"B2094757D168ABFE4993","title":"东之川","lon":"121.512430191","lat":"31.2337575915","category":"247","category_name":"餐饮美食","address":"上海东昌路568号"},{"poiid":"B2094757DB64A6F54999","title":"乐宁教育（世界广场店）","lon":"121.515","lat":"31.2323","category":"190","category_name":"培训机构","address":"上海浦东新区浦东南路855号 世界广场地下一层"},{"poiid":"B2094753D06EABF94692","title":"和良国際造型","lon":"121.51318","lat":"31.23275","category":"148","category_name":"美容美发店","address":"浦东新区东昌路580号(浦东南路口)"},{"poiid":"B2094757D06BA4FF4799","title":"组合发型(东昌路店)","lon":"121.512259151","lat":"31.2328202613","category":"148","category_name":"美容美发店","address":"浦东新区东昌路555号(近浦东南路)"},{"poiid":"B2094654DA69A0FB4199","title":"上海国际银行金融学院","lon":"121.51497","lat":"31.23228","category":"52","category_name":"高等院校","address":"浦东南路855号世界广场17层"},{"poiid":"B2094654DA69A0FA4799","title":"韦博英语培训中心浦东分部","lon":"121.51498","lat":"31.23229","category":"190","category_name":"培训机构","address":"浦东南路855号世界广场2层"},{"poiid":"B2094757D66CA4FC4693","title":"今必胜餐饮连锁","lon":"121.51250673","lat":"31.232916357","category":"68","category_name":"快餐厅","address":"浦东新区东昌路567号(近浦东南路)"},{"poiid":"B2094752D36EABFA429D","title":"东方医院","lon":"121.514188","lat":"31.232729","category":"162","category_name":"医院","address":null},{"poiid":"B2094654DA69A6FD439C","title":"中国银行上海市东昌路支行","lon":"121.51342","lat":"31.2328","category":"150","category_name":"银行","address":"东昌路590"},{"poiid":"B2094757D16CA3FE489D","title":"东园一村","lon":"121.51327592","lat":"31.231358431","category":"500","category_name":"未知分类","address":"上海市浦东新区东园一村101-139号"},{"poiid":"B2094654DB64A4FD4499","title":"世界广场","lon":"121.51498","lat":"31.23228","category":"119","category_name":"商场","address":"浦东新区浦东南路855号(近第一八佰伴)"},{"poiid":"B2094757D06BA4F5429A","title":"环球金融中心100层观光厅","lon":"121.512176738","lat":"31.2328213553","category":"500","category_name":"未知分类","address":"上海市浦东新区陆家嘴东路"},{"poiid":"B2094655D26AA0FA469C","title":"地铁东昌路站","lon":"121.51511","lat":"31.23325","category":"36","category_name":"地铁站","address":""},{"poiid":"B209475CD564A7F84392","title":"上海滩浦东香格里拉店","lon":"121.50058","lat":"31.23634","category":"119","category_name":"商场","address":"浦东富成路33号香格里拉酒店内大堂层"},{"poiid":"B2094757D169AAF9449F","title":"浦东南路东昌路","lon":"121.513675738","lat":"31.2331583625","category":"500","category_name":"未知分类","address":"上海市浦东新区陆家嘴环路"},{"poiid":"B2094757D068A3FC449F","title":"东昌路八佰半","lon":"121.5138187","lat":"31.2331371","category":"500","category_name":"未知分类","address":"上海浦东南路东昌路"},{"poiid":"B2094757DB68AAFA4799","title":"星巴克 世纪大道店 STARBUCKS COFFEE","lon":"121.5139661","lat":"31.2334014","category":"260","category_name":"其他","address":"浦东新区世纪大道800号南洋商业银行大厦内(近地铁2号线东昌路站)"},{"poiid":"B2094757DA6EA6FC459A","title":"麦当劳(世界广场店)","lon":"121.515526771546","lat":"31.2322521975298","category":"68","category_name":"快餐厅","address":"浦东新区浦东南路855号世界广场B1楼(近东昌路)"},{"poiid":"B2094757D06FA7FA409D","title":"席永记苏州汤包馆(东昌店)","lon":"121.512973","lat":"31.233044","category":"68","category_name":"快餐厅","address":"浦东新区东昌路567号(近浦东南路)"},{"poiid":"B2094757D069A6FB479A","title":"肯德基","lon":"121.514272738","lat":"31.2325353492","category":"500","category_name":"未知分类","address":"上海市浦东新区世纪大道"},{"poiid":"B2094757D169ABFD429A","title":"i.t ifc国金","lon":"121.513942538","lat":"31.2300293958","category":"500","category_name":"未知分类","address":"上海市浦东新区陆家嘴"},{"poiid":"B2094757D068A7FE4393","title":"三千丝(浦东南路店)","lon":"121.51508","lat":"31.23001","category":"500","category_name":"未知分类","address":"浦东新区浦东南路988号(浦东南路商城路)"},{"poiid":"B2094757DA6EA7F9419E","title":"汇佳桌游咖啡馆(八佰伴世界广场店)","lon":"121.514990000001","lat":"31.2324080000002","category":"247","category_name":"餐饮美食","address":"张杨路655号福兴大厦7楼"},{"poiid":"B2094752DB6BA7F54698","title":"王鼎.玉食","lon":"121.512244","lat":"31.23297","category":"500","category_name":"未知分类","address":"上海市 商城路665号"},{"poiid":"B2094757D16CABFA409E","title":"轨道交通2号线(陆家嘴)","lon":"121.512001738","lat":"31.2323463452","category":"500","category_name":"未知分类","address":"上海陆家嘴"},{"poiid":"B2094654DA69A6FD4292","title":"古都梅盲人保健按摩","lon":"121.51275","lat":"31.23296","category":"149","category_name":"洗浴推拿场所","address":"东昌路565"},{"poiid":"B2094757D16CA5F84492","title":"和良形象","lon":"121.516197238","lat":"31.2324727479","category":"148","category_name":"美容美发店","address":"上海浦东新区东昌路580号(近浦东南路)"},{"poiid":"B2094757DA6FA1F8439C","title":"世界茶饮","lon":"121.514757","lat":"31.23104","category":"247","category_name":"餐饮美食","address":"浦东新大陆广饧"},{"poiid":"B2094752D26EA6FB449B","title":"陆家嘴","lon":"121.513602","lat":"31.233073","category":"500","category_name":"未知分类","address":null},{"poiid":"B2094757D068A6FA419E","title":"古都梅(东昌路店)","lon":"121.51322","lat":"31.23242","category":"149","category_name":"洗浴推拿场所","address":"浦东新区东昌路565号院内(近浦东南路)"},{"poiid":"B2094757D06AA1FB4798","title":"交通银行(陆家嘴支行)","lon":"121.51396","lat":"31.23239","category":"150","category_name":"银行","address":"浦东新区浦东南路766号(近东昌路)"},{"poiid":"B2094757D76BA1FB4699","title":"五芳面馆 东昌店","lon":"121.51350017982","lat":"31.233085065938","category":"68","category_name":"快餐厅","address":"浦东新区浦东南路东园一村113号(近东昌路口)"},{"poiid":"B2094655D26AABFE4492","title":"镭战大联盟南外滩店","lon":"121.501408","lat":"31.204185","category":"172","category_name":"酒吧","address":"黄埔区外马路1353号"},{"poiid":"B2094757D66FA1F8449E","title":"老娘舅(世界广场店)","lon":"121.51444773","lat":"31.231959336","category":"68","category_name":"快餐厅","address":"浦东新区浦东南路855号世界广场B1楼(近东昌路)"},{"poiid":"B2094654DB6AA3F4439F","title":"香格里莱专业美发连锁浦东南路店","lon":"121.51402","lat":"31.23219","category":"148","category_name":"美容美发店","address":"浦东新区浦东南路800号"},{"poiid":"B2094757D46EA4FC4193","title":"小长安","lon":"121.513357054","lat":"31.232856793","category":"84","category_name":"西北菜","address":"浦东新区东昌路东园一村102号101室(近浦东南路)"},{"poiid":"B2094757D06FA3F8489F","title":"转角芋到爱","lon":"121.51353","lat":"31.23255","category":"67","category_name":"甜品店","address":"上海浦东新区东昌路580号(近浦东南路)  "},{"poiid":"B2094757D169ABFC4193","title":"和食居","lon":"121.514827238","lat":"31.2329044571","category":"95","category_name":"日本料理","address":"浦东新区南泉北路"},{"poiid":"B2094753D064ABFE4793","title":"派国际日式时尚沙龙","lon":"121.5142","lat":"31.23252","category":"148","category_name":"美容美发店","address":"浦东新区浦东南路855号世界广场B1楼(近东昌路)"},{"poiid":"B2094757D165A5FF4398","title":"宾家国际青年旅舍","lon":"121.5121","lat":"31.232","category":"216","category_name":"经济型连锁酒店","address":"上海浦东新区东昌路490弄东园二村210号(近浦东南路)  "},{"poiid":"B2094753D664AAFB479B","title":"正大广场","lon":"121.513038","lat":"31.234203","category":"500","category_name":"未知分类","address":"上海市 正大广场"},{"poiid":"B2094757D568A4F44892","title":"通用汽车办公楼","lon":"121.5143599","lat":"31.23312761","category":"46","category_name":"楼宇","address":"浦东新区世纪大道800号(浦东南路路口)"},{"poiid":"B2094654DA69A0FB4699","title":"东方情专业造型","lon":"121.51498","lat":"31.23229","category":"148","category_name":"美容美发店","address":"浦东南路855号世界广场1D"},{"poiid":"B2094757D06AA7F54599","title":"东川造型(旗舰店)","lon":"121.51426","lat":"31.23175","category":"148","category_name":"美容美发店","address":"上海浦东新区浦东南路800号(近东昌路)  "},{"poiid":"B2094757D664A2FC419F","title":"佳佳旺桂林米粉 东昌路店","lon":"121.513287054","lat":"31.233151793","category":"68","category_name":"快餐厅","address":"浦东新区东昌路535号(近浦东南路)"},{"poiid":"B2094757D66CA7F54093","title":"日出茶太(世界广场)","lon":"121.515219738","lat":"31.2323903461","category":"113","category_name":"冷饮店","address":"浦东新区浦东南路855号世界广场B1楼(近东昌路)"},{"poiid":"B2094655D36CA6F44393","title":"东昌路浦东南路","lon":"121.51317","lat":"31.23295","category":"38","category_name":"公交车站","address":""},{"poiid":"B2094750D16BA2F9429A","title":"地铁九号线小南门站","lon":"121.51285245619","lat":"31.232236777029","category":"627","category_name":"一般地点标志","address":"地铁九号线"},{"poiid":"B2094757D06AA7F94298","title":"中田造型","lon":"121.51473999","lat":"31.232311248","category":"148","category_name":"美容美发店","address":"上海浦东新区浦东南路855号世界广场B1楼(近东昌路地铁站3号口)"},{"poiid":"B2094655D265A6FD449A","title":"东之川造型","lon":"121.51299","lat":"31.23269","category":"148","category_name":"美容美发店","address":"东昌路568号3层"},{"poiid":"B2094757D168ABFE4993","title":"东之川","lon":"121.512430191","lat":"31.2337575915","category":"247","category_name":"餐饮美食","address":"上海东昌路568号"},{"poiid":"B2094757DB64A6F54999","title":"乐宁教育（世界广场店）","lon":"121.515","lat":"31.2323","category":"190","category_name":"培训机构","address":"上海浦东新区浦东南路855号 世界广场地下一层"},{"poiid":"B2094753D06EABF94692","title":"和良国際造型","lon":"121.51318","lat":"31.23275","category":"148","category_name":"美容美发店","address":"浦东新区东昌路580号(浦东南路口)"},{"poiid":"B2094757D06BA4FF4799","title":"组合发型(东昌路店)","lon":"121.512259151","lat":"31.2328202613","category":"148","category_name":"美容美发店","address":"浦东新区东昌路555号(近浦东南路)"},{"poiid":"B2094654DA69A0FB4199","title":"上海国际银行金融学院","lon":"121.51497","lat":"31.23228","category":"52","category_name":"高等院校","address":"浦东南路855号世界广场17层"},{"poiid":"B2094654DA69A0FA4799","title":"韦博英语培训中心浦东分部","lon":"121.51498","lat":"31.23229","category":"190","category_name":"培训机构","address":"浦东南路855号世界广场2层"},{"poiid":"B2094757D66CA4FC4693","title":"今必胜餐饮连锁","lon":"121.51250673","lat":"31.232916357","category":"68","category_name":"快餐厅","address":"浦东新区东昌路567号(近浦东南路)"},{"poiid":"B2094752D36EABFA429D","title":"东方医院","lon":"121.514188","lat":"31.232729","category":"162","category_name":"医院","address":null},{"poiid":"B2094654DA69A6FD439C","title":"中国银行上海市东昌路支行","lon":"121.51342","lat":"31.2328","category":"150","category_name":"银行","address":"东昌路590"},{"poiid":"B2094757D16CA3FE489D","title":"东园一村","lon":"121.51327592","lat":"31.231358431","category":"500","category_name":"未知分类","address":"上海市浦东新区东园一村101-139号"}]