[{"poiid":"B2094757D068ABFD449B","title":"淀山湖日月岛度假村","lon":"120.91598","lat":"31.06036","category":"215","category_name":"三星级宾馆","address":"青浦区沪青平公路8700号(近金泽镇)"},{"poiid":"B2094757D16CABFB489C","title":"金龟岛","lon":"120.91513136","lat":"31.05081503","category":"500","category_name":"未知分类","address":"上海近郊青浦金泽镇建国村(近淀山湖)  "},{"poiid":"B2094757D069A5FC459C","title":"金泽镇","lon":"120.91874","lat":"31.03473","category":"260","category_name":"其他","address":"青浦区金泽镇金溪路(近沪青平公路)"},{"poiid":"B2094655D265A5F94298","title":"G50金泽收费站","lon":"120.92125","lat":"31.05237","category":"267","category_name":"收费站","address":""},{"poiid":"B2094757D069A2FE4893","title":"G50沪渝高速淀山湖服务区","lon":"120.93998918","lat":"31.06104718","category":"260","category_name":"其他","address":"上海G50沪渝高速淀山湖服务区"},{"poiid":"B2094655D36CA0F9499D","title":"建国","lon":"120.91887","lat":"31.0539","category":"38","category_name":"公交车站","address":""},{"poiid":"B2094757D568AAFC4592","title":"金龟岛渔村","lon":"120.911373","lat":"31.04635","category":"207","category_name":"度假疗养场所","address":"青浦区金泽镇建国村(近沪青平高速金泽)"},{"poiid":"B2094753D46AABF44393","title":"中石化上海会议中心","lon":"120.919906","lat":"31.057882","category":"500","category_name":"未知分类","address":"上海市 上海市，青浦区，沪青平公路"},{"poiid":"B2094655D36CA0FD4998","title":"金泽","lon":"120.91767","lat":"31.03674","category":"38","category_name":"公交车站","address":""},{"poiid":"B2094654DB69A6FE479D","title":"上海威尼斯花园别墅","lon":"120.91919","lat":"31.06561","category":"47","category_name":"住宅区","address":"青浦区沪青公路8600号"},{"poiid":"B2094757D164A3FE479E","title":"金泽苑度假中心","lon":"120.91964","lat":"31.04509","category":"260","category_name":"其他","address":"青浦区沪青平公路9188号(近淀山湖)"},{"poiid":"B2094655D36CA7FE4493","title":"沪青平公路金泽","lon":"120.91776","lat":"31.04129","category":"38","category_name":"公交车站","address":""},{"poiid":"B2094654DB6DA5F9419D","title":"青浦区金泽镇社区卫生服务","lon":"120.92683","lat":"31.03952","category":"162","category_name":"医院","address":"金东路271号"},{"poiid":"B2094757D16BABF9459A","title":"岑卜村","lon":"120.936545","lat":"31.049274","category":"500","category_name":"未知分类","address":"上海青浦金泽镇"},{"poiid":"B2094654DB6DA5FA4093","title":"状元楼(金溪路)","lon":"120.918","lat":"31.03708","category":"70","category_name":"综合酒楼","address":""},{"poiid":"B2094757D66BA3F8459F","title":"金麒酒楼","lon":"120.9231208","lat":"31.0364431","category":"76","category_name":"上海菜","address":"青浦区金泽镇金溪路16号(沪青平公路口)"},{"poiid":"B2094654DB65A4F44692","title":"颐浩禅寺","lon":"120.92173","lat":"31.03552","category":"244","category_name":"寺庙道观","address":"青浦区金泽镇上塘街(近迎祥街)"},{"poiid":"B2094654DB6DA5FA4098","title":"金泽粮油食品综合大楼","lon":"120.91848","lat":"31.03714","category":"46","category_name":"楼宇","address":""},{"poiid":"B2094655D36CA0FD4892","title":"金泽镇政府","lon":"120.92204","lat":"31.03608","category":"38","category_name":"公交车站","address":""},{"poiid":"B2094654DB6DA5F9499F","title":"金色巴黎美发沙龙","lon":"120.91973","lat":"31.03719","category":"148","category_name":"美容美发店","address":""},{"poiid":"B2094654DB6DA5F94593","title":"金溪十二村文明小区","lon":"120.92366","lat":"31.03648","category":"47","category_name":"住宅区","address":""},{"poiid":"B2094654DB6DA5F8479D","title":"金泽中心幼儿园","lon":"120.92228","lat":"31.0361","category":"57","category_name":"幼儿园","address":""},{"poiid":"B2094654DB6DA5F44093","title":"食为天酒家","lon":"120.91521","lat":"31.06692","category":"76","category_name":"上海菜","address":"青浦区金商公路264号(近上海大观园)"},{"poiid":"B2094654DB6DA5FA459E","title":"金溪三村","lon":"120.92398","lat":"31.03601","category":"47","category_name":"住宅区","address":""},{"poiid":"B2094654DB6DA5F9419C","title":"金溪五村","lon":"120.92462","lat":"31.035051","category":"47","category_name":"住宅区","address":"金泽镇培育路125弄"},{"poiid":"B2094655D36CA0FD4893","title":"金泽中学","lon":"120.92377","lat":"31.03369","category":"55","category_name":"中学","address":""},{"poiid":"B2094654DB6DA5F44198","title":"阿三河鲜馆","lon":"120.91468","lat":"31.0674","category":"88","category_name":"海鲜酒楼","address":"青浦区金商公路388号"},{"poiid":"B2094654DB6DA5F8449D","title":"中国农业银行青浦区金泽支行","lon":"120.91809","lat":"31.03665","category":"150","category_name":"银行","address":"金溪路287"},{"poiid":"B2094654DB6DA5F9409A","title":"上海淀山湖宾馆","lon":"120.91638","lat":"31.06669","category":"250","category_name":"公园户外","address":"青浦区青商公路200号(近沪青平公路)"},{"poiid":"B2094654DB6DA5F8479E","title":"上海东兴国际游艇俱乐部","lon":"120.92436","lat":"31.06883","category":"250","category_name":"公园户外","address":"青浦区西岑镇沪青平公路8500号"},{"poiid":"B2094654DB6DA5F9409D","title":"上海园湖苑宾馆","lon":"120.91536","lat":"31.06735","category":"250","category_name":"公园户外","address":"青浦区金商路258号(近大观园)"},{"poiid":"B2094654DB6DA5FB4892","title":"上海金泽实业发展有限公司","lon":"120.91622","lat":"31.06623","category":"263","category_name":"公司","address":"青商路215"},{"poiid":"B2094757D569A1FF479A","title":"上海通行费西岑征收稽查站","lon":"120.928749","lat":"31.068668","category":"267","category_name":"收费站","address":"中国上海市青浦区G318"}]