[{"poiid":"B2094655D26BA1F54793","title":"G50沪渝高速徐泾收费站","lon":"121.31355","lat":"31.15939","category":"267","category_name":"收费站","address":"上海市松江区"},{"poiid":"B2094757D064A3FD419B","title":"虹桥机场(2号航站楼)","lon":"121.32525056","lat":"31.1613781955","category":"500","category_name":"未知分类","address":"上海市闵行区嘉闵高架路出口"},{"poiid":"B2094757D06FA6FF479E","title":"九城湖滨国际公寓","lon":"121.31986218474","lat":"31.156459296085","category":"47","category_name":"住宅区","address":"松江区沪亭北路618弄(近涞寅路)"},{"poiid":"B2094757DA69A2FE449A","title":"维多利亚庄园","lon":"121.32690765483","lat":"31.168343013611","category":"251","category_name":"出行住宿","address":"闵行区沪青平公路1209号(中春路口)查看地图"},{"poiid":"B2094757D06FAAF9489B","title":"贝尚湾","lon":"121.316315","lat":"31.147105","category":"500","category_name":"未知分类","address":"松江区沪亭北路338弄"},{"poiid":"B2094757D569A7FD4093","title":"绿庭尚城","lon":"121.31324","lat":"31.145933","category":"47","category_name":"住宅区","address":"松江区涞寅路658弄"},{"poiid":"B2094757D664A6F44292","title":"麦当劳 北九亭店 McDonald's","lon":"121.311680054","lat":"31.155125793","category":"68","category_name":"快餐厅","address":"松江区九亭镇沪亭北路649号摩立盛会生活广场1楼(近涞寅路)"},{"poiid":"B2094655D264A7FD429D","title":"金丰蓝庭","lon":"121.31142","lat":"31.15565","category":"47","category_name":"住宅区","address":"上海市松江区沪亭北路1080弄"},{"poiid":"B2094757D069A6FE469A","title":"中大九里德","lon":"121.32385681244","lat":"31.159818520381","category":"47","category_name":"住宅区","address":"上海松江九亭涞坊路650弄"},{"poiid":"B2094654DA64A4FE489A","title":"摩卡小城","lon":"121.316","lat":"31.1504","category":"47","category_name":"住宅区","address":"松江区九亭镇九杜路505弄"},{"poiid":"B2094757D06AA1FE409F","title":"知雅汇","lon":"121.31909","lat":"31.154091","category":"500","category_name":"未知分类","address":"上海松江九亭涞坊路333弄"},{"poiid":"B2094655D265A4FE4193","title":"依云听香园","lon":"121.317856","lat":"31.161546","category":"47","category_name":"住宅区","address":"上海市松江区沪亭北路1001弄"},{"poiid":"B2094655D36CA7FE409F","title":"沪亭北路涞坊路","lon":"121.31381","lat":"31.15164","category":"38","category_name":"公交车站","address":""},{"poiid":"B2094757D069A3FE4098","title":"上海德宝汽车服务有限公司","lon":"121.3203363","lat":"31.173992906","category":"158","category_name":"汽车销售","address":"闵行区华漕镇华翔路245号(近沪青平公路)"},{"poiid":"B2094750D26CA1FF439C","title":"农家乐","lon":"121.31572","lat":"31.14803","category":"87","category_name":"特色／地方风味餐厅","address":"松江区沪亭北路1299号"},{"poiid":"B2094757D068A6F8439E","title":"甜蜜蜜(贝尚湾店)","lon":"121.31741883","lat":"31.146581382","category":"72","category_name":"广东菜","address":"松江区沪亭北路408号(近涞寅路)"},{"poiid":"B2094757D068AAFB429E","title":"卫家角息园","lon":"121.30461","lat":"31.17422","category":"260","category_name":"其他","address":"青浦区老沪青平公路528号(近徐泾卫家角)"},{"poiid":"B2094655D36DA7FF469C","title":"中春路沪青平公路","lon":"121.33084","lat":"31.16465","category":"38","category_name":"公交车站","address":""},{"poiid":"B2094757D16FA5F44293","title":"上海公馆","lon":"121.305277","lat":"31.151884","category":"47","category_name":"住宅区","address":"上海市松江区涞坊路1199弄"},{"poiid":"B2094654DB69A5FF4193","title":"莫泰168连锁旅店(华翔路店)","lon":"121.32566","lat":"31.1708","category":"216","category_name":"经济型连锁酒店","address":"上海市闵行区华翔路29号（近沪青平公路）"},{"poiid":"B2094757D06AA4F94692","title":"英伦风尚","lon":"121.312","lat":"31.1543","category":"500","category_name":"未知分类","address":"松江区涞坊路1033弄(近和记小菜)"},{"poiid":"B2094750D56AA0FE479E","title":"朗庭上郡苑","lon":"121.312","lat":"31.1596","category":"47","category_name":"住宅区","address":"松江区朗亭路288弄"},{"poiid":"B2094654DA64A4F9419D","title":"怡君苑","lon":"121.3157","lat":"31.164207","category":"47","category_name":"住宅区","address":"上海市青浦区诸光路366弄"},{"poiid":"B2094757D06BA6FE4699","title":"湖畔佳苑别墅区","lon":"121.30486871","lat":"31.171664221","category":"47","category_name":"住宅区","address":"上海徐泾镇沪青平公路1517弄"},{"poiid":"B2094654D56AA5F4479B","title":"叠翠别墅","lon":"121.31193","lat":"31.1668","category":"47","category_name":"住宅区","address":"诸光路"},{"poiid":"B2094757D16DA7FD429F","title":"上海德法学校","lon":"121.308452","lat":"31.161429","category":"253","category_name":"校园生活","address":"上海青浦区徐泾镇高光路350号"},{"poiid":"B2094752DA6FA0FD469E","title":"杜巷小区","lon":"121.314254","lat":"31.158392","category":"47","category_name":"住宅区","address":"上海市 涞坊路288弄"},{"poiid":"B2094757D464AAFD469B","title":"普罗旺斯茶餐厅","lon":"121.316969","lat":"31.14645","category":"247","category_name":"餐饮美食","address":"九亭镇沪亭北路488号贝尚湾商业街2楼近莱寅路"},{"poiid":"B2094751D26DA1FB4693","title":"辰山植物园","lon":"121.313629","lat":"31.158786","category":"250","category_name":"公园户外","address":null},{"poiid":"B2094757D66EA5F4459B","title":"面道小馆","lon":"121.31336116","lat":"31.159290251","category":"247","category_name":"餐饮美食","address":"上海南泉北路35号"},{"poiid":"B2094655D268ABFE4998","title":"Ａ９徐泾收费站","lon":"121.31353","lat":"31.15945","category":"267","category_name":"收费站","address":""},{"poiid":"B2094757D069A3FC459E","title":"汤豪仕汤馆(贝尚坊店)","lon":"121.319308","lat":"31.149971","category":"72","category_name":"广东菜","address":"松江区沪亭北路488号贝尚湾休闲广场128铺(近贝尚湾休闲广场)"},{"poiid":"B2094654D56AABFF4793","title":"光联公寓","lon":"121.31607","lat":"31.16581","category":"47","category_name":"住宅区","address":"诸光路488号"},{"poiid":"B2094757D168A6FA4093","title":"广州本田本亭4S店里","lon":"121.31305856","lat":"31.164060252","category":"500","category_name":"未知分类","address":"上海市青浦区高光路"},{"poiid":"B2094654DA64A4FF4699","title":"上海正伟印刷有限公司","lon":"121.31461","lat":"31.16296","category":"263","category_name":"公司","address":"诸光路343号"},{"poiid":"B2094757D66EA2F94999","title":"上海思探博机电设备有限公司","lon":"121.31706991","lat":"31.162787575","category":"263","category_name":"公司","address":"上海诸光路363号甲"},{"poiid":"B2094757D56CA4FF459D","title":"星巴克 徐泾店 Starbucks Cafe","lon":"121.323431054","lat":"31.169947793","category":"247","category_name":"餐饮美食","address":"沪青平公路1829号家乐福1楼近嘉金高速公路"},{"poiid":"B2094655D36CA7F5439E","title":"光联村新区","lon":"121.31372","lat":"31.16592","category":"38","category_name":"公交车站","address":""},{"poiid":"B2094654DA64A4FF469B","title":"正伟印刷","lon":"121.31294","lat":"31.16324","category":"263","category_name":"公司","address":""},{"poiid":"B2094757D165AAFD469D","title":"航华菜场","lon":"121.31899056","lat":"31.1618902063","category":"249","category_name":"购物服务","address":"上海航中路(近航北路)"},{"poiid":"B2094654D56AABFF4493","title":"光联村图书室","lon":"121.31371","lat":"31.1656","category":"181","category_name":"图书馆","address":""},{"poiid":"B2094757D164A1FD4493","title":"上海基华物流有限公司","lon":"121.321392479","lat":"31.1592830361","category":"46","category_name":"楼宇","address":"上海青浦区诸光路36号"},{"poiid":"B2094757D169AAF9479E","title":"G50沪渝高速沪苏收费站","lon":"121.310052","lat":"31.157941","category":"267","category_name":"收费站","address":"苏州G50沪渝高速沪苏收费站"},{"poiid":"B2094750DA65A6F84892","title":"上海欢乐谷","lon":"121.322448","lat":"31.163492","category":"250","category_name":"公园户外","address":null},{"poiid":"B2094757D66BA5FF4292","title":"阿本布鲁特 Abendbrot","lon":"121.323337054","lat":"31.159786793","category":"112","category_name":"糕饼店","address":"青浦区高光路453号(近徐泾镇)"},{"poiid":"B2094750D76CA2F9409B","title":"釜山火炉(沪亭北路店)","lon":"121.313","lat":"31.1532","category":"96","category_name":"韩国料理","address":"松江区沪亭北路607弄摩立盛会生活广场12号(近涞寅路)"},{"poiid":"B2094654D56AABFF469B","title":"光联村","lon":"121.31734","lat":"31.166504","category":"47","category_name":"住宅区","address":"诸光路436号"},{"poiid":"B2094654DA64A4FF439B","title":"西郊紫郡","lon":"121.30683852572","lat":"31.164814439571","category":"47","category_name":"住宅区","address":"高泾路258弄"},{"poiid":"B2094654D56AA6F84992","title":"安盛杉庄","lon":"121.31394","lat":"31.17018","category":"47","category_name":"住宅区","address":"沪青平公路1357号"},{"poiid":"B2094757D065A7FE4599","title":"上海市邮政速递物流有限公司","lon":"121.32099386","lat":"31.16016927","category":"500","category_name":"未知分类","address":"上海中春路9965号"},{"poiid":"B2094655D26BA1F54793","title":"G50沪渝高速徐泾收费站","lon":"121.31355","lat":"31.15939","category":"267","category_name":"收费站","address":"上海市松江区"},{"poiid":"B2094757D064A3FD419B","title":"虹桥机场(2号航站楼)","lon":"121.32525056","lat":"31.1613781955","category":"500","category_name":"未知分类","address":"上海市闵行区嘉闵高架路出口"},{"poiid":"B2094757D06FA6FF479E","title":"九城湖滨国际公寓","lon":"121.31986218474","lat":"31.156459296085","category":"47","category_name":"住宅区","address":"松江区沪亭北路618弄(近涞寅路)"},{"poiid":"B2094757DA69A2FE449A","title":"维多利亚庄园","lon":"121.32690765483","lat":"31.168343013611","category":"251","category_name":"出行住宿","address":"闵行区沪青平公路1209号(中春路口)查看地图"},{"poiid":"B2094757D06FAAF9489B","title":"贝尚湾","lon":"121.316315","lat":"31.147105","category":"500","category_name":"未知分类","address":"松江区沪亭北路338弄"},{"poiid":"B2094757D569A7FD4093","title":"绿庭尚城","lon":"121.31324","lat":"31.145933","category":"47","category_name":"住宅区","address":"松江区涞寅路658弄"},{"poiid":"B2094757D664A6F44292","title":"麦当劳 北九亭店 McDonald's","lon":"121.311680054","lat":"31.155125793","category":"68","category_name":"快餐厅","address":"松江区九亭镇沪亭北路649号摩立盛会生活广场1楼(近涞寅路)"},{"poiid":"B2094655D264A7FD429D","title":"金丰蓝庭","lon":"121.31142","lat":"31.15565","category":"47","category_name":"住宅区","address":"上海市松江区沪亭北路1080弄"},{"poiid":"B2094757D069A6FE469A","title":"中大九里德","lon":"121.32385681244","lat":"31.159818520381","category":"47","category_name":"住宅区","address":"上海松江九亭涞坊路650弄"},{"poiid":"B2094654DA64A4FE489A","title":"摩卡小城","lon":"121.316","lat":"31.1504","category":"47","category_name":"住宅区","address":"松江区九亭镇九杜路505弄"},{"poiid":"B2094757D06AA1FE409F","title":"知雅汇","lon":"121.31909","lat":"31.154091","category":"500","category_name":"未知分类","address":"上海松江九亭涞坊路333弄"},{"poiid":"B2094655D265A4FE4193","title":"依云听香园","lon":"121.317856","lat":"31.161546","category":"47","category_name":"住宅区","address":"上海市松江区沪亭北路1001弄"},{"poiid":"B2094655D36CA7FE409F","title":"沪亭北路涞坊路","lon":"121.31381","lat":"31.15164","category":"38","category_name":"公交车站","address":""},{"poiid":"B2094757D069A3FE4098","title":"上海德宝汽车服务有限公司","lon":"121.3203363","lat":"31.173992906","category":"158","category_name":"汽车销售","address":"闵行区华漕镇华翔路245号(近沪青平公路)"},{"poiid":"B2094750D26CA1FF439C","title":"农家乐","lon":"121.31572","lat":"31.14803","category":"87","category_name":"特色／地方风味餐厅","address":"松江区沪亭北路1299号"},{"poiid":"B2094757D068A6F8439E","title":"甜蜜蜜(贝尚湾店)","lon":"121.31741883","lat":"31.146581382","category":"72","category_name":"广东菜","address":"松江区沪亭北路408号(近涞寅路)"},{"poiid":"B2094757D068AAFB429E","title":"卫家角息园","lon":"121.30461","lat":"31.17422","category":"260","category_name":"其他","address":"青浦区老沪青平公路528号(近徐泾卫家角)"},{"poiid":"B2094655D36DA7FF469C","title":"中春路沪青平公路","lon":"121.33084","lat":"31.16465","category":"38","category_name":"公交车站","address":""},{"poiid":"B2094757D16FA5F44293","title":"上海公馆","lon":"121.305277","lat":"31.151884","category":"47","category_name":"住宅区","address":"上海市松江区涞坊路1199弄"},{"poiid":"B2094654DB69A5FF4193","title":"莫泰168连锁旅店(华翔路店)","lon":"121.32566","lat":"31.1708","category":"216","category_name":"经济型连锁酒店","address":"上海市闵行区华翔路29号（近沪青平公路）"},{"poiid":"B2094757D06AA4F94692","title":"英伦风尚","lon":"121.312","lat":"31.1543","category":"500","category_name":"未知分类","address":"松江区涞坊路1033弄(近和记小菜)"},{"poiid":"B2094750D56AA0FE479E","title":"朗庭上郡苑","lon":"121.312","lat":"31.1596","category":"47","category_name":"住宅区","address":"松江区朗亭路288弄"},{"poiid":"B2094654DA64A4F9419D","title":"怡君苑","lon":"121.3157","lat":"31.164207","category":"47","category_name":"住宅区","address":"上海市青浦区诸光路366弄"},{"poiid":"B2094757D06BA6FE4699","title":"湖畔佳苑别墅区","lon":"121.30486871","lat":"31.171664221","category":"47","category_name":"住宅区","address":"上海徐泾镇沪青平公路1517弄"},{"poiid":"B2094654D56AA5F4479B","title":"叠翠别墅","lon":"121.31193","lat":"31.1668","category":"47","category_name":"住宅区","address":"诸光路"},{"poiid":"B2094757D16DA7FD429F","title":"上海德法学校","lon":"121.308452","lat":"31.161429","category":"253","category_name":"校园生活","address":"上海青浦区徐泾镇高光路350号"},{"poiid":"B2094752DA6FA0FD469E","title":"杜巷小区","lon":"121.314254","lat":"31.158392","category":"47","category_name":"住宅区","address":"上海市 涞坊路288弄"},{"poiid":"B2094757D464AAFD469B","title":"普罗旺斯茶餐厅","lon":"121.316969","lat":"31.14645","category":"247","category_name":"餐饮美食","address":"九亭镇沪亭北路488号贝尚湾商业街2楼近莱寅路"},{"poiid":"B2094751D26DA1FB4693","title":"辰山植物园","lon":"121.313629","lat":"31.158786","category":"250","category_name":"公园户外","address":null},{"poiid":"B2094757D66EA5F4459B","title":"面道小馆","lon":"121.31336116","lat":"31.159290251","category":"247","category_name":"餐饮美食","address":"上海南泉北路35号"},{"poiid":"B2094655D268ABFE4998","title":"Ａ９徐泾收费站","lon":"121.31353","lat":"31.15945","category":"267","category_name":"收费站","address":""},{"poiid":"B2094757D069A3FC459E","title":"汤豪仕汤馆(贝尚坊店)","lon":"121.319308","lat":"31.149971","category":"72","category_name":"广东菜","address":"松江区沪亭北路488号贝尚湾休闲广场128铺(近贝尚湾休闲广场)"},{"poiid":"B2094654D56AABFF4793","title":"光联公寓","lon":"121.31607","lat":"31.16581","category":"47","category_name":"住宅区","address":"诸光路488号"},{"poiid":"B2094757D168A6FA4093","title":"广州本田本亭4S店里","lon":"121.31305856","lat":"31.164060252","category":"500","category_name":"未知分类","address":"上海市青浦区高光路"},{"poiid":"B2094654DA64A4FF4699","title":"上海正伟印刷有限公司","lon":"121.31461","lat":"31.16296","category":"263","category_name":"公司","address":"诸光路343号"},{"poiid":"B2094757D66EA2F94999","title":"上海思探博机电设备有限公司","lon":"121.31706991","lat":"31.162787575","category":"263","category_name":"公司","address":"上海诸光路363号甲"},{"poiid":"B2094757D56CA4FF459D","title":"星巴克 徐泾店 Starbucks Cafe","lon":"121.323431054","lat":"31.169947793","category":"247","category_name":"餐饮美食","address":"沪青平公路1829号家乐福1楼近嘉金高速公路"},{"poiid":"B2094655D36CA7F5439E","title":"光联村新区","lon":"121.31372","lat":"31.16592","category":"38","category_name":"公交车站","address":""},{"poiid":"B2094654DA64A4FF469B","title":"正伟印刷","lon":"121.31294","lat":"31.16324","category":"263","category_name":"公司","address":""},{"poiid":"B2094757D165AAFD469D","title":"航华菜场","lon":"121.31899056","lat":"31.1618902063","category":"249","category_name":"购物服务","address":"上海航中路(近航北路)"},{"poiid":"B2094654D56AABFF4493","title":"光联村图书室","lon":"121.31371","lat":"31.1656","category":"181","category_name":"图书馆","address":""},{"poiid":"B2094757D164A1FD4493","title":"上海基华物流有限公司","lon":"121.321392479","lat":"31.1592830361","category":"46","category_name":"楼宇","address":"上海青浦区诸光路36号"},{"poiid":"B2094757D169AAF9479E","title":"G50沪渝高速沪苏收费站","lon":"121.310052","lat":"31.157941","category":"267","category_name":"收费站","address":"苏州G50沪渝高速沪苏收费站"},{"poiid":"B2094750DA65A6F84892","title":"上海欢乐谷","lon":"121.322448","lat":"31.163492","category":"250","category_name":"公园户外","address":null},{"poiid":"B2094757D66BA5FF4292","title":"阿本布鲁特 Abendbrot","lon":"121.323337054","lat":"31.159786793","category":"112","category_name":"糕饼店","address":"青浦区高光路453号(近徐泾镇)"},{"poiid":"B2094750D76CA2F9409B","title":"釜山火炉(沪亭北路店)","lon":"121.313","lat":"31.1532","category":"96","category_name":"韩国料理","address":"松江区沪亭北路607弄摩立盛会生活广场12号(近涞寅路)"},{"poiid":"B2094654D56AABFF469B","title":"光联村","lon":"121.31734","lat":"31.166504","category":"47","category_name":"住宅区","address":"诸光路436号"},{"poiid":"B2094654DA64A4FF439B","title":"西郊紫郡","lon":"121.30683852572","lat":"31.164814439571","category":"47","category_name":"住宅区","address":"高泾路258弄"},{"poiid":"B2094654D56AA6F84992","title":"安盛杉庄","lon":"121.31394","lat":"31.17018","category":"47","category_name":"住宅区","address":"沪青平公路1357号"},{"poiid":"B2094757D065A7FE4599","title":"上海市邮政速递物流有限公司","lon":"121.32099386","lat":"31.16016927","category":"500","category_name":"未知分类","address":"上海中春路9965号"},{"poiid":"B2094655D26BA1F54793","title":"G50沪渝高速徐泾收费站","lon":"121.31355","lat":"31.15939","category":"267","category_name":"收费站","address":"上海市松江区"},{"poiid":"B2094757D064A3FD419B","title":"虹桥机场(2号航站楼)","lon":"121.32525056","lat":"31.1613781955","category":"500","category_name":"未知分类","address":"上海市闵行区嘉闵高架路出口"},{"poiid":"B2094757D06FA6FF479E","title":"九城湖滨国际公寓","lon":"121.31986218474","lat":"31.156459296085","category":"47","category_name":"住宅区","address":"松江区沪亭北路618弄(近涞寅路)"},{"poiid":"B2094757DA69A2FE449A","title":"维多利亚庄园","lon":"121.32690765483","lat":"31.168343013611","category":"251","category_name":"出行住宿","address":"闵行区沪青平公路1209号(中春路口)查看地图"},{"poiid":"B2094757D06FAAF9489B","title":"贝尚湾","lon":"121.316315","lat":"31.147105","category":"500","category_name":"未知分类","address":"松江区沪亭北路338弄"},{"poiid":"B2094757D569A7FD4093","title":"绿庭尚城","lon":"121.31324","lat":"31.145933","category":"47","category_name":"住宅区","address":"松江区涞寅路658弄"},{"poiid":"B2094757D664A6F44292","title":"麦当劳 北九亭店 McDonald's","lon":"121.311680054","lat":"31.155125793","category":"68","category_name":"快餐厅","address":"松江区九亭镇沪亭北路649号摩立盛会生活广场1楼(近涞寅路)"},{"poiid":"B2094655D264A7FD429D","title":"金丰蓝庭","lon":"121.31142","lat":"31.15565","category":"47","category_name":"住宅区","address":"上海市松江区沪亭北路1080弄"},{"poiid":"B2094757D069A6FE469A","title":"中大九里德","lon":"121.32385681244","lat":"31.159818520381","category":"47","category_name":"住宅区","address":"上海松江九亭涞坊路650弄"},{"poiid":"B2094654DA64A4FE489A","title":"摩卡小城","lon":"121.316","lat":"31.1504","category":"47","category_name":"住宅区","address":"松江区九亭镇九杜路505弄"},{"poiid":"B2094757D06AA1FE409F","title":"知雅汇","lon":"121.31909","lat":"31.154091","category":"500","category_name":"未知分类","address":"上海松江九亭涞坊路333弄"},{"poiid":"B2094655D265A4FE4193","title":"依云听香园","lon":"121.317856","lat":"31.161546","category":"47","category_name":"住宅区","address":"上海市松江区沪亭北路1001弄"},{"poiid":"B2094655D36CA7FE409F","title":"沪亭北路涞坊路","lon":"121.31381","lat":"31.15164","category":"38","category_name":"公交车站","address":""},{"poiid":"B2094757D069A3FE4098","title":"上海德宝汽车服务有限公司","lon":"121.3203363","lat":"31.173992906","category":"158","category_name":"汽车销售","address":"闵行区华漕镇华翔路245号(近沪青平公路)"},{"poiid":"B2094750D26CA1FF439C","title":"农家乐","lon":"121.31572","lat":"31.14803","category":"87","category_name":"特色／地方风味餐厅","address":"松江区沪亭北路1299号"},{"poiid":"B2094757D068A6F8439E","title":"甜蜜蜜(贝尚湾店)","lon":"121.31741883","lat":"31.146581382","category":"72","category_name":"广东菜","address":"松江区沪亭北路408号(近涞寅路)"},{"poiid":"B2094757D068AAFB429E","title":"卫家角息园","lon":"121.30461","lat":"31.17422","category":"260","category_name":"其他","address":"青浦区老沪青平公路528号(近徐泾卫家角)"},{"poiid":"B2094655D36DA7FF469C","title":"中春路沪青平公路","lon":"121.33084","lat":"31.16465","category":"38","category_name":"公交车站","address":""},{"poiid":"B2094757D16FA5F44293","title":"上海公馆","lon":"121.305277","lat":"31.151884","category":"47","category_name":"住宅区","address":"上海市松江区涞坊路1199弄"},{"poiid":"B2094654DB69A5FF4193","title":"莫泰168连锁旅店(华翔路店)","lon":"121.32566","lat":"31.1708","category":"216","category_name":"经济型连锁酒店","address":"上海市闵行区华翔路29号（近沪青平公路）"},{"poiid":"B2094757D06AA4F94692","title":"英伦风尚","lon":"121.312","lat":"31.1543","category":"500","category_name":"未知分类","address":"松江区涞坊路1033弄(近和记小菜)"},{"poiid":"B2094750D56AA0FE479E","title":"朗庭上郡苑","lon":"121.312","lat":"31.1596","category":"47","category_name":"住宅区","address":"松江区朗亭路288弄"},{"poiid":"B2094654DA64A4F9419D","title":"怡君苑","lon":"121.3157","lat":"31.164207","category":"47","category_name":"住宅区","address":"上海市青浦区诸光路366弄"},{"poiid":"B2094757D06BA6FE4699","title":"湖畔佳苑别墅区","lon":"121.30486871","lat":"31.171664221","category":"47","category_name":"住宅区","address":"上海徐泾镇沪青平公路1517弄"},{"poiid":"B2094654D56AA5F4479B","title":"叠翠别墅","lon":"121.31193","lat":"31.1668","category":"47","category_name":"住宅区","address":"诸光路"},{"poiid":"B2094757D16DA7FD429F","title":"上海德法学校","lon":"121.308452","lat":"31.161429","category":"253","category_name":"校园生活","address":"上海青浦区徐泾镇高光路350号"},{"poiid":"B2094752DA6FA0FD469E","title":"杜巷小区","lon":"121.314254","lat":"31.158392","category":"47","category_name":"住宅区","address":"上海市 涞坊路288弄"},{"poiid":"B2094757D464AAFD469B","title":"普罗旺斯茶餐厅","lon":"121.316969","lat":"31.14645","category":"247","category_name":"餐饮美食","address":"九亭镇沪亭北路488号贝尚湾商业街2楼近莱寅路"},{"poiid":"B2094751D26DA1FB4693","title":"辰山植物园","lon":"121.313629","lat":"31.158786","category":"250","category_name":"公园户外","address":null},{"poiid":"B2094757D66EA5F4459B","title":"面道小馆","lon":"121.31336116","lat":"31.159290251","category":"247","category_name":"餐饮美食","address":"上海南泉北路35号"},{"poiid":"B2094655D268ABFE4998","title":"Ａ９徐泾收费站","lon":"121.31353","lat":"31.15945","category":"267","category_name":"收费站","address":""},{"poiid":"B2094757D069A3FC459E","title":"汤豪仕汤馆(贝尚坊店)","lon":"121.319308","lat":"31.149971","category":"72","category_name":"广东菜","address":"松江区沪亭北路488号贝尚湾休闲广场128铺(近贝尚湾休闲广场)"},{"poiid":"B2094654D56AABFF4793","title":"光联公寓","lon":"121.31607","lat":"31.16581","category":"47","category_name":"住宅区","address":"诸光路488号"},{"poiid":"B2094757D168A6FA4093","title":"广州本田本亭4S店里","lon":"121.31305856","lat":"31.164060252","category":"500","category_name":"未知分类","address":"上海市青浦区高光路"},{"poiid":"B2094654DA64A4FF4699","title":"上海正伟印刷有限公司","lon":"121.31461","lat":"31.16296","category":"263","category_name":"公司","address":"诸光路343号"},{"poiid":"B2094757D66EA2F94999","title":"上海思探博机电设备有限公司","lon":"121.31706991","lat":"31.162787575","category":"263","category_name":"公司","address":"上海诸光路363号甲"},{"poiid":"B2094757D56CA4FF459D","title":"星巴克 徐泾店 Starbucks Cafe","lon":"121.323431054","lat":"31.169947793","category":"247","category_name":"餐饮美食","address":"沪青平公路1829号家乐福1楼近嘉金高速公路"},{"poiid":"B2094655D36CA7F5439E","title":"光联村新区","lon":"121.31372","lat":"31.16592","category":"38","category_name":"公交车站","address":""},{"poiid":"B2094654DA64A4FF469B","title":"正伟印刷","lon":"121.31294","lat":"31.16324","category":"263","category_name":"公司","address":""},{"poiid":"B2094757D165AAFD469D","title":"航华菜场","lon":"121.31899056","lat":"31.1618902063","category":"249","category_name":"购物服务","address":"上海航中路(近航北路)"},{"poiid":"B2094654D56AABFF4493","title":"光联村图书室","lon":"121.31371","lat":"31.1656","category":"181","category_name":"图书馆","address":""},{"poiid":"B2094757D164A1FD4493","title":"上海基华物流有限公司","lon":"121.321392479","lat":"31.1592830361","category":"46","category_name":"楼宇","address":"上海青浦区诸光路36号"},{"poiid":"B2094757D169AAF9479E","title":"G50沪渝高速沪苏收费站","lon":"121.310052","lat":"31.157941","category":"267","category_name":"收费站","address":"苏州G50沪渝高速沪苏收费站"},{"poiid":"B2094750DA65A6F84892","title":"上海欢乐谷","lon":"121.322448","lat":"31.163492","category":"250","category_name":"公园户外","address":null},{"poiid":"B2094757D66BA5FF4292","title":"阿本布鲁特 Abendbrot","lon":"121.323337054","lat":"31.159786793","category":"112","category_name":"糕饼店","address":"青浦区高光路453号(近徐泾镇)"},{"poiid":"B2094750D76CA2F9409B","title":"釜山火炉(沪亭北路店)","lon":"121.313","lat":"31.1532","category":"96","category_name":"韩国料理","address":"松江区沪亭北路607弄摩立盛会生活广场12号(近涞寅路)"},{"poiid":"B2094654D56AABFF469B","title":"光联村","lon":"121.31734","lat":"31.166504","category":"47","category_name":"住宅区","address":"诸光路436号"},{"poiid":"B2094654DA64A4FF439B","title":"西郊紫郡","lon":"121.30683852572","lat":"31.164814439571","category":"47","category_name":"住宅区","address":"高泾路258弄"},{"poiid":"B2094654D56AA6F84992","title":"安盛杉庄","lon":"121.31394","lat":"31.17018","category":"47","category_name":"住宅区","address":"沪青平公路1357号"},{"poiid":"B2094757D065A7FE4599","title":"上海市邮政速递物流有限公司","lon":"121.32099386","lat":"31.16016927","category":"500","category_name":"未知分类","address":"上海中春路9965号"},{"poiid":"B2094655D26BA1F54793","title":"G50沪渝高速徐泾收费站","lon":"121.31355","lat":"31.15939","category":"267","category_name":"收费站","address":"上海市松江区"},{"poiid":"B2094757D064A3FD419B","title":"虹桥机场(2号航站楼)","lon":"121.32525056","lat":"31.1613781955","category":"500","category_name":"未知分类","address":"上海市闵行区嘉闵高架路出口"},{"poiid":"B2094757D06FA6FF479E","title":"九城湖滨国际公寓","lon":"121.31986218474","lat":"31.156459296085","category":"47","category_name":"住宅区","address":"松江区沪亭北路618弄(近涞寅路)"},{"poiid":"B2094757DA69A2FE449A","title":"维多利亚庄园","lon":"121.32690765483","lat":"31.168343013611","category":"251","category_name":"出行住宿","address":"闵行区沪青平公路1209号(中春路口)查看地图"},{"poiid":"B2094757D06FAAF9489B","title":"贝尚湾","lon":"121.316315","lat":"31.147105","category":"500","category_name":"未知分类","address":"松江区沪亭北路338弄"},{"poiid":"B2094757D569A7FD4093","title":"绿庭尚城","lon":"121.31324","lat":"31.145933","category":"47","category_name":"住宅区","address":"松江区涞寅路658弄"},{"poiid":"B2094757D664A6F44292","title":"麦当劳 北九亭店 McDonald's","lon":"121.311680054","lat":"31.155125793","category":"68","category_name":"快餐厅","address":"松江区九亭镇沪亭北路649号摩立盛会生活广场1楼(近涞寅路)"},{"poiid":"B2094655D264A7FD429D","title":"金丰蓝庭","lon":"121.31142","lat":"31.15565","category":"47","category_name":"住宅区","address":"上海市松江区沪亭北路1080弄"},{"poiid":"B2094757D069A6FE469A","title":"中大九里德","lon":"121.32385681244","lat":"31.159818520381","category":"47","category_name":"住宅区","address":"上海松江九亭涞坊路650弄"},{"poiid":"B2094654DA64A4FE489A","title":"摩卡小城","lon":"121.316","lat":"31.1504","category":"47","category_name":"住宅区","address":"松江区九亭镇九杜路505弄"},{"poiid":"B2094757D06AA1FE409F","title":"知雅汇","lon":"121.31909","lat":"31.154091","category":"500","category_name":"未知分类","address":"上海松江九亭涞坊路333弄"},{"poiid":"B2094655D265A4FE4193","title":"依云听香园","lon":"121.317856","lat":"31.161546","category":"47","category_name":"住宅区","address":"上海市松江区沪亭北路1001弄"},{"poiid":"B2094655D36CA7FE409F","title":"沪亭北路涞坊路","lon":"121.31381","lat":"31.15164","category":"38","category_name":"公交车站","address":""},{"poiid":"B2094757D069A3FE4098","title":"上海德宝汽车服务有限公司","lon":"121.3203363","lat":"31.173992906","category":"158","category_name":"汽车销售","address":"闵行区华漕镇华翔路245号(近沪青平公路)"},{"poiid":"B2094750D26CA1FF439C","title":"农家乐","lon":"121.31572","lat":"31.14803","category":"87","category_name":"特色／地方风味餐厅","address":"松江区沪亭北路1299号"},{"poiid":"B2094757D068A6F8439E","title":"甜蜜蜜(贝尚湾店)","lon":"121.31741883","lat":"31.146581382","category":"72","category_name":"广东菜","address":"松江区沪亭北路408号(近涞寅路)"},{"poiid":"B2094757D068AAFB429E","title":"卫家角息园","lon":"121.30461","lat":"31.17422","category":"260","category_name":"其他","address":"青浦区老沪青平公路528号(近徐泾卫家角)"},{"poiid":"B2094655D36DA7FF469C","title":"中春路沪青平公路","lon":"121.33084","lat":"31.16465","category":"38","category_name":"公交车站","address":""},{"poiid":"B2094757D16FA5F44293","title":"上海公馆","lon":"121.305277","lat":"31.151884","category":"47","category_name":"住宅区","address":"上海市松江区涞坊路1199弄"},{"poiid":"B2094654DB69A5FF4193","title":"莫泰168连锁旅店(华翔路店)","lon":"121.32566","lat":"31.1708","category":"216","category_name":"经济型连锁酒店","address":"上海市闵行区华翔路29号（近沪青平公路）"},{"poiid":"B2094757D06AA4F94692","title":"英伦风尚","lon":"121.312","lat":"31.1543","category":"500","category_name":"未知分类","address":"松江区涞坊路1033弄(近和记小菜)"},{"poiid":"B2094750D56AA0FE479E","title":"朗庭上郡苑","lon":"121.312","lat":"31.1596","category":"47","category_name":"住宅区","address":"松江区朗亭路288弄"},{"poiid":"B2094654DA64A4F9419D","title":"怡君苑","lon":"121.3157","lat":"31.164207","category":"47","category_name":"住宅区","address":"上海市青浦区诸光路366弄"},{"poiid":"B2094757D06BA6FE4699","title":"湖畔佳苑别墅区","lon":"121.30486871","lat":"31.171664221","category":"47","category_name":"住宅区","address":"上海徐泾镇沪青平公路1517弄"},{"poiid":"B2094654D56AA5F4479B","title":"叠翠别墅","lon":"121.31193","lat":"31.1668","category":"47","category_name":"住宅区","address":"诸光路"},{"poiid":"B2094757D16DA7FD429F","title":"上海德法学校","lon":"121.308452","lat":"31.161429","category":"253","category_name":"校园生活","address":"上海青浦区徐泾镇高光路350号"},{"poiid":"B2094752DA6FA0FD469E","title":"杜巷小区","lon":"121.314254","lat":"31.158392","category":"47","category_name":"住宅区","address":"上海市 涞坊路288弄"},{"poiid":"B2094757D464AAFD469B","title":"普罗旺斯茶餐厅","lon":"121.316969","lat":"31.14645","category":"247","category_name":"餐饮美食","address":"九亭镇沪亭北路488号贝尚湾商业街2楼近莱寅路"},{"poiid":"B2094751D26DA1FB4693","title":"辰山植物园","lon":"121.313629","lat":"31.158786","category":"250","category_name":"公园户外","address":null},{"poiid":"B2094757D66EA5F4459B","title":"面道小馆","lon":"121.31336116","lat":"31.159290251","category":"247","category_name":"餐饮美食","address":"上海南泉北路35号"},{"poiid":"B2094655D268ABFE4998","title":"Ａ９徐泾收费站","lon":"121.31353","lat":"31.15945","category":"267","category_name":"收费站","address":""},{"poiid":"B2094757D069A3FC459E","title":"汤豪仕汤馆(贝尚坊店)","lon":"121.319308","lat":"31.149971","category":"72","category_name":"广东菜","address":"松江区沪亭北路488号贝尚湾休闲广场128铺(近贝尚湾休闲广场)"},{"poiid":"B2094654D56AABFF4793","title":"光联公寓","lon":"121.31607","lat":"31.16581","category":"47","category_name":"住宅区","address":"诸光路488号"},{"poiid":"B2094757D168A6FA4093","title":"广州本田本亭4S店里","lon":"121.31305856","lat":"31.164060252","category":"500","category_name":"未知分类","address":"上海市青浦区高光路"},{"poiid":"B2094654DA64A4FF4699","title":"上海正伟印刷有限公司","lon":"121.31461","lat":"31.16296","category":"263","category_name":"公司","address":"诸光路343号"},{"poiid":"B2094757D66EA2F94999","title":"上海思探博机电设备有限公司","lon":"121.31706991","lat":"31.162787575","category":"263","category_name":"公司","address":"上海诸光路363号甲"},{"poiid":"B2094757D56CA4FF459D","title":"星巴克 徐泾店 Starbucks Cafe","lon":"121.323431054","lat":"31.169947793","category":"247","category_name":"餐饮美食","address":"沪青平公路1829号家乐福1楼近嘉金高速公路"},{"poiid":"B2094655D36CA7F5439E","title":"光联村新区","lon":"121.31372","lat":"31.16592","category":"38","category_name":"公交车站","address":""},{"poiid":"B2094654DA64A4FF469B","title":"正伟印刷","lon":"121.31294","lat":"31.16324","category":"263","category_name":"公司","address":""},{"poiid":"B2094757D165AAFD469D","title":"航华菜场","lon":"121.31899056","lat":"31.1618902063","category":"249","category_name":"购物服务","address":"上海航中路(近航北路)"},{"poiid":"B2094654D56AABFF4493","title":"光联村图书室","lon":"121.31371","lat":"31.1656","category":"181","category_name":"图书馆","address":""},{"poiid":"B2094757D164A1FD4493","title":"上海基华物流有限公司","lon":"121.321392479","lat":"31.1592830361","category":"46","category_name":"楼宇","address":"上海青浦区诸光路36号"},{"poiid":"B2094757D169AAF9479E","title":"G50沪渝高速沪苏收费站","lon":"121.310052","lat":"31.157941","category":"267","category_name":"收费站","address":"苏州G50沪渝高速沪苏收费站"},{"poiid":"B2094750DA65A6F84892","title":"上海欢乐谷","lon":"121.322448","lat":"31.163492","category":"250","category_name":"公园户外","address":null},{"poiid":"B2094757D66BA5FF4292","title":"阿本布鲁特 Abendbrot","lon":"121.323337054","lat":"31.159786793","category":"112","category_name":"糕饼店","address":"青浦区高光路453号(近徐泾镇)"},{"poiid":"B2094750D76CA2F9409B","title":"釜山火炉(沪亭北路店)","lon":"121.313","lat":"31.1532","category":"96","category_name":"韩国料理","address":"松江区沪亭北路607弄摩立盛会生活广场12号(近涞寅路)"},{"poiid":"B2094654D56AABFF469B","title":"光联村","lon":"121.31734","lat":"31.166504","category":"47","category_name":"住宅区","address":"诸光路436号"},{"poiid":"B2094654DA64A4FF439B","title":"西郊紫郡","lon":"121.30683852572","lat":"31.164814439571","category":"47","category_name":"住宅区","address":"高泾路258弄"},{"poiid":"B2094654D56AA6F84992","title":"安盛杉庄","lon":"121.31394","lat":"31.17018","category":"47","category_name":"住宅区","address":"沪青平公路1357号"},{"poiid":"B2094757D065A7FE4599","title":"上海市邮政速递物流有限公司","lon":"121.32099386","lat":"31.16016927","category":"500","category_name":"未知分类","address":"上海中春路9965号"}]