[{"poiid":"B2094654DB65A6F84598","title":"上海虹桥国际机场","lon":"121.34635","lat":"31.19389","category":"21","category_name":"飞机场","address":"上海长宁区虹桥路2550号,虹桥机场"},{"poiid":"B2094757D169A4FB4099","title":"上海虹桥机场T1航站楼A10登机口","lon":"121.34647116","lat":"31.195816521","category":"21","category_name":"飞机场","address":"上海虹桥机场"},{"poiid":"B2094654D56AABF9449D","title":"上海虹桥国际机场A楼(出发)","lon":"121.34704","lat":"31.19522","category":"21","category_name":"飞机场","address":"迎宾一路700号"},{"poiid":"B2094655D36CA7F8459C","title":"虹桥机场(一号航站楼)","lon":"121.34834","lat":"31.19198","category":"21","category_name":"飞机场","address":"长宁区虹桥路2550号"},{"poiid":"B2094757D068A7F94698","title":"虹桥机场T1国际/港澳台出发","lon":"121.348372564","lat":"31.1924143052","category":"21","category_name":"飞机场","address":"上海虹桥国际机场"},{"poiid":"B2094757D06EAAFE489C","title":"虹桥机场停机坪","lon":"121.3352766","lat":"31.19801799","category":"21","category_name":"飞机场","address":"上海虹桥国际机场2号航站楼停机坪"},{"poiid":"B2094654D56AABF94492","title":"上海虹桥国际机场A楼(到达)","lon":"121.34704","lat":"31.19522","category":"21","category_name":"飞机场","address":"迎宾一路700"},{"poiid":"B2094757D065A2F84892","title":"虹橋機場一號航站樓","lon":"121.34894756","lat":"31.1947728996","category":"500","category_name":"未知分类","address":"上海虹橋機場一號航站樓"},{"poiid":"B2094757D06EAAF4459C","title":"虹桥机场T2国内到达","lon":"121.331958484","lat":"31.1932846989","category":"21","category_name":"飞机场","address":"上海虹桥国际机场2号航站楼国内到达"},{"poiid":"B2094757D069A7FD439E","title":"虹桥机场2号航站楼30号登机口","lon":"121.332274223","lat":"31.1968882342","category":"21","category_name":"飞机场","address":"上海虹桥机场T2"},{"poiid":"B2094757D068AAF84192","title":"虹桥机场2号航站楼57号登机口","lon":"121.33144462","lat":"31.192239106","category":"21","category_name":"飞机场","address":"上海虹桥机场T2"},{"poiid":"B2094757D06FAAFF439B","title":"虹桥机场2号航站楼V1头等舱贵宾室","lon":"121.33340227","lat":"31.19688863","category":"21","category_name":"飞机场","address":"上海虹桥国际机场T2(近25、26号登机口)"},{"poiid":"B2094757D06EAAFC499B","title":"星巴克 STARBUCKS (虹桥西航站店)","lon":"121.33209661","lat":"31.193204668","category":"65","category_name":"咖啡厅","address":"闵行区申达一路1号虹桥机场T2候机楼C3-M2-S28(近6号出口)"},{"poiid":"B2094757D165AAF9479C","title":"虹桥机场T2航站楼61号登机口","lon":"121.33196256","lat":"31.192095843","category":"21","category_name":"飞机场","address":"海外上海上海市閔行区七莘路"},{"poiid":"B2094757D068A0FC479E","title":"虹桥机场2号航站楼停车楼","lon":"121.33460044","lat":"31.1880699682","category":"21","category_name":"飞机场","address":"上海虹桥机场T2"},{"poiid":"B2094757D065ABFC449E","title":"虹桥机场2号航站楼贵宾厅","lon":"121.34634","lat":"31.19389","category":"65","category_name":"咖啡厅","address":"长宁区虹桥路2550号虹桥机场2号航站楼内"},{"poiid":"B2094757D065A3F8499D","title":"虹桥机场2号航站楼33号登机口","lon":"121.33170356","lat":"31.196884944","category":"21","category_name":"飞机场","address":"上海虹桥机场T2"},{"poiid":"B2094757D06BA7FD4993","title":"虹桥机场1号航站楼B10头等舱候机室","lon":"121.34525386","lat":"31.193621073","category":"21","category_name":"飞机场","address":"上海虹桥国际机场T1"},{"poiid":"B2094757D66EA5FB429B","title":"68号登机口","lon":"121.33451843","lat":"31.18950653","category":"500","category_name":"未知分类","address":"上海虹桥T2航站楼"},{"poiid":"B2094757D16FA5FD419E","title":"虹桥机场T1国内到达","lon":"121.3482676","lat":"31.1913282","category":"21","category_name":"飞机场","address":"上海虹桥国际机场1号航站楼国内到达"},{"poiid":"B2094757D16CA6FE4699","title":"虹桥机场2号航站楼40号登机口","lon":"121.33572387","lat":"31.194454193","category":"21","category_name":"飞机场","address":"上海虹桥机场T2"},{"poiid":"B2094757D06FA3F94398","title":"COSTA COFFEE(虹桥机场一店)","lon":"121.32957","lat":"31.19305","category":"65","category_name":"咖啡厅","address":"闵行区虹桥路2550号虹桥机场T2航站楼46-47登机口间(近七莘路)"},{"poiid":"B2094757D06FA0FD4293","title":"麦当劳(虹桥机场店)","lon":"121.347148","lat":"31.193232","category":"68","category_name":"快餐厅","address":"长宁区虹桥路2550号虹桥机场内(近空港一路)"},{"poiid":"B2094654D56AA2FF4493","title":"上海虹桥国际机场B楼(出发)","lon":"121.34634","lat":"31.1939","category":"21","category_name":"飞机场","address":"迎宾一路800号"},{"poiid":"B2094757D16CA4FF459D","title":"虹桥机场2号航站楼27号登机口","lon":"121.35021209","lat":"31.192869186","category":"21","category_name":"飞机场","address":"上海虹桥机场T2"},{"poiid":"B2094757D16CA1FE4898","title":"上海华港雅阁酒店","lon":"121.34834856","lat":"31.1925758533","category":"217","category_name":"旅馆招待所","address":"上海市长宁区空港一路458号虹桥机场候机楼内"},{"poiid":"B2094757D06FABF44098","title":"虹桥机场2号航站楼V2上航头等舱贵宾室","lon":"121.33243942","lat":"31.194330144","category":"21","category_name":"飞机场","address":"上海虹桥国际机场T2(安检后左转40号登机口附近)"},{"poiid":"B2094757D16BA2F9449E","title":"虹桥机场T2航站楼29号登机口","lon":"121.33104856","lat":"31.1968349431","category":"500","category_name":"未知分类","address":"上海市闵行区七莘路"},{"poiid":"B2094757D06AA2FF4692","title":"虹桥机场1号航站楼B11头等舱贵宾厅","lon":"121.348013875","lat":"31.1912828191","category":"21","category_name":"飞机场","address":"上海虹桥国际机场T1(近B11登机口)"},{"poiid":"B2094757D66FA0FA4499","title":"虹桥机场2号航站楼61号登机口","lon":"121.33172756","lat":"31.1921088434","category":"500","category_name":"未知分类","address":"上海虹桥机场"},{"poiid":"B2094757D06BA3F8409A","title":"上海虹桥火车站B14检票口","lon":"121.34360506","lat":"31.182844948","category":"22","category_name":"火车站","address":"上海虹桥火车站"},{"poiid":"B2094757D06FA0F4449B","title":"虹桥1号航站楼地铁站","lon":"121.34835688","lat":"31.191216967","category":"36","category_name":"地铁站","address":"上海轨道交通 十号线 轨交虹桥1号航站楼站 10"},{"poiid":"B2094757D165A3F5479E","title":"虹桥机场某个厕所","lon":"121.33195756","lat":"31.196851943","category":"21","category_name":"飞机场","address":"上海市闵行区申达一路"},{"poiid":"B2094757D06EAAF4439C","title":"虹桥2号航站楼地铁站","lon":"121.332092","lat":"31.193185","category":"36","category_name":"地铁站","address":"上海轨道交通 二号线 十号线 虹桥2号航站楼站 2 10"},{"poiid":"B2094757D66EA1FB449D","title":"虹桥机场2号航站楼22号登机口","lon":"121.34868276","lat":"31.195881323","category":"500","category_name":"未知分类","address":"上海虹桥机场2号航站楼22号登机口"},{"poiid":"B2094757D06AA0FC469E","title":"虹桥机场2号航站楼安检通道","lon":"121.346290588","lat":"31.1938991547","category":"21","category_name":"飞机场","address":"上海虹桥机场"},{"poiid":"B2094757D069AAF4409E","title":"上海国际机场宾馆","lon":"121.351939","lat":"31.193988","category":"217","category_name":"旅馆招待所","address":"长宁区迎宾一路368号(虹桥机场候机楼旁)"},{"poiid":"B2094757D068ABFE499D","title":"中国东方航空股份有限公司","lon":"121.350748","lat":"31.194755","category":"263","category_name":"公司","address":"上海市虹桥机场空港三路"},{"poiid":"B2094654D56AA2FF4492","title":"上海虹桥国际机场B楼(到达)","lon":"121.34634","lat":"31.19389","category":"21","category_name":"飞机场","address":"迎宾一路800号"},{"poiid":"B2094654D56AA2FF449E","title":"上海航友宾馆","lon":"121.35079","lat":"31.19295","category":"215","category_name":"三星级宾馆","address":"上海市长宁区迎宾一路425号(近虹桥机场一号航站楼)"},{"poiid":"B2094655D36CA7F8459F","title":"虹桥机场候机楼","lon":"121.34712","lat":"31.19486","category":"38","category_name":"公交车站","address":""},{"poiid":"B2094757D068A2F44693","title":"上海霍克太平洋公務機基地","lon":"121.34658056","lat":"31.186510725","category":"260","category_name":"其他","address":"上海迎宾七路99号"},{"poiid":"B2094757D068A1FB4598","title":"肯德基 KFC (机场西楼到达店)","lon":"121.346348","lat":"31.194042842","category":"68","category_name":"快餐厅","address":"上海虹桥机场T2候机楼B5-A-S1"},{"poiid":"B2094757D068A0F84093","title":"虹桥机场2号航站楼出口","lon":"121.332093","lat":"31.193202","category":"21","category_name":"飞机场","address":"上海虹桥国际机场T2一楼"},{"poiid":"B2094757D66EA2F9489C","title":"34号登机囗","lon":"121.33642601","lat":"31.195000357","category":"47","category_name":"住宅区","address":"上海虹桥机场T2航站楼"},{"poiid":"B2094757D069A6FF4792","title":"雅品小弄堂","lon":"121.3372702","lat":"31.193806444","category":"257","category_name":"中餐厅","address":"闵行区虹桥路2550号虹桥机场T2航站楼内(近迎宾一路)"},{"poiid":"B2094752D66FAAFC429A","title":"海底捞","lon":"121.344913","lat":"31.192529","category":"247","category_name":"餐饮美食","address":"铜川路 真光路"},{"poiid":"B2094757D06AA3FE479F","title":"春秋航空","lon":"121.35004078","lat":"31.193489364","category":"251","category_name":"出行住宿","address":"上海空港一路528号2号楼"},{"poiid":"B2094757D16DABFB479A","title":"永和大王(虹桥一号航站楼店)","lon":"121.34892856","lat":"31.1944028918","category":"68","category_name":"快餐厅","address":"闵行区申达一路1号B1-1-S1虹桥机场T2航站楼到达大厅(近迎宾一路)"},{"poiid":"B2094654DB6AA6FE489E","title":"中国移动全球通VIP俱乐部机场贵宾厅(虹桥候机厅)","lon":"121.34631","lat":"31.19393","category":"151","category_name":"电讯营业厅","address":"虹桥国际机场"},{"poiid":"B2094654DB65A6F84598","title":"上海虹桥国际机场","lon":"121.34635","lat":"31.19389","category":"21","category_name":"飞机场","address":"上海长宁区虹桥路2550号,虹桥机场"},{"poiid":"B2094757D169A4FB4099","title":"上海虹桥机场T1航站楼A10登机口","lon":"121.34647116","lat":"31.195816521","category":"21","category_name":"飞机场","address":"上海虹桥机场"},{"poiid":"B2094654D56AABF9449D","title":"上海虹桥国际机场A楼(出发)","lon":"121.34704","lat":"31.19522","category":"21","category_name":"飞机场","address":"迎宾一路700号"},{"poiid":"B2094655D36CA7F8459C","title":"虹桥机场(一号航站楼)","lon":"121.34834","lat":"31.19198","category":"21","category_name":"飞机场","address":"长宁区虹桥路2550号"},{"poiid":"B2094757D068A7F94698","title":"虹桥机场T1国际/港澳台出发","lon":"121.348372564","lat":"31.1924143052","category":"21","category_name":"飞机场","address":"上海虹桥国际机场"},{"poiid":"B2094757D06EAAFE489C","title":"虹桥机场停机坪","lon":"121.3352766","lat":"31.19801799","category":"21","category_name":"飞机场","address":"上海虹桥国际机场2号航站楼停机坪"},{"poiid":"B2094654D56AABF94492","title":"上海虹桥国际机场A楼(到达)","lon":"121.34704","lat":"31.19522","category":"21","category_name":"飞机场","address":"迎宾一路700"},{"poiid":"B2094757D065A2F84892","title":"虹橋機場一號航站樓","lon":"121.34894756","lat":"31.1947728996","category":"500","category_name":"未知分类","address":"上海虹橋機場一號航站樓"},{"poiid":"B2094757D06EAAF4459C","title":"虹桥机场T2国内到达","lon":"121.331958484","lat":"31.1932846989","category":"21","category_name":"飞机场","address":"上海虹桥国际机场2号航站楼国内到达"},{"poiid":"B2094757D069A7FD439E","title":"虹桥机场2号航站楼30号登机口","lon":"121.332274223","lat":"31.1968882342","category":"21","category_name":"飞机场","address":"上海虹桥机场T2"},{"poiid":"B2094757D068AAF84192","title":"虹桥机场2号航站楼57号登机口","lon":"121.33144462","lat":"31.192239106","category":"21","category_name":"飞机场","address":"上海虹桥机场T2"},{"poiid":"B2094757D06FAAFF439B","title":"虹桥机场2号航站楼V1头等舱贵宾室","lon":"121.33340227","lat":"31.19688863","category":"21","category_name":"飞机场","address":"上海虹桥国际机场T2(近25、26号登机口)"},{"poiid":"B2094757D06EAAFC499B","title":"星巴克 STARBUCKS (虹桥西航站店)","lon":"121.33209661","lat":"31.193204668","category":"65","category_name":"咖啡厅","address":"闵行区申达一路1号虹桥机场T2候机楼C3-M2-S28(近6号出口)"},{"poiid":"B2094757D165AAF9479C","title":"虹桥机场T2航站楼61号登机口","lon":"121.33196256","lat":"31.192095843","category":"21","category_name":"飞机场","address":"海外上海上海市閔行区七莘路"},{"poiid":"B2094757D068A0FC479E","title":"虹桥机场2号航站楼停车楼","lon":"121.33460044","lat":"31.1880699682","category":"21","category_name":"飞机场","address":"上海虹桥机场T2"},{"poiid":"B2094757D065ABFC449E","title":"虹桥机场2号航站楼贵宾厅","lon":"121.34634","lat":"31.19389","category":"65","category_name":"咖啡厅","address":"长宁区虹桥路2550号虹桥机场2号航站楼内"},{"poiid":"B2094757D065A3F8499D","title":"虹桥机场2号航站楼33号登机口","lon":"121.33170356","lat":"31.196884944","category":"21","category_name":"飞机场","address":"上海虹桥机场T2"},{"poiid":"B2094757D06BA7FD4993","title":"虹桥机场1号航站楼B10头等舱候机室","lon":"121.34525386","lat":"31.193621073","category":"21","category_name":"飞机场","address":"上海虹桥国际机场T1"},{"poiid":"B2094757D66EA5FB429B","title":"68号登机口","lon":"121.33451843","lat":"31.18950653","category":"500","category_name":"未知分类","address":"上海虹桥T2航站楼"},{"poiid":"B2094757D16FA5FD419E","title":"虹桥机场T1国内到达","lon":"121.3482676","lat":"31.1913282","category":"21","category_name":"飞机场","address":"上海虹桥国际机场1号航站楼国内到达"},{"poiid":"B2094757D16CA6FE4699","title":"虹桥机场2号航站楼40号登机口","lon":"121.33572387","lat":"31.194454193","category":"21","category_name":"飞机场","address":"上海虹桥机场T2"},{"poiid":"B2094757D06FA3F94398","title":"COSTA COFFEE(虹桥机场一店)","lon":"121.32957","lat":"31.19305","category":"65","category_name":"咖啡厅","address":"闵行区虹桥路2550号虹桥机场T2航站楼46-47登机口间(近七莘路)"},{"poiid":"B2094757D06FA0FD4293","title":"麦当劳(虹桥机场店)","lon":"121.347148","lat":"31.193232","category":"68","category_name":"快餐厅","address":"长宁区虹桥路2550号虹桥机场内(近空港一路)"},{"poiid":"B2094654D56AA2FF4493","title":"上海虹桥国际机场B楼(出发)","lon":"121.34634","lat":"31.1939","category":"21","category_name":"飞机场","address":"迎宾一路800号"},{"poiid":"B2094757D16CA4FF459D","title":"虹桥机场2号航站楼27号登机口","lon":"121.35021209","lat":"31.192869186","category":"21","category_name":"飞机场","address":"上海虹桥机场T2"},{"poiid":"B2094757D16CA1FE4898","title":"上海华港雅阁酒店","lon":"121.34834856","lat":"31.1925758533","category":"217","category_name":"旅馆招待所","address":"上海市长宁区空港一路458号虹桥机场候机楼内"},{"poiid":"B2094757D06FABF44098","title":"虹桥机场2号航站楼V2上航头等舱贵宾室","lon":"121.33243942","lat":"31.194330144","category":"21","category_name":"飞机场","address":"上海虹桥国际机场T2(安检后左转40号登机口附近)"},{"poiid":"B2094757D16BA2F9449E","title":"虹桥机场T2航站楼29号登机口","lon":"121.33104856","lat":"31.1968349431","category":"500","category_name":"未知分类","address":"上海市闵行区七莘路"},{"poiid":"B2094757D06AA2FF4692","title":"虹桥机场1号航站楼B11头等舱贵宾厅","lon":"121.348013875","lat":"31.1912828191","category":"21","category_name":"飞机场","address":"上海虹桥国际机场T1(近B11登机口)"},{"poiid":"B2094757D66FA0FA4499","title":"虹桥机场2号航站楼61号登机口","lon":"121.33172756","lat":"31.1921088434","category":"500","category_name":"未知分类","address":"上海虹桥机场"},{"poiid":"B2094757D06BA3F8409A","title":"上海虹桥火车站B14检票口","lon":"121.34360506","lat":"31.182844948","category":"22","category_name":"火车站","address":"上海虹桥火车站"},{"poiid":"B2094757D06FA0F4449B","title":"虹桥1号航站楼地铁站","lon":"121.34835688","lat":"31.191216967","category":"36","category_name":"地铁站","address":"上海轨道交通 十号线 轨交虹桥1号航站楼站 10"},{"poiid":"B2094757D165A3F5479E","title":"虹桥机场某个厕所","lon":"121.33195756","lat":"31.196851943","category":"21","category_name":"飞机场","address":"上海市闵行区申达一路"},{"poiid":"B2094757D06EAAF4439C","title":"虹桥2号航站楼地铁站","lon":"121.332092","lat":"31.193185","category":"36","category_name":"地铁站","address":"上海轨道交通 二号线 十号线 虹桥2号航站楼站 2 10"},{"poiid":"B2094757D66EA1FB449D","title":"虹桥机场2号航站楼22号登机口","lon":"121.34868276","lat":"31.195881323","category":"500","category_name":"未知分类","address":"上海虹桥机场2号航站楼22号登机口"},{"poiid":"B2094757D06AA0FC469E","title":"虹桥机场2号航站楼安检通道","lon":"121.346290588","lat":"31.1938991547","category":"21","category_name":"飞机场","address":"上海虹桥机场"},{"poiid":"B2094757D069AAF4409E","title":"上海国际机场宾馆","lon":"121.351939","lat":"31.193988","category":"217","category_name":"旅馆招待所","address":"长宁区迎宾一路368号(虹桥机场候机楼旁)"},{"poiid":"B2094757D068ABFE499D","title":"中国东方航空股份有限公司","lon":"121.350748","lat":"31.194755","category":"263","category_name":"公司","address":"上海市虹桥机场空港三路"},{"poiid":"B2094654D56AA2FF4492","title":"上海虹桥国际机场B楼(到达)","lon":"121.34634","lat":"31.19389","category":"21","category_name":"飞机场","address":"迎宾一路800号"},{"poiid":"B2094654D56AA2FF449E","title":"上海航友宾馆","lon":"121.35079","lat":"31.19295","category":"215","category_name":"三星级宾馆","address":"上海市长宁区迎宾一路425号(近虹桥机场一号航站楼)"},{"poiid":"B2094655D36CA7F8459F","title":"虹桥机场候机楼","lon":"121.34712","lat":"31.19486","category":"38","category_name":"公交车站","address":""},{"poiid":"B2094757D068A2F44693","title":"上海霍克太平洋公務機基地","lon":"121.34658056","lat":"31.186510725","category":"260","category_name":"其他","address":"上海迎宾七路99号"},{"poiid":"B2094757D068A1FB4598","title":"肯德基 KFC (机场西楼到达店)","lon":"121.346348","lat":"31.194042842","category":"68","category_name":"快餐厅","address":"上海虹桥机场T2候机楼B5-A-S1"},{"poiid":"B2094757D068A0F84093","title":"虹桥机场2号航站楼出口","lon":"121.332093","lat":"31.193202","category":"21","category_name":"飞机场","address":"上海虹桥国际机场T2一楼"},{"poiid":"B2094757D66EA2F9489C","title":"34号登机囗","lon":"121.33642601","lat":"31.195000357","category":"47","category_name":"住宅区","address":"上海虹桥机场T2航站楼"},{"poiid":"B2094757D069A6FF4792","title":"雅品小弄堂","lon":"121.3372702","lat":"31.193806444","category":"257","category_name":"中餐厅","address":"闵行区虹桥路2550号虹桥机场T2航站楼内(近迎宾一路)"},{"poiid":"B2094752D66FAAFC429A","title":"海底捞","lon":"121.344913","lat":"31.192529","category":"247","category_name":"餐饮美食","address":"铜川路 真光路"},{"poiid":"B2094757D06AA3FE479F","title":"春秋航空","lon":"121.35004078","lat":"31.193489364","category":"251","category_name":"出行住宿","address":"上海空港一路528号2号楼"},{"poiid":"B2094757D16DABFB479A","title":"永和大王(虹桥一号航站楼店)","lon":"121.34892856","lat":"31.1944028918","category":"68","category_name":"快餐厅","address":"闵行区申达一路1号B1-1-S1虹桥机场T2航站楼到达大厅(近迎宾一路)"},{"poiid":"B2094654DB6AA6FE489E","title":"中国移动全球通VIP俱乐部机场贵宾厅(虹桥候机厅)","lon":"121.34631","lat":"31.19393","category":"151","category_name":"电讯营业厅","address":"虹桥国际机场"},{"poiid":"B2094654DB65A6F84598","title":"上海虹桥国际机场","lon":"121.34635","lat":"31.19389","category":"21","category_name":"飞机场","address":"上海长宁区虹桥路2550号,虹桥机场"},{"poiid":"B2094757D169A4FB4099","title":"上海虹桥机场T1航站楼A10登机口","lon":"121.34647116","lat":"31.195816521","category":"21","category_name":"飞机场","address":"上海虹桥机场"},{"poiid":"B2094654D56AABF9449D","title":"上海虹桥国际机场A楼(出发)","lon":"121.34704","lat":"31.19522","category":"21","category_name":"飞机场","address":"迎宾一路700号"},{"poiid":"B2094655D36CA7F8459C","title":"虹桥机场(一号航站楼)","lon":"121.34834","lat":"31.19198","category":"21","category_name":"飞机场","address":"长宁区虹桥路2550号"},{"poiid":"B2094757D068A7F94698","title":"虹桥机场T1国际/港澳台出发","lon":"121.348372564","lat":"31.1924143052","category":"21","category_name":"飞机场","address":"上海虹桥国际机场"},{"poiid":"B2094757D06EAAFE489C","title":"虹桥机场停机坪","lon":"121.3352766","lat":"31.19801799","category":"21","category_name":"飞机场","address":"上海虹桥国际机场2号航站楼停机坪"},{"poiid":"B2094654D56AABF94492","title":"上海虹桥国际机场A楼(到达)","lon":"121.34704","lat":"31.19522","category":"21","category_name":"飞机场","address":"迎宾一路700"},{"poiid":"B2094757D065A2F84892","title":"虹橋機場一號航站樓","lon":"121.34894756","lat":"31.1947728996","category":"500","category_name":"未知分类","address":"上海虹橋機場一號航站樓"},{"poiid":"B2094757D06EAAF4459C","title":"虹桥机场T2国内到达","lon":"121.331958484","lat":"31.1932846989","category":"21","category_name":"飞机场","address":"上海虹桥国际机场2号航站楼国内到达"},{"poiid":"B2094757D069A7FD439E","title":"虹桥机场2号航站楼30号登机口","lon":"121.332274223","lat":"31.1968882342","category":"21","category_name":"飞机场","address":"上海虹桥机场T2"},{"poiid":"B2094757D068AAF84192","title":"虹桥机场2号航站楼57号登机口","lon":"121.33144462","lat":"31.192239106","category":"21","category_name":"飞机场","address":"上海虹桥机场T2"},{"poiid":"B2094757D06FAAFF439B","title":"虹桥机场2号航站楼V1头等舱贵宾室","lon":"121.33340227","lat":"31.19688863","category":"21","category_name":"飞机场","address":"上海虹桥国际机场T2(近25、26号登机口)"},{"poiid":"B2094757D06EAAFC499B","title":"星巴克 STARBUCKS (虹桥西航站店)","lon":"121.33209661","lat":"31.193204668","category":"65","category_name":"咖啡厅","address":"闵行区申达一路1号虹桥机场T2候机楼C3-M2-S28(近6号出口)"},{"poiid":"B2094757D165AAF9479C","title":"虹桥机场T2航站楼61号登机口","lon":"121.33196256","lat":"31.192095843","category":"21","category_name":"飞机场","address":"海外上海上海市閔行区七莘路"},{"poiid":"B2094757D068A0FC479E","title":"虹桥机场2号航站楼停车楼","lon":"121.33460044","lat":"31.1880699682","category":"21","category_name":"飞机场","address":"上海虹桥机场T2"},{"poiid":"B2094757D065ABFC449E","title":"虹桥机场2号航站楼贵宾厅","lon":"121.34634","lat":"31.19389","category":"65","category_name":"咖啡厅","address":"长宁区虹桥路2550号虹桥机场2号航站楼内"},{"poiid":"B2094757D065A3F8499D","title":"虹桥机场2号航站楼33号登机口","lon":"121.33170356","lat":"31.196884944","category":"21","category_name":"飞机场","address":"上海虹桥机场T2"},{"poiid":"B2094757D06BA7FD4993","title":"虹桥机场1号航站楼B10头等舱候机室","lon":"121.34525386","lat":"31.193621073","category":"21","category_name":"飞机场","address":"上海虹桥国际机场T1"},{"poiid":"B2094757D66EA5FB429B","title":"68号登机口","lon":"121.33451843","lat":"31.18950653","category":"500","category_name":"未知分类","address":"上海虹桥T2航站楼"},{"poiid":"B2094757D16FA5FD419E","title":"虹桥机场T1国内到达","lon":"121.3482676","lat":"31.1913282","category":"21","category_name":"飞机场","address":"上海虹桥国际机场1号航站楼国内到达"},{"poiid":"B2094757D16CA6FE4699","title":"虹桥机场2号航站楼40号登机口","lon":"121.33572387","lat":"31.194454193","category":"21","category_name":"飞机场","address":"上海虹桥机场T2"},{"poiid":"B2094757D06FA3F94398","title":"COSTA COFFEE(虹桥机场一店)","lon":"121.32957","lat":"31.19305","category":"65","category_name":"咖啡厅","address":"闵行区虹桥路2550号虹桥机场T2航站楼46-47登机口间(近七莘路)"},{"poiid":"B2094757D06FA0FD4293","title":"麦当劳(虹桥机场店)","lon":"121.347148","lat":"31.193232","category":"68","category_name":"快餐厅","address":"长宁区虹桥路2550号虹桥机场内(近空港一路)"},{"poiid":"B2094654D56AA2FF4493","title":"上海虹桥国际机场B楼(出发)","lon":"121.34634","lat":"31.1939","category":"21","category_name":"飞机场","address":"迎宾一路800号"},{"poiid":"B2094757D16CA4FF459D","title":"虹桥机场2号航站楼27号登机口","lon":"121.35021209","lat":"31.192869186","category":"21","category_name":"飞机场","address":"上海虹桥机场T2"},{"poiid":"B2094757D16CA1FE4898","title":"上海华港雅阁酒店","lon":"121.34834856","lat":"31.1925758533","category":"217","category_name":"旅馆招待所","address":"上海市长宁区空港一路458号虹桥机场候机楼内"},{"poiid":"B2094757D06FABF44098","title":"虹桥机场2号航站楼V2上航头等舱贵宾室","lon":"121.33243942","lat":"31.194330144","category":"21","category_name":"飞机场","address":"上海虹桥国际机场T2(安检后左转40号登机口附近)"},{"poiid":"B2094757D16BA2F9449E","title":"虹桥机场T2航站楼29号登机口","lon":"121.33104856","lat":"31.1968349431","category":"500","category_name":"未知分类","address":"上海市闵行区七莘路"},{"poiid":"B2094757D06AA2FF4692","title":"虹桥机场1号航站楼B11头等舱贵宾厅","lon":"121.348013875","lat":"31.1912828191","category":"21","category_name":"飞机场","address":"上海虹桥国际机场T1(近B11登机口)"},{"poiid":"B2094757D66FA0FA4499","title":"虹桥机场2号航站楼61号登机口","lon":"121.33172756","lat":"31.1921088434","category":"500","category_name":"未知分类","address":"上海虹桥机场"},{"poiid":"B2094757D06BA3F8409A","title":"上海虹桥火车站B14检票口","lon":"121.34360506","lat":"31.182844948","category":"22","category_name":"火车站","address":"上海虹桥火车站"},{"poiid":"B2094757D06FA0F4449B","title":"虹桥1号航站楼地铁站","lon":"121.34835688","lat":"31.191216967","category":"36","category_name":"地铁站","address":"上海轨道交通 十号线 轨交虹桥1号航站楼站 10"},{"poiid":"B2094757D165A3F5479E","title":"虹桥机场某个厕所","lon":"121.33195756","lat":"31.196851943","category":"21","category_name":"飞机场","address":"上海市闵行区申达一路"},{"poiid":"B2094757D06EAAF4439C","title":"虹桥2号航站楼地铁站","lon":"121.332092","lat":"31.193185","category":"36","category_name":"地铁站","address":"上海轨道交通 二号线 十号线 虹桥2号航站楼站 2 10"},{"poiid":"B2094757D66EA1FB449D","title":"虹桥机场2号航站楼22号登机口","lon":"121.34868276","lat":"31.195881323","category":"500","category_name":"未知分类","address":"上海虹桥机场2号航站楼22号登机口"},{"poiid":"B2094757D06AA0FC469E","title":"虹桥机场2号航站楼安检通道","lon":"121.346290588","lat":"31.1938991547","category":"21","category_name":"飞机场","address":"上海虹桥机场"},{"poiid":"B2094757D069AAF4409E","title":"上海国际机场宾馆","lon":"121.351939","lat":"31.193988","category":"217","category_name":"旅馆招待所","address":"长宁区迎宾一路368号(虹桥机场候机楼旁)"},{"poiid":"B2094757D068ABFE499D","title":"中国东方航空股份有限公司","lon":"121.350748","lat":"31.194755","category":"263","category_name":"公司","address":"上海市虹桥机场空港三路"},{"poiid":"B2094654D56AA2FF4492","title":"上海虹桥国际机场B楼(到达)","lon":"121.34634","lat":"31.19389","category":"21","category_name":"飞机场","address":"迎宾一路800号"},{"poiid":"B2094654D56AA2FF449E","title":"上海航友宾馆","lon":"121.35079","lat":"31.19295","category":"215","category_name":"三星级宾馆","address":"上海市长宁区迎宾一路425号(近虹桥机场一号航站楼)"},{"poiid":"B2094655D36CA7F8459F","title":"虹桥机场候机楼","lon":"121.34712","lat":"31.19486","category":"38","category_name":"公交车站","address":""},{"poiid":"B2094757D068A2F44693","title":"上海霍克太平洋公務機基地","lon":"121.34658056","lat":"31.186510725","category":"260","category_name":"其他","address":"上海迎宾七路99号"},{"poiid":"B2094757D068A1FB4598","title":"肯德基 KFC (机场西楼到达店)","lon":"121.346348","lat":"31.194042842","category":"68","category_name":"快餐厅","address":"上海虹桥机场T2候机楼B5-A-S1"},{"poiid":"B2094757D068A0F84093","title":"虹桥机场2号航站楼出口","lon":"121.332093","lat":"31.193202","category":"21","category_name":"飞机场","address":"上海虹桥国际机场T2一楼"},{"poiid":"B2094757D66EA2F9489C","title":"34号登机囗","lon":"121.33642601","lat":"31.195000357","category":"47","category_name":"住宅区","address":"上海虹桥机场T2航站楼"},{"poiid":"B2094757D069A6FF4792","title":"雅品小弄堂","lon":"121.3372702","lat":"31.193806444","category":"257","category_name":"中餐厅","address":"闵行区虹桥路2550号虹桥机场T2航站楼内(近迎宾一路)"},{"poiid":"B2094752D66FAAFC429A","title":"海底捞","lon":"121.344913","lat":"31.192529","category":"247","category_name":"餐饮美食","address":"铜川路 真光路"},{"poiid":"B2094757D06AA3FE479F","title":"春秋航空","lon":"121.35004078","lat":"31.193489364","category":"251","category_name":"出行住宿","address":"上海空港一路528号2号楼"},{"poiid":"B2094757D16DABFB479A","title":"永和大王(虹桥一号航站楼店)","lon":"121.34892856","lat":"31.1944028918","category":"68","category_name":"快餐厅","address":"闵行区申达一路1号B1-1-S1虹桥机场T2航站楼到达大厅(近迎宾一路)"},{"poiid":"B2094654DB6AA6FE489E","title":"中国移动全球通VIP俱乐部机场贵宾厅(虹桥候机厅)","lon":"121.34631","lat":"31.19393","category":"151","category_name":"电讯营业厅","address":"虹桥国际机场"},{"poiid":"B2094654DB65A6F84598","title":"上海虹桥国际机场","lon":"121.34635","lat":"31.19389","category":"21","category_name":"飞机场","address":"上海长宁区虹桥路2550号,虹桥机场"},{"poiid":"B2094757D169A4FB4099","title":"上海虹桥机场T1航站楼A10登机口","lon":"121.34647116","lat":"31.195816521","category":"21","category_name":"飞机场","address":"上海虹桥机场"},{"poiid":"B2094654D56AABF9449D","title":"上海虹桥国际机场A楼(出发)","lon":"121.34704","lat":"31.19522","category":"21","category_name":"飞机场","address":"迎宾一路700号"},{"poiid":"B2094655D36CA7F8459C","title":"虹桥机场(一号航站楼)","lon":"121.34834","lat":"31.19198","category":"21","category_name":"飞机场","address":"长宁区虹桥路2550号"},{"poiid":"B2094757D068A7F94698","title":"虹桥机场T1国际/港澳台出发","lon":"121.348372564","lat":"31.1924143052","category":"21","category_name":"飞机场","address":"上海虹桥国际机场"},{"poiid":"B2094757D06EAAFE489C","title":"虹桥机场停机坪","lon":"121.3352766","lat":"31.19801799","category":"21","category_name":"飞机场","address":"上海虹桥国际机场2号航站楼停机坪"},{"poiid":"B2094654D56AABF94492","title":"上海虹桥国际机场A楼(到达)","lon":"121.34704","lat":"31.19522","category":"21","category_name":"飞机场","address":"迎宾一路700"},{"poiid":"B2094757D065A2F84892","title":"虹橋機場一號航站樓","lon":"121.34894756","lat":"31.1947728996","category":"500","category_name":"未知分类","address":"上海虹橋機場一號航站樓"},{"poiid":"B2094757D06EAAF4459C","title":"虹桥机场T2国内到达","lon":"121.331958484","lat":"31.1932846989","category":"21","category_name":"飞机场","address":"上海虹桥国际机场2号航站楼国内到达"},{"poiid":"B2094757D069A7FD439E","title":"虹桥机场2号航站楼30号登机口","lon":"121.332274223","lat":"31.1968882342","category":"21","category_name":"飞机场","address":"上海虹桥机场T2"},{"poiid":"B2094757D068AAF84192","title":"虹桥机场2号航站楼57号登机口","lon":"121.33144462","lat":"31.192239106","category":"21","category_name":"飞机场","address":"上海虹桥机场T2"},{"poiid":"B2094757D06FAAFF439B","title":"虹桥机场2号航站楼V1头等舱贵宾室","lon":"121.33340227","lat":"31.19688863","category":"21","category_name":"飞机场","address":"上海虹桥国际机场T2(近25、26号登机口)"},{"poiid":"B2094757D06EAAFC499B","title":"星巴克 STARBUCKS (虹桥西航站店)","lon":"121.33209661","lat":"31.193204668","category":"65","category_name":"咖啡厅","address":"闵行区申达一路1号虹桥机场T2候机楼C3-M2-S28(近6号出口)"},{"poiid":"B2094757D165AAF9479C","title":"虹桥机场T2航站楼61号登机口","lon":"121.33196256","lat":"31.192095843","category":"21","category_name":"飞机场","address":"海外上海上海市閔行区七莘路"},{"poiid":"B2094757D068A0FC479E","title":"虹桥机场2号航站楼停车楼","lon":"121.33460044","lat":"31.1880699682","category":"21","category_name":"飞机场","address":"上海虹桥机场T2"},{"poiid":"B2094757D065ABFC449E","title":"虹桥机场2号航站楼贵宾厅","lon":"121.34634","lat":"31.19389","category":"65","category_name":"咖啡厅","address":"长宁区虹桥路2550号虹桥机场2号航站楼内"},{"poiid":"B2094757D065A3F8499D","title":"虹桥机场2号航站楼33号登机口","lon":"121.33170356","lat":"31.196884944","category":"21","category_name":"飞机场","address":"上海虹桥机场T2"},{"poiid":"B2094757D06BA7FD4993","title":"虹桥机场1号航站楼B10头等舱候机室","lon":"121.34525386","lat":"31.193621073","category":"21","category_name":"飞机场","address":"上海虹桥国际机场T1"},{"poiid":"B2094757D66EA5FB429B","title":"68号登机口","lon":"121.33451843","lat":"31.18950653","category":"500","category_name":"未知分类","address":"上海虹桥T2航站楼"},{"poiid":"B2094757D16FA5FD419E","title":"虹桥机场T1国内到达","lon":"121.3482676","lat":"31.1913282","category":"21","category_name":"飞机场","address":"上海虹桥国际机场1号航站楼国内到达"},{"poiid":"B2094757D16CA6FE4699","title":"虹桥机场2号航站楼40号登机口","lon":"121.33572387","lat":"31.194454193","category":"21","category_name":"飞机场","address":"上海虹桥机场T2"},{"poiid":"B2094757D06FA3F94398","title":"COSTA COFFEE(虹桥机场一店)","lon":"121.32957","lat":"31.19305","category":"65","category_name":"咖啡厅","address":"闵行区虹桥路2550号虹桥机场T2航站楼46-47登机口间(近七莘路)"},{"poiid":"B2094757D06FA0FD4293","title":"麦当劳(虹桥机场店)","lon":"121.347148","lat":"31.193232","category":"68","category_name":"快餐厅","address":"长宁区虹桥路2550号虹桥机场内(近空港一路)"},{"poiid":"B2094654D56AA2FF4493","title":"上海虹桥国际机场B楼(出发)","lon":"121.34634","lat":"31.1939","category":"21","category_name":"飞机场","address":"迎宾一路800号"},{"poiid":"B2094757D16CA4FF459D","title":"虹桥机场2号航站楼27号登机口","lon":"121.35021209","lat":"31.192869186","category":"21","category_name":"飞机场","address":"上海虹桥机场T2"},{"poiid":"B2094757D16CA1FE4898","title":"上海华港雅阁酒店","lon":"121.34834856","lat":"31.1925758533","category":"217","category_name":"旅馆招待所","address":"上海市长宁区空港一路458号虹桥机场候机楼内"},{"poiid":"B2094757D06FABF44098","title":"虹桥机场2号航站楼V2上航头等舱贵宾室","lon":"121.33243942","lat":"31.194330144","category":"21","category_name":"飞机场","address":"上海虹桥国际机场T2(安检后左转40号登机口附近)"},{"poiid":"B2094757D16BA2F9449E","title":"虹桥机场T2航站楼29号登机口","lon":"121.33104856","lat":"31.1968349431","category":"500","category_name":"未知分类","address":"上海市闵行区七莘路"},{"poiid":"B2094757D06AA2FF4692","title":"虹桥机场1号航站楼B11头等舱贵宾厅","lon":"121.348013875","lat":"31.1912828191","category":"21","category_name":"飞机场","address":"上海虹桥国际机场T1(近B11登机口)"},{"poiid":"B2094757D66FA0FA4499","title":"虹桥机场2号航站楼61号登机口","lon":"121.33172756","lat":"31.1921088434","category":"500","category_name":"未知分类","address":"上海虹桥机场"},{"poiid":"B2094757D06BA3F8409A","title":"上海虹桥火车站B14检票口","lon":"121.34360506","lat":"31.182844948","category":"22","category_name":"火车站","address":"上海虹桥火车站"},{"poiid":"B2094757D06FA0F4449B","title":"虹桥1号航站楼地铁站","lon":"121.34835688","lat":"31.191216967","category":"36","category_name":"地铁站","address":"上海轨道交通 十号线 轨交虹桥1号航站楼站 10"},{"poiid":"B2094757D165A3F5479E","title":"虹桥机场某个厕所","lon":"121.33195756","lat":"31.196851943","category":"21","category_name":"飞机场","address":"上海市闵行区申达一路"},{"poiid":"B2094757D06EAAF4439C","title":"虹桥2号航站楼地铁站","lon":"121.332092","lat":"31.193185","category":"36","category_name":"地铁站","address":"上海轨道交通 二号线 十号线 虹桥2号航站楼站 2 10"},{"poiid":"B2094757D66EA1FB449D","title":"虹桥机场2号航站楼22号登机口","lon":"121.34868276","lat":"31.195881323","category":"500","category_name":"未知分类","address":"上海虹桥机场2号航站楼22号登机口"},{"poiid":"B2094757D06AA0FC469E","title":"虹桥机场2号航站楼安检通道","lon":"121.346290588","lat":"31.1938991547","category":"21","category_name":"飞机场","address":"上海虹桥机场"},{"poiid":"B2094757D069AAF4409E","title":"上海国际机场宾馆","lon":"121.351939","lat":"31.193988","category":"217","category_name":"旅馆招待所","address":"长宁区迎宾一路368号(虹桥机场候机楼旁)"},{"poiid":"B2094757D068ABFE499D","title":"中国东方航空股份有限公司","lon":"121.350748","lat":"31.194755","category":"263","category_name":"公司","address":"上海市虹桥机场空港三路"},{"poiid":"B2094654D56AA2FF4492","title":"上海虹桥国际机场B楼(到达)","lon":"121.34634","lat":"31.19389","category":"21","category_name":"飞机场","address":"迎宾一路800号"},{"poiid":"B2094654D56AA2FF449E","title":"上海航友宾馆","lon":"121.35079","lat":"31.19295","category":"215","category_name":"三星级宾馆","address":"上海市长宁区迎宾一路425号(近虹桥机场一号航站楼)"},{"poiid":"B2094655D36CA7F8459F","title":"虹桥机场候机楼","lon":"121.34712","lat":"31.19486","category":"38","category_name":"公交车站","address":""},{"poiid":"B2094757D068A2F44693","title":"上海霍克太平洋公務機基地","lon":"121.34658056","lat":"31.186510725","category":"260","category_name":"其他","address":"上海迎宾七路99号"},{"poiid":"B2094757D068A1FB4598","title":"肯德基 KFC (机场西楼到达店)","lon":"121.346348","lat":"31.194042842","category":"68","category_name":"快餐厅","address":"上海虹桥机场T2候机楼B5-A-S1"},{"poiid":"B2094757D068A0F84093","title":"虹桥机场2号航站楼出口","lon":"121.332093","lat":"31.193202","category":"21","category_name":"飞机场","address":"上海虹桥国际机场T2一楼"},{"poiid":"B2094757D66EA2F9489C","title":"34号登机囗","lon":"121.33642601","lat":"31.195000357","category":"47","category_name":"住宅区","address":"上海虹桥机场T2航站楼"},{"poiid":"B2094757D069A6FF4792","title":"雅品小弄堂","lon":"121.3372702","lat":"31.193806444","category":"257","category_name":"中餐厅","address":"闵行区虹桥路2550号虹桥机场T2航站楼内(近迎宾一路)"},{"poiid":"B2094752D66FAAFC429A","title":"海底捞","lon":"121.344913","lat":"31.192529","category":"247","category_name":"餐饮美食","address":"铜川路 真光路"},{"poiid":"B2094757D06AA3FE479F","title":"春秋航空","lon":"121.35004078","lat":"31.193489364","category":"251","category_name":"出行住宿","address":"上海空港一路528号2号楼"},{"poiid":"B2094757D16DABFB479A","title":"永和大王(虹桥一号航站楼店)","lon":"121.34892856","lat":"31.1944028918","category":"68","category_name":"快餐厅","address":"闵行区申达一路1号B1-1-S1虹桥机场T2航站楼到达大厅(近迎宾一路)"},{"poiid":"B2094654DB6AA6FE489E","title":"中国移动全球通VIP俱乐部机场贵宾厅(虹桥候机厅)","lon":"121.34631","lat":"31.19393","category":"151","category_name":"电讯营业厅","address":"虹桥国际机场"}]