[{"poiid":"B2094757D06FA2F8449B","title":"东郊宾馆","lon":"121.603","lat":"31.2321","category":"213","category_name":"五星级宾馆","address":"浦东新区金科路1800号东郊宾馆内(近龙东大道)"},{"poiid":"B2094757D06FA3FA4293","title":"星巴克(中惠广场店)","lon":"121.609055","lat":"31.253059","category":"260","category_name":"其他","address":"浦东新区新金桥路1088号中惠广场B100室(近金湘路)"},{"poiid":"B2094757D069A5F4489C","title":"可口可乐博物馆","lon":"121.61253","lat":"31.24342","category":"182","category_name":"博物馆","address":"浦东新区桂桥路539号(桂桥路金湘路)"},{"poiid":"B2094757D068A2FE459A","title":"壹江南","lon":"121.60917839","lat":"31.252566255","category":"260","category_name":"其他","address":"浦东新区新金桥路1088号(近金湘路)"},{"poiid":"B2094757D068A1F54492","title":"Big Bamboo (金桥店)","lon":"121.59329","lat":"31.24155","category":"260","category_name":"其他","address":"浦东新区红枫路381号(近碧云路)"},{"poiid":"B2094757D464A7FD459C","title":"沈家花园 新金桥店","lon":"121.61101051625","lat":"31.253419846704","category":"47","category_name":"住宅区","address":"浦东新区新金桥路1122号(金港路新金桥路)"},{"poiid":"B2094757D065A6FC4393","title":"上海东昌金桥汽车服务有限公司","lon":"121.609598975","lat":"31.2402032941","category":"500","category_name":"未知分类","address":"上海市锦绣东路2069号"},{"poiid":"B2094757D169ABFC479F","title":"上海贝尔","lon":"121.60985733","lat":"31.251464831","category":"500","category_name":"未知分类","address":"上海宁桥路388号"},{"poiid":"B2094654DA6AA1F94193","title":"上海申美饮料食品有限公司(桂桥路)","lon":"121.6126","lat":"31.24386","category":"263","category_name":"公司","address":"桂桥路539"},{"poiid":"B2094757D064A1FC489D","title":"金桥创科园","lon":"121.60805511","lat":"31.242076873","category":"500","category_name":"未知分类","address":"松江区荣乐东路1133弄"},{"poiid":"B2094757DB6DA5FE419F","title":"上海瑞邦公寓式酒店","lon":"121.608149","lat":"31.240339","category":"214","category_name":"四星级宾馆","address":"上海市浦东新区金滇路176号(近锦绣东路)"},{"poiid":"B2094757D069A3FD4199","title":"中国移动上海视频基地(云桥路)","lon":"121.61323547","lat":"31.248184204","category":"182","category_name":"博物馆","address":"上海浦东新区云桥路636号"},{"poiid":"B2094750D364A3F94298","title":"东昌奥迪金桥店","lon":"121.60872900665","lat":"31.23981648373","category":"639","category_name":"汽车交通类公司","address":"锦绣东路2053号(川桥路金滇路口)"},{"poiid":"B2094655D36CA0FE489B","title":"金桥路三桥","lon":"121.6054","lat":"31.23201","category":"38","category_name":"公交车站","address":""},{"poiid":"B2094757D569A3FF4199","title":"阿尔卡特上海贝尔股份有限公司","lon":"121.61164","lat":"31.25047611","category":"138","category_name":"家电电子卖场","address":"宁桥路388-389号"},{"poiid":"B2094757D068A3F84793","title":"诺基亚西门子移动通信","lon":"121.61428397","lat":"31.246229435","category":"46","category_name":"楼宇","address":"上海市浦东新区川桥路777号"},{"poiid":"B2094654DA6AA0FB419D","title":"金桥出口加工区48号","lon":"121.60958","lat":"31.24232","category":"45","category_name":"产业园区","address":"桂桥路290"},{"poiid":"B2094757D06FABF5459B","title":"ICBC SDC Shanghai","lon":"121.61748301","lat":"31.250660182","category":"500","category_name":"未知分类","address":"上海云桥路875号"},{"poiid":"B2094654DA6AA1F94599","title":"诺一公寓","lon":"121.60809","lat":"31.24021","category":"47","category_name":"住宅区","address":"金滇路176号"},{"poiid":"B2094654DB64A6FA459D","title":"味千拉面 新金桥店","lon":"121.609280054","lat":"31.253093793","category":"95","category_name":"日本料理","address":"浦东新区新金桥路1088号中惠广场B102B113单元(近金湘路)"},{"poiid":"B2094655D36CA5FE419C","title":"川桥路金滇路","lon":"121.60637","lat":"31.2441","category":"38","category_name":"公交车站","address":""},{"poiid":"B2094655D36CA0FE489C","title":"金桥路锦绣东路","lon":"121.60284","lat":"31.23674","category":"38","category_name":"公交车站","address":""},{"poiid":"B2094654DA6AA0FB4192","title":"上海日立家用电器有限公司(洗衣机事业部)","lon":"121.60968","lat":"31.24233","category":"263","category_name":"公司","address":"金湘路1100"},{"poiid":"B2094757D169AAFF499E","title":"上海金桥高尔夫俱乐部","lon":"121.602146339","lat":"31.2494287843","category":"500","category_name":"未知分类","address":"浦东新区新金桥路775号"},{"poiid":"B2094750D26FA3F44199","title":"由度工坊","lon":"121.60897","lat":"31.244926","category":"263","category_name":"公司","address":"上海市浦东新区川桥路401号"},{"poiid":"B2094654DA6AA1F8499E","title":"上海日立家用电器有限公司(金湘路)","lon":"121.61164","lat":"31.24206","category":"263","category_name":"公司","address":"金湘路1100"},{"poiid":"B2094654DA6AA7F8409D","title":"高旺橱柜浦东基地","lon":"121.6067","lat":"31.23863","category":"45","category_name":"产业园区","address":""},{"poiid":"B2094757D06BA6FB459B","title":"福特汽车福银4S店","lon":"121.60238097","lat":"31.243333367","category":"500","category_name":"未知分类","address":"上海市浦东新区川桥路200号"},{"poiid":"B2094757D66DA5F94392","title":"上海申美饮料食品有限公司金桥食堂","lon":"121.608554875","lat":"31.2422156412","category":"500","category_name":"未知分类","address":null},{"poiid":"B2094750D26FA7FA4793","title":"金桥国际","lon":"121.615661","lat":"31.243618","category":"500","category_name":"未知分类","address":null},{"poiid":"B2094757D66EAAF8499A","title":"上海绿地徐捷汽车销售服务有限公司","lon":"121.60602897","lat":"31.243979382","category":"500","category_name":"未知分类","address":"浦东新区川桥路350号(近金桥路)"},{"poiid":"B2094752D26EA7F84099","title":"万豪酒店Marriott Hotel","lon":"121.61391","lat":"31.237768","category":"251","category_name":"出行住宿","address":"浦东新区新金桥路,15号,近红枫路"},{"poiid":"B2094757D16DA0FB469B","title":"东昌奥迪4S店","lon":"121.608646205","lat":"31.2316367036","category":"500","category_name":"未知分类","address":"上海锦绣东路2053"},{"poiid":"B2094757D66DA3F84792","title":"金滇路　桂桥路","lon":"121.607121975","lat":"31.2419573352","category":"500","category_name":"未知分类","address":"上海交岔口"},{"poiid":"B2094654DA6AA7F8489D","title":"灏讯中国","lon":"121.60767","lat":"31.24135","category":"263","category_name":"公司","address":"金滇路150"},{"poiid":"B2094655D26AA1F84898","title":"绿地浦成汽车销售有限公司","lon":"121.60524","lat":"31.24341","category":"247","category_name":"餐饮美食","address":"浦东新区川桥路350号(罗山路张杨路)"},{"poiid":"B2094757D169A7F5429F","title":"马自达4S","lon":"121.605248","lat":"31.243437","category":"500","category_name":"未知分类","address":"上海川桥路350号"},{"poiid":"B2094757D064A7FF439C","title":"欧莱雅研发和创新中心","lon":"121.61284362","lat":"31.251635695","category":"46","category_name":"楼宇","address":"上海云桥路金豫路550号"},{"poiid":"B2094757D16FA7FA4292","title":"张江路","lon":"121.60532912","lat":"31.241646352","category":"500","category_name":"未知分类","address":"上海张江路"},{"poiid":"B2094654DB65A6FE4598","title":"三得利(上海)食品有限公司","lon":"121.6102","lat":"31.24456","category":"263","category_name":"公司","address":"川桥路600"},{"poiid":"B2094655D26AA4F44198","title":"陆风汽车销售服务有限公司","lon":"121.60524","lat":"31.24341","category":"247","category_name":"餐饮美食","address":"浦东新区川桥路350号(罗山路张杨路)"},{"poiid":"B2094757D06BA2FB4792","title":"金桥软件园","lon":"121.59910211","lat":"31.2423372779","category":"46","category_name":"楼宇","address":"上海浦东新区明月路1257号"},{"poiid":"B2094757D168A7F84998","title":"申美可口可乐","lon":"121.6075213","lat":"31.247112972","category":"500","category_name":"未知分类","address":"上海桂桥路"},{"poiid":"B2094655D264A6FF449A","title":"蜀悦渔乡 金湘路店","lon":"121.60921","lat":"31.25353","category":"71","category_name":"四川菜","address":"浦东新区金湘路345号(近新金桥路)"},{"poiid":"B2094655D26BA7F94992","title":"惠普综合大楼","lon":"121.59994","lat":"31.2463","category":"46","category_name":"楼宇","address":"金藏路351号"},{"poiid":"B2094654DA6AA7F8459D","title":"金金公寓职工宿舍","lon":"121.60277","lat":"31.24122","category":"47","category_name":"住宅区","address":"金沪路1218弄1-4号"},{"poiid":"B2094654DA6AA7F8489C","title":"上海群工","lon":"121.60681","lat":"31.24378","category":"248","category_name":"生活娱乐","address":"川桥路400号"},{"poiid":"B2094757D66CA5F54193","title":"迪堡金融设备有限公司","lon":"121.613482737","lat":"31.2452391598","category":"263","category_name":"公司","address":"上海川桥路747号"},{"poiid":"B2094757D16FA7FB4699","title":"Parker Hannifin","lon":"121.606504975","lat":"31.2469274515","category":"500","category_name":"未知分类","address":"上海浦东金桥云桥路280号"},{"poiid":"B2094757DA6EA7FA4699","title":"上海MAXWIN实业有限公司","lon":"121.606820000001","lat":"31.2437799999998","category":"263","category_name":"公司","address":"浦东新区川桥路400号"},{"poiid":"B2094757D06FA2F8449B","title":"东郊宾馆","lon":"121.603","lat":"31.2321","category":"213","category_name":"五星级宾馆","address":"浦东新区金科路1800号东郊宾馆内(近龙东大道)"},{"poiid":"B2094757D06FA3FA4293","title":"星巴克(中惠广场店)","lon":"121.609055","lat":"31.253059","category":"260","category_name":"其他","address":"浦东新区新金桥路1088号中惠广场B100室(近金湘路)"},{"poiid":"B2094757D069A5F4489C","title":"可口可乐博物馆","lon":"121.61253","lat":"31.24342","category":"182","category_name":"博物馆","address":"浦东新区桂桥路539号(桂桥路金湘路)"},{"poiid":"B2094757D068A2FE459A","title":"壹江南","lon":"121.60917839","lat":"31.252566255","category":"260","category_name":"其他","address":"浦东新区新金桥路1088号(近金湘路)"},{"poiid":"B2094757D068A1F54492","title":"Big Bamboo (金桥店)","lon":"121.59329","lat":"31.24155","category":"260","category_name":"其他","address":"浦东新区红枫路381号(近碧云路)"},{"poiid":"B2094757D464A7FD459C","title":"沈家花园 新金桥店","lon":"121.61101051625","lat":"31.253419846704","category":"47","category_name":"住宅区","address":"浦东新区新金桥路1122号(金港路新金桥路)"},{"poiid":"B2094757D065A6FC4393","title":"上海东昌金桥汽车服务有限公司","lon":"121.609598975","lat":"31.2402032941","category":"500","category_name":"未知分类","address":"上海市锦绣东路2069号"},{"poiid":"B2094757D169ABFC479F","title":"上海贝尔","lon":"121.60985733","lat":"31.251464831","category":"500","category_name":"未知分类","address":"上海宁桥路388号"},{"poiid":"B2094654DA6AA1F94193","title":"上海申美饮料食品有限公司(桂桥路)","lon":"121.6126","lat":"31.24386","category":"263","category_name":"公司","address":"桂桥路539"},{"poiid":"B2094757D064A1FC489D","title":"金桥创科园","lon":"121.60805511","lat":"31.242076873","category":"500","category_name":"未知分类","address":"松江区荣乐东路1133弄"},{"poiid":"B2094757DB6DA5FE419F","title":"上海瑞邦公寓式酒店","lon":"121.608149","lat":"31.240339","category":"214","category_name":"四星级宾馆","address":"上海市浦东新区金滇路176号(近锦绣东路)"},{"poiid":"B2094757D069A3FD4199","title":"中国移动上海视频基地(云桥路)","lon":"121.61323547","lat":"31.248184204","category":"182","category_name":"博物馆","address":"上海浦东新区云桥路636号"},{"poiid":"B2094750D364A3F94298","title":"东昌奥迪金桥店","lon":"121.60872900665","lat":"31.23981648373","category":"639","category_name":"汽车交通类公司","address":"锦绣东路2053号(川桥路金滇路口)"},{"poiid":"B2094655D36CA0FE489B","title":"金桥路三桥","lon":"121.6054","lat":"31.23201","category":"38","category_name":"公交车站","address":""},{"poiid":"B2094757D569A3FF4199","title":"阿尔卡特上海贝尔股份有限公司","lon":"121.61164","lat":"31.25047611","category":"138","category_name":"家电电子卖场","address":"宁桥路388-389号"},{"poiid":"B2094757D068A3F84793","title":"诺基亚西门子移动通信","lon":"121.61428397","lat":"31.246229435","category":"46","category_name":"楼宇","address":"上海市浦东新区川桥路777号"},{"poiid":"B2094654DA6AA0FB419D","title":"金桥出口加工区48号","lon":"121.60958","lat":"31.24232","category":"45","category_name":"产业园区","address":"桂桥路290"},{"poiid":"B2094757D06FABF5459B","title":"ICBC SDC Shanghai","lon":"121.61748301","lat":"31.250660182","category":"500","category_name":"未知分类","address":"上海云桥路875号"},{"poiid":"B2094654DA6AA1F94599","title":"诺一公寓","lon":"121.60809","lat":"31.24021","category":"47","category_name":"住宅区","address":"金滇路176号"},{"poiid":"B2094654DB64A6FA459D","title":"味千拉面 新金桥店","lon":"121.609280054","lat":"31.253093793","category":"95","category_name":"日本料理","address":"浦东新区新金桥路1088号中惠广场B102B113单元(近金湘路)"},{"poiid":"B2094655D36CA5FE419C","title":"川桥路金滇路","lon":"121.60637","lat":"31.2441","category":"38","category_name":"公交车站","address":""},{"poiid":"B2094655D36CA0FE489C","title":"金桥路锦绣东路","lon":"121.60284","lat":"31.23674","category":"38","category_name":"公交车站","address":""},{"poiid":"B2094654DA6AA0FB4192","title":"上海日立家用电器有限公司(洗衣机事业部)","lon":"121.60968","lat":"31.24233","category":"263","category_name":"公司","address":"金湘路1100"},{"poiid":"B2094757D169AAFF499E","title":"上海金桥高尔夫俱乐部","lon":"121.602146339","lat":"31.2494287843","category":"500","category_name":"未知分类","address":"浦东新区新金桥路775号"},{"poiid":"B2094750D26FA3F44199","title":"由度工坊","lon":"121.60897","lat":"31.244926","category":"263","category_name":"公司","address":"上海市浦东新区川桥路401号"},{"poiid":"B2094654DA6AA1F8499E","title":"上海日立家用电器有限公司(金湘路)","lon":"121.61164","lat":"31.24206","category":"263","category_name":"公司","address":"金湘路1100"},{"poiid":"B2094654DA6AA7F8409D","title":"高旺橱柜浦东基地","lon":"121.6067","lat":"31.23863","category":"45","category_name":"产业园区","address":""},{"poiid":"B2094757D06BA6FB459B","title":"福特汽车福银4S店","lon":"121.60238097","lat":"31.243333367","category":"500","category_name":"未知分类","address":"上海市浦东新区川桥路200号"},{"poiid":"B2094757D66DA5F94392","title":"上海申美饮料食品有限公司金桥食堂","lon":"121.608554875","lat":"31.2422156412","category":"500","category_name":"未知分类","address":null},{"poiid":"B2094750D26FA7FA4793","title":"金桥国际","lon":"121.615661","lat":"31.243618","category":"500","category_name":"未知分类","address":null},{"poiid":"B2094757D66EAAF8499A","title":"上海绿地徐捷汽车销售服务有限公司","lon":"121.60602897","lat":"31.243979382","category":"500","category_name":"未知分类","address":"浦东新区川桥路350号(近金桥路)"},{"poiid":"B2094752D26EA7F84099","title":"万豪酒店Marriott Hotel","lon":"121.61391","lat":"31.237768","category":"251","category_name":"出行住宿","address":"浦东新区新金桥路,15号,近红枫路"},{"poiid":"B2094757D16DA0FB469B","title":"东昌奥迪4S店","lon":"121.608646205","lat":"31.2316367036","category":"500","category_name":"未知分类","address":"上海锦绣东路2053"},{"poiid":"B2094757D66DA3F84792","title":"金滇路　桂桥路","lon":"121.607121975","lat":"31.2419573352","category":"500","category_name":"未知分类","address":"上海交岔口"},{"poiid":"B2094654DA6AA7F8489D","title":"灏讯中国","lon":"121.60767","lat":"31.24135","category":"263","category_name":"公司","address":"金滇路150"},{"poiid":"B2094655D26AA1F84898","title":"绿地浦成汽车销售有限公司","lon":"121.60524","lat":"31.24341","category":"247","category_name":"餐饮美食","address":"浦东新区川桥路350号(罗山路张杨路)"},{"poiid":"B2094757D169A7F5429F","title":"马自达4S","lon":"121.605248","lat":"31.243437","category":"500","category_name":"未知分类","address":"上海川桥路350号"},{"poiid":"B2094757D064A7FF439C","title":"欧莱雅研发和创新中心","lon":"121.61284362","lat":"31.251635695","category":"46","category_name":"楼宇","address":"上海云桥路金豫路550号"},{"poiid":"B2094757D16FA7FA4292","title":"张江路","lon":"121.60532912","lat":"31.241646352","category":"500","category_name":"未知分类","address":"上海张江路"},{"poiid":"B2094654DB65A6FE4598","title":"三得利(上海)食品有限公司","lon":"121.6102","lat":"31.24456","category":"263","category_name":"公司","address":"川桥路600"},{"poiid":"B2094655D26AA4F44198","title":"陆风汽车销售服务有限公司","lon":"121.60524","lat":"31.24341","category":"247","category_name":"餐饮美食","address":"浦东新区川桥路350号(罗山路张杨路)"},{"poiid":"B2094757D06BA2FB4792","title":"金桥软件园","lon":"121.59910211","lat":"31.2423372779","category":"46","category_name":"楼宇","address":"上海浦东新区明月路1257号"},{"poiid":"B2094757D168A7F84998","title":"申美可口可乐","lon":"121.6075213","lat":"31.247112972","category":"500","category_name":"未知分类","address":"上海桂桥路"},{"poiid":"B2094655D264A6FF449A","title":"蜀悦渔乡 金湘路店","lon":"121.60921","lat":"31.25353","category":"71","category_name":"四川菜","address":"浦东新区金湘路345号(近新金桥路)"},{"poiid":"B2094655D26BA7F94992","title":"惠普综合大楼","lon":"121.59994","lat":"31.2463","category":"46","category_name":"楼宇","address":"金藏路351号"},{"poiid":"B2094654DA6AA7F8459D","title":"金金公寓职工宿舍","lon":"121.60277","lat":"31.24122","category":"47","category_name":"住宅区","address":"金沪路1218弄1-4号"},{"poiid":"B2094654DA6AA7F8489C","title":"上海群工","lon":"121.60681","lat":"31.24378","category":"248","category_name":"生活娱乐","address":"川桥路400号"},{"poiid":"B2094757D66CA5F54193","title":"迪堡金融设备有限公司","lon":"121.613482737","lat":"31.2452391598","category":"263","category_name":"公司","address":"上海川桥路747号"},{"poiid":"B2094757D16FA7FB4699","title":"Parker Hannifin","lon":"121.606504975","lat":"31.2469274515","category":"500","category_name":"未知分类","address":"上海浦东金桥云桥路280号"},{"poiid":"B2094757DA6EA7FA4699","title":"上海MAXWIN实业有限公司","lon":"121.606820000001","lat":"31.2437799999998","category":"263","category_name":"公司","address":"浦东新区川桥路400号"},{"poiid":"B2094757D06FA2F8449B","title":"东郊宾馆","lon":"121.603","lat":"31.2321","category":"213","category_name":"五星级宾馆","address":"浦东新区金科路1800号东郊宾馆内(近龙东大道)"},{"poiid":"B2094757D06FA3FA4293","title":"星巴克(中惠广场店)","lon":"121.609055","lat":"31.253059","category":"260","category_name":"其他","address":"浦东新区新金桥路1088号中惠广场B100室(近金湘路)"},{"poiid":"B2094757D069A5F4489C","title":"可口可乐博物馆","lon":"121.61253","lat":"31.24342","category":"182","category_name":"博物馆","address":"浦东新区桂桥路539号(桂桥路金湘路)"},{"poiid":"B2094757D068A2FE459A","title":"壹江南","lon":"121.60917839","lat":"31.252566255","category":"260","category_name":"其他","address":"浦东新区新金桥路1088号(近金湘路)"},{"poiid":"B2094757D068A1F54492","title":"Big Bamboo (金桥店)","lon":"121.59329","lat":"31.24155","category":"260","category_name":"其他","address":"浦东新区红枫路381号(近碧云路)"},{"poiid":"B2094757D464A7FD459C","title":"沈家花园 新金桥店","lon":"121.61101051625","lat":"31.253419846704","category":"47","category_name":"住宅区","address":"浦东新区新金桥路1122号(金港路新金桥路)"},{"poiid":"B2094757D065A6FC4393","title":"上海东昌金桥汽车服务有限公司","lon":"121.609598975","lat":"31.2402032941","category":"500","category_name":"未知分类","address":"上海市锦绣东路2069号"},{"poiid":"B2094757D169ABFC479F","title":"上海贝尔","lon":"121.60985733","lat":"31.251464831","category":"500","category_name":"未知分类","address":"上海宁桥路388号"},{"poiid":"B2094654DA6AA1F94193","title":"上海申美饮料食品有限公司(桂桥路)","lon":"121.6126","lat":"31.24386","category":"263","category_name":"公司","address":"桂桥路539"},{"poiid":"B2094757D064A1FC489D","title":"金桥创科园","lon":"121.60805511","lat":"31.242076873","category":"500","category_name":"未知分类","address":"松江区荣乐东路1133弄"},{"poiid":"B2094757DB6DA5FE419F","title":"上海瑞邦公寓式酒店","lon":"121.608149","lat":"31.240339","category":"214","category_name":"四星级宾馆","address":"上海市浦东新区金滇路176号(近锦绣东路)"},{"poiid":"B2094757D069A3FD4199","title":"中国移动上海视频基地(云桥路)","lon":"121.61323547","lat":"31.248184204","category":"182","category_name":"博物馆","address":"上海浦东新区云桥路636号"},{"poiid":"B2094750D364A3F94298","title":"东昌奥迪金桥店","lon":"121.60872900665","lat":"31.23981648373","category":"639","category_name":"汽车交通类公司","address":"锦绣东路2053号(川桥路金滇路口)"},{"poiid":"B2094655D36CA0FE489B","title":"金桥路三桥","lon":"121.6054","lat":"31.23201","category":"38","category_name":"公交车站","address":""},{"poiid":"B2094757D569A3FF4199","title":"阿尔卡特上海贝尔股份有限公司","lon":"121.61164","lat":"31.25047611","category":"138","category_name":"家电电子卖场","address":"宁桥路388-389号"},{"poiid":"B2094757D068A3F84793","title":"诺基亚西门子移动通信","lon":"121.61428397","lat":"31.246229435","category":"46","category_name":"楼宇","address":"上海市浦东新区川桥路777号"},{"poiid":"B2094654DA6AA0FB419D","title":"金桥出口加工区48号","lon":"121.60958","lat":"31.24232","category":"45","category_name":"产业园区","address":"桂桥路290"},{"poiid":"B2094757D06FABF5459B","title":"ICBC SDC Shanghai","lon":"121.61748301","lat":"31.250660182","category":"500","category_name":"未知分类","address":"上海云桥路875号"},{"poiid":"B2094654DA6AA1F94599","title":"诺一公寓","lon":"121.60809","lat":"31.24021","category":"47","category_name":"住宅区","address":"金滇路176号"},{"poiid":"B2094654DB64A6FA459D","title":"味千拉面 新金桥店","lon":"121.609280054","lat":"31.253093793","category":"95","category_name":"日本料理","address":"浦东新区新金桥路1088号中惠广场B102B113单元(近金湘路)"},{"poiid":"B2094655D36CA5FE419C","title":"川桥路金滇路","lon":"121.60637","lat":"31.2441","category":"38","category_name":"公交车站","address":""},{"poiid":"B2094655D36CA0FE489C","title":"金桥路锦绣东路","lon":"121.60284","lat":"31.23674","category":"38","category_name":"公交车站","address":""},{"poiid":"B2094654DA6AA0FB4192","title":"上海日立家用电器有限公司(洗衣机事业部)","lon":"121.60968","lat":"31.24233","category":"263","category_name":"公司","address":"金湘路1100"},{"poiid":"B2094757D169AAFF499E","title":"上海金桥高尔夫俱乐部","lon":"121.602146339","lat":"31.2494287843","category":"500","category_name":"未知分类","address":"浦东新区新金桥路775号"},{"poiid":"B2094750D26FA3F44199","title":"由度工坊","lon":"121.60897","lat":"31.244926","category":"263","category_name":"公司","address":"上海市浦东新区川桥路401号"},{"poiid":"B2094654DA6AA1F8499E","title":"上海日立家用电器有限公司(金湘路)","lon":"121.61164","lat":"31.24206","category":"263","category_name":"公司","address":"金湘路1100"},{"poiid":"B2094654DA6AA7F8409D","title":"高旺橱柜浦东基地","lon":"121.6067","lat":"31.23863","category":"45","category_name":"产业园区","address":""},{"poiid":"B2094757D06BA6FB459B","title":"福特汽车福银4S店","lon":"121.60238097","lat":"31.243333367","category":"500","category_name":"未知分类","address":"上海市浦东新区川桥路200号"},{"poiid":"B2094757D66DA5F94392","title":"上海申美饮料食品有限公司金桥食堂","lon":"121.608554875","lat":"31.2422156412","category":"500","category_name":"未知分类","address":null},{"poiid":"B2094750D26FA7FA4793","title":"金桥国际","lon":"121.615661","lat":"31.243618","category":"500","category_name":"未知分类","address":null},{"poiid":"B2094757D66EAAF8499A","title":"上海绿地徐捷汽车销售服务有限公司","lon":"121.60602897","lat":"31.243979382","category":"500","category_name":"未知分类","address":"浦东新区川桥路350号(近金桥路)"},{"poiid":"B2094752D26EA7F84099","title":"万豪酒店Marriott Hotel","lon":"121.61391","lat":"31.237768","category":"251","category_name":"出行住宿","address":"浦东新区新金桥路,15号,近红枫路"},{"poiid":"B2094757D16DA0FB469B","title":"东昌奥迪4S店","lon":"121.608646205","lat":"31.2316367036","category":"500","category_name":"未知分类","address":"上海锦绣东路2053"},{"poiid":"B2094757D66DA3F84792","title":"金滇路　桂桥路","lon":"121.607121975","lat":"31.2419573352","category":"500","category_name":"未知分类","address":"上海交岔口"},{"poiid":"B2094654DA6AA7F8489D","title":"灏讯中国","lon":"121.60767","lat":"31.24135","category":"263","category_name":"公司","address":"金滇路150"},{"poiid":"B2094655D26AA1F84898","title":"绿地浦成汽车销售有限公司","lon":"121.60524","lat":"31.24341","category":"247","category_name":"餐饮美食","address":"浦东新区川桥路350号(罗山路张杨路)"},{"poiid":"B2094757D169A7F5429F","title":"马自达4S","lon":"121.605248","lat":"31.243437","category":"500","category_name":"未知分类","address":"上海川桥路350号"},{"poiid":"B2094757D064A7FF439C","title":"欧莱雅研发和创新中心","lon":"121.61284362","lat":"31.251635695","category":"46","category_name":"楼宇","address":"上海云桥路金豫路550号"},{"poiid":"B2094757D16FA7FA4292","title":"张江路","lon":"121.60532912","lat":"31.241646352","category":"500","category_name":"未知分类","address":"上海张江路"},{"poiid":"B2094654DB65A6FE4598","title":"三得利(上海)食品有限公司","lon":"121.6102","lat":"31.24456","category":"263","category_name":"公司","address":"川桥路600"},{"poiid":"B2094655D26AA4F44198","title":"陆风汽车销售服务有限公司","lon":"121.60524","lat":"31.24341","category":"247","category_name":"餐饮美食","address":"浦东新区川桥路350号(罗山路张杨路)"},{"poiid":"B2094757D06BA2FB4792","title":"金桥软件园","lon":"121.59910211","lat":"31.2423372779","category":"46","category_name":"楼宇","address":"上海浦东新区明月路1257号"},{"poiid":"B2094757D168A7F84998","title":"申美可口可乐","lon":"121.6075213","lat":"31.247112972","category":"500","category_name":"未知分类","address":"上海桂桥路"},{"poiid":"B2094655D264A6FF449A","title":"蜀悦渔乡 金湘路店","lon":"121.60921","lat":"31.25353","category":"71","category_name":"四川菜","address":"浦东新区金湘路345号(近新金桥路)"},{"poiid":"B2094655D26BA7F94992","title":"惠普综合大楼","lon":"121.59994","lat":"31.2463","category":"46","category_name":"楼宇","address":"金藏路351号"},{"poiid":"B2094654DA6AA7F8459D","title":"金金公寓职工宿舍","lon":"121.60277","lat":"31.24122","category":"47","category_name":"住宅区","address":"金沪路1218弄1-4号"},{"poiid":"B2094654DA6AA7F8489C","title":"上海群工","lon":"121.60681","lat":"31.24378","category":"248","category_name":"生活娱乐","address":"川桥路400号"},{"poiid":"B2094757D66CA5F54193","title":"迪堡金融设备有限公司","lon":"121.613482737","lat":"31.2452391598","category":"263","category_name":"公司","address":"上海川桥路747号"},{"poiid":"B2094757D16FA7FB4699","title":"Parker Hannifin","lon":"121.606504975","lat":"31.2469274515","category":"500","category_name":"未知分类","address":"上海浦东金桥云桥路280号"},{"poiid":"B2094757DA6EA7FA4699","title":"上海MAXWIN实业有限公司","lon":"121.606820000001","lat":"31.2437799999998","category":"263","category_name":"公司","address":"浦东新区川桥路400号"},{"poiid":"B2094757D06FA2F8449B","title":"东郊宾馆","lon":"121.603","lat":"31.2321","category":"213","category_name":"五星级宾馆","address":"浦东新区金科路1800号东郊宾馆内(近龙东大道)"},{"poiid":"B2094757D06FA3FA4293","title":"星巴克(中惠广场店)","lon":"121.609055","lat":"31.253059","category":"260","category_name":"其他","address":"浦东新区新金桥路1088号中惠广场B100室(近金湘路)"},{"poiid":"B2094757D069A5F4489C","title":"可口可乐博物馆","lon":"121.61253","lat":"31.24342","category":"182","category_name":"博物馆","address":"浦东新区桂桥路539号(桂桥路金湘路)"},{"poiid":"B2094757D068A2FE459A","title":"壹江南","lon":"121.60917839","lat":"31.252566255","category":"260","category_name":"其他","address":"浦东新区新金桥路1088号(近金湘路)"},{"poiid":"B2094757D068A1F54492","title":"Big Bamboo (金桥店)","lon":"121.59329","lat":"31.24155","category":"260","category_name":"其他","address":"浦东新区红枫路381号(近碧云路)"},{"poiid":"B2094757D464A7FD459C","title":"沈家花园 新金桥店","lon":"121.61101051625","lat":"31.253419846704","category":"47","category_name":"住宅区","address":"浦东新区新金桥路1122号(金港路新金桥路)"},{"poiid":"B2094757D065A6FC4393","title":"上海东昌金桥汽车服务有限公司","lon":"121.609598975","lat":"31.2402032941","category":"500","category_name":"未知分类","address":"上海市锦绣东路2069号"},{"poiid":"B2094757D169ABFC479F","title":"上海贝尔","lon":"121.60985733","lat":"31.251464831","category":"500","category_name":"未知分类","address":"上海宁桥路388号"},{"poiid":"B2094654DA6AA1F94193","title":"上海申美饮料食品有限公司(桂桥路)","lon":"121.6126","lat":"31.24386","category":"263","category_name":"公司","address":"桂桥路539"},{"poiid":"B2094757D064A1FC489D","title":"金桥创科园","lon":"121.60805511","lat":"31.242076873","category":"500","category_name":"未知分类","address":"松江区荣乐东路1133弄"},{"poiid":"B2094757DB6DA5FE419F","title":"上海瑞邦公寓式酒店","lon":"121.608149","lat":"31.240339","category":"214","category_name":"四星级宾馆","address":"上海市浦东新区金滇路176号(近锦绣东路)"},{"poiid":"B2094757D069A3FD4199","title":"中国移动上海视频基地(云桥路)","lon":"121.61323547","lat":"31.248184204","category":"182","category_name":"博物馆","address":"上海浦东新区云桥路636号"},{"poiid":"B2094750D364A3F94298","title":"东昌奥迪金桥店","lon":"121.60872900665","lat":"31.23981648373","category":"639","category_name":"汽车交通类公司","address":"锦绣东路2053号(川桥路金滇路口)"},{"poiid":"B2094655D36CA0FE489B","title":"金桥路三桥","lon":"121.6054","lat":"31.23201","category":"38","category_name":"公交车站","address":""},{"poiid":"B2094757D569A3FF4199","title":"阿尔卡特上海贝尔股份有限公司","lon":"121.61164","lat":"31.25047611","category":"138","category_name":"家电电子卖场","address":"宁桥路388-389号"},{"poiid":"B2094757D068A3F84793","title":"诺基亚西门子移动通信","lon":"121.61428397","lat":"31.246229435","category":"46","category_name":"楼宇","address":"上海市浦东新区川桥路777号"},{"poiid":"B2094654DA6AA0FB419D","title":"金桥出口加工区48号","lon":"121.60958","lat":"31.24232","category":"45","category_name":"产业园区","address":"桂桥路290"},{"poiid":"B2094757D06FABF5459B","title":"ICBC SDC Shanghai","lon":"121.61748301","lat":"31.250660182","category":"500","category_name":"未知分类","address":"上海云桥路875号"},{"poiid":"B2094654DA6AA1F94599","title":"诺一公寓","lon":"121.60809","lat":"31.24021","category":"47","category_name":"住宅区","address":"金滇路176号"},{"poiid":"B2094654DB64A6FA459D","title":"味千拉面 新金桥店","lon":"121.609280054","lat":"31.253093793","category":"95","category_name":"日本料理","address":"浦东新区新金桥路1088号中惠广场B102B113单元(近金湘路)"},{"poiid":"B2094655D36CA5FE419C","title":"川桥路金滇路","lon":"121.60637","lat":"31.2441","category":"38","category_name":"公交车站","address":""},{"poiid":"B2094655D36CA0FE489C","title":"金桥路锦绣东路","lon":"121.60284","lat":"31.23674","category":"38","category_name":"公交车站","address":""},{"poiid":"B2094654DA6AA0FB4192","title":"上海日立家用电器有限公司(洗衣机事业部)","lon":"121.60968","lat":"31.24233","category":"263","category_name":"公司","address":"金湘路1100"},{"poiid":"B2094757D169AAFF499E","title":"上海金桥高尔夫俱乐部","lon":"121.602146339","lat":"31.2494287843","category":"500","category_name":"未知分类","address":"浦东新区新金桥路775号"},{"poiid":"B2094750D26FA3F44199","title":"由度工坊","lon":"121.60897","lat":"31.244926","category":"263","category_name":"公司","address":"上海市浦东新区川桥路401号"},{"poiid":"B2094654DA6AA1F8499E","title":"上海日立家用电器有限公司(金湘路)","lon":"121.61164","lat":"31.24206","category":"263","category_name":"公司","address":"金湘路1100"},{"poiid":"B2094654DA6AA7F8409D","title":"高旺橱柜浦东基地","lon":"121.6067","lat":"31.23863","category":"45","category_name":"产业园区","address":""},{"poiid":"B2094757D06BA6FB459B","title":"福特汽车福银4S店","lon":"121.60238097","lat":"31.243333367","category":"500","category_name":"未知分类","address":"上海市浦东新区川桥路200号"},{"poiid":"B2094757D66DA5F94392","title":"上海申美饮料食品有限公司金桥食堂","lon":"121.608554875","lat":"31.2422156412","category":"500","category_name":"未知分类","address":null},{"poiid":"B2094750D26FA7FA4793","title":"金桥国际","lon":"121.615661","lat":"31.243618","category":"500","category_name":"未知分类","address":null},{"poiid":"B2094757D66EAAF8499A","title":"上海绿地徐捷汽车销售服务有限公司","lon":"121.60602897","lat":"31.243979382","category":"500","category_name":"未知分类","address":"浦东新区川桥路350号(近金桥路)"},{"poiid":"B2094752D26EA7F84099","title":"万豪酒店Marriott Hotel","lon":"121.61391","lat":"31.237768","category":"251","category_name":"出行住宿","address":"浦东新区新金桥路,15号,近红枫路"},{"poiid":"B2094757D16DA0FB469B","title":"东昌奥迪4S店","lon":"121.608646205","lat":"31.2316367036","category":"500","category_name":"未知分类","address":"上海锦绣东路2053"},{"poiid":"B2094757D66DA3F84792","title":"金滇路　桂桥路","lon":"121.607121975","lat":"31.2419573352","category":"500","category_name":"未知分类","address":"上海交岔口"},{"poiid":"B2094654DA6AA7F8489D","title":"灏讯中国","lon":"121.60767","lat":"31.24135","category":"263","category_name":"公司","address":"金滇路150"},{"poiid":"B2094655D26AA1F84898","title":"绿地浦成汽车销售有限公司","lon":"121.60524","lat":"31.24341","category":"247","category_name":"餐饮美食","address":"浦东新区川桥路350号(罗山路张杨路)"},{"poiid":"B2094757D169A7F5429F","title":"马自达4S","lon":"121.605248","lat":"31.243437","category":"500","category_name":"未知分类","address":"上海川桥路350号"},{"poiid":"B2094757D064A7FF439C","title":"欧莱雅研发和创新中心","lon":"121.61284362","lat":"31.251635695","category":"46","category_name":"楼宇","address":"上海云桥路金豫路550号"},{"poiid":"B2094757D16FA7FA4292","title":"张江路","lon":"121.60532912","lat":"31.241646352","category":"500","category_name":"未知分类","address":"上海张江路"},{"poiid":"B2094654DB65A6FE4598","title":"三得利(上海)食品有限公司","lon":"121.6102","lat":"31.24456","category":"263","category_name":"公司","address":"川桥路600"},{"poiid":"B2094655D26AA4F44198","title":"陆风汽车销售服务有限公司","lon":"121.60524","lat":"31.24341","category":"247","category_name":"餐饮美食","address":"浦东新区川桥路350号(罗山路张杨路)"},{"poiid":"B2094757D06BA2FB4792","title":"金桥软件园","lon":"121.59910211","lat":"31.2423372779","category":"46","category_name":"楼宇","address":"上海浦东新区明月路1257号"},{"poiid":"B2094757D168A7F84998","title":"申美可口可乐","lon":"121.6075213","lat":"31.247112972","category":"500","category_name":"未知分类","address":"上海桂桥路"},{"poiid":"B2094655D264A6FF449A","title":"蜀悦渔乡 金湘路店","lon":"121.60921","lat":"31.25353","category":"71","category_name":"四川菜","address":"浦东新区金湘路345号(近新金桥路)"},{"poiid":"B2094655D26BA7F94992","title":"惠普综合大楼","lon":"121.59994","lat":"31.2463","category":"46","category_name":"楼宇","address":"金藏路351号"},{"poiid":"B2094654DA6AA7F8459D","title":"金金公寓职工宿舍","lon":"121.60277","lat":"31.24122","category":"47","category_name":"住宅区","address":"金沪路1218弄1-4号"},{"poiid":"B2094654DA6AA7F8489C","title":"上海群工","lon":"121.60681","lat":"31.24378","category":"248","category_name":"生活娱乐","address":"川桥路400号"},{"poiid":"B2094757D66CA5F54193","title":"迪堡金融设备有限公司","lon":"121.613482737","lat":"31.2452391598","category":"263","category_name":"公司","address":"上海川桥路747号"},{"poiid":"B2094757D16FA7FB4699","title":"Parker Hannifin","lon":"121.606504975","lat":"31.2469274515","category":"500","category_name":"未知分类","address":"上海浦东金桥云桥路280号"},{"poiid":"B2094757DA6EA7FA4699","title":"上海MAXWIN实业有限公司","lon":"121.606820000001","lat":"31.2437799999998","category":"263","category_name":"公司","address":"浦东新区川桥路400号"}]