[{"poiid":"B2094757D06EAAFF429B","title":"中潭路地铁站","lon":"121.441638","lat":"31.254717","category":"36","category_name":"地铁站","address":"上海轨道交通 三号线 四号线 轨交中潭路站 轻轨 3 4"},{"poiid":"B2094655D26FA1F54398","title":"中远两湾城","lon":"121.44433","lat":"31.252873","category":"47","category_name":"住宅区","address":"上海中潭路100弄2～360号"},{"poiid":"B2094757D06FA5FC469F","title":"苏州河梦清园环保主题公园","lon":"121.44088","lat":"31.25094","category":"196","category_name":"公园","address":"普陀区宜昌路66号(近江宁路)"},{"poiid":"B2094750D76EABFA419A","title":"星巴克(中潭路店)","lon":"121.443","lat":"31.2524","category":"260","category_name":"其他","address":"普陀区中潭路71号(近远景路)"},{"poiid":"B2094750D465A3FD4199","title":"鲜芋仙","lon":"121.440429","lat":"31.258911","category":"67","category_name":"甜品店","address":"普陀区宜川路78号A2(世纪联华旁)"},{"poiid":"B2094757D06FA1FB4899","title":"泰欣嘉园","lon":"121.44","lat":"31.2546","category":"47","category_name":"住宅区","address":"普陀区光复西路133弄泰欣家园会所内(近凯旋北路)"},{"poiid":"B2094655D26FA1F44598","title":"中远两湾城西门","lon":"121.44387","lat":"31.25119","category":"48","category_name":"楼宇大门","address":"中潭路100弄176"},{"poiid":"B2094654D465A7F5469B","title":"华源世界广场","lon":"121.439","lat":"31.256","category":"46","category_name":"楼宇","address":"行宫位于沈河北站一路41号"},{"poiid":"B2094757D068A4F84899","title":"大马头香港美食","lon":"121.443324","lat":"31.251285","category":"72","category_name":"广东菜","address":"普陀区中潭路49号(近中远两湾城)"},{"poiid":"B2094757D165A6FB449C","title":"玫瑰婚典一号会馆","lon":"121.43842895","lat":"31.250425686","category":"500","category_name":"未知分类","address":"普陀区宜昌路100号梦清园内(近中潭路)查看地图"},{"poiid":"B2094750D76EA1F94398","title":"陈记鸡蛋仔","lon":"121.44","lat":"31.2592","category":"68","category_name":"快餐厅","address":"普陀区宜川路81号(近华阴路)"},{"poiid":"B2094757D168A7FA4993","title":"3号线镇坪路站","lon":"121.43886995","lat":"31.2523957238","category":"500","category_name":"未知分类","address":"上海市普陀区农林路"},{"poiid":"B2094655D26AA0F9409D","title":"地铁中潭路站","lon":"121.44163","lat":"31.25471","category":"36","category_name":"地铁站","address":""},{"poiid":"B2094654D464ABFA4892","title":"飞洲时代大厦","lon":"121.44","lat":"31.2576","category":"46","category_name":"楼宇","address":"上海市普陀区中山北路1777号"},{"poiid":"B2094757D068A4F44099","title":"中期大厦","lon":"121.438","lat":"31.2552","category":"46","category_name":"楼宇","address":"中山北路2000号"},{"poiid":"B2094757D06AA6FD4092","title":"交通路 上海商学院分部","lon":"121.43848419","lat":"31.256755828","category":"500","category_name":"未知分类","address":"上海交通路1933号"},{"poiid":"B2094757D56CA2F5469E","title":"一号码头 Mimosa Supperclub","lon":"121.44170211433","lat":"31.249054090883","category":"247","category_name":"餐饮美食","address":"宜昌路88号近江宁路和昌化路之间"},{"poiid":"B2094757D168A7F8409D","title":"浦东机场T2航站楼北步行道","lon":"121.43789915","lat":"31.257590923","category":"21","category_name":"飞机场","address":"上海浦东机场2号航站楼"},{"poiid":"B2094654DB69A6F94899","title":"浦发财富广场","lon":"121.43807","lat":"31.25418","category":"46","category_name":"楼宇","address":"上海市平凉路1398号"},{"poiid":"B2094757D068A3FD4599","title":"振鼎鸡(华阴路店)","lon":"121.44187","lat":"31.25862","category":"68","category_name":"快餐厅","address":"普陀区华阴路290号(华阴路宜川路)"},{"poiid":"B2094757D16BAAFF449B","title":"地铁7号线","lon":"121.43630155","lat":"31.25586419","category":"36","category_name":"地铁站","address":"上海7号线 花木路—美兰湖"},{"poiid":"B2094654DB6AABFF409C","title":"上海商业会计学校(交通路)","lon":"121.43847","lat":"31.25675","category":"54","category_name":"职业技术学校","address":"交通路1933"},{"poiid":"B2094654DA6CA7FA459E","title":"振源大厦","lon":"121.438","lat":"31.2542","category":"46","category_name":"楼宇","address":"上海市四川北路1851号"},{"poiid":"B2094655D36DA6FF4299","title":"中潭路","lon":"121.44163","lat":"31.25471","category":"38","category_name":"公交车站","address":""},{"poiid":"B2094751D365A2F44399","title":"上海浅水湾文化艺术中心","lon":"121.4366563","lat":"31.2512422","category":"248","category_name":"生活娱乐","address":"宜昌路179号"},{"poiid":"B2094752D664A0FB489A","title":"上海火车站","lon":"121.443191","lat":"31.254116","category":"500","category_name":"未知分类","address":null},{"poiid":"B2094655D36CA0F8439A","title":"交通路宜川路","lon":"121.44014","lat":"31.25628","category":"38","category_name":"公交车站","address":""},{"poiid":"B2094757D069A6FA4692","title":"中山北路中潭路公交站","lon":"121.439867","lat":"31.255292","category":"38","category_name":"公交车站","address":"上海中山北路中潭路"},{"poiid":"B2094654DB69A5F4419F","title":"重庆鸡公煲 宜川路店","lon":"121.441","lat":"31.25666","category":"86","category_name":"火锅店","address":"普陀区中华新路1182号(近交通西路)"},{"poiid":"B2094655D26AABF8429C","title":"上海壹号码头精品酒店","lon":"121.44022","lat":"31.24956","category":"250","category_name":"公园户外","address":"上海普陀区宜昌路130号(近江宁路桥)。"},{"poiid":"B2094654D464ABF8449B","title":"宜洛馨苑","lon":"121.4394","lat":"31.257336","category":"47","category_name":"住宅区","address":"交通路1913弄1-18号"},{"poiid":"B2094655D26EA5F94399","title":"六角形法国西餐厅 Douce France","lon":"121.44140859447","lat":"31.253440032532","category":"247","category_name":"餐饮美食","address":"中远两湾城100弄54号中潭路"},{"poiid":"B2094757D76CAAF84398","title":"克莉丝汀 中潭路店","lon":"121.43985","lat":"31.25492","category":"112","category_name":"糕饼店","address":"普陀区中潭路100弄中远两湾城28号(近昌化路)"},{"poiid":"B2094757D068A7FE4798","title":"世纪联华(宜川店)","lon":"121.440369","lat":"31.258596","category":"118","category_name":"超级市场","address":"普陀区宜川路60号(华阴路)"},{"poiid":"B2094654DA6CA7FB4193","title":"万千大厦","lon":"121.437","lat":"31.2536","category":"46","category_name":"楼宇","address":"上海市平凉路1398号"},{"poiid":"B2094757D769A4F5409E","title":"豪大大台湾大鸡排 中潭路店","lon":"121.4417101","lat":"31.2536212","category":"68","category_name":"快餐厅","address":"普陀区中潭路99弄149号(近中远两湾城)"},{"poiid":"B2094655D265A5FB499B","title":"智明商务楼","lon":"121.43985","lat":"31.25451","category":"46","category_name":"楼宇","address":"远景路582临"},{"poiid":"B2094757D068A2FA419C","title":"宜川三村","lon":"121.440673","lat":"31.258837","category":"252","category_name":"楼宇机构","address":"上海宜川路华阴路"},{"poiid":"B2094655D26EA2FA469A","title":"网球场(交通银行上海中远两湾城支行西)","lon":"121.43987","lat":"31.25386","category":"226","category_name":"网球场","address":"中潭路99弄25"},{"poiid":"B2094654D465A6FC4199","title":"浅水湾养生会馆","lon":"121.44281","lat":"31.25205","category":"149","category_name":"洗浴推拿场所","address":"普陀区中潭路(清水湾路中潭路)"},{"poiid":"B2094757D068ABF94093","title":"7-ELEVEN(中潭店)","lon":"121.4421784","lat":"31.2532287","category":"117","category_name":"便民商店/便利店","address":"普陀区中潭路100弄中远两湾城52号"},{"poiid":"B2094655D36DA7F84293","title":"中山北路中潭路","lon":"121.44008","lat":"31.25554","category":"38","category_name":"公交车站","address":""},{"poiid":"B2094757D06BA3FB409E","title":"平平餐厅(香吧岛龙虾店)","lon":"121.44056227","lat":"31.2526946","category":"257","category_name":"中餐厅","address":"黄浦区寿宁路21号(近西藏南路)"},{"poiid":"B2094757D66CA5FC459D","title":"共和新路街道社区卫生服务中心","lon":"121.44039955","lat":"31.254171657","category":"500","category_name":"未知分类","address":"上海闸北区洛川东路151号"},{"poiid":"B2094757D16DABFD4798","title":"家里蹲","lon":"121.43771895","lat":"31.258147833","category":"500","category_name":"未知分类","address":null},{"poiid":"B2094654D465A6FC439A","title":"招商银行上海中远两湾城支行","lon":"121.44167","lat":"31.25313","category":"150","category_name":"银行","address":"普陀区中潭路100弄中远两湾城3号(近清水湾路)"},{"poiid":"B2094655D264A4FB419A","title":"中山北路交通路立交桥","lon":"121.44096","lat":"31.25585","category":"250","category_name":"公园户外","address":"上海中山北路(跨交通路)"},{"poiid":"B2094654D464A4F84799","title":"川味麻辣烫宜川店","lon":"121.44107","lat":"31.25631","category":"68","category_name":"快餐厅","address":"普陀区宜川路5号(交通路口)"},{"poiid":"B2094752DA6CA0FA439C","title":"中山公园","lon":"121.441185","lat":"31.254508","category":"500","category_name":"未知分类","address":null},{"poiid":"B2094757D065A4FF4892","title":"561中谭路站","lon":"121.43959275","lat":"31.2547795943","category":"500","category_name":"未知分类","address":"上海561中谭路终点站"},{"poiid":"B2094757D06EAAFF429B","title":"中潭路地铁站","lon":"121.441638","lat":"31.254717","category":"36","category_name":"地铁站","address":"上海轨道交通 三号线 四号线 轨交中潭路站 轻轨 3 4"},{"poiid":"B2094655D26FA1F54398","title":"中远两湾城","lon":"121.44433","lat":"31.252873","category":"47","category_name":"住宅区","address":"上海中潭路100弄2～360号"},{"poiid":"B2094757D06FA5FC469F","title":"苏州河梦清园环保主题公园","lon":"121.44088","lat":"31.25094","category":"196","category_name":"公园","address":"普陀区宜昌路66号(近江宁路)"},{"poiid":"B2094750D76EABFA419A","title":"星巴克(中潭路店)","lon":"121.443","lat":"31.2524","category":"260","category_name":"其他","address":"普陀区中潭路71号(近远景路)"},{"poiid":"B2094750D465A3FD4199","title":"鲜芋仙","lon":"121.440429","lat":"31.258911","category":"67","category_name":"甜品店","address":"普陀区宜川路78号A2(世纪联华旁)"},{"poiid":"B2094757D06FA1FB4899","title":"泰欣嘉园","lon":"121.44","lat":"31.2546","category":"47","category_name":"住宅区","address":"普陀区光复西路133弄泰欣家园会所内(近凯旋北路)"},{"poiid":"B2094655D26FA1F44598","title":"中远两湾城西门","lon":"121.44387","lat":"31.25119","category":"48","category_name":"楼宇大门","address":"中潭路100弄176"},{"poiid":"B2094654D465A7F5469B","title":"华源世界广场","lon":"121.439","lat":"31.256","category":"46","category_name":"楼宇","address":"行宫位于沈河北站一路41号"},{"poiid":"B2094757D068A4F84899","title":"大马头香港美食","lon":"121.443324","lat":"31.251285","category":"72","category_name":"广东菜","address":"普陀区中潭路49号(近中远两湾城)"},{"poiid":"B2094757D165A6FB449C","title":"玫瑰婚典一号会馆","lon":"121.43842895","lat":"31.250425686","category":"500","category_name":"未知分类","address":"普陀区宜昌路100号梦清园内(近中潭路)查看地图"},{"poiid":"B2094750D76EA1F94398","title":"陈记鸡蛋仔","lon":"121.44","lat":"31.2592","category":"68","category_name":"快餐厅","address":"普陀区宜川路81号(近华阴路)"},{"poiid":"B2094757D168A7FA4993","title":"3号线镇坪路站","lon":"121.43886995","lat":"31.2523957238","category":"500","category_name":"未知分类","address":"上海市普陀区农林路"},{"poiid":"B2094655D26AA0F9409D","title":"地铁中潭路站","lon":"121.44163","lat":"31.25471","category":"36","category_name":"地铁站","address":""},{"poiid":"B2094654D464ABFA4892","title":"飞洲时代大厦","lon":"121.44","lat":"31.2576","category":"46","category_name":"楼宇","address":"上海市普陀区中山北路1777号"},{"poiid":"B2094757D068A4F44099","title":"中期大厦","lon":"121.438","lat":"31.2552","category":"46","category_name":"楼宇","address":"中山北路2000号"},{"poiid":"B2094757D06AA6FD4092","title":"交通路 上海商学院分部","lon":"121.43848419","lat":"31.256755828","category":"500","category_name":"未知分类","address":"上海交通路1933号"},{"poiid":"B2094757D56CA2F5469E","title":"一号码头 Mimosa Supperclub","lon":"121.44170211433","lat":"31.249054090883","category":"247","category_name":"餐饮美食","address":"宜昌路88号近江宁路和昌化路之间"},{"poiid":"B2094757D168A7F8409D","title":"浦东机场T2航站楼北步行道","lon":"121.43789915","lat":"31.257590923","category":"21","category_name":"飞机场","address":"上海浦东机场2号航站楼"},{"poiid":"B2094654DB69A6F94899","title":"浦发财富广场","lon":"121.43807","lat":"31.25418","category":"46","category_name":"楼宇","address":"上海市平凉路1398号"},{"poiid":"B2094757D068A3FD4599","title":"振鼎鸡(华阴路店)","lon":"121.44187","lat":"31.25862","category":"68","category_name":"快餐厅","address":"普陀区华阴路290号(华阴路宜川路)"},{"poiid":"B2094757D16BAAFF449B","title":"地铁7号线","lon":"121.43630155","lat":"31.25586419","category":"36","category_name":"地铁站","address":"上海7号线 花木路—美兰湖"},{"poiid":"B2094654DB6AABFF409C","title":"上海商业会计学校(交通路)","lon":"121.43847","lat":"31.25675","category":"54","category_name":"职业技术学校","address":"交通路1933"},{"poiid":"B2094654DA6CA7FA459E","title":"振源大厦","lon":"121.438","lat":"31.2542","category":"46","category_name":"楼宇","address":"上海市四川北路1851号"},{"poiid":"B2094655D36DA6FF4299","title":"中潭路","lon":"121.44163","lat":"31.25471","category":"38","category_name":"公交车站","address":""},{"poiid":"B2094751D365A2F44399","title":"上海浅水湾文化艺术中心","lon":"121.4366563","lat":"31.2512422","category":"248","category_name":"生活娱乐","address":"宜昌路179号"},{"poiid":"B2094752D664A0FB489A","title":"上海火车站","lon":"121.443191","lat":"31.254116","category":"500","category_name":"未知分类","address":null},{"poiid":"B2094655D36CA0F8439A","title":"交通路宜川路","lon":"121.44014","lat":"31.25628","category":"38","category_name":"公交车站","address":""},{"poiid":"B2094757D069A6FA4692","title":"中山北路中潭路公交站","lon":"121.439867","lat":"31.255292","category":"38","category_name":"公交车站","address":"上海中山北路中潭路"},{"poiid":"B2094654DB69A5F4419F","title":"重庆鸡公煲 宜川路店","lon":"121.441","lat":"31.25666","category":"86","category_name":"火锅店","address":"普陀区中华新路1182号(近交通西路)"},{"poiid":"B2094655D26AABF8429C","title":"上海壹号码头精品酒店","lon":"121.44022","lat":"31.24956","category":"250","category_name":"公园户外","address":"上海普陀区宜昌路130号(近江宁路桥)。"},{"poiid":"B2094654D464ABF8449B","title":"宜洛馨苑","lon":"121.4394","lat":"31.257336","category":"47","category_name":"住宅区","address":"交通路1913弄1-18号"},{"poiid":"B2094655D26EA5F94399","title":"六角形法国西餐厅 Douce France","lon":"121.44140859447","lat":"31.253440032532","category":"247","category_name":"餐饮美食","address":"中远两湾城100弄54号中潭路"},{"poiid":"B2094757D76CAAF84398","title":"克莉丝汀 中潭路店","lon":"121.43985","lat":"31.25492","category":"112","category_name":"糕饼店","address":"普陀区中潭路100弄中远两湾城28号(近昌化路)"},{"poiid":"B2094757D068A7FE4798","title":"世纪联华(宜川店)","lon":"121.440369","lat":"31.258596","category":"118","category_name":"超级市场","address":"普陀区宜川路60号(华阴路)"},{"poiid":"B2094654DA6CA7FB4193","title":"万千大厦","lon":"121.437","lat":"31.2536","category":"46","category_name":"楼宇","address":"上海市平凉路1398号"},{"poiid":"B2094757D769A4F5409E","title":"豪大大台湾大鸡排 中潭路店","lon":"121.4417101","lat":"31.2536212","category":"68","category_name":"快餐厅","address":"普陀区中潭路99弄149号(近中远两湾城)"},{"poiid":"B2094655D265A5FB499B","title":"智明商务楼","lon":"121.43985","lat":"31.25451","category":"46","category_name":"楼宇","address":"远景路582临"},{"poiid":"B2094757D068A2FA419C","title":"宜川三村","lon":"121.440673","lat":"31.258837","category":"252","category_name":"楼宇机构","address":"上海宜川路华阴路"},{"poiid":"B2094655D26EA2FA469A","title":"网球场(交通银行上海中远两湾城支行西)","lon":"121.43987","lat":"31.25386","category":"226","category_name":"网球场","address":"中潭路99弄25"},{"poiid":"B2094654D465A6FC4199","title":"浅水湾养生会馆","lon":"121.44281","lat":"31.25205","category":"149","category_name":"洗浴推拿场所","address":"普陀区中潭路(清水湾路中潭路)"},{"poiid":"B2094757D068ABF94093","title":"7-ELEVEN(中潭店)","lon":"121.4421784","lat":"31.2532287","category":"117","category_name":"便民商店/便利店","address":"普陀区中潭路100弄中远两湾城52号"},{"poiid":"B2094655D36DA7F84293","title":"中山北路中潭路","lon":"121.44008","lat":"31.25554","category":"38","category_name":"公交车站","address":""},{"poiid":"B2094757D06BA3FB409E","title":"平平餐厅(香吧岛龙虾店)","lon":"121.44056227","lat":"31.2526946","category":"257","category_name":"中餐厅","address":"黄浦区寿宁路21号(近西藏南路)"},{"poiid":"B2094757D66CA5FC459D","title":"共和新路街道社区卫生服务中心","lon":"121.44039955","lat":"31.254171657","category":"500","category_name":"未知分类","address":"上海闸北区洛川东路151号"},{"poiid":"B2094757D16DABFD4798","title":"家里蹲","lon":"121.43771895","lat":"31.258147833","category":"500","category_name":"未知分类","address":null},{"poiid":"B2094654D465A6FC439A","title":"招商银行上海中远两湾城支行","lon":"121.44167","lat":"31.25313","category":"150","category_name":"银行","address":"普陀区中潭路100弄中远两湾城3号(近清水湾路)"},{"poiid":"B2094655D264A4FB419A","title":"中山北路交通路立交桥","lon":"121.44096","lat":"31.25585","category":"250","category_name":"公园户外","address":"上海中山北路(跨交通路)"},{"poiid":"B2094654D464A4F84799","title":"川味麻辣烫宜川店","lon":"121.44107","lat":"31.25631","category":"68","category_name":"快餐厅","address":"普陀区宜川路5号(交通路口)"},{"poiid":"B2094752DA6CA0FA439C","title":"中山公园","lon":"121.441185","lat":"31.254508","category":"500","category_name":"未知分类","address":null},{"poiid":"B2094757D065A4FF4892","title":"561中谭路站","lon":"121.43959275","lat":"31.2547795943","category":"500","category_name":"未知分类","address":"上海561中谭路终点站"},{"poiid":"B2094757D06EAAFF429B","title":"中潭路地铁站","lon":"121.441638","lat":"31.254717","category":"36","category_name":"地铁站","address":"上海轨道交通 三号线 四号线 轨交中潭路站 轻轨 3 4"},{"poiid":"B2094655D26FA1F54398","title":"中远两湾城","lon":"121.44433","lat":"31.252873","category":"47","category_name":"住宅区","address":"上海中潭路100弄2～360号"},{"poiid":"B2094757D06FA5FC469F","title":"苏州河梦清园环保主题公园","lon":"121.44088","lat":"31.25094","category":"196","category_name":"公园","address":"普陀区宜昌路66号(近江宁路)"},{"poiid":"B2094750D76EABFA419A","title":"星巴克(中潭路店)","lon":"121.443","lat":"31.2524","category":"260","category_name":"其他","address":"普陀区中潭路71号(近远景路)"},{"poiid":"B2094750D465A3FD4199","title":"鲜芋仙","lon":"121.440429","lat":"31.258911","category":"67","category_name":"甜品店","address":"普陀区宜川路78号A2(世纪联华旁)"},{"poiid":"B2094757D06FA1FB4899","title":"泰欣嘉园","lon":"121.44","lat":"31.2546","category":"47","category_name":"住宅区","address":"普陀区光复西路133弄泰欣家园会所内(近凯旋北路)"},{"poiid":"B2094655D26FA1F44598","title":"中远两湾城西门","lon":"121.44387","lat":"31.25119","category":"48","category_name":"楼宇大门","address":"中潭路100弄176"},{"poiid":"B2094654D465A7F5469B","title":"华源世界广场","lon":"121.439","lat":"31.256","category":"46","category_name":"楼宇","address":"行宫位于沈河北站一路41号"},{"poiid":"B2094757D068A4F84899","title":"大马头香港美食","lon":"121.443324","lat":"31.251285","category":"72","category_name":"广东菜","address":"普陀区中潭路49号(近中远两湾城)"},{"poiid":"B2094757D165A6FB449C","title":"玫瑰婚典一号会馆","lon":"121.43842895","lat":"31.250425686","category":"500","category_name":"未知分类","address":"普陀区宜昌路100号梦清园内(近中潭路)查看地图"},{"poiid":"B2094750D76EA1F94398","title":"陈记鸡蛋仔","lon":"121.44","lat":"31.2592","category":"68","category_name":"快餐厅","address":"普陀区宜川路81号(近华阴路)"},{"poiid":"B2094757D168A7FA4993","title":"3号线镇坪路站","lon":"121.43886995","lat":"31.2523957238","category":"500","category_name":"未知分类","address":"上海市普陀区农林路"},{"poiid":"B2094655D26AA0F9409D","title":"地铁中潭路站","lon":"121.44163","lat":"31.25471","category":"36","category_name":"地铁站","address":""},{"poiid":"B2094654D464ABFA4892","title":"飞洲时代大厦","lon":"121.44","lat":"31.2576","category":"46","category_name":"楼宇","address":"上海市普陀区中山北路1777号"},{"poiid":"B2094757D068A4F44099","title":"中期大厦","lon":"121.438","lat":"31.2552","category":"46","category_name":"楼宇","address":"中山北路2000号"},{"poiid":"B2094757D06AA6FD4092","title":"交通路 上海商学院分部","lon":"121.43848419","lat":"31.256755828","category":"500","category_name":"未知分类","address":"上海交通路1933号"},{"poiid":"B2094757D56CA2F5469E","title":"一号码头 Mimosa Supperclub","lon":"121.44170211433","lat":"31.249054090883","category":"247","category_name":"餐饮美食","address":"宜昌路88号近江宁路和昌化路之间"},{"poiid":"B2094757D168A7F8409D","title":"浦东机场T2航站楼北步行道","lon":"121.43789915","lat":"31.257590923","category":"21","category_name":"飞机场","address":"上海浦东机场2号航站楼"},{"poiid":"B2094654DB69A6F94899","title":"浦发财富广场","lon":"121.43807","lat":"31.25418","category":"46","category_name":"楼宇","address":"上海市平凉路1398号"},{"poiid":"B2094757D068A3FD4599","title":"振鼎鸡(华阴路店)","lon":"121.44187","lat":"31.25862","category":"68","category_name":"快餐厅","address":"普陀区华阴路290号(华阴路宜川路)"},{"poiid":"B2094757D16BAAFF449B","title":"地铁7号线","lon":"121.43630155","lat":"31.25586419","category":"36","category_name":"地铁站","address":"上海7号线 花木路—美兰湖"},{"poiid":"B2094654DB6AABFF409C","title":"上海商业会计学校(交通路)","lon":"121.43847","lat":"31.25675","category":"54","category_name":"职业技术学校","address":"交通路1933"},{"poiid":"B2094654DA6CA7FA459E","title":"振源大厦","lon":"121.438","lat":"31.2542","category":"46","category_name":"楼宇","address":"上海市四川北路1851号"},{"poiid":"B2094655D36DA6FF4299","title":"中潭路","lon":"121.44163","lat":"31.25471","category":"38","category_name":"公交车站","address":""},{"poiid":"B2094751D365A2F44399","title":"上海浅水湾文化艺术中心","lon":"121.4366563","lat":"31.2512422","category":"248","category_name":"生活娱乐","address":"宜昌路179号"},{"poiid":"B2094752D664A0FB489A","title":"上海火车站","lon":"121.443191","lat":"31.254116","category":"500","category_name":"未知分类","address":null},{"poiid":"B2094655D36CA0F8439A","title":"交通路宜川路","lon":"121.44014","lat":"31.25628","category":"38","category_name":"公交车站","address":""},{"poiid":"B2094757D069A6FA4692","title":"中山北路中潭路公交站","lon":"121.439867","lat":"31.255292","category":"38","category_name":"公交车站","address":"上海中山北路中潭路"},{"poiid":"B2094654DB69A5F4419F","title":"重庆鸡公煲 宜川路店","lon":"121.441","lat":"31.25666","category":"86","category_name":"火锅店","address":"普陀区中华新路1182号(近交通西路)"},{"poiid":"B2094655D26AABF8429C","title":"上海壹号码头精品酒店","lon":"121.44022","lat":"31.24956","category":"250","category_name":"公园户外","address":"上海普陀区宜昌路130号(近江宁路桥)。"},{"poiid":"B2094654D464ABF8449B","title":"宜洛馨苑","lon":"121.4394","lat":"31.257336","category":"47","category_name":"住宅区","address":"交通路1913弄1-18号"},{"poiid":"B2094655D26EA5F94399","title":"六角形法国西餐厅 Douce France","lon":"121.44140859447","lat":"31.253440032532","category":"247","category_name":"餐饮美食","address":"中远两湾城100弄54号中潭路"},{"poiid":"B2094757D76CAAF84398","title":"克莉丝汀 中潭路店","lon":"121.43985","lat":"31.25492","category":"112","category_name":"糕饼店","address":"普陀区中潭路100弄中远两湾城28号(近昌化路)"},{"poiid":"B2094757D068A7FE4798","title":"世纪联华(宜川店)","lon":"121.440369","lat":"31.258596","category":"118","category_name":"超级市场","address":"普陀区宜川路60号(华阴路)"},{"poiid":"B2094654DA6CA7FB4193","title":"万千大厦","lon":"121.437","lat":"31.2536","category":"46","category_name":"楼宇","address":"上海市平凉路1398号"},{"poiid":"B2094757D769A4F5409E","title":"豪大大台湾大鸡排 中潭路店","lon":"121.4417101","lat":"31.2536212","category":"68","category_name":"快餐厅","address":"普陀区中潭路99弄149号(近中远两湾城)"},{"poiid":"B2094655D265A5FB499B","title":"智明商务楼","lon":"121.43985","lat":"31.25451","category":"46","category_name":"楼宇","address":"远景路582临"},{"poiid":"B2094757D068A2FA419C","title":"宜川三村","lon":"121.440673","lat":"31.258837","category":"252","category_name":"楼宇机构","address":"上海宜川路华阴路"},{"poiid":"B2094655D26EA2FA469A","title":"网球场(交通银行上海中远两湾城支行西)","lon":"121.43987","lat":"31.25386","category":"226","category_name":"网球场","address":"中潭路99弄25"},{"poiid":"B2094654D465A6FC4199","title":"浅水湾养生会馆","lon":"121.44281","lat":"31.25205","category":"149","category_name":"洗浴推拿场所","address":"普陀区中潭路(清水湾路中潭路)"},{"poiid":"B2094757D068ABF94093","title":"7-ELEVEN(中潭店)","lon":"121.4421784","lat":"31.2532287","category":"117","category_name":"便民商店/便利店","address":"普陀区中潭路100弄中远两湾城52号"},{"poiid":"B2094655D36DA7F84293","title":"中山北路中潭路","lon":"121.44008","lat":"31.25554","category":"38","category_name":"公交车站","address":""},{"poiid":"B2094757D06BA3FB409E","title":"平平餐厅(香吧岛龙虾店)","lon":"121.44056227","lat":"31.2526946","category":"257","category_name":"中餐厅","address":"黄浦区寿宁路21号(近西藏南路)"},{"poiid":"B2094757D66CA5FC459D","title":"共和新路街道社区卫生服务中心","lon":"121.44039955","lat":"31.254171657","category":"500","category_name":"未知分类","address":"上海闸北区洛川东路151号"},{"poiid":"B2094757D16DABFD4798","title":"家里蹲","lon":"121.43771895","lat":"31.258147833","category":"500","category_name":"未知分类","address":null},{"poiid":"B2094654D465A6FC439A","title":"招商银行上海中远两湾城支行","lon":"121.44167","lat":"31.25313","category":"150","category_name":"银行","address":"普陀区中潭路100弄中远两湾城3号(近清水湾路)"},{"poiid":"B2094655D264A4FB419A","title":"中山北路交通路立交桥","lon":"121.44096","lat":"31.25585","category":"250","category_name":"公园户外","address":"上海中山北路(跨交通路)"},{"poiid":"B2094654D464A4F84799","title":"川味麻辣烫宜川店","lon":"121.44107","lat":"31.25631","category":"68","category_name":"快餐厅","address":"普陀区宜川路5号(交通路口)"},{"poiid":"B2094752DA6CA0FA439C","title":"中山公园","lon":"121.441185","lat":"31.254508","category":"500","category_name":"未知分类","address":null},{"poiid":"B2094757D065A4FF4892","title":"561中谭路站","lon":"121.43959275","lat":"31.2547795943","category":"500","category_name":"未知分类","address":"上海561中谭路终点站"},{"poiid":"B2094757D06EAAFF429B","title":"中潭路地铁站","lon":"121.441638","lat":"31.254717","category":"36","category_name":"地铁站","address":"上海轨道交通 三号线 四号线 轨交中潭路站 轻轨 3 4"},{"poiid":"B2094655D26FA1F54398","title":"中远两湾城","lon":"121.44433","lat":"31.252873","category":"47","category_name":"住宅区","address":"上海中潭路100弄2～360号"},{"poiid":"B2094757D06FA5FC469F","title":"苏州河梦清园环保主题公园","lon":"121.44088","lat":"31.25094","category":"196","category_name":"公园","address":"普陀区宜昌路66号(近江宁路)"},{"poiid":"B2094750D76EABFA419A","title":"星巴克(中潭路店)","lon":"121.443","lat":"31.2524","category":"260","category_name":"其他","address":"普陀区中潭路71号(近远景路)"},{"poiid":"B2094750D465A3FD4199","title":"鲜芋仙","lon":"121.440429","lat":"31.258911","category":"67","category_name":"甜品店","address":"普陀区宜川路78号A2(世纪联华旁)"},{"poiid":"B2094757D06FA1FB4899","title":"泰欣嘉园","lon":"121.44","lat":"31.2546","category":"47","category_name":"住宅区","address":"普陀区光复西路133弄泰欣家园会所内(近凯旋北路)"},{"poiid":"B2094655D26FA1F44598","title":"中远两湾城西门","lon":"121.44387","lat":"31.25119","category":"48","category_name":"楼宇大门","address":"中潭路100弄176"},{"poiid":"B2094654D465A7F5469B","title":"华源世界广场","lon":"121.439","lat":"31.256","category":"46","category_name":"楼宇","address":"行宫位于沈河北站一路41号"},{"poiid":"B2094757D068A4F84899","title":"大马头香港美食","lon":"121.443324","lat":"31.251285","category":"72","category_name":"广东菜","address":"普陀区中潭路49号(近中远两湾城)"},{"poiid":"B2094757D165A6FB449C","title":"玫瑰婚典一号会馆","lon":"121.43842895","lat":"31.250425686","category":"500","category_name":"未知分类","address":"普陀区宜昌路100号梦清园内(近中潭路)查看地图"},{"poiid":"B2094750D76EA1F94398","title":"陈记鸡蛋仔","lon":"121.44","lat":"31.2592","category":"68","category_name":"快餐厅","address":"普陀区宜川路81号(近华阴路)"},{"poiid":"B2094757D168A7FA4993","title":"3号线镇坪路站","lon":"121.43886995","lat":"31.2523957238","category":"500","category_name":"未知分类","address":"上海市普陀区农林路"},{"poiid":"B2094655D26AA0F9409D","title":"地铁中潭路站","lon":"121.44163","lat":"31.25471","category":"36","category_name":"地铁站","address":""},{"poiid":"B2094654D464ABFA4892","title":"飞洲时代大厦","lon":"121.44","lat":"31.2576","category":"46","category_name":"楼宇","address":"上海市普陀区中山北路1777号"},{"poiid":"B2094757D068A4F44099","title":"中期大厦","lon":"121.438","lat":"31.2552","category":"46","category_name":"楼宇","address":"中山北路2000号"},{"poiid":"B2094757D06AA6FD4092","title":"交通路 上海商学院分部","lon":"121.43848419","lat":"31.256755828","category":"500","category_name":"未知分类","address":"上海交通路1933号"},{"poiid":"B2094757D56CA2F5469E","title":"一号码头 Mimosa Supperclub","lon":"121.44170211433","lat":"31.249054090883","category":"247","category_name":"餐饮美食","address":"宜昌路88号近江宁路和昌化路之间"},{"poiid":"B2094757D168A7F8409D","title":"浦东机场T2航站楼北步行道","lon":"121.43789915","lat":"31.257590923","category":"21","category_name":"飞机场","address":"上海浦东机场2号航站楼"},{"poiid":"B2094654DB69A6F94899","title":"浦发财富广场","lon":"121.43807","lat":"31.25418","category":"46","category_name":"楼宇","address":"上海市平凉路1398号"},{"poiid":"B2094757D068A3FD4599","title":"振鼎鸡(华阴路店)","lon":"121.44187","lat":"31.25862","category":"68","category_name":"快餐厅","address":"普陀区华阴路290号(华阴路宜川路)"},{"poiid":"B2094757D16BAAFF449B","title":"地铁7号线","lon":"121.43630155","lat":"31.25586419","category":"36","category_name":"地铁站","address":"上海7号线 花木路—美兰湖"},{"poiid":"B2094654DB6AABFF409C","title":"上海商业会计学校(交通路)","lon":"121.43847","lat":"31.25675","category":"54","category_name":"职业技术学校","address":"交通路1933"},{"poiid":"B2094654DA6CA7FA459E","title":"振源大厦","lon":"121.438","lat":"31.2542","category":"46","category_name":"楼宇","address":"上海市四川北路1851号"},{"poiid":"B2094655D36DA6FF4299","title":"中潭路","lon":"121.44163","lat":"31.25471","category":"38","category_name":"公交车站","address":""},{"poiid":"B2094751D365A2F44399","title":"上海浅水湾文化艺术中心","lon":"121.4366563","lat":"31.2512422","category":"248","category_name":"生活娱乐","address":"宜昌路179号"},{"poiid":"B2094752D664A0FB489A","title":"上海火车站","lon":"121.443191","lat":"31.254116","category":"500","category_name":"未知分类","address":null},{"poiid":"B2094655D36CA0F8439A","title":"交通路宜川路","lon":"121.44014","lat":"31.25628","category":"38","category_name":"公交车站","address":""},{"poiid":"B2094757D069A6FA4692","title":"中山北路中潭路公交站","lon":"121.439867","lat":"31.255292","category":"38","category_name":"公交车站","address":"上海中山北路中潭路"},{"poiid":"B2094654DB69A5F4419F","title":"重庆鸡公煲 宜川路店","lon":"121.441","lat":"31.25666","category":"86","category_name":"火锅店","address":"普陀区中华新路1182号(近交通西路)"},{"poiid":"B2094655D26AABF8429C","title":"上海壹号码头精品酒店","lon":"121.44022","lat":"31.24956","category":"250","category_name":"公园户外","address":"上海普陀区宜昌路130号(近江宁路桥)。"},{"poiid":"B2094654D464ABF8449B","title":"宜洛馨苑","lon":"121.4394","lat":"31.257336","category":"47","category_name":"住宅区","address":"交通路1913弄1-18号"},{"poiid":"B2094655D26EA5F94399","title":"六角形法国西餐厅 Douce France","lon":"121.44140859447","lat":"31.253440032532","category":"247","category_name":"餐饮美食","address":"中远两湾城100弄54号中潭路"},{"poiid":"B2094757D76CAAF84398","title":"克莉丝汀 中潭路店","lon":"121.43985","lat":"31.25492","category":"112","category_name":"糕饼店","address":"普陀区中潭路100弄中远两湾城28号(近昌化路)"},{"poiid":"B2094757D068A7FE4798","title":"世纪联华(宜川店)","lon":"121.440369","lat":"31.258596","category":"118","category_name":"超级市场","address":"普陀区宜川路60号(华阴路)"},{"poiid":"B2094654DA6CA7FB4193","title":"万千大厦","lon":"121.437","lat":"31.2536","category":"46","category_name":"楼宇","address":"上海市平凉路1398号"},{"poiid":"B2094757D769A4F5409E","title":"豪大大台湾大鸡排 中潭路店","lon":"121.4417101","lat":"31.2536212","category":"68","category_name":"快餐厅","address":"普陀区中潭路99弄149号(近中远两湾城)"},{"poiid":"B2094655D265A5FB499B","title":"智明商务楼","lon":"121.43985","lat":"31.25451","category":"46","category_name":"楼宇","address":"远景路582临"},{"poiid":"B2094757D068A2FA419C","title":"宜川三村","lon":"121.440673","lat":"31.258837","category":"252","category_name":"楼宇机构","address":"上海宜川路华阴路"},{"poiid":"B2094655D26EA2FA469A","title":"网球场(交通银行上海中远两湾城支行西)","lon":"121.43987","lat":"31.25386","category":"226","category_name":"网球场","address":"中潭路99弄25"},{"poiid":"B2094654D465A6FC4199","title":"浅水湾养生会馆","lon":"121.44281","lat":"31.25205","category":"149","category_name":"洗浴推拿场所","address":"普陀区中潭路(清水湾路中潭路)"},{"poiid":"B2094757D068ABF94093","title":"7-ELEVEN(中潭店)","lon":"121.4421784","lat":"31.2532287","category":"117","category_name":"便民商店/便利店","address":"普陀区中潭路100弄中远两湾城52号"},{"poiid":"B2094655D36DA7F84293","title":"中山北路中潭路","lon":"121.44008","lat":"31.25554","category":"38","category_name":"公交车站","address":""},{"poiid":"B2094757D06BA3FB409E","title":"平平餐厅(香吧岛龙虾店)","lon":"121.44056227","lat":"31.2526946","category":"257","category_name":"中餐厅","address":"黄浦区寿宁路21号(近西藏南路)"},{"poiid":"B2094757D66CA5FC459D","title":"共和新路街道社区卫生服务中心","lon":"121.44039955","lat":"31.254171657","category":"500","category_name":"未知分类","address":"上海闸北区洛川东路151号"},{"poiid":"B2094757D16DABFD4798","title":"家里蹲","lon":"121.43771895","lat":"31.258147833","category":"500","category_name":"未知分类","address":null},{"poiid":"B2094654D465A6FC439A","title":"招商银行上海中远两湾城支行","lon":"121.44167","lat":"31.25313","category":"150","category_name":"银行","address":"普陀区中潭路100弄中远两湾城3号(近清水湾路)"},{"poiid":"B2094655D264A4FB419A","title":"中山北路交通路立交桥","lon":"121.44096","lat":"31.25585","category":"250","category_name":"公园户外","address":"上海中山北路(跨交通路)"},{"poiid":"B2094654D464A4F84799","title":"川味麻辣烫宜川店","lon":"121.44107","lat":"31.25631","category":"68","category_name":"快餐厅","address":"普陀区宜川路5号(交通路口)"},{"poiid":"B2094752DA6CA0FA439C","title":"中山公园","lon":"121.441185","lat":"31.254508","category":"500","category_name":"未知分类","address":null},{"poiid":"B2094757D065A4FF4892","title":"561中谭路站","lon":"121.43959275","lat":"31.2547795943","category":"500","category_name":"未知分类","address":"上海561中谭路终点站"}]