[{"poiid":"B2094655D26FA5FE4299","title":"东华大学(延安西路校区)","lon":"121.41384","lat":"31.20653","category":"671","category_name":"高校中心点","address":"上海市长宁区延安西路1882号"},{"poiid":"B2094757D06FA3F9429C","title":"银河宾馆","lon":"121.41138860008414","lat":"31.20410764288778","category":"214","category_name":"四星级宾馆","address":"长宁区中山西路888号银河宾馆内(近延安西路)"},{"poiid":"B2094757D06FA3F5459B","title":"唐宫(银河店)","lon":"121.4118","lat":"31.20395","category":"72","category_name":"广东菜","address":"长宁区中山西路888号银河宾馆2楼(近延安西路)"},{"poiid":"B2094655D26EA5FD4099","title":"虹桥宾馆","lon":"121.41060904662709","lat":"31.20369027936784","category":"214","category_name":"四星级宾馆","address":"上海市长宁区延安西路2000号(近中山西路口)"},{"poiid":"B2094655D26DA3FD459E","title":"上海国际贸易中心","lon":"121.41","lat":"31.2082","category":"46","category_name":"楼宇","address":"上海市长宁区延安西路2201号"},{"poiid":"B2094750DB6CA0FE449A","title":"纽斯韩式汗蒸会所","lon":"121.411201","lat":"31.20803","category":"148","category_name":"美容美发店","address":null},{"poiid":"B2094757D068A5FF409C","title":"上海内环线高架路","lon":"121.412181378","lat":"31.2059787732","category":"260","category_name":"其他","address":"上海市内环线高架路"},{"poiid":"B2094757D068A6F44999","title":"佳佳母婴天地中山西路分部","lon":"121.41130058","lat":"31.208866013","category":"128","category_name":"儿童用品店","address":"上海市长宁区中山西路753号"},{"poiid":"B2094654DB65A3FC469F","title":"东华大学-莱佛士国际设计学院","lon":"121.4128","lat":"31.20497","category":"671","category_name":"高校中心点","address":"上海市长宁区延安西路1882号"},{"poiid":"B2094655D269AAFB429E","title":"银河宾馆宴会厅","lon":"121.4113","lat":"31.20401","category":"247","category_name":"餐饮美食","address":"长宁区中山西路888号银河宾馆内(近延安西路)查看地图"},{"poiid":"B2094655D26AA7FB469E","title":"一兆韦德虹桥店","lon":"121.41033","lat":"31.20403","category":"247","category_name":"餐饮美食","address":"长宁区延安西路2000号虹桥宾馆3楼(近中山西路)"},{"poiid":"B2094757D069A5FD429F","title":"延安路高架西行长宁虹桥区","lon":"121.41423114","lat":"31.207561972","category":"500","category_name":"未知分类","address":"上海延安路高架"},{"poiid":"B2094752D769A2FE4092","title":"本家","lon":"121.412352","lat":"31.207938","category":"247","category_name":"餐饮美食","address":"天山路1900号(近延安西路)"},{"poiid":"B2094655D268ABFF4092","title":"内环延安西路立交桥","lon":"121.41219","lat":"31.20563","category":"250","category_name":"公园户外","address":""},{"poiid":"B2094757D06FA5F9429E","title":"中山西路立交","lon":"121.41245269","lat":"31.208242416","category":"500","category_name":"未知分类","address":"上海立交桥"},{"poiid":"B2094757D068ABFB469F","title":"东华大学(延安路校区)二教","lon":"121.413879","lat":"31.206532","category":"253","category_name":"校园生活","address":"上海市长宁区延安西路1882号 东华大学 第二教学楼"},{"poiid":"B2094753D569ABFD439C","title":"鸟心","lon":"121.411972","lat":"31.205631","category":"500","category_name":"未知分类","address":"上海市 仙霞路99号尚嘉中心B2楼"},{"poiid":"B2094750D76DA6F4429D","title":"海福阁韩国料理","lon":"121.413","lat":"31.2069","category":"96","category_name":"韩国料理","address":"长宁区延安西路1750号(近天山路)"},{"poiid":"B2094753D464A7FD4098","title":"南小馆","lon":"121.412155","lat":"31.205631","category":"247","category_name":"餐饮美食","address":"上海市 尚嘉中心"},{"poiid":"B2094757D16FA3FD4698","title":"甬府酒楼","lon":"121.41141408","lat":"31.203946917","category":"75","category_name":"浙江菜","address":"长宁区中山西路888号银河宾馆1楼(近延安西路)"},{"poiid":"B2094654D56BA0FA439C","title":"中紫小区","lon":"121.41093","lat":"31.207148","category":"47","category_name":"住宅区","address":"中山西路800弄53"},{"poiid":"B2094751D26FA2F8439B","title":"中山医院","lon":"121.411529","lat":"31.205919","category":"162","category_name":"医院","address":null},{"poiid":"B2094654D56BA0FA4592","title":"虹桥豪苑","lon":"121.40938","lat":"31.207148","category":"47","category_name":"住宅区","address":"上海长宁区紫云路118弄"},{"poiid":"B2094757D169AAFD419B","title":"姨妈家韩国料理","lon":"121.412215226","lat":"31.2061790307","category":"247","category_name":"餐饮美食","address":"上海延安西路1928号"},{"poiid":"B2094757D169A4FB419E","title":"coco(东华大学店)","lon":"121.412034586","lat":"31.2073999846","category":"87","category_name":"特色／地方风味餐厅","address":"浦东新区天山路东华大学附近(近延安西路)"},{"poiid":"B2094757D065A4FB4898","title":"城日本料理","lon":"121.4104","lat":"31.20364","category":"95","category_name":"日本料理","address":"长宁区延安西路2000号虹桥宾馆1号门1楼(近中山西路)"},{"poiid":"B2094654D564A7F84592","title":"上海喜天游大酒店","lon":"121.41246","lat":"31.20543","category":"250","category_name":"公园户外","address":"上海市长宁区中山西路827号"},{"poiid":"B2094757D66CA3FE4493","title":"小红楼203","lon":"121.411216386","lat":"31.2056514504","category":"247","category_name":"餐饮美食","address":null},{"poiid":"B2094757D66DA0F5429B","title":"WASABI和さ美","lon":"121.410985586","lat":"31.2063749645","category":"500","category_name":"未知分类","address":"上海长宁区仙霞路1号"},{"poiid":"B2094757D06BA6FA4093","title":"独自等待","lon":"121.412077","lat":"31.206664","category":"500","category_name":"未知分类","address":"上海我在等你。你又在等什么呢？"},{"poiid":"B2094757D164A4FC4492","title":"宝鼎酒店","lon":"121.411452054","lat":"31.207149793","category":"76","category_name":"上海菜","address":"长宁区中山西路750号(近天山路)"},{"poiid":"B2094655D269AAFC449C","title":"上服假日酒店中山西路店","lon":"121.41102","lat":"31.2077","category":"247","category_name":"餐饮美食","address":"长宁区中山西路750号"},{"poiid":"B2094753D56DA4FB4398","title":"虹桥尚嘉中心","lon":"121.41217","lat":"31.206155","category":"500","category_name":"未知分类","address":"上海市 长宁区仙霞路99号"},{"poiid":"B2094753D76DA0FC499C","title":"同一首歌","lon":"121.412002","lat":"31.207397","category":"170","category_name":"KTV","address":"上海市 天山路1900号"},{"poiid":"B2094655D26EAAF5449C","title":"银河咖啡厅","lon":"121.4113","lat":"31.20401","category":"65","category_name":"咖啡厅","address":"长宁区中山西路888号银河宾馆1楼(近延安西路)"},{"poiid":"B2094654D56BA0F4419E","title":"燕记 天山店","lon":"121.41146419719","lat":"31.206282775429","category":"257","category_name":"中餐厅","address":"长宁区中山西路750号(近天山路)"},{"poiid":"B2094752D569A3FA409E","title":"上海国际赛车场","lon":"121.411134","lat":"31.20607","category":"248","category_name":"生活娱乐","address":"伊宁路2000号"},{"poiid":"B2094757D66DAAFB419F","title":"伊犁路152号","lon":"121.411074586","lat":"31.2068139731","category":"500","category_name":"未知分类","address":"上海指付通公司"},{"poiid":"B2094757D568A5FA4999","title":"东华大学教学大楼","lon":"121.4138523","lat":"31.20652751","category":"52","category_name":"高等院校","address":"延安西路1882号"},{"poiid":"B2094654DB65A4F44598","title":"上海东华大学(西门)","lon":"121.4137","lat":"31.20675","category":"52","category_name":"高等院校","address":"长宁区延安西路1882号"},{"poiid":"B2094757D66FA3F8489D","title":"東華大學","lon":"121.41400658","lat":"31.205343944","category":"671","category_name":"高校中心点","address":"上海市长宁区紫云路"},{"poiid":"B2094757D16BABFA429B","title":"葡京","lon":"121.41301582","lat":"31.2056333537","category":"247","category_name":"餐饮美食","address":"上海虹桥百盛"},{"poiid":"B2094654D56BA0FA409A","title":"良友金伴(紫云路)","lon":"121.41033","lat":"31.20711","category":"117","category_name":"便民商店/便利店","address":"紫云路301"},{"poiid":"B2094654D56BA0FA409B","title":"天山工商所","lon":"121.41033","lat":"31.20706","category":"250","category_name":"公园户外","address":"紫云路299"},{"poiid":"B2094753D76BA6F4449D","title":"龙之梦","lon":"121.413009","lat":"31.207212","category":"500","category_name":"未知分类","address":"上海市 中山公园"},{"poiid":"B2094757D66CAAFF429B","title":"Yang's House","lon":"121.411394586","lat":"31.2056599505","category":"500","category_name":"未知分类","address":"上海市长宁区紫云路"},{"poiid":"B2094655D26DA2FD4793","title":"好德No.041","lon":"121.41093","lat":"31.20771","category":"117","category_name":"便民商店/便利店","address":"中山西路750号6幢"},{"poiid":"B2094757D06BA4F8489B","title":"zeta villa","lon":"121.411146786","lat":"31.2055030475","category":"500","category_name":"未知分类","address":"上海紫云路118号虹桥豪苑4号楼底层"},{"poiid":"B2094654D56BA0F4429C","title":"上服假日茶室","lon":"121.41152","lat":"31.2078","category":"66","category_name":"茶艺馆","address":"中山西路750号星程上服假日酒店虹桥店"},{"poiid":"B2094757D16DA4FD4998","title":"华阳路长宁支路","lon":"121.410338","lat":"31.207111","category":"500","category_name":"未知分类","address":"上海长宁支路301弄"},{"poiid":"B2094655D26FA5FE4299","title":"东华大学(延安西路校区)","lon":"121.41384","lat":"31.20653","category":"671","category_name":"高校中心点","address":"上海市长宁区延安西路1882号"},{"poiid":"B2094757D06FA3F9429C","title":"银河宾馆","lon":"121.41138860008414","lat":"31.20410764288778","category":"214","category_name":"四星级宾馆","address":"长宁区中山西路888号银河宾馆内(近延安西路)"},{"poiid":"B2094757D06FA3F5459B","title":"唐宫(银河店)","lon":"121.4118","lat":"31.20395","category":"72","category_name":"广东菜","address":"长宁区中山西路888号银河宾馆2楼(近延安西路)"},{"poiid":"B2094655D26EA5FD4099","title":"虹桥宾馆","lon":"121.41060904662709","lat":"31.20369027936784","category":"214","category_name":"四星级宾馆","address":"上海市长宁区延安西路2000号(近中山西路口)"},{"poiid":"B2094655D26DA3FD459E","title":"上海国际贸易中心","lon":"121.41","lat":"31.2082","category":"46","category_name":"楼宇","address":"上海市长宁区延安西路2201号"},{"poiid":"B2094750DB6CA0FE449A","title":"纽斯韩式汗蒸会所","lon":"121.411201","lat":"31.20803","category":"148","category_name":"美容美发店","address":null},{"poiid":"B2094757D068A5FF409C","title":"上海内环线高架路","lon":"121.412181378","lat":"31.2059787732","category":"260","category_name":"其他","address":"上海市内环线高架路"},{"poiid":"B2094757D068A6F44999","title":"佳佳母婴天地中山西路分部","lon":"121.41130058","lat":"31.208866013","category":"128","category_name":"儿童用品店","address":"上海市长宁区中山西路753号"},{"poiid":"B2094654DB65A3FC469F","title":"东华大学-莱佛士国际设计学院","lon":"121.4128","lat":"31.20497","category":"671","category_name":"高校中心点","address":"上海市长宁区延安西路1882号"},{"poiid":"B2094655D269AAFB429E","title":"银河宾馆宴会厅","lon":"121.4113","lat":"31.20401","category":"247","category_name":"餐饮美食","address":"长宁区中山西路888号银河宾馆内(近延安西路)查看地图"},{"poiid":"B2094655D26AA7FB469E","title":"一兆韦德虹桥店","lon":"121.41033","lat":"31.20403","category":"247","category_name":"餐饮美食","address":"长宁区延安西路2000号虹桥宾馆3楼(近中山西路)"},{"poiid":"B2094757D069A5FD429F","title":"延安路高架西行长宁虹桥区","lon":"121.41423114","lat":"31.207561972","category":"500","category_name":"未知分类","address":"上海延安路高架"},{"poiid":"B2094752D769A2FE4092","title":"本家","lon":"121.412352","lat":"31.207938","category":"247","category_name":"餐饮美食","address":"天山路1900号(近延安西路)"},{"poiid":"B2094655D268ABFF4092","title":"内环延安西路立交桥","lon":"121.41219","lat":"31.20563","category":"250","category_name":"公园户外","address":""},{"poiid":"B2094757D06FA5F9429E","title":"中山西路立交","lon":"121.41245269","lat":"31.208242416","category":"500","category_name":"未知分类","address":"上海立交桥"},{"poiid":"B2094757D068ABFB469F","title":"东华大学(延安路校区)二教","lon":"121.413879","lat":"31.206532","category":"253","category_name":"校园生活","address":"上海市长宁区延安西路1882号 东华大学 第二教学楼"},{"poiid":"B2094753D569ABFD439C","title":"鸟心","lon":"121.411972","lat":"31.205631","category":"500","category_name":"未知分类","address":"上海市 仙霞路99号尚嘉中心B2楼"},{"poiid":"B2094750D76DA6F4429D","title":"海福阁韩国料理","lon":"121.413","lat":"31.2069","category":"96","category_name":"韩国料理","address":"长宁区延安西路1750号(近天山路)"},{"poiid":"B2094753D464A7FD4098","title":"南小馆","lon":"121.412155","lat":"31.205631","category":"247","category_name":"餐饮美食","address":"上海市 尚嘉中心"},{"poiid":"B2094757D16FA3FD4698","title":"甬府酒楼","lon":"121.41141408","lat":"31.203946917","category":"75","category_name":"浙江菜","address":"长宁区中山西路888号银河宾馆1楼(近延安西路)"},{"poiid":"B2094654D56BA0FA439C","title":"中紫小区","lon":"121.41093","lat":"31.207148","category":"47","category_name":"住宅区","address":"中山西路800弄53"},{"poiid":"B2094751D26FA2F8439B","title":"中山医院","lon":"121.411529","lat":"31.205919","category":"162","category_name":"医院","address":null},{"poiid":"B2094654D56BA0FA4592","title":"虹桥豪苑","lon":"121.40938","lat":"31.207148","category":"47","category_name":"住宅区","address":"上海长宁区紫云路118弄"},{"poiid":"B2094757D169AAFD419B","title":"姨妈家韩国料理","lon":"121.412215226","lat":"31.2061790307","category":"247","category_name":"餐饮美食","address":"上海延安西路1928号"},{"poiid":"B2094757D169A4FB419E","title":"coco(东华大学店)","lon":"121.412034586","lat":"31.2073999846","category":"87","category_name":"特色／地方风味餐厅","address":"浦东新区天山路东华大学附近(近延安西路)"},{"poiid":"B2094757D065A4FB4898","title":"城日本料理","lon":"121.4104","lat":"31.20364","category":"95","category_name":"日本料理","address":"长宁区延安西路2000号虹桥宾馆1号门1楼(近中山西路)"},{"poiid":"B2094654D564A7F84592","title":"上海喜天游大酒店","lon":"121.41246","lat":"31.20543","category":"250","category_name":"公园户外","address":"上海市长宁区中山西路827号"},{"poiid":"B2094757D66CA3FE4493","title":"小红楼203","lon":"121.411216386","lat":"31.2056514504","category":"247","category_name":"餐饮美食","address":null},{"poiid":"B2094757D66DA0F5429B","title":"WASABI和さ美","lon":"121.410985586","lat":"31.2063749645","category":"500","category_name":"未知分类","address":"上海长宁区仙霞路1号"},{"poiid":"B2094757D06BA6FA4093","title":"独自等待","lon":"121.412077","lat":"31.206664","category":"500","category_name":"未知分类","address":"上海我在等你。你又在等什么呢？"},{"poiid":"B2094757D164A4FC4492","title":"宝鼎酒店","lon":"121.411452054","lat":"31.207149793","category":"76","category_name":"上海菜","address":"长宁区中山西路750号(近天山路)"},{"poiid":"B2094655D269AAFC449C","title":"上服假日酒店中山西路店","lon":"121.41102","lat":"31.2077","category":"247","category_name":"餐饮美食","address":"长宁区中山西路750号"},{"poiid":"B2094753D56DA4FB4398","title":"虹桥尚嘉中心","lon":"121.41217","lat":"31.206155","category":"500","category_name":"未知分类","address":"上海市 长宁区仙霞路99号"},{"poiid":"B2094753D76DA0FC499C","title":"同一首歌","lon":"121.412002","lat":"31.207397","category":"170","category_name":"KTV","address":"上海市 天山路1900号"},{"poiid":"B2094655D26EAAF5449C","title":"银河咖啡厅","lon":"121.4113","lat":"31.20401","category":"65","category_name":"咖啡厅","address":"长宁区中山西路888号银河宾馆1楼(近延安西路)"},{"poiid":"B2094654D56BA0F4419E","title":"燕记 天山店","lon":"121.41146419719","lat":"31.206282775429","category":"257","category_name":"中餐厅","address":"长宁区中山西路750号(近天山路)"},{"poiid":"B2094752D569A3FA409E","title":"上海国际赛车场","lon":"121.411134","lat":"31.20607","category":"248","category_name":"生活娱乐","address":"伊宁路2000号"},{"poiid":"B2094757D66DAAFB419F","title":"伊犁路152号","lon":"121.411074586","lat":"31.2068139731","category":"500","category_name":"未知分类","address":"上海指付通公司"},{"poiid":"B2094757D568A5FA4999","title":"东华大学教学大楼","lon":"121.4138523","lat":"31.20652751","category":"52","category_name":"高等院校","address":"延安西路1882号"},{"poiid":"B2094654DB65A4F44598","title":"上海东华大学(西门)","lon":"121.4137","lat":"31.20675","category":"52","category_name":"高等院校","address":"长宁区延安西路1882号"},{"poiid":"B2094757D66FA3F8489D","title":"東華大學","lon":"121.41400658","lat":"31.205343944","category":"671","category_name":"高校中心点","address":"上海市长宁区紫云路"},{"poiid":"B2094757D16BABFA429B","title":"葡京","lon":"121.41301582","lat":"31.2056333537","category":"247","category_name":"餐饮美食","address":"上海虹桥百盛"},{"poiid":"B2094654D56BA0FA409A","title":"良友金伴(紫云路)","lon":"121.41033","lat":"31.20711","category":"117","category_name":"便民商店/便利店","address":"紫云路301"},{"poiid":"B2094654D56BA0FA409B","title":"天山工商所","lon":"121.41033","lat":"31.20706","category":"250","category_name":"公园户外","address":"紫云路299"},{"poiid":"B2094753D76BA6F4449D","title":"龙之梦","lon":"121.413009","lat":"31.207212","category":"500","category_name":"未知分类","address":"上海市 中山公园"},{"poiid":"B2094757D66CAAFF429B","title":"Yang's House","lon":"121.411394586","lat":"31.2056599505","category":"500","category_name":"未知分类","address":"上海市长宁区紫云路"},{"poiid":"B2094655D26DA2FD4793","title":"好德No.041","lon":"121.41093","lat":"31.20771","category":"117","category_name":"便民商店/便利店","address":"中山西路750号6幢"},{"poiid":"B2094757D06BA4F8489B","title":"zeta villa","lon":"121.411146786","lat":"31.2055030475","category":"500","category_name":"未知分类","address":"上海紫云路118号虹桥豪苑4号楼底层"},{"poiid":"B2094654D56BA0F4429C","title":"上服假日茶室","lon":"121.41152","lat":"31.2078","category":"66","category_name":"茶艺馆","address":"中山西路750号星程上服假日酒店虹桥店"},{"poiid":"B2094757D16DA4FD4998","title":"华阳路长宁支路","lon":"121.410338","lat":"31.207111","category":"500","category_name":"未知分类","address":"上海长宁支路301弄"},{"poiid":"B2094655D26FA5FE4299","title":"东华大学(延安西路校区)","lon":"121.41384","lat":"31.20653","category":"671","category_name":"高校中心点","address":"上海市长宁区延安西路1882号"},{"poiid":"B2094757D06FA3F9429C","title":"银河宾馆","lon":"121.41138860008414","lat":"31.20410764288778","category":"214","category_name":"四星级宾馆","address":"长宁区中山西路888号银河宾馆内(近延安西路)"},{"poiid":"B2094757D06FA3F5459B","title":"唐宫(银河店)","lon":"121.4118","lat":"31.20395","category":"72","category_name":"广东菜","address":"长宁区中山西路888号银河宾馆2楼(近延安西路)"},{"poiid":"B2094655D26EA5FD4099","title":"虹桥宾馆","lon":"121.41060904662709","lat":"31.20369027936784","category":"214","category_name":"四星级宾馆","address":"上海市长宁区延安西路2000号(近中山西路口)"},{"poiid":"B2094655D26DA3FD459E","title":"上海国际贸易中心","lon":"121.41","lat":"31.2082","category":"46","category_name":"楼宇","address":"上海市长宁区延安西路2201号"},{"poiid":"B2094750DB6CA0FE449A","title":"纽斯韩式汗蒸会所","lon":"121.411201","lat":"31.20803","category":"148","category_name":"美容美发店","address":null},{"poiid":"B2094757D068A5FF409C","title":"上海内环线高架路","lon":"121.412181378","lat":"31.2059787732","category":"260","category_name":"其他","address":"上海市内环线高架路"},{"poiid":"B2094757D068A6F44999","title":"佳佳母婴天地中山西路分部","lon":"121.41130058","lat":"31.208866013","category":"128","category_name":"儿童用品店","address":"上海市长宁区中山西路753号"},{"poiid":"B2094654DB65A3FC469F","title":"东华大学-莱佛士国际设计学院","lon":"121.4128","lat":"31.20497","category":"671","category_name":"高校中心点","address":"上海市长宁区延安西路1882号"},{"poiid":"B2094655D269AAFB429E","title":"银河宾馆宴会厅","lon":"121.4113","lat":"31.20401","category":"247","category_name":"餐饮美食","address":"长宁区中山西路888号银河宾馆内(近延安西路)查看地图"},{"poiid":"B2094655D26AA7FB469E","title":"一兆韦德虹桥店","lon":"121.41033","lat":"31.20403","category":"247","category_name":"餐饮美食","address":"长宁区延安西路2000号虹桥宾馆3楼(近中山西路)"},{"poiid":"B2094757D069A5FD429F","title":"延安路高架西行长宁虹桥区","lon":"121.41423114","lat":"31.207561972","category":"500","category_name":"未知分类","address":"上海延安路高架"},{"poiid":"B2094752D769A2FE4092","title":"本家","lon":"121.412352","lat":"31.207938","category":"247","category_name":"餐饮美食","address":"天山路1900号(近延安西路)"},{"poiid":"B2094655D268ABFF4092","title":"内环延安西路立交桥","lon":"121.41219","lat":"31.20563","category":"250","category_name":"公园户外","address":""},{"poiid":"B2094757D06FA5F9429E","title":"中山西路立交","lon":"121.41245269","lat":"31.208242416","category":"500","category_name":"未知分类","address":"上海立交桥"},{"poiid":"B2094757D068ABFB469F","title":"东华大学(延安路校区)二教","lon":"121.413879","lat":"31.206532","category":"253","category_name":"校园生活","address":"上海市长宁区延安西路1882号 东华大学 第二教学楼"},{"poiid":"B2094753D569ABFD439C","title":"鸟心","lon":"121.411972","lat":"31.205631","category":"500","category_name":"未知分类","address":"上海市 仙霞路99号尚嘉中心B2楼"},{"poiid":"B2094750D76DA6F4429D","title":"海福阁韩国料理","lon":"121.413","lat":"31.2069","category":"96","category_name":"韩国料理","address":"长宁区延安西路1750号(近天山路)"},{"poiid":"B2094753D464A7FD4098","title":"南小馆","lon":"121.412155","lat":"31.205631","category":"247","category_name":"餐饮美食","address":"上海市 尚嘉中心"},{"poiid":"B2094757D16FA3FD4698","title":"甬府酒楼","lon":"121.41141408","lat":"31.203946917","category":"75","category_name":"浙江菜","address":"长宁区中山西路888号银河宾馆1楼(近延安西路)"},{"poiid":"B2094654D56BA0FA439C","title":"中紫小区","lon":"121.41093","lat":"31.207148","category":"47","category_name":"住宅区","address":"中山西路800弄53"},{"poiid":"B2094751D26FA2F8439B","title":"中山医院","lon":"121.411529","lat":"31.205919","category":"162","category_name":"医院","address":null},{"poiid":"B2094654D56BA0FA4592","title":"虹桥豪苑","lon":"121.40938","lat":"31.207148","category":"47","category_name":"住宅区","address":"上海长宁区紫云路118弄"},{"poiid":"B2094757D169AAFD419B","title":"姨妈家韩国料理","lon":"121.412215226","lat":"31.2061790307","category":"247","category_name":"餐饮美食","address":"上海延安西路1928号"},{"poiid":"B2094757D169A4FB419E","title":"coco(东华大学店)","lon":"121.412034586","lat":"31.2073999846","category":"87","category_name":"特色／地方风味餐厅","address":"浦东新区天山路东华大学附近(近延安西路)"},{"poiid":"B2094757D065A4FB4898","title":"城日本料理","lon":"121.4104","lat":"31.20364","category":"95","category_name":"日本料理","address":"长宁区延安西路2000号虹桥宾馆1号门1楼(近中山西路)"},{"poiid":"B2094654D564A7F84592","title":"上海喜天游大酒店","lon":"121.41246","lat":"31.20543","category":"250","category_name":"公园户外","address":"上海市长宁区中山西路827号"},{"poiid":"B2094757D66CA3FE4493","title":"小红楼203","lon":"121.411216386","lat":"31.2056514504","category":"247","category_name":"餐饮美食","address":null},{"poiid":"B2094757D66DA0F5429B","title":"WASABI和さ美","lon":"121.410985586","lat":"31.2063749645","category":"500","category_name":"未知分类","address":"上海长宁区仙霞路1号"},{"poiid":"B2094757D06BA6FA4093","title":"独自等待","lon":"121.412077","lat":"31.206664","category":"500","category_name":"未知分类","address":"上海我在等你。你又在等什么呢？"},{"poiid":"B2094757D164A4FC4492","title":"宝鼎酒店","lon":"121.411452054","lat":"31.207149793","category":"76","category_name":"上海菜","address":"长宁区中山西路750号(近天山路)"},{"poiid":"B2094655D269AAFC449C","title":"上服假日酒店中山西路店","lon":"121.41102","lat":"31.2077","category":"247","category_name":"餐饮美食","address":"长宁区中山西路750号"},{"poiid":"B2094753D56DA4FB4398","title":"虹桥尚嘉中心","lon":"121.41217","lat":"31.206155","category":"500","category_name":"未知分类","address":"上海市 长宁区仙霞路99号"},{"poiid":"B2094753D76DA0FC499C","title":"同一首歌","lon":"121.412002","lat":"31.207397","category":"170","category_name":"KTV","address":"上海市 天山路1900号"},{"poiid":"B2094655D26EAAF5449C","title":"银河咖啡厅","lon":"121.4113","lat":"31.20401","category":"65","category_name":"咖啡厅","address":"长宁区中山西路888号银河宾馆1楼(近延安西路)"},{"poiid":"B2094654D56BA0F4419E","title":"燕记 天山店","lon":"121.41146419719","lat":"31.206282775429","category":"257","category_name":"中餐厅","address":"长宁区中山西路750号(近天山路)"},{"poiid":"B2094752D569A3FA409E","title":"上海国际赛车场","lon":"121.411134","lat":"31.20607","category":"248","category_name":"生活娱乐","address":"伊宁路2000号"},{"poiid":"B2094757D66DAAFB419F","title":"伊犁路152号","lon":"121.411074586","lat":"31.2068139731","category":"500","category_name":"未知分类","address":"上海指付通公司"},{"poiid":"B2094757D568A5FA4999","title":"东华大学教学大楼","lon":"121.4138523","lat":"31.20652751","category":"52","category_name":"高等院校","address":"延安西路1882号"},{"poiid":"B2094654DB65A4F44598","title":"上海东华大学(西门)","lon":"121.4137","lat":"31.20675","category":"52","category_name":"高等院校","address":"长宁区延安西路1882号"},{"poiid":"B2094757D66FA3F8489D","title":"東華大學","lon":"121.41400658","lat":"31.205343944","category":"671","category_name":"高校中心点","address":"上海市长宁区紫云路"},{"poiid":"B2094757D16BABFA429B","title":"葡京","lon":"121.41301582","lat":"31.2056333537","category":"247","category_name":"餐饮美食","address":"上海虹桥百盛"},{"poiid":"B2094654D56BA0FA409A","title":"良友金伴(紫云路)","lon":"121.41033","lat":"31.20711","category":"117","category_name":"便民商店/便利店","address":"紫云路301"},{"poiid":"B2094654D56BA0FA409B","title":"天山工商所","lon":"121.41033","lat":"31.20706","category":"250","category_name":"公园户外","address":"紫云路299"},{"poiid":"B2094753D76BA6F4449D","title":"龙之梦","lon":"121.413009","lat":"31.207212","category":"500","category_name":"未知分类","address":"上海市 中山公园"},{"poiid":"B2094757D66CAAFF429B","title":"Yang's House","lon":"121.411394586","lat":"31.2056599505","category":"500","category_name":"未知分类","address":"上海市长宁区紫云路"},{"poiid":"B2094655D26DA2FD4793","title":"好德No.041","lon":"121.41093","lat":"31.20771","category":"117","category_name":"便民商店/便利店","address":"中山西路750号6幢"},{"poiid":"B2094757D06BA4F8489B","title":"zeta villa","lon":"121.411146786","lat":"31.2055030475","category":"500","category_name":"未知分类","address":"上海紫云路118号虹桥豪苑4号楼底层"},{"poiid":"B2094654D56BA0F4429C","title":"上服假日茶室","lon":"121.41152","lat":"31.2078","category":"66","category_name":"茶艺馆","address":"中山西路750号星程上服假日酒店虹桥店"},{"poiid":"B2094757D16DA4FD4998","title":"华阳路长宁支路","lon":"121.410338","lat":"31.207111","category":"500","category_name":"未知分类","address":"上海长宁支路301弄"}]