[{"poiid":"B2094757D06FA2F94493","title":"上海市第五人民医院","lon":"121.40855646","lat":"31.005010156","category":"162","category_name":"医院","address":"上海市闵行区瑞丽路128号(近鹤庆路)"},{"poiid":"B2094757D06FA3FF4998","title":"金平路地铁站","lon":"121.41018861","lat":"31.011169251","category":"36","category_name":"地铁站","address":"上海轨道交通 五号线 轨交金平路站 5"},{"poiid":"B2094655D265A5FB449D","title":"上海沪华国际大酒店","lon":"121.41726","lat":"31.00876","category":"250","category_name":"公园户外","address":"闵行区鹤庆路300号(近兰坪路)"},{"poiid":"B2094757D068A2F9499F","title":"天禧大酒楼（东川路店）","lon":"121.410304054","lat":"31.011545793","category":"76","category_name":"上海菜","address":"闵行区东川路2372号(近金平路地铁)"},{"poiid":"B2094757D068A5F5419F","title":"闵行丽都城","lon":"121.41019439","lat":"31.011138916","category":"47","category_name":"住宅区","address":"上海闵行区金平路328弄（近金平路站）"},{"poiid":"B2094751DA69ABFD419E","title":"王子公主奇遇记","lon":"121.410356","lat":"31.013884","category":"248","category_name":"生活娱乐","address":"闵行区,金平路"},{"poiid":"B2094757D068A1FD4193","title":"西南体育场","lon":"121.407365366","lat":"31.0070507406","category":"220","category_name":"运动场所","address":"闵行区鹤庆路788号(近瑞丽路)"},{"poiid":"B2094757D06BA5FA419C","title":"金铭福邸","lon":"121.408785128","lat":"31.0072903351","category":"47","category_name":"住宅区","address":"上海市闵行区鹤庆路560弄"},{"poiid":"B2094750DA6BA2FB4299","title":"麦当劳（金平路店）","lon":"121.409454","lat":"31.011701","category":"68","category_name":"快餐厅","address":"闵行区东川路2378号(近金平路轻轨站)"},{"poiid":"B2094757D069A3FB449C","title":"三人行骨头王火锅(闵行店)","lon":"121.41325","lat":"31.01217","category":"86","category_name":"火锅店","address":"闵行区东川路2266弄68号(近金平路)"},{"poiid":"B2094757D16BAAFD449A","title":"第五人民医院输液室","lon":"121.410049128","lat":"31.0065893207","category":"162","category_name":"医院","address":"上海闵行区瑞丽路128号1楼"},{"poiid":"B2094757D169A5FB409C","title":"唛乐汇","lon":"121.411562","lat":"31.010371","category":"500","category_name":"未知分类","address":"闵行区金平路310号(近丽都城)"},{"poiid":"B2094757D06BA3F9449F","title":"鹤北二街坊","lon":"121.41575882","lat":"31.009885388","category":"500","category_name":"未知分类","address":"上海闵行区鹤庆路358弄"},{"poiid":"B2094757D16EA2FA419D","title":"永泓酒店","lon":"121.4093","lat":"31.01175","category":"76","category_name":"上海菜","address":"闵行区东川路2388号(近金平路地铁站)"},{"poiid":"B2094655D36CA7F9439F","title":"鹤庆路瑞丽路","lon":"121.40981","lat":"31.00714","category":"38","category_name":"公交车站","address":""},{"poiid":"B2094757D16DA0FE409B","title":"刘家村","lon":"121.409818128","lat":"31.0147984894","category":"500","category_name":"未知分类","address":"上海闵行区金平路408号(景谷路口)"},{"poiid":"B2094757D06BA4F5419D","title":"上海市第五人民医院住院部","lon":"121.40836334","lat":"31.00591278","category":"162","category_name":"医院","address":"上海市闵行区瑞丽路128号(近鹤庆路)"},{"poiid":"B2094757D068A5FC489E","title":"宾川路","lon":"121.407331478","lat":"31.0038079636","category":"500","category_name":"未知分类","address":"上海宾川路"},{"poiid":"B2094654DB6FA2FB429F","title":"红园(宾川路)","lon":"121.41335","lat":"31.00407","category":"196","category_name":"公园","address":""},{"poiid":"B2094654DB6FA3F5409A","title":"静安面包房 瑞丽路店 JING AN BAKERY","lon":"121.408287054","lat":"31.005482793","category":"112","category_name":"糕饼店","address":"闵行区瑞丽路153号(近第五人民医院)"},{"poiid":"B2094757D16FABF4429F","title":"五院急诊","lon":"121.408359","lat":"31.005978","category":"162","category_name":"医院","address":"上海闵行五院急诊"},{"poiid":"B2094757D065A7F9449F","title":"两岸咖啡(东川路店)","lon":"121.41171","lat":"31.01119","category":"260","category_name":"其他","address":"闵行区东川路2370号(近金平路)"},{"poiid":"B2094757D465A4FC469F","title":"吉祥馄饨 瑞丽路店 Gll Wonton","lon":"121.408179054","lat":"31.005966793","category":"68","category_name":"快餐厅","address":"闵行区瑞丽路145号(近鹤庆路市五医院)"},{"poiid":"B2094757D06AA3F5479D","title":"张平造型设计(闵行店)","lon":"121.40725","lat":"31.01008","category":"148","category_name":"美容美发店","address":"闵行区东川路2088号-2(近沪闵路)"},{"poiid":"B2094757D164A3F4429C","title":"新乐酒家(金平路店)","lon":"121.41278","lat":"31.00765","category":"76","category_name":"上海菜","address":"闵行区金平路8号(鹤庆路口)"},{"poiid":"B2094757D168A1F4479C","title":"新华小区","lon":"121.41481018","lat":"31.008014679","category":"47","category_name":"住宅区","address":"上海鹤庆路411弄"},{"poiid":"B2094750D365A4FB4298","title":"金铭府邸","lon":"121.41143","lat":"31.007932","category":"47","category_name":"住宅区","address":"鹤庆路560弄"},{"poiid":"B2094757D06AABF4459C","title":"三人行新概念川菜","lon":"121.41424","lat":"31.01263","category":"71","category_name":"四川菜","address":"闵行区东川路2272号千代广场1-2楼(近金平路)"},{"poiid":"B2094655D26AA0F9439D","title":"地铁金平路站","lon":"121.41019","lat":"31.01113","category":"36","category_name":"地铁站","address":""},{"poiid":"B2094655D265AAFB499F","title":"金铭福邸四期","lon":"121.40669","lat":"31.00893","category":"47","category_name":"住宅区","address":"瑞丽路386弄"},{"poiid":"B2094654DB6FA3FB409F","title":"新亚大包(宾川路)","lon":"121.40885","lat":"31.00405","category":"68","category_name":"快餐厅","address":"闵行区宾川路408号(宾川路瑞丽路)"},{"poiid":"B2094757D464A6FF409F","title":"妯娌老鸭粉丝 瑞丽路","lon":"121.408390054","lat":"31.006227793","category":"68","category_name":"快餐厅","address":"闵行区瑞丽路165号(近鹤庆路)"},{"poiid":"B2094757D16CA4F84492","title":"全家便利(瑞丽店)","lon":"121.408602428","lat":"31.0059088067","category":"117","category_name":"便民商店/便利店","address":"上海市闵行区瑞丽路175号"},{"poiid":"B2094751DA6AA5F94692","title":"自由港（主题店）","lon":"121.406277","lat":"31.013964","category":"248","category_name":"生活娱乐","address":"东川路2372号3楼"},{"poiid":"B2094655D36CA1FE4098","title":"市五医院","lon":"121.4078","lat":"31.00669","category":"162","category_name":"医院","address":""},{"poiid":"B2094753D66BA4FE479B","title":"永和大王","lon":"121.408981","lat":"31.00608","category":"247","category_name":"餐饮美食","address":"上海市 瑞丽路120"},{"poiid":"B2094654DB6EAAFD439C","title":"联华(鹤庆路)","lon":"121.41136","lat":"31.00763","category":"118","category_name":"超级市场","address":"闵行区鹤庆路550号"},{"poiid":"B2094757D06AA1FF489A","title":"刘家村豆浆","lon":"121.40987","lat":"31.01552","category":"68","category_name":"快餐厅","address":"闵行区金平路412号(近景谷路)"},{"poiid":"B2094654DB6FA3FA499C","title":"上海道培医院","lon":"121.40836","lat":"31.00591","category":"162","category_name":"医院","address":"闵行区瑞丽路126号"},{"poiid":"B2094757D064A1FB409B","title":"老鸿翔苏州汤包馆(金平店)","lon":"121.41017342","lat":"31.011877004","category":"68","category_name":"快餐厅","address":"闵行区东川路2370号(金平路口)"},{"poiid":"B2094757D168A3F54198","title":"上海市第五人民医院病理科","lon":"121.41050612","lat":"31.006356315","category":"162","category_name":"医院","address":"上海市闵行区瑞丽路"},{"poiid":"B2094654DB6FA3FA499A","title":"江川体育活动中心","lon":"121.40779","lat":"31.00797","category":"224","category_name":"综合体育馆","address":"闵行区鹤庆路788号(近瑞丽路)"},{"poiid":"B2094654DB6FA3F5409C","title":"部落情火锅城瑞丽路分店","lon":"121.40877","lat":"31.00656","category":"86","category_name":"火锅店","address":"碧江路"},{"poiid":"B2094757D469A3F94492","title":"宏星一号","lon":"121.4149997","lat":"31.0123387","category":"76","category_name":"上海菜","address":"闵行区东川路2318号(近五号线金平路地铁站)"},{"poiid":"B2094654DB6FA3FB409B","title":"复旦大学附属肿瘤医院闵行分院","lon":"121.40863","lat":"31.00522","category":"162","category_name":"医院","address":"闵行区瑞丽路106号(近鹤庆路)"},{"poiid":"B2094655D36DA6FD4799","title":"金平路","lon":"121.41019","lat":"31.01113","category":"38","category_name":"公交车站","address":"丽都城"},{"poiid":"B2094757D164A0F8459D","title":"上海航天研究院","lon":"121.408361128","lat":"31.006846326","category":"500","category_name":"未知分类","address":"上海华宁路"},{"poiid":"B2094757D168AAFF409F","title":"电机新村","lon":"121.41303158185","lat":"31.009593362754","category":"47","category_name":"住宅区","address":"上海市闵行区宾川路416弄"},{"poiid":"B2094757D56CA6FF499E","title":"澳门豆捞豆捞天下 东川路店","lon":"121.408497054","lat":"31.011034793","category":"247","category_name":"餐饮美食","address":"东川路2348号3楼1-16室近金平路"},{"poiid":"B2094654DB6FA3F5409B","title":"良友金伴(瑞丽路)","lon":"121.40884","lat":"31.00623","category":"117","category_name":"便民商店/便利店","address":""},{"poiid":"B2094757D06FA2F94493","title":"上海市第五人民医院","lon":"121.40855646","lat":"31.005010156","category":"162","category_name":"医院","address":"上海市闵行区瑞丽路128号(近鹤庆路)"},{"poiid":"B2094757D06FA3FF4998","title":"金平路地铁站","lon":"121.41018861","lat":"31.011169251","category":"36","category_name":"地铁站","address":"上海轨道交通 五号线 轨交金平路站 5"},{"poiid":"B2094655D265A5FB449D","title":"上海沪华国际大酒店","lon":"121.41726","lat":"31.00876","category":"250","category_name":"公园户外","address":"闵行区鹤庆路300号(近兰坪路)"},{"poiid":"B2094757D068A2F9499F","title":"天禧大酒楼（东川路店）","lon":"121.410304054","lat":"31.011545793","category":"76","category_name":"上海菜","address":"闵行区东川路2372号(近金平路地铁)"},{"poiid":"B2094757D068A5F5419F","title":"闵行丽都城","lon":"121.41019439","lat":"31.011138916","category":"47","category_name":"住宅区","address":"上海闵行区金平路328弄（近金平路站）"},{"poiid":"B2094751DA69ABFD419E","title":"王子公主奇遇记","lon":"121.410356","lat":"31.013884","category":"248","category_name":"生活娱乐","address":"闵行区,金平路"},{"poiid":"B2094757D068A1FD4193","title":"西南体育场","lon":"121.407365366","lat":"31.0070507406","category":"220","category_name":"运动场所","address":"闵行区鹤庆路788号(近瑞丽路)"},{"poiid":"B2094757D06BA5FA419C","title":"金铭福邸","lon":"121.408785128","lat":"31.0072903351","category":"47","category_name":"住宅区","address":"上海市闵行区鹤庆路560弄"},{"poiid":"B2094750DA6BA2FB4299","title":"麦当劳（金平路店）","lon":"121.409454","lat":"31.011701","category":"68","category_name":"快餐厅","address":"闵行区东川路2378号(近金平路轻轨站)"},{"poiid":"B2094757D069A3FB449C","title":"三人行骨头王火锅(闵行店)","lon":"121.41325","lat":"31.01217","category":"86","category_name":"火锅店","address":"闵行区东川路2266弄68号(近金平路)"},{"poiid":"B2094757D16BAAFD449A","title":"第五人民医院输液室","lon":"121.410049128","lat":"31.0065893207","category":"162","category_name":"医院","address":"上海闵行区瑞丽路128号1楼"},{"poiid":"B2094757D169A5FB409C","title":"唛乐汇","lon":"121.411562","lat":"31.010371","category":"500","category_name":"未知分类","address":"闵行区金平路310号(近丽都城)"},{"poiid":"B2094757D06BA3F9449F","title":"鹤北二街坊","lon":"121.41575882","lat":"31.009885388","category":"500","category_name":"未知分类","address":"上海闵行区鹤庆路358弄"},{"poiid":"B2094757D16EA2FA419D","title":"永泓酒店","lon":"121.4093","lat":"31.01175","category":"76","category_name":"上海菜","address":"闵行区东川路2388号(近金平路地铁站)"},{"poiid":"B2094655D36CA7F9439F","title":"鹤庆路瑞丽路","lon":"121.40981","lat":"31.00714","category":"38","category_name":"公交车站","address":""},{"poiid":"B2094757D16DA0FE409B","title":"刘家村","lon":"121.409818128","lat":"31.0147984894","category":"500","category_name":"未知分类","address":"上海闵行区金平路408号(景谷路口)"},{"poiid":"B2094757D06BA4F5419D","title":"上海市第五人民医院住院部","lon":"121.40836334","lat":"31.00591278","category":"162","category_name":"医院","address":"上海市闵行区瑞丽路128号(近鹤庆路)"},{"poiid":"B2094757D068A5FC489E","title":"宾川路","lon":"121.407331478","lat":"31.0038079636","category":"500","category_name":"未知分类","address":"上海宾川路"},{"poiid":"B2094654DB6FA2FB429F","title":"红园(宾川路)","lon":"121.41335","lat":"31.00407","category":"196","category_name":"公园","address":""},{"poiid":"B2094654DB6FA3F5409A","title":"静安面包房 瑞丽路店 JING AN BAKERY","lon":"121.408287054","lat":"31.005482793","category":"112","category_name":"糕饼店","address":"闵行区瑞丽路153号(近第五人民医院)"},{"poiid":"B2094757D16FABF4429F","title":"五院急诊","lon":"121.408359","lat":"31.005978","category":"162","category_name":"医院","address":"上海闵行五院急诊"},{"poiid":"B2094757D065A7F9449F","title":"两岸咖啡(东川路店)","lon":"121.41171","lat":"31.01119","category":"260","category_name":"其他","address":"闵行区东川路2370号(近金平路)"},{"poiid":"B2094757D465A4FC469F","title":"吉祥馄饨 瑞丽路店 Gll Wonton","lon":"121.408179054","lat":"31.005966793","category":"68","category_name":"快餐厅","address":"闵行区瑞丽路145号(近鹤庆路市五医院)"},{"poiid":"B2094757D06AA3F5479D","title":"张平造型设计(闵行店)","lon":"121.40725","lat":"31.01008","category":"148","category_name":"美容美发店","address":"闵行区东川路2088号-2(近沪闵路)"},{"poiid":"B2094757D164A3F4429C","title":"新乐酒家(金平路店)","lon":"121.41278","lat":"31.00765","category":"76","category_name":"上海菜","address":"闵行区金平路8号(鹤庆路口)"},{"poiid":"B2094757D168A1F4479C","title":"新华小区","lon":"121.41481018","lat":"31.008014679","category":"47","category_name":"住宅区","address":"上海鹤庆路411弄"},{"poiid":"B2094750D365A4FB4298","title":"金铭府邸","lon":"121.41143","lat":"31.007932","category":"47","category_name":"住宅区","address":"鹤庆路560弄"},{"poiid":"B2094757D06AABF4459C","title":"三人行新概念川菜","lon":"121.41424","lat":"31.01263","category":"71","category_name":"四川菜","address":"闵行区东川路2272号千代广场1-2楼(近金平路)"},{"poiid":"B2094655D26AA0F9439D","title":"地铁金平路站","lon":"121.41019","lat":"31.01113","category":"36","category_name":"地铁站","address":""},{"poiid":"B2094655D265AAFB499F","title":"金铭福邸四期","lon":"121.40669","lat":"31.00893","category":"47","category_name":"住宅区","address":"瑞丽路386弄"},{"poiid":"B2094654DB6FA3FB409F","title":"新亚大包(宾川路)","lon":"121.40885","lat":"31.00405","category":"68","category_name":"快餐厅","address":"闵行区宾川路408号(宾川路瑞丽路)"},{"poiid":"B2094757D464A6FF409F","title":"妯娌老鸭粉丝 瑞丽路","lon":"121.408390054","lat":"31.006227793","category":"68","category_name":"快餐厅","address":"闵行区瑞丽路165号(近鹤庆路)"},{"poiid":"B2094757D16CA4F84492","title":"全家便利(瑞丽店)","lon":"121.408602428","lat":"31.0059088067","category":"117","category_name":"便民商店/便利店","address":"上海市闵行区瑞丽路175号"},{"poiid":"B2094751DA6AA5F94692","title":"自由港（主题店）","lon":"121.406277","lat":"31.013964","category":"248","category_name":"生活娱乐","address":"东川路2372号3楼"},{"poiid":"B2094655D36CA1FE4098","title":"市五医院","lon":"121.4078","lat":"31.00669","category":"162","category_name":"医院","address":""},{"poiid":"B2094753D66BA4FE479B","title":"永和大王","lon":"121.408981","lat":"31.00608","category":"247","category_name":"餐饮美食","address":"上海市 瑞丽路120"},{"poiid":"B2094654DB6EAAFD439C","title":"联华(鹤庆路)","lon":"121.41136","lat":"31.00763","category":"118","category_name":"超级市场","address":"闵行区鹤庆路550号"},{"poiid":"B2094757D06AA1FF489A","title":"刘家村豆浆","lon":"121.40987","lat":"31.01552","category":"68","category_name":"快餐厅","address":"闵行区金平路412号(近景谷路)"},{"poiid":"B2094654DB6FA3FA499C","title":"上海道培医院","lon":"121.40836","lat":"31.00591","category":"162","category_name":"医院","address":"闵行区瑞丽路126号"},{"poiid":"B2094757D064A1FB409B","title":"老鸿翔苏州汤包馆(金平店)","lon":"121.41017342","lat":"31.011877004","category":"68","category_name":"快餐厅","address":"闵行区东川路2370号(金平路口)"},{"poiid":"B2094757D168A3F54198","title":"上海市第五人民医院病理科","lon":"121.41050612","lat":"31.006356315","category":"162","category_name":"医院","address":"上海市闵行区瑞丽路"},{"poiid":"B2094654DB6FA3FA499A","title":"江川体育活动中心","lon":"121.40779","lat":"31.00797","category":"224","category_name":"综合体育馆","address":"闵行区鹤庆路788号(近瑞丽路)"},{"poiid":"B2094654DB6FA3F5409C","title":"部落情火锅城瑞丽路分店","lon":"121.40877","lat":"31.00656","category":"86","category_name":"火锅店","address":"碧江路"},{"poiid":"B2094757D469A3F94492","title":"宏星一号","lon":"121.4149997","lat":"31.0123387","category":"76","category_name":"上海菜","address":"闵行区东川路2318号(近五号线金平路地铁站)"},{"poiid":"B2094654DB6FA3FB409B","title":"复旦大学附属肿瘤医院闵行分院","lon":"121.40863","lat":"31.00522","category":"162","category_name":"医院","address":"闵行区瑞丽路106号(近鹤庆路)"},{"poiid":"B2094655D36DA6FD4799","title":"金平路","lon":"121.41019","lat":"31.01113","category":"38","category_name":"公交车站","address":"丽都城"},{"poiid":"B2094757D164A0F8459D","title":"上海航天研究院","lon":"121.408361128","lat":"31.006846326","category":"500","category_name":"未知分类","address":"上海华宁路"},{"poiid":"B2094757D168AAFF409F","title":"电机新村","lon":"121.41303158185","lat":"31.009593362754","category":"47","category_name":"住宅区","address":"上海市闵行区宾川路416弄"},{"poiid":"B2094757D56CA6FF499E","title":"澳门豆捞豆捞天下 东川路店","lon":"121.408497054","lat":"31.011034793","category":"247","category_name":"餐饮美食","address":"东川路2348号3楼1-16室近金平路"},{"poiid":"B2094654DB6FA3F5409B","title":"良友金伴(瑞丽路)","lon":"121.40884","lat":"31.00623","category":"117","category_name":"便民商店/便利店","address":""},{"poiid":"B2094757D06FA2F94493","title":"上海市第五人民医院","lon":"121.40855646","lat":"31.005010156","category":"162","category_name":"医院","address":"上海市闵行区瑞丽路128号(近鹤庆路)"},{"poiid":"B2094757D06FA3FF4998","title":"金平路地铁站","lon":"121.41018861","lat":"31.011169251","category":"36","category_name":"地铁站","address":"上海轨道交通 五号线 轨交金平路站 5"},{"poiid":"B2094655D265A5FB449D","title":"上海沪华国际大酒店","lon":"121.41726","lat":"31.00876","category":"250","category_name":"公园户外","address":"闵行区鹤庆路300号(近兰坪路)"},{"poiid":"B2094757D068A2F9499F","title":"天禧大酒楼（东川路店）","lon":"121.410304054","lat":"31.011545793","category":"76","category_name":"上海菜","address":"闵行区东川路2372号(近金平路地铁)"},{"poiid":"B2094757D068A5F5419F","title":"闵行丽都城","lon":"121.41019439","lat":"31.011138916","category":"47","category_name":"住宅区","address":"上海闵行区金平路328弄（近金平路站）"},{"poiid":"B2094751DA69ABFD419E","title":"王子公主奇遇记","lon":"121.410356","lat":"31.013884","category":"248","category_name":"生活娱乐","address":"闵行区,金平路"},{"poiid":"B2094757D068A1FD4193","title":"西南体育场","lon":"121.407365366","lat":"31.0070507406","category":"220","category_name":"运动场所","address":"闵行区鹤庆路788号(近瑞丽路)"},{"poiid":"B2094757D06BA5FA419C","title":"金铭福邸","lon":"121.408785128","lat":"31.0072903351","category":"47","category_name":"住宅区","address":"上海市闵行区鹤庆路560弄"},{"poiid":"B2094750DA6BA2FB4299","title":"麦当劳（金平路店）","lon":"121.409454","lat":"31.011701","category":"68","category_name":"快餐厅","address":"闵行区东川路2378号(近金平路轻轨站)"},{"poiid":"B2094757D069A3FB449C","title":"三人行骨头王火锅(闵行店)","lon":"121.41325","lat":"31.01217","category":"86","category_name":"火锅店","address":"闵行区东川路2266弄68号(近金平路)"},{"poiid":"B2094757D16BAAFD449A","title":"第五人民医院输液室","lon":"121.410049128","lat":"31.0065893207","category":"162","category_name":"医院","address":"上海闵行区瑞丽路128号1楼"},{"poiid":"B2094757D169A5FB409C","title":"唛乐汇","lon":"121.411562","lat":"31.010371","category":"500","category_name":"未知分类","address":"闵行区金平路310号(近丽都城)"},{"poiid":"B2094757D06BA3F9449F","title":"鹤北二街坊","lon":"121.41575882","lat":"31.009885388","category":"500","category_name":"未知分类","address":"上海闵行区鹤庆路358弄"},{"poiid":"B2094757D16EA2FA419D","title":"永泓酒店","lon":"121.4093","lat":"31.01175","category":"76","category_name":"上海菜","address":"闵行区东川路2388号(近金平路地铁站)"},{"poiid":"B2094655D36CA7F9439F","title":"鹤庆路瑞丽路","lon":"121.40981","lat":"31.00714","category":"38","category_name":"公交车站","address":""},{"poiid":"B2094757D16DA0FE409B","title":"刘家村","lon":"121.409818128","lat":"31.0147984894","category":"500","category_name":"未知分类","address":"上海闵行区金平路408号(景谷路口)"},{"poiid":"B2094757D06BA4F5419D","title":"上海市第五人民医院住院部","lon":"121.40836334","lat":"31.00591278","category":"162","category_name":"医院","address":"上海市闵行区瑞丽路128号(近鹤庆路)"},{"poiid":"B2094757D068A5FC489E","title":"宾川路","lon":"121.407331478","lat":"31.0038079636","category":"500","category_name":"未知分类","address":"上海宾川路"},{"poiid":"B2094654DB6FA2FB429F","title":"红园(宾川路)","lon":"121.41335","lat":"31.00407","category":"196","category_name":"公园","address":""},{"poiid":"B2094654DB6FA3F5409A","title":"静安面包房 瑞丽路店 JING AN BAKERY","lon":"121.408287054","lat":"31.005482793","category":"112","category_name":"糕饼店","address":"闵行区瑞丽路153号(近第五人民医院)"},{"poiid":"B2094757D16FABF4429F","title":"五院急诊","lon":"121.408359","lat":"31.005978","category":"162","category_name":"医院","address":"上海闵行五院急诊"},{"poiid":"B2094757D065A7F9449F","title":"两岸咖啡(东川路店)","lon":"121.41171","lat":"31.01119","category":"260","category_name":"其他","address":"闵行区东川路2370号(近金平路)"},{"poiid":"B2094757D465A4FC469F","title":"吉祥馄饨 瑞丽路店 Gll Wonton","lon":"121.408179054","lat":"31.005966793","category":"68","category_name":"快餐厅","address":"闵行区瑞丽路145号(近鹤庆路市五医院)"},{"poiid":"B2094757D06AA3F5479D","title":"张平造型设计(闵行店)","lon":"121.40725","lat":"31.01008","category":"148","category_name":"美容美发店","address":"闵行区东川路2088号-2(近沪闵路)"},{"poiid":"B2094757D164A3F4429C","title":"新乐酒家(金平路店)","lon":"121.41278","lat":"31.00765","category":"76","category_name":"上海菜","address":"闵行区金平路8号(鹤庆路口)"},{"poiid":"B2094757D168A1F4479C","title":"新华小区","lon":"121.41481018","lat":"31.008014679","category":"47","category_name":"住宅区","address":"上海鹤庆路411弄"},{"poiid":"B2094750D365A4FB4298","title":"金铭府邸","lon":"121.41143","lat":"31.007932","category":"47","category_name":"住宅区","address":"鹤庆路560弄"},{"poiid":"B2094757D06AABF4459C","title":"三人行新概念川菜","lon":"121.41424","lat":"31.01263","category":"71","category_name":"四川菜","address":"闵行区东川路2272号千代广场1-2楼(近金平路)"},{"poiid":"B2094655D26AA0F9439D","title":"地铁金平路站","lon":"121.41019","lat":"31.01113","category":"36","category_name":"地铁站","address":""},{"poiid":"B2094655D265AAFB499F","title":"金铭福邸四期","lon":"121.40669","lat":"31.00893","category":"47","category_name":"住宅区","address":"瑞丽路386弄"},{"poiid":"B2094654DB6FA3FB409F","title":"新亚大包(宾川路)","lon":"121.40885","lat":"31.00405","category":"68","category_name":"快餐厅","address":"闵行区宾川路408号(宾川路瑞丽路)"},{"poiid":"B2094757D464A6FF409F","title":"妯娌老鸭粉丝 瑞丽路","lon":"121.408390054","lat":"31.006227793","category":"68","category_name":"快餐厅","address":"闵行区瑞丽路165号(近鹤庆路)"},{"poiid":"B2094757D16CA4F84492","title":"全家便利(瑞丽店)","lon":"121.408602428","lat":"31.0059088067","category":"117","category_name":"便民商店/便利店","address":"上海市闵行区瑞丽路175号"},{"poiid":"B2094751DA6AA5F94692","title":"自由港（主题店）","lon":"121.406277","lat":"31.013964","category":"248","category_name":"生活娱乐","address":"东川路2372号3楼"},{"poiid":"B2094655D36CA1FE4098","title":"市五医院","lon":"121.4078","lat":"31.00669","category":"162","category_name":"医院","address":""},{"poiid":"B2094753D66BA4FE479B","title":"永和大王","lon":"121.408981","lat":"31.00608","category":"247","category_name":"餐饮美食","address":"上海市 瑞丽路120"},{"poiid":"B2094654DB6EAAFD439C","title":"联华(鹤庆路)","lon":"121.41136","lat":"31.00763","category":"118","category_name":"超级市场","address":"闵行区鹤庆路550号"},{"poiid":"B2094757D06AA1FF489A","title":"刘家村豆浆","lon":"121.40987","lat":"31.01552","category":"68","category_name":"快餐厅","address":"闵行区金平路412号(近景谷路)"},{"poiid":"B2094654DB6FA3FA499C","title":"上海道培医院","lon":"121.40836","lat":"31.00591","category":"162","category_name":"医院","address":"闵行区瑞丽路126号"},{"poiid":"B2094757D064A1FB409B","title":"老鸿翔苏州汤包馆(金平店)","lon":"121.41017342","lat":"31.011877004","category":"68","category_name":"快餐厅","address":"闵行区东川路2370号(金平路口)"},{"poiid":"B2094757D168A3F54198","title":"上海市第五人民医院病理科","lon":"121.41050612","lat":"31.006356315","category":"162","category_name":"医院","address":"上海市闵行区瑞丽路"},{"poiid":"B2094654DB6FA3FA499A","title":"江川体育活动中心","lon":"121.40779","lat":"31.00797","category":"224","category_name":"综合体育馆","address":"闵行区鹤庆路788号(近瑞丽路)"},{"poiid":"B2094654DB6FA3F5409C","title":"部落情火锅城瑞丽路分店","lon":"121.40877","lat":"31.00656","category":"86","category_name":"火锅店","address":"碧江路"},{"poiid":"B2094757D469A3F94492","title":"宏星一号","lon":"121.4149997","lat":"31.0123387","category":"76","category_name":"上海菜","address":"闵行区东川路2318号(近五号线金平路地铁站)"},{"poiid":"B2094654DB6FA3FB409B","title":"复旦大学附属肿瘤医院闵行分院","lon":"121.40863","lat":"31.00522","category":"162","category_name":"医院","address":"闵行区瑞丽路106号(近鹤庆路)"},{"poiid":"B2094655D36DA6FD4799","title":"金平路","lon":"121.41019","lat":"31.01113","category":"38","category_name":"公交车站","address":"丽都城"},{"poiid":"B2094757D164A0F8459D","title":"上海航天研究院","lon":"121.408361128","lat":"31.006846326","category":"500","category_name":"未知分类","address":"上海华宁路"},{"poiid":"B2094757D168AAFF409F","title":"电机新村","lon":"121.41303158185","lat":"31.009593362754","category":"47","category_name":"住宅区","address":"上海市闵行区宾川路416弄"},{"poiid":"B2094757D56CA6FF499E","title":"澳门豆捞豆捞天下 东川路店","lon":"121.408497054","lat":"31.011034793","category":"247","category_name":"餐饮美食","address":"东川路2348号3楼1-16室近金平路"},{"poiid":"B2094654DB6FA3F5409B","title":"良友金伴(瑞丽路)","lon":"121.40884","lat":"31.00623","category":"117","category_name":"便民商店/便利店","address":""},{"poiid":"B2094757D06FA2F94493","title":"上海市第五人民医院","lon":"121.40855646","lat":"31.005010156","category":"162","category_name":"医院","address":"上海市闵行区瑞丽路128号(近鹤庆路)"},{"poiid":"B2094757D06FA3FF4998","title":"金平路地铁站","lon":"121.41018861","lat":"31.011169251","category":"36","category_name":"地铁站","address":"上海轨道交通 五号线 轨交金平路站 5"},{"poiid":"B2094655D265A5FB449D","title":"上海沪华国际大酒店","lon":"121.41726","lat":"31.00876","category":"250","category_name":"公园户外","address":"闵行区鹤庆路300号(近兰坪路)"},{"poiid":"B2094757D068A2F9499F","title":"天禧大酒楼（东川路店）","lon":"121.410304054","lat":"31.011545793","category":"76","category_name":"上海菜","address":"闵行区东川路2372号(近金平路地铁)"},{"poiid":"B2094757D068A5F5419F","title":"闵行丽都城","lon":"121.41019439","lat":"31.011138916","category":"47","category_name":"住宅区","address":"上海闵行区金平路328弄（近金平路站）"},{"poiid":"B2094751DA69ABFD419E","title":"王子公主奇遇记","lon":"121.410356","lat":"31.013884","category":"248","category_name":"生活娱乐","address":"闵行区,金平路"},{"poiid":"B2094757D068A1FD4193","title":"西南体育场","lon":"121.407365366","lat":"31.0070507406","category":"220","category_name":"运动场所","address":"闵行区鹤庆路788号(近瑞丽路)"},{"poiid":"B2094757D06BA5FA419C","title":"金铭福邸","lon":"121.408785128","lat":"31.0072903351","category":"47","category_name":"住宅区","address":"上海市闵行区鹤庆路560弄"},{"poiid":"B2094750DA6BA2FB4299","title":"麦当劳（金平路店）","lon":"121.409454","lat":"31.011701","category":"68","category_name":"快餐厅","address":"闵行区东川路2378号(近金平路轻轨站)"},{"poiid":"B2094757D069A3FB449C","title":"三人行骨头王火锅(闵行店)","lon":"121.41325","lat":"31.01217","category":"86","category_name":"火锅店","address":"闵行区东川路2266弄68号(近金平路)"},{"poiid":"B2094757D16BAAFD449A","title":"第五人民医院输液室","lon":"121.410049128","lat":"31.0065893207","category":"162","category_name":"医院","address":"上海闵行区瑞丽路128号1楼"},{"poiid":"B2094757D169A5FB409C","title":"唛乐汇","lon":"121.411562","lat":"31.010371","category":"500","category_name":"未知分类","address":"闵行区金平路310号(近丽都城)"},{"poiid":"B2094757D06BA3F9449F","title":"鹤北二街坊","lon":"121.41575882","lat":"31.009885388","category":"500","category_name":"未知分类","address":"上海闵行区鹤庆路358弄"},{"poiid":"B2094757D16EA2FA419D","title":"永泓酒店","lon":"121.4093","lat":"31.01175","category":"76","category_name":"上海菜","address":"闵行区东川路2388号(近金平路地铁站)"},{"poiid":"B2094655D36CA7F9439F","title":"鹤庆路瑞丽路","lon":"121.40981","lat":"31.00714","category":"38","category_name":"公交车站","address":""},{"poiid":"B2094757D16DA0FE409B","title":"刘家村","lon":"121.409818128","lat":"31.0147984894","category":"500","category_name":"未知分类","address":"上海闵行区金平路408号(景谷路口)"},{"poiid":"B2094757D06BA4F5419D","title":"上海市第五人民医院住院部","lon":"121.40836334","lat":"31.00591278","category":"162","category_name":"医院","address":"上海市闵行区瑞丽路128号(近鹤庆路)"},{"poiid":"B2094757D068A5FC489E","title":"宾川路","lon":"121.407331478","lat":"31.0038079636","category":"500","category_name":"未知分类","address":"上海宾川路"},{"poiid":"B2094654DB6FA2FB429F","title":"红园(宾川路)","lon":"121.41335","lat":"31.00407","category":"196","category_name":"公园","address":""},{"poiid":"B2094654DB6FA3F5409A","title":"静安面包房 瑞丽路店 JING AN BAKERY","lon":"121.408287054","lat":"31.005482793","category":"112","category_name":"糕饼店","address":"闵行区瑞丽路153号(近第五人民医院)"},{"poiid":"B2094757D16FABF4429F","title":"五院急诊","lon":"121.408359","lat":"31.005978","category":"162","category_name":"医院","address":"上海闵行五院急诊"},{"poiid":"B2094757D065A7F9449F","title":"两岸咖啡(东川路店)","lon":"121.41171","lat":"31.01119","category":"260","category_name":"其他","address":"闵行区东川路2370号(近金平路)"},{"poiid":"B2094757D465A4FC469F","title":"吉祥馄饨 瑞丽路店 Gll Wonton","lon":"121.408179054","lat":"31.005966793","category":"68","category_name":"快餐厅","address":"闵行区瑞丽路145号(近鹤庆路市五医院)"},{"poiid":"B2094757D06AA3F5479D","title":"张平造型设计(闵行店)","lon":"121.40725","lat":"31.01008","category":"148","category_name":"美容美发店","address":"闵行区东川路2088号-2(近沪闵路)"},{"poiid":"B2094757D164A3F4429C","title":"新乐酒家(金平路店)","lon":"121.41278","lat":"31.00765","category":"76","category_name":"上海菜","address":"闵行区金平路8号(鹤庆路口)"},{"poiid":"B2094757D168A1F4479C","title":"新华小区","lon":"121.41481018","lat":"31.008014679","category":"47","category_name":"住宅区","address":"上海鹤庆路411弄"},{"poiid":"B2094750D365A4FB4298","title":"金铭府邸","lon":"121.41143","lat":"31.007932","category":"47","category_name":"住宅区","address":"鹤庆路560弄"},{"poiid":"B2094757D06AABF4459C","title":"三人行新概念川菜","lon":"121.41424","lat":"31.01263","category":"71","category_name":"四川菜","address":"闵行区东川路2272号千代广场1-2楼(近金平路)"},{"poiid":"B2094655D26AA0F9439D","title":"地铁金平路站","lon":"121.41019","lat":"31.01113","category":"36","category_name":"地铁站","address":""},{"poiid":"B2094655D265AAFB499F","title":"金铭福邸四期","lon":"121.40669","lat":"31.00893","category":"47","category_name":"住宅区","address":"瑞丽路386弄"},{"poiid":"B2094654DB6FA3FB409F","title":"新亚大包(宾川路)","lon":"121.40885","lat":"31.00405","category":"68","category_name":"快餐厅","address":"闵行区宾川路408号(宾川路瑞丽路)"},{"poiid":"B2094757D464A6FF409F","title":"妯娌老鸭粉丝 瑞丽路","lon":"121.408390054","lat":"31.006227793","category":"68","category_name":"快餐厅","address":"闵行区瑞丽路165号(近鹤庆路)"},{"poiid":"B2094757D16CA4F84492","title":"全家便利(瑞丽店)","lon":"121.408602428","lat":"31.0059088067","category":"117","category_name":"便民商店/便利店","address":"上海市闵行区瑞丽路175号"},{"poiid":"B2094751DA6AA5F94692","title":"自由港（主题店）","lon":"121.406277","lat":"31.013964","category":"248","category_name":"生活娱乐","address":"东川路2372号3楼"},{"poiid":"B2094655D36CA1FE4098","title":"市五医院","lon":"121.4078","lat":"31.00669","category":"162","category_name":"医院","address":""},{"poiid":"B2094753D66BA4FE479B","title":"永和大王","lon":"121.408981","lat":"31.00608","category":"247","category_name":"餐饮美食","address":"上海市 瑞丽路120"},{"poiid":"B2094654DB6EAAFD439C","title":"联华(鹤庆路)","lon":"121.41136","lat":"31.00763","category":"118","category_name":"超级市场","address":"闵行区鹤庆路550号"},{"poiid":"B2094757D06AA1FF489A","title":"刘家村豆浆","lon":"121.40987","lat":"31.01552","category":"68","category_name":"快餐厅","address":"闵行区金平路412号(近景谷路)"},{"poiid":"B2094654DB6FA3FA499C","title":"上海道培医院","lon":"121.40836","lat":"31.00591","category":"162","category_name":"医院","address":"闵行区瑞丽路126号"},{"poiid":"B2094757D064A1FB409B","title":"老鸿翔苏州汤包馆(金平店)","lon":"121.41017342","lat":"31.011877004","category":"68","category_name":"快餐厅","address":"闵行区东川路2370号(金平路口)"},{"poiid":"B2094757D168A3F54198","title":"上海市第五人民医院病理科","lon":"121.41050612","lat":"31.006356315","category":"162","category_name":"医院","address":"上海市闵行区瑞丽路"},{"poiid":"B2094654DB6FA3FA499A","title":"江川体育活动中心","lon":"121.40779","lat":"31.00797","category":"224","category_name":"综合体育馆","address":"闵行区鹤庆路788号(近瑞丽路)"},{"poiid":"B2094654DB6FA3F5409C","title":"部落情火锅城瑞丽路分店","lon":"121.40877","lat":"31.00656","category":"86","category_name":"火锅店","address":"碧江路"},{"poiid":"B2094757D469A3F94492","title":"宏星一号","lon":"121.4149997","lat":"31.0123387","category":"76","category_name":"上海菜","address":"闵行区东川路2318号(近五号线金平路地铁站)"},{"poiid":"B2094654DB6FA3FB409B","title":"复旦大学附属肿瘤医院闵行分院","lon":"121.40863","lat":"31.00522","category":"162","category_name":"医院","address":"闵行区瑞丽路106号(近鹤庆路)"},{"poiid":"B2094655D36DA6FD4799","title":"金平路","lon":"121.41019","lat":"31.01113","category":"38","category_name":"公交车站","address":"丽都城"},{"poiid":"B2094757D164A0F8459D","title":"上海航天研究院","lon":"121.408361128","lat":"31.006846326","category":"500","category_name":"未知分类","address":"上海华宁路"},{"poiid":"B2094757D168AAFF409F","title":"电机新村","lon":"121.41303158185","lat":"31.009593362754","category":"47","category_name":"住宅区","address":"上海市闵行区宾川路416弄"},{"poiid":"B2094757D56CA6FF499E","title":"澳门豆捞豆捞天下 东川路店","lon":"121.408497054","lat":"31.011034793","category":"247","category_name":"餐饮美食","address":"东川路2348号3楼1-16室近金平路"},{"poiid":"B2094654DB6FA3F5409B","title":"良友金伴(瑞丽路)","lon":"121.40884","lat":"31.00623","category":"117","category_name":"便民商店/便利店","address":""}]