[{"poiid":"B2094654DA69A3FF4898","title":"上海市公安局出入境管理局","lon":"121.54994","lat":"31.22182","category":"252","category_name":"楼宇机构","address":"浦东新区民生路1500"},{"poiid":"B2094654DB6AA6F8409B","title":"上海淳大万丽酒店","lon":"121.55226","lat":"31.22385","category":"213","category_name":"五星级宾馆","address":"浦东新区长柳路100号(近迎春路)"},{"poiid":"B2094654DA69A2F54798","title":"世纪皇冠假日酒店","lon":"121.55118","lat":"31.22346","category":"213","category_name":"五星级宾馆","address":"浦东新区民生路1433号(近迎春路)"},{"poiid":"B2094654DA69A3FF4899","title":"上海浦东展览馆","lon":"121.54872","lat":"31.22144","category":"183","category_name":"展览馆","address":"浦东新区合欢路201号(迎春路口)"},{"poiid":"B2094655D26BA2F5439C","title":"浦东市民中心","lon":"121.54692","lat":"31.22326","category":"38","category_name":"公交车站","address":"合欢路2号"},{"poiid":"B2094654DB6BAAFC499A","title":"证大五道口广场","lon":"121.55026","lat":"31.22629","category":"45","category_name":"产业园区","address":"浦东新区民生路1199弄"},{"poiid":"B2094757D06FA0F44798","title":"上海浦东出入境检验检疫局","lon":"121.54857635","lat":"31.225637435","category":"500","category_name":"未知分类","address":"上海民生路1208号"},{"poiid":"B2094655D36DA0F8489F","title":"杨高中路地铁站","lon":"121.5487","lat":"31.22704","category":"36","category_name":"地铁站","address":"上海轨道交通 九号线 轨交杨高中路站 9"},{"poiid":"B2094654DB6BABF5459D","title":"世纪公园(二号门)","lon":"121.55191","lat":"31.21911","category":"680","category_name":"楼宇机构","address":"锦绣路901号"},{"poiid":"B2094757D069A3FE479C","title":"宝燕壹号","lon":"121.550677","lat":"31.224298","category":"75","category_name":"浙江菜","address":"浦东新区民生路1399号太平人寿大厦1-2楼(近丁香路)"},{"poiid":"B2094757D068A1FD409D","title":"和记小菜精菜坊","lon":"121.55141","lat":"31.22311","category":"76","category_name":"上海菜","address":"浦东新区民生路1433号世纪皇冠酒店3楼(近迎春路)"},{"poiid":"B2094757D06FAAFD499A","title":"中国银联","lon":"121.5502","lat":"31.22055","category":"46","category_name":"楼宇","address":"浦东新区含笑路36号银联大厦(含笑路民生路)"},{"poiid":"B2094757D068A0F4479C","title":"上海移动浦东大楼","lon":"121.549956738","lat":"31.2248151847","category":"500","category_name":"未知分类","address":"上海迎春路670号"},{"poiid":"B2094757D068A3FD439B","title":"上海人家精作坊(汇商店)","lon":"121.54943","lat":"31.22415","category":"76","category_name":"上海菜","address":"浦东新区民生路1286号汇商大厦3-4楼(丁香路口)"},{"poiid":"B2094757D16CA6FE409B","title":"世纪皇冠假日酒店咖啡园","lon":"121.551","lat":"31.22299","category":"268","category_name":"自助","address":"浦东新区民生路1433号上海世纪皇冠假日酒店1楼大堂(迎春路口)"},{"poiid":"B2094757D068A4F4489B","title":"上海移动民生大楼","lon":"121.55168467","lat":"31.2229133452","category":"46","category_name":"楼宇","address":"上海迎春路670号"},{"poiid":"B2094757D068A1F54693","title":"浦东新区青少年活动中心","lon":"121.54725","lat":"31.22036","category":"249","category_name":"购物服务","address":"上海浦东新区迎春路318号  "},{"poiid":"B2094757D664A2FC419A","title":"天家 浦东店","lon":"121.55253955661","lat":"31.225538360007","category":"95","category_name":"日本料理","address":"浦东新区长柳路105号(长柳路迎春路)"},{"poiid":"B2094757D06BA5FE4593","title":"万丽轩(淳大万丽店)","lon":"121.55297","lat":"31.22337","category":"72","category_name":"广东菜","address":"上海浦东新区长柳路100号淳大万丽酒店2楼(近迎春路)"},{"poiid":"B2094757D06FA5F94892","title":"金鹰大厦","lon":"121.556","lat":"31.2265","category":"46","category_name":"楼宇","address":"上海市平凉路1398号"},{"poiid":"B2094757D169A3FD489F","title":"世纪公园游乐园草坪","lon":"121.552391238","lat":"31.2227846414","category":"196","category_name":"公园","address":"上海世纪公园"},{"poiid":"B2094757D068A6F4459A","title":"富淳饭店(联洋店)","lon":"121.55282","lat":"31.22336","category":"72","category_name":"广东菜","address":"浦东新区长柳路100号淳大万丽酒店3楼(近迎春路)"},{"poiid":"B2094757D06AA4FA419E","title":"联洋年华","lon":"121.55396","lat":"31.224865","category":"500","category_name":"未知分类","address":"上海市浦东新区丁香路910号"},{"poiid":"B2094751D36CA5FD479C","title":"四季亭(民生路店)","lon":"121.55096","lat":"31.22329","category":"95","category_name":"日本料理","address":"浦东新区民生路1433号世纪皇冠假日酒店2楼(近迎春路路口)"},{"poiid":"B2094654DA69A2F44893","title":"太平人寿大厦","lon":"121.55068","lat":"31.22429","category":"46","category_name":"楼宇","address":"闸北区江场西路395号"},{"poiid":"B2094750D669A3F9499D","title":"古北汤馆","lon":"121.552215","lat":"31.224241","category":"247","category_name":"餐饮美食","address":"浦东新区长柳路58号(近迎春路)"},{"poiid":"B2094654DA69A2F44998","title":"联洋花园","lon":"121.55357","lat":"31.227642","category":"47","category_name":"住宅区","address":"丁香路901弄"},{"poiid":"B2094757D064A2F94792","title":"世纪紫澜","lon":"121.55291","lat":"31.21715","category":"72","category_name":"广东菜","address":"浦东新区锦绣路901号世纪公园2号门内"},{"poiid":"B2094757D16CAAFB419C","title":"上海银监局","lon":"121.54826773","lat":"31.224110169","category":"500","category_name":"未知分类","address":"上海合欢路35号"},{"poiid":"B2094654DA69A2F5479E","title":"中国移动旗舰店","lon":"121.55132","lat":"31.22282","category":"151","category_name":"电讯营业厅","address":"上海市浦东新区,迎春路670号(近民生路)"},{"poiid":"B2094654DB6BAAFC489D","title":"上海之窗御景园","lon":"121.55239","lat":"31.22157","category":"47","category_name":"住宅区","address":"锦绣路888弄1-29号"},{"poiid":"B2094757D069A5FF4398","title":"出入境管理局咖啡厅","lon":"121.549943794","lat":"31.2217617086","category":"260","category_name":"其他","address":"浦东新区民生路1500号上海出入境管理局1楼(含笑路民生路)"},{"poiid":"B2094655D26EA2F4409C","title":"长荣大厦","lon":"121.55006","lat":"31.22619","category":"46","category_name":"楼宇","address":"民生路1199弄证大五道口广场2号楼(南楼)"},{"poiid":"B2094757D66BA2FC439A","title":"淳大万丽日本餐厅","lon":"121.55266408","lat":"31.22380449","category":"95","category_name":"日本料理","address":"长柳路100号淳大万丽酒店1楼近迎春路"},{"poiid":"B2094757D064AAF4479F","title":"丽膳屋","lon":"121.55359","lat":"31.22334","category":"95","category_name":"日本料理","address":"上海浦东新区长柳路100号淳大万丽酒店1楼(近迎春路)  "},{"poiid":"B2094757D06BA3FD4692","title":"乐柚炭烤(迎春路店)","lon":"121.5552","lat":"31.22429","category":"96","category_name":"韩国料理","address":"浦东新区迎春路813号(近长柳路)"},{"poiid":"B2094757D16EA7FE469B","title":"世纪皇冠假日酒店宴会厅","lon":"121.55053","lat":"31.22346","category":"76","category_name":"上海菜","address":"民生路1433号世纪皇冠假日酒店5楼(近迎春路)"},{"poiid":"B2094750D364ABFA489A","title":"上海新国际会展中心","lon":"121.550224","lat":"31.223012","category":"500","category_name":"未知分类","address":"浦东"},{"poiid":"B2094750D56DA7F4499A","title":"星巴克（宏嘉大厦店）","lon":"121.550765","lat":"31.223958","category":"247","category_name":"餐饮美食","address":"福山路388号"},{"poiid":"B2094757DB68A5F4409B","title":"淳大万丽酒店咖啡厅 RENAISSANCE BRASSERIE","lon":"121.552807054","lat":"31.223998793","category":"268","category_name":"自助","address":"浦东新区长柳路100号淳大万丽酒店2楼(近迎春路)"},{"poiid":"B2094654DA69A2F5449C","title":"天安花园","lon":"121.55541","lat":"31.222439","category":"47","category_name":"住宅区","address":"上海市浦东新区锦绣路800号"},{"poiid":"B2094655D36DA0FB469F","title":"迎春路民生路","lon":"121.54995","lat":"31.22274","category":"38","category_name":"公交车站","address":""},{"poiid":"B2094655D36DA0FB4698","title":"迎春路长柳路","lon":"121.5527","lat":"31.22357","category":"38","category_name":"公交车站","address":""},{"poiid":"B2094757D068A5FD4893","title":"联洋社区","lon":"121.55323028","lat":"31.226751327","category":"47","category_name":"住宅区","address":"上海丁香路"},{"poiid":"B2094655D26DA5F5449B","title":"金鹰大厦A栋","lon":"121.55009","lat":"31.21998","category":"46","category_name":"楼宇","address":"民生路1518"},{"poiid":"B2094654DB6BABF5449F","title":"金鹰大厦B栋","lon":"121.55049","lat":"31.22056","category":"46","category_name":"楼宇","address":"民生路1518"},{"poiid":"B2094655D26EA3FF499C","title":"华丽家族花园","lon":"121.55773","lat":"31.22375","category":"47","category_name":"住宅区","address":"上海市浦东新区锦绣路666号"},{"poiid":"B2094655D265AAFA429F","title":"菌菇老鸭粉丝煲","lon":"121.55415","lat":"31.22366","category":"86","category_name":"火锅店","address":"浦东新区迎春路798号(近民生路)"},{"poiid":"B2094655D268ABFD469A","title":"上海海事法院","lon":"121.5491","lat":"31.223","category":"608","category_name":"法院","address":"迎春路567号"},{"poiid":"B2094750D26EABFB4292","title":"吞拿家","lon":"121.553944","lat":"31.224024","category":"95","category_name":"日本料理","address":"浦东新区迎春路805号(近长柳路)"},{"poiid":"B2094654DA69A3FF4898","title":"上海市公安局出入境管理局","lon":"121.54994","lat":"31.22182","category":"252","category_name":"楼宇机构","address":"浦东新区民生路1500"},{"poiid":"B2094654DB6AA6F8409B","title":"上海淳大万丽酒店","lon":"121.55226","lat":"31.22385","category":"213","category_name":"五星级宾馆","address":"浦东新区长柳路100号(近迎春路)"},{"poiid":"B2094654DA69A2F54798","title":"世纪皇冠假日酒店","lon":"121.55118","lat":"31.22346","category":"213","category_name":"五星级宾馆","address":"浦东新区民生路1433号(近迎春路)"},{"poiid":"B2094654DA69A3FF4899","title":"上海浦东展览馆","lon":"121.54872","lat":"31.22144","category":"183","category_name":"展览馆","address":"浦东新区合欢路201号(迎春路口)"},{"poiid":"B2094655D26BA2F5439C","title":"浦东市民中心","lon":"121.54692","lat":"31.22326","category":"38","category_name":"公交车站","address":"合欢路2号"},{"poiid":"B2094654DB6BAAFC499A","title":"证大五道口广场","lon":"121.55026","lat":"31.22629","category":"45","category_name":"产业园区","address":"浦东新区民生路1199弄"},{"poiid":"B2094757D06FA0F44798","title":"上海浦东出入境检验检疫局","lon":"121.54857635","lat":"31.225637435","category":"500","category_name":"未知分类","address":"上海民生路1208号"},{"poiid":"B2094655D36DA0F8489F","title":"杨高中路地铁站","lon":"121.5487","lat":"31.22704","category":"36","category_name":"地铁站","address":"上海轨道交通 九号线 轨交杨高中路站 9"},{"poiid":"B2094654DB6BABF5459D","title":"世纪公园(二号门)","lon":"121.55191","lat":"31.21911","category":"680","category_name":"楼宇机构","address":"锦绣路901号"},{"poiid":"B2094757D069A3FE479C","title":"宝燕壹号","lon":"121.550677","lat":"31.224298","category":"75","category_name":"浙江菜","address":"浦东新区民生路1399号太平人寿大厦1-2楼(近丁香路)"},{"poiid":"B2094757D068A1FD409D","title":"和记小菜精菜坊","lon":"121.55141","lat":"31.22311","category":"76","category_name":"上海菜","address":"浦东新区民生路1433号世纪皇冠酒店3楼(近迎春路)"},{"poiid":"B2094757D06FAAFD499A","title":"中国银联","lon":"121.5502","lat":"31.22055","category":"46","category_name":"楼宇","address":"浦东新区含笑路36号银联大厦(含笑路民生路)"},{"poiid":"B2094757D068A0F4479C","title":"上海移动浦东大楼","lon":"121.549956738","lat":"31.2248151847","category":"500","category_name":"未知分类","address":"上海迎春路670号"},{"poiid":"B2094757D068A3FD439B","title":"上海人家精作坊(汇商店)","lon":"121.54943","lat":"31.22415","category":"76","category_name":"上海菜","address":"浦东新区民生路1286号汇商大厦3-4楼(丁香路口)"},{"poiid":"B2094757D16CA6FE409B","title":"世纪皇冠假日酒店咖啡园","lon":"121.551","lat":"31.22299","category":"268","category_name":"自助","address":"浦东新区民生路1433号上海世纪皇冠假日酒店1楼大堂(迎春路口)"},{"poiid":"B2094757D068A4F4489B","title":"上海移动民生大楼","lon":"121.55168467","lat":"31.2229133452","category":"46","category_name":"楼宇","address":"上海迎春路670号"},{"poiid":"B2094757D068A1F54693","title":"浦东新区青少年活动中心","lon":"121.54725","lat":"31.22036","category":"249","category_name":"购物服务","address":"上海浦东新区迎春路318号  "},{"poiid":"B2094757D664A2FC419A","title":"天家 浦东店","lon":"121.55253955661","lat":"31.225538360007","category":"95","category_name":"日本料理","address":"浦东新区长柳路105号(长柳路迎春路)"},{"poiid":"B2094757D06BA5FE4593","title":"万丽轩(淳大万丽店)","lon":"121.55297","lat":"31.22337","category":"72","category_name":"广东菜","address":"上海浦东新区长柳路100号淳大万丽酒店2楼(近迎春路)"},{"poiid":"B2094757D06FA5F94892","title":"金鹰大厦","lon":"121.556","lat":"31.2265","category":"46","category_name":"楼宇","address":"上海市平凉路1398号"},{"poiid":"B2094757D169A3FD489F","title":"世纪公园游乐园草坪","lon":"121.552391238","lat":"31.2227846414","category":"196","category_name":"公园","address":"上海世纪公园"},{"poiid":"B2094757D068A6F4459A","title":"富淳饭店(联洋店)","lon":"121.55282","lat":"31.22336","category":"72","category_name":"广东菜","address":"浦东新区长柳路100号淳大万丽酒店3楼(近迎春路)"},{"poiid":"B2094757D06AA4FA419E","title":"联洋年华","lon":"121.55396","lat":"31.224865","category":"500","category_name":"未知分类","address":"上海市浦东新区丁香路910号"},{"poiid":"B2094751D36CA5FD479C","title":"四季亭(民生路店)","lon":"121.55096","lat":"31.22329","category":"95","category_name":"日本料理","address":"浦东新区民生路1433号世纪皇冠假日酒店2楼(近迎春路路口)"},{"poiid":"B2094654DA69A2F44893","title":"太平人寿大厦","lon":"121.55068","lat":"31.22429","category":"46","category_name":"楼宇","address":"闸北区江场西路395号"},{"poiid":"B2094750D669A3F9499D","title":"古北汤馆","lon":"121.552215","lat":"31.224241","category":"247","category_name":"餐饮美食","address":"浦东新区长柳路58号(近迎春路)"},{"poiid":"B2094654DA69A2F44998","title":"联洋花园","lon":"121.55357","lat":"31.227642","category":"47","category_name":"住宅区","address":"丁香路901弄"},{"poiid":"B2094757D064A2F94792","title":"世纪紫澜","lon":"121.55291","lat":"31.21715","category":"72","category_name":"广东菜","address":"浦东新区锦绣路901号世纪公园2号门内"},{"poiid":"B2094757D16CAAFB419C","title":"上海银监局","lon":"121.54826773","lat":"31.224110169","category":"500","category_name":"未知分类","address":"上海合欢路35号"},{"poiid":"B2094654DA69A2F5479E","title":"中国移动旗舰店","lon":"121.55132","lat":"31.22282","category":"151","category_name":"电讯营业厅","address":"上海市浦东新区,迎春路670号(近民生路)"},{"poiid":"B2094654DB6BAAFC489D","title":"上海之窗御景园","lon":"121.55239","lat":"31.22157","category":"47","category_name":"住宅区","address":"锦绣路888弄1-29号"},{"poiid":"B2094757D069A5FF4398","title":"出入境管理局咖啡厅","lon":"121.549943794","lat":"31.2217617086","category":"260","category_name":"其他","address":"浦东新区民生路1500号上海出入境管理局1楼(含笑路民生路)"},{"poiid":"B2094655D26EA2F4409C","title":"长荣大厦","lon":"121.55006","lat":"31.22619","category":"46","category_name":"楼宇","address":"民生路1199弄证大五道口广场2号楼(南楼)"},{"poiid":"B2094757D66BA2FC439A","title":"淳大万丽日本餐厅","lon":"121.55266408","lat":"31.22380449","category":"95","category_name":"日本料理","address":"长柳路100号淳大万丽酒店1楼近迎春路"},{"poiid":"B2094757D064AAF4479F","title":"丽膳屋","lon":"121.55359","lat":"31.22334","category":"95","category_name":"日本料理","address":"上海浦东新区长柳路100号淳大万丽酒店1楼(近迎春路)  "},{"poiid":"B2094757D06BA3FD4692","title":"乐柚炭烤(迎春路店)","lon":"121.5552","lat":"31.22429","category":"96","category_name":"韩国料理","address":"浦东新区迎春路813号(近长柳路)"},{"poiid":"B2094757D16EA7FE469B","title":"世纪皇冠假日酒店宴会厅","lon":"121.55053","lat":"31.22346","category":"76","category_name":"上海菜","address":"民生路1433号世纪皇冠假日酒店5楼(近迎春路)"},{"poiid":"B2094750D364ABFA489A","title":"上海新国际会展中心","lon":"121.550224","lat":"31.223012","category":"500","category_name":"未知分类","address":"浦东"},{"poiid":"B2094750D56DA7F4499A","title":"星巴克（宏嘉大厦店）","lon":"121.550765","lat":"31.223958","category":"247","category_name":"餐饮美食","address":"福山路388号"},{"poiid":"B2094757DB68A5F4409B","title":"淳大万丽酒店咖啡厅 RENAISSANCE BRASSERIE","lon":"121.552807054","lat":"31.223998793","category":"268","category_name":"自助","address":"浦东新区长柳路100号淳大万丽酒店2楼(近迎春路)"},{"poiid":"B2094654DA69A2F5449C","title":"天安花园","lon":"121.55541","lat":"31.222439","category":"47","category_name":"住宅区","address":"上海市浦东新区锦绣路800号"},{"poiid":"B2094655D36DA0FB469F","title":"迎春路民生路","lon":"121.54995","lat":"31.22274","category":"38","category_name":"公交车站","address":""},{"poiid":"B2094655D36DA0FB4698","title":"迎春路长柳路","lon":"121.5527","lat":"31.22357","category":"38","category_name":"公交车站","address":""},{"poiid":"B2094757D068A5FD4893","title":"联洋社区","lon":"121.55323028","lat":"31.226751327","category":"47","category_name":"住宅区","address":"上海丁香路"},{"poiid":"B2094655D26DA5F5449B","title":"金鹰大厦A栋","lon":"121.55009","lat":"31.21998","category":"46","category_name":"楼宇","address":"民生路1518"},{"poiid":"B2094654DB6BABF5449F","title":"金鹰大厦B栋","lon":"121.55049","lat":"31.22056","category":"46","category_name":"楼宇","address":"民生路1518"},{"poiid":"B2094655D26EA3FF499C","title":"华丽家族花园","lon":"121.55773","lat":"31.22375","category":"47","category_name":"住宅区","address":"上海市浦东新区锦绣路666号"},{"poiid":"B2094655D265AAFA429F","title":"菌菇老鸭粉丝煲","lon":"121.55415","lat":"31.22366","category":"86","category_name":"火锅店","address":"浦东新区迎春路798号(近民生路)"},{"poiid":"B2094655D268ABFD469A","title":"上海海事法院","lon":"121.5491","lat":"31.223","category":"608","category_name":"法院","address":"迎春路567号"},{"poiid":"B2094750D26EABFB4292","title":"吞拿家","lon":"121.553944","lat":"31.224024","category":"95","category_name":"日本料理","address":"浦东新区迎春路805号(近长柳路)"},{"poiid":"B2094654DA69A3FF4898","title":"上海市公安局出入境管理局","lon":"121.54994","lat":"31.22182","category":"252","category_name":"楼宇机构","address":"浦东新区民生路1500"},{"poiid":"B2094654DB6AA6F8409B","title":"上海淳大万丽酒店","lon":"121.55226","lat":"31.22385","category":"213","category_name":"五星级宾馆","address":"浦东新区长柳路100号(近迎春路)"},{"poiid":"B2094654DA69A2F54798","title":"世纪皇冠假日酒店","lon":"121.55118","lat":"31.22346","category":"213","category_name":"五星级宾馆","address":"浦东新区民生路1433号(近迎春路)"},{"poiid":"B2094654DA69A3FF4899","title":"上海浦东展览馆","lon":"121.54872","lat":"31.22144","category":"183","category_name":"展览馆","address":"浦东新区合欢路201号(迎春路口)"},{"poiid":"B2094655D26BA2F5439C","title":"浦东市民中心","lon":"121.54692","lat":"31.22326","category":"38","category_name":"公交车站","address":"合欢路2号"},{"poiid":"B2094654DB6BAAFC499A","title":"证大五道口广场","lon":"121.55026","lat":"31.22629","category":"45","category_name":"产业园区","address":"浦东新区民生路1199弄"},{"poiid":"B2094757D06FA0F44798","title":"上海浦东出入境检验检疫局","lon":"121.54857635","lat":"31.225637435","category":"500","category_name":"未知分类","address":"上海民生路1208号"},{"poiid":"B2094655D36DA0F8489F","title":"杨高中路地铁站","lon":"121.5487","lat":"31.22704","category":"36","category_name":"地铁站","address":"上海轨道交通 九号线 轨交杨高中路站 9"},{"poiid":"B2094654DB6BABF5459D","title":"世纪公园(二号门)","lon":"121.55191","lat":"31.21911","category":"680","category_name":"楼宇机构","address":"锦绣路901号"},{"poiid":"B2094757D069A3FE479C","title":"宝燕壹号","lon":"121.550677","lat":"31.224298","category":"75","category_name":"浙江菜","address":"浦东新区民生路1399号太平人寿大厦1-2楼(近丁香路)"},{"poiid":"B2094757D068A1FD409D","title":"和记小菜精菜坊","lon":"121.55141","lat":"31.22311","category":"76","category_name":"上海菜","address":"浦东新区民生路1433号世纪皇冠酒店3楼(近迎春路)"},{"poiid":"B2094757D06FAAFD499A","title":"中国银联","lon":"121.5502","lat":"31.22055","category":"46","category_name":"楼宇","address":"浦东新区含笑路36号银联大厦(含笑路民生路)"},{"poiid":"B2094757D068A0F4479C","title":"上海移动浦东大楼","lon":"121.549956738","lat":"31.2248151847","category":"500","category_name":"未知分类","address":"上海迎春路670号"},{"poiid":"B2094757D068A3FD439B","title":"上海人家精作坊(汇商店)","lon":"121.54943","lat":"31.22415","category":"76","category_name":"上海菜","address":"浦东新区民生路1286号汇商大厦3-4楼(丁香路口)"},{"poiid":"B2094757D16CA6FE409B","title":"世纪皇冠假日酒店咖啡园","lon":"121.551","lat":"31.22299","category":"268","category_name":"自助","address":"浦东新区民生路1433号上海世纪皇冠假日酒店1楼大堂(迎春路口)"},{"poiid":"B2094757D068A4F4489B","title":"上海移动民生大楼","lon":"121.55168467","lat":"31.2229133452","category":"46","category_name":"楼宇","address":"上海迎春路670号"},{"poiid":"B2094757D068A1F54693","title":"浦东新区青少年活动中心","lon":"121.54725","lat":"31.22036","category":"249","category_name":"购物服务","address":"上海浦东新区迎春路318号  "},{"poiid":"B2094757D664A2FC419A","title":"天家 浦东店","lon":"121.55253955661","lat":"31.225538360007","category":"95","category_name":"日本料理","address":"浦东新区长柳路105号(长柳路迎春路)"},{"poiid":"B2094757D06BA5FE4593","title":"万丽轩(淳大万丽店)","lon":"121.55297","lat":"31.22337","category":"72","category_name":"广东菜","address":"上海浦东新区长柳路100号淳大万丽酒店2楼(近迎春路)"},{"poiid":"B2094757D06FA5F94892","title":"金鹰大厦","lon":"121.556","lat":"31.2265","category":"46","category_name":"楼宇","address":"上海市平凉路1398号"},{"poiid":"B2094757D169A3FD489F","title":"世纪公园游乐园草坪","lon":"121.552391238","lat":"31.2227846414","category":"196","category_name":"公园","address":"上海世纪公园"},{"poiid":"B2094757D068A6F4459A","title":"富淳饭店(联洋店)","lon":"121.55282","lat":"31.22336","category":"72","category_name":"广东菜","address":"浦东新区长柳路100号淳大万丽酒店3楼(近迎春路)"},{"poiid":"B2094757D06AA4FA419E","title":"联洋年华","lon":"121.55396","lat":"31.224865","category":"500","category_name":"未知分类","address":"上海市浦东新区丁香路910号"},{"poiid":"B2094751D36CA5FD479C","title":"四季亭(民生路店)","lon":"121.55096","lat":"31.22329","category":"95","category_name":"日本料理","address":"浦东新区民生路1433号世纪皇冠假日酒店2楼(近迎春路路口)"},{"poiid":"B2094654DA69A2F44893","title":"太平人寿大厦","lon":"121.55068","lat":"31.22429","category":"46","category_name":"楼宇","address":"闸北区江场西路395号"},{"poiid":"B2094750D669A3F9499D","title":"古北汤馆","lon":"121.552215","lat":"31.224241","category":"247","category_name":"餐饮美食","address":"浦东新区长柳路58号(近迎春路)"},{"poiid":"B2094654DA69A2F44998","title":"联洋花园","lon":"121.55357","lat":"31.227642","category":"47","category_name":"住宅区","address":"丁香路901弄"},{"poiid":"B2094757D064A2F94792","title":"世纪紫澜","lon":"121.55291","lat":"31.21715","category":"72","category_name":"广东菜","address":"浦东新区锦绣路901号世纪公园2号门内"},{"poiid":"B2094757D16CAAFB419C","title":"上海银监局","lon":"121.54826773","lat":"31.224110169","category":"500","category_name":"未知分类","address":"上海合欢路35号"},{"poiid":"B2094654DA69A2F5479E","title":"中国移动旗舰店","lon":"121.55132","lat":"31.22282","category":"151","category_name":"电讯营业厅","address":"上海市浦东新区,迎春路670号(近民生路)"},{"poiid":"B2094654DB6BAAFC489D","title":"上海之窗御景园","lon":"121.55239","lat":"31.22157","category":"47","category_name":"住宅区","address":"锦绣路888弄1-29号"},{"poiid":"B2094757D069A5FF4398","title":"出入境管理局咖啡厅","lon":"121.549943794","lat":"31.2217617086","category":"260","category_name":"其他","address":"浦东新区民生路1500号上海出入境管理局1楼(含笑路民生路)"},{"poiid":"B2094655D26EA2F4409C","title":"长荣大厦","lon":"121.55006","lat":"31.22619","category":"46","category_name":"楼宇","address":"民生路1199弄证大五道口广场2号楼(南楼)"},{"poiid":"B2094757D66BA2FC439A","title":"淳大万丽日本餐厅","lon":"121.55266408","lat":"31.22380449","category":"95","category_name":"日本料理","address":"长柳路100号淳大万丽酒店1楼近迎春路"},{"poiid":"B2094757D064AAF4479F","title":"丽膳屋","lon":"121.55359","lat":"31.22334","category":"95","category_name":"日本料理","address":"上海浦东新区长柳路100号淳大万丽酒店1楼(近迎春路)  "},{"poiid":"B2094757D06BA3FD4692","title":"乐柚炭烤(迎春路店)","lon":"121.5552","lat":"31.22429","category":"96","category_name":"韩国料理","address":"浦东新区迎春路813号(近长柳路)"},{"poiid":"B2094757D16EA7FE469B","title":"世纪皇冠假日酒店宴会厅","lon":"121.55053","lat":"31.22346","category":"76","category_name":"上海菜","address":"民生路1433号世纪皇冠假日酒店5楼(近迎春路)"},{"poiid":"B2094750D364ABFA489A","title":"上海新国际会展中心","lon":"121.550224","lat":"31.223012","category":"500","category_name":"未知分类","address":"浦东"},{"poiid":"B2094750D56DA7F4499A","title":"星巴克（宏嘉大厦店）","lon":"121.550765","lat":"31.223958","category":"247","category_name":"餐饮美食","address":"福山路388号"},{"poiid":"B2094757DB68A5F4409B","title":"淳大万丽酒店咖啡厅 RENAISSANCE BRASSERIE","lon":"121.552807054","lat":"31.223998793","category":"268","category_name":"自助","address":"浦东新区长柳路100号淳大万丽酒店2楼(近迎春路)"},{"poiid":"B2094654DA69A2F5449C","title":"天安花园","lon":"121.55541","lat":"31.222439","category":"47","category_name":"住宅区","address":"上海市浦东新区锦绣路800号"},{"poiid":"B2094655D36DA0FB469F","title":"迎春路民生路","lon":"121.54995","lat":"31.22274","category":"38","category_name":"公交车站","address":""},{"poiid":"B2094655D36DA0FB4698","title":"迎春路长柳路","lon":"121.5527","lat":"31.22357","category":"38","category_name":"公交车站","address":""},{"poiid":"B2094757D068A5FD4893","title":"联洋社区","lon":"121.55323028","lat":"31.226751327","category":"47","category_name":"住宅区","address":"上海丁香路"},{"poiid":"B2094655D26DA5F5449B","title":"金鹰大厦A栋","lon":"121.55009","lat":"31.21998","category":"46","category_name":"楼宇","address":"民生路1518"},{"poiid":"B2094654DB6BABF5449F","title":"金鹰大厦B栋","lon":"121.55049","lat":"31.22056","category":"46","category_name":"楼宇","address":"民生路1518"},{"poiid":"B2094655D26EA3FF499C","title":"华丽家族花园","lon":"121.55773","lat":"31.22375","category":"47","category_name":"住宅区","address":"上海市浦东新区锦绣路666号"},{"poiid":"B2094655D265AAFA429F","title":"菌菇老鸭粉丝煲","lon":"121.55415","lat":"31.22366","category":"86","category_name":"火锅店","address":"浦东新区迎春路798号(近民生路)"},{"poiid":"B2094655D268ABFD469A","title":"上海海事法院","lon":"121.5491","lat":"31.223","category":"608","category_name":"法院","address":"迎春路567号"},{"poiid":"B2094750D26EABFB4292","title":"吞拿家","lon":"121.553944","lat":"31.224024","category":"95","category_name":"日本料理","address":"浦东新区迎春路805号(近长柳路)"},{"poiid":"B2094654DA69A3FF4898","title":"上海市公安局出入境管理局","lon":"121.54994","lat":"31.22182","category":"252","category_name":"楼宇机构","address":"浦东新区民生路1500"},{"poiid":"B2094654DB6AA6F8409B","title":"上海淳大万丽酒店","lon":"121.55226","lat":"31.22385","category":"213","category_name":"五星级宾馆","address":"浦东新区长柳路100号(近迎春路)"},{"poiid":"B2094654DA69A2F54798","title":"世纪皇冠假日酒店","lon":"121.55118","lat":"31.22346","category":"213","category_name":"五星级宾馆","address":"浦东新区民生路1433号(近迎春路)"},{"poiid":"B2094654DA69A3FF4899","title":"上海浦东展览馆","lon":"121.54872","lat":"31.22144","category":"183","category_name":"展览馆","address":"浦东新区合欢路201号(迎春路口)"},{"poiid":"B2094655D26BA2F5439C","title":"浦东市民中心","lon":"121.54692","lat":"31.22326","category":"38","category_name":"公交车站","address":"合欢路2号"},{"poiid":"B2094654DB6BAAFC499A","title":"证大五道口广场","lon":"121.55026","lat":"31.22629","category":"45","category_name":"产业园区","address":"浦东新区民生路1199弄"},{"poiid":"B2094757D06FA0F44798","title":"上海浦东出入境检验检疫局","lon":"121.54857635","lat":"31.225637435","category":"500","category_name":"未知分类","address":"上海民生路1208号"},{"poiid":"B2094655D36DA0F8489F","title":"杨高中路地铁站","lon":"121.5487","lat":"31.22704","category":"36","category_name":"地铁站","address":"上海轨道交通 九号线 轨交杨高中路站 9"},{"poiid":"B2094654DB6BABF5459D","title":"世纪公园(二号门)","lon":"121.55191","lat":"31.21911","category":"680","category_name":"楼宇机构","address":"锦绣路901号"},{"poiid":"B2094757D069A3FE479C","title":"宝燕壹号","lon":"121.550677","lat":"31.224298","category":"75","category_name":"浙江菜","address":"浦东新区民生路1399号太平人寿大厦1-2楼(近丁香路)"},{"poiid":"B2094757D068A1FD409D","title":"和记小菜精菜坊","lon":"121.55141","lat":"31.22311","category":"76","category_name":"上海菜","address":"浦东新区民生路1433号世纪皇冠酒店3楼(近迎春路)"},{"poiid":"B2094757D06FAAFD499A","title":"中国银联","lon":"121.5502","lat":"31.22055","category":"46","category_name":"楼宇","address":"浦东新区含笑路36号银联大厦(含笑路民生路)"},{"poiid":"B2094757D068A0F4479C","title":"上海移动浦东大楼","lon":"121.549956738","lat":"31.2248151847","category":"500","category_name":"未知分类","address":"上海迎春路670号"},{"poiid":"B2094757D068A3FD439B","title":"上海人家精作坊(汇商店)","lon":"121.54943","lat":"31.22415","category":"76","category_name":"上海菜","address":"浦东新区民生路1286号汇商大厦3-4楼(丁香路口)"},{"poiid":"B2094757D16CA6FE409B","title":"世纪皇冠假日酒店咖啡园","lon":"121.551","lat":"31.22299","category":"268","category_name":"自助","address":"浦东新区民生路1433号上海世纪皇冠假日酒店1楼大堂(迎春路口)"},{"poiid":"B2094757D068A4F4489B","title":"上海移动民生大楼","lon":"121.55168467","lat":"31.2229133452","category":"46","category_name":"楼宇","address":"上海迎春路670号"},{"poiid":"B2094757D068A1F54693","title":"浦东新区青少年活动中心","lon":"121.54725","lat":"31.22036","category":"249","category_name":"购物服务","address":"上海浦东新区迎春路318号  "},{"poiid":"B2094757D664A2FC419A","title":"天家 浦东店","lon":"121.55253955661","lat":"31.225538360007","category":"95","category_name":"日本料理","address":"浦东新区长柳路105号(长柳路迎春路)"},{"poiid":"B2094757D06BA5FE4593","title":"万丽轩(淳大万丽店)","lon":"121.55297","lat":"31.22337","category":"72","category_name":"广东菜","address":"上海浦东新区长柳路100号淳大万丽酒店2楼(近迎春路)"},{"poiid":"B2094757D06FA5F94892","title":"金鹰大厦","lon":"121.556","lat":"31.2265","category":"46","category_name":"楼宇","address":"上海市平凉路1398号"},{"poiid":"B2094757D169A3FD489F","title":"世纪公园游乐园草坪","lon":"121.552391238","lat":"31.2227846414","category":"196","category_name":"公园","address":"上海世纪公园"},{"poiid":"B2094757D068A6F4459A","title":"富淳饭店(联洋店)","lon":"121.55282","lat":"31.22336","category":"72","category_name":"广东菜","address":"浦东新区长柳路100号淳大万丽酒店3楼(近迎春路)"},{"poiid":"B2094757D06AA4FA419E","title":"联洋年华","lon":"121.55396","lat":"31.224865","category":"500","category_name":"未知分类","address":"上海市浦东新区丁香路910号"},{"poiid":"B2094751D36CA5FD479C","title":"四季亭(民生路店)","lon":"121.55096","lat":"31.22329","category":"95","category_name":"日本料理","address":"浦东新区民生路1433号世纪皇冠假日酒店2楼(近迎春路路口)"},{"poiid":"B2094654DA69A2F44893","title":"太平人寿大厦","lon":"121.55068","lat":"31.22429","category":"46","category_name":"楼宇","address":"闸北区江场西路395号"},{"poiid":"B2094750D669A3F9499D","title":"古北汤馆","lon":"121.552215","lat":"31.224241","category":"247","category_name":"餐饮美食","address":"浦东新区长柳路58号(近迎春路)"},{"poiid":"B2094654DA69A2F44998","title":"联洋花园","lon":"121.55357","lat":"31.227642","category":"47","category_name":"住宅区","address":"丁香路901弄"},{"poiid":"B2094757D064A2F94792","title":"世纪紫澜","lon":"121.55291","lat":"31.21715","category":"72","category_name":"广东菜","address":"浦东新区锦绣路901号世纪公园2号门内"},{"poiid":"B2094757D16CAAFB419C","title":"上海银监局","lon":"121.54826773","lat":"31.224110169","category":"500","category_name":"未知分类","address":"上海合欢路35号"},{"poiid":"B2094654DA69A2F5479E","title":"中国移动旗舰店","lon":"121.55132","lat":"31.22282","category":"151","category_name":"电讯营业厅","address":"上海市浦东新区,迎春路670号(近民生路)"},{"poiid":"B2094654DB6BAAFC489D","title":"上海之窗御景园","lon":"121.55239","lat":"31.22157","category":"47","category_name":"住宅区","address":"锦绣路888弄1-29号"},{"poiid":"B2094757D069A5FF4398","title":"出入境管理局咖啡厅","lon":"121.549943794","lat":"31.2217617086","category":"260","category_name":"其他","address":"浦东新区民生路1500号上海出入境管理局1楼(含笑路民生路)"},{"poiid":"B2094655D26EA2F4409C","title":"长荣大厦","lon":"121.55006","lat":"31.22619","category":"46","category_name":"楼宇","address":"民生路1199弄证大五道口广场2号楼(南楼)"},{"poiid":"B2094757D66BA2FC439A","title":"淳大万丽日本餐厅","lon":"121.55266408","lat":"31.22380449","category":"95","category_name":"日本料理","address":"长柳路100号淳大万丽酒店1楼近迎春路"},{"poiid":"B2094757D064AAF4479F","title":"丽膳屋","lon":"121.55359","lat":"31.22334","category":"95","category_name":"日本料理","address":"上海浦东新区长柳路100号淳大万丽酒店1楼(近迎春路)  "},{"poiid":"B2094757D06BA3FD4692","title":"乐柚炭烤(迎春路店)","lon":"121.5552","lat":"31.22429","category":"96","category_name":"韩国料理","address":"浦东新区迎春路813号(近长柳路)"},{"poiid":"B2094757D16EA7FE469B","title":"世纪皇冠假日酒店宴会厅","lon":"121.55053","lat":"31.22346","category":"76","category_name":"上海菜","address":"民生路1433号世纪皇冠假日酒店5楼(近迎春路)"},{"poiid":"B2094750D364ABFA489A","title":"上海新国际会展中心","lon":"121.550224","lat":"31.223012","category":"500","category_name":"未知分类","address":"浦东"},{"poiid":"B2094750D56DA7F4499A","title":"星巴克（宏嘉大厦店）","lon":"121.550765","lat":"31.223958","category":"247","category_name":"餐饮美食","address":"福山路388号"},{"poiid":"B2094757DB68A5F4409B","title":"淳大万丽酒店咖啡厅 RENAISSANCE BRASSERIE","lon":"121.552807054","lat":"31.223998793","category":"268","category_name":"自助","address":"浦东新区长柳路100号淳大万丽酒店2楼(近迎春路)"},{"poiid":"B2094654DA69A2F5449C","title":"天安花园","lon":"121.55541","lat":"31.222439","category":"47","category_name":"住宅区","address":"上海市浦东新区锦绣路800号"},{"poiid":"B2094655D36DA0FB469F","title":"迎春路民生路","lon":"121.54995","lat":"31.22274","category":"38","category_name":"公交车站","address":""},{"poiid":"B2094655D36DA0FB4698","title":"迎春路长柳路","lon":"121.5527","lat":"31.22357","category":"38","category_name":"公交车站","address":""},{"poiid":"B2094757D068A5FD4893","title":"联洋社区","lon":"121.55323028","lat":"31.226751327","category":"47","category_name":"住宅区","address":"上海丁香路"},{"poiid":"B2094655D26DA5F5449B","title":"金鹰大厦A栋","lon":"121.55009","lat":"31.21998","category":"46","category_name":"楼宇","address":"民生路1518"},{"poiid":"B2094654DB6BABF5449F","title":"金鹰大厦B栋","lon":"121.55049","lat":"31.22056","category":"46","category_name":"楼宇","address":"民生路1518"},{"poiid":"B2094655D26EA3FF499C","title":"华丽家族花园","lon":"121.55773","lat":"31.22375","category":"47","category_name":"住宅区","address":"上海市浦东新区锦绣路666号"},{"poiid":"B2094655D265AAFA429F","title":"菌菇老鸭粉丝煲","lon":"121.55415","lat":"31.22366","category":"86","category_name":"火锅店","address":"浦东新区迎春路798号(近民生路)"},{"poiid":"B2094655D268ABFD469A","title":"上海海事法院","lon":"121.5491","lat":"31.223","category":"608","category_name":"法院","address":"迎春路567号"},{"poiid":"B2094750D26EABFB4292","title":"吞拿家","lon":"121.553944","lat":"31.224024","category":"95","category_name":"日本料理","address":"浦东新区迎春路805号(近长柳路)"}]