[{"poiid":"B2094757D06FA3FD4592","title":"同乐坊","lon":"121.44327","lat":"31.23616","category":"172","category_name":"酒吧","address":"静安区余姚路60号(近海防路)"},{"poiid":"B2094757DB68A5F9419C","title":"捞王猪肚鸡 静安店","lon":"121.442066","lat":"31.22995","category":"86","category_name":"火锅店","address":"静安区武定路1052号(胶州路口)"},{"poiid":"B2094757D66FA6FB429E","title":"星巴克 STARBUCKS (八百秀店)","lon":"121.44345","lat":"31.23283","category":"260","category_name":"其他","address":"静安区常德路800号八百秀(近昌平路)"},{"poiid":"B2094753D76FAAFA449C","title":"上海滩国泰旗舰店","lon":"121.466011","lat":"31.216125","category":"249","category_name":"购物服务","address":"淮海中路868号"},{"poiid":"B209475CD564A7F8439E","title":"上海滩中信泰富店","lon":"121.45602","lat":"31.22851","category":"119","category_name":"商场","address":"\"南京西路1168号中信泰富广场，店铺号221.\r\n\""},{"poiid":"B2094757D068A6FF4992","title":"泰爱","lon":"121.44360638","lat":"31.232807379","category":"99","category_name":"泰国／越南菜品餐厅","address":"静安区常德路800号(昌平路常德路)"},{"poiid":"B2094757D06FA6F5409F","title":"静安区图书馆","lon":"121.44523","lat":"31.22856","category":"181","category_name":"图书馆","address":"静安区新闸路1708号(近胶州路)"},{"poiid":"B2094757D068ABFD499E","title":"钨节路休闲餐厅","lon":"121.44386","lat":"31.22794","category":"110","category_name":"其他亚洲菜","address":"静安区新闸路1788号(近胶州路)"},{"poiid":"B2094654D565ABF5409F","title":"沃歌斯(胶州路)","lon":"121.44314","lat":"31.22821","category":"94","category_name":"西餐厅","address":"静安区胶州路265号1楼(近新闸路)"},{"poiid":"B2094750D56EA0F4449D","title":"Indulge BRASSERIE&WINE","lon":"121.443214","lat":"31.232238","category":"247","category_name":"餐饮美食","address":"静安区常德路800号A3-1楼(近地铁7号线昌平路站)"},{"poiid":"B2094750D26FA7F84598","title":"UVA Wine Bar","lon":"121.4447","lat":"31.23062","category":"260","category_name":"其他","address":"静安区陕西北路819号(近康定路)"},{"poiid":"B2094655D264A0FB439F","title":"静安枫景","lon":"121.4465","lat":"31.23043","category":"47","category_name":"住宅区","address":"上海市静安区常德路500弄"},{"poiid":"B2094757D06FA6F4469C","title":"珊珊小笼馆(康定路店)","lon":"121.443","lat":"31.23154","category":"68","category_name":"快餐厅","address":"静安区康定路749号(近胶州路)"},{"poiid":"B2094757D069ABF8429E","title":"胶州路武定路","lon":"121.442456","lat":"31.230476","category":"500","category_name":"未知分类","address":"上海胶州路武定路"},{"poiid":"B2094757D06AA1FB439B","title":"Munchies 梦奇屋 (武定路店)","lon":"121.44311518","lat":"31.230294607","category":"94","category_name":"西餐厅","address":"静安区武定路974号(近胶州路)"},{"poiid":"B2094751D465A1F84999","title":"Lab. whisky & cocktail","lon":"121.441904","lat":"31.229786","category":"247","category_name":"餐饮美食","address":"上海市靜安區武定路1093號"},{"poiid":"B2094750D26BA5F54792","title":"Enoterra","lon":"121.442565","lat":"31.229871","category":"247","category_name":"餐饮美食","address":"静安区武定路1075号(近胶州路)"},{"poiid":"B209475CD36CA3FE469C","title":"松饼先生 武定路店 Mr Pancake House","lon":"121.4448","lat":"31.23065","category":"101","category_name":"美式风味","address":"武定路877号(近常德路)"},{"poiid":"B2094654DB64A7FA4799","title":"新闸路营业厅","lon":"121.44509","lat":"31.22851","category":"151","category_name":"电讯营业厅","address":"新闸路1711号"},{"poiid":"B2094654DA6CA2FC4292","title":"上海戏剧学院附属高级中学","lon":"121.44225","lat":"31.23205","category":"55","category_name":"中学","address":"静安区康定路770号(近胶州路)"},{"poiid":"B2094757D069A7F4439C","title":"BONO SALON","lon":"121.44503","lat":"31.23058","category":"148","category_name":"美容美发店","address":"上海静安区武定路870号(近常德路)"},{"poiid":"B2094757D069ABFD439D","title":"常德路新闸路","lon":"121.446208","lat":"31.230472","category":"500","category_name":"未知分类","address":"上海常德路新闸路口"},{"poiid":"B2094757D069A7F5499B","title":"江宁路地段医院","lon":"121.44378","lat":"31.23125","category":"162","category_name":"医院","address":"上海静安区康定路733弄70号(近常德路)  "},{"poiid":"B2094654D565ABFA459B","title":"上海市公安局静安分局","lon":"121.44205","lat":"31.23086","category":"248","category_name":"生活娱乐","address":"胶州路415"},{"poiid":"B2094752D369A5F8499A","title":"WINE MUST 红酒吧","lon":"121.44460557002","lat":"31.230413190145","category":"111","category_name":"休闲餐饮场所","address":"武定路881号"},{"poiid":"B2094655D26DA4F84998","title":"大家乐","lon":"121.44527","lat":"31.23114","category":"112","category_name":"糕饼店","address":"常德路610-1"},{"poiid":"B2094654DA6CA3F5499E","title":"华祺大厦","lon":"121.44375","lat":"31.2302","category":"46","category_name":"楼宇","address":"武定路969、975、979号"},{"poiid":"B2094757D16EABFB449F","title":"星巴克Starbucks(太古汇店)","lon":"121.445446886","lat":"31.2312458509","category":"247","category_name":"餐饮美食","address":"广州天河区天河东路75号太古汇(近地铁石牌桥站D出口)"},{"poiid":"B2094655D26DA2FF499A","title":"恒德里(常德路)","lon":"121.44431","lat":"31.23121","category":"47","category_name":"住宅区","address":"常德路633弄4-150号"},{"poiid":"B2094757D06AA0FC489E","title":"川妹子麻辣烫","lon":"121.442894697","lat":"31.2320396716","category":"68","category_name":"快餐厅","address":"静安区康定路740号(近常德路)"},{"poiid":"B2094654DA6CA3FB4599","title":"静安枫景苑(新闸路)","lon":"121.44695","lat":"31.23073","category":"47","category_name":"住宅区","address":"上海静安区新闸路1550号(近常德路)"},{"poiid":"B2094757D16DABFF4592","title":"静安区常德书法幼儿园(分园)","lon":"121.44430158","lat":"31.230486436","category":"500","category_name":"未知分类","address":"上海武定路932号"},{"poiid":"B2094750DB6FA4FB419E","title":"若然雅居","lon":"121.44485","lat":"31.23066","category":"260","category_name":"其他","address":"静安区武定路873号1-4楼(近常德路)"},{"poiid":"B2094655D26BA2FC459D","title":"武定路常德路","lon":"121.44334","lat":"31.23031","category":"38","category_name":"公交车站","address":""},{"poiid":"B2094654DA6CA2FC4098","title":"齐善素食(武定路)","lon":"121.44376","lat":"31.23021","category":"257","category_name":"中餐厅","address":"静安区武定路969号华祺大厦1楼(近常德路)"},{"poiid":"B2094752D268ABFF4193","title":"881創意園","lon":"121.444876","lat":"31.230308","category":"252","category_name":"楼宇机构","address":"武定路881號"},{"poiid":"B2094757D169A0F9409F","title":"静安区游泳馆","lon":"121.44489","lat":"31.23032","category":"220","category_name":"运动场所","address":"上海静安区武定路423号  "},{"poiid":"B2094757D16EA6FF4592","title":"上戏附中","lon":"121.443183386","lat":"31.2318746632","category":"253","category_name":"校园生活","address":"上海康定路770"},{"poiid":"B2094757D069A2F94793","title":"美味坊","lon":"121.44356","lat":"31.22825","category":"76","category_name":"上海菜","address":"静安区胶州路273弄58号枫蓝商务酒店内(近新闸路)"},{"poiid":"B2094654DA6CA2FD459A","title":"中邮苑","lon":"121.44382","lat":"31.229908","category":"47","category_name":"住宅区","address":"上海武定路989弄3号楼"},{"poiid":"B2094655D26DA2FF499B","title":"恒德里(东门)","lon":"121.44466","lat":"31.23142","category":"47","category_name":"住宅区","address":"常德路633弄4-150号"},{"poiid":"B2094757D765A4FF4499","title":"达美乐比萨 武定路店 Domino's Pizza","lon":"121.44223","lat":"31.22996","category":"94","category_name":"西餐厅","address":"静安区武定路1050号(近胶州路)"},{"poiid":"B2094753D764A0FF429D","title":"正大广场","lon":"121.445625","lat":"31.230154","category":"500","category_name":"未知分类","address":"上海市 陆家嘴中心"},{"poiid":"B2094757D16FABF54592","title":"康定路常德路公交站","lon":"121.444424","lat":"31.231914","category":"38","category_name":"公交车站","address":"上海静安区康定路(近常德路)"},{"poiid":"B2094654DB6AA3FB4798","title":"工行康定路支行","lon":"121.44362","lat":"31.2322","category":"150","category_name":"银行","address":"静安区康定路699路"},{"poiid":"B2094654DA6CA2FD4492","title":"上海静安建筑装饰实业股份有限公司","lon":"121.44419","lat":"31.23042","category":"263","category_name":"公司","address":"武定路路923-1、925"},{"poiid":"B2094654DB6BA6FB4298","title":"锦江之星(上海胶州路店)","lon":"121.44263","lat":"31.22945","category":"216","category_name":"经济型连锁酒店","address":"上海静安区胶州路339号(近武定路)  "},{"poiid":"B2094757D168AAF44792","title":"静安区商委","lon":"121.44374847","lat":"31.230207443","category":"500","category_name":"未知分类","address":"上海武定路969号"},{"poiid":"B2094655D36CA1F5479F","title":"康定路常德路","lon":"121.44337","lat":"31.23228","category":"38","category_name":"公交车站","address":""},{"poiid":"B2094750D36EAAF54793","title":"paradox","lon":"121.444557","lat":"31.23071","category":"260","category_name":"其他","address":"静安区武定路890号(近常德路)"},{"poiid":"B2094757D06FA3FD4592","title":"同乐坊","lon":"121.44327","lat":"31.23616","category":"172","category_name":"酒吧","address":"静安区余姚路60号(近海防路)"},{"poiid":"B2094757DB68A5F9419C","title":"捞王猪肚鸡 静安店","lon":"121.442066","lat":"31.22995","category":"86","category_name":"火锅店","address":"静安区武定路1052号(胶州路口)"},{"poiid":"B2094757D66FA6FB429E","title":"星巴克 STARBUCKS (八百秀店)","lon":"121.44345","lat":"31.23283","category":"260","category_name":"其他","address":"静安区常德路800号八百秀(近昌平路)"},{"poiid":"B2094753D76FAAFA449C","title":"上海滩国泰旗舰店","lon":"121.466011","lat":"31.216125","category":"249","category_name":"购物服务","address":"淮海中路868号"},{"poiid":"B209475CD564A7F8439E","title":"上海滩中信泰富店","lon":"121.45602","lat":"31.22851","category":"119","category_name":"商场","address":"\"南京西路1168号中信泰富广场，店铺号221.\r\n\""},{"poiid":"B2094757D068A6FF4992","title":"泰爱","lon":"121.44360638","lat":"31.232807379","category":"99","category_name":"泰国／越南菜品餐厅","address":"静安区常德路800号(昌平路常德路)"},{"poiid":"B2094757D06FA6F5409F","title":"静安区图书馆","lon":"121.44523","lat":"31.22856","category":"181","category_name":"图书馆","address":"静安区新闸路1708号(近胶州路)"},{"poiid":"B2094757D068ABFD499E","title":"钨节路休闲餐厅","lon":"121.44386","lat":"31.22794","category":"110","category_name":"其他亚洲菜","address":"静安区新闸路1788号(近胶州路)"},{"poiid":"B2094654D565ABF5409F","title":"沃歌斯(胶州路)","lon":"121.44314","lat":"31.22821","category":"94","category_name":"西餐厅","address":"静安区胶州路265号1楼(近新闸路)"},{"poiid":"B2094750D56EA0F4449D","title":"Indulge BRASSERIE&WINE","lon":"121.443214","lat":"31.232238","category":"247","category_name":"餐饮美食","address":"静安区常德路800号A3-1楼(近地铁7号线昌平路站)"},{"poiid":"B2094750D26FA7F84598","title":"UVA Wine Bar","lon":"121.4447","lat":"31.23062","category":"260","category_name":"其他","address":"静安区陕西北路819号(近康定路)"},{"poiid":"B2094655D264A0FB439F","title":"静安枫景","lon":"121.4465","lat":"31.23043","category":"47","category_name":"住宅区","address":"上海市静安区常德路500弄"},{"poiid":"B2094757D06FA6F4469C","title":"珊珊小笼馆(康定路店)","lon":"121.443","lat":"31.23154","category":"68","category_name":"快餐厅","address":"静安区康定路749号(近胶州路)"},{"poiid":"B2094757D069ABF8429E","title":"胶州路武定路","lon":"121.442456","lat":"31.230476","category":"500","category_name":"未知分类","address":"上海胶州路武定路"},{"poiid":"B2094757D06AA1FB439B","title":"Munchies 梦奇屋 (武定路店)","lon":"121.44311518","lat":"31.230294607","category":"94","category_name":"西餐厅","address":"静安区武定路974号(近胶州路)"},{"poiid":"B2094751D465A1F84999","title":"Lab. whisky & cocktail","lon":"121.441904","lat":"31.229786","category":"247","category_name":"餐饮美食","address":"上海市靜安區武定路1093號"},{"poiid":"B2094750D26BA5F54792","title":"Enoterra","lon":"121.442565","lat":"31.229871","category":"247","category_name":"餐饮美食","address":"静安区武定路1075号(近胶州路)"},{"poiid":"B209475CD36CA3FE469C","title":"松饼先生 武定路店 Mr Pancake House","lon":"121.4448","lat":"31.23065","category":"101","category_name":"美式风味","address":"武定路877号(近常德路)"},{"poiid":"B2094654DB64A7FA4799","title":"新闸路营业厅","lon":"121.44509","lat":"31.22851","category":"151","category_name":"电讯营业厅","address":"新闸路1711号"},{"poiid":"B2094654DA6CA2FC4292","title":"上海戏剧学院附属高级中学","lon":"121.44225","lat":"31.23205","category":"55","category_name":"中学","address":"静安区康定路770号(近胶州路)"},{"poiid":"B2094757D069A7F4439C","title":"BONO SALON","lon":"121.44503","lat":"31.23058","category":"148","category_name":"美容美发店","address":"上海静安区武定路870号(近常德路)"},{"poiid":"B2094757D069ABFD439D","title":"常德路新闸路","lon":"121.446208","lat":"31.230472","category":"500","category_name":"未知分类","address":"上海常德路新闸路口"},{"poiid":"B2094757D069A7F5499B","title":"江宁路地段医院","lon":"121.44378","lat":"31.23125","category":"162","category_name":"医院","address":"上海静安区康定路733弄70号(近常德路)  "},{"poiid":"B2094654D565ABFA459B","title":"上海市公安局静安分局","lon":"121.44205","lat":"31.23086","category":"248","category_name":"生活娱乐","address":"胶州路415"},{"poiid":"B2094752D369A5F8499A","title":"WINE MUST 红酒吧","lon":"121.44460557002","lat":"31.230413190145","category":"111","category_name":"休闲餐饮场所","address":"武定路881号"},{"poiid":"B2094655D26DA4F84998","title":"大家乐","lon":"121.44527","lat":"31.23114","category":"112","category_name":"糕饼店","address":"常德路610-1"},{"poiid":"B2094654DA6CA3F5499E","title":"华祺大厦","lon":"121.44375","lat":"31.2302","category":"46","category_name":"楼宇","address":"武定路969、975、979号"},{"poiid":"B2094757D16EABFB449F","title":"星巴克Starbucks(太古汇店)","lon":"121.445446886","lat":"31.2312458509","category":"247","category_name":"餐饮美食","address":"广州天河区天河东路75号太古汇(近地铁石牌桥站D出口)"},{"poiid":"B2094655D26DA2FF499A","title":"恒德里(常德路)","lon":"121.44431","lat":"31.23121","category":"47","category_name":"住宅区","address":"常德路633弄4-150号"},{"poiid":"B2094757D06AA0FC489E","title":"川妹子麻辣烫","lon":"121.442894697","lat":"31.2320396716","category":"68","category_name":"快餐厅","address":"静安区康定路740号(近常德路)"},{"poiid":"B2094654DA6CA3FB4599","title":"静安枫景苑(新闸路)","lon":"121.44695","lat":"31.23073","category":"47","category_name":"住宅区","address":"上海静安区新闸路1550号(近常德路)"},{"poiid":"B2094757D16DABFF4592","title":"静安区常德书法幼儿园(分园)","lon":"121.44430158","lat":"31.230486436","category":"500","category_name":"未知分类","address":"上海武定路932号"},{"poiid":"B2094750DB6FA4FB419E","title":"若然雅居","lon":"121.44485","lat":"31.23066","category":"260","category_name":"其他","address":"静安区武定路873号1-4楼(近常德路)"},{"poiid":"B2094655D26BA2FC459D","title":"武定路常德路","lon":"121.44334","lat":"31.23031","category":"38","category_name":"公交车站","address":""},{"poiid":"B2094654DA6CA2FC4098","title":"齐善素食(武定路)","lon":"121.44376","lat":"31.23021","category":"257","category_name":"中餐厅","address":"静安区武定路969号华祺大厦1楼(近常德路)"},{"poiid":"B2094752D268ABFF4193","title":"881創意園","lon":"121.444876","lat":"31.230308","category":"252","category_name":"楼宇机构","address":"武定路881號"},{"poiid":"B2094757D169A0F9409F","title":"静安区游泳馆","lon":"121.44489","lat":"31.23032","category":"220","category_name":"运动场所","address":"上海静安区武定路423号  "},{"poiid":"B2094757D16EA6FF4592","title":"上戏附中","lon":"121.443183386","lat":"31.2318746632","category":"253","category_name":"校园生活","address":"上海康定路770"},{"poiid":"B2094757D069A2F94793","title":"美味坊","lon":"121.44356","lat":"31.22825","category":"76","category_name":"上海菜","address":"静安区胶州路273弄58号枫蓝商务酒店内(近新闸路)"},{"poiid":"B2094654DA6CA2FD459A","title":"中邮苑","lon":"121.44382","lat":"31.229908","category":"47","category_name":"住宅区","address":"上海武定路989弄3号楼"},{"poiid":"B2094655D26DA2FF499B","title":"恒德里(东门)","lon":"121.44466","lat":"31.23142","category":"47","category_name":"住宅区","address":"常德路633弄4-150号"},{"poiid":"B2094757D765A4FF4499","title":"达美乐比萨 武定路店 Domino's Pizza","lon":"121.44223","lat":"31.22996","category":"94","category_name":"西餐厅","address":"静安区武定路1050号(近胶州路)"},{"poiid":"B2094753D764A0FF429D","title":"正大广场","lon":"121.445625","lat":"31.230154","category":"500","category_name":"未知分类","address":"上海市 陆家嘴中心"},{"poiid":"B2094757D16FABF54592","title":"康定路常德路公交站","lon":"121.444424","lat":"31.231914","category":"38","category_name":"公交车站","address":"上海静安区康定路(近常德路)"},{"poiid":"B2094654DB6AA3FB4798","title":"工行康定路支行","lon":"121.44362","lat":"31.2322","category":"150","category_name":"银行","address":"静安区康定路699路"},{"poiid":"B2094654DA6CA2FD4492","title":"上海静安建筑装饰实业股份有限公司","lon":"121.44419","lat":"31.23042","category":"263","category_name":"公司","address":"武定路路923-1、925"},{"poiid":"B2094654DB6BA6FB4298","title":"锦江之星(上海胶州路店)","lon":"121.44263","lat":"31.22945","category":"216","category_name":"经济型连锁酒店","address":"上海静安区胶州路339号(近武定路)  "},{"poiid":"B2094757D168AAF44792","title":"静安区商委","lon":"121.44374847","lat":"31.230207443","category":"500","category_name":"未知分类","address":"上海武定路969号"},{"poiid":"B2094655D36CA1F5479F","title":"康定路常德路","lon":"121.44337","lat":"31.23228","category":"38","category_name":"公交车站","address":""},{"poiid":"B2094750D36EAAF54793","title":"paradox","lon":"121.444557","lat":"31.23071","category":"260","category_name":"其他","address":"静安区武定路890号(近常德路)"},{"poiid":"B2094757D06FA3FD4592","title":"同乐坊","lon":"121.44327","lat":"31.23616","category":"172","category_name":"酒吧","address":"静安区余姚路60号(近海防路)"},{"poiid":"B2094757DB68A5F9419C","title":"捞王猪肚鸡 静安店","lon":"121.442066","lat":"31.22995","category":"86","category_name":"火锅店","address":"静安区武定路1052号(胶州路口)"},{"poiid":"B2094757D66FA6FB429E","title":"星巴克 STARBUCKS (八百秀店)","lon":"121.44345","lat":"31.23283","category":"260","category_name":"其他","address":"静安区常德路800号八百秀(近昌平路)"},{"poiid":"B2094753D76FAAFA449C","title":"上海滩国泰旗舰店","lon":"121.466011","lat":"31.216125","category":"249","category_name":"购物服务","address":"淮海中路868号"},{"poiid":"B209475CD564A7F8439E","title":"上海滩中信泰富店","lon":"121.45602","lat":"31.22851","category":"119","category_name":"商场","address":"\"南京西路1168号中信泰富广场，店铺号221.\r\n\""},{"poiid":"B2094757D068A6FF4992","title":"泰爱","lon":"121.44360638","lat":"31.232807379","category":"99","category_name":"泰国／越南菜品餐厅","address":"静安区常德路800号(昌平路常德路)"},{"poiid":"B2094757D06FA6F5409F","title":"静安区图书馆","lon":"121.44523","lat":"31.22856","category":"181","category_name":"图书馆","address":"静安区新闸路1708号(近胶州路)"},{"poiid":"B2094757D068ABFD499E","title":"钨节路休闲餐厅","lon":"121.44386","lat":"31.22794","category":"110","category_name":"其他亚洲菜","address":"静安区新闸路1788号(近胶州路)"},{"poiid":"B2094654D565ABF5409F","title":"沃歌斯(胶州路)","lon":"121.44314","lat":"31.22821","category":"94","category_name":"西餐厅","address":"静安区胶州路265号1楼(近新闸路)"},{"poiid":"B2094750D56EA0F4449D","title":"Indulge BRASSERIE&WINE","lon":"121.443214","lat":"31.232238","category":"247","category_name":"餐饮美食","address":"静安区常德路800号A3-1楼(近地铁7号线昌平路站)"},{"poiid":"B2094750D26FA7F84598","title":"UVA Wine Bar","lon":"121.4447","lat":"31.23062","category":"260","category_name":"其他","address":"静安区陕西北路819号(近康定路)"},{"poiid":"B2094655D264A0FB439F","title":"静安枫景","lon":"121.4465","lat":"31.23043","category":"47","category_name":"住宅区","address":"上海市静安区常德路500弄"},{"poiid":"B2094757D06FA6F4469C","title":"珊珊小笼馆(康定路店)","lon":"121.443","lat":"31.23154","category":"68","category_name":"快餐厅","address":"静安区康定路749号(近胶州路)"},{"poiid":"B2094757D069ABF8429E","title":"胶州路武定路","lon":"121.442456","lat":"31.230476","category":"500","category_name":"未知分类","address":"上海胶州路武定路"},{"poiid":"B2094757D06AA1FB439B","title":"Munchies 梦奇屋 (武定路店)","lon":"121.44311518","lat":"31.230294607","category":"94","category_name":"西餐厅","address":"静安区武定路974号(近胶州路)"},{"poiid":"B2094751D465A1F84999","title":"Lab. whisky & cocktail","lon":"121.441904","lat":"31.229786","category":"247","category_name":"餐饮美食","address":"上海市靜安區武定路1093號"},{"poiid":"B2094750D26BA5F54792","title":"Enoterra","lon":"121.442565","lat":"31.229871","category":"247","category_name":"餐饮美食","address":"静安区武定路1075号(近胶州路)"},{"poiid":"B209475CD36CA3FE469C","title":"松饼先生 武定路店 Mr Pancake House","lon":"121.4448","lat":"31.23065","category":"101","category_name":"美式风味","address":"武定路877号(近常德路)"},{"poiid":"B2094654DB64A7FA4799","title":"新闸路营业厅","lon":"121.44509","lat":"31.22851","category":"151","category_name":"电讯营业厅","address":"新闸路1711号"},{"poiid":"B2094654DA6CA2FC4292","title":"上海戏剧学院附属高级中学","lon":"121.44225","lat":"31.23205","category":"55","category_name":"中学","address":"静安区康定路770号(近胶州路)"},{"poiid":"B2094757D069A7F4439C","title":"BONO SALON","lon":"121.44503","lat":"31.23058","category":"148","category_name":"美容美发店","address":"上海静安区武定路870号(近常德路)"},{"poiid":"B2094757D069ABFD439D","title":"常德路新闸路","lon":"121.446208","lat":"31.230472","category":"500","category_name":"未知分类","address":"上海常德路新闸路口"},{"poiid":"B2094757D069A7F5499B","title":"江宁路地段医院","lon":"121.44378","lat":"31.23125","category":"162","category_name":"医院","address":"上海静安区康定路733弄70号(近常德路)  "},{"poiid":"B2094654D565ABFA459B","title":"上海市公安局静安分局","lon":"121.44205","lat":"31.23086","category":"248","category_name":"生活娱乐","address":"胶州路415"},{"poiid":"B2094752D369A5F8499A","title":"WINE MUST 红酒吧","lon":"121.44460557002","lat":"31.230413190145","category":"111","category_name":"休闲餐饮场所","address":"武定路881号"},{"poiid":"B2094655D26DA4F84998","title":"大家乐","lon":"121.44527","lat":"31.23114","category":"112","category_name":"糕饼店","address":"常德路610-1"},{"poiid":"B2094654DA6CA3F5499E","title":"华祺大厦","lon":"121.44375","lat":"31.2302","category":"46","category_name":"楼宇","address":"武定路969、975、979号"},{"poiid":"B2094757D16EABFB449F","title":"星巴克Starbucks(太古汇店)","lon":"121.445446886","lat":"31.2312458509","category":"247","category_name":"餐饮美食","address":"广州天河区天河东路75号太古汇(近地铁石牌桥站D出口)"},{"poiid":"B2094655D26DA2FF499A","title":"恒德里(常德路)","lon":"121.44431","lat":"31.23121","category":"47","category_name":"住宅区","address":"常德路633弄4-150号"},{"poiid":"B2094757D06AA0FC489E","title":"川妹子麻辣烫","lon":"121.442894697","lat":"31.2320396716","category":"68","category_name":"快餐厅","address":"静安区康定路740号(近常德路)"},{"poiid":"B2094654DA6CA3FB4599","title":"静安枫景苑(新闸路)","lon":"121.44695","lat":"31.23073","category":"47","category_name":"住宅区","address":"上海静安区新闸路1550号(近常德路)"},{"poiid":"B2094757D16DABFF4592","title":"静安区常德书法幼儿园(分园)","lon":"121.44430158","lat":"31.230486436","category":"500","category_name":"未知分类","address":"上海武定路932号"},{"poiid":"B2094750DB6FA4FB419E","title":"若然雅居","lon":"121.44485","lat":"31.23066","category":"260","category_name":"其他","address":"静安区武定路873号1-4楼(近常德路)"},{"poiid":"B2094655D26BA2FC459D","title":"武定路常德路","lon":"121.44334","lat":"31.23031","category":"38","category_name":"公交车站","address":""},{"poiid":"B2094654DA6CA2FC4098","title":"齐善素食(武定路)","lon":"121.44376","lat":"31.23021","category":"257","category_name":"中餐厅","address":"静安区武定路969号华祺大厦1楼(近常德路)"},{"poiid":"B2094752D268ABFF4193","title":"881創意園","lon":"121.444876","lat":"31.230308","category":"252","category_name":"楼宇机构","address":"武定路881號"},{"poiid":"B2094757D169A0F9409F","title":"静安区游泳馆","lon":"121.44489","lat":"31.23032","category":"220","category_name":"运动场所","address":"上海静安区武定路423号  "},{"poiid":"B2094757D16EA6FF4592","title":"上戏附中","lon":"121.443183386","lat":"31.2318746632","category":"253","category_name":"校园生活","address":"上海康定路770"},{"poiid":"B2094757D069A2F94793","title":"美味坊","lon":"121.44356","lat":"31.22825","category":"76","category_name":"上海菜","address":"静安区胶州路273弄58号枫蓝商务酒店内(近新闸路)"},{"poiid":"B2094654DA6CA2FD459A","title":"中邮苑","lon":"121.44382","lat":"31.229908","category":"47","category_name":"住宅区","address":"上海武定路989弄3号楼"},{"poiid":"B2094655D26DA2FF499B","title":"恒德里(东门)","lon":"121.44466","lat":"31.23142","category":"47","category_name":"住宅区","address":"常德路633弄4-150号"},{"poiid":"B2094757D765A4FF4499","title":"达美乐比萨 武定路店 Domino's Pizza","lon":"121.44223","lat":"31.22996","category":"94","category_name":"西餐厅","address":"静安区武定路1050号(近胶州路)"},{"poiid":"B2094753D764A0FF429D","title":"正大广场","lon":"121.445625","lat":"31.230154","category":"500","category_name":"未知分类","address":"上海市 陆家嘴中心"},{"poiid":"B2094757D16FABF54592","title":"康定路常德路公交站","lon":"121.444424","lat":"31.231914","category":"38","category_name":"公交车站","address":"上海静安区康定路(近常德路)"},{"poiid":"B2094654DB6AA3FB4798","title":"工行康定路支行","lon":"121.44362","lat":"31.2322","category":"150","category_name":"银行","address":"静安区康定路699路"},{"poiid":"B2094654DA6CA2FD4492","title":"上海静安建筑装饰实业股份有限公司","lon":"121.44419","lat":"31.23042","category":"263","category_name":"公司","address":"武定路路923-1、925"},{"poiid":"B2094654DB6BA6FB4298","title":"锦江之星(上海胶州路店)","lon":"121.44263","lat":"31.22945","category":"216","category_name":"经济型连锁酒店","address":"上海静安区胶州路339号(近武定路)  "},{"poiid":"B2094757D168AAF44792","title":"静安区商委","lon":"121.44374847","lat":"31.230207443","category":"500","category_name":"未知分类","address":"上海武定路969号"},{"poiid":"B2094655D36CA1F5479F","title":"康定路常德路","lon":"121.44337","lat":"31.23228","category":"38","category_name":"公交车站","address":""},{"poiid":"B2094750D36EAAF54793","title":"paradox","lon":"121.444557","lat":"31.23071","category":"260","category_name":"其他","address":"静安区武定路890号(近常德路)"},{"poiid":"B2094757D06FA3FD4592","title":"同乐坊","lon":"121.44327","lat":"31.23616","category":"172","category_name":"酒吧","address":"静安区余姚路60号(近海防路)"},{"poiid":"B2094757DB68A5F9419C","title":"捞王猪肚鸡 静安店","lon":"121.442066","lat":"31.22995","category":"86","category_name":"火锅店","address":"静安区武定路1052号(胶州路口)"},{"poiid":"B2094757D66FA6FB429E","title":"星巴克 STARBUCKS (八百秀店)","lon":"121.44345","lat":"31.23283","category":"260","category_name":"其他","address":"静安区常德路800号八百秀(近昌平路)"},{"poiid":"B2094753D76FAAFA449C","title":"上海滩国泰旗舰店","lon":"121.466011","lat":"31.216125","category":"249","category_name":"购物服务","address":"淮海中路868号"},{"poiid":"B209475CD564A7F8439E","title":"上海滩中信泰富店","lon":"121.45602","lat":"31.22851","category":"119","category_name":"商场","address":"\"南京西路1168号中信泰富广场，店铺号221.\r\n\""},{"poiid":"B2094757D068A6FF4992","title":"泰爱","lon":"121.44360638","lat":"31.232807379","category":"99","category_name":"泰国／越南菜品餐厅","address":"静安区常德路800号(昌平路常德路)"},{"poiid":"B2094757D06FA6F5409F","title":"静安区图书馆","lon":"121.44523","lat":"31.22856","category":"181","category_name":"图书馆","address":"静安区新闸路1708号(近胶州路)"},{"poiid":"B2094757D068ABFD499E","title":"钨节路休闲餐厅","lon":"121.44386","lat":"31.22794","category":"110","category_name":"其他亚洲菜","address":"静安区新闸路1788号(近胶州路)"},{"poiid":"B2094654D565ABF5409F","title":"沃歌斯(胶州路)","lon":"121.44314","lat":"31.22821","category":"94","category_name":"西餐厅","address":"静安区胶州路265号1楼(近新闸路)"},{"poiid":"B2094750D56EA0F4449D","title":"Indulge BRASSERIE&WINE","lon":"121.443214","lat":"31.232238","category":"247","category_name":"餐饮美食","address":"静安区常德路800号A3-1楼(近地铁7号线昌平路站)"},{"poiid":"B2094750D26FA7F84598","title":"UVA Wine Bar","lon":"121.4447","lat":"31.23062","category":"260","category_name":"其他","address":"静安区陕西北路819号(近康定路)"},{"poiid":"B2094655D264A0FB439F","title":"静安枫景","lon":"121.4465","lat":"31.23043","category":"47","category_name":"住宅区","address":"上海市静安区常德路500弄"},{"poiid":"B2094757D06FA6F4469C","title":"珊珊小笼馆(康定路店)","lon":"121.443","lat":"31.23154","category":"68","category_name":"快餐厅","address":"静安区康定路749号(近胶州路)"},{"poiid":"B2094757D069ABF8429E","title":"胶州路武定路","lon":"121.442456","lat":"31.230476","category":"500","category_name":"未知分类","address":"上海胶州路武定路"},{"poiid":"B2094757D06AA1FB439B","title":"Munchies 梦奇屋 (武定路店)","lon":"121.44311518","lat":"31.230294607","category":"94","category_name":"西餐厅","address":"静安区武定路974号(近胶州路)"},{"poiid":"B2094751D465A1F84999","title":"Lab. whisky & cocktail","lon":"121.441904","lat":"31.229786","category":"247","category_name":"餐饮美食","address":"上海市靜安區武定路1093號"},{"poiid":"B2094750D26BA5F54792","title":"Enoterra","lon":"121.442565","lat":"31.229871","category":"247","category_name":"餐饮美食","address":"静安区武定路1075号(近胶州路)"},{"poiid":"B209475CD36CA3FE469C","title":"松饼先生 武定路店 Mr Pancake House","lon":"121.4448","lat":"31.23065","category":"101","category_name":"美式风味","address":"武定路877号(近常德路)"},{"poiid":"B2094654DB64A7FA4799","title":"新闸路营业厅","lon":"121.44509","lat":"31.22851","category":"151","category_name":"电讯营业厅","address":"新闸路1711号"},{"poiid":"B2094654DA6CA2FC4292","title":"上海戏剧学院附属高级中学","lon":"121.44225","lat":"31.23205","category":"55","category_name":"中学","address":"静安区康定路770号(近胶州路)"},{"poiid":"B2094757D069A7F4439C","title":"BONO SALON","lon":"121.44503","lat":"31.23058","category":"148","category_name":"美容美发店","address":"上海静安区武定路870号(近常德路)"},{"poiid":"B2094757D069ABFD439D","title":"常德路新闸路","lon":"121.446208","lat":"31.230472","category":"500","category_name":"未知分类","address":"上海常德路新闸路口"},{"poiid":"B2094757D069A7F5499B","title":"江宁路地段医院","lon":"121.44378","lat":"31.23125","category":"162","category_name":"医院","address":"上海静安区康定路733弄70号(近常德路)  "},{"poiid":"B2094654D565ABFA459B","title":"上海市公安局静安分局","lon":"121.44205","lat":"31.23086","category":"248","category_name":"生活娱乐","address":"胶州路415"},{"poiid":"B2094752D369A5F8499A","title":"WINE MUST 红酒吧","lon":"121.44460557002","lat":"31.230413190145","category":"111","category_name":"休闲餐饮场所","address":"武定路881号"},{"poiid":"B2094655D26DA4F84998","title":"大家乐","lon":"121.44527","lat":"31.23114","category":"112","category_name":"糕饼店","address":"常德路610-1"},{"poiid":"B2094654DA6CA3F5499E","title":"华祺大厦","lon":"121.44375","lat":"31.2302","category":"46","category_name":"楼宇","address":"武定路969、975、979号"},{"poiid":"B2094757D16EABFB449F","title":"星巴克Starbucks(太古汇店)","lon":"121.445446886","lat":"31.2312458509","category":"247","category_name":"餐饮美食","address":"广州天河区天河东路75号太古汇(近地铁石牌桥站D出口)"},{"poiid":"B2094655D26DA2FF499A","title":"恒德里(常德路)","lon":"121.44431","lat":"31.23121","category":"47","category_name":"住宅区","address":"常德路633弄4-150号"},{"poiid":"B2094757D06AA0FC489E","title":"川妹子麻辣烫","lon":"121.442894697","lat":"31.2320396716","category":"68","category_name":"快餐厅","address":"静安区康定路740号(近常德路)"},{"poiid":"B2094654DA6CA3FB4599","title":"静安枫景苑(新闸路)","lon":"121.44695","lat":"31.23073","category":"47","category_name":"住宅区","address":"上海静安区新闸路1550号(近常德路)"},{"poiid":"B2094757D16DABFF4592","title":"静安区常德书法幼儿园(分园)","lon":"121.44430158","lat":"31.230486436","category":"500","category_name":"未知分类","address":"上海武定路932号"},{"poiid":"B2094750DB6FA4FB419E","title":"若然雅居","lon":"121.44485","lat":"31.23066","category":"260","category_name":"其他","address":"静安区武定路873号1-4楼(近常德路)"},{"poiid":"B2094655D26BA2FC459D","title":"武定路常德路","lon":"121.44334","lat":"31.23031","category":"38","category_name":"公交车站","address":""},{"poiid":"B2094654DA6CA2FC4098","title":"齐善素食(武定路)","lon":"121.44376","lat":"31.23021","category":"257","category_name":"中餐厅","address":"静安区武定路969号华祺大厦1楼(近常德路)"},{"poiid":"B2094752D268ABFF4193","title":"881創意園","lon":"121.444876","lat":"31.230308","category":"252","category_name":"楼宇机构","address":"武定路881號"},{"poiid":"B2094757D169A0F9409F","title":"静安区游泳馆","lon":"121.44489","lat":"31.23032","category":"220","category_name":"运动场所","address":"上海静安区武定路423号  "},{"poiid":"B2094757D16EA6FF4592","title":"上戏附中","lon":"121.443183386","lat":"31.2318746632","category":"253","category_name":"校园生活","address":"上海康定路770"},{"poiid":"B2094757D069A2F94793","title":"美味坊","lon":"121.44356","lat":"31.22825","category":"76","category_name":"上海菜","address":"静安区胶州路273弄58号枫蓝商务酒店内(近新闸路)"},{"poiid":"B2094654DA6CA2FD459A","title":"中邮苑","lon":"121.44382","lat":"31.229908","category":"47","category_name":"住宅区","address":"上海武定路989弄3号楼"},{"poiid":"B2094655D26DA2FF499B","title":"恒德里(东门)","lon":"121.44466","lat":"31.23142","category":"47","category_name":"住宅区","address":"常德路633弄4-150号"},{"poiid":"B2094757D765A4FF4499","title":"达美乐比萨 武定路店 Domino's Pizza","lon":"121.44223","lat":"31.22996","category":"94","category_name":"西餐厅","address":"静安区武定路1050号(近胶州路)"},{"poiid":"B2094753D764A0FF429D","title":"正大广场","lon":"121.445625","lat":"31.230154","category":"500","category_name":"未知分类","address":"上海市 陆家嘴中心"},{"poiid":"B2094757D16FABF54592","title":"康定路常德路公交站","lon":"121.444424","lat":"31.231914","category":"38","category_name":"公交车站","address":"上海静安区康定路(近常德路)"},{"poiid":"B2094654DB6AA3FB4798","title":"工行康定路支行","lon":"121.44362","lat":"31.2322","category":"150","category_name":"银行","address":"静安区康定路699路"},{"poiid":"B2094654DA6CA2FD4492","title":"上海静安建筑装饰实业股份有限公司","lon":"121.44419","lat":"31.23042","category":"263","category_name":"公司","address":"武定路路923-1、925"},{"poiid":"B2094654DB6BA6FB4298","title":"锦江之星(上海胶州路店)","lon":"121.44263","lat":"31.22945","category":"216","category_name":"经济型连锁酒店","address":"上海静安区胶州路339号(近武定路)  "},{"poiid":"B2094757D168AAF44792","title":"静安区商委","lon":"121.44374847","lat":"31.230207443","category":"500","category_name":"未知分类","address":"上海武定路969号"},{"poiid":"B2094655D36CA1F5479F","title":"康定路常德路","lon":"121.44337","lat":"31.23228","category":"38","category_name":"公交车站","address":""},{"poiid":"B2094750D36EAAF54793","title":"paradox","lon":"121.444557","lat":"31.23071","category":"260","category_name":"其他","address":"静安区武定路890号(近常德路)"}]