[{"poiid":"B2094757D06FA7F8449D","title":"中西医结合医院(黄家路分院)","lon":"121.49420315","lat":"31.216321354","category":"162","category_name":"医院","address":"上海黄浦区黄家路163号(近光启南路)"},{"poiid":"B2094757D068A3FB469B","title":"明日星城","lon":"121.49450701","lat":"31.214300838","category":"500","category_name":"未知分类","address":"河南南路1009弄3-11号"},{"poiid":"B2094757D069AAF54499","title":"河南南路蓬莱路路口","lon":"121.492031","lat":"31.217954","category":"500","category_name":"未知分类","address":"上海黄浦区河南南路蓬莱路路口"},{"poiid":"B2094753D76FAAFA449C","title":"上海滩国泰旗舰店","lon":"121.466011","lat":"31.216125","category":"249","category_name":"购物服务","address":"淮海中路868号"},{"poiid":"B209475CD564A7F84292","title":"上海滩新天地店","lon":"121.47463","lat":"31.22164","category":"119","category_name":"商场","address":"\"太仓路181弄新天地北里15号\r\n\""},{"poiid":"B209475CD564A7F84392","title":"上海滩浦东香格里拉店","lon":"121.50058","lat":"31.23634","category":"119","category_name":"商场","address":"浦东富成路33号香格里拉酒店内大堂层"},{"poiid":"B2094757D06BA7FF4193","title":"老西门国际青年旅舍","lon":"121.49243","lat":"31.21852","category":"216","category_name":"经济型连锁酒店","address":"黄浦区蓬莱路115号(近河南南路)"},{"poiid":"B2094654DA6EA0F4469F","title":"上海市工商行政管理局黄浦分局","lon":"121.49203","lat":"31.21602","category":"250","category_name":"公园户外","address":"上海河南南路800号"},{"poiid":"B2094757D068A7F4429D","title":"南开大厦","lon":"121.49065","lat":"31.217077","category":"46","category_name":"楼宇","address":"浦东新区金湘路225弄"},{"poiid":"B2094655D26EAAFF4198","title":"凯司令西点房 中华店","lon":"121.495491054","lat":"31.215382793","category":"67","category_name":"甜品店","address":"黄浦区光启南路407号(中华路口)"},{"poiid":"B2094757D068A3F94092","title":"富南大厦","lon":"121.497","lat":"31.2173","category":"46","category_name":"楼宇","address":"鲁尔大厦位于铁西兴华南街5号"},{"poiid":"B2094757D469A2FE449B","title":"普明面馆 黄家路店","lon":"121.494090054","lat":"31.216242793","category":"68","category_name":"快餐厅","address":"黄浦区黄家路195号(近光启南路)"},{"poiid":"B2094655D26FABF5429E","title":"明日星城一期","lon":"121.49416","lat":"31.2136","category":"47","category_name":"住宅区","address":"上海市黄浦区河南南路1号"},{"poiid":"B2094655D268A4F54493","title":"黄浦区敬业游泳馆","lon":"121.49069","lat":"31.21562","category":"231","category_name":"游泳馆","address":"黄浦区尚文路183号(尚文路迎勋北路)"},{"poiid":"B2094757D06AABFB489D","title":"明日星城二期","lon":"121.49499","lat":"31.214718","category":"500","category_name":"未知分类","address":"上海市黄浦区中华路868弄"},{"poiid":"B2094655D26FA6F8489A","title":"浩城华苑","lon":"121.49599","lat":"31.21537","category":"47","category_name":"住宅区","address":"上海市黄浦区黄家路88弄"},{"poiid":"B2094750D665ABF4449D","title":"江阴街排档","lon":"121.494","lat":"31.2154","category":"76","category_name":"上海菜","address":"黄浦区江阴街"},{"poiid":"B2094757D16FA1F8489E","title":"敬业初级中学","lon":"121.492916","lat":"31.216386","category":"55","category_name":"中学","address":"上海黄浦区尚文路73号"},{"poiid":"B2094654DA68A0F54692","title":"银南大厦","lon":"121.493","lat":"31.2169","category":"46","category_name":"楼宇","address":"西藏南路1090弄1-2号"},{"poiid":"B2094655D26FA5FF4998","title":"南花苑","lon":"121.49584","lat":"31.216436","category":"47","category_name":"住宅区","address":"上海黄家路99弄"},{"poiid":"B2094654DA6EA7FC499D","title":"西贝造型","lon":"121.49409","lat":"31.21407","category":"148","category_name":"美容美发店","address":"黄浦区东江阴街26号(近跨龙路)"},{"poiid":"B2094757D06BA4F8429F","title":"wills上海滩花园会所","lon":"121.495963271","lat":"31.2189213869","category":"500","category_name":"未知分类","address":"白渡路288号上海滩花园内"},{"poiid":"B2094654DB6BA4FF449F","title":"快客No.6773","lon":"121.49356","lat":"31.21711","category":"117","category_name":"便民商店/便利店","address":"凝和路140号"},{"poiid":"B2094654DA68A1F5449A","title":"华教大厦","lon":"121.497","lat":"31.2167","category":"46","category_name":"楼宇","address":"上海市浦东新区金桥路983号"},{"poiid":"B2094757D165A7FB4198","title":"乔家路","lon":"121.493571","lat":"31.217111","category":"500","category_name":"未知分类","address":"上海乔家路凝和路"},{"poiid":"B2094654DA6EA7FD439D","title":"申升公寓","lon":"121.4928","lat":"31.215782","category":"47","category_name":"住宅区","address":"申升公寓位于卢湾河南南路737号"},{"poiid":"B2094757D169ABF44898","title":"黄浦区工商局","lon":"121.491909738","lat":"31.2159349955","category":"500","category_name":"未知分类","address":"上海河南南路800号"},{"poiid":"B2094654DB6BA4FF4392","title":"良友","lon":"121.49503","lat":"31.21611","category":"117","category_name":"便民商店/便利店","address":"黄家路155"},{"poiid":"B2094654DA6EA7FD4398","title":"光明乳业尚文配送站","lon":"121.49309","lat":"31.21597","category":"117","category_name":"便民商店/便利店","address":"尚文路36"},{"poiid":"B2094655D26FA6FB4293","title":"乔家栅小区","lon":"121.49405","lat":"31.217241","category":"47","category_name":"住宅区","address":"凝和路139弄1-2号"},{"poiid":"B2094655D268A6FF4999","title":"永兴坊(北门)","lon":"121.49461","lat":"31.21589","category":"47","category_name":"住宅区","address":"黄家路180弄1-2号"},{"poiid":"B2094757D66FA7F4499E","title":"黄家路","lon":"121.494317","lat":"31.216065","category":"500","category_name":"未知分类","address":"上海黄家路"},{"poiid":"B2094751D26EA2FF4799","title":"好面道--大肠面","lon":"121.493088","lat":"31.215195","category":"68","category_name":"快餐厅","address":"黄浦区中华路926号(近河南南路)"},{"poiid":"B2094654DB6BA4FF439D","title":"无限极(西俞家弄)","lon":"121.49487","lat":"31.21701","category":"162","category_name":"医院","address":"俞家弄180"},{"poiid":"B2094654DA6EA7FD449A","title":"乔家栅小区(西门)","lon":"121.49379","lat":"31.21721","category":"47","category_name":"住宅区","address":"凝和路147弄1-2号万有全集团蓬莱副食品综合市场东"},{"poiid":"B2094757D168A2FF439A","title":"也是园弄","lon":"121.49337165","lat":"31.216664556","category":"500","category_name":"未知分类","address":"上海也是园弄1号—32号"},{"poiid":"B2094654DA6FA3F9419A","title":"好德No.315","lon":"121.49536","lat":"31.21615","category":"117","category_name":"便民商店/便利店","address":"光启南路363"},{"poiid":"B2094655D268A6FF4998","title":"永兴坊","lon":"121.49466","lat":"31.21578","category":"47","category_name":"住宅区","address":"黄家路180弄1-2号"},{"poiid":"B2094654DA6EA7FC449B","title":"明徐光启故居","lon":"121.49465","lat":"31.21758","category":"243","category_name":"纪念馆","address":"黄浦区乔家路238号(光启南路乔家路)"},{"poiid":"B2094655D26CA4FB4498","title":"明日星城(边门)","lon":"121.49443","lat":"31.21498","category":"47","category_name":"住宅区","address":"中华路868弄30-35号"},{"poiid":"B2094655D36CA5FC429B","title":"大南门","lon":"121.49477","lat":"31.2151","category":"38","category_name":"公交车站","address":""},{"poiid":"B2094655D26BA5FA4392","title":"Lan时尚造型工作室","lon":"121.49521","lat":"31.21706","category":"148","category_name":"美容美发店","address":"光启南路305"},{"poiid":"B2094750DA6CABF5409B","title":"翔鹰十三香小龙虾","lon":"121.491477","lat":"31.215105","category":"247","category_name":"餐饮美食","address":"陆家浜路大兴街3号"},{"poiid":"B2094757D069A1FD429F","title":"百花公寓","lon":"121.49553709864","lat":"31.213515823342","category":"47","category_name":"住宅区","address":"上海市黄浦区斜土东路158号"},{"poiid":"B2094757D16CAAF54693","title":"小南门乔家路","lon":"121.495746938","lat":"31.2153562832","category":"47","category_name":"住宅区","address":"上海市黄浦区乔家路"},{"poiid":"B2094654DA6EA7FD429C","title":"婷婷杂货店","lon":"121.49431","lat":"31.21523","category":"117","category_name":"便民商店/便利店","address":""},{"poiid":"B2094654DA6FA3FA489F","title":"南花苑(南门)","lon":"121.49586","lat":"31.21614","category":"47","category_name":"住宅区","address":"黄家路99弄"},{"poiid":"B2094654DA6EA7FC4799","title":"上海市基督教清心堂","lon":"121.49523","lat":"31.21315","category":"245","category_name":"教堂","address":"大昌街30"},{"poiid":"B209475DD26FA3FE429B","title":"滨江大道","lon":"121.492683","lat":"31.216335","category":"500","category_name":"未知分类","address":"上海市 浦东滨江大道1号 滨浦汇"},{"poiid":"B2094655D264A0FA479A","title":"海洲丽园一期二期","lon":"121.496107","lat":"31.216177","category":"47","category_name":"住宅区","address":"上海市黄浦区丽园路68弄"},{"poiid":"B2094757D06FA7F8449D","title":"中西医结合医院(黄家路分院)","lon":"121.49420315","lat":"31.216321354","category":"162","category_name":"医院","address":"上海黄浦区黄家路163号(近光启南路)"},{"poiid":"B2094757D068A3FB469B","title":"明日星城","lon":"121.49450701","lat":"31.214300838","category":"500","category_name":"未知分类","address":"河南南路1009弄3-11号"},{"poiid":"B2094757D069AAF54499","title":"河南南路蓬莱路路口","lon":"121.492031","lat":"31.217954","category":"500","category_name":"未知分类","address":"上海黄浦区河南南路蓬莱路路口"},{"poiid":"B2094753D76FAAFA449C","title":"上海滩国泰旗舰店","lon":"121.466011","lat":"31.216125","category":"249","category_name":"购物服务","address":"淮海中路868号"},{"poiid":"B209475CD564A7F84292","title":"上海滩新天地店","lon":"121.47463","lat":"31.22164","category":"119","category_name":"商场","address":"\"太仓路181弄新天地北里15号\r\n\""},{"poiid":"B209475CD564A7F84392","title":"上海滩浦东香格里拉店","lon":"121.50058","lat":"31.23634","category":"119","category_name":"商场","address":"浦东富成路33号香格里拉酒店内大堂层"},{"poiid":"B2094757D06BA7FF4193","title":"老西门国际青年旅舍","lon":"121.49243","lat":"31.21852","category":"216","category_name":"经济型连锁酒店","address":"黄浦区蓬莱路115号(近河南南路)"},{"poiid":"B2094654DA6EA0F4469F","title":"上海市工商行政管理局黄浦分局","lon":"121.49203","lat":"31.21602","category":"250","category_name":"公园户外","address":"上海河南南路800号"},{"poiid":"B2094757D068A7F4429D","title":"南开大厦","lon":"121.49065","lat":"31.217077","category":"46","category_name":"楼宇","address":"浦东新区金湘路225弄"},{"poiid":"B2094655D26EAAFF4198","title":"凯司令西点房 中华店","lon":"121.495491054","lat":"31.215382793","category":"67","category_name":"甜品店","address":"黄浦区光启南路407号(中华路口)"},{"poiid":"B2094757D068A3F94092","title":"富南大厦","lon":"121.497","lat":"31.2173","category":"46","category_name":"楼宇","address":"鲁尔大厦位于铁西兴华南街5号"},{"poiid":"B2094757D469A2FE449B","title":"普明面馆 黄家路店","lon":"121.494090054","lat":"31.216242793","category":"68","category_name":"快餐厅","address":"黄浦区黄家路195号(近光启南路)"},{"poiid":"B2094655D26FABF5429E","title":"明日星城一期","lon":"121.49416","lat":"31.2136","category":"47","category_name":"住宅区","address":"上海市黄浦区河南南路1号"},{"poiid":"B2094655D268A4F54493","title":"黄浦区敬业游泳馆","lon":"121.49069","lat":"31.21562","category":"231","category_name":"游泳馆","address":"黄浦区尚文路183号(尚文路迎勋北路)"},{"poiid":"B2094757D06AABFB489D","title":"明日星城二期","lon":"121.49499","lat":"31.214718","category":"500","category_name":"未知分类","address":"上海市黄浦区中华路868弄"},{"poiid":"B2094655D26FA6F8489A","title":"浩城华苑","lon":"121.49599","lat":"31.21537","category":"47","category_name":"住宅区","address":"上海市黄浦区黄家路88弄"},{"poiid":"B2094750D665ABF4449D","title":"江阴街排档","lon":"121.494","lat":"31.2154","category":"76","category_name":"上海菜","address":"黄浦区江阴街"},{"poiid":"B2094757D16FA1F8489E","title":"敬业初级中学","lon":"121.492916","lat":"31.216386","category":"55","category_name":"中学","address":"上海黄浦区尚文路73号"},{"poiid":"B2094654DA68A0F54692","title":"银南大厦","lon":"121.493","lat":"31.2169","category":"46","category_name":"楼宇","address":"西藏南路1090弄1-2号"},{"poiid":"B2094655D26FA5FF4998","title":"南花苑","lon":"121.49584","lat":"31.216436","category":"47","category_name":"住宅区","address":"上海黄家路99弄"},{"poiid":"B2094654DA6EA7FC499D","title":"西贝造型","lon":"121.49409","lat":"31.21407","category":"148","category_name":"美容美发店","address":"黄浦区东江阴街26号(近跨龙路)"},{"poiid":"B2094757D06BA4F8429F","title":"wills上海滩花园会所","lon":"121.495963271","lat":"31.2189213869","category":"500","category_name":"未知分类","address":"白渡路288号上海滩花园内"},{"poiid":"B2094654DB6BA4FF449F","title":"快客No.6773","lon":"121.49356","lat":"31.21711","category":"117","category_name":"便民商店/便利店","address":"凝和路140号"},{"poiid":"B2094654DA68A1F5449A","title":"华教大厦","lon":"121.497","lat":"31.2167","category":"46","category_name":"楼宇","address":"上海市浦东新区金桥路983号"},{"poiid":"B2094757D165A7FB4198","title":"乔家路","lon":"121.493571","lat":"31.217111","category":"500","category_name":"未知分类","address":"上海乔家路凝和路"},{"poiid":"B2094654DA6EA7FD439D","title":"申升公寓","lon":"121.4928","lat":"31.215782","category":"47","category_name":"住宅区","address":"申升公寓位于卢湾河南南路737号"},{"poiid":"B2094757D169ABF44898","title":"黄浦区工商局","lon":"121.491909738","lat":"31.2159349955","category":"500","category_name":"未知分类","address":"上海河南南路800号"},{"poiid":"B2094654DB6BA4FF4392","title":"良友","lon":"121.49503","lat":"31.21611","category":"117","category_name":"便民商店/便利店","address":"黄家路155"},{"poiid":"B2094654DA6EA7FD4398","title":"光明乳业尚文配送站","lon":"121.49309","lat":"31.21597","category":"117","category_name":"便民商店/便利店","address":"尚文路36"},{"poiid":"B2094655D26FA6FB4293","title":"乔家栅小区","lon":"121.49405","lat":"31.217241","category":"47","category_name":"住宅区","address":"凝和路139弄1-2号"},{"poiid":"B2094655D268A6FF4999","title":"永兴坊(北门)","lon":"121.49461","lat":"31.21589","category":"47","category_name":"住宅区","address":"黄家路180弄1-2号"},{"poiid":"B2094757D66FA7F4499E","title":"黄家路","lon":"121.494317","lat":"31.216065","category":"500","category_name":"未知分类","address":"上海黄家路"},{"poiid":"B2094751D26EA2FF4799","title":"好面道--大肠面","lon":"121.493088","lat":"31.215195","category":"68","category_name":"快餐厅","address":"黄浦区中华路926号(近河南南路)"},{"poiid":"B2094654DB6BA4FF439D","title":"无限极(西俞家弄)","lon":"121.49487","lat":"31.21701","category":"162","category_name":"医院","address":"俞家弄180"},{"poiid":"B2094654DA6EA7FD449A","title":"乔家栅小区(西门)","lon":"121.49379","lat":"31.21721","category":"47","category_name":"住宅区","address":"凝和路147弄1-2号万有全集团蓬莱副食品综合市场东"},{"poiid":"B2094757D168A2FF439A","title":"也是园弄","lon":"121.49337165","lat":"31.216664556","category":"500","category_name":"未知分类","address":"上海也是园弄1号—32号"},{"poiid":"B2094654DA6FA3F9419A","title":"好德No.315","lon":"121.49536","lat":"31.21615","category":"117","category_name":"便民商店/便利店","address":"光启南路363"},{"poiid":"B2094655D268A6FF4998","title":"永兴坊","lon":"121.49466","lat":"31.21578","category":"47","category_name":"住宅区","address":"黄家路180弄1-2号"},{"poiid":"B2094654DA6EA7FC449B","title":"明徐光启故居","lon":"121.49465","lat":"31.21758","category":"243","category_name":"纪念馆","address":"黄浦区乔家路238号(光启南路乔家路)"},{"poiid":"B2094655D26CA4FB4498","title":"明日星城(边门)","lon":"121.49443","lat":"31.21498","category":"47","category_name":"住宅区","address":"中华路868弄30-35号"},{"poiid":"B2094655D36CA5FC429B","title":"大南门","lon":"121.49477","lat":"31.2151","category":"38","category_name":"公交车站","address":""},{"poiid":"B2094655D26BA5FA4392","title":"Lan时尚造型工作室","lon":"121.49521","lat":"31.21706","category":"148","category_name":"美容美发店","address":"光启南路305"},{"poiid":"B2094750DA6CABF5409B","title":"翔鹰十三香小龙虾","lon":"121.491477","lat":"31.215105","category":"247","category_name":"餐饮美食","address":"陆家浜路大兴街3号"},{"poiid":"B2094757D069A1FD429F","title":"百花公寓","lon":"121.49553709864","lat":"31.213515823342","category":"47","category_name":"住宅区","address":"上海市黄浦区斜土东路158号"},{"poiid":"B2094757D16CAAF54693","title":"小南门乔家路","lon":"121.495746938","lat":"31.2153562832","category":"47","category_name":"住宅区","address":"上海市黄浦区乔家路"},{"poiid":"B2094654DA6EA7FD429C","title":"婷婷杂货店","lon":"121.49431","lat":"31.21523","category":"117","category_name":"便民商店/便利店","address":""},{"poiid":"B2094654DA6FA3FA489F","title":"南花苑(南门)","lon":"121.49586","lat":"31.21614","category":"47","category_name":"住宅区","address":"黄家路99弄"},{"poiid":"B2094654DA6EA7FC4799","title":"上海市基督教清心堂","lon":"121.49523","lat":"31.21315","category":"245","category_name":"教堂","address":"大昌街30"},{"poiid":"B209475DD26FA3FE429B","title":"滨江大道","lon":"121.492683","lat":"31.216335","category":"500","category_name":"未知分类","address":"上海市 浦东滨江大道1号 滨浦汇"},{"poiid":"B2094655D264A0FA479A","title":"海洲丽园一期二期","lon":"121.496107","lat":"31.216177","category":"47","category_name":"住宅区","address":"上海市黄浦区丽园路68弄"},{"poiid":"B2094757D06FA7F8449D","title":"中西医结合医院(黄家路分院)","lon":"121.49420315","lat":"31.216321354","category":"162","category_name":"医院","address":"上海黄浦区黄家路163号(近光启南路)"},{"poiid":"B2094757D068A3FB469B","title":"明日星城","lon":"121.49450701","lat":"31.214300838","category":"500","category_name":"未知分类","address":"河南南路1009弄3-11号"},{"poiid":"B2094757D069AAF54499","title":"河南南路蓬莱路路口","lon":"121.492031","lat":"31.217954","category":"500","category_name":"未知分类","address":"上海黄浦区河南南路蓬莱路路口"},{"poiid":"B2094753D76FAAFA449C","title":"上海滩国泰旗舰店","lon":"121.466011","lat":"31.216125","category":"249","category_name":"购物服务","address":"淮海中路868号"},{"poiid":"B209475CD564A7F84292","title":"上海滩新天地店","lon":"121.47463","lat":"31.22164","category":"119","category_name":"商场","address":"\"太仓路181弄新天地北里15号\r\n\""},{"poiid":"B209475CD564A7F84392","title":"上海滩浦东香格里拉店","lon":"121.50058","lat":"31.23634","category":"119","category_name":"商场","address":"浦东富成路33号香格里拉酒店内大堂层"},{"poiid":"B2094757D06BA7FF4193","title":"老西门国际青年旅舍","lon":"121.49243","lat":"31.21852","category":"216","category_name":"经济型连锁酒店","address":"黄浦区蓬莱路115号(近河南南路)"},{"poiid":"B2094654DA6EA0F4469F","title":"上海市工商行政管理局黄浦分局","lon":"121.49203","lat":"31.21602","category":"250","category_name":"公园户外","address":"上海河南南路800号"},{"poiid":"B2094757D068A7F4429D","title":"南开大厦","lon":"121.49065","lat":"31.217077","category":"46","category_name":"楼宇","address":"浦东新区金湘路225弄"},{"poiid":"B2094655D26EAAFF4198","title":"凯司令西点房 中华店","lon":"121.495491054","lat":"31.215382793","category":"67","category_name":"甜品店","address":"黄浦区光启南路407号(中华路口)"},{"poiid":"B2094757D068A3F94092","title":"富南大厦","lon":"121.497","lat":"31.2173","category":"46","category_name":"楼宇","address":"鲁尔大厦位于铁西兴华南街5号"},{"poiid":"B2094757D469A2FE449B","title":"普明面馆 黄家路店","lon":"121.494090054","lat":"31.216242793","category":"68","category_name":"快餐厅","address":"黄浦区黄家路195号(近光启南路)"},{"poiid":"B2094655D26FABF5429E","title":"明日星城一期","lon":"121.49416","lat":"31.2136","category":"47","category_name":"住宅区","address":"上海市黄浦区河南南路1号"},{"poiid":"B2094655D268A4F54493","title":"黄浦区敬业游泳馆","lon":"121.49069","lat":"31.21562","category":"231","category_name":"游泳馆","address":"黄浦区尚文路183号(尚文路迎勋北路)"},{"poiid":"B2094757D06AABFB489D","title":"明日星城二期","lon":"121.49499","lat":"31.214718","category":"500","category_name":"未知分类","address":"上海市黄浦区中华路868弄"},{"poiid":"B2094655D26FA6F8489A","title":"浩城华苑","lon":"121.49599","lat":"31.21537","category":"47","category_name":"住宅区","address":"上海市黄浦区黄家路88弄"},{"poiid":"B2094750D665ABF4449D","title":"江阴街排档","lon":"121.494","lat":"31.2154","category":"76","category_name":"上海菜","address":"黄浦区江阴街"},{"poiid":"B2094757D16FA1F8489E","title":"敬业初级中学","lon":"121.492916","lat":"31.216386","category":"55","category_name":"中学","address":"上海黄浦区尚文路73号"},{"poiid":"B2094654DA68A0F54692","title":"银南大厦","lon":"121.493","lat":"31.2169","category":"46","category_name":"楼宇","address":"西藏南路1090弄1-2号"},{"poiid":"B2094655D26FA5FF4998","title":"南花苑","lon":"121.49584","lat":"31.216436","category":"47","category_name":"住宅区","address":"上海黄家路99弄"},{"poiid":"B2094654DA6EA7FC499D","title":"西贝造型","lon":"121.49409","lat":"31.21407","category":"148","category_name":"美容美发店","address":"黄浦区东江阴街26号(近跨龙路)"},{"poiid":"B2094757D06BA4F8429F","title":"wills上海滩花园会所","lon":"121.495963271","lat":"31.2189213869","category":"500","category_name":"未知分类","address":"白渡路288号上海滩花园内"},{"poiid":"B2094654DB6BA4FF449F","title":"快客No.6773","lon":"121.49356","lat":"31.21711","category":"117","category_name":"便民商店/便利店","address":"凝和路140号"},{"poiid":"B2094654DA68A1F5449A","title":"华教大厦","lon":"121.497","lat":"31.2167","category":"46","category_name":"楼宇","address":"上海市浦东新区金桥路983号"},{"poiid":"B2094757D165A7FB4198","title":"乔家路","lon":"121.493571","lat":"31.217111","category":"500","category_name":"未知分类","address":"上海乔家路凝和路"},{"poiid":"B2094654DA6EA7FD439D","title":"申升公寓","lon":"121.4928","lat":"31.215782","category":"47","category_name":"住宅区","address":"申升公寓位于卢湾河南南路737号"},{"poiid":"B2094757D169ABF44898","title":"黄浦区工商局","lon":"121.491909738","lat":"31.2159349955","category":"500","category_name":"未知分类","address":"上海河南南路800号"},{"poiid":"B2094654DB6BA4FF4392","title":"良友","lon":"121.49503","lat":"31.21611","category":"117","category_name":"便民商店/便利店","address":"黄家路155"},{"poiid":"B2094654DA6EA7FD4398","title":"光明乳业尚文配送站","lon":"121.49309","lat":"31.21597","category":"117","category_name":"便民商店/便利店","address":"尚文路36"},{"poiid":"B2094655D26FA6FB4293","title":"乔家栅小区","lon":"121.49405","lat":"31.217241","category":"47","category_name":"住宅区","address":"凝和路139弄1-2号"},{"poiid":"B2094655D268A6FF4999","title":"永兴坊(北门)","lon":"121.49461","lat":"31.21589","category":"47","category_name":"住宅区","address":"黄家路180弄1-2号"},{"poiid":"B2094757D66FA7F4499E","title":"黄家路","lon":"121.494317","lat":"31.216065","category":"500","category_name":"未知分类","address":"上海黄家路"},{"poiid":"B2094751D26EA2FF4799","title":"好面道--大肠面","lon":"121.493088","lat":"31.215195","category":"68","category_name":"快餐厅","address":"黄浦区中华路926号(近河南南路)"},{"poiid":"B2094654DB6BA4FF439D","title":"无限极(西俞家弄)","lon":"121.49487","lat":"31.21701","category":"162","category_name":"医院","address":"俞家弄180"},{"poiid":"B2094654DA6EA7FD449A","title":"乔家栅小区(西门)","lon":"121.49379","lat":"31.21721","category":"47","category_name":"住宅区","address":"凝和路147弄1-2号万有全集团蓬莱副食品综合市场东"},{"poiid":"B2094757D168A2FF439A","title":"也是园弄","lon":"121.49337165","lat":"31.216664556","category":"500","category_name":"未知分类","address":"上海也是园弄1号—32号"},{"poiid":"B2094654DA6FA3F9419A","title":"好德No.315","lon":"121.49536","lat":"31.21615","category":"117","category_name":"便民商店/便利店","address":"光启南路363"},{"poiid":"B2094655D268A6FF4998","title":"永兴坊","lon":"121.49466","lat":"31.21578","category":"47","category_name":"住宅区","address":"黄家路180弄1-2号"},{"poiid":"B2094654DA6EA7FC449B","title":"明徐光启故居","lon":"121.49465","lat":"31.21758","category":"243","category_name":"纪念馆","address":"黄浦区乔家路238号(光启南路乔家路)"},{"poiid":"B2094655D26CA4FB4498","title":"明日星城(边门)","lon":"121.49443","lat":"31.21498","category":"47","category_name":"住宅区","address":"中华路868弄30-35号"},{"poiid":"B2094655D36CA5FC429B","title":"大南门","lon":"121.49477","lat":"31.2151","category":"38","category_name":"公交车站","address":""},{"poiid":"B2094655D26BA5FA4392","title":"Lan时尚造型工作室","lon":"121.49521","lat":"31.21706","category":"148","category_name":"美容美发店","address":"光启南路305"},{"poiid":"B2094750DA6CABF5409B","title":"翔鹰十三香小龙虾","lon":"121.491477","lat":"31.215105","category":"247","category_name":"餐饮美食","address":"陆家浜路大兴街3号"},{"poiid":"B2094757D069A1FD429F","title":"百花公寓","lon":"121.49553709864","lat":"31.213515823342","category":"47","category_name":"住宅区","address":"上海市黄浦区斜土东路158号"},{"poiid":"B2094757D16CAAF54693","title":"小南门乔家路","lon":"121.495746938","lat":"31.2153562832","category":"47","category_name":"住宅区","address":"上海市黄浦区乔家路"},{"poiid":"B2094654DA6EA7FD429C","title":"婷婷杂货店","lon":"121.49431","lat":"31.21523","category":"117","category_name":"便民商店/便利店","address":""},{"poiid":"B2094654DA6FA3FA489F","title":"南花苑(南门)","lon":"121.49586","lat":"31.21614","category":"47","category_name":"住宅区","address":"黄家路99弄"},{"poiid":"B2094654DA6EA7FC4799","title":"上海市基督教清心堂","lon":"121.49523","lat":"31.21315","category":"245","category_name":"教堂","address":"大昌街30"},{"poiid":"B209475DD26FA3FE429B","title":"滨江大道","lon":"121.492683","lat":"31.216335","category":"500","category_name":"未知分类","address":"上海市 浦东滨江大道1号 滨浦汇"},{"poiid":"B2094655D264A0FA479A","title":"海洲丽园一期二期","lon":"121.496107","lat":"31.216177","category":"47","category_name":"住宅区","address":"上海市黄浦区丽园路68弄"},{"poiid":"B2094757D06FA7F8449D","title":"中西医结合医院(黄家路分院)","lon":"121.49420315","lat":"31.216321354","category":"162","category_name":"医院","address":"上海黄浦区黄家路163号(近光启南路)"},{"poiid":"B2094757D068A3FB469B","title":"明日星城","lon":"121.49450701","lat":"31.214300838","category":"500","category_name":"未知分类","address":"河南南路1009弄3-11号"},{"poiid":"B2094757D069AAF54499","title":"河南南路蓬莱路路口","lon":"121.492031","lat":"31.217954","category":"500","category_name":"未知分类","address":"上海黄浦区河南南路蓬莱路路口"},{"poiid":"B2094753D76FAAFA449C","title":"上海滩国泰旗舰店","lon":"121.466011","lat":"31.216125","category":"249","category_name":"购物服务","address":"淮海中路868号"},{"poiid":"B209475CD564A7F84292","title":"上海滩新天地店","lon":"121.47463","lat":"31.22164","category":"119","category_name":"商场","address":"\"太仓路181弄新天地北里15号\r\n\""},{"poiid":"B209475CD564A7F84392","title":"上海滩浦东香格里拉店","lon":"121.50058","lat":"31.23634","category":"119","category_name":"商场","address":"浦东富成路33号香格里拉酒店内大堂层"},{"poiid":"B2094757D06BA7FF4193","title":"老西门国际青年旅舍","lon":"121.49243","lat":"31.21852","category":"216","category_name":"经济型连锁酒店","address":"黄浦区蓬莱路115号(近河南南路)"},{"poiid":"B2094654DA6EA0F4469F","title":"上海市工商行政管理局黄浦分局","lon":"121.49203","lat":"31.21602","category":"250","category_name":"公园户外","address":"上海河南南路800号"},{"poiid":"B2094757D068A7F4429D","title":"南开大厦","lon":"121.49065","lat":"31.217077","category":"46","category_name":"楼宇","address":"浦东新区金湘路225弄"},{"poiid":"B2094655D26EAAFF4198","title":"凯司令西点房 中华店","lon":"121.495491054","lat":"31.215382793","category":"67","category_name":"甜品店","address":"黄浦区光启南路407号(中华路口)"},{"poiid":"B2094757D068A3F94092","title":"富南大厦","lon":"121.497","lat":"31.2173","category":"46","category_name":"楼宇","address":"鲁尔大厦位于铁西兴华南街5号"},{"poiid":"B2094757D469A2FE449B","title":"普明面馆 黄家路店","lon":"121.494090054","lat":"31.216242793","category":"68","category_name":"快餐厅","address":"黄浦区黄家路195号(近光启南路)"},{"poiid":"B2094655D26FABF5429E","title":"明日星城一期","lon":"121.49416","lat":"31.2136","category":"47","category_name":"住宅区","address":"上海市黄浦区河南南路1号"},{"poiid":"B2094655D268A4F54493","title":"黄浦区敬业游泳馆","lon":"121.49069","lat":"31.21562","category":"231","category_name":"游泳馆","address":"黄浦区尚文路183号(尚文路迎勋北路)"},{"poiid":"B2094757D06AABFB489D","title":"明日星城二期","lon":"121.49499","lat":"31.214718","category":"500","category_name":"未知分类","address":"上海市黄浦区中华路868弄"},{"poiid":"B2094655D26FA6F8489A","title":"浩城华苑","lon":"121.49599","lat":"31.21537","category":"47","category_name":"住宅区","address":"上海市黄浦区黄家路88弄"},{"poiid":"B2094750D665ABF4449D","title":"江阴街排档","lon":"121.494","lat":"31.2154","category":"76","category_name":"上海菜","address":"黄浦区江阴街"},{"poiid":"B2094757D16FA1F8489E","title":"敬业初级中学","lon":"121.492916","lat":"31.216386","category":"55","category_name":"中学","address":"上海黄浦区尚文路73号"},{"poiid":"B2094654DA68A0F54692","title":"银南大厦","lon":"121.493","lat":"31.2169","category":"46","category_name":"楼宇","address":"西藏南路1090弄1-2号"},{"poiid":"B2094655D26FA5FF4998","title":"南花苑","lon":"121.49584","lat":"31.216436","category":"47","category_name":"住宅区","address":"上海黄家路99弄"},{"poiid":"B2094654DA6EA7FC499D","title":"西贝造型","lon":"121.49409","lat":"31.21407","category":"148","category_name":"美容美发店","address":"黄浦区东江阴街26号(近跨龙路)"},{"poiid":"B2094757D06BA4F8429F","title":"wills上海滩花园会所","lon":"121.495963271","lat":"31.2189213869","category":"500","category_name":"未知分类","address":"白渡路288号上海滩花园内"},{"poiid":"B2094654DB6BA4FF449F","title":"快客No.6773","lon":"121.49356","lat":"31.21711","category":"117","category_name":"便民商店/便利店","address":"凝和路140号"},{"poiid":"B2094654DA68A1F5449A","title":"华教大厦","lon":"121.497","lat":"31.2167","category":"46","category_name":"楼宇","address":"上海市浦东新区金桥路983号"},{"poiid":"B2094757D165A7FB4198","title":"乔家路","lon":"121.493571","lat":"31.217111","category":"500","category_name":"未知分类","address":"上海乔家路凝和路"},{"poiid":"B2094654DA6EA7FD439D","title":"申升公寓","lon":"121.4928","lat":"31.215782","category":"47","category_name":"住宅区","address":"申升公寓位于卢湾河南南路737号"},{"poiid":"B2094757D169ABF44898","title":"黄浦区工商局","lon":"121.491909738","lat":"31.2159349955","category":"500","category_name":"未知分类","address":"上海河南南路800号"},{"poiid":"B2094654DB6BA4FF4392","title":"良友","lon":"121.49503","lat":"31.21611","category":"117","category_name":"便民商店/便利店","address":"黄家路155"},{"poiid":"B2094654DA6EA7FD4398","title":"光明乳业尚文配送站","lon":"121.49309","lat":"31.21597","category":"117","category_name":"便民商店/便利店","address":"尚文路36"},{"poiid":"B2094655D26FA6FB4293","title":"乔家栅小区","lon":"121.49405","lat":"31.217241","category":"47","category_name":"住宅区","address":"凝和路139弄1-2号"},{"poiid":"B2094655D268A6FF4999","title":"永兴坊(北门)","lon":"121.49461","lat":"31.21589","category":"47","category_name":"住宅区","address":"黄家路180弄1-2号"},{"poiid":"B2094757D66FA7F4499E","title":"黄家路","lon":"121.494317","lat":"31.216065","category":"500","category_name":"未知分类","address":"上海黄家路"},{"poiid":"B2094751D26EA2FF4799","title":"好面道--大肠面","lon":"121.493088","lat":"31.215195","category":"68","category_name":"快餐厅","address":"黄浦区中华路926号(近河南南路)"},{"poiid":"B2094654DB6BA4FF439D","title":"无限极(西俞家弄)","lon":"121.49487","lat":"31.21701","category":"162","category_name":"医院","address":"俞家弄180"},{"poiid":"B2094654DA6EA7FD449A","title":"乔家栅小区(西门)","lon":"121.49379","lat":"31.21721","category":"47","category_name":"住宅区","address":"凝和路147弄1-2号万有全集团蓬莱副食品综合市场东"},{"poiid":"B2094757D168A2FF439A","title":"也是园弄","lon":"121.49337165","lat":"31.216664556","category":"500","category_name":"未知分类","address":"上海也是园弄1号—32号"},{"poiid":"B2094654DA6FA3F9419A","title":"好德No.315","lon":"121.49536","lat":"31.21615","category":"117","category_name":"便民商店/便利店","address":"光启南路363"},{"poiid":"B2094655D268A6FF4998","title":"永兴坊","lon":"121.49466","lat":"31.21578","category":"47","category_name":"住宅区","address":"黄家路180弄1-2号"},{"poiid":"B2094654DA6EA7FC449B","title":"明徐光启故居","lon":"121.49465","lat":"31.21758","category":"243","category_name":"纪念馆","address":"黄浦区乔家路238号(光启南路乔家路)"},{"poiid":"B2094655D26CA4FB4498","title":"明日星城(边门)","lon":"121.49443","lat":"31.21498","category":"47","category_name":"住宅区","address":"中华路868弄30-35号"},{"poiid":"B2094655D36CA5FC429B","title":"大南门","lon":"121.49477","lat":"31.2151","category":"38","category_name":"公交车站","address":""},{"poiid":"B2094655D26BA5FA4392","title":"Lan时尚造型工作室","lon":"121.49521","lat":"31.21706","category":"148","category_name":"美容美发店","address":"光启南路305"},{"poiid":"B2094750DA6CABF5409B","title":"翔鹰十三香小龙虾","lon":"121.491477","lat":"31.215105","category":"247","category_name":"餐饮美食","address":"陆家浜路大兴街3号"},{"poiid":"B2094757D069A1FD429F","title":"百花公寓","lon":"121.49553709864","lat":"31.213515823342","category":"47","category_name":"住宅区","address":"上海市黄浦区斜土东路158号"},{"poiid":"B2094757D16CAAF54693","title":"小南门乔家路","lon":"121.495746938","lat":"31.2153562832","category":"47","category_name":"住宅区","address":"上海市黄浦区乔家路"},{"poiid":"B2094654DA6EA7FD429C","title":"婷婷杂货店","lon":"121.49431","lat":"31.21523","category":"117","category_name":"便民商店/便利店","address":""},{"poiid":"B2094654DA6FA3FA489F","title":"南花苑(南门)","lon":"121.49586","lat":"31.21614","category":"47","category_name":"住宅区","address":"黄家路99弄"},{"poiid":"B2094654DA6EA7FC4799","title":"上海市基督教清心堂","lon":"121.49523","lat":"31.21315","category":"245","category_name":"教堂","address":"大昌街30"},{"poiid":"B209475DD26FA3FE429B","title":"滨江大道","lon":"121.492683","lat":"31.216335","category":"500","category_name":"未知分类","address":"上海市 浦东滨江大道1号 滨浦汇"},{"poiid":"B2094655D264A0FA479A","title":"海洲丽园一期二期","lon":"121.496107","lat":"31.216177","category":"47","category_name":"住宅区","address":"上海市黄浦区丽园路68弄"}]