[{"poiid":"B2094654DB69A6FD4092","title":"上海港外高桥港区四期集装箱码头","lon":"121.65217","lat":"31.3242","category":"34","category_name":"港口码头","address":"港建路与越海路交叉口"},{"poiid":"B2094757D068A7FE489D","title":"外高桥五期码头","lon":"121.65494537","lat":"31.322025299","category":"500","category_name":"未知分类","address":"上海浦东新区港建路999号"},{"poiid":"B2094757D06FA1FC469C","title":"外高桥四期码头","lon":"121.65071106","lat":"31.3235397339","category":"46","category_name":"楼宇","address":"上海市浦东新区港建路1号"},{"poiid":"B2094757D064A2FD499F","title":"上海绕城高速高东收费站","lon":"121.665118229","lat":"31.3054575424","category":"267","category_name":"收费站","address":"上海绕城高速高东收费站"},{"poiid":"B2094757D06FA4F4439E","title":"杨园体育公园","lon":"121.632972","lat":"31.315069","category":"196","category_name":"公园","address":"上海杨园社区新园路园二路"},{"poiid":"B2094757D06BA6FF429D","title":"高东草莓园 采草莓","lon":"121.6549","lat":"31.30113","category":"260","category_name":"其他","address":"浦东新区高东镇竞赛村顾高公路2020号(近龙跃路)"},{"poiid":"B2094655D268ABF8419A","title":"五洲大道立交桥","lon":"121.64321","lat":"31.30379","category":"250","category_name":"公园户外","address":""},{"poiid":"B2094655D264A4F94692","title":"G1501上海绕城高速高东收费站","lon":"121.66703","lat":"31.30552","category":"267","category_name":"收费站","address":"G1501上海绕城高速"},{"poiid":"B2094757D064ABF44698","title":"外高桥六期码头海关大楼","lon":"121.6554331","lat":"31.3204731","category":"500","category_name":"未知分类","address":"上海浦东新区港建路3988号"},{"poiid":"B2094757D165A1FF4999","title":"杨园新村","lon":"121.63865730827","lat":"31.322282861356","category":"252","category_name":"楼宇机构","address":"新龙路289弄"},{"poiid":"B2094757D069A6FC449D","title":"上海明东集装箱码头有限公司","lon":"121.654945","lat":"31.322026","category":"263","category_name":"公司","address":"上海市浦东新区港建路999号"},{"poiid":"B2094654D569A3F9419B","title":"上海国际港务(集团)股份有限公司","lon":"121.65734","lat":"31.32","category":"266","category_name":"三甲医院","address":"港建路825"},{"poiid":"B2094757D064A4FF4493","title":"华滕生态度假园","lon":"121.64938","lat":"31.30595","category":"260","category_name":"其他","address":"浦东新区高东镇龙跃路888号(上钦路口)"},{"poiid":"B2094757D66FA1F5449F","title":"意得户外运动俱乐部(高东基地)","lon":"121.64909","lat":"31.31311","category":"173","category_name":"游戏厅","address":"上海浦东新区高东镇龙跃路888号(近上钦路)  "},{"poiid":"B2094654D569A3F9409D","title":"上海华腾生态园林有限公司","lon":"121.64703","lat":"31.31235","category":"263","category_name":"公司","address":""},{"poiid":"B2094757D665A1F4419E","title":"华腾生态度假园农家菜","lon":"121.64911","lat":"31.30622","category":"76","category_name":"上海菜","address":"浦东新区龙跃路888号(近外高桥)"},{"poiid":"B2094757D66CA5F44593","title":"崇启大桥","lon":"121.66493595","lat":"31.3052409838","category":"260","category_name":"其他","address":"上海崇明到启东"},{"poiid":"B2094655D26CA4FD4693","title":"扬盛佳苑","lon":"121.63584","lat":"31.314964","category":"47","category_name":"住宅区","address":"园洲路189弄1-87号"},{"poiid":"B2094655D36CA6FC4699","title":"共新码头","lon":"121.66205","lat":"31.31338","category":"38","category_name":"公交车站","address":""},{"poiid":"B2094654D569A3F94092","title":"上海沪东集装箱码头有限公司2号门","lon":"121.65061","lat":"31.32366","category":"263","category_name":"公司","address":"港建路1号"},{"poiid":"B2094654D569A3FC4399","title":"上游村文化广场","lon":"121.64115","lat":"31.31074","category":"201","category_name":"城市广场","address":"上钦路168号"},{"poiid":"B2094654D569A3F9419C","title":"上海三亮绿化有限公司桃花源","lon":"121.64829","lat":"31.30881","category":"263","category_name":"公司","address":""},{"poiid":"B2094655D36DA2F4479A","title":"浦东运河黄家湾桥","lon":"121.64405","lat":"31.32158","category":"250","category_name":"公园户外","address":""},{"poiid":"B2094757DA6EAAFC4999","title":"上海外高桥出入境检验检疫局","lon":"121.650662999998","lat":"31.3236480000002","category":"248","category_name":"生活娱乐","address":"浦东新区港建路1号"},{"poiid":"B2094757D168AAF5469E","title":"东码头","lon":"121.654442","lat":"31.322447","category":"500","category_name":"未知分类","address":"上海杨树浦路340号 近秦皇岛路大连路"},{"poiid":"B2094757D16CA6F5429F","title":"广园酒家","lon":"121.63473","lat":"31.30525","category":"76","category_name":"上海菜","address":"浦东新区杨园镇赵高路1269号(浦东镇南路赵高公路)"},{"poiid":"B2094757D168A2FD479F","title":"海通码头","lon":"121.654478984","lat":"31.3276760368","category":"260","category_name":"其他","address":"上海浦东新区外高桥港建路"},{"poiid":"B2094654D569A3FD439D","title":"杨园别墅","lon":"121.638","lat":"31.316","category":"47","category_name":"住宅区","address":"赵高路968号"},{"poiid":"B2094757D16DAAF44599","title":"顾路","lon":"121.65944245","lat":"31.3001374735","category":"500","category_name":"未知分类","address":"上海市浦东新区顾路"},{"poiid":"B2094654D569A3FC439F","title":"金隆家园","lon":"121.63501","lat":"31.313354","category":"47","category_name":"住宅区","address":"新园路439弄1-34号"},{"poiid":"B2094654D569A3FC429B","title":"华联超市No.2364","lon":"121.63822","lat":"31.30982","category":"118","category_name":"超级市场","address":"高东镇"},{"poiid":"B2094655D26CA5F9419A","title":"好又多购物中心(园洲路)","lon":"121.63462","lat":"31.31562","category":"118","category_name":"超级市场","address":"园洲路97号"},{"poiid":"B2094757D16DA4F84193","title":"上游村","lon":"121.63798933","lat":"31.308441641","category":"500","category_name":"未知分类","address":"上海浦东新区高东镇上游村"},{"poiid":"B2094655D36DA7FC419E","title":"园三路园洲路","lon":"121.63629","lat":"31.31314","category":"38","category_name":"公交车站","address":""},{"poiid":"B2094757D16BA3F5489F","title":"外环高速东海大桥方向","lon":"121.650489907","lat":"31.3020490488","category":"500","category_name":"未知分类","address":"上海浦东新区"},{"poiid":"B2094655D26CA4FE4199","title":"快客No.5123","lon":"121.63535","lat":"31.31477","category":"117","category_name":"便民商店/便利店","address":"园洲路181"},{"poiid":"B2094757D169A0FB429F","title":"杨园派出所","lon":"121.63799273","lat":"31.309553666","category":"609","category_name":"警察局","address":"浦东新区新园路388号"},{"poiid":"B2094655D26DA5F94393","title":"上海乔家栅杨园店","lon":"121.63508","lat":"31.31511","category":"68","category_name":"快餐厅","address":"圆洲路113号"},{"poiid":"B2094750D16BA6FD439A","title":"广盛佳苑","lon":"121.634696","lat":"31.316253","category":"47","category_name":"住宅区","address":"园二路299弄"},{"poiid":"B2094654D569A3F9429E","title":"龙梢车站便利","lon":"121.65224","lat":"31.30068","category":"117","category_name":"便民商店/便利店","address":""},{"poiid":"B2094655D26DA5FF419E","title":"扬盛佳苑(西门)","lon":"121.63557","lat":"31.31446","category":"47","category_name":"住宅区","address":"园洲路189弄1-87号"},{"poiid":"B2094757D66CA2F8499D","title":"爵鼎鸡(杨园店)","lon":"121.63827873","lat":"31.308498042","category":"500","category_name":"未知分类","address":"上海浦东新区杨园镇园洲路99-105号"},{"poiid":"B2094750D16AA3FB439C","title":"高东门球公园","lon":"121.637458","lat":"31.305435","category":"250","category_name":"公园户外","address":"新园路"},{"poiid":"B2094654D568AAF54293","title":"欣连苑","lon":"121.6331","lat":"31.316799","category":"47","category_name":"住宅区","address":"新园路251弄1-33号"},{"poiid":"B2094654D569A3FF4193","title":"上海大道包装隔热材料有限公司","lon":"121.65808","lat":"31.30287","category":"263","category_name":"公司","address":"顾徐路8号"},{"poiid":"B2094655D26FA0F8449B","title":"金隆家园(西门)","lon":"121.63459","lat":"31.31342","category":"47","category_name":"住宅区","address":"新园路439弄1-34号"},{"poiid":"B2094654D569A2F54699","title":"安元酒家","lon":"121.63595","lat":"31.32299","category":"257","category_name":"中餐厅","address":""},{"poiid":"B2094655D26CA5F4499B","title":"快客No.6651","lon":"121.63221","lat":"31.31643","category":"117","category_name":"便民商店/便利店","address":""},{"poiid":"B2094757D16AA2FC419C","title":"怡世翔","lon":"121.66180595","lat":"31.3035601475","category":"500","category_name":"未知分类","address":"上海德堡路379号"},{"poiid":"B2094757D164AAF4459F","title":"园园台球城","lon":"121.63466","lat":"31.31547","category":"171","category_name":"台球厅","address":"浦东新区园洲路好又多超市(近好又多超市)"},{"poiid":"B2094654DB69A6FD4092","title":"上海港外高桥港区四期集装箱码头","lon":"121.65217","lat":"31.3242","category":"34","category_name":"港口码头","address":"港建路与越海路交叉口"},{"poiid":"B2094757D068A7FE489D","title":"外高桥五期码头","lon":"121.65494537","lat":"31.322025299","category":"500","category_name":"未知分类","address":"上海浦东新区港建路999号"},{"poiid":"B2094757D06FA1FC469C","title":"外高桥四期码头","lon":"121.65071106","lat":"31.3235397339","category":"46","category_name":"楼宇","address":"上海市浦东新区港建路1号"},{"poiid":"B2094757D064A2FD499F","title":"上海绕城高速高东收费站","lon":"121.665118229","lat":"31.3054575424","category":"267","category_name":"收费站","address":"上海绕城高速高东收费站"},{"poiid":"B2094757D06FA4F4439E","title":"杨园体育公园","lon":"121.632972","lat":"31.315069","category":"196","category_name":"公园","address":"上海杨园社区新园路园二路"},{"poiid":"B2094757D06BA6FF429D","title":"高东草莓园 采草莓","lon":"121.6549","lat":"31.30113","category":"260","category_name":"其他","address":"浦东新区高东镇竞赛村顾高公路2020号(近龙跃路)"},{"poiid":"B2094655D268ABF8419A","title":"五洲大道立交桥","lon":"121.64321","lat":"31.30379","category":"250","category_name":"公园户外","address":""},{"poiid":"B2094655D264A4F94692","title":"G1501上海绕城高速高东收费站","lon":"121.66703","lat":"31.30552","category":"267","category_name":"收费站","address":"G1501上海绕城高速"},{"poiid":"B2094757D064ABF44698","title":"外高桥六期码头海关大楼","lon":"121.6554331","lat":"31.3204731","category":"500","category_name":"未知分类","address":"上海浦东新区港建路3988号"},{"poiid":"B2094757D165A1FF4999","title":"杨园新村","lon":"121.63865730827","lat":"31.322282861356","category":"252","category_name":"楼宇机构","address":"新龙路289弄"},{"poiid":"B2094757D069A6FC449D","title":"上海明东集装箱码头有限公司","lon":"121.654945","lat":"31.322026","category":"263","category_name":"公司","address":"上海市浦东新区港建路999号"},{"poiid":"B2094654D569A3F9419B","title":"上海国际港务(集团)股份有限公司","lon":"121.65734","lat":"31.32","category":"266","category_name":"三甲医院","address":"港建路825"},{"poiid":"B2094757D064A4FF4493","title":"华滕生态度假园","lon":"121.64938","lat":"31.30595","category":"260","category_name":"其他","address":"浦东新区高东镇龙跃路888号(上钦路口)"},{"poiid":"B2094757D66FA1F5449F","title":"意得户外运动俱乐部(高东基地)","lon":"121.64909","lat":"31.31311","category":"173","category_name":"游戏厅","address":"上海浦东新区高东镇龙跃路888号(近上钦路)  "},{"poiid":"B2094654D569A3F9409D","title":"上海华腾生态园林有限公司","lon":"121.64703","lat":"31.31235","category":"263","category_name":"公司","address":""},{"poiid":"B2094757D665A1F4419E","title":"华腾生态度假园农家菜","lon":"121.64911","lat":"31.30622","category":"76","category_name":"上海菜","address":"浦东新区龙跃路888号(近外高桥)"},{"poiid":"B2094757D66CA5F44593","title":"崇启大桥","lon":"121.66493595","lat":"31.3052409838","category":"260","category_name":"其他","address":"上海崇明到启东"},{"poiid":"B2094655D26CA4FD4693","title":"扬盛佳苑","lon":"121.63584","lat":"31.314964","category":"47","category_name":"住宅区","address":"园洲路189弄1-87号"},{"poiid":"B2094655D36CA6FC4699","title":"共新码头","lon":"121.66205","lat":"31.31338","category":"38","category_name":"公交车站","address":""},{"poiid":"B2094654D569A3F94092","title":"上海沪东集装箱码头有限公司2号门","lon":"121.65061","lat":"31.32366","category":"263","category_name":"公司","address":"港建路1号"},{"poiid":"B2094654D569A3FC4399","title":"上游村文化广场","lon":"121.64115","lat":"31.31074","category":"201","category_name":"城市广场","address":"上钦路168号"},{"poiid":"B2094654D569A3F9419C","title":"上海三亮绿化有限公司桃花源","lon":"121.64829","lat":"31.30881","category":"263","category_name":"公司","address":""},{"poiid":"B2094655D36DA2F4479A","title":"浦东运河黄家湾桥","lon":"121.64405","lat":"31.32158","category":"250","category_name":"公园户外","address":""},{"poiid":"B2094757DA6EAAFC4999","title":"上海外高桥出入境检验检疫局","lon":"121.650662999998","lat":"31.3236480000002","category":"248","category_name":"生活娱乐","address":"浦东新区港建路1号"},{"poiid":"B2094757D168AAF5469E","title":"东码头","lon":"121.654442","lat":"31.322447","category":"500","category_name":"未知分类","address":"上海杨树浦路340号 近秦皇岛路大连路"},{"poiid":"B2094757D16CA6F5429F","title":"广园酒家","lon":"121.63473","lat":"31.30525","category":"76","category_name":"上海菜","address":"浦东新区杨园镇赵高路1269号(浦东镇南路赵高公路)"},{"poiid":"B2094757D168A2FD479F","title":"海通码头","lon":"121.654478984","lat":"31.3276760368","category":"260","category_name":"其他","address":"上海浦东新区外高桥港建路"},{"poiid":"B2094654D569A3FD439D","title":"杨园别墅","lon":"121.638","lat":"31.316","category":"47","category_name":"住宅区","address":"赵高路968号"},{"poiid":"B2094757D16DAAF44599","title":"顾路","lon":"121.65944245","lat":"31.3001374735","category":"500","category_name":"未知分类","address":"上海市浦东新区顾路"},{"poiid":"B2094654D569A3FC439F","title":"金隆家园","lon":"121.63501","lat":"31.313354","category":"47","category_name":"住宅区","address":"新园路439弄1-34号"},{"poiid":"B2094654D569A3FC429B","title":"华联超市No.2364","lon":"121.63822","lat":"31.30982","category":"118","category_name":"超级市场","address":"高东镇"},{"poiid":"B2094655D26CA5F9419A","title":"好又多购物中心(园洲路)","lon":"121.63462","lat":"31.31562","category":"118","category_name":"超级市场","address":"园洲路97号"},{"poiid":"B2094757D16DA4F84193","title":"上游村","lon":"121.63798933","lat":"31.308441641","category":"500","category_name":"未知分类","address":"上海浦东新区高东镇上游村"},{"poiid":"B2094655D36DA7FC419E","title":"园三路园洲路","lon":"121.63629","lat":"31.31314","category":"38","category_name":"公交车站","address":""},{"poiid":"B2094757D16BA3F5489F","title":"外环高速东海大桥方向","lon":"121.650489907","lat":"31.3020490488","category":"500","category_name":"未知分类","address":"上海浦东新区"},{"poiid":"B2094655D26CA4FE4199","title":"快客No.5123","lon":"121.63535","lat":"31.31477","category":"117","category_name":"便民商店/便利店","address":"园洲路181"},{"poiid":"B2094757D169A0FB429F","title":"杨园派出所","lon":"121.63799273","lat":"31.309553666","category":"609","category_name":"警察局","address":"浦东新区新园路388号"},{"poiid":"B2094655D26DA5F94393","title":"上海乔家栅杨园店","lon":"121.63508","lat":"31.31511","category":"68","category_name":"快餐厅","address":"圆洲路113号"},{"poiid":"B2094750D16BA6FD439A","title":"广盛佳苑","lon":"121.634696","lat":"31.316253","category":"47","category_name":"住宅区","address":"园二路299弄"},{"poiid":"B2094654D569A3F9429E","title":"龙梢车站便利","lon":"121.65224","lat":"31.30068","category":"117","category_name":"便民商店/便利店","address":""},{"poiid":"B2094655D26DA5FF419E","title":"扬盛佳苑(西门)","lon":"121.63557","lat":"31.31446","category":"47","category_name":"住宅区","address":"园洲路189弄1-87号"},{"poiid":"B2094757D66CA2F8499D","title":"爵鼎鸡(杨园店)","lon":"121.63827873","lat":"31.308498042","category":"500","category_name":"未知分类","address":"上海浦东新区杨园镇园洲路99-105号"},{"poiid":"B2094750D16AA3FB439C","title":"高东门球公园","lon":"121.637458","lat":"31.305435","category":"250","category_name":"公园户外","address":"新园路"},{"poiid":"B2094654D568AAF54293","title":"欣连苑","lon":"121.6331","lat":"31.316799","category":"47","category_name":"住宅区","address":"新园路251弄1-33号"},{"poiid":"B2094654D569A3FF4193","title":"上海大道包装隔热材料有限公司","lon":"121.65808","lat":"31.30287","category":"263","category_name":"公司","address":"顾徐路8号"},{"poiid":"B2094655D26FA0F8449B","title":"金隆家园(西门)","lon":"121.63459","lat":"31.31342","category":"47","category_name":"住宅区","address":"新园路439弄1-34号"},{"poiid":"B2094654D569A2F54699","title":"安元酒家","lon":"121.63595","lat":"31.32299","category":"257","category_name":"中餐厅","address":""},{"poiid":"B2094655D26CA5F4499B","title":"快客No.6651","lon":"121.63221","lat":"31.31643","category":"117","category_name":"便民商店/便利店","address":""},{"poiid":"B2094757D16AA2FC419C","title":"怡世翔","lon":"121.66180595","lat":"31.3035601475","category":"500","category_name":"未知分类","address":"上海德堡路379号"},{"poiid":"B2094757D164AAF4459F","title":"园园台球城","lon":"121.63466","lat":"31.31547","category":"171","category_name":"台球厅","address":"浦东新区园洲路好又多超市(近好又多超市)"}]