[{"poiid":"B2094655D26AAAFF429C","title":"丰收日普陀店","lon":"121.42003","lat":"31.23682","category":"75","category_name":"浙江菜","address":"普陀区曹杨路450号绿地和创大厦裙楼1-2楼(近宁夏路)"},{"poiid":"B2094752DB64A4FE429D","title":"蜀九香","lon":"121.421003","lat":"31.234351","category":"500","category_name":"未知分类","address":"上海市 曹杨路333号3楼"},{"poiid":"B2094757D068A5F44592","title":"谈家渡路曹杨路","lon":"121.421281704","lat":"31.2341927364","category":"500","category_name":"未知分类","address":"上海谈家渡路曹杨路"},{"poiid":"B2094757D069A3F9409C","title":"普陀体育馆","lon":"121.420636","lat":"31.236059","category":"224","category_name":"综合体育馆","address":"上海曹杨路400号(宁夏路口)"},{"poiid":"B2094757D068A6F9459D","title":"绿地世纪城一期","lon":"121.423266","lat":"31.236354","category":"47","category_name":"住宅区","address":"上海市普陀区顺义路62号"},{"poiid":"B2094757D06EAAFC429D","title":"一线烫捞(我格广场店)","lon":"121.4236503","lat":"31.237565936","category":"68","category_name":"快餐厅","address":"普陀区武宁路101号我格广场B1楼(普雄路口)"},{"poiid":"B2094757D06BA1F8409F","title":"新石器","lon":"121.42326058","lat":"31.237801579","category":"500","category_name":"未知分类","address":"上海市普陀区武宁路"},{"poiid":"B2094757D56DA0F8449F","title":"宁夏路营业厅","lon":"121.420158","lat":"31.234798","category":"151","category_name":"电讯营业厅","address":"普陀区宁夏路215号（曹杨路口）"},{"poiid":"B209475CD56AA5FB4998","title":"红辣椒（曹杨店）","lon":"121.423149","lat":"31.235074","category":"247","category_name":"餐饮美食","address":"上海市普陀区曹杨路555号汇融天地401-403"},{"poiid":"B2094757D068A0F84792","title":"盛泉商务大厦","lon":"121.42168205","lat":"31.234239539","category":"46","category_name":"楼宇","address":"上海谈家渡路28号"},{"poiid":"B2094757D06FA4F8449A","title":"兄弟麻辣烫(谈家渡路店)","lon":"121.42395138","lat":"31.235691731","category":"68","category_name":"快餐厅","address":"普陀区谈家渡路(武宁路桥下740车站对面)"},{"poiid":"B2094654D565A3FE489A","title":"上钞大厦","lon":"121.42248","lat":"31.23261","category":"46","category_name":"楼宇","address":"浦东区崂山东路410号"},{"poiid":"B2094757D069ABFD419E","title":"荣源楼小笼(我格广场店)","lon":"121.423266986","lat":"31.2375576744","category":"68","category_name":"快餐厅","address":"普陀区武宁路101号我格广场B1楼17号铺"},{"poiid":"B2094655D26CABF8499E","title":"苏宁电器(曹杨路店)","lon":"121.42099","lat":"31.23551","category":"138","category_name":"家电电子卖场","address":"普陀区曹杨路368号(近普雄路)"},{"poiid":"B2094757D06FA7FD479C","title":"逸流公寓","lon":"121.422358","lat":"31.237481","category":"500","category_name":"未知分类","address":"上海市浦东新区云台路453弄"},{"poiid":"B2094757D064A2F94698","title":"可颂坊(曹杨店)","lon":"121.42085","lat":"31.23554","category":"112","category_name":"糕饼店","address":"普陀区曹杨路388号(近宁夏路)"},{"poiid":"B2094655D36CA3F4479F","title":"绿地世纪城(上海春天)","lon":"121.42038","lat":"31.23339","category":"47","category_name":"住宅区","address":"绿地世纪城(上海春天)位于普陀曹杨路303弄"},{"poiid":"B2094655D265A5F84998","title":"COSTA COFFEE(曹杨店)","lon":"121.42026","lat":"31.23672","category":"65","category_name":"咖啡厅","address":"上海普陀区曹杨路450号绿地和创大厦1楼(近宁夏路)"},{"poiid":"B2094654DB6BA6FD449E","title":"瑞鑫东北菜","lon":"121.42148","lat":"31.23511","category":"82","category_name":"东北菜","address":"普陀区西谈家渡路17栋6号(近曹杨路)"},{"poiid":"B2094757D06BA5F44199","title":"烧鹅仔 紫砂美食","lon":"121.423074876","lat":"31.2378917076","category":"72","category_name":"广东菜","address":"普陀区武宁路101号我格广场5楼12号铺金香汇美食广场内(普雄路口)"},{"poiid":"B2094757D169A0FF4692","title":"吉鲜铁板烧","lon":"121.423320086","lat":"31.2377344779","category":"68","category_name":"快餐厅","address":"普陀区武宁路101号我格广场5楼(近普雄路)"},{"poiid":"B2094757D569A6F94598","title":"原味小厨","lon":"121.42185574","lat":"31.23600342","category":"68","category_name":"快餐厅","address":"普陀区普雄路18号(近曹杨路)"},{"poiid":"B2094757D16CA3FA469E","title":"益佳粥店","lon":"121.420877561","lat":"31.2354482831","category":"68","category_name":"快餐厅","address":"普陀区曹杨路282号(近谈家渡路)"},{"poiid":"B2094757D66CA5FE4898","title":"华联酒家","lon":"121.42069","lat":"31.23445","category":"76","category_name":"上海菜","address":"普陀区曹杨路298号(近宁夏路)"},{"poiid":"B2094757D66EA0F9469C","title":"武宁新村幼儿园","lon":"121.42135558","lat":"31.235536534","category":"57","category_name":"幼儿园","address":"普陀区普雄路31号(逸流公寓西面)"},{"poiid":"B2094750D268A2FC4699","title":"人道素菜","lon":"121.422996","lat":"31.23678","category":"247","category_name":"餐饮美食","address":"静安寺"},{"poiid":"B2094654DB6BA6FD439F","title":"妯娌老鸭粉丝 曹杨路","lon":"121.421344054","lat":"31.234018793","category":"68","category_name":"快餐厅","address":"普陀区曹杨路304号(近谈家渡路)"},{"poiid":"B2094655D36DA1FB499D","title":"西谈家渡路","lon":"121.42258","lat":"31.23494","category":"38","category_name":"公交车站","address":""},{"poiid":"B2094654DB6AA3F4489B","title":"秦庭","lon":"121.42003247268","lat":"31.23526776025","category":"77","category_name":"湖南菜","address":"普陀区宁夏路220号秦庭内(苏宁电器对面)"},{"poiid":"B2094757D06BABFC4399","title":"超级鸡车","lon":"121.420825486","lat":"31.2347923203","category":"500","category_name":"未知分类","address":"普陀区曹杨路287号(近顺义路)"},{"poiid":"B2094655D26DA3FA429E","title":"上海市市容环境卫生行业协会","lon":"121.42235","lat":"31.23514","category":"250","category_name":"公园户外","address":"谈家渡路69"},{"poiid":"B2094757D16DA1FD4198","title":"普陀一村","lon":"121.4218387","lat":"31.235497734","category":"500","category_name":"未知分类","address":"上海普雄路曹杨路"},{"poiid":"B2094757D06FA4FD479D","title":"MOB(曹杨店)","lon":"121.4203","lat":"31.23654","category":"221","category_name":"健身中心","address":"普陀区曹杨路450号和创大厦下沉式广场(近宁夏路)"},{"poiid":"B2094655D26AA3FC489C","title":"白玉地段医院","lon":"121.41985","lat":"31.23611","category":"162","category_name":"医院","address":"普陀区曹杨路421号(近宁夏路)"},{"poiid":"B209475DD26DA6FE4992","title":"米兰意式餐厅","lon":"121.423042","lat":"31.235168","category":"247","category_name":"餐饮美食","address":"上海市普陀区曹杨路555号汇融天地202"},{"poiid":"B2094655D26AA7F4409A","title":"PT桌球曹杨路店","lon":"121.42073","lat":"31.23592","category":"247","category_name":"餐饮美食","address":"普陀区曹杨路400号普陀体育馆地下室(近宁夏路,白玉路)"},{"poiid":"B2094757D66DABFB4893","title":"君满堂KTV","lon":"121.42129","lat":"31.2342","category":"170","category_name":"KTV","address":"普陀区曹杨路333号(近宁夏路)"},{"poiid":"B2094757D16BA5FE409A","title":"河南拉面","lon":"121.42031458","lat":"31.234951523","category":"68","category_name":"快餐厅","address":"普陀区普雄路130号(近曹杨路)"},{"poiid":"B2094752DB64A5FB439C","title":"蜀九香火锅","lon":"121.421075","lat":"31.234563","category":"247","category_name":"餐饮美食","address":"上海市 普陀区曹杨路333号3楼"},{"poiid":"B2094757D064A5FC469C","title":"东北人家","lon":"121.42088","lat":"31.2352","category":"500","category_name":"未知分类","address":"普陀区中山北路1919号(近光新路)"},{"poiid":"B2094751DA64A4F9479C","title":"南京路步行街","lon":"121.421521","lat":"31.233609","category":"500","category_name":"未知分类","address":null},{"poiid":"B2094753D769A5FC439C","title":"东方明珠旋转餐厅","lon":"121.422187","lat":"31.234523","category":"500","category_name":"未知分类","address":"上海市 陆家嘴"},{"poiid":"B2094750D26EA7F9439C","title":"丰收日大酒店 普陀店","lon":"121.419988054","lat":"31.236365793","category":"247","category_name":"餐饮美食","address":"曹杨路450号绿地和创大厦辅楼1-2楼近普雄路"},{"poiid":"B2094757D065A3FE4092","title":"文汇新民报业集团(龙吴厂)","lon":"121.422118386","lat":"31.2350143246","category":"500","category_name":"未知分类","address":"上海闵行区联曹路289号"},{"poiid":"B2094757D165A3FA419A","title":"缤纷歌城","lon":"121.424323586","lat":"31.2346045166","category":"170","category_name":"KTV","address":"普陀区宜川路310号美华商城2楼(近延长西路)"},{"poiid":"B2094655D26FA3FE499E","title":"元祖 宁夏路店 Ganso","lon":"121.420964054","lat":"31.235497793","category":"112","category_name":"糕饼店","address":"宁夏路215号近曹杨路"},{"poiid":"B2094654DB65AAF84293","title":"曹杨路办公楼","lon":"121.42176","lat":"31.23357","category":"46","category_name":"楼宇","address":"朝阳区亚运村北3公里北苑居住区"},{"poiid":"B209475CD569A1FC439F","title":"红辣椒","lon":"121.42279","lat":"31.235643","category":"500","category_name":"未知分类","address":"上海市 曹杨路555号汇融天地401"},{"poiid":"B2094655D26AA3F84399","title":"古越龙山体育馆室内足球","lon":"121.42073","lat":"31.23592","category":"247","category_name":"餐饮美食","address":"普陀区曹杨路400号(近宁夏路)"},{"poiid":"B2094655D26FA5F54899","title":"永琪美容美发(曹杨店)","lon":"121.42094","lat":"31.23427","category":"148","category_name":"美容美发店","address":"上海普陀区曹杨路315号(近谈家渡路)  "},{"poiid":"B2094655D26AAAFF429C","title":"丰收日普陀店","lon":"121.42003","lat":"31.23682","category":"75","category_name":"浙江菜","address":"普陀区曹杨路450号绿地和创大厦裙楼1-2楼(近宁夏路)"},{"poiid":"B2094752DB64A4FE429D","title":"蜀九香","lon":"121.421003","lat":"31.234351","category":"500","category_name":"未知分类","address":"上海市 曹杨路333号3楼"},{"poiid":"B2094757D068A5F44592","title":"谈家渡路曹杨路","lon":"121.421281704","lat":"31.2341927364","category":"500","category_name":"未知分类","address":"上海谈家渡路曹杨路"},{"poiid":"B2094757D069A3F9409C","title":"普陀体育馆","lon":"121.420636","lat":"31.236059","category":"224","category_name":"综合体育馆","address":"上海曹杨路400号(宁夏路口)"},{"poiid":"B2094757D068A6F9459D","title":"绿地世纪城一期","lon":"121.423266","lat":"31.236354","category":"47","category_name":"住宅区","address":"上海市普陀区顺义路62号"},{"poiid":"B2094757D06EAAFC429D","title":"一线烫捞(我格广场店)","lon":"121.4236503","lat":"31.237565936","category":"68","category_name":"快餐厅","address":"普陀区武宁路101号我格广场B1楼(普雄路口)"},{"poiid":"B2094757D06BA1F8409F","title":"新石器","lon":"121.42326058","lat":"31.237801579","category":"500","category_name":"未知分类","address":"上海市普陀区武宁路"},{"poiid":"B2094757D56DA0F8449F","title":"宁夏路营业厅","lon":"121.420158","lat":"31.234798","category":"151","category_name":"电讯营业厅","address":"普陀区宁夏路215号（曹杨路口）"},{"poiid":"B209475CD56AA5FB4998","title":"红辣椒（曹杨店）","lon":"121.423149","lat":"31.235074","category":"247","category_name":"餐饮美食","address":"上海市普陀区曹杨路555号汇融天地401-403"},{"poiid":"B2094757D068A0F84792","title":"盛泉商务大厦","lon":"121.42168205","lat":"31.234239539","category":"46","category_name":"楼宇","address":"上海谈家渡路28号"},{"poiid":"B2094757D06FA4F8449A","title":"兄弟麻辣烫(谈家渡路店)","lon":"121.42395138","lat":"31.235691731","category":"68","category_name":"快餐厅","address":"普陀区谈家渡路(武宁路桥下740车站对面)"},{"poiid":"B2094654D565A3FE489A","title":"上钞大厦","lon":"121.42248","lat":"31.23261","category":"46","category_name":"楼宇","address":"浦东区崂山东路410号"},{"poiid":"B2094757D069ABFD419E","title":"荣源楼小笼(我格广场店)","lon":"121.423266986","lat":"31.2375576744","category":"68","category_name":"快餐厅","address":"普陀区武宁路101号我格广场B1楼17号铺"},{"poiid":"B2094655D26CABF8499E","title":"苏宁电器(曹杨路店)","lon":"121.42099","lat":"31.23551","category":"138","category_name":"家电电子卖场","address":"普陀区曹杨路368号(近普雄路)"},{"poiid":"B2094757D06FA7FD479C","title":"逸流公寓","lon":"121.422358","lat":"31.237481","category":"500","category_name":"未知分类","address":"上海市浦东新区云台路453弄"},{"poiid":"B2094757D064A2F94698","title":"可颂坊(曹杨店)","lon":"121.42085","lat":"31.23554","category":"112","category_name":"糕饼店","address":"普陀区曹杨路388号(近宁夏路)"},{"poiid":"B2094655D36CA3F4479F","title":"绿地世纪城(上海春天)","lon":"121.42038","lat":"31.23339","category":"47","category_name":"住宅区","address":"绿地世纪城(上海春天)位于普陀曹杨路303弄"},{"poiid":"B2094655D265A5F84998","title":"COSTA COFFEE(曹杨店)","lon":"121.42026","lat":"31.23672","category":"65","category_name":"咖啡厅","address":"上海普陀区曹杨路450号绿地和创大厦1楼(近宁夏路)"},{"poiid":"B2094654DB6BA6FD449E","title":"瑞鑫东北菜","lon":"121.42148","lat":"31.23511","category":"82","category_name":"东北菜","address":"普陀区西谈家渡路17栋6号(近曹杨路)"},{"poiid":"B2094757D06BA5F44199","title":"烧鹅仔 紫砂美食","lon":"121.423074876","lat":"31.2378917076","category":"72","category_name":"广东菜","address":"普陀区武宁路101号我格广场5楼12号铺金香汇美食广场内(普雄路口)"},{"poiid":"B2094757D169A0FF4692","title":"吉鲜铁板烧","lon":"121.423320086","lat":"31.2377344779","category":"68","category_name":"快餐厅","address":"普陀区武宁路101号我格广场5楼(近普雄路)"},{"poiid":"B2094757D569A6F94598","title":"原味小厨","lon":"121.42185574","lat":"31.23600342","category":"68","category_name":"快餐厅","address":"普陀区普雄路18号(近曹杨路)"},{"poiid":"B2094757D16CA3FA469E","title":"益佳粥店","lon":"121.420877561","lat":"31.2354482831","category":"68","category_name":"快餐厅","address":"普陀区曹杨路282号(近谈家渡路)"},{"poiid":"B2094757D66CA5FE4898","title":"华联酒家","lon":"121.42069","lat":"31.23445","category":"76","category_name":"上海菜","address":"普陀区曹杨路298号(近宁夏路)"},{"poiid":"B2094757D66EA0F9469C","title":"武宁新村幼儿园","lon":"121.42135558","lat":"31.235536534","category":"57","category_name":"幼儿园","address":"普陀区普雄路31号(逸流公寓西面)"},{"poiid":"B2094750D268A2FC4699","title":"人道素菜","lon":"121.422996","lat":"31.23678","category":"247","category_name":"餐饮美食","address":"静安寺"},{"poiid":"B2094654DB6BA6FD439F","title":"妯娌老鸭粉丝 曹杨路","lon":"121.421344054","lat":"31.234018793","category":"68","category_name":"快餐厅","address":"普陀区曹杨路304号(近谈家渡路)"},{"poiid":"B2094655D36DA1FB499D","title":"西谈家渡路","lon":"121.42258","lat":"31.23494","category":"38","category_name":"公交车站","address":""},{"poiid":"B2094654DB6AA3F4489B","title":"秦庭","lon":"121.42003247268","lat":"31.23526776025","category":"77","category_name":"湖南菜","address":"普陀区宁夏路220号秦庭内(苏宁电器对面)"},{"poiid":"B2094757D06BABFC4399","title":"超级鸡车","lon":"121.420825486","lat":"31.2347923203","category":"500","category_name":"未知分类","address":"普陀区曹杨路287号(近顺义路)"},{"poiid":"B2094655D26DA3FA429E","title":"上海市市容环境卫生行业协会","lon":"121.42235","lat":"31.23514","category":"250","category_name":"公园户外","address":"谈家渡路69"},{"poiid":"B2094757D16DA1FD4198","title":"普陀一村","lon":"121.4218387","lat":"31.235497734","category":"500","category_name":"未知分类","address":"上海普雄路曹杨路"},{"poiid":"B2094757D06FA4FD479D","title":"MOB(曹杨店)","lon":"121.4203","lat":"31.23654","category":"221","category_name":"健身中心","address":"普陀区曹杨路450号和创大厦下沉式广场(近宁夏路)"},{"poiid":"B2094655D26AA3FC489C","title":"白玉地段医院","lon":"121.41985","lat":"31.23611","category":"162","category_name":"医院","address":"普陀区曹杨路421号(近宁夏路)"},{"poiid":"B209475DD26DA6FE4992","title":"米兰意式餐厅","lon":"121.423042","lat":"31.235168","category":"247","category_name":"餐饮美食","address":"上海市普陀区曹杨路555号汇融天地202"},{"poiid":"B2094655D26AA7F4409A","title":"PT桌球曹杨路店","lon":"121.42073","lat":"31.23592","category":"247","category_name":"餐饮美食","address":"普陀区曹杨路400号普陀体育馆地下室(近宁夏路,白玉路)"},{"poiid":"B2094757D66DABFB4893","title":"君满堂KTV","lon":"121.42129","lat":"31.2342","category":"170","category_name":"KTV","address":"普陀区曹杨路333号(近宁夏路)"},{"poiid":"B2094757D16BA5FE409A","title":"河南拉面","lon":"121.42031458","lat":"31.234951523","category":"68","category_name":"快餐厅","address":"普陀区普雄路130号(近曹杨路)"},{"poiid":"B2094752DB64A5FB439C","title":"蜀九香火锅","lon":"121.421075","lat":"31.234563","category":"247","category_name":"餐饮美食","address":"上海市 普陀区曹杨路333号3楼"},{"poiid":"B2094757D064A5FC469C","title":"东北人家","lon":"121.42088","lat":"31.2352","category":"500","category_name":"未知分类","address":"普陀区中山北路1919号(近光新路)"},{"poiid":"B2094751DA64A4F9479C","title":"南京路步行街","lon":"121.421521","lat":"31.233609","category":"500","category_name":"未知分类","address":null},{"poiid":"B2094753D769A5FC439C","title":"东方明珠旋转餐厅","lon":"121.422187","lat":"31.234523","category":"500","category_name":"未知分类","address":"上海市 陆家嘴"},{"poiid":"B2094750D26EA7F9439C","title":"丰收日大酒店 普陀店","lon":"121.419988054","lat":"31.236365793","category":"247","category_name":"餐饮美食","address":"曹杨路450号绿地和创大厦辅楼1-2楼近普雄路"},{"poiid":"B2094757D065A3FE4092","title":"文汇新民报业集团(龙吴厂)","lon":"121.422118386","lat":"31.2350143246","category":"500","category_name":"未知分类","address":"上海闵行区联曹路289号"},{"poiid":"B2094757D165A3FA419A","title":"缤纷歌城","lon":"121.424323586","lat":"31.2346045166","category":"170","category_name":"KTV","address":"普陀区宜川路310号美华商城2楼(近延长西路)"},{"poiid":"B2094655D26FA3FE499E","title":"元祖 宁夏路店 Ganso","lon":"121.420964054","lat":"31.235497793","category":"112","category_name":"糕饼店","address":"宁夏路215号近曹杨路"},{"poiid":"B2094654DB65AAF84293","title":"曹杨路办公楼","lon":"121.42176","lat":"31.23357","category":"46","category_name":"楼宇","address":"朝阳区亚运村北3公里北苑居住区"},{"poiid":"B209475CD569A1FC439F","title":"红辣椒","lon":"121.42279","lat":"31.235643","category":"500","category_name":"未知分类","address":"上海市 曹杨路555号汇融天地401"},{"poiid":"B2094655D26AA3F84399","title":"古越龙山体育馆室内足球","lon":"121.42073","lat":"31.23592","category":"247","category_name":"餐饮美食","address":"普陀区曹杨路400号(近宁夏路)"},{"poiid":"B2094655D26FA5F54899","title":"永琪美容美发(曹杨店)","lon":"121.42094","lat":"31.23427","category":"148","category_name":"美容美发店","address":"上海普陀区曹杨路315号(近谈家渡路)  "},{"poiid":"B2094655D26AAAFF429C","title":"丰收日普陀店","lon":"121.42003","lat":"31.23682","category":"75","category_name":"浙江菜","address":"普陀区曹杨路450号绿地和创大厦裙楼1-2楼(近宁夏路)"},{"poiid":"B2094752DB64A4FE429D","title":"蜀九香","lon":"121.421003","lat":"31.234351","category":"500","category_name":"未知分类","address":"上海市 曹杨路333号3楼"},{"poiid":"B2094757D068A5F44592","title":"谈家渡路曹杨路","lon":"121.421281704","lat":"31.2341927364","category":"500","category_name":"未知分类","address":"上海谈家渡路曹杨路"},{"poiid":"B2094757D069A3F9409C","title":"普陀体育馆","lon":"121.420636","lat":"31.236059","category":"224","category_name":"综合体育馆","address":"上海曹杨路400号(宁夏路口)"},{"poiid":"B2094757D068A6F9459D","title":"绿地世纪城一期","lon":"121.423266","lat":"31.236354","category":"47","category_name":"住宅区","address":"上海市普陀区顺义路62号"},{"poiid":"B2094757D06EAAFC429D","title":"一线烫捞(我格广场店)","lon":"121.4236503","lat":"31.237565936","category":"68","category_name":"快餐厅","address":"普陀区武宁路101号我格广场B1楼(普雄路口)"},{"poiid":"B2094757D06BA1F8409F","title":"新石器","lon":"121.42326058","lat":"31.237801579","category":"500","category_name":"未知分类","address":"上海市普陀区武宁路"},{"poiid":"B2094757D56DA0F8449F","title":"宁夏路营业厅","lon":"121.420158","lat":"31.234798","category":"151","category_name":"电讯营业厅","address":"普陀区宁夏路215号（曹杨路口）"},{"poiid":"B209475CD56AA5FB4998","title":"红辣椒（曹杨店）","lon":"121.423149","lat":"31.235074","category":"247","category_name":"餐饮美食","address":"上海市普陀区曹杨路555号汇融天地401-403"},{"poiid":"B2094757D068A0F84792","title":"盛泉商务大厦","lon":"121.42168205","lat":"31.234239539","category":"46","category_name":"楼宇","address":"上海谈家渡路28号"},{"poiid":"B2094757D06FA4F8449A","title":"兄弟麻辣烫(谈家渡路店)","lon":"121.42395138","lat":"31.235691731","category":"68","category_name":"快餐厅","address":"普陀区谈家渡路(武宁路桥下740车站对面)"},{"poiid":"B2094654D565A3FE489A","title":"上钞大厦","lon":"121.42248","lat":"31.23261","category":"46","category_name":"楼宇","address":"浦东区崂山东路410号"},{"poiid":"B2094757D069ABFD419E","title":"荣源楼小笼(我格广场店)","lon":"121.423266986","lat":"31.2375576744","category":"68","category_name":"快餐厅","address":"普陀区武宁路101号我格广场B1楼17号铺"},{"poiid":"B2094655D26CABF8499E","title":"苏宁电器(曹杨路店)","lon":"121.42099","lat":"31.23551","category":"138","category_name":"家电电子卖场","address":"普陀区曹杨路368号(近普雄路)"},{"poiid":"B2094757D06FA7FD479C","title":"逸流公寓","lon":"121.422358","lat":"31.237481","category":"500","category_name":"未知分类","address":"上海市浦东新区云台路453弄"},{"poiid":"B2094757D064A2F94698","title":"可颂坊(曹杨店)","lon":"121.42085","lat":"31.23554","category":"112","category_name":"糕饼店","address":"普陀区曹杨路388号(近宁夏路)"},{"poiid":"B2094655D36CA3F4479F","title":"绿地世纪城(上海春天)","lon":"121.42038","lat":"31.23339","category":"47","category_name":"住宅区","address":"绿地世纪城(上海春天)位于普陀曹杨路303弄"},{"poiid":"B2094655D265A5F84998","title":"COSTA COFFEE(曹杨店)","lon":"121.42026","lat":"31.23672","category":"65","category_name":"咖啡厅","address":"上海普陀区曹杨路450号绿地和创大厦1楼(近宁夏路)"},{"poiid":"B2094654DB6BA6FD449E","title":"瑞鑫东北菜","lon":"121.42148","lat":"31.23511","category":"82","category_name":"东北菜","address":"普陀区西谈家渡路17栋6号(近曹杨路)"},{"poiid":"B2094757D06BA5F44199","title":"烧鹅仔 紫砂美食","lon":"121.423074876","lat":"31.2378917076","category":"72","category_name":"广东菜","address":"普陀区武宁路101号我格广场5楼12号铺金香汇美食广场内(普雄路口)"},{"poiid":"B2094757D169A0FF4692","title":"吉鲜铁板烧","lon":"121.423320086","lat":"31.2377344779","category":"68","category_name":"快餐厅","address":"普陀区武宁路101号我格广场5楼(近普雄路)"},{"poiid":"B2094757D569A6F94598","title":"原味小厨","lon":"121.42185574","lat":"31.23600342","category":"68","category_name":"快餐厅","address":"普陀区普雄路18号(近曹杨路)"},{"poiid":"B2094757D16CA3FA469E","title":"益佳粥店","lon":"121.420877561","lat":"31.2354482831","category":"68","category_name":"快餐厅","address":"普陀区曹杨路282号(近谈家渡路)"},{"poiid":"B2094757D66CA5FE4898","title":"华联酒家","lon":"121.42069","lat":"31.23445","category":"76","category_name":"上海菜","address":"普陀区曹杨路298号(近宁夏路)"},{"poiid":"B2094757D66EA0F9469C","title":"武宁新村幼儿园","lon":"121.42135558","lat":"31.235536534","category":"57","category_name":"幼儿园","address":"普陀区普雄路31号(逸流公寓西面)"},{"poiid":"B2094750D268A2FC4699","title":"人道素菜","lon":"121.422996","lat":"31.23678","category":"247","category_name":"餐饮美食","address":"静安寺"},{"poiid":"B2094654DB6BA6FD439F","title":"妯娌老鸭粉丝 曹杨路","lon":"121.421344054","lat":"31.234018793","category":"68","category_name":"快餐厅","address":"普陀区曹杨路304号(近谈家渡路)"},{"poiid":"B2094655D36DA1FB499D","title":"西谈家渡路","lon":"121.42258","lat":"31.23494","category":"38","category_name":"公交车站","address":""},{"poiid":"B2094654DB6AA3F4489B","title":"秦庭","lon":"121.42003247268","lat":"31.23526776025","category":"77","category_name":"湖南菜","address":"普陀区宁夏路220号秦庭内(苏宁电器对面)"},{"poiid":"B2094757D06BABFC4399","title":"超级鸡车","lon":"121.420825486","lat":"31.2347923203","category":"500","category_name":"未知分类","address":"普陀区曹杨路287号(近顺义路)"},{"poiid":"B2094655D26DA3FA429E","title":"上海市市容环境卫生行业协会","lon":"121.42235","lat":"31.23514","category":"250","category_name":"公园户外","address":"谈家渡路69"},{"poiid":"B2094757D16DA1FD4198","title":"普陀一村","lon":"121.4218387","lat":"31.235497734","category":"500","category_name":"未知分类","address":"上海普雄路曹杨路"},{"poiid":"B2094757D06FA4FD479D","title":"MOB(曹杨店)","lon":"121.4203","lat":"31.23654","category":"221","category_name":"健身中心","address":"普陀区曹杨路450号和创大厦下沉式广场(近宁夏路)"},{"poiid":"B2094655D26AA3FC489C","title":"白玉地段医院","lon":"121.41985","lat":"31.23611","category":"162","category_name":"医院","address":"普陀区曹杨路421号(近宁夏路)"},{"poiid":"B209475DD26DA6FE4992","title":"米兰意式餐厅","lon":"121.423042","lat":"31.235168","category":"247","category_name":"餐饮美食","address":"上海市普陀区曹杨路555号汇融天地202"},{"poiid":"B2094655D26AA7F4409A","title":"PT桌球曹杨路店","lon":"121.42073","lat":"31.23592","category":"247","category_name":"餐饮美食","address":"普陀区曹杨路400号普陀体育馆地下室(近宁夏路,白玉路)"},{"poiid":"B2094757D66DABFB4893","title":"君满堂KTV","lon":"121.42129","lat":"31.2342","category":"170","category_name":"KTV","address":"普陀区曹杨路333号(近宁夏路)"},{"poiid":"B2094757D16BA5FE409A","title":"河南拉面","lon":"121.42031458","lat":"31.234951523","category":"68","category_name":"快餐厅","address":"普陀区普雄路130号(近曹杨路)"},{"poiid":"B2094752DB64A5FB439C","title":"蜀九香火锅","lon":"121.421075","lat":"31.234563","category":"247","category_name":"餐饮美食","address":"上海市 普陀区曹杨路333号3楼"},{"poiid":"B2094757D064A5FC469C","title":"东北人家","lon":"121.42088","lat":"31.2352","category":"500","category_name":"未知分类","address":"普陀区中山北路1919号(近光新路)"},{"poiid":"B2094751DA64A4F9479C","title":"南京路步行街","lon":"121.421521","lat":"31.233609","category":"500","category_name":"未知分类","address":null},{"poiid":"B2094753D769A5FC439C","title":"东方明珠旋转餐厅","lon":"121.422187","lat":"31.234523","category":"500","category_name":"未知分类","address":"上海市 陆家嘴"},{"poiid":"B2094750D26EA7F9439C","title":"丰收日大酒店 普陀店","lon":"121.419988054","lat":"31.236365793","category":"247","category_name":"餐饮美食","address":"曹杨路450号绿地和创大厦辅楼1-2楼近普雄路"},{"poiid":"B2094757D065A3FE4092","title":"文汇新民报业集团(龙吴厂)","lon":"121.422118386","lat":"31.2350143246","category":"500","category_name":"未知分类","address":"上海闵行区联曹路289号"},{"poiid":"B2094757D165A3FA419A","title":"缤纷歌城","lon":"121.424323586","lat":"31.2346045166","category":"170","category_name":"KTV","address":"普陀区宜川路310号美华商城2楼(近延长西路)"},{"poiid":"B2094655D26FA3FE499E","title":"元祖 宁夏路店 Ganso","lon":"121.420964054","lat":"31.235497793","category":"112","category_name":"糕饼店","address":"宁夏路215号近曹杨路"},{"poiid":"B2094654DB65AAF84293","title":"曹杨路办公楼","lon":"121.42176","lat":"31.23357","category":"46","category_name":"楼宇","address":"朝阳区亚运村北3公里北苑居住区"},{"poiid":"B209475CD569A1FC439F","title":"红辣椒","lon":"121.42279","lat":"31.235643","category":"500","category_name":"未知分类","address":"上海市 曹杨路555号汇融天地401"},{"poiid":"B2094655D26AA3F84399","title":"古越龙山体育馆室内足球","lon":"121.42073","lat":"31.23592","category":"247","category_name":"餐饮美食","address":"普陀区曹杨路400号(近宁夏路)"},{"poiid":"B2094655D26FA5F54899","title":"永琪美容美发(曹杨店)","lon":"121.42094","lat":"31.23427","category":"148","category_name":"美容美发店","address":"上海普陀区曹杨路315号(近谈家渡路)  "}]