[{"poiid":"B2094654DA69ABFA479F","title":"世茂滨江花园(潍坊西路)","lon":"121.51457","lat":"31.22077","category":"47","category_name":"住宅区","address":"潍坊西路2弄1-18号"},{"poiid":"B2094655D26BA2F54393","title":"浦东南路潍坊路","lon":"121.5181","lat":"31.22198","category":"38","category_name":"公交车站","address":""},{"poiid":"B2094655D265A0F54793","title":"小南国世茂滨江店","lon":"121.51357","lat":"31.22296","category":"247","category_name":"餐饮美食","address":"浦东新区潍坊西路1弄18号世茂滨江内(近浦城路)"},{"poiid":"B209475CD564A7F84392","title":"上海滩浦东香格里拉店","lon":"121.50058","lat":"31.23634","category":"119","category_name":"商场","address":"浦东富成路33号香格里拉酒店内大堂层"},{"poiid":"B2094757D66CA6F4479E","title":"维也纳国际酒店(陆家嘴店)","lon":"121.517019738","lat":"31.2233981545","category":"500","category_name":"未知分类","address":"浦东新区潍坊西路73号(近浦东南路)"},{"poiid":"B2094757D064A7FB419C","title":"世贸滨江","lon":"121.51353927","lat":"31.222660133","category":"47","category_name":"住宅区","address":"上海世贸滨江"},{"poiid":"B2094757D06FA6F8449F","title":"上海湾生活时尚中心","lon":"121.51491","lat":"31.22667","category":"119","category_name":"商场","address":"浦东新区浦东南路1138号上海湾广场内(近张杨路)"},{"poiid":"B2094757D06FA6FD469F","title":"麦当劳(华润店)","lon":"121.51728","lat":"31.22635","category":"68","category_name":"快餐厅","address":"浦东新区张杨路500号华润时代广场1楼118商铺(近浦东南路)"},{"poiid":"B2094757D069A3F5499E","title":"学俊宋记香辣蟹(潍坊西路店)","lon":"121.51451497","lat":"31.223547926","category":"71","category_name":"四川菜","address":"浦东新区潍坊西路73号(近浦城路)"},{"poiid":"B2094750DA6BAAFF4493","title":"八佰伴新世纪影城","lon":"121.516845","lat":"31.226518","category":"248","category_name":"生活娱乐","address":null},{"poiid":"B2094757D16AABFD4799","title":"梅园村(浦东南路店)","lon":"121.518600838","lat":"31.2243286743","category":"500","category_name":"未知分类","address":"上海浦东南路中融国际商城"},{"poiid":"B2094757D469A7F4409F","title":"JSTONE","lon":"121.516112","lat":"31.222485","category":"94","category_name":"西餐厅","address":"浦东新区潍坊西路88号(近浦城路)"},{"poiid":"B2094750DB6BA2FE499E","title":"上海歌城浦东中融店","lon":"121.515861","lat":"31.226753","category":"627","category_name":"一般地点标志","address":"浦东新区浦东南路1068号中融国际商城"},{"poiid":"B2094757D66BA0FE4099","title":"九卓堂","lon":"121.517141","lat":"31.2230009","category":"76","category_name":"上海菜","address":"浦东新区潍坊西路73号(潍坊路潍坊西路)"},{"poiid":"B2094654DB69A5F54999","title":"哈根达斯冷饮(时代广场店)","lon":"121.51701","lat":"31.22662","category":"113","category_name":"冷饮店","address":"浦东新区张杨路500号华润时代广场1楼114-115商铺(近浦东南路)"},{"poiid":"B2094757D16DA3FA4193","title":"Nancy's Bakery","lon":"121.516442878","lat":"31.2227383333","category":"67","category_name":"甜品店","address":"浦东新区潍坊西路86号(近浦东南路)"},{"poiid":"B2094655D26DA1FB4398","title":"上海鸿酒店","lon":"121.51611","lat":"31.22248","category":"250","category_name":"公园户外","address":"浦东新区潍坊西路88号(近浦城路)"},{"poiid":"B2094654DB6AA6F8429F","title":"上海久阳滨江酒店","lon":"121.51708","lat":"31.22245","category":"214","category_name":"四星级宾馆","address":"浦东新区浦东南路1436号(近潍坊西路)"},{"poiid":"B2094654DB64A3FE4199","title":"上海市商贸旅游学校","lon":"121.5173","lat":"31.22112","category":"54","category_name":"职业技术学校","address":"浦东新区浦东南路1548号(潍坊路潍坊西路)"},{"poiid":"B2094655D26AA7FB4898","title":"世贸滨江花园热带风情会所","lon":"121.51357","lat":"31.22296","category":"247","category_name":"餐饮美食","address":"浦东新区潍坊西路1弄世茂滨江花园16号(近浦城路)"},{"poiid":"B2094757D068A7FE409F","title":"上海新东方学校(八佰伴分部)","lon":"121.51714","lat":"31.22429","category":"253","category_name":"校园生活","address":"浦东新区浦东南路1341弄12号(近临园路)"},{"poiid":"B2094654DA69ABFE4298","title":"东川造型(浦东南路)","lon":"121.51818","lat":"31.22285","category":"148","category_name":"美容美发店","address":"浦东新区浦东南路1463号(近潍坊路)"},{"poiid":"B2094757D06AABFF459A","title":"The Max Pub(潍坊西路店)","lon":"121.51683","lat":"31.22249","category":"500","category_name":"未知分类","address":"浦东新区潍坊西路116号(近浦东南路)"},{"poiid":"B2094655D269ABFC449B","title":"ACE台球吧","lon":"121.51703","lat":"31.22309","category":"247","category_name":"餐饮美食","address":"浦东新区潍坊西路73号4号楼(近浦东南路)"},{"poiid":"B2094655D264ABFB429C","title":"康骏推拿足道","lon":"121.51566","lat":"31.22232","category":"149","category_name":"洗浴推拿场所","address":"潍坊西路76号2层"},{"poiid":"B2094757D06FAAFD479A","title":"南梦宫电子游戏世界(八佰伴店)","lon":"121.51706","lat":"31.22674","category":"173","category_name":"游戏厅","address":"浦东新区张杨路501号第一八佰伴10楼(近浦东南路)"},{"poiid":"B2094654DA69ABFE429B","title":"永和豆浆(浦东南路)","lon":"121.51814","lat":"31.22297","category":"68","category_name":"快餐厅","address":"浦东新区浦东南路1457号(近潍坊路)"},{"poiid":"B2094757D06AA5F9429E","title":"世茂滨江花园会所2号","lon":"121.515548706","lat":"31.2225265503","category":"500","category_name":"未知分类","address":"上海潍坊西路"},{"poiid":"B2094654DA69ABF94792","title":"宜芝多潍坊店","lon":"121.51553","lat":"31.22221","category":"112","category_name":"糕饼店","address":"浦东新区潍坊西路72号(世茂滨江对面)"},{"poiid":"B2094757D16EABFE439D","title":"兰馨电影院","lon":"121.514868","lat":"31.226305","category":"178","category_name":"电影院","address":"张杨路400"},{"poiid":"B2094655D26BA2FD499F","title":"潍坊西路浦城路","lon":"121.51557","lat":"31.22248","category":"38","category_name":"公交车站","address":""},{"poiid":"B2094654DB64A3FD489A","title":"花之林人文茶馆 潍坊路店","lon":"121.51820875448","lat":"31.223558710918","category":"260","category_name":"其他","address":"浦东新区潍坊路2号(浦东南路口)"},{"poiid":"B2094757D068A5F9459E","title":"东南新村","lon":"121.51726646","lat":"31.225442348","category":"47","category_name":"住宅区","address":"上海张杨路浦东南路"},{"poiid":"B2094654DB64A3FE419B","title":"陈家宅小区","lon":"121.51604","lat":"31.221743","category":"47","category_name":"住宅区","address":"浦城路720弄"},{"poiid":"B2094757D465A4F8409E","title":"亨利花园餐厅 Henry'sGardenRestaurant&Bar","lon":"121.51867","lat":"31.225694","category":"100","category_name":"地中海风格菜品","address":"浦东新区南泉北路1035号紫金瀚宫3号楼(近中电大酒店)"},{"poiid":"B2094757D065A7F5479D","title":"康友四季保健会所(浦城店)","lon":"121.51475","lat":"31.22363","category":"149","category_name":"洗浴推拿场所","address":"浦东新区浦城路708号(近潍坊路)"},{"poiid":"B2094654DA69ABF9469B","title":"上海乔家栅小吃世界(浦东南路)","lon":"121.51702","lat":"31.225","category":"68","category_name":"快餐厅","address":"浦东新区浦东南路东南新村19号(近张杨路)"},{"poiid":"B2094757D06BA2FB4298","title":"亨利花园","lon":"121.51859873","lat":"31.225309195","category":"47","category_name":"住宅区","address":"上海市浦东新区南泉北路1035号紫金瀚宫3号楼"},{"poiid":"B2094750D76FA4F4489E","title":"億方砂锅粥(浦东八佰伴店)","lon":"121.515","lat":"31.2263","category":"72","category_name":"广东菜","address":"上海市浦东新区张杨路400号,(近上海湾)"},{"poiid":"B2094655D268A6F94092","title":"台球吧","lon":"121.51676","lat":"31.22365","category":"171","category_name":"台球厅","address":"潍坊西路73号"},{"poiid":"B2094753D56BABF94292","title":"The Camel Sports Bar","lon":"121.517089","lat":"31.222845","category":"500","category_name":"未知分类","address":"上海市 潍坊西路116弄"},{"poiid":"B209475CD66AA1FF4893","title":"城隍庙","lon":"121.516731","lat":"31.224786","category":"500","category_name":"未知分类","address":"上海市 城隍庙"},{"poiid":"B2094655D26BA2FE409B","title":"潍坊路","lon":"121.5179","lat":"31.22268","category":"38","category_name":"公交车站","address":""},{"poiid":"B2094654DA69ABFA419B","title":"安泰公寓(北门)","lon":"121.51659","lat":"31.22246","category":"47","category_name":"住宅区","address":"潍坊西路100弄"},{"poiid":"B2094757D16AA4F5429A","title":"迪街贩量KTV","lon":"121.517092038","lat":"31.2227976417","category":"170","category_name":"KTV","address":"上海沪南路北中路"},{"poiid":"B2094757D66DAAF8459F","title":"jamaicablue","lon":"121.51694973","lat":"31.222866143","category":"500","category_name":"未知分类","address":"上海潍坊西路浦城路"},{"poiid":"B2094654DA69ABFA419A","title":"安泰公寓","lon":"121.51649","lat":"31.222382","category":"47","category_name":"住宅区","address":"潍坊西路100弄"},{"poiid":"B2094654DA69ABFA4893","title":"浦城小区","lon":"121.51483","lat":"31.22507","category":"47","category_name":"住宅区","address":"浦城路580弄1-25号"},{"poiid":"B2094654DA69ABF94793","title":"全家(浦城路)","lon":"121.51548","lat":"31.22208","category":"117","category_name":"便民商店/便利店","address":"潍坊西路56"},{"poiid":"B2094757D664A4FF469E","title":"老昌盛苏州汤包馆 浦城路店","lon":"121.513877","lat":"31.224829","category":"68","category_name":"快餐厅","address":"浦东新区浦城路531-1号(近张杨路)"},{"poiid":"B2094654DA69ABFA479F","title":"世茂滨江花园(潍坊西路)","lon":"121.51457","lat":"31.22077","category":"47","category_name":"住宅区","address":"潍坊西路2弄1-18号"},{"poiid":"B2094655D26BA2F54393","title":"浦东南路潍坊路","lon":"121.5181","lat":"31.22198","category":"38","category_name":"公交车站","address":""},{"poiid":"B2094655D265A0F54793","title":"小南国世茂滨江店","lon":"121.51357","lat":"31.22296","category":"247","category_name":"餐饮美食","address":"浦东新区潍坊西路1弄18号世茂滨江内(近浦城路)"},{"poiid":"B209475CD564A7F84392","title":"上海滩浦东香格里拉店","lon":"121.50058","lat":"31.23634","category":"119","category_name":"商场","address":"浦东富成路33号香格里拉酒店内大堂层"},{"poiid":"B2094757D66CA6F4479E","title":"维也纳国际酒店(陆家嘴店)","lon":"121.517019738","lat":"31.2233981545","category":"500","category_name":"未知分类","address":"浦东新区潍坊西路73号(近浦东南路)"},{"poiid":"B2094757D064A7FB419C","title":"世贸滨江","lon":"121.51353927","lat":"31.222660133","category":"47","category_name":"住宅区","address":"上海世贸滨江"},{"poiid":"B2094757D06FA6F8449F","title":"上海湾生活时尚中心","lon":"121.51491","lat":"31.22667","category":"119","category_name":"商场","address":"浦东新区浦东南路1138号上海湾广场内(近张杨路)"},{"poiid":"B2094757D06FA6FD469F","title":"麦当劳(华润店)","lon":"121.51728","lat":"31.22635","category":"68","category_name":"快餐厅","address":"浦东新区张杨路500号华润时代广场1楼118商铺(近浦东南路)"},{"poiid":"B2094757D069A3F5499E","title":"学俊宋记香辣蟹(潍坊西路店)","lon":"121.51451497","lat":"31.223547926","category":"71","category_name":"四川菜","address":"浦东新区潍坊西路73号(近浦城路)"},{"poiid":"B2094750DA6BAAFF4493","title":"八佰伴新世纪影城","lon":"121.516845","lat":"31.226518","category":"248","category_name":"生活娱乐","address":null},{"poiid":"B2094757D16AABFD4799","title":"梅园村(浦东南路店)","lon":"121.518600838","lat":"31.2243286743","category":"500","category_name":"未知分类","address":"上海浦东南路中融国际商城"},{"poiid":"B2094757D469A7F4409F","title":"JSTONE","lon":"121.516112","lat":"31.222485","category":"94","category_name":"西餐厅","address":"浦东新区潍坊西路88号(近浦城路)"},{"poiid":"B2094750DB6BA2FE499E","title":"上海歌城浦东中融店","lon":"121.515861","lat":"31.226753","category":"627","category_name":"一般地点标志","address":"浦东新区浦东南路1068号中融国际商城"},{"poiid":"B2094757D66BA0FE4099","title":"九卓堂","lon":"121.517141","lat":"31.2230009","category":"76","category_name":"上海菜","address":"浦东新区潍坊西路73号(潍坊路潍坊西路)"},{"poiid":"B2094654DB69A5F54999","title":"哈根达斯冷饮(时代广场店)","lon":"121.51701","lat":"31.22662","category":"113","category_name":"冷饮店","address":"浦东新区张杨路500号华润时代广场1楼114-115商铺(近浦东南路)"},{"poiid":"B2094757D16DA3FA4193","title":"Nancy's Bakery","lon":"121.516442878","lat":"31.2227383333","category":"67","category_name":"甜品店","address":"浦东新区潍坊西路86号(近浦东南路)"},{"poiid":"B2094655D26DA1FB4398","title":"上海鸿酒店","lon":"121.51611","lat":"31.22248","category":"250","category_name":"公园户外","address":"浦东新区潍坊西路88号(近浦城路)"},{"poiid":"B2094654DB6AA6F8429F","title":"上海久阳滨江酒店","lon":"121.51708","lat":"31.22245","category":"214","category_name":"四星级宾馆","address":"浦东新区浦东南路1436号(近潍坊西路)"},{"poiid":"B2094654DB64A3FE4199","title":"上海市商贸旅游学校","lon":"121.5173","lat":"31.22112","category":"54","category_name":"职业技术学校","address":"浦东新区浦东南路1548号(潍坊路潍坊西路)"},{"poiid":"B2094655D26AA7FB4898","title":"世贸滨江花园热带风情会所","lon":"121.51357","lat":"31.22296","category":"247","category_name":"餐饮美食","address":"浦东新区潍坊西路1弄世茂滨江花园16号(近浦城路)"},{"poiid":"B2094757D068A7FE409F","title":"上海新东方学校(八佰伴分部)","lon":"121.51714","lat":"31.22429","category":"253","category_name":"校园生活","address":"浦东新区浦东南路1341弄12号(近临园路)"},{"poiid":"B2094654DA69ABFE4298","title":"东川造型(浦东南路)","lon":"121.51818","lat":"31.22285","category":"148","category_name":"美容美发店","address":"浦东新区浦东南路1463号(近潍坊路)"},{"poiid":"B2094757D06AABFF459A","title":"The Max Pub(潍坊西路店)","lon":"121.51683","lat":"31.22249","category":"500","category_name":"未知分类","address":"浦东新区潍坊西路116号(近浦东南路)"},{"poiid":"B2094655D269ABFC449B","title":"ACE台球吧","lon":"121.51703","lat":"31.22309","category":"247","category_name":"餐饮美食","address":"浦东新区潍坊西路73号4号楼(近浦东南路)"},{"poiid":"B2094655D264ABFB429C","title":"康骏推拿足道","lon":"121.51566","lat":"31.22232","category":"149","category_name":"洗浴推拿场所","address":"潍坊西路76号2层"},{"poiid":"B2094757D06FAAFD479A","title":"南梦宫电子游戏世界(八佰伴店)","lon":"121.51706","lat":"31.22674","category":"173","category_name":"游戏厅","address":"浦东新区张杨路501号第一八佰伴10楼(近浦东南路)"},{"poiid":"B2094654DA69ABFE429B","title":"永和豆浆(浦东南路)","lon":"121.51814","lat":"31.22297","category":"68","category_name":"快餐厅","address":"浦东新区浦东南路1457号(近潍坊路)"},{"poiid":"B2094757D06AA5F9429E","title":"世茂滨江花园会所2号","lon":"121.515548706","lat":"31.2225265503","category":"500","category_name":"未知分类","address":"上海潍坊西路"},{"poiid":"B2094654DA69ABF94792","title":"宜芝多潍坊店","lon":"121.51553","lat":"31.22221","category":"112","category_name":"糕饼店","address":"浦东新区潍坊西路72号(世茂滨江对面)"},{"poiid":"B2094757D16EABFE439D","title":"兰馨电影院","lon":"121.514868","lat":"31.226305","category":"178","category_name":"电影院","address":"张杨路400"},{"poiid":"B2094655D26BA2FD499F","title":"潍坊西路浦城路","lon":"121.51557","lat":"31.22248","category":"38","category_name":"公交车站","address":""},{"poiid":"B2094654DB64A3FD489A","title":"花之林人文茶馆 潍坊路店","lon":"121.51820875448","lat":"31.223558710918","category":"260","category_name":"其他","address":"浦东新区潍坊路2号(浦东南路口)"},{"poiid":"B2094757D068A5F9459E","title":"东南新村","lon":"121.51726646","lat":"31.225442348","category":"47","category_name":"住宅区","address":"上海张杨路浦东南路"},{"poiid":"B2094654DB64A3FE419B","title":"陈家宅小区","lon":"121.51604","lat":"31.221743","category":"47","category_name":"住宅区","address":"浦城路720弄"},{"poiid":"B2094757D465A4F8409E","title":"亨利花园餐厅 Henry'sGardenRestaurant&Bar","lon":"121.51867","lat":"31.225694","category":"100","category_name":"地中海风格菜品","address":"浦东新区南泉北路1035号紫金瀚宫3号楼(近中电大酒店)"},{"poiid":"B2094757D065A7F5479D","title":"康友四季保健会所(浦城店)","lon":"121.51475","lat":"31.22363","category":"149","category_name":"洗浴推拿场所","address":"浦东新区浦城路708号(近潍坊路)"},{"poiid":"B2094654DA69ABF9469B","title":"上海乔家栅小吃世界(浦东南路)","lon":"121.51702","lat":"31.225","category":"68","category_name":"快餐厅","address":"浦东新区浦东南路东南新村19号(近张杨路)"},{"poiid":"B2094757D06BA2FB4298","title":"亨利花园","lon":"121.51859873","lat":"31.225309195","category":"47","category_name":"住宅区","address":"上海市浦东新区南泉北路1035号紫金瀚宫3号楼"},{"poiid":"B2094750D76FA4F4489E","title":"億方砂锅粥(浦东八佰伴店)","lon":"121.515","lat":"31.2263","category":"72","category_name":"广东菜","address":"上海市浦东新区张杨路400号,(近上海湾)"},{"poiid":"B2094655D268A6F94092","title":"台球吧","lon":"121.51676","lat":"31.22365","category":"171","category_name":"台球厅","address":"潍坊西路73号"},{"poiid":"B2094753D56BABF94292","title":"The Camel Sports Bar","lon":"121.517089","lat":"31.222845","category":"500","category_name":"未知分类","address":"上海市 潍坊西路116弄"},{"poiid":"B209475CD66AA1FF4893","title":"城隍庙","lon":"121.516731","lat":"31.224786","category":"500","category_name":"未知分类","address":"上海市 城隍庙"},{"poiid":"B2094655D26BA2FE409B","title":"潍坊路","lon":"121.5179","lat":"31.22268","category":"38","category_name":"公交车站","address":""},{"poiid":"B2094654DA69ABFA419B","title":"安泰公寓(北门)","lon":"121.51659","lat":"31.22246","category":"47","category_name":"住宅区","address":"潍坊西路100弄"},{"poiid":"B2094757D16AA4F5429A","title":"迪街贩量KTV","lon":"121.517092038","lat":"31.2227976417","category":"170","category_name":"KTV","address":"上海沪南路北中路"},{"poiid":"B2094757D66DAAF8459F","title":"jamaicablue","lon":"121.51694973","lat":"31.222866143","category":"500","category_name":"未知分类","address":"上海潍坊西路浦城路"},{"poiid":"B2094654DA69ABFA419A","title":"安泰公寓","lon":"121.51649","lat":"31.222382","category":"47","category_name":"住宅区","address":"潍坊西路100弄"},{"poiid":"B2094654DA69ABFA4893","title":"浦城小区","lon":"121.51483","lat":"31.22507","category":"47","category_name":"住宅区","address":"浦城路580弄1-25号"},{"poiid":"B2094654DA69ABF94793","title":"全家(浦城路)","lon":"121.51548","lat":"31.22208","category":"117","category_name":"便民商店/便利店","address":"潍坊西路56"},{"poiid":"B2094757D664A4FF469E","title":"老昌盛苏州汤包馆 浦城路店","lon":"121.513877","lat":"31.224829","category":"68","category_name":"快餐厅","address":"浦东新区浦城路531-1号(近张杨路)"},{"poiid":"B2094654DA69ABFA479F","title":"世茂滨江花园(潍坊西路)","lon":"121.51457","lat":"31.22077","category":"47","category_name":"住宅区","address":"潍坊西路2弄1-18号"},{"poiid":"B2094655D26BA2F54393","title":"浦东南路潍坊路","lon":"121.5181","lat":"31.22198","category":"38","category_name":"公交车站","address":""},{"poiid":"B2094655D265A0F54793","title":"小南国世茂滨江店","lon":"121.51357","lat":"31.22296","category":"247","category_name":"餐饮美食","address":"浦东新区潍坊西路1弄18号世茂滨江内(近浦城路)"},{"poiid":"B209475CD564A7F84392","title":"上海滩浦东香格里拉店","lon":"121.50058","lat":"31.23634","category":"119","category_name":"商场","address":"浦东富成路33号香格里拉酒店内大堂层"},{"poiid":"B2094757D66CA6F4479E","title":"维也纳国际酒店(陆家嘴店)","lon":"121.517019738","lat":"31.2233981545","category":"500","category_name":"未知分类","address":"浦东新区潍坊西路73号(近浦东南路)"},{"poiid":"B2094757D064A7FB419C","title":"世贸滨江","lon":"121.51353927","lat":"31.222660133","category":"47","category_name":"住宅区","address":"上海世贸滨江"},{"poiid":"B2094757D06FA6F8449F","title":"上海湾生活时尚中心","lon":"121.51491","lat":"31.22667","category":"119","category_name":"商场","address":"浦东新区浦东南路1138号上海湾广场内(近张杨路)"},{"poiid":"B2094757D06FA6FD469F","title":"麦当劳(华润店)","lon":"121.51728","lat":"31.22635","category":"68","category_name":"快餐厅","address":"浦东新区张杨路500号华润时代广场1楼118商铺(近浦东南路)"},{"poiid":"B2094757D069A3F5499E","title":"学俊宋记香辣蟹(潍坊西路店)","lon":"121.51451497","lat":"31.223547926","category":"71","category_name":"四川菜","address":"浦东新区潍坊西路73号(近浦城路)"},{"poiid":"B2094750DA6BAAFF4493","title":"八佰伴新世纪影城","lon":"121.516845","lat":"31.226518","category":"248","category_name":"生活娱乐","address":null},{"poiid":"B2094757D16AABFD4799","title":"梅园村(浦东南路店)","lon":"121.518600838","lat":"31.2243286743","category":"500","category_name":"未知分类","address":"上海浦东南路中融国际商城"},{"poiid":"B2094757D469A7F4409F","title":"JSTONE","lon":"121.516112","lat":"31.222485","category":"94","category_name":"西餐厅","address":"浦东新区潍坊西路88号(近浦城路)"},{"poiid":"B2094750DB6BA2FE499E","title":"上海歌城浦东中融店","lon":"121.515861","lat":"31.226753","category":"627","category_name":"一般地点标志","address":"浦东新区浦东南路1068号中融国际商城"},{"poiid":"B2094757D66BA0FE4099","title":"九卓堂","lon":"121.517141","lat":"31.2230009","category":"76","category_name":"上海菜","address":"浦东新区潍坊西路73号(潍坊路潍坊西路)"},{"poiid":"B2094654DB69A5F54999","title":"哈根达斯冷饮(时代广场店)","lon":"121.51701","lat":"31.22662","category":"113","category_name":"冷饮店","address":"浦东新区张杨路500号华润时代广场1楼114-115商铺(近浦东南路)"},{"poiid":"B2094757D16DA3FA4193","title":"Nancy's Bakery","lon":"121.516442878","lat":"31.2227383333","category":"67","category_name":"甜品店","address":"浦东新区潍坊西路86号(近浦东南路)"},{"poiid":"B2094655D26DA1FB4398","title":"上海鸿酒店","lon":"121.51611","lat":"31.22248","category":"250","category_name":"公园户外","address":"浦东新区潍坊西路88号(近浦城路)"},{"poiid":"B2094654DB6AA6F8429F","title":"上海久阳滨江酒店","lon":"121.51708","lat":"31.22245","category":"214","category_name":"四星级宾馆","address":"浦东新区浦东南路1436号(近潍坊西路)"},{"poiid":"B2094654DB64A3FE4199","title":"上海市商贸旅游学校","lon":"121.5173","lat":"31.22112","category":"54","category_name":"职业技术学校","address":"浦东新区浦东南路1548号(潍坊路潍坊西路)"},{"poiid":"B2094655D26AA7FB4898","title":"世贸滨江花园热带风情会所","lon":"121.51357","lat":"31.22296","category":"247","category_name":"餐饮美食","address":"浦东新区潍坊西路1弄世茂滨江花园16号(近浦城路)"},{"poiid":"B2094757D068A7FE409F","title":"上海新东方学校(八佰伴分部)","lon":"121.51714","lat":"31.22429","category":"253","category_name":"校园生活","address":"浦东新区浦东南路1341弄12号(近临园路)"},{"poiid":"B2094654DA69ABFE4298","title":"东川造型(浦东南路)","lon":"121.51818","lat":"31.22285","category":"148","category_name":"美容美发店","address":"浦东新区浦东南路1463号(近潍坊路)"},{"poiid":"B2094757D06AABFF459A","title":"The Max Pub(潍坊西路店)","lon":"121.51683","lat":"31.22249","category":"500","category_name":"未知分类","address":"浦东新区潍坊西路116号(近浦东南路)"},{"poiid":"B2094655D269ABFC449B","title":"ACE台球吧","lon":"121.51703","lat":"31.22309","category":"247","category_name":"餐饮美食","address":"浦东新区潍坊西路73号4号楼(近浦东南路)"},{"poiid":"B2094655D264ABFB429C","title":"康骏推拿足道","lon":"121.51566","lat":"31.22232","category":"149","category_name":"洗浴推拿场所","address":"潍坊西路76号2层"},{"poiid":"B2094757D06FAAFD479A","title":"南梦宫电子游戏世界(八佰伴店)","lon":"121.51706","lat":"31.22674","category":"173","category_name":"游戏厅","address":"浦东新区张杨路501号第一八佰伴10楼(近浦东南路)"},{"poiid":"B2094654DA69ABFE429B","title":"永和豆浆(浦东南路)","lon":"121.51814","lat":"31.22297","category":"68","category_name":"快餐厅","address":"浦东新区浦东南路1457号(近潍坊路)"},{"poiid":"B2094757D06AA5F9429E","title":"世茂滨江花园会所2号","lon":"121.515548706","lat":"31.2225265503","category":"500","category_name":"未知分类","address":"上海潍坊西路"},{"poiid":"B2094654DA69ABF94792","title":"宜芝多潍坊店","lon":"121.51553","lat":"31.22221","category":"112","category_name":"糕饼店","address":"浦东新区潍坊西路72号(世茂滨江对面)"},{"poiid":"B2094757D16EABFE439D","title":"兰馨电影院","lon":"121.514868","lat":"31.226305","category":"178","category_name":"电影院","address":"张杨路400"},{"poiid":"B2094655D26BA2FD499F","title":"潍坊西路浦城路","lon":"121.51557","lat":"31.22248","category":"38","category_name":"公交车站","address":""},{"poiid":"B2094654DB64A3FD489A","title":"花之林人文茶馆 潍坊路店","lon":"121.51820875448","lat":"31.223558710918","category":"260","category_name":"其他","address":"浦东新区潍坊路2号(浦东南路口)"},{"poiid":"B2094757D068A5F9459E","title":"东南新村","lon":"121.51726646","lat":"31.225442348","category":"47","category_name":"住宅区","address":"上海张杨路浦东南路"},{"poiid":"B2094654DB64A3FE419B","title":"陈家宅小区","lon":"121.51604","lat":"31.221743","category":"47","category_name":"住宅区","address":"浦城路720弄"},{"poiid":"B2094757D465A4F8409E","title":"亨利花园餐厅 Henry'sGardenRestaurant&Bar","lon":"121.51867","lat":"31.225694","category":"100","category_name":"地中海风格菜品","address":"浦东新区南泉北路1035号紫金瀚宫3号楼(近中电大酒店)"},{"poiid":"B2094757D065A7F5479D","title":"康友四季保健会所(浦城店)","lon":"121.51475","lat":"31.22363","category":"149","category_name":"洗浴推拿场所","address":"浦东新区浦城路708号(近潍坊路)"},{"poiid":"B2094654DA69ABF9469B","title":"上海乔家栅小吃世界(浦东南路)","lon":"121.51702","lat":"31.225","category":"68","category_name":"快餐厅","address":"浦东新区浦东南路东南新村19号(近张杨路)"},{"poiid":"B2094757D06BA2FB4298","title":"亨利花园","lon":"121.51859873","lat":"31.225309195","category":"47","category_name":"住宅区","address":"上海市浦东新区南泉北路1035号紫金瀚宫3号楼"},{"poiid":"B2094750D76FA4F4489E","title":"億方砂锅粥(浦东八佰伴店)","lon":"121.515","lat":"31.2263","category":"72","category_name":"广东菜","address":"上海市浦东新区张杨路400号,(近上海湾)"},{"poiid":"B2094655D268A6F94092","title":"台球吧","lon":"121.51676","lat":"31.22365","category":"171","category_name":"台球厅","address":"潍坊西路73号"},{"poiid":"B2094753D56BABF94292","title":"The Camel Sports Bar","lon":"121.517089","lat":"31.222845","category":"500","category_name":"未知分类","address":"上海市 潍坊西路116弄"},{"poiid":"B209475CD66AA1FF4893","title":"城隍庙","lon":"121.516731","lat":"31.224786","category":"500","category_name":"未知分类","address":"上海市 城隍庙"},{"poiid":"B2094655D26BA2FE409B","title":"潍坊路","lon":"121.5179","lat":"31.22268","category":"38","category_name":"公交车站","address":""},{"poiid":"B2094654DA69ABFA419B","title":"安泰公寓(北门)","lon":"121.51659","lat":"31.22246","category":"47","category_name":"住宅区","address":"潍坊西路100弄"},{"poiid":"B2094757D16AA4F5429A","title":"迪街贩量KTV","lon":"121.517092038","lat":"31.2227976417","category":"170","category_name":"KTV","address":"上海沪南路北中路"},{"poiid":"B2094757D66DAAF8459F","title":"jamaicablue","lon":"121.51694973","lat":"31.222866143","category":"500","category_name":"未知分类","address":"上海潍坊西路浦城路"},{"poiid":"B2094654DA69ABFA419A","title":"安泰公寓","lon":"121.51649","lat":"31.222382","category":"47","category_name":"住宅区","address":"潍坊西路100弄"},{"poiid":"B2094654DA69ABFA4893","title":"浦城小区","lon":"121.51483","lat":"31.22507","category":"47","category_name":"住宅区","address":"浦城路580弄1-25号"},{"poiid":"B2094654DA69ABF94793","title":"全家(浦城路)","lon":"121.51548","lat":"31.22208","category":"117","category_name":"便民商店/便利店","address":"潍坊西路56"},{"poiid":"B2094757D664A4FF469E","title":"老昌盛苏州汤包馆 浦城路店","lon":"121.513877","lat":"31.224829","category":"68","category_name":"快餐厅","address":"浦东新区浦城路531-1号(近张杨路)"},{"poiid":"B2094654DA69ABFA479F","title":"世茂滨江花园(潍坊西路)","lon":"121.51457","lat":"31.22077","category":"47","category_name":"住宅区","address":"潍坊西路2弄1-18号"},{"poiid":"B2094655D26BA2F54393","title":"浦东南路潍坊路","lon":"121.5181","lat":"31.22198","category":"38","category_name":"公交车站","address":""},{"poiid":"B2094655D265A0F54793","title":"小南国世茂滨江店","lon":"121.51357","lat":"31.22296","category":"247","category_name":"餐饮美食","address":"浦东新区潍坊西路1弄18号世茂滨江内(近浦城路)"},{"poiid":"B209475CD564A7F84392","title":"上海滩浦东香格里拉店","lon":"121.50058","lat":"31.23634","category":"119","category_name":"商场","address":"浦东富成路33号香格里拉酒店内大堂层"},{"poiid":"B2094757D66CA6F4479E","title":"维也纳国际酒店(陆家嘴店)","lon":"121.517019738","lat":"31.2233981545","category":"500","category_name":"未知分类","address":"浦东新区潍坊西路73号(近浦东南路)"},{"poiid":"B2094757D064A7FB419C","title":"世贸滨江","lon":"121.51353927","lat":"31.222660133","category":"47","category_name":"住宅区","address":"上海世贸滨江"},{"poiid":"B2094757D06FA6F8449F","title":"上海湾生活时尚中心","lon":"121.51491","lat":"31.22667","category":"119","category_name":"商场","address":"浦东新区浦东南路1138号上海湾广场内(近张杨路)"},{"poiid":"B2094757D06FA6FD469F","title":"麦当劳(华润店)","lon":"121.51728","lat":"31.22635","category":"68","category_name":"快餐厅","address":"浦东新区张杨路500号华润时代广场1楼118商铺(近浦东南路)"},{"poiid":"B2094757D069A3F5499E","title":"学俊宋记香辣蟹(潍坊西路店)","lon":"121.51451497","lat":"31.223547926","category":"71","category_name":"四川菜","address":"浦东新区潍坊西路73号(近浦城路)"},{"poiid":"B2094750DA6BAAFF4493","title":"八佰伴新世纪影城","lon":"121.516845","lat":"31.226518","category":"248","category_name":"生活娱乐","address":null},{"poiid":"B2094757D16AABFD4799","title":"梅园村(浦东南路店)","lon":"121.518600838","lat":"31.2243286743","category":"500","category_name":"未知分类","address":"上海浦东南路中融国际商城"},{"poiid":"B2094757D469A7F4409F","title":"JSTONE","lon":"121.516112","lat":"31.222485","category":"94","category_name":"西餐厅","address":"浦东新区潍坊西路88号(近浦城路)"},{"poiid":"B2094750DB6BA2FE499E","title":"上海歌城浦东中融店","lon":"121.515861","lat":"31.226753","category":"627","category_name":"一般地点标志","address":"浦东新区浦东南路1068号中融国际商城"},{"poiid":"B2094757D66BA0FE4099","title":"九卓堂","lon":"121.517141","lat":"31.2230009","category":"76","category_name":"上海菜","address":"浦东新区潍坊西路73号(潍坊路潍坊西路)"},{"poiid":"B2094654DB69A5F54999","title":"哈根达斯冷饮(时代广场店)","lon":"121.51701","lat":"31.22662","category":"113","category_name":"冷饮店","address":"浦东新区张杨路500号华润时代广场1楼114-115商铺(近浦东南路)"},{"poiid":"B2094757D16DA3FA4193","title":"Nancy's Bakery","lon":"121.516442878","lat":"31.2227383333","category":"67","category_name":"甜品店","address":"浦东新区潍坊西路86号(近浦东南路)"},{"poiid":"B2094655D26DA1FB4398","title":"上海鸿酒店","lon":"121.51611","lat":"31.22248","category":"250","category_name":"公园户外","address":"浦东新区潍坊西路88号(近浦城路)"},{"poiid":"B2094654DB6AA6F8429F","title":"上海久阳滨江酒店","lon":"121.51708","lat":"31.22245","category":"214","category_name":"四星级宾馆","address":"浦东新区浦东南路1436号(近潍坊西路)"},{"poiid":"B2094654DB64A3FE4199","title":"上海市商贸旅游学校","lon":"121.5173","lat":"31.22112","category":"54","category_name":"职业技术学校","address":"浦东新区浦东南路1548号(潍坊路潍坊西路)"},{"poiid":"B2094655D26AA7FB4898","title":"世贸滨江花园热带风情会所","lon":"121.51357","lat":"31.22296","category":"247","category_name":"餐饮美食","address":"浦东新区潍坊西路1弄世茂滨江花园16号(近浦城路)"},{"poiid":"B2094757D068A7FE409F","title":"上海新东方学校(八佰伴分部)","lon":"121.51714","lat":"31.22429","category":"253","category_name":"校园生活","address":"浦东新区浦东南路1341弄12号(近临园路)"},{"poiid":"B2094654DA69ABFE4298","title":"东川造型(浦东南路)","lon":"121.51818","lat":"31.22285","category":"148","category_name":"美容美发店","address":"浦东新区浦东南路1463号(近潍坊路)"},{"poiid":"B2094757D06AABFF459A","title":"The Max Pub(潍坊西路店)","lon":"121.51683","lat":"31.22249","category":"500","category_name":"未知分类","address":"浦东新区潍坊西路116号(近浦东南路)"},{"poiid":"B2094655D269ABFC449B","title":"ACE台球吧","lon":"121.51703","lat":"31.22309","category":"247","category_name":"餐饮美食","address":"浦东新区潍坊西路73号4号楼(近浦东南路)"},{"poiid":"B2094655D264ABFB429C","title":"康骏推拿足道","lon":"121.51566","lat":"31.22232","category":"149","category_name":"洗浴推拿场所","address":"潍坊西路76号2层"},{"poiid":"B2094757D06FAAFD479A","title":"南梦宫电子游戏世界(八佰伴店)","lon":"121.51706","lat":"31.22674","category":"173","category_name":"游戏厅","address":"浦东新区张杨路501号第一八佰伴10楼(近浦东南路)"},{"poiid":"B2094654DA69ABFE429B","title":"永和豆浆(浦东南路)","lon":"121.51814","lat":"31.22297","category":"68","category_name":"快餐厅","address":"浦东新区浦东南路1457号(近潍坊路)"},{"poiid":"B2094757D06AA5F9429E","title":"世茂滨江花园会所2号","lon":"121.515548706","lat":"31.2225265503","category":"500","category_name":"未知分类","address":"上海潍坊西路"},{"poiid":"B2094654DA69ABF94792","title":"宜芝多潍坊店","lon":"121.51553","lat":"31.22221","category":"112","category_name":"糕饼店","address":"浦东新区潍坊西路72号(世茂滨江对面)"},{"poiid":"B2094757D16EABFE439D","title":"兰馨电影院","lon":"121.514868","lat":"31.226305","category":"178","category_name":"电影院","address":"张杨路400"},{"poiid":"B2094655D26BA2FD499F","title":"潍坊西路浦城路","lon":"121.51557","lat":"31.22248","category":"38","category_name":"公交车站","address":""},{"poiid":"B2094654DB64A3FD489A","title":"花之林人文茶馆 潍坊路店","lon":"121.51820875448","lat":"31.223558710918","category":"260","category_name":"其他","address":"浦东新区潍坊路2号(浦东南路口)"},{"poiid":"B2094757D068A5F9459E","title":"东南新村","lon":"121.51726646","lat":"31.225442348","category":"47","category_name":"住宅区","address":"上海张杨路浦东南路"},{"poiid":"B2094654DB64A3FE419B","title":"陈家宅小区","lon":"121.51604","lat":"31.221743","category":"47","category_name":"住宅区","address":"浦城路720弄"},{"poiid":"B2094757D465A4F8409E","title":"亨利花园餐厅 Henry'sGardenRestaurant&Bar","lon":"121.51867","lat":"31.225694","category":"100","category_name":"地中海风格菜品","address":"浦东新区南泉北路1035号紫金瀚宫3号楼(近中电大酒店)"},{"poiid":"B2094757D065A7F5479D","title":"康友四季保健会所(浦城店)","lon":"121.51475","lat":"31.22363","category":"149","category_name":"洗浴推拿场所","address":"浦东新区浦城路708号(近潍坊路)"},{"poiid":"B2094654DA69ABF9469B","title":"上海乔家栅小吃世界(浦东南路)","lon":"121.51702","lat":"31.225","category":"68","category_name":"快餐厅","address":"浦东新区浦东南路东南新村19号(近张杨路)"},{"poiid":"B2094757D06BA2FB4298","title":"亨利花园","lon":"121.51859873","lat":"31.225309195","category":"47","category_name":"住宅区","address":"上海市浦东新区南泉北路1035号紫金瀚宫3号楼"},{"poiid":"B2094750D76FA4F4489E","title":"億方砂锅粥(浦东八佰伴店)","lon":"121.515","lat":"31.2263","category":"72","category_name":"广东菜","address":"上海市浦东新区张杨路400号,(近上海湾)"},{"poiid":"B2094655D268A6F94092","title":"台球吧","lon":"121.51676","lat":"31.22365","category":"171","category_name":"台球厅","address":"潍坊西路73号"},{"poiid":"B2094753D56BABF94292","title":"The Camel Sports Bar","lon":"121.517089","lat":"31.222845","category":"500","category_name":"未知分类","address":"上海市 潍坊西路116弄"},{"poiid":"B209475CD66AA1FF4893","title":"城隍庙","lon":"121.516731","lat":"31.224786","category":"500","category_name":"未知分类","address":"上海市 城隍庙"},{"poiid":"B2094655D26BA2FE409B","title":"潍坊路","lon":"121.5179","lat":"31.22268","category":"38","category_name":"公交车站","address":""},{"poiid":"B2094654DA69ABFA419B","title":"安泰公寓(北门)","lon":"121.51659","lat":"31.22246","category":"47","category_name":"住宅区","address":"潍坊西路100弄"},{"poiid":"B2094757D16AA4F5429A","title":"迪街贩量KTV","lon":"121.517092038","lat":"31.2227976417","category":"170","category_name":"KTV","address":"上海沪南路北中路"},{"poiid":"B2094757D66DAAF8459F","title":"jamaicablue","lon":"121.51694973","lat":"31.222866143","category":"500","category_name":"未知分类","address":"上海潍坊西路浦城路"},{"poiid":"B2094654DA69ABFA419A","title":"安泰公寓","lon":"121.51649","lat":"31.222382","category":"47","category_name":"住宅区","address":"潍坊西路100弄"},{"poiid":"B2094654DA69ABFA4893","title":"浦城小区","lon":"121.51483","lat":"31.22507","category":"47","category_name":"住宅区","address":"浦城路580弄1-25号"},{"poiid":"B2094654DA69ABF94793","title":"全家(浦城路)","lon":"121.51548","lat":"31.22208","category":"117","category_name":"便民商店/便利店","address":"潍坊西路56"},{"poiid":"B2094757D664A4FF469E","title":"老昌盛苏州汤包馆 浦城路店","lon":"121.513877","lat":"31.224829","category":"68","category_name":"快餐厅","address":"浦东新区浦城路531-1号(近张杨路)"}]