[{"poiid":"B2094757D06FA3FA409C","title":"滴水湖","lon":"121.93183575","lat":"30.896988697","category":"260","category_name":"其他","address":"上海浦东新区"},{"poiid":"B2094757D56EA2FF429F","title":"上海滴水湖皇冠假日酒店","lon":"121.93648338317871","lat":"30.89108501037207","category":"251","category_name":"出行住宿","address":"上海,上海市,上海市浦东新区临港新城南岛1号"},{"poiid":"B2094757D06FA7F5479E","title":"中国航海博物馆","lon":"121.9194127","lat":"30.89597387","category":"182","category_name":"博物馆","address":"浦东新区申港大道197号(近南汇区行政中心)"},{"poiid":"B2094750D365A5FF4899","title":"南汇嘴观海公园","lon":"121.934234","lat":"30.906095","category":"250","category_name":"公园户外","address":"南汇嘴观海公园"},{"poiid":"B2094655D26DA0F44899","title":"锦江之星临港新城店","lon":"121.92385","lat":"30.90291","category":"216","category_name":"经济型连锁酒店","address":"上海市浦东新区临港新城环湖西二路960号"},{"poiid":"B2094757D064A5FF479D","title":"南汇嘴","lon":"121.95101135","lat":"30.896040513","category":"500","category_name":"未知分类","address":"上海滴水湖"},{"poiid":"B209475DD169A3FC4898","title":"滴水湖","lon":"121.93222","lat":"30.903299","category":"500","category_name":"未知分类","address":"上海市 滴水湖"},{"poiid":"B2094757D169A1FE4598","title":"滴水湖壹号 - 湖鲜尊","lon":"121.92788395","lat":"30.901539909","category":"500","category_name":"未知分类","address":"上海市浦东新区环湖西一路808号"},{"poiid":"B209475DD66EABFC489E","title":"滴水湖地铁站","lon":"121.93547","lat":"30.903694","category":"627","category_name":"一般地点标志","address":"上海市 临港大道"},{"poiid":"B2094757D168A7FC449A","title":"悦临酒店","lon":"121.92965595","lat":"30.899707364","category":"75","category_name":"浙江菜","address":"浦东新区临港新城环湖西一路99号"},{"poiid":"B2094757D068A4F4419C","title":"上海临港新城展示中心","lon":"121.9269272","lat":"30.90033946","category":"46","category_name":"楼宇","address":"上海浦东新区环湖西一路99号"},{"poiid":"B2094757D66CABF8409E","title":"滴水湖(环湖西一路申港大道)站(公交龙港快线,三港线,申港1路)","lon":"121.9265778","lat":"30.8966433","category":"38","category_name":"公交车站","address":"上海市浦东新区环湖西一路申港大道"},{"poiid":"B2094751D26DA7F9479A","title":"上海市第六人民医院东院","lon":"121.93177","lat":"30.88894","category":"627","category_name":"一般地点标志","address":"浦东新区环湖西三路222号"},{"poiid":"B2094757D66CA3FA4798","title":"申港大道街道","lon":"121.925635571","lat":"30.9033117558","category":"47","category_name":"住宅区","address":"上海市浦东新区申港街道"},{"poiid":"B2094654DB64A5FB439D","title":"临港城投大厦","lon":"121.92588","lat":"30.89457","category":"46","category_name":"楼宇","address":"东城区东华门大街26号"},{"poiid":"B2094757D168A3F94492","title":"上海临港新城建设工程管理有限公司","lon":"121.925611958","lat":"30.8999328701","category":"46","category_name":"楼宇","address":"上海市浦东新区环湖西一路99号1号楼"},{"poiid":"B2094757D569A3FE4193","title":"上海中学东校","lon":"121.91951714","lat":"30.90659288","category":"55","category_name":"中学","address":"中国上海市浦东新区环湖南三路"},{"poiid":"B2094757D065A7FA469B","title":"罗森(滴水湖店)","lon":"121.92561495","lat":"30.89995287","category":"117","category_name":"便民商店/便利店","address":"上海市浦东新区环湖西一路99号20号楼102"},{"poiid":"B2094757D065A0FE479E","title":"锦江大厨(临港新城店)","lon":"121.92134","lat":"30.89823","category":"76","category_name":"上海菜","address":"浦东新区环湖西二路960号锦江之星临港新城店内(环湖西二路申港大道)"},{"poiid":"B2094757DA6EA6FD4292","title":"健康林","lon":"121.928114891053","lat":"30.8975848575568","category":"250","category_name":"公园户外","address":"浦东新区申港大道(近环湖西一路)"},{"poiid":"B2094655D264A7F94298","title":"领港中心","lon":"121.92175","lat":"30.89798","category":"47","category_name":"住宅区","address":"上海市长宁区延安西路2077号"},{"poiid":"B2094753D26BAAFA4799","title":"17.5影院","lon":"121.922912","lat":"30.894739","category":"178","category_name":"电影院","address":"上海市 申港大道环湖西二路"},{"poiid":"B2094757D16BABF9439E","title":"美食林","lon":"121.92527095","lat":"30.901232902","category":"500","category_name":"未知分类","address":"上海市浦东新区环湖西一路99号7号楼"},{"poiid":"B209475CD06FA3FB419D","title":"滴水湖露营烧烤区","lon":"121.93822","lat":"30.89149","category":"269","category_name":"烧烤","address":"环湖西一路(近皇冠假日酒店)"},{"poiid":"B2094655D36CA0F44799","title":"环湖西二路申港大道","lon":"121.92223","lat":"30.89955","category":"38","category_name":"公交车站","address":""},{"poiid":"B2094757D069ABFC4393","title":"一号码头","lon":"121.951011358","lat":"30.8960405135","category":"216","category_name":"经济型连锁酒店","address":"上海普陀区宜昌路88号梦清园内(近昌化路)"},{"poiid":"B2094757D66CABFA4292","title":"临港大道两港大道","lon":"121.919881058","lat":"30.9060084208","category":"260","category_name":"其他","address":"上海临港大道两港大道"},{"poiid":"B2094751D365A3F4459F","title":"六院东院","lon":"121.930267","lat":"30.887543","category":"47","category_name":"住宅区","address":"六院二楼"}]