[{"poiid":"B2094655D36CA6FF449A","title":"复旦大学江湾校区","lon":"121.51079","lat":"31.33611","category":"38","category_name":"公交车站","address":"上海杨浦区淞沪路2005号"},{"poiid":"B2094757D06FA3FC439B","title":"淞发路地铁站","lon":"121.500579","lat":"31.344674","category":"36","category_name":"地铁站","address":"上海轨道交通 三号线 轨交淞发路站 轻轨 3"},{"poiid":"B2094757D065AAFF409C","title":"汽車夢工場","lon":"121.50068383","lat":"31.349958154","category":"500","category_name":"未知分类","address":"上海市寶山區軍工路5169號"},{"poiid":"B2094757D06FA2F84692","title":"新江湾城SMP滑板公园","lon":"121.51166895","lat":"31.3363108705","category":"196","category_name":"公园","address":"杨浦区淞沪路2100号(近国浩路)"},{"poiid":"B2094757D06FA1FA4492","title":"建配龙家居商城","lon":"121.49426833","lat":"31.339484868","category":"123","category_name":"家具建材市场","address":"宝山区长逸路15号建配龙市场内(近逸仙路)"},{"poiid":"B2094757D06FA0FD4493","title":"汽车梦工厂","lon":"121.504417419","lat":"31.3494625092","category":"500","category_name":"未知分类","address":"上海宝山区军工路5169"},{"poiid":"B2094757D06AA2F8489B","title":"合生江湾国际公寓","lon":"121.5153901","lat":"31.340062371","category":"47","category_name":"住宅区","address":"上海政和路999弄"},{"poiid":"B2094757D465A1F84198","title":"豪皇海鲜大酒店","lon":"121.498222","lat":"31.340973","category":"72","category_name":"广东菜","address":"逸仙路3000号近长逸路"},{"poiid":"B2094757D068A4FB4192","title":"复旦大学江湾校区李兆基图书馆","lon":"121.50644591","lat":"31.3361329136","category":"253","category_name":"校园生活","address":"上海杨浦区淞沪路2005号"},{"poiid":"B2094757D66EA6FB459F","title":"♥HÖmЁ♥","lon":"121.490882603","lat":"31.339821674","category":"500","category_name":"未知分类","address":null},{"poiid":"B2094757D06FA6FC439E","title":"华浜新村","lon":"121.49277","lat":"31.350016","category":"47","category_name":"住宅区","address":"上海长江路军工路"},{"poiid":"B2094757D06AA2F9499C","title":"上海国际港务(集团)股份有限公司军工路分公司","lon":"121.513896","lat":"31.347006","category":"46","category_name":"楼宇","address":"上海宝山区军工路4501号"},{"poiid":"B2094757D068A0FA429E","title":"淞南三村","lon":"121.498","lat":"31.3495","category":"47","category_name":"住宅区","address":"淞南路301号"},{"poiid":"B2094757D66BA3FA439F","title":"一崎碳烧 海伦生活广场店","lon":"121.4918308","lat":"31.3381991","category":"68","category_name":"快餐厅","address":"宝山区长逸路258号海伦精品生活广场1楼(近凇良路)"},{"poiid":"B2094757D064AAFD4593","title":"华润新江湾九里","lon":"121.52614512144","lat":"31.341748554472","category":"500","category_name":"未知分类","address":"杨浦区国浩路88号"},{"poiid":"B2094654DB64A5FC449E","title":"美格菲健身中心(新江湾店)","lon":"121.51195","lat":"31.3361","category":"221","category_name":"健身中心","address":"杨浦区淞沪路2100号新江湾会所(近国浩路)"},{"poiid":"B2094655D36DA7F5489B","title":"淞南四村","lon":"121.4980655202","lat":"31.35075517499","category":"38","category_name":"公交车站","address":"上海市上海宝山区淞南四村站淞南路长江路"},{"poiid":"B2094757D569A2F84192","title":"九龙仓玺园","lon":"121.514","lat":"31.3328","category":"47","category_name":"住宅区","address":"上海市杨浦区国晓路500弄(新江湾城)"},{"poiid":"B2094655D36DA7FD4398","title":"张华浜","lon":"121.50039","lat":"31.35498","category":"38","category_name":"公交车站","address":""},{"poiid":"B2094655D36CA1F5499D","title":"军工路逸仙路","lon":"121.50859","lat":"31.34915","category":"38","category_name":"公交车站","address":""},{"poiid":"B2094654D46BA3F54499","title":"复旦旺溪植物园","lon":"121.50827","lat":"31.34131","category":"198","category_name":"植物园","address":"杨浦区淞沪路2005号复旦大学江湾校区内(近新江湾城公园)"},{"poiid":"B2094655D265A0F8489B","title":"鎏园·中星新城","lon":"121.4983","lat":"31.34419","category":"47","category_name":"住宅区","address":"淞发路25号"},{"poiid":"B2094757D069A2FD439F","title":"新梅淞南苑","lon":"121.49153","lat":"31.33849","category":"47","category_name":"住宅区","address":"上海市宝山区长逸路301弄"},{"poiid":"B2094757D065A7F84399","title":"逸仙公寓","lon":"121.505","lat":"31.3528","category":"252","category_name":"楼宇机构","address":"上海逸仙路3458弄"},{"poiid":"B2094757D06BA2FC479B","title":"逸居苑","lon":"121.49728386","lat":"31.33884357","category":"47","category_name":"住宅区","address":"上海宝山区淞南路111弄"},{"poiid":"B2094757D069A5F44692","title":"上海音乐学院实验学校(新江湾城政和路北区)","lon":"121.512098103","lat":"31.3277106205","category":"55","category_name":"中学","address":"上海市杨浦区政和路359号"},{"poiid":"B2094757D06BA4FE439F","title":"华浜二村","lon":"121.50059","lat":"31.346624","category":"252","category_name":"楼宇机构","address":"逸仙路3400号"},{"poiid":"B2094757D16CA3FD479F","title":"上海邮政张华浜培训基地","lon":"121.502416","lat":"31.351685","category":"500","category_name":"未知分类","address":"上海逸仙路3777号"},{"poiid":"B2094757D06FA6F94099","title":"鎏园","lon":"121.500579834","lat":"31.3446731567","category":"47","category_name":"住宅区","address":"上海市宝山区淞发路25弄"},{"poiid":"B2094750DB68A0F9469E","title":"同济大学第一附属中学","lon":"121.518768","lat":"31.33612","category":"253","category_name":"校园生活","address":"杨浦区国浩路100号(近复旦新校区)"},{"poiid":"B2094757D568A6FA4099","title":"尚城汇景园","lon":"121.50172","lat":"31.347908","category":"47","category_name":"住宅区","address":"逸仙路3508弄"},{"poiid":"B2094757D569A2FF489D","title":"逸兴家园","lon":"121.49973","lat":"31.347683","category":"47","category_name":"住宅区","address":"上海市宝山区逸仙路3456号"},{"poiid":"B2094654D469AAFC4798","title":"长宏新苑","lon":"121.49244","lat":"31.342192","category":"47","category_name":"住宅区","address":"上海市普陀区武宁路492号"},{"poiid":"B2094757D465A1FC489B","title":"逸园味仙阁","lon":"121.50123","lat":"31.34717","category":"76","category_name":"上海菜","address":"宝山区逸仙路3456弄18号(近轻轨三号线淞发路站)"},{"poiid":"B2094655D26AA0F9429C","title":"地铁淞发路站","lon":"121.50057","lat":"31.34467","category":"36","category_name":"地铁站","address":""},{"poiid":"B2094655D265A7FE4999","title":"加州水郡","lon":"121.51234","lat":"31.332561","category":"47","category_name":"住宅区","address":"杨浦区国秀路599号"},{"poiid":"B2094757D069AAF44399","title":"复旦发育生物学研究所","lon":"121.5103311","lat":"31.340303884","category":"253","category_name":"校园生活","address":"上海市杨浦区淞沪路2205号"},{"poiid":"B2094757D568A0F44999","title":"新江湾城文化艺术中心","lon":"121.50603","lat":"31.33583","category":"188","category_name":"文化宫","address":"杨浦区国秀路700号"},{"poiid":"B2094654DB6AA5F5419D","title":"上海港军工路港务公司","lon":"121.50833","lat":"31.34665","category":"263","category_name":"公司","address":""},{"poiid":"B2094655D36CA7F4409C","title":"国帆路淞沪路","lon":"121.51377","lat":"31.34041","category":"38","category_name":"公交车站","address":""},{"poiid":"B2094757D169A5FC4398","title":"复旦大学江湾生活园区15号楼","lon":"121.498990303","lat":"31.3338126482","category":"500","category_name":"未知分类","address":"上海市国权北路1380弄15号楼"},{"poiid":"B2094757D068A4FB419D","title":"复旦大学江湾校区食堂","lon":"121.50395107","lat":"31.335541562","category":"253","category_name":"校园生活","address":"杨浦区淞沪路2005号复旦大学江湾校区内(三门路淞沪路)"},{"poiid":"B2094655D36CA0FC4092","title":"军工路陈家宅","lon":"121.51458","lat":"31.34655","category":"38","category_name":"公交车站","address":""},{"poiid":"B2094654D46BA3F5439E","title":"快客NO.6188","lon":"121.51317","lat":"31.34727","category":"117","category_name":"便民商店/便利店","address":"军工路"},{"poiid":"B2094654D46BA3FF4292","title":"上海东方海外集装箱货运有限公司","lon":"121.51255","lat":"31.3439","category":"263","category_name":"公司","address":""},{"poiid":"B2094750D26BABF94598","title":"上海国际工业设计中心","lon":"121.496185","lat":"31.342046","category":"263","category_name":"公司","address":"宝山区逸仙路3000号(近长逸路)"},{"poiid":"B2094757D768AAFF479F","title":"淞发路兰州正宗牛肉拉面","lon":"121.49955","lat":"31.34398","category":"90","category_name":"清真餐馆","address":"宝山区淞发路25弄3号(近逸仙路)"},{"poiid":"B2094654D46BA3F8409D","title":"中远物流(淞军路)","lon":"121.51188","lat":"31.34458","category":"248","category_name":"生活娱乐","address":""},{"poiid":"B2094654D46BA3F84093","title":"上海港公安局集装箱货场派出所","lon":"121.51341","lat":"31.34473","category":"609","category_name":"警察局","address":"军工路4049号"},{"poiid":"B2094654D46BA3F84198","title":"上海东亚运输仓储有限公司(集发酒店西北)","lon":"121.51229","lat":"31.34566","category":"263","category_name":"公司","address":""},{"poiid":"B2094655D36CA6FF449A","title":"复旦大学江湾校区","lon":"121.51079","lat":"31.33611","category":"38","category_name":"公交车站","address":"上海杨浦区淞沪路2005号"},{"poiid":"B2094757D06FA3FC439B","title":"淞发路地铁站","lon":"121.500579","lat":"31.344674","category":"36","category_name":"地铁站","address":"上海轨道交通 三号线 轨交淞发路站 轻轨 3"},{"poiid":"B2094757D065AAFF409C","title":"汽車夢工場","lon":"121.50068383","lat":"31.349958154","category":"500","category_name":"未知分类","address":"上海市寶山區軍工路5169號"},{"poiid":"B2094757D06FA2F84692","title":"新江湾城SMP滑板公园","lon":"121.51166895","lat":"31.3363108705","category":"196","category_name":"公园","address":"杨浦区淞沪路2100号(近国浩路)"},{"poiid":"B2094757D06FA1FA4492","title":"建配龙家居商城","lon":"121.49426833","lat":"31.339484868","category":"123","category_name":"家具建材市场","address":"宝山区长逸路15号建配龙市场内(近逸仙路)"},{"poiid":"B2094757D06FA0FD4493","title":"汽车梦工厂","lon":"121.504417419","lat":"31.3494625092","category":"500","category_name":"未知分类","address":"上海宝山区军工路5169"},{"poiid":"B2094757D06AA2F8489B","title":"合生江湾国际公寓","lon":"121.5153901","lat":"31.340062371","category":"47","category_name":"住宅区","address":"上海政和路999弄"},{"poiid":"B2094757D465A1F84198","title":"豪皇海鲜大酒店","lon":"121.498222","lat":"31.340973","category":"72","category_name":"广东菜","address":"逸仙路3000号近长逸路"},{"poiid":"B2094757D068A4FB4192","title":"复旦大学江湾校区李兆基图书馆","lon":"121.50644591","lat":"31.3361329136","category":"253","category_name":"校园生活","address":"上海杨浦区淞沪路2005号"},{"poiid":"B2094757D66EA6FB459F","title":"♥HÖmЁ♥","lon":"121.490882603","lat":"31.339821674","category":"500","category_name":"未知分类","address":null},{"poiid":"B2094757D06FA6FC439E","title":"华浜新村","lon":"121.49277","lat":"31.350016","category":"47","category_name":"住宅区","address":"上海长江路军工路"},{"poiid":"B2094757D06AA2F9499C","title":"上海国际港务(集团)股份有限公司军工路分公司","lon":"121.513896","lat":"31.347006","category":"46","category_name":"楼宇","address":"上海宝山区军工路4501号"},{"poiid":"B2094757D068A0FA429E","title":"淞南三村","lon":"121.498","lat":"31.3495","category":"47","category_name":"住宅区","address":"淞南路301号"},{"poiid":"B2094757D66BA3FA439F","title":"一崎碳烧 海伦生活广场店","lon":"121.4918308","lat":"31.3381991","category":"68","category_name":"快餐厅","address":"宝山区长逸路258号海伦精品生活广场1楼(近凇良路)"},{"poiid":"B2094757D064AAFD4593","title":"华润新江湾九里","lon":"121.52614512144","lat":"31.341748554472","category":"500","category_name":"未知分类","address":"杨浦区国浩路88号"},{"poiid":"B2094654DB64A5FC449E","title":"美格菲健身中心(新江湾店)","lon":"121.51195","lat":"31.3361","category":"221","category_name":"健身中心","address":"杨浦区淞沪路2100号新江湾会所(近国浩路)"},{"poiid":"B2094655D36DA7F5489B","title":"淞南四村","lon":"121.4980655202","lat":"31.35075517499","category":"38","category_name":"公交车站","address":"上海市上海宝山区淞南四村站淞南路长江路"},{"poiid":"B2094757D569A2F84192","title":"九龙仓玺园","lon":"121.514","lat":"31.3328","category":"47","category_name":"住宅区","address":"上海市杨浦区国晓路500弄(新江湾城)"},{"poiid":"B2094655D36DA7FD4398","title":"张华浜","lon":"121.50039","lat":"31.35498","category":"38","category_name":"公交车站","address":""},{"poiid":"B2094655D36CA1F5499D","title":"军工路逸仙路","lon":"121.50859","lat":"31.34915","category":"38","category_name":"公交车站","address":""},{"poiid":"B2094654D46BA3F54499","title":"复旦旺溪植物园","lon":"121.50827","lat":"31.34131","category":"198","category_name":"植物园","address":"杨浦区淞沪路2005号复旦大学江湾校区内(近新江湾城公园)"},{"poiid":"B2094655D265A0F8489B","title":"鎏园·中星新城","lon":"121.4983","lat":"31.34419","category":"47","category_name":"住宅区","address":"淞发路25号"},{"poiid":"B2094757D069A2FD439F","title":"新梅淞南苑","lon":"121.49153","lat":"31.33849","category":"47","category_name":"住宅区","address":"上海市宝山区长逸路301弄"},{"poiid":"B2094757D065A7F84399","title":"逸仙公寓","lon":"121.505","lat":"31.3528","category":"252","category_name":"楼宇机构","address":"上海逸仙路3458弄"},{"poiid":"B2094757D06BA2FC479B","title":"逸居苑","lon":"121.49728386","lat":"31.33884357","category":"47","category_name":"住宅区","address":"上海宝山区淞南路111弄"},{"poiid":"B2094757D069A5F44692","title":"上海音乐学院实验学校(新江湾城政和路北区)","lon":"121.512098103","lat":"31.3277106205","category":"55","category_name":"中学","address":"上海市杨浦区政和路359号"},{"poiid":"B2094757D06BA4FE439F","title":"华浜二村","lon":"121.50059","lat":"31.346624","category":"252","category_name":"楼宇机构","address":"逸仙路3400号"},{"poiid":"B2094757D16CA3FD479F","title":"上海邮政张华浜培训基地","lon":"121.502416","lat":"31.351685","category":"500","category_name":"未知分类","address":"上海逸仙路3777号"},{"poiid":"B2094757D06FA6F94099","title":"鎏园","lon":"121.500579834","lat":"31.3446731567","category":"47","category_name":"住宅区","address":"上海市宝山区淞发路25弄"},{"poiid":"B2094750DB68A0F9469E","title":"同济大学第一附属中学","lon":"121.518768","lat":"31.33612","category":"253","category_name":"校园生活","address":"杨浦区国浩路100号(近复旦新校区)"},{"poiid":"B2094757D568A6FA4099","title":"尚城汇景园","lon":"121.50172","lat":"31.347908","category":"47","category_name":"住宅区","address":"逸仙路3508弄"},{"poiid":"B2094757D569A2FF489D","title":"逸兴家园","lon":"121.49973","lat":"31.347683","category":"47","category_name":"住宅区","address":"上海市宝山区逸仙路3456号"},{"poiid":"B2094654D469AAFC4798","title":"长宏新苑","lon":"121.49244","lat":"31.342192","category":"47","category_name":"住宅区","address":"上海市普陀区武宁路492号"},{"poiid":"B2094757D465A1FC489B","title":"逸园味仙阁","lon":"121.50123","lat":"31.34717","category":"76","category_name":"上海菜","address":"宝山区逸仙路3456弄18号(近轻轨三号线淞发路站)"},{"poiid":"B2094655D26AA0F9429C","title":"地铁淞发路站","lon":"121.50057","lat":"31.34467","category":"36","category_name":"地铁站","address":""},{"poiid":"B2094655D265A7FE4999","title":"加州水郡","lon":"121.51234","lat":"31.332561","category":"47","category_name":"住宅区","address":"杨浦区国秀路599号"},{"poiid":"B2094757D069AAF44399","title":"复旦发育生物学研究所","lon":"121.5103311","lat":"31.340303884","category":"253","category_name":"校园生活","address":"上海市杨浦区淞沪路2205号"},{"poiid":"B2094757D568A0F44999","title":"新江湾城文化艺术中心","lon":"121.50603","lat":"31.33583","category":"188","category_name":"文化宫","address":"杨浦区国秀路700号"},{"poiid":"B2094654DB6AA5F5419D","title":"上海港军工路港务公司","lon":"121.50833","lat":"31.34665","category":"263","category_name":"公司","address":""},{"poiid":"B2094655D36CA7F4409C","title":"国帆路淞沪路","lon":"121.51377","lat":"31.34041","category":"38","category_name":"公交车站","address":""},{"poiid":"B2094757D169A5FC4398","title":"复旦大学江湾生活园区15号楼","lon":"121.498990303","lat":"31.3338126482","category":"500","category_name":"未知分类","address":"上海市国权北路1380弄15号楼"},{"poiid":"B2094757D068A4FB419D","title":"复旦大学江湾校区食堂","lon":"121.50395107","lat":"31.335541562","category":"253","category_name":"校园生活","address":"杨浦区淞沪路2005号复旦大学江湾校区内(三门路淞沪路)"},{"poiid":"B2094655D36CA0FC4092","title":"军工路陈家宅","lon":"121.51458","lat":"31.34655","category":"38","category_name":"公交车站","address":""},{"poiid":"B2094654D46BA3F5439E","title":"快客NO.6188","lon":"121.51317","lat":"31.34727","category":"117","category_name":"便民商店/便利店","address":"军工路"},{"poiid":"B2094654D46BA3FF4292","title":"上海东方海外集装箱货运有限公司","lon":"121.51255","lat":"31.3439","category":"263","category_name":"公司","address":""},{"poiid":"B2094750D26BABF94598","title":"上海国际工业设计中心","lon":"121.496185","lat":"31.342046","category":"263","category_name":"公司","address":"宝山区逸仙路3000号(近长逸路)"},{"poiid":"B2094757D768AAFF479F","title":"淞发路兰州正宗牛肉拉面","lon":"121.49955","lat":"31.34398","category":"90","category_name":"清真餐馆","address":"宝山区淞发路25弄3号(近逸仙路)"},{"poiid":"B2094654D46BA3F8409D","title":"中远物流(淞军路)","lon":"121.51188","lat":"31.34458","category":"248","category_name":"生活娱乐","address":""},{"poiid":"B2094654D46BA3F84093","title":"上海港公安局集装箱货场派出所","lon":"121.51341","lat":"31.34473","category":"609","category_name":"警察局","address":"军工路4049号"},{"poiid":"B2094654D46BA3F84198","title":"上海东亚运输仓储有限公司(集发酒店西北)","lon":"121.51229","lat":"31.34566","category":"263","category_name":"公司","address":""},{"poiid":"B2094655D36CA6FF449A","title":"复旦大学江湾校区","lon":"121.51079","lat":"31.33611","category":"38","category_name":"公交车站","address":"上海杨浦区淞沪路2005号"},{"poiid":"B2094757D06FA3FC439B","title":"淞发路地铁站","lon":"121.500579","lat":"31.344674","category":"36","category_name":"地铁站","address":"上海轨道交通 三号线 轨交淞发路站 轻轨 3"},{"poiid":"B2094757D065AAFF409C","title":"汽車夢工場","lon":"121.50068383","lat":"31.349958154","category":"500","category_name":"未知分类","address":"上海市寶山區軍工路5169號"},{"poiid":"B2094757D06FA2F84692","title":"新江湾城SMP滑板公园","lon":"121.51166895","lat":"31.3363108705","category":"196","category_name":"公园","address":"杨浦区淞沪路2100号(近国浩路)"},{"poiid":"B2094757D06FA1FA4492","title":"建配龙家居商城","lon":"121.49426833","lat":"31.339484868","category":"123","category_name":"家具建材市场","address":"宝山区长逸路15号建配龙市场内(近逸仙路)"},{"poiid":"B2094757D06FA0FD4493","title":"汽车梦工厂","lon":"121.504417419","lat":"31.3494625092","category":"500","category_name":"未知分类","address":"上海宝山区军工路5169"},{"poiid":"B2094757D06AA2F8489B","title":"合生江湾国际公寓","lon":"121.5153901","lat":"31.340062371","category":"47","category_name":"住宅区","address":"上海政和路999弄"},{"poiid":"B2094757D465A1F84198","title":"豪皇海鲜大酒店","lon":"121.498222","lat":"31.340973","category":"72","category_name":"广东菜","address":"逸仙路3000号近长逸路"},{"poiid":"B2094757D068A4FB4192","title":"复旦大学江湾校区李兆基图书馆","lon":"121.50644591","lat":"31.3361329136","category":"253","category_name":"校园生活","address":"上海杨浦区淞沪路2005号"},{"poiid":"B2094757D66EA6FB459F","title":"♥HÖmЁ♥","lon":"121.490882603","lat":"31.339821674","category":"500","category_name":"未知分类","address":null},{"poiid":"B2094757D06FA6FC439E","title":"华浜新村","lon":"121.49277","lat":"31.350016","category":"47","category_name":"住宅区","address":"上海长江路军工路"},{"poiid":"B2094757D06AA2F9499C","title":"上海国际港务(集团)股份有限公司军工路分公司","lon":"121.513896","lat":"31.347006","category":"46","category_name":"楼宇","address":"上海宝山区军工路4501号"},{"poiid":"B2094757D068A0FA429E","title":"淞南三村","lon":"121.498","lat":"31.3495","category":"47","category_name":"住宅区","address":"淞南路301号"},{"poiid":"B2094757D66BA3FA439F","title":"一崎碳烧 海伦生活广场店","lon":"121.4918308","lat":"31.3381991","category":"68","category_name":"快餐厅","address":"宝山区长逸路258号海伦精品生活广场1楼(近凇良路)"},{"poiid":"B2094757D064AAFD4593","title":"华润新江湾九里","lon":"121.52614512144","lat":"31.341748554472","category":"500","category_name":"未知分类","address":"杨浦区国浩路88号"},{"poiid":"B2094654DB64A5FC449E","title":"美格菲健身中心(新江湾店)","lon":"121.51195","lat":"31.3361","category":"221","category_name":"健身中心","address":"杨浦区淞沪路2100号新江湾会所(近国浩路)"},{"poiid":"B2094655D36DA7F5489B","title":"淞南四村","lon":"121.4980655202","lat":"31.35075517499","category":"38","category_name":"公交车站","address":"上海市上海宝山区淞南四村站淞南路长江路"},{"poiid":"B2094757D569A2F84192","title":"九龙仓玺园","lon":"121.514","lat":"31.3328","category":"47","category_name":"住宅区","address":"上海市杨浦区国晓路500弄(新江湾城)"},{"poiid":"B2094655D36DA7FD4398","title":"张华浜","lon":"121.50039","lat":"31.35498","category":"38","category_name":"公交车站","address":""},{"poiid":"B2094655D36CA1F5499D","title":"军工路逸仙路","lon":"121.50859","lat":"31.34915","category":"38","category_name":"公交车站","address":""},{"poiid":"B2094654D46BA3F54499","title":"复旦旺溪植物园","lon":"121.50827","lat":"31.34131","category":"198","category_name":"植物园","address":"杨浦区淞沪路2005号复旦大学江湾校区内(近新江湾城公园)"},{"poiid":"B2094655D265A0F8489B","title":"鎏园·中星新城","lon":"121.4983","lat":"31.34419","category":"47","category_name":"住宅区","address":"淞发路25号"},{"poiid":"B2094757D069A2FD439F","title":"新梅淞南苑","lon":"121.49153","lat":"31.33849","category":"47","category_name":"住宅区","address":"上海市宝山区长逸路301弄"},{"poiid":"B2094757D065A7F84399","title":"逸仙公寓","lon":"121.505","lat":"31.3528","category":"252","category_name":"楼宇机构","address":"上海逸仙路3458弄"},{"poiid":"B2094757D06BA2FC479B","title":"逸居苑","lon":"121.49728386","lat":"31.33884357","category":"47","category_name":"住宅区","address":"上海宝山区淞南路111弄"},{"poiid":"B2094757D069A5F44692","title":"上海音乐学院实验学校(新江湾城政和路北区)","lon":"121.512098103","lat":"31.3277106205","category":"55","category_name":"中学","address":"上海市杨浦区政和路359号"},{"poiid":"B2094757D06BA4FE439F","title":"华浜二村","lon":"121.50059","lat":"31.346624","category":"252","category_name":"楼宇机构","address":"逸仙路3400号"},{"poiid":"B2094757D16CA3FD479F","title":"上海邮政张华浜培训基地","lon":"121.502416","lat":"31.351685","category":"500","category_name":"未知分类","address":"上海逸仙路3777号"},{"poiid":"B2094757D06FA6F94099","title":"鎏园","lon":"121.500579834","lat":"31.3446731567","category":"47","category_name":"住宅区","address":"上海市宝山区淞发路25弄"},{"poiid":"B2094750DB68A0F9469E","title":"同济大学第一附属中学","lon":"121.518768","lat":"31.33612","category":"253","category_name":"校园生活","address":"杨浦区国浩路100号(近复旦新校区)"},{"poiid":"B2094757D568A6FA4099","title":"尚城汇景园","lon":"121.50172","lat":"31.347908","category":"47","category_name":"住宅区","address":"逸仙路3508弄"},{"poiid":"B2094757D569A2FF489D","title":"逸兴家园","lon":"121.49973","lat":"31.347683","category":"47","category_name":"住宅区","address":"上海市宝山区逸仙路3456号"},{"poiid":"B2094654D469AAFC4798","title":"长宏新苑","lon":"121.49244","lat":"31.342192","category":"47","category_name":"住宅区","address":"上海市普陀区武宁路492号"},{"poiid":"B2094757D465A1FC489B","title":"逸园味仙阁","lon":"121.50123","lat":"31.34717","category":"76","category_name":"上海菜","address":"宝山区逸仙路3456弄18号(近轻轨三号线淞发路站)"},{"poiid":"B2094655D26AA0F9429C","title":"地铁淞发路站","lon":"121.50057","lat":"31.34467","category":"36","category_name":"地铁站","address":""},{"poiid":"B2094655D265A7FE4999","title":"加州水郡","lon":"121.51234","lat":"31.332561","category":"47","category_name":"住宅区","address":"杨浦区国秀路599号"},{"poiid":"B2094757D069AAF44399","title":"复旦发育生物学研究所","lon":"121.5103311","lat":"31.340303884","category":"253","category_name":"校园生活","address":"上海市杨浦区淞沪路2205号"},{"poiid":"B2094757D568A0F44999","title":"新江湾城文化艺术中心","lon":"121.50603","lat":"31.33583","category":"188","category_name":"文化宫","address":"杨浦区国秀路700号"},{"poiid":"B2094654DB6AA5F5419D","title":"上海港军工路港务公司","lon":"121.50833","lat":"31.34665","category":"263","category_name":"公司","address":""},{"poiid":"B2094655D36CA7F4409C","title":"国帆路淞沪路","lon":"121.51377","lat":"31.34041","category":"38","category_name":"公交车站","address":""},{"poiid":"B2094757D169A5FC4398","title":"复旦大学江湾生活园区15号楼","lon":"121.498990303","lat":"31.3338126482","category":"500","category_name":"未知分类","address":"上海市国权北路1380弄15号楼"},{"poiid":"B2094757D068A4FB419D","title":"复旦大学江湾校区食堂","lon":"121.50395107","lat":"31.335541562","category":"253","category_name":"校园生活","address":"杨浦区淞沪路2005号复旦大学江湾校区内(三门路淞沪路)"},{"poiid":"B2094655D36CA0FC4092","title":"军工路陈家宅","lon":"121.51458","lat":"31.34655","category":"38","category_name":"公交车站","address":""},{"poiid":"B2094654D46BA3F5439E","title":"快客NO.6188","lon":"121.51317","lat":"31.34727","category":"117","category_name":"便民商店/便利店","address":"军工路"},{"poiid":"B2094654D46BA3FF4292","title":"上海东方海外集装箱货运有限公司","lon":"121.51255","lat":"31.3439","category":"263","category_name":"公司","address":""},{"poiid":"B2094750D26BABF94598","title":"上海国际工业设计中心","lon":"121.496185","lat":"31.342046","category":"263","category_name":"公司","address":"宝山区逸仙路3000号(近长逸路)"},{"poiid":"B2094757D768AAFF479F","title":"淞发路兰州正宗牛肉拉面","lon":"121.49955","lat":"31.34398","category":"90","category_name":"清真餐馆","address":"宝山区淞发路25弄3号(近逸仙路)"},{"poiid":"B2094654D46BA3F8409D","title":"中远物流(淞军路)","lon":"121.51188","lat":"31.34458","category":"248","category_name":"生活娱乐","address":""},{"poiid":"B2094654D46BA3F84093","title":"上海港公安局集装箱货场派出所","lon":"121.51341","lat":"31.34473","category":"609","category_name":"警察局","address":"军工路4049号"},{"poiid":"B2094654D46BA3F84198","title":"上海东亚运输仓储有限公司(集发酒店西北)","lon":"121.51229","lat":"31.34566","category":"263","category_name":"公司","address":""},{"poiid":"B2094655D36CA6FF449A","title":"复旦大学江湾校区","lon":"121.51079","lat":"31.33611","category":"38","category_name":"公交车站","address":"上海杨浦区淞沪路2005号"},{"poiid":"B2094757D06FA3FC439B","title":"淞发路地铁站","lon":"121.500579","lat":"31.344674","category":"36","category_name":"地铁站","address":"上海轨道交通 三号线 轨交淞发路站 轻轨 3"},{"poiid":"B2094757D065AAFF409C","title":"汽車夢工場","lon":"121.50068383","lat":"31.349958154","category":"500","category_name":"未知分类","address":"上海市寶山區軍工路5169號"},{"poiid":"B2094757D06FA2F84692","title":"新江湾城SMP滑板公园","lon":"121.51166895","lat":"31.3363108705","category":"196","category_name":"公园","address":"杨浦区淞沪路2100号(近国浩路)"},{"poiid":"B2094757D06FA1FA4492","title":"建配龙家居商城","lon":"121.49426833","lat":"31.339484868","category":"123","category_name":"家具建材市场","address":"宝山区长逸路15号建配龙市场内(近逸仙路)"},{"poiid":"B2094757D06FA0FD4493","title":"汽车梦工厂","lon":"121.504417419","lat":"31.3494625092","category":"500","category_name":"未知分类","address":"上海宝山区军工路5169"},{"poiid":"B2094757D06AA2F8489B","title":"合生江湾国际公寓","lon":"121.5153901","lat":"31.340062371","category":"47","category_name":"住宅区","address":"上海政和路999弄"},{"poiid":"B2094757D465A1F84198","title":"豪皇海鲜大酒店","lon":"121.498222","lat":"31.340973","category":"72","category_name":"广东菜","address":"逸仙路3000号近长逸路"},{"poiid":"B2094757D068A4FB4192","title":"复旦大学江湾校区李兆基图书馆","lon":"121.50644591","lat":"31.3361329136","category":"253","category_name":"校园生活","address":"上海杨浦区淞沪路2005号"},{"poiid":"B2094757D66EA6FB459F","title":"♥HÖmЁ♥","lon":"121.490882603","lat":"31.339821674","category":"500","category_name":"未知分类","address":null},{"poiid":"B2094757D06FA6FC439E","title":"华浜新村","lon":"121.49277","lat":"31.350016","category":"47","category_name":"住宅区","address":"上海长江路军工路"},{"poiid":"B2094757D06AA2F9499C","title":"上海国际港务(集团)股份有限公司军工路分公司","lon":"121.513896","lat":"31.347006","category":"46","category_name":"楼宇","address":"上海宝山区军工路4501号"},{"poiid":"B2094757D068A0FA429E","title":"淞南三村","lon":"121.498","lat":"31.3495","category":"47","category_name":"住宅区","address":"淞南路301号"},{"poiid":"B2094757D66BA3FA439F","title":"一崎碳烧 海伦生活广场店","lon":"121.4918308","lat":"31.3381991","category":"68","category_name":"快餐厅","address":"宝山区长逸路258号海伦精品生活广场1楼(近凇良路)"},{"poiid":"B2094757D064AAFD4593","title":"华润新江湾九里","lon":"121.52614512144","lat":"31.341748554472","category":"500","category_name":"未知分类","address":"杨浦区国浩路88号"},{"poiid":"B2094654DB64A5FC449E","title":"美格菲健身中心(新江湾店)","lon":"121.51195","lat":"31.3361","category":"221","category_name":"健身中心","address":"杨浦区淞沪路2100号新江湾会所(近国浩路)"},{"poiid":"B2094655D36DA7F5489B","title":"淞南四村","lon":"121.4980655202","lat":"31.35075517499","category":"38","category_name":"公交车站","address":"上海市上海宝山区淞南四村站淞南路长江路"},{"poiid":"B2094757D569A2F84192","title":"九龙仓玺园","lon":"121.514","lat":"31.3328","category":"47","category_name":"住宅区","address":"上海市杨浦区国晓路500弄(新江湾城)"},{"poiid":"B2094655D36DA7FD4398","title":"张华浜","lon":"121.50039","lat":"31.35498","category":"38","category_name":"公交车站","address":""},{"poiid":"B2094655D36CA1F5499D","title":"军工路逸仙路","lon":"121.50859","lat":"31.34915","category":"38","category_name":"公交车站","address":""},{"poiid":"B2094654D46BA3F54499","title":"复旦旺溪植物园","lon":"121.50827","lat":"31.34131","category":"198","category_name":"植物园","address":"杨浦区淞沪路2005号复旦大学江湾校区内(近新江湾城公园)"},{"poiid":"B2094655D265A0F8489B","title":"鎏园·中星新城","lon":"121.4983","lat":"31.34419","category":"47","category_name":"住宅区","address":"淞发路25号"},{"poiid":"B2094757D069A2FD439F","title":"新梅淞南苑","lon":"121.49153","lat":"31.33849","category":"47","category_name":"住宅区","address":"上海市宝山区长逸路301弄"},{"poiid":"B2094757D065A7F84399","title":"逸仙公寓","lon":"121.505","lat":"31.3528","category":"252","category_name":"楼宇机构","address":"上海逸仙路3458弄"},{"poiid":"B2094757D06BA2FC479B","title":"逸居苑","lon":"121.49728386","lat":"31.33884357","category":"47","category_name":"住宅区","address":"上海宝山区淞南路111弄"},{"poiid":"B2094757D069A5F44692","title":"上海音乐学院实验学校(新江湾城政和路北区)","lon":"121.512098103","lat":"31.3277106205","category":"55","category_name":"中学","address":"上海市杨浦区政和路359号"},{"poiid":"B2094757D06BA4FE439F","title":"华浜二村","lon":"121.50059","lat":"31.346624","category":"252","category_name":"楼宇机构","address":"逸仙路3400号"},{"poiid":"B2094757D16CA3FD479F","title":"上海邮政张华浜培训基地","lon":"121.502416","lat":"31.351685","category":"500","category_name":"未知分类","address":"上海逸仙路3777号"},{"poiid":"B2094757D06FA6F94099","title":"鎏园","lon":"121.500579834","lat":"31.3446731567","category":"47","category_name":"住宅区","address":"上海市宝山区淞发路25弄"},{"poiid":"B2094750DB68A0F9469E","title":"同济大学第一附属中学","lon":"121.518768","lat":"31.33612","category":"253","category_name":"校园生活","address":"杨浦区国浩路100号(近复旦新校区)"},{"poiid":"B2094757D568A6FA4099","title":"尚城汇景园","lon":"121.50172","lat":"31.347908","category":"47","category_name":"住宅区","address":"逸仙路3508弄"},{"poiid":"B2094757D569A2FF489D","title":"逸兴家园","lon":"121.49973","lat":"31.347683","category":"47","category_name":"住宅区","address":"上海市宝山区逸仙路3456号"},{"poiid":"B2094654D469AAFC4798","title":"长宏新苑","lon":"121.49244","lat":"31.342192","category":"47","category_name":"住宅区","address":"上海市普陀区武宁路492号"},{"poiid":"B2094757D465A1FC489B","title":"逸园味仙阁","lon":"121.50123","lat":"31.34717","category":"76","category_name":"上海菜","address":"宝山区逸仙路3456弄18号(近轻轨三号线淞发路站)"},{"poiid":"B2094655D26AA0F9429C","title":"地铁淞发路站","lon":"121.50057","lat":"31.34467","category":"36","category_name":"地铁站","address":""},{"poiid":"B2094655D265A7FE4999","title":"加州水郡","lon":"121.51234","lat":"31.332561","category":"47","category_name":"住宅区","address":"杨浦区国秀路599号"},{"poiid":"B2094757D069AAF44399","title":"复旦发育生物学研究所","lon":"121.5103311","lat":"31.340303884","category":"253","category_name":"校园生活","address":"上海市杨浦区淞沪路2205号"},{"poiid":"B2094757D568A0F44999","title":"新江湾城文化艺术中心","lon":"121.50603","lat":"31.33583","category":"188","category_name":"文化宫","address":"杨浦区国秀路700号"},{"poiid":"B2094654DB6AA5F5419D","title":"上海港军工路港务公司","lon":"121.50833","lat":"31.34665","category":"263","category_name":"公司","address":""},{"poiid":"B2094655D36CA7F4409C","title":"国帆路淞沪路","lon":"121.51377","lat":"31.34041","category":"38","category_name":"公交车站","address":""},{"poiid":"B2094757D169A5FC4398","title":"复旦大学江湾生活园区15号楼","lon":"121.498990303","lat":"31.3338126482","category":"500","category_name":"未知分类","address":"上海市国权北路1380弄15号楼"},{"poiid":"B2094757D068A4FB419D","title":"复旦大学江湾校区食堂","lon":"121.50395107","lat":"31.335541562","category":"253","category_name":"校园生活","address":"杨浦区淞沪路2005号复旦大学江湾校区内(三门路淞沪路)"},{"poiid":"B2094655D36CA0FC4092","title":"军工路陈家宅","lon":"121.51458","lat":"31.34655","category":"38","category_name":"公交车站","address":""},{"poiid":"B2094654D46BA3F5439E","title":"快客NO.6188","lon":"121.51317","lat":"31.34727","category":"117","category_name":"便民商店/便利店","address":"军工路"},{"poiid":"B2094654D46BA3FF4292","title":"上海东方海外集装箱货运有限公司","lon":"121.51255","lat":"31.3439","category":"263","category_name":"公司","address":""},{"poiid":"B2094750D26BABF94598","title":"上海国际工业设计中心","lon":"121.496185","lat":"31.342046","category":"263","category_name":"公司","address":"宝山区逸仙路3000号(近长逸路)"},{"poiid":"B2094757D768AAFF479F","title":"淞发路兰州正宗牛肉拉面","lon":"121.49955","lat":"31.34398","category":"90","category_name":"清真餐馆","address":"宝山区淞发路25弄3号(近逸仙路)"},{"poiid":"B2094654D46BA3F8409D","title":"中远物流(淞军路)","lon":"121.51188","lat":"31.34458","category":"248","category_name":"生活娱乐","address":""},{"poiid":"B2094654D46BA3F84093","title":"上海港公安局集装箱货场派出所","lon":"121.51341","lat":"31.34473","category":"609","category_name":"警察局","address":"军工路4049号"},{"poiid":"B2094654D46BA3F84198","title":"上海东亚运输仓储有限公司(集发酒店西北)","lon":"121.51229","lat":"31.34566","category":"263","category_name":"公司","address":""}]