[{"poiid":"B2094757D06FA3F44998","title":"上海西站","lon":"121.40277849","lat":"31.262381053","category":"22","category_name":"火车站","address":"普陀区曹杨路桃浦路口"},{"poiid":"B2094757D068A3FA419B","title":"中环国际酒店","lon":"121.4046749","lat":"31.266224741","category":"217","category_name":"旅馆招待所","address":"上海市普陀区富平路800号(近真金路)。"},{"poiid":"B2094757D66EA7FB4498","title":"长征饭店","lon":"121.40305895","lat":"31.261562898","category":"76","category_name":"上海菜","address":"普陀区曹杨路2175号(近三源路)"},{"poiid":"B2094757D068A6FA469F","title":"中环家园","lon":"121.41286","lat":"31.265339","category":"47","category_name":"住宅区","address":"上海普陀区新村路1388弄"},{"poiid":"B2094757D06EAAFE439E","title":"上海西站地铁站","lon":"121.4035539","lat":"31.262408391","category":"36","category_name":"地铁站","address":"上海轨道交通 十一号线 轨交上海西站站 11"},{"poiid":"B2094750D664ABFE4292","title":"重庆德庄火锅(曹杨路店)","lon":"121.405","lat":"31.2599","category":"86","category_name":"火锅店","address":"普陀区曹杨路2212号仙乐都生活广场2楼(三源路路口)"},{"poiid":"B2094654D464AAFF4192","title":"曹杨五月天","lon":"121.408","lat":"31.26059","category":"47","category_name":"住宅区","address":"上海三源路41弄"},{"poiid":"B2094757D06AABFF4799","title":"巴黎贝甜(曹杨路店)","lon":"121.40394395","lat":"31.2600498699","category":"67","category_name":"甜品店","address":"普陀区曹杨路2212号(近三源路)"},{"poiid":"B2094654D464AAFE499D","title":"恒力锦沧花园","lon":"121.40666","lat":"31.259937","category":"47","category_name":"住宅区","address":"上海市曹杨路2170弄"},{"poiid":"B2094757D06FA2FE419E","title":"农行信用卡客户服务中心","lon":"121.404226991","lat":"31.2599336131","category":"46","category_name":"楼宇","address":"上海市普陀区曹杨路2211号"},{"poiid":"B2094757D069A0F5429D","title":"顺煊靓汤海鲜","lon":"121.40796","lat":"31.259","category":"72","category_name":"广东菜","address":"普陀区潮州路508号(近曹杨路)"},{"poiid":"B2094757D06FA5FB4698","title":"万里雅筑","lon":"121.40412","lat":"31.265236","category":"47","category_name":"住宅区","address":"上海市普陀区富平路889弄"},{"poiid":"B2094757D06AA7FA499A","title":"金明大酒店","lon":"121.405516043","lat":"31.257940521","category":"217","category_name":"旅馆招待所","address":"上海普陀区曹杨路2088号(近芝川路))"},{"poiid":"B2094654D464AAFE4593","title":"进华中学","lon":"121.40894","lat":"31.26481","category":"55","category_name":"中学","address":"上海市普陀区富平路657弄91号"},{"poiid":"B2094750D26CA4FB4993","title":"costa（品尊店）","lon":"121.4140471","lat":"31.2568432","category":"247","category_name":"餐饮美食","address":"普陀区铜川路68号弘基时尚生活中心106室(近府村路)"},{"poiid":"B2094757D06BAAFB4298","title":"芝川路曹杨路","lon":"121.40447295","lat":"31.258223835","category":"500","category_name":"未知分类","address":"上海市普陀区"},{"poiid":"B2094654D464AAFE459E","title":"巴黎之春","lon":"121.40643","lat":"31.265034","category":"47","category_name":"住宅区","address":"富平路737弄1-36号"},{"poiid":"B2094655D26CA0FE4198","title":"香泉小区","lon":"121.4121","lat":"31.263485","category":"47","category_name":"住宅区","address":"香泉路85弄1-109号"},{"poiid":"B2094757D66EA5FF4492","title":"农行培训中心","lon":"121.40480295","lat":"31.2587208446","category":"253","category_name":"校园生活","address":"上海曹杨路1329号"},{"poiid":"B2094757D06FA4F5429B","title":"一兆韦德(万里店)","lon":"121.41078","lat":"31.26631","category":"148","category_name":"美容美发店","address":"普陀区新村路1500号家乐福B1楼(近真华路)"},{"poiid":"B2094654D464AAFF459A","title":"曹杨新苑","lon":"121.405","lat":"31.261202","category":"47","category_name":"住宅区","address":"曹杨新苑(曹杨五月天)位于普陀曹杨路2288号"},{"poiid":"B2094654DB69A0FB439A","title":"金明大酒店餐厅","lon":"121.40477233122","lat":"31.259109861248","category":"76","category_name":"上海菜","address":"普陀区曹杨路2088号(近潮州路)"},{"poiid":"B2094757D06AA0FC4699","title":"金纺苑","lon":"121.40601","lat":"31.25915","category":"500","category_name":"未知分类","address":"上海市普陀区曹杨路2168弄"},{"poiid":"B2094655D26BA7FA4093","title":"月记商务楼","lon":"121.40898","lat":"31.25977","category":"46","category_name":"楼宇","address":"潮州路508号"},{"poiid":"B2094757D66AABFD4298","title":"徽公馆 三源路店","lon":"121.4075","lat":"31.26129","category":"260","category_name":"其他","address":"普陀区三源路36号(近曹杨路)"},{"poiid":"B2094655D26FA7FC4793","title":"曹杨五月天(北门)","lon":"121.40729","lat":"31.26096","category":"47","category_name":"住宅区","address":"三源路41弄"},{"poiid":"B2094757D06BA2FE4199","title":"三源路66弄","lon":"121.406522","lat":"31.260992","category":"500","category_name":"未知分类","address":"上海曹杨五月天"},{"poiid":"B2094654D465A3FC439A","title":"水塘小区","lon":"121.406","lat":"31.2564","category":"47","category_name":"住宅区","address":"铜川路175弄1-61号"},{"poiid":"B2094757D66CA0FF429A","title":"宅犬","lon":"121.40809395","lat":"31.2604678779","category":"500","category_name":"未知分类","address":null},{"poiid":"B2094655D26EA2F9429F","title":"曹杨雅苑(南门)","lon":"121.40649","lat":"31.26098","category":"47","category_name":"住宅区","address":"三源路66弄"},{"poiid":"B2094654D464AAFF409D","title":"好德No.688","lon":"121.40592","lat":"31.26038","category":"117","category_name":"便民商店/便利店","address":"三源路97"},{"poiid":"B2094757D16FA3F84593","title":"交通路真华路","lon":"121.409199","lat":"31.26223","category":"500","category_name":"未知分类","address":"上海交通路真华路"},{"poiid":"B2094751D569AAF4479F","title":"南汇中心医院","lon":"121.410385","lat":"31.262283","category":"162","category_name":"医院","address":null},{"poiid":"B2094654D464AAFA479D","title":"曹杨家园","lon":"121.40366","lat":"31.258814","category":"47","category_name":"住宅区","address":"上海市普陀区曹杨路1559号"},{"poiid":"B2094654D464AAFF429C","title":"曹杨雅苑","lon":"121.40579","lat":"31.26118","category":"47","category_name":"住宅区","address":"三源路66弄"},{"poiid":"B2094757D76AA1FE419F","title":"重庆周氏麻辣烫 芝川路店","lon":"121.404194","lat":"31.258205","category":"68","category_name":"快餐厅","address":"普陀区芝川路38号(近曹杨路)"},{"poiid":"B2094655D26CA0FE419E","title":"真华路36弄小区","lon":"121.41045","lat":"31.26238","category":"47","category_name":"住宅区","address":"真华路36弄1幢2-5号"},{"poiid":"B2094655D26CA0FE419F","title":"真华路36弄小区(西门)","lon":"121.4102","lat":"31.26243","category":"47","category_name":"住宅区","address":"真华路36弄1幢2-5号"},{"poiid":"B2094655D265A3FE429F","title":"真华路39弄小区(南门)","lon":"121.41085","lat":"31.26199","category":"47","category_name":"住宅区","address":""},{"poiid":"B2094757D66DAAFB449A","title":"天汇广场","lon":"121.411052","lat":"31.263653","category":"500","category_name":"未知分类","address":"曹杨路2021号(靠近芝川路)"},{"poiid":"B2094654DB69A5FF4999","title":"文峰美容美发(曹杨路店)","lon":"121.40493","lat":"31.25865","category":"148","category_name":"美容美发店","address":"普陀区曹杨路2136号(曹杨路潮州路)"},{"poiid":"B2094655D36CA5FA449C","title":"曹杨路芝川路","lon":"121.40418","lat":"31.26055","category":"38","category_name":"公交车站","address":""},{"poiid":"B2094655D36CA5FA459A","title":"曹杨路陆家港","lon":"121.40418","lat":"31.26068","category":"38","category_name":"公交车站","address":""},{"poiid":"B2094757D165A1FE4993","title":"重庆鸡公煲 芝川路店","lon":"121.403753054","lat":"31.259234793","category":"71","category_name":"四川菜","address":"普陀区芝川路80号(近曹杨路)"},{"poiid":"B2094757D66AA6F44198","title":"鸿运家常菜","lon":"121.403227054","lat":"31.258998793","category":"76","category_name":"上海菜","address":"普陀区芝川路146号(近真北支路)"},{"poiid":"B2094757D568A7FE499D","title":"中环家园二期","lon":"121.41336","lat":"31.26318","category":"47","category_name":"住宅区","address":"上海市普陀区新村路1388弄"},{"poiid":"B2094655D36CA0FB4693","title":"基础公司","lon":"121.40555","lat":"31.26302","category":"38","category_name":"公交车站","address":""},{"poiid":"B2094757D568ABFF4699","title":"宝贝丽造型护肤中心","lon":"121.40509413","lat":"31.25891683","category":"148","category_name":"美容美发店","address":"曹杨路2156"},{"poiid":"B2094655D26DABF8499E","title":"火车头公寓","lon":"121.40468","lat":"31.26206","category":"47","category_name":"住宅区","address":""},{"poiid":"B2094757D16BA5F9449C","title":"李宅","lon":"121.40603795","lat":"31.260767883","category":"500","category_name":"未知分类","address":null},{"poiid":"B2094757D06FA3F44998","title":"上海西站","lon":"121.40277849","lat":"31.262381053","category":"22","category_name":"火车站","address":"普陀区曹杨路桃浦路口"},{"poiid":"B2094757D068A3FA419B","title":"中环国际酒店","lon":"121.4046749","lat":"31.266224741","category":"217","category_name":"旅馆招待所","address":"上海市普陀区富平路800号(近真金路)。"},{"poiid":"B2094757D66EA7FB4498","title":"长征饭店","lon":"121.40305895","lat":"31.261562898","category":"76","category_name":"上海菜","address":"普陀区曹杨路2175号(近三源路)"},{"poiid":"B2094757D068A6FA469F","title":"中环家园","lon":"121.41286","lat":"31.265339","category":"47","category_name":"住宅区","address":"上海普陀区新村路1388弄"},{"poiid":"B2094757D06EAAFE439E","title":"上海西站地铁站","lon":"121.4035539","lat":"31.262408391","category":"36","category_name":"地铁站","address":"上海轨道交通 十一号线 轨交上海西站站 11"},{"poiid":"B2094750D664ABFE4292","title":"重庆德庄火锅(曹杨路店)","lon":"121.405","lat":"31.2599","category":"86","category_name":"火锅店","address":"普陀区曹杨路2212号仙乐都生活广场2楼(三源路路口)"},{"poiid":"B2094654D464AAFF4192","title":"曹杨五月天","lon":"121.408","lat":"31.26059","category":"47","category_name":"住宅区","address":"上海三源路41弄"},{"poiid":"B2094757D06AABFF4799","title":"巴黎贝甜(曹杨路店)","lon":"121.40394395","lat":"31.2600498699","category":"67","category_name":"甜品店","address":"普陀区曹杨路2212号(近三源路)"},{"poiid":"B2094654D464AAFE499D","title":"恒力锦沧花园","lon":"121.40666","lat":"31.259937","category":"47","category_name":"住宅区","address":"上海市曹杨路2170弄"},{"poiid":"B2094757D06FA2FE419E","title":"农行信用卡客户服务中心","lon":"121.404226991","lat":"31.2599336131","category":"46","category_name":"楼宇","address":"上海市普陀区曹杨路2211号"},{"poiid":"B2094757D069A0F5429D","title":"顺煊靓汤海鲜","lon":"121.40796","lat":"31.259","category":"72","category_name":"广东菜","address":"普陀区潮州路508号(近曹杨路)"},{"poiid":"B2094757D06FA5FB4698","title":"万里雅筑","lon":"121.40412","lat":"31.265236","category":"47","category_name":"住宅区","address":"上海市普陀区富平路889弄"},{"poiid":"B2094757D06AA7FA499A","title":"金明大酒店","lon":"121.405516043","lat":"31.257940521","category":"217","category_name":"旅馆招待所","address":"上海普陀区曹杨路2088号(近芝川路))"},{"poiid":"B2094654D464AAFE4593","title":"进华中学","lon":"121.40894","lat":"31.26481","category":"55","category_name":"中学","address":"上海市普陀区富平路657弄91号"},{"poiid":"B2094750D26CA4FB4993","title":"costa（品尊店）","lon":"121.4140471","lat":"31.2568432","category":"247","category_name":"餐饮美食","address":"普陀区铜川路68号弘基时尚生活中心106室(近府村路)"},{"poiid":"B2094757D06BAAFB4298","title":"芝川路曹杨路","lon":"121.40447295","lat":"31.258223835","category":"500","category_name":"未知分类","address":"上海市普陀区"},{"poiid":"B2094654D464AAFE459E","title":"巴黎之春","lon":"121.40643","lat":"31.265034","category":"47","category_name":"住宅区","address":"富平路737弄1-36号"},{"poiid":"B2094655D26CA0FE4198","title":"香泉小区","lon":"121.4121","lat":"31.263485","category":"47","category_name":"住宅区","address":"香泉路85弄1-109号"},{"poiid":"B2094757D66EA5FF4492","title":"农行培训中心","lon":"121.40480295","lat":"31.2587208446","category":"253","category_name":"校园生活","address":"上海曹杨路1329号"},{"poiid":"B2094757D06FA4F5429B","title":"一兆韦德(万里店)","lon":"121.41078","lat":"31.26631","category":"148","category_name":"美容美发店","address":"普陀区新村路1500号家乐福B1楼(近真华路)"},{"poiid":"B2094654D464AAFF459A","title":"曹杨新苑","lon":"121.405","lat":"31.261202","category":"47","category_name":"住宅区","address":"曹杨新苑(曹杨五月天)位于普陀曹杨路2288号"},{"poiid":"B2094654DB69A0FB439A","title":"金明大酒店餐厅","lon":"121.40477233122","lat":"31.259109861248","category":"76","category_name":"上海菜","address":"普陀区曹杨路2088号(近潮州路)"},{"poiid":"B2094757D06AA0FC4699","title":"金纺苑","lon":"121.40601","lat":"31.25915","category":"500","category_name":"未知分类","address":"上海市普陀区曹杨路2168弄"},{"poiid":"B2094655D26BA7FA4093","title":"月记商务楼","lon":"121.40898","lat":"31.25977","category":"46","category_name":"楼宇","address":"潮州路508号"},{"poiid":"B2094757D66AABFD4298","title":"徽公馆 三源路店","lon":"121.4075","lat":"31.26129","category":"260","category_name":"其他","address":"普陀区三源路36号(近曹杨路)"},{"poiid":"B2094655D26FA7FC4793","title":"曹杨五月天(北门)","lon":"121.40729","lat":"31.26096","category":"47","category_name":"住宅区","address":"三源路41弄"},{"poiid":"B2094757D06BA2FE4199","title":"三源路66弄","lon":"121.406522","lat":"31.260992","category":"500","category_name":"未知分类","address":"上海曹杨五月天"},{"poiid":"B2094654D465A3FC439A","title":"水塘小区","lon":"121.406","lat":"31.2564","category":"47","category_name":"住宅区","address":"铜川路175弄1-61号"},{"poiid":"B2094757D66CA0FF429A","title":"宅犬","lon":"121.40809395","lat":"31.2604678779","category":"500","category_name":"未知分类","address":null},{"poiid":"B2094655D26EA2F9429F","title":"曹杨雅苑(南门)","lon":"121.40649","lat":"31.26098","category":"47","category_name":"住宅区","address":"三源路66弄"},{"poiid":"B2094654D464AAFF409D","title":"好德No.688","lon":"121.40592","lat":"31.26038","category":"117","category_name":"便民商店/便利店","address":"三源路97"},{"poiid":"B2094757D16FA3F84593","title":"交通路真华路","lon":"121.409199","lat":"31.26223","category":"500","category_name":"未知分类","address":"上海交通路真华路"},{"poiid":"B2094751D569AAF4479F","title":"南汇中心医院","lon":"121.410385","lat":"31.262283","category":"162","category_name":"医院","address":null},{"poiid":"B2094654D464AAFA479D","title":"曹杨家园","lon":"121.40366","lat":"31.258814","category":"47","category_name":"住宅区","address":"上海市普陀区曹杨路1559号"},{"poiid":"B2094654D464AAFF429C","title":"曹杨雅苑","lon":"121.40579","lat":"31.26118","category":"47","category_name":"住宅区","address":"三源路66弄"},{"poiid":"B2094757D76AA1FE419F","title":"重庆周氏麻辣烫 芝川路店","lon":"121.404194","lat":"31.258205","category":"68","category_name":"快餐厅","address":"普陀区芝川路38号(近曹杨路)"},{"poiid":"B2094655D26CA0FE419E","title":"真华路36弄小区","lon":"121.41045","lat":"31.26238","category":"47","category_name":"住宅区","address":"真华路36弄1幢2-5号"},{"poiid":"B2094655D26CA0FE419F","title":"真华路36弄小区(西门)","lon":"121.4102","lat":"31.26243","category":"47","category_name":"住宅区","address":"真华路36弄1幢2-5号"},{"poiid":"B2094655D265A3FE429F","title":"真华路39弄小区(南门)","lon":"121.41085","lat":"31.26199","category":"47","category_name":"住宅区","address":""},{"poiid":"B2094757D66DAAFB449A","title":"天汇广场","lon":"121.411052","lat":"31.263653","category":"500","category_name":"未知分类","address":"曹杨路2021号(靠近芝川路)"},{"poiid":"B2094654DB69A5FF4999","title":"文峰美容美发(曹杨路店)","lon":"121.40493","lat":"31.25865","category":"148","category_name":"美容美发店","address":"普陀区曹杨路2136号(曹杨路潮州路)"},{"poiid":"B2094655D36CA5FA449C","title":"曹杨路芝川路","lon":"121.40418","lat":"31.26055","category":"38","category_name":"公交车站","address":""},{"poiid":"B2094655D36CA5FA459A","title":"曹杨路陆家港","lon":"121.40418","lat":"31.26068","category":"38","category_name":"公交车站","address":""},{"poiid":"B2094757D165A1FE4993","title":"重庆鸡公煲 芝川路店","lon":"121.403753054","lat":"31.259234793","category":"71","category_name":"四川菜","address":"普陀区芝川路80号(近曹杨路)"},{"poiid":"B2094757D66AA6F44198","title":"鸿运家常菜","lon":"121.403227054","lat":"31.258998793","category":"76","category_name":"上海菜","address":"普陀区芝川路146号(近真北支路)"},{"poiid":"B2094757D568A7FE499D","title":"中环家园二期","lon":"121.41336","lat":"31.26318","category":"47","category_name":"住宅区","address":"上海市普陀区新村路1388弄"},{"poiid":"B2094655D36CA0FB4693","title":"基础公司","lon":"121.40555","lat":"31.26302","category":"38","category_name":"公交车站","address":""},{"poiid":"B2094757D568ABFF4699","title":"宝贝丽造型护肤中心","lon":"121.40509413","lat":"31.25891683","category":"148","category_name":"美容美发店","address":"曹杨路2156"},{"poiid":"B2094655D26DABF8499E","title":"火车头公寓","lon":"121.40468","lat":"31.26206","category":"47","category_name":"住宅区","address":""},{"poiid":"B2094757D16BA5F9449C","title":"李宅","lon":"121.40603795","lat":"31.260767883","category":"500","category_name":"未知分类","address":null},{"poiid":"B2094757D06FA3F44998","title":"上海西站","lon":"121.40277849","lat":"31.262381053","category":"22","category_name":"火车站","address":"普陀区曹杨路桃浦路口"},{"poiid":"B2094757D068A3FA419B","title":"中环国际酒店","lon":"121.4046749","lat":"31.266224741","category":"217","category_name":"旅馆招待所","address":"上海市普陀区富平路800号(近真金路)。"},{"poiid":"B2094757D66EA7FB4498","title":"长征饭店","lon":"121.40305895","lat":"31.261562898","category":"76","category_name":"上海菜","address":"普陀区曹杨路2175号(近三源路)"},{"poiid":"B2094757D068A6FA469F","title":"中环家园","lon":"121.41286","lat":"31.265339","category":"47","category_name":"住宅区","address":"上海普陀区新村路1388弄"},{"poiid":"B2094757D06EAAFE439E","title":"上海西站地铁站","lon":"121.4035539","lat":"31.262408391","category":"36","category_name":"地铁站","address":"上海轨道交通 十一号线 轨交上海西站站 11"},{"poiid":"B2094750D664ABFE4292","title":"重庆德庄火锅(曹杨路店)","lon":"121.405","lat":"31.2599","category":"86","category_name":"火锅店","address":"普陀区曹杨路2212号仙乐都生活广场2楼(三源路路口)"},{"poiid":"B2094654D464AAFF4192","title":"曹杨五月天","lon":"121.408","lat":"31.26059","category":"47","category_name":"住宅区","address":"上海三源路41弄"},{"poiid":"B2094757D06AABFF4799","title":"巴黎贝甜(曹杨路店)","lon":"121.40394395","lat":"31.2600498699","category":"67","category_name":"甜品店","address":"普陀区曹杨路2212号(近三源路)"},{"poiid":"B2094654D464AAFE499D","title":"恒力锦沧花园","lon":"121.40666","lat":"31.259937","category":"47","category_name":"住宅区","address":"上海市曹杨路2170弄"},{"poiid":"B2094757D06FA2FE419E","title":"农行信用卡客户服务中心","lon":"121.404226991","lat":"31.2599336131","category":"46","category_name":"楼宇","address":"上海市普陀区曹杨路2211号"},{"poiid":"B2094757D069A0F5429D","title":"顺煊靓汤海鲜","lon":"121.40796","lat":"31.259","category":"72","category_name":"广东菜","address":"普陀区潮州路508号(近曹杨路)"},{"poiid":"B2094757D06FA5FB4698","title":"万里雅筑","lon":"121.40412","lat":"31.265236","category":"47","category_name":"住宅区","address":"上海市普陀区富平路889弄"},{"poiid":"B2094757D06AA7FA499A","title":"金明大酒店","lon":"121.405516043","lat":"31.257940521","category":"217","category_name":"旅馆招待所","address":"上海普陀区曹杨路2088号(近芝川路))"},{"poiid":"B2094654D464AAFE4593","title":"进华中学","lon":"121.40894","lat":"31.26481","category":"55","category_name":"中学","address":"上海市普陀区富平路657弄91号"},{"poiid":"B2094750D26CA4FB4993","title":"costa（品尊店）","lon":"121.4140471","lat":"31.2568432","category":"247","category_name":"餐饮美食","address":"普陀区铜川路68号弘基时尚生活中心106室(近府村路)"},{"poiid":"B2094757D06BAAFB4298","title":"芝川路曹杨路","lon":"121.40447295","lat":"31.258223835","category":"500","category_name":"未知分类","address":"上海市普陀区"},{"poiid":"B2094654D464AAFE459E","title":"巴黎之春","lon":"121.40643","lat":"31.265034","category":"47","category_name":"住宅区","address":"富平路737弄1-36号"},{"poiid":"B2094655D26CA0FE4198","title":"香泉小区","lon":"121.4121","lat":"31.263485","category":"47","category_name":"住宅区","address":"香泉路85弄1-109号"},{"poiid":"B2094757D66EA5FF4492","title":"农行培训中心","lon":"121.40480295","lat":"31.2587208446","category":"253","category_name":"校园生活","address":"上海曹杨路1329号"},{"poiid":"B2094757D06FA4F5429B","title":"一兆韦德(万里店)","lon":"121.41078","lat":"31.26631","category":"148","category_name":"美容美发店","address":"普陀区新村路1500号家乐福B1楼(近真华路)"},{"poiid":"B2094654D464AAFF459A","title":"曹杨新苑","lon":"121.405","lat":"31.261202","category":"47","category_name":"住宅区","address":"曹杨新苑(曹杨五月天)位于普陀曹杨路2288号"},{"poiid":"B2094654DB69A0FB439A","title":"金明大酒店餐厅","lon":"121.40477233122","lat":"31.259109861248","category":"76","category_name":"上海菜","address":"普陀区曹杨路2088号(近潮州路)"},{"poiid":"B2094757D06AA0FC4699","title":"金纺苑","lon":"121.40601","lat":"31.25915","category":"500","category_name":"未知分类","address":"上海市普陀区曹杨路2168弄"},{"poiid":"B2094655D26BA7FA4093","title":"月记商务楼","lon":"121.40898","lat":"31.25977","category":"46","category_name":"楼宇","address":"潮州路508号"},{"poiid":"B2094757D66AABFD4298","title":"徽公馆 三源路店","lon":"121.4075","lat":"31.26129","category":"260","category_name":"其他","address":"普陀区三源路36号(近曹杨路)"},{"poiid":"B2094655D26FA7FC4793","title":"曹杨五月天(北门)","lon":"121.40729","lat":"31.26096","category":"47","category_name":"住宅区","address":"三源路41弄"},{"poiid":"B2094757D06BA2FE4199","title":"三源路66弄","lon":"121.406522","lat":"31.260992","category":"500","category_name":"未知分类","address":"上海曹杨五月天"},{"poiid":"B2094654D465A3FC439A","title":"水塘小区","lon":"121.406","lat":"31.2564","category":"47","category_name":"住宅区","address":"铜川路175弄1-61号"},{"poiid":"B2094757D66CA0FF429A","title":"宅犬","lon":"121.40809395","lat":"31.2604678779","category":"500","category_name":"未知分类","address":null},{"poiid":"B2094655D26EA2F9429F","title":"曹杨雅苑(南门)","lon":"121.40649","lat":"31.26098","category":"47","category_name":"住宅区","address":"三源路66弄"},{"poiid":"B2094654D464AAFF409D","title":"好德No.688","lon":"121.40592","lat":"31.26038","category":"117","category_name":"便民商店/便利店","address":"三源路97"},{"poiid":"B2094757D16FA3F84593","title":"交通路真华路","lon":"121.409199","lat":"31.26223","category":"500","category_name":"未知分类","address":"上海交通路真华路"},{"poiid":"B2094751D569AAF4479F","title":"南汇中心医院","lon":"121.410385","lat":"31.262283","category":"162","category_name":"医院","address":null},{"poiid":"B2094654D464AAFA479D","title":"曹杨家园","lon":"121.40366","lat":"31.258814","category":"47","category_name":"住宅区","address":"上海市普陀区曹杨路1559号"},{"poiid":"B2094654D464AAFF429C","title":"曹杨雅苑","lon":"121.40579","lat":"31.26118","category":"47","category_name":"住宅区","address":"三源路66弄"},{"poiid":"B2094757D76AA1FE419F","title":"重庆周氏麻辣烫 芝川路店","lon":"121.404194","lat":"31.258205","category":"68","category_name":"快餐厅","address":"普陀区芝川路38号(近曹杨路)"},{"poiid":"B2094655D26CA0FE419E","title":"真华路36弄小区","lon":"121.41045","lat":"31.26238","category":"47","category_name":"住宅区","address":"真华路36弄1幢2-5号"},{"poiid":"B2094655D26CA0FE419F","title":"真华路36弄小区(西门)","lon":"121.4102","lat":"31.26243","category":"47","category_name":"住宅区","address":"真华路36弄1幢2-5号"},{"poiid":"B2094655D265A3FE429F","title":"真华路39弄小区(南门)","lon":"121.41085","lat":"31.26199","category":"47","category_name":"住宅区","address":""},{"poiid":"B2094757D66DAAFB449A","title":"天汇广场","lon":"121.411052","lat":"31.263653","category":"500","category_name":"未知分类","address":"曹杨路2021号(靠近芝川路)"},{"poiid":"B2094654DB69A5FF4999","title":"文峰美容美发(曹杨路店)","lon":"121.40493","lat":"31.25865","category":"148","category_name":"美容美发店","address":"普陀区曹杨路2136号(曹杨路潮州路)"},{"poiid":"B2094655D36CA5FA449C","title":"曹杨路芝川路","lon":"121.40418","lat":"31.26055","category":"38","category_name":"公交车站","address":""},{"poiid":"B2094655D36CA5FA459A","title":"曹杨路陆家港","lon":"121.40418","lat":"31.26068","category":"38","category_name":"公交车站","address":""},{"poiid":"B2094757D165A1FE4993","title":"重庆鸡公煲 芝川路店","lon":"121.403753054","lat":"31.259234793","category":"71","category_name":"四川菜","address":"普陀区芝川路80号(近曹杨路)"},{"poiid":"B2094757D66AA6F44198","title":"鸿运家常菜","lon":"121.403227054","lat":"31.258998793","category":"76","category_name":"上海菜","address":"普陀区芝川路146号(近真北支路)"},{"poiid":"B2094757D568A7FE499D","title":"中环家园二期","lon":"121.41336","lat":"31.26318","category":"47","category_name":"住宅区","address":"上海市普陀区新村路1388弄"},{"poiid":"B2094655D36CA0FB4693","title":"基础公司","lon":"121.40555","lat":"31.26302","category":"38","category_name":"公交车站","address":""},{"poiid":"B2094757D568ABFF4699","title":"宝贝丽造型护肤中心","lon":"121.40509413","lat":"31.25891683","category":"148","category_name":"美容美发店","address":"曹杨路2156"},{"poiid":"B2094655D26DABF8499E","title":"火车头公寓","lon":"121.40468","lat":"31.26206","category":"47","category_name":"住宅区","address":""},{"poiid":"B2094757D16BA5F9449C","title":"李宅","lon":"121.40603795","lat":"31.260767883","category":"500","category_name":"未知分类","address":null},{"poiid":"B2094757D06FA3F44998","title":"上海西站","lon":"121.40277849","lat":"31.262381053","category":"22","category_name":"火车站","address":"普陀区曹杨路桃浦路口"},{"poiid":"B2094757D068A3FA419B","title":"中环国际酒店","lon":"121.4046749","lat":"31.266224741","category":"217","category_name":"旅馆招待所","address":"上海市普陀区富平路800号(近真金路)。"},{"poiid":"B2094757D66EA7FB4498","title":"长征饭店","lon":"121.40305895","lat":"31.261562898","category":"76","category_name":"上海菜","address":"普陀区曹杨路2175号(近三源路)"},{"poiid":"B2094757D068A6FA469F","title":"中环家园","lon":"121.41286","lat":"31.265339","category":"47","category_name":"住宅区","address":"上海普陀区新村路1388弄"},{"poiid":"B2094757D06EAAFE439E","title":"上海西站地铁站","lon":"121.4035539","lat":"31.262408391","category":"36","category_name":"地铁站","address":"上海轨道交通 十一号线 轨交上海西站站 11"},{"poiid":"B2094750D664ABFE4292","title":"重庆德庄火锅(曹杨路店)","lon":"121.405","lat":"31.2599","category":"86","category_name":"火锅店","address":"普陀区曹杨路2212号仙乐都生活广场2楼(三源路路口)"},{"poiid":"B2094654D464AAFF4192","title":"曹杨五月天","lon":"121.408","lat":"31.26059","category":"47","category_name":"住宅区","address":"上海三源路41弄"},{"poiid":"B2094757D06AABFF4799","title":"巴黎贝甜(曹杨路店)","lon":"121.40394395","lat":"31.2600498699","category":"67","category_name":"甜品店","address":"普陀区曹杨路2212号(近三源路)"},{"poiid":"B2094654D464AAFE499D","title":"恒力锦沧花园","lon":"121.40666","lat":"31.259937","category":"47","category_name":"住宅区","address":"上海市曹杨路2170弄"},{"poiid":"B2094757D06FA2FE419E","title":"农行信用卡客户服务中心","lon":"121.404226991","lat":"31.2599336131","category":"46","category_name":"楼宇","address":"上海市普陀区曹杨路2211号"},{"poiid":"B2094757D069A0F5429D","title":"顺煊靓汤海鲜","lon":"121.40796","lat":"31.259","category":"72","category_name":"广东菜","address":"普陀区潮州路508号(近曹杨路)"},{"poiid":"B2094757D06FA5FB4698","title":"万里雅筑","lon":"121.40412","lat":"31.265236","category":"47","category_name":"住宅区","address":"上海市普陀区富平路889弄"},{"poiid":"B2094757D06AA7FA499A","title":"金明大酒店","lon":"121.405516043","lat":"31.257940521","category":"217","category_name":"旅馆招待所","address":"上海普陀区曹杨路2088号(近芝川路))"},{"poiid":"B2094654D464AAFE4593","title":"进华中学","lon":"121.40894","lat":"31.26481","category":"55","category_name":"中学","address":"上海市普陀区富平路657弄91号"},{"poiid":"B2094750D26CA4FB4993","title":"costa（品尊店）","lon":"121.4140471","lat":"31.2568432","category":"247","category_name":"餐饮美食","address":"普陀区铜川路68号弘基时尚生活中心106室(近府村路)"},{"poiid":"B2094757D06BAAFB4298","title":"芝川路曹杨路","lon":"121.40447295","lat":"31.258223835","category":"500","category_name":"未知分类","address":"上海市普陀区"},{"poiid":"B2094654D464AAFE459E","title":"巴黎之春","lon":"121.40643","lat":"31.265034","category":"47","category_name":"住宅区","address":"富平路737弄1-36号"},{"poiid":"B2094655D26CA0FE4198","title":"香泉小区","lon":"121.4121","lat":"31.263485","category":"47","category_name":"住宅区","address":"香泉路85弄1-109号"},{"poiid":"B2094757D66EA5FF4492","title":"农行培训中心","lon":"121.40480295","lat":"31.2587208446","category":"253","category_name":"校园生活","address":"上海曹杨路1329号"},{"poiid":"B2094757D06FA4F5429B","title":"一兆韦德(万里店)","lon":"121.41078","lat":"31.26631","category":"148","category_name":"美容美发店","address":"普陀区新村路1500号家乐福B1楼(近真华路)"},{"poiid":"B2094654D464AAFF459A","title":"曹杨新苑","lon":"121.405","lat":"31.261202","category":"47","category_name":"住宅区","address":"曹杨新苑(曹杨五月天)位于普陀曹杨路2288号"},{"poiid":"B2094654DB69A0FB439A","title":"金明大酒店餐厅","lon":"121.40477233122","lat":"31.259109861248","category":"76","category_name":"上海菜","address":"普陀区曹杨路2088号(近潮州路)"},{"poiid":"B2094757D06AA0FC4699","title":"金纺苑","lon":"121.40601","lat":"31.25915","category":"500","category_name":"未知分类","address":"上海市普陀区曹杨路2168弄"},{"poiid":"B2094655D26BA7FA4093","title":"月记商务楼","lon":"121.40898","lat":"31.25977","category":"46","category_name":"楼宇","address":"潮州路508号"},{"poiid":"B2094757D66AABFD4298","title":"徽公馆 三源路店","lon":"121.4075","lat":"31.26129","category":"260","category_name":"其他","address":"普陀区三源路36号(近曹杨路)"},{"poiid":"B2094655D26FA7FC4793","title":"曹杨五月天(北门)","lon":"121.40729","lat":"31.26096","category":"47","category_name":"住宅区","address":"三源路41弄"},{"poiid":"B2094757D06BA2FE4199","title":"三源路66弄","lon":"121.406522","lat":"31.260992","category":"500","category_name":"未知分类","address":"上海曹杨五月天"},{"poiid":"B2094654D465A3FC439A","title":"水塘小区","lon":"121.406","lat":"31.2564","category":"47","category_name":"住宅区","address":"铜川路175弄1-61号"},{"poiid":"B2094757D66CA0FF429A","title":"宅犬","lon":"121.40809395","lat":"31.2604678779","category":"500","category_name":"未知分类","address":null},{"poiid":"B2094655D26EA2F9429F","title":"曹杨雅苑(南门)","lon":"121.40649","lat":"31.26098","category":"47","category_name":"住宅区","address":"三源路66弄"},{"poiid":"B2094654D464AAFF409D","title":"好德No.688","lon":"121.40592","lat":"31.26038","category":"117","category_name":"便民商店/便利店","address":"三源路97"},{"poiid":"B2094757D16FA3F84593","title":"交通路真华路","lon":"121.409199","lat":"31.26223","category":"500","category_name":"未知分类","address":"上海交通路真华路"},{"poiid":"B2094751D569AAF4479F","title":"南汇中心医院","lon":"121.410385","lat":"31.262283","category":"162","category_name":"医院","address":null},{"poiid":"B2094654D464AAFA479D","title":"曹杨家园","lon":"121.40366","lat":"31.258814","category":"47","category_name":"住宅区","address":"上海市普陀区曹杨路1559号"},{"poiid":"B2094654D464AAFF429C","title":"曹杨雅苑","lon":"121.40579","lat":"31.26118","category":"47","category_name":"住宅区","address":"三源路66弄"},{"poiid":"B2094757D76AA1FE419F","title":"重庆周氏麻辣烫 芝川路店","lon":"121.404194","lat":"31.258205","category":"68","category_name":"快餐厅","address":"普陀区芝川路38号(近曹杨路)"},{"poiid":"B2094655D26CA0FE419E","title":"真华路36弄小区","lon":"121.41045","lat":"31.26238","category":"47","category_name":"住宅区","address":"真华路36弄1幢2-5号"},{"poiid":"B2094655D26CA0FE419F","title":"真华路36弄小区(西门)","lon":"121.4102","lat":"31.26243","category":"47","category_name":"住宅区","address":"真华路36弄1幢2-5号"},{"poiid":"B2094655D265A3FE429F","title":"真华路39弄小区(南门)","lon":"121.41085","lat":"31.26199","category":"47","category_name":"住宅区","address":""},{"poiid":"B2094757D66DAAFB449A","title":"天汇广场","lon":"121.411052","lat":"31.263653","category":"500","category_name":"未知分类","address":"曹杨路2021号(靠近芝川路)"},{"poiid":"B2094654DB69A5FF4999","title":"文峰美容美发(曹杨路店)","lon":"121.40493","lat":"31.25865","category":"148","category_name":"美容美发店","address":"普陀区曹杨路2136号(曹杨路潮州路)"},{"poiid":"B2094655D36CA5FA449C","title":"曹杨路芝川路","lon":"121.40418","lat":"31.26055","category":"38","category_name":"公交车站","address":""},{"poiid":"B2094655D36CA5FA459A","title":"曹杨路陆家港","lon":"121.40418","lat":"31.26068","category":"38","category_name":"公交车站","address":""},{"poiid":"B2094757D165A1FE4993","title":"重庆鸡公煲 芝川路店","lon":"121.403753054","lat":"31.259234793","category":"71","category_name":"四川菜","address":"普陀区芝川路80号(近曹杨路)"},{"poiid":"B2094757D66AA6F44198","title":"鸿运家常菜","lon":"121.403227054","lat":"31.258998793","category":"76","category_name":"上海菜","address":"普陀区芝川路146号(近真北支路)"},{"poiid":"B2094757D568A7FE499D","title":"中环家园二期","lon":"121.41336","lat":"31.26318","category":"47","category_name":"住宅区","address":"上海市普陀区新村路1388弄"},{"poiid":"B2094655D36CA0FB4693","title":"基础公司","lon":"121.40555","lat":"31.26302","category":"38","category_name":"公交车站","address":""},{"poiid":"B2094757D568ABFF4699","title":"宝贝丽造型护肤中心","lon":"121.40509413","lat":"31.25891683","category":"148","category_name":"美容美发店","address":"曹杨路2156"},{"poiid":"B2094655D26DABF8499E","title":"火车头公寓","lon":"121.40468","lat":"31.26206","category":"47","category_name":"住宅区","address":""},{"poiid":"B2094757D16BA5F9449C","title":"李宅","lon":"121.40603795","lat":"31.260767883","category":"500","category_name":"未知分类","address":null}]