[{"poiid":"B2094654DA6FA7FF4699","title":"海龙海鲜舫","lon":"121.50199","lat":"31.23107","category":"72","category_name":"广东菜","address":"浦东新区东昌路1号(近富城路拾步街)"},{"poiid":"B2094757D06EAAFA489F","title":"上海外滩英迪格酒店 (Hotel Indigo)","lon":"121.499735","lat":"31.226432","category":"217","category_name":"旅馆招待所","address":"黄浦区中山东二路585号(近东门路)"},{"poiid":"B2094757D06FA1FA4399","title":"外滩游艇会","lon":"121.50381","lat":"31.23071","category":"260","category_name":"其他","address":"浦东新区滨江大道3510号(近东昌路渡口)"},{"poiid":"B209475CD564A7F84292","title":"上海滩新天地店","lon":"121.47463","lat":"31.22164","category":"119","category_name":"商场","address":"\"太仓路181弄新天地北里15号\r\n\""},{"poiid":"B209475CD564A7F84392","title":"上海滩浦东香格里拉店","lon":"121.50058","lat":"31.23634","category":"119","category_name":"商场","address":"浦东富成路33号香格里拉酒店内大堂层"},{"poiid":"B2094757D06FA7FC4598","title":"东昌路轮渡站","lon":"121.50315135","lat":"31.230164847","category":"35","category_name":"长途汽车站","address":"上海浦东新区东昌路1号"},{"poiid":"B2094654DA6EABFF439B","title":"久事大厦","lon":"121.507","lat":"31.2307","category":"46","category_name":"楼宇","address":"上海市黄浦区中山南路28号"},{"poiid":"B2094757D06FA0FE479A","title":"汤臣一品","lon":"121.50127","lat":"31.233383","category":"47","category_name":"住宅区","address":"朝阳区东四环慈云寺桥东北角,向东400米路南"},{"poiid":"B2094757D068A5FA469B","title":"恰CHAR","lon":"121.50005411","lat":"31.225733464","category":"94","category_name":"西餐厅","address":"黄浦区中山东二路585号外滩英迪格酒店29-31楼(东门路)"},{"poiid":"B2094757D068ABFD489C","title":"Kaefer滨江壹号","lon":"121.50282273","lat":"31.232060339","category":"47","category_name":"住宅区","address":"浦东新区滨江大道富城路拾步街由隆花园(近花园石桥路)"},{"poiid":"B2094757D16FA0FF4092","title":"小南国(十六铺店)","lon":"121.500050938","lat":"31.2274259403","category":"76","category_name":"上海菜","address":"黄浦区中山东二路565号A楼(近东门路)"},{"poiid":"B2094757D068A7F8459A","title":"仁恒滨江园(Yanlord Garden)","lon":"121.50641632","lat":"31.228860855","category":"47","category_name":"住宅区","address":"上海浦东新区浦明路99弄(近商城路)"},{"poiid":"B2094757D06AAAF9489E","title":"宏豪浦江一号","lon":"121.504989","lat":"31.228434","category":"72","category_name":"广东菜","address":"浦东新区滨江大道3788号(近商城路)"},{"poiid":"B2094757D165A7F54999","title":"花旗银行大厦","lon":"121.500979701","lat":"31.2332134973","category":"46","category_name":"楼宇","address":"上海浦东新区花园石桥路33号"},{"poiid":"B2094757D068A6FE429C","title":"金外滩花园","lon":"121.507","lat":"31.228","category":"47","category_name":"住宅区","address":"上海市黄浦区中山南路222号"},{"poiid":"B2094757D06FA0F8499E","title":"交通银行上海分行","lon":"121.50114678","lat":"31.225955549","category":"46","category_name":"楼宇","address":"上海中山南路99号"},{"poiid":"B2094757D16CA2F9439C","title":"浦之舟会所","lon":"121.503476638","lat":"31.2286266659","category":"500","category_name":"未知分类","address":"上海陆家嘴滨江大道3688号"},{"poiid":"B2094757D06AA2FD4298","title":"龙皇酒家","lon":"121.49882273","lat":"31.227382239","category":"72","category_name":"广东菜","address":"黄浦区中山东二路535号十六铺B栋楼(外马路中山东二路)"},{"poiid":"B2094757D068A6F4499F","title":"君悦轩(花园石桥店)","lon":"121.50239","lat":"31.23334","category":"72","category_name":"广东菜","address":"浦东新区花园石桥路66号东亚银行金融大厦3楼(近陆家嘴环路)"},{"poiid":"B2094654DA69A1F54292","title":"财富广场","lon":"121.5063","lat":"31.2279","category":"46","category_name":"楼宇","address":"上海市浦明路68号"},{"poiid":"B2094757D16CAAFB489F","title":"浦东金贸君悦酒店","lon":"121.50241173","lat":"31.230401303","category":"217","category_name":"旅馆招待所","address":"上海市浦东新区富城路"},{"poiid":"B2094655D26FA6F54399","title":"仁恒滨江园","lon":"121.50861","lat":"31.23017","category":"47","category_name":"住宅区","address":"浦城路99弄"},{"poiid":"B2094757D06FA4F9449C","title":"轮渡线(东金线轮渡)","lon":"121.50343","lat":"31.22978","category":"260","category_name":"其他","address":"东昌路渡口－金陵东路渡口(滨江大道东昌路)"},{"poiid":"B2094750D268A7F8449E","title":"滨江一号","lon":"121.501441","lat":"31.231658","category":"247","category_name":"餐饮美食","address":"浦东新区滨江一号滨江富城路拾步街由隆花园(近石桥路)"},{"poiid":"B2094655D36CA1FD429C","title":"十六铺","lon":"121.507","lat":"31.2305","category":"38","category_name":"公交车站","address":"中山东二路88弄"},{"poiid":"B2094757D06BA1FA459D","title":"上海中心","lon":"121.506470701","lat":"31.2333594809","category":"500","category_name":"未知分类","address":"上海银城中路501号"},{"poiid":"B2094757D065A7F9409F","title":"Pizzeria Alla Torre(陆家嘴店)","lon":"121.50102","lat":"31.23548","category":"94","category_name":"西餐厅","address":"上海浦东新区陆家嘴环路165号1楼(富城路名商路)"},{"poiid":"B2094757D069A3F4419C","title":"港泰风茶餐厅","lon":"121.50589822","lat":"31.230998536","category":"72","category_name":"广东菜","address":"浦东新区东昌路540号(近浦东南路)"},{"poiid":"B2094757D16DA5FB459D","title":"MJ  club","lon":"121.499573738","lat":"31.2269042292","category":"500","category_name":"未知分类","address":"上海市黄浦区中山南二路501号"},{"poiid":"B2094750DB69ABFC4298","title":"汇尊滨江酒店","lon":"121.502197","lat":"31.22969","category":"76","category_name":"上海菜","address":"浦东新区滨江大道3528号(近富城路)"},{"poiid":"B2094655D36DA6FF449E","title":"东昌路","lon":"121.50382","lat":"31.23039","category":"38","category_name":"公交车站","address":""},{"poiid":"B2094655D268A2FD499E","title":"公馆77","lon":"121.505","lat":"31.228","category":"47","category_name":"住宅区","address":"上海市卢湾区济南路8号"},{"poiid":"B2094757D069A4FB489E","title":"普京餐厅","lon":"121.50502014","lat":"31.234098434","category":"500","category_name":"未知分类","address":"上海正大广埸"},{"poiid":"B2094757D66CA0FD479E","title":"松鹤楼游船码头","lon":"121.502754738","lat":"31.2317393323","category":"500","category_name":"未知分类","address":"上海中山东二路505号"},{"poiid":"B2094757D16FA1F44199","title":"国家开发银行上海市分行","lon":"121.50561077","lat":"31.229097597","category":"46","category_name":"楼宇","address":"上海浦东新区浦明路68号"},{"poiid":"B2094654DB6BABFC429E","title":"上海鹏利辉盛阁公寓(银城中路)","lon":"121.50334","lat":"31.23164","category":"47","category_name":"住宅区","address":"上海市浦东新区陆家嘴银城中路600弄1号（陆家嘴环路）"},{"poiid":"B2094757DB6CA6FC4199","title":"好乐迪","lon":"121.5043331429361","lat":"31.22490214062436","category":"248","category_name":"生活娱乐","address":"八佰伴"},{"poiid":"B2094654DB65A4FE4693","title":"轮渡广场","lon":"121.50301","lat":"31.23069","category":"201","category_name":"城市广场","address":""},{"poiid":"B2094757D16BA3FA489E","title":"外滩酒吧","lon":"121.501479738","lat":"31.2253351958","category":"247","category_name":"餐饮美食","address":"上海市中山东二路575号"},{"poiid":"B2094757D068A7FB439D","title":"盛大金磐","lon":"121.50597524","lat":"31.231531638","category":"500","category_name":"未知分类","address":"上海浦东新区东泰路200弄"},{"poiid":"B2094757D064A7F4449D","title":"葡丽蛋挞工坊","lon":"121.50174227","lat":"31.230888794","category":"67","category_name":"甜品店","address":"浦东新区世纪大道8号国金中心商场LG2-10号商铺(近东泰路)"},{"poiid":"B2094750DA68A5F4449D","title":"金贸君悦大酒店","lon":"121.502555","lat":"31.234514","category":"500","category_name":"未知分类","address":null},{"poiid":"B2094757D065A7F9469C","title":"花旗大厦花旗银行","lon":"121.50367547","lat":"31.231474696","category":"500","category_name":"未知分类","address":"上海市"},{"poiid":"B2094757D06FA4FC499E","title":"安联中心","lon":"121.506704808","lat":"31.227666206","category":"46","category_name":"楼宇","address":"上海浦明路132号"},{"poiid":"B2094655D26DA7FB489D","title":"财富广场(南二门)","lon":"121.5056","lat":"31.2291","category":"46","category_name":"楼宇","address":"浦明路8-198"},{"poiid":"B2094757D16EA5FA4293","title":"安薇塔","lon":"121.502328738","lat":"31.2342943867","category":"500","category_name":"未知分类","address":"上海市 国金中心 LG2"},{"poiid":"B2094757D164A1F94699","title":"ifc 苏浙汇","lon":"121.505637108","lat":"31.2294649138","category":"500","category_name":"未知分类","address":"上海银城中路"},{"poiid":"B2094655D36CA6FF4198","title":"富城路东昌路(渡口)","lon":"121.50296","lat":"31.23103","category":"38","category_name":"公交车站","address":""},{"poiid":"B2094655D36DA0FB419A","title":"银城中路陆家嘴环路(环球中心)","lon":"121.50436","lat":"31.23193","category":"38","category_name":"公交车站","address":""},{"poiid":"B2094753DA6BA5FF4299","title":"东方明珠","lon":"121.504028","lat":"31.230518","category":"500","category_name":"未知分类","address":"上海市 上海市外滩"},{"poiid":"B2094654DA6FA7FF4699","title":"海龙海鲜舫","lon":"121.50199","lat":"31.23107","category":"72","category_name":"广东菜","address":"浦东新区东昌路1号(近富城路拾步街)"},{"poiid":"B2094757D06EAAFA489F","title":"上海外滩英迪格酒店 (Hotel Indigo)","lon":"121.499735","lat":"31.226432","category":"217","category_name":"旅馆招待所","address":"黄浦区中山东二路585号(近东门路)"},{"poiid":"B2094757D06FA1FA4399","title":"外滩游艇会","lon":"121.50381","lat":"31.23071","category":"260","category_name":"其他","address":"浦东新区滨江大道3510号(近东昌路渡口)"},{"poiid":"B209475CD564A7F84292","title":"上海滩新天地店","lon":"121.47463","lat":"31.22164","category":"119","category_name":"商场","address":"\"太仓路181弄新天地北里15号\r\n\""},{"poiid":"B209475CD564A7F84392","title":"上海滩浦东香格里拉店","lon":"121.50058","lat":"31.23634","category":"119","category_name":"商场","address":"浦东富成路33号香格里拉酒店内大堂层"},{"poiid":"B2094757D06FA7FC4598","title":"东昌路轮渡站","lon":"121.50315135","lat":"31.230164847","category":"35","category_name":"长途汽车站","address":"上海浦东新区东昌路1号"},{"poiid":"B2094654DA6EABFF439B","title":"久事大厦","lon":"121.507","lat":"31.2307","category":"46","category_name":"楼宇","address":"上海市黄浦区中山南路28号"},{"poiid":"B2094757D06FA0FE479A","title":"汤臣一品","lon":"121.50127","lat":"31.233383","category":"47","category_name":"住宅区","address":"朝阳区东四环慈云寺桥东北角,向东400米路南"},{"poiid":"B2094757D068A5FA469B","title":"恰CHAR","lon":"121.50005411","lat":"31.225733464","category":"94","category_name":"西餐厅","address":"黄浦区中山东二路585号外滩英迪格酒店29-31楼(东门路)"},{"poiid":"B2094757D068ABFD489C","title":"Kaefer滨江壹号","lon":"121.50282273","lat":"31.232060339","category":"47","category_name":"住宅区","address":"浦东新区滨江大道富城路拾步街由隆花园(近花园石桥路)"},{"poiid":"B2094757D16FA0FF4092","title":"小南国(十六铺店)","lon":"121.500050938","lat":"31.2274259403","category":"76","category_name":"上海菜","address":"黄浦区中山东二路565号A楼(近东门路)"},{"poiid":"B2094757D068A7F8459A","title":"仁恒滨江园(Yanlord Garden)","lon":"121.50641632","lat":"31.228860855","category":"47","category_name":"住宅区","address":"上海浦东新区浦明路99弄(近商城路)"},{"poiid":"B2094757D06AAAF9489E","title":"宏豪浦江一号","lon":"121.504989","lat":"31.228434","category":"72","category_name":"广东菜","address":"浦东新区滨江大道3788号(近商城路)"},{"poiid":"B2094757D165A7F54999","title":"花旗银行大厦","lon":"121.500979701","lat":"31.2332134973","category":"46","category_name":"楼宇","address":"上海浦东新区花园石桥路33号"},{"poiid":"B2094757D068A6FE429C","title":"金外滩花园","lon":"121.507","lat":"31.228","category":"47","category_name":"住宅区","address":"上海市黄浦区中山南路222号"},{"poiid":"B2094757D06FA0F8499E","title":"交通银行上海分行","lon":"121.50114678","lat":"31.225955549","category":"46","category_name":"楼宇","address":"上海中山南路99号"},{"poiid":"B2094757D16CA2F9439C","title":"浦之舟会所","lon":"121.503476638","lat":"31.2286266659","category":"500","category_name":"未知分类","address":"上海陆家嘴滨江大道3688号"},{"poiid":"B2094757D06AA2FD4298","title":"龙皇酒家","lon":"121.49882273","lat":"31.227382239","category":"72","category_name":"广东菜","address":"黄浦区中山东二路535号十六铺B栋楼(外马路中山东二路)"},{"poiid":"B2094757D068A6F4499F","title":"君悦轩(花园石桥店)","lon":"121.50239","lat":"31.23334","category":"72","category_name":"广东菜","address":"浦东新区花园石桥路66号东亚银行金融大厦3楼(近陆家嘴环路)"},{"poiid":"B2094654DA69A1F54292","title":"财富广场","lon":"121.5063","lat":"31.2279","category":"46","category_name":"楼宇","address":"上海市浦明路68号"},{"poiid":"B2094757D16CAAFB489F","title":"浦东金贸君悦酒店","lon":"121.50241173","lat":"31.230401303","category":"217","category_name":"旅馆招待所","address":"上海市浦东新区富城路"},{"poiid":"B2094655D26FA6F54399","title":"仁恒滨江园","lon":"121.50861","lat":"31.23017","category":"47","category_name":"住宅区","address":"浦城路99弄"},{"poiid":"B2094757D06FA4F9449C","title":"轮渡线(东金线轮渡)","lon":"121.50343","lat":"31.22978","category":"260","category_name":"其他","address":"东昌路渡口－金陵东路渡口(滨江大道东昌路)"},{"poiid":"B2094750D268A7F8449E","title":"滨江一号","lon":"121.501441","lat":"31.231658","category":"247","category_name":"餐饮美食","address":"浦东新区滨江一号滨江富城路拾步街由隆花园(近石桥路)"},{"poiid":"B2094655D36CA1FD429C","title":"十六铺","lon":"121.507","lat":"31.2305","category":"38","category_name":"公交车站","address":"中山东二路88弄"},{"poiid":"B2094757D06BA1FA459D","title":"上海中心","lon":"121.506470701","lat":"31.2333594809","category":"500","category_name":"未知分类","address":"上海银城中路501号"},{"poiid":"B2094757D065A7F9409F","title":"Pizzeria Alla Torre(陆家嘴店)","lon":"121.50102","lat":"31.23548","category":"94","category_name":"西餐厅","address":"上海浦东新区陆家嘴环路165号1楼(富城路名商路)"},{"poiid":"B2094757D069A3F4419C","title":"港泰风茶餐厅","lon":"121.50589822","lat":"31.230998536","category":"72","category_name":"广东菜","address":"浦东新区东昌路540号(近浦东南路)"},{"poiid":"B2094757D16DA5FB459D","title":"MJ  club","lon":"121.499573738","lat":"31.2269042292","category":"500","category_name":"未知分类","address":"上海市黄浦区中山南二路501号"},{"poiid":"B2094750DB69ABFC4298","title":"汇尊滨江酒店","lon":"121.502197","lat":"31.22969","category":"76","category_name":"上海菜","address":"浦东新区滨江大道3528号(近富城路)"},{"poiid":"B2094655D36DA6FF449E","title":"东昌路","lon":"121.50382","lat":"31.23039","category":"38","category_name":"公交车站","address":""},{"poiid":"B2094655D268A2FD499E","title":"公馆77","lon":"121.505","lat":"31.228","category":"47","category_name":"住宅区","address":"上海市卢湾区济南路8号"},{"poiid":"B2094757D069A4FB489E","title":"普京餐厅","lon":"121.50502014","lat":"31.234098434","category":"500","category_name":"未知分类","address":"上海正大广埸"},{"poiid":"B2094757D66CA0FD479E","title":"松鹤楼游船码头","lon":"121.502754738","lat":"31.2317393323","category":"500","category_name":"未知分类","address":"上海中山东二路505号"},{"poiid":"B2094757D16FA1F44199","title":"国家开发银行上海市分行","lon":"121.50561077","lat":"31.229097597","category":"46","category_name":"楼宇","address":"上海浦东新区浦明路68号"},{"poiid":"B2094654DB6BABFC429E","title":"上海鹏利辉盛阁公寓(银城中路)","lon":"121.50334","lat":"31.23164","category":"47","category_name":"住宅区","address":"上海市浦东新区陆家嘴银城中路600弄1号（陆家嘴环路）"},{"poiid":"B2094757DB6CA6FC4199","title":"好乐迪","lon":"121.5043331429361","lat":"31.22490214062436","category":"248","category_name":"生活娱乐","address":"八佰伴"},{"poiid":"B2094654DB65A4FE4693","title":"轮渡广场","lon":"121.50301","lat":"31.23069","category":"201","category_name":"城市广场","address":""},{"poiid":"B2094757D16BA3FA489E","title":"外滩酒吧","lon":"121.501479738","lat":"31.2253351958","category":"247","category_name":"餐饮美食","address":"上海市中山东二路575号"},{"poiid":"B2094757D068A7FB439D","title":"盛大金磐","lon":"121.50597524","lat":"31.231531638","category":"500","category_name":"未知分类","address":"上海浦东新区东泰路200弄"},{"poiid":"B2094757D064A7F4449D","title":"葡丽蛋挞工坊","lon":"121.50174227","lat":"31.230888794","category":"67","category_name":"甜品店","address":"浦东新区世纪大道8号国金中心商场LG2-10号商铺(近东泰路)"},{"poiid":"B2094750DA68A5F4449D","title":"金贸君悦大酒店","lon":"121.502555","lat":"31.234514","category":"500","category_name":"未知分类","address":null},{"poiid":"B2094757D065A7F9469C","title":"花旗大厦花旗银行","lon":"121.50367547","lat":"31.231474696","category":"500","category_name":"未知分类","address":"上海市"},{"poiid":"B2094757D06FA4FC499E","title":"安联中心","lon":"121.506704808","lat":"31.227666206","category":"46","category_name":"楼宇","address":"上海浦明路132号"},{"poiid":"B2094655D26DA7FB489D","title":"财富广场(南二门)","lon":"121.5056","lat":"31.2291","category":"46","category_name":"楼宇","address":"浦明路8-198"},{"poiid":"B2094757D16EA5FA4293","title":"安薇塔","lon":"121.502328738","lat":"31.2342943867","category":"500","category_name":"未知分类","address":"上海市 国金中心 LG2"},{"poiid":"B2094757D164A1F94699","title":"ifc 苏浙汇","lon":"121.505637108","lat":"31.2294649138","category":"500","category_name":"未知分类","address":"上海银城中路"},{"poiid":"B2094655D36CA6FF4198","title":"富城路东昌路(渡口)","lon":"121.50296","lat":"31.23103","category":"38","category_name":"公交车站","address":""},{"poiid":"B2094655D36DA0FB419A","title":"银城中路陆家嘴环路(环球中心)","lon":"121.50436","lat":"31.23193","category":"38","category_name":"公交车站","address":""},{"poiid":"B2094753DA6BA5FF4299","title":"东方明珠","lon":"121.504028","lat":"31.230518","category":"500","category_name":"未知分类","address":"上海市 上海市外滩"},{"poiid":"B2094654DA6FA7FF4699","title":"海龙海鲜舫","lon":"121.50199","lat":"31.23107","category":"72","category_name":"广东菜","address":"浦东新区东昌路1号(近富城路拾步街)"},{"poiid":"B2094757D06EAAFA489F","title":"上海外滩英迪格酒店 (Hotel Indigo)","lon":"121.499735","lat":"31.226432","category":"217","category_name":"旅馆招待所","address":"黄浦区中山东二路585号(近东门路)"},{"poiid":"B2094757D06FA1FA4399","title":"外滩游艇会","lon":"121.50381","lat":"31.23071","category":"260","category_name":"其他","address":"浦东新区滨江大道3510号(近东昌路渡口)"},{"poiid":"B209475CD564A7F84292","title":"上海滩新天地店","lon":"121.47463","lat":"31.22164","category":"119","category_name":"商场","address":"\"太仓路181弄新天地北里15号\r\n\""},{"poiid":"B209475CD564A7F84392","title":"上海滩浦东香格里拉店","lon":"121.50058","lat":"31.23634","category":"119","category_name":"商场","address":"浦东富成路33号香格里拉酒店内大堂层"},{"poiid":"B2094757D06FA7FC4598","title":"东昌路轮渡站","lon":"121.50315135","lat":"31.230164847","category":"35","category_name":"长途汽车站","address":"上海浦东新区东昌路1号"},{"poiid":"B2094654DA6EABFF439B","title":"久事大厦","lon":"121.507","lat":"31.2307","category":"46","category_name":"楼宇","address":"上海市黄浦区中山南路28号"},{"poiid":"B2094757D06FA0FE479A","title":"汤臣一品","lon":"121.50127","lat":"31.233383","category":"47","category_name":"住宅区","address":"朝阳区东四环慈云寺桥东北角,向东400米路南"},{"poiid":"B2094757D068A5FA469B","title":"恰CHAR","lon":"121.50005411","lat":"31.225733464","category":"94","category_name":"西餐厅","address":"黄浦区中山东二路585号外滩英迪格酒店29-31楼(东门路)"},{"poiid":"B2094757D068ABFD489C","title":"Kaefer滨江壹号","lon":"121.50282273","lat":"31.232060339","category":"47","category_name":"住宅区","address":"浦东新区滨江大道富城路拾步街由隆花园(近花园石桥路)"},{"poiid":"B2094757D16FA0FF4092","title":"小南国(十六铺店)","lon":"121.500050938","lat":"31.2274259403","category":"76","category_name":"上海菜","address":"黄浦区中山东二路565号A楼(近东门路)"},{"poiid":"B2094757D068A7F8459A","title":"仁恒滨江园(Yanlord Garden)","lon":"121.50641632","lat":"31.228860855","category":"47","category_name":"住宅区","address":"上海浦东新区浦明路99弄(近商城路)"},{"poiid":"B2094757D06AAAF9489E","title":"宏豪浦江一号","lon":"121.504989","lat":"31.228434","category":"72","category_name":"广东菜","address":"浦东新区滨江大道3788号(近商城路)"},{"poiid":"B2094757D165A7F54999","title":"花旗银行大厦","lon":"121.500979701","lat":"31.2332134973","category":"46","category_name":"楼宇","address":"上海浦东新区花园石桥路33号"},{"poiid":"B2094757D068A6FE429C","title":"金外滩花园","lon":"121.507","lat":"31.228","category":"47","category_name":"住宅区","address":"上海市黄浦区中山南路222号"},{"poiid":"B2094757D06FA0F8499E","title":"交通银行上海分行","lon":"121.50114678","lat":"31.225955549","category":"46","category_name":"楼宇","address":"上海中山南路99号"},{"poiid":"B2094757D16CA2F9439C","title":"浦之舟会所","lon":"121.503476638","lat":"31.2286266659","category":"500","category_name":"未知分类","address":"上海陆家嘴滨江大道3688号"},{"poiid":"B2094757D06AA2FD4298","title":"龙皇酒家","lon":"121.49882273","lat":"31.227382239","category":"72","category_name":"广东菜","address":"黄浦区中山东二路535号十六铺B栋楼(外马路中山东二路)"},{"poiid":"B2094757D068A6F4499F","title":"君悦轩(花园石桥店)","lon":"121.50239","lat":"31.23334","category":"72","category_name":"广东菜","address":"浦东新区花园石桥路66号东亚银行金融大厦3楼(近陆家嘴环路)"},{"poiid":"B2094654DA69A1F54292","title":"财富广场","lon":"121.5063","lat":"31.2279","category":"46","category_name":"楼宇","address":"上海市浦明路68号"},{"poiid":"B2094757D16CAAFB489F","title":"浦东金贸君悦酒店","lon":"121.50241173","lat":"31.230401303","category":"217","category_name":"旅馆招待所","address":"上海市浦东新区富城路"},{"poiid":"B2094655D26FA6F54399","title":"仁恒滨江园","lon":"121.50861","lat":"31.23017","category":"47","category_name":"住宅区","address":"浦城路99弄"},{"poiid":"B2094757D06FA4F9449C","title":"轮渡线(东金线轮渡)","lon":"121.50343","lat":"31.22978","category":"260","category_name":"其他","address":"东昌路渡口－金陵东路渡口(滨江大道东昌路)"},{"poiid":"B2094750D268A7F8449E","title":"滨江一号","lon":"121.501441","lat":"31.231658","category":"247","category_name":"餐饮美食","address":"浦东新区滨江一号滨江富城路拾步街由隆花园(近石桥路)"},{"poiid":"B2094655D36CA1FD429C","title":"十六铺","lon":"121.507","lat":"31.2305","category":"38","category_name":"公交车站","address":"中山东二路88弄"},{"poiid":"B2094757D06BA1FA459D","title":"上海中心","lon":"121.506470701","lat":"31.2333594809","category":"500","category_name":"未知分类","address":"上海银城中路501号"},{"poiid":"B2094757D065A7F9409F","title":"Pizzeria Alla Torre(陆家嘴店)","lon":"121.50102","lat":"31.23548","category":"94","category_name":"西餐厅","address":"上海浦东新区陆家嘴环路165号1楼(富城路名商路)"},{"poiid":"B2094757D069A3F4419C","title":"港泰风茶餐厅","lon":"121.50589822","lat":"31.230998536","category":"72","category_name":"广东菜","address":"浦东新区东昌路540号(近浦东南路)"},{"poiid":"B2094757D16DA5FB459D","title":"MJ  club","lon":"121.499573738","lat":"31.2269042292","category":"500","category_name":"未知分类","address":"上海市黄浦区中山南二路501号"},{"poiid":"B2094750DB69ABFC4298","title":"汇尊滨江酒店","lon":"121.502197","lat":"31.22969","category":"76","category_name":"上海菜","address":"浦东新区滨江大道3528号(近富城路)"},{"poiid":"B2094655D36DA6FF449E","title":"东昌路","lon":"121.50382","lat":"31.23039","category":"38","category_name":"公交车站","address":""},{"poiid":"B2094655D268A2FD499E","title":"公馆77","lon":"121.505","lat":"31.228","category":"47","category_name":"住宅区","address":"上海市卢湾区济南路8号"},{"poiid":"B2094757D069A4FB489E","title":"普京餐厅","lon":"121.50502014","lat":"31.234098434","category":"500","category_name":"未知分类","address":"上海正大广埸"},{"poiid":"B2094757D66CA0FD479E","title":"松鹤楼游船码头","lon":"121.502754738","lat":"31.2317393323","category":"500","category_name":"未知分类","address":"上海中山东二路505号"},{"poiid":"B2094757D16FA1F44199","title":"国家开发银行上海市分行","lon":"121.50561077","lat":"31.229097597","category":"46","category_name":"楼宇","address":"上海浦东新区浦明路68号"},{"poiid":"B2094654DB6BABFC429E","title":"上海鹏利辉盛阁公寓(银城中路)","lon":"121.50334","lat":"31.23164","category":"47","category_name":"住宅区","address":"上海市浦东新区陆家嘴银城中路600弄1号（陆家嘴环路）"},{"poiid":"B2094757DB6CA6FC4199","title":"好乐迪","lon":"121.5043331429361","lat":"31.22490214062436","category":"248","category_name":"生活娱乐","address":"八佰伴"},{"poiid":"B2094654DB65A4FE4693","title":"轮渡广场","lon":"121.50301","lat":"31.23069","category":"201","category_name":"城市广场","address":""},{"poiid":"B2094757D16BA3FA489E","title":"外滩酒吧","lon":"121.501479738","lat":"31.2253351958","category":"247","category_name":"餐饮美食","address":"上海市中山东二路575号"},{"poiid":"B2094757D068A7FB439D","title":"盛大金磐","lon":"121.50597524","lat":"31.231531638","category":"500","category_name":"未知分类","address":"上海浦东新区东泰路200弄"},{"poiid":"B2094757D064A7F4449D","title":"葡丽蛋挞工坊","lon":"121.50174227","lat":"31.230888794","category":"67","category_name":"甜品店","address":"浦东新区世纪大道8号国金中心商场LG2-10号商铺(近东泰路)"},{"poiid":"B2094750DA68A5F4449D","title":"金贸君悦大酒店","lon":"121.502555","lat":"31.234514","category":"500","category_name":"未知分类","address":null},{"poiid":"B2094757D065A7F9469C","title":"花旗大厦花旗银行","lon":"121.50367547","lat":"31.231474696","category":"500","category_name":"未知分类","address":"上海市"},{"poiid":"B2094757D06FA4FC499E","title":"安联中心","lon":"121.506704808","lat":"31.227666206","category":"46","category_name":"楼宇","address":"上海浦明路132号"},{"poiid":"B2094655D26DA7FB489D","title":"财富广场(南二门)","lon":"121.5056","lat":"31.2291","category":"46","category_name":"楼宇","address":"浦明路8-198"},{"poiid":"B2094757D16EA5FA4293","title":"安薇塔","lon":"121.502328738","lat":"31.2342943867","category":"500","category_name":"未知分类","address":"上海市 国金中心 LG2"},{"poiid":"B2094757D164A1F94699","title":"ifc 苏浙汇","lon":"121.505637108","lat":"31.2294649138","category":"500","category_name":"未知分类","address":"上海银城中路"},{"poiid":"B2094655D36CA6FF4198","title":"富城路东昌路(渡口)","lon":"121.50296","lat":"31.23103","category":"38","category_name":"公交车站","address":""},{"poiid":"B2094655D36DA0FB419A","title":"银城中路陆家嘴环路(环球中心)","lon":"121.50436","lat":"31.23193","category":"38","category_name":"公交车站","address":""},{"poiid":"B2094753DA6BA5FF4299","title":"东方明珠","lon":"121.504028","lat":"31.230518","category":"500","category_name":"未知分类","address":"上海市 上海市外滩"},{"poiid":"B2094654DA6FA7FF4699","title":"海龙海鲜舫","lon":"121.50199","lat":"31.23107","category":"72","category_name":"广东菜","address":"浦东新区东昌路1号(近富城路拾步街)"},{"poiid":"B2094757D06EAAFA489F","title":"上海外滩英迪格酒店 (Hotel Indigo)","lon":"121.499735","lat":"31.226432","category":"217","category_name":"旅馆招待所","address":"黄浦区中山东二路585号(近东门路)"},{"poiid":"B2094757D06FA1FA4399","title":"外滩游艇会","lon":"121.50381","lat":"31.23071","category":"260","category_name":"其他","address":"浦东新区滨江大道3510号(近东昌路渡口)"},{"poiid":"B209475CD564A7F84292","title":"上海滩新天地店","lon":"121.47463","lat":"31.22164","category":"119","category_name":"商场","address":"\"太仓路181弄新天地北里15号\r\n\""},{"poiid":"B209475CD564A7F84392","title":"上海滩浦东香格里拉店","lon":"121.50058","lat":"31.23634","category":"119","category_name":"商场","address":"浦东富成路33号香格里拉酒店内大堂层"},{"poiid":"B2094757D06FA7FC4598","title":"东昌路轮渡站","lon":"121.50315135","lat":"31.230164847","category":"35","category_name":"长途汽车站","address":"上海浦东新区东昌路1号"},{"poiid":"B2094654DA6EABFF439B","title":"久事大厦","lon":"121.507","lat":"31.2307","category":"46","category_name":"楼宇","address":"上海市黄浦区中山南路28号"},{"poiid":"B2094757D06FA0FE479A","title":"汤臣一品","lon":"121.50127","lat":"31.233383","category":"47","category_name":"住宅区","address":"朝阳区东四环慈云寺桥东北角,向东400米路南"},{"poiid":"B2094757D068A5FA469B","title":"恰CHAR","lon":"121.50005411","lat":"31.225733464","category":"94","category_name":"西餐厅","address":"黄浦区中山东二路585号外滩英迪格酒店29-31楼(东门路)"},{"poiid":"B2094757D068ABFD489C","title":"Kaefer滨江壹号","lon":"121.50282273","lat":"31.232060339","category":"47","category_name":"住宅区","address":"浦东新区滨江大道富城路拾步街由隆花园(近花园石桥路)"},{"poiid":"B2094757D16FA0FF4092","title":"小南国(十六铺店)","lon":"121.500050938","lat":"31.2274259403","category":"76","category_name":"上海菜","address":"黄浦区中山东二路565号A楼(近东门路)"},{"poiid":"B2094757D068A7F8459A","title":"仁恒滨江园(Yanlord Garden)","lon":"121.50641632","lat":"31.228860855","category":"47","category_name":"住宅区","address":"上海浦东新区浦明路99弄(近商城路)"},{"poiid":"B2094757D06AAAF9489E","title":"宏豪浦江一号","lon":"121.504989","lat":"31.228434","category":"72","category_name":"广东菜","address":"浦东新区滨江大道3788号(近商城路)"},{"poiid":"B2094757D165A7F54999","title":"花旗银行大厦","lon":"121.500979701","lat":"31.2332134973","category":"46","category_name":"楼宇","address":"上海浦东新区花园石桥路33号"},{"poiid":"B2094757D068A6FE429C","title":"金外滩花园","lon":"121.507","lat":"31.228","category":"47","category_name":"住宅区","address":"上海市黄浦区中山南路222号"},{"poiid":"B2094757D06FA0F8499E","title":"交通银行上海分行","lon":"121.50114678","lat":"31.225955549","category":"46","category_name":"楼宇","address":"上海中山南路99号"},{"poiid":"B2094757D16CA2F9439C","title":"浦之舟会所","lon":"121.503476638","lat":"31.2286266659","category":"500","category_name":"未知分类","address":"上海陆家嘴滨江大道3688号"},{"poiid":"B2094757D06AA2FD4298","title":"龙皇酒家","lon":"121.49882273","lat":"31.227382239","category":"72","category_name":"广东菜","address":"黄浦区中山东二路535号十六铺B栋楼(外马路中山东二路)"},{"poiid":"B2094757D068A6F4499F","title":"君悦轩(花园石桥店)","lon":"121.50239","lat":"31.23334","category":"72","category_name":"广东菜","address":"浦东新区花园石桥路66号东亚银行金融大厦3楼(近陆家嘴环路)"},{"poiid":"B2094654DA69A1F54292","title":"财富广场","lon":"121.5063","lat":"31.2279","category":"46","category_name":"楼宇","address":"上海市浦明路68号"},{"poiid":"B2094757D16CAAFB489F","title":"浦东金贸君悦酒店","lon":"121.50241173","lat":"31.230401303","category":"217","category_name":"旅馆招待所","address":"上海市浦东新区富城路"},{"poiid":"B2094655D26FA6F54399","title":"仁恒滨江园","lon":"121.50861","lat":"31.23017","category":"47","category_name":"住宅区","address":"浦城路99弄"},{"poiid":"B2094757D06FA4F9449C","title":"轮渡线(东金线轮渡)","lon":"121.50343","lat":"31.22978","category":"260","category_name":"其他","address":"东昌路渡口－金陵东路渡口(滨江大道东昌路)"},{"poiid":"B2094750D268A7F8449E","title":"滨江一号","lon":"121.501441","lat":"31.231658","category":"247","category_name":"餐饮美食","address":"浦东新区滨江一号滨江富城路拾步街由隆花园(近石桥路)"},{"poiid":"B2094655D36CA1FD429C","title":"十六铺","lon":"121.507","lat":"31.2305","category":"38","category_name":"公交车站","address":"中山东二路88弄"},{"poiid":"B2094757D06BA1FA459D","title":"上海中心","lon":"121.506470701","lat":"31.2333594809","category":"500","category_name":"未知分类","address":"上海银城中路501号"},{"poiid":"B2094757D065A7F9409F","title":"Pizzeria Alla Torre(陆家嘴店)","lon":"121.50102","lat":"31.23548","category":"94","category_name":"西餐厅","address":"上海浦东新区陆家嘴环路165号1楼(富城路名商路)"},{"poiid":"B2094757D069A3F4419C","title":"港泰风茶餐厅","lon":"121.50589822","lat":"31.230998536","category":"72","category_name":"广东菜","address":"浦东新区东昌路540号(近浦东南路)"},{"poiid":"B2094757D16DA5FB459D","title":"MJ  club","lon":"121.499573738","lat":"31.2269042292","category":"500","category_name":"未知分类","address":"上海市黄浦区中山南二路501号"},{"poiid":"B2094750DB69ABFC4298","title":"汇尊滨江酒店","lon":"121.502197","lat":"31.22969","category":"76","category_name":"上海菜","address":"浦东新区滨江大道3528号(近富城路)"},{"poiid":"B2094655D36DA6FF449E","title":"东昌路","lon":"121.50382","lat":"31.23039","category":"38","category_name":"公交车站","address":""},{"poiid":"B2094655D268A2FD499E","title":"公馆77","lon":"121.505","lat":"31.228","category":"47","category_name":"住宅区","address":"上海市卢湾区济南路8号"},{"poiid":"B2094757D069A4FB489E","title":"普京餐厅","lon":"121.50502014","lat":"31.234098434","category":"500","category_name":"未知分类","address":"上海正大广埸"},{"poiid":"B2094757D66CA0FD479E","title":"松鹤楼游船码头","lon":"121.502754738","lat":"31.2317393323","category":"500","category_name":"未知分类","address":"上海中山东二路505号"},{"poiid":"B2094757D16FA1F44199","title":"国家开发银行上海市分行","lon":"121.50561077","lat":"31.229097597","category":"46","category_name":"楼宇","address":"上海浦东新区浦明路68号"},{"poiid":"B2094654DB6BABFC429E","title":"上海鹏利辉盛阁公寓(银城中路)","lon":"121.50334","lat":"31.23164","category":"47","category_name":"住宅区","address":"上海市浦东新区陆家嘴银城中路600弄1号（陆家嘴环路）"},{"poiid":"B2094757DB6CA6FC4199","title":"好乐迪","lon":"121.5043331429361","lat":"31.22490214062436","category":"248","category_name":"生活娱乐","address":"八佰伴"},{"poiid":"B2094654DB65A4FE4693","title":"轮渡广场","lon":"121.50301","lat":"31.23069","category":"201","category_name":"城市广场","address":""},{"poiid":"B2094757D16BA3FA489E","title":"外滩酒吧","lon":"121.501479738","lat":"31.2253351958","category":"247","category_name":"餐饮美食","address":"上海市中山东二路575号"},{"poiid":"B2094757D068A7FB439D","title":"盛大金磐","lon":"121.50597524","lat":"31.231531638","category":"500","category_name":"未知分类","address":"上海浦东新区东泰路200弄"},{"poiid":"B2094757D064A7F4449D","title":"葡丽蛋挞工坊","lon":"121.50174227","lat":"31.230888794","category":"67","category_name":"甜品店","address":"浦东新区世纪大道8号国金中心商场LG2-10号商铺(近东泰路)"},{"poiid":"B2094750DA68A5F4449D","title":"金贸君悦大酒店","lon":"121.502555","lat":"31.234514","category":"500","category_name":"未知分类","address":null},{"poiid":"B2094757D065A7F9469C","title":"花旗大厦花旗银行","lon":"121.50367547","lat":"31.231474696","category":"500","category_name":"未知分类","address":"上海市"},{"poiid":"B2094757D06FA4FC499E","title":"安联中心","lon":"121.506704808","lat":"31.227666206","category":"46","category_name":"楼宇","address":"上海浦明路132号"},{"poiid":"B2094655D26DA7FB489D","title":"财富广场(南二门)","lon":"121.5056","lat":"31.2291","category":"46","category_name":"楼宇","address":"浦明路8-198"},{"poiid":"B2094757D16EA5FA4293","title":"安薇塔","lon":"121.502328738","lat":"31.2342943867","category":"500","category_name":"未知分类","address":"上海市 国金中心 LG2"},{"poiid":"B2094757D164A1F94699","title":"ifc 苏浙汇","lon":"121.505637108","lat":"31.2294649138","category":"500","category_name":"未知分类","address":"上海银城中路"},{"poiid":"B2094655D36CA6FF4198","title":"富城路东昌路(渡口)","lon":"121.50296","lat":"31.23103","category":"38","category_name":"公交车站","address":""},{"poiid":"B2094655D36DA0FB419A","title":"银城中路陆家嘴环路(环球中心)","lon":"121.50436","lat":"31.23193","category":"38","category_name":"公交车站","address":""},{"poiid":"B2094753DA6BA5FF4299","title":"东方明珠","lon":"121.504028","lat":"31.230518","category":"500","category_name":"未知分类","address":"上海市 上海市外滩"}]