[{"poiid":"B2094757D06FA6FE4398","title":"马陆地铁站","lon":"121.26968201","lat":"31.319407295","category":"36","category_name":"地铁站","address":"上海轨道交通 十一号线 轨交马陆站 11"},{"poiid":"B2094757D16EAAFB4192","title":"轨道交通11号线南翔站","lon":"121.293473925","lat":"31.3196477822","category":"36","category_name":"地铁站","address":"上海南翔"},{"poiid":"B2094757D069A0FD4298","title":"古猗园南翔小笼","lon":"121.29264792","lat":"31.316753722","category":"247","category_name":"餐饮美食","address":"上海市嘉定区亚钢路"},{"poiid":"B2094757D065A0FD459C","title":"南翔高科技产业园区","lon":"121.291596","lat":"31.306985","category":"500","category_name":"未知分类","address":"上海嘉美路258号"},{"poiid":"B2094654D46BA5FA459C","title":"上海苍捷物流有限公司","lon":"121.28287","lat":"31.30835","category":"248","category_name":"生活娱乐","address":""},{"poiid":"B2094655D36DA2F54999","title":"张泾角桥","lon":"121.27863","lat":"31.30863","category":"250","category_name":"公园户外","address":""},{"poiid":"B2094654D46BA5FC4399","title":"育才高级中学","lon":"121.28723","lat":"31.32581","category":"55","category_name":"中学","address":"上海嘉定区马陆镇沪宜公路2001号"},{"poiid":"B2094654D46BA6F5449C","title":"上海南祥科技园区","lon":"121.28878","lat":"31.30175","category":"45","category_name":"产业园区","address":""},{"poiid":"B2094757D06AA1FD479F","title":"飞利浦亚明照明有限公司","lon":"121.2877286","lat":"31.317944856","category":"263","category_name":"公司","address":"上海沪宜公路1805号"},{"poiid":"B2094655D36CA7FD4998","title":"沪宜公路大桥头","lon":"121.29462","lat":"31.31216","category":"38","category_name":"公交车站","address":""},{"poiid":"B2094655D36CA5FC419D","title":"大桥头","lon":"121.29392","lat":"31.31351","category":"38","category_name":"公交车站","address":""},{"poiid":"B2094654D46BA5FB419C","title":"上海梅林瑞源包装有限公司(嘉美路)","lon":"121.28268","lat":"31.30312","category":"263","category_name":"公司","address":""},{"poiid":"B2094654D46BA4F84793","title":"永乐公寓","lon":"121.29553","lat":"31.297075","category":"47","category_name":"住宅区","address":"翔江路299弄"},{"poiid":"B2094654DB6AA4F84198","title":"通用电器照明有限公司申华厂","lon":"121.29169","lat":"31.30914","category":"263","category_name":"公司","address":""},{"poiid":"B2094654D46BA6F54498","title":"搓溪高级中学","lon":"121.28299","lat":"31.29815","category":"55","category_name":"中学","address":"龚路日新村"},{"poiid":"B2094757D165ABF9479F","title":"沪嘉高速南门收费站","lon":"121.29025792","lat":"31.31955778","category":"267","category_name":"收费站","address":"上海嘉定区陆沈路"},{"poiid":"B2094757D16FAAFF459D","title":"巴川鱼蛙馆","lon":"121.29405992","lat":"31.316081708","category":"247","category_name":"餐饮美食","address":"上海丰翔路3168号"},{"poiid":"B2094655D26BA2FD4698","title":"卫校","lon":"121.28988","lat":"31.32049","category":"38","category_name":"公交车站","address":""},{"poiid":"B2094750D364AAFA479E","title":"福斯润滑油中国有限公司","lon":"121.27139213899","lat":"31.310296587241","category":"644","category_name":"工农贸易类公司","address":"南翔高科技园区嘉绣路888号"},{"poiid":"B2094757D66EA4FB469F","title":"育英街399弄吴杨小区","lon":"121.275336425","lat":"31.3208877079","category":"47","category_name":"住宅区","address":"上海育英街399弄吴杨小区"},{"poiid":"B2094757D16BA6FD449A","title":"大众4S","lon":"121.294305925","lat":"31.3082005449","category":"158","category_name":"汽车销售","address":"上海嘉定区沪宜公路3658号"},{"poiid":"B2094757D16AABF4419F","title":"胜辛南路翔方公路","lon":"121.26595553","lat":"31.309193975","category":"500","category_name":"未知分类","address":"上海胜辛南路翔方公路"},{"poiid":"B2094654D46BA5FA479B","title":"上海真圣塑料制品有限公司","lon":"121.29449","lat":"31.31294","category":"263","category_name":"公司","address":""},{"poiid":"B2094757D16DAAFD479B","title":"昌蔚咖啡","lon":"121.27795492","lat":"31.326356921","category":"65","category_name":"咖啡厅","address":"上海市嘉定区马陆镇育英街"},{"poiid":"B2094654D46BA5FE429C","title":"上海医药高等专科学校嘉定校区","lon":"121.28847","lat":"31.32225","category":"52","category_name":"高等院校","address":""},{"poiid":"B2094757D568AAFC4492","title":"上海交通大学医学院附属卫生学校嘉定校区","lon":"121.2884646","lat":"31.32224745","category":"52","category_name":"高等院校","address":"沪宜公路1843"},{"poiid":"B2094757D16FA0FB469D","title":"北嘉线","lon":"121.29096975","lat":"31.318612682","category":"500","category_name":"未知分类","address":"上海北区汽车站至嘉定南门汽车站"},{"poiid":"B2094757D165A7FA499E","title":"上海惠亚电子有限公司","lon":"121.29420592","lat":"31.302114418","category":"263","category_name":"公司","address":"上海市嘉定区南翔镇惠亚路188号"},{"poiid":"B2094655D36DA1F44899","title":"翔方公路胜辛南路","lon":"121.26495","lat":"31.31091","category":"38","category_name":"公交车站","address":""},{"poiid":"B2094757D66CA0F5409E","title":"陈翔路","lon":"121.29971492","lat":"31.311318609","category":"500","category_name":"未知分类","address":"上海嘉定陈翔路"},{"poiid":"B2094654D46BA5FB4793","title":"上海南洋电机有限公司(嘉前路)","lon":"121.28856","lat":"31.29937","category":"263","category_name":"公司","address":""},{"poiid":"B2094654D46BA5FC4398","title":"上海市民办育英高级中学","lon":"121.28045","lat":"31.32344","category":"55","category_name":"中学","address":"育英街353"},{"poiid":"B2094654D46BA5FE4392","title":"上海市市级千亩苗木基地","lon":"121.26757","lat":"31.31577","category":"45","category_name":"产业园区","address":""},{"poiid":"B2094654D46BA5FC439B","title":"嘉定区马陆育才联合中学","lon":"121.28018","lat":"31.32406","category":"55","category_name":"中学","address":"育英街355"},{"poiid":"B2094757D165A0FD409F","title":"育才中学第一食堂","lon":"121.28723","lat":"31.3258","category":"68","category_name":"快餐厅","address":"嘉定区马陆镇沪宜公路2001号"},{"poiid":"B2094757D66FA1FE439E","title":"嘉定","lon":"121.269656","lat":"31.31943","category":"500","category_name":"未知分类","address":"上海马陆"},{"poiid":"B2094654D46BA5FB469E","title":"金朝生物科技(上海)有限公司","lon":"121.28252","lat":"31.29696","category":"263","category_name":"公司","address":""},{"poiid":"B2094654D46BABFE429F","title":"老街坊川菜馆","lon":"121.27884","lat":"31.32772","category":"71","category_name":"四川菜","address":"嘉定区马陆镇育英街(樱花街育英街)"},{"poiid":"B2094757D464A0FA4398","title":"宝乐大酒店","lon":"121.282058054","lat":"31.327222793","category":"76","category_name":"上海菜","address":"嘉定区马陆育英街500号(樱花街口)"},{"poiid":"B2094750D16BA4FE4299","title":"好世皇马苑","lon":"121.281971","lat":"31.326236","category":"252","category_name":"楼宇机构","address":"康丰路28弄(近崇文路)"},{"poiid":"B2094654D46BA5FA4898","title":"南翔镇静华村社区卫生服务站","lon":"121.30046","lat":"31.31069","category":"162","category_name":"医院","address":""},{"poiid":"B2094757D66FA7FE409F","title":"育才高级中学　后门","lon":"121.28181922","lat":"31.324095174","category":"500","category_name":"未知分类","address":"上海嘉定区马陆镇育英路"},{"poiid":"B2094757D66CA3F54592","title":"阿勇家常菜(马陆店)","lon":"121.27508632","lat":"31.327947144","category":"76","category_name":"上海菜","address":"嘉定区宝安公路3567号"},{"poiid":"B2094654D46BA5FE419B","title":"育兰社区","lon":"121.28147","lat":"31.327398","category":"47","category_name":"住宅区","address":"樱花路110弄"},{"poiid":"B2094655D26BA1FA489C","title":"马陆卫生院","lon":"121.2874","lat":"31.32607","category":"162","category_name":"医院","address":"嘉定区沪宜公路2091号"},{"poiid":"B2094654D46BA5FD499E","title":"歌顿咖啡 马陆镇店","lon":"121.282347054","lat":"31.326544793","category":"65","category_name":"咖啡厅","address":"嘉定区马陆镇育英街409号"},{"poiid":"B2094757D16DABF8449B","title":"四川姐妹饭店","lon":"121.279551","lat":"31.326087","category":"247","category_name":"餐饮美食","address":"上海育英街"},{"poiid":"B209475CD66FA2FF4599","title":"美亚影城","lon":"121.270912","lat":"31.325794","category":"178","category_name":"电影院","address":"上海市 上海市嘉定区马陆镇宝安公路"},{"poiid":"B2094757D168A0FE449C","title":"马陆小学","lon":"121.279174","lat":"31.327308","category":"56","category_name":"小学","address":"嘉定区马陆镇宝安公路3376号"},{"poiid":"B2094654D46BA5FE419E","title":"上海马陆以仁幼儿园","lon":"121.2828","lat":"31.32806","category":"57","category_name":"幼儿园","address":"嘉定区马陆镇育兰路11号"},{"poiid":"B2094757D06FA6FE4398","title":"马陆地铁站","lon":"121.26968201","lat":"31.319407295","category":"36","category_name":"地铁站","address":"上海轨道交通 十一号线 轨交马陆站 11"},{"poiid":"B2094757D16EAAFB4192","title":"轨道交通11号线南翔站","lon":"121.293473925","lat":"31.3196477822","category":"36","category_name":"地铁站","address":"上海南翔"},{"poiid":"B2094757D069A0FD4298","title":"古猗园南翔小笼","lon":"121.29264792","lat":"31.316753722","category":"247","category_name":"餐饮美食","address":"上海市嘉定区亚钢路"},{"poiid":"B2094757D065A0FD459C","title":"南翔高科技产业园区","lon":"121.291596","lat":"31.306985","category":"500","category_name":"未知分类","address":"上海嘉美路258号"},{"poiid":"B2094654D46BA5FA459C","title":"上海苍捷物流有限公司","lon":"121.28287","lat":"31.30835","category":"248","category_name":"生活娱乐","address":""},{"poiid":"B2094655D36DA2F54999","title":"张泾角桥","lon":"121.27863","lat":"31.30863","category":"250","category_name":"公园户外","address":""},{"poiid":"B2094654D46BA5FC4399","title":"育才高级中学","lon":"121.28723","lat":"31.32581","category":"55","category_name":"中学","address":"上海嘉定区马陆镇沪宜公路2001号"},{"poiid":"B2094654D46BA6F5449C","title":"上海南祥科技园区","lon":"121.28878","lat":"31.30175","category":"45","category_name":"产业园区","address":""},{"poiid":"B2094757D06AA1FD479F","title":"飞利浦亚明照明有限公司","lon":"121.2877286","lat":"31.317944856","category":"263","category_name":"公司","address":"上海沪宜公路1805号"},{"poiid":"B2094655D36CA7FD4998","title":"沪宜公路大桥头","lon":"121.29462","lat":"31.31216","category":"38","category_name":"公交车站","address":""},{"poiid":"B2094655D36CA5FC419D","title":"大桥头","lon":"121.29392","lat":"31.31351","category":"38","category_name":"公交车站","address":""},{"poiid":"B2094654D46BA5FB419C","title":"上海梅林瑞源包装有限公司(嘉美路)","lon":"121.28268","lat":"31.30312","category":"263","category_name":"公司","address":""},{"poiid":"B2094654D46BA4F84793","title":"永乐公寓","lon":"121.29553","lat":"31.297075","category":"47","category_name":"住宅区","address":"翔江路299弄"},{"poiid":"B2094654DB6AA4F84198","title":"通用电器照明有限公司申华厂","lon":"121.29169","lat":"31.30914","category":"263","category_name":"公司","address":""},{"poiid":"B2094654D46BA6F54498","title":"搓溪高级中学","lon":"121.28299","lat":"31.29815","category":"55","category_name":"中学","address":"龚路日新村"},{"poiid":"B2094757D165ABF9479F","title":"沪嘉高速南门收费站","lon":"121.29025792","lat":"31.31955778","category":"267","category_name":"收费站","address":"上海嘉定区陆沈路"},{"poiid":"B2094757D16FAAFF459D","title":"巴川鱼蛙馆","lon":"121.29405992","lat":"31.316081708","category":"247","category_name":"餐饮美食","address":"上海丰翔路3168号"},{"poiid":"B2094655D26BA2FD4698","title":"卫校","lon":"121.28988","lat":"31.32049","category":"38","category_name":"公交车站","address":""},{"poiid":"B2094750D364AAFA479E","title":"福斯润滑油中国有限公司","lon":"121.27139213899","lat":"31.310296587241","category":"644","category_name":"工农贸易类公司","address":"南翔高科技园区嘉绣路888号"},{"poiid":"B2094757D66EA4FB469F","title":"育英街399弄吴杨小区","lon":"121.275336425","lat":"31.3208877079","category":"47","category_name":"住宅区","address":"上海育英街399弄吴杨小区"},{"poiid":"B2094757D16BA6FD449A","title":"大众4S","lon":"121.294305925","lat":"31.3082005449","category":"158","category_name":"汽车销售","address":"上海嘉定区沪宜公路3658号"},{"poiid":"B2094757D16AABF4419F","title":"胜辛南路翔方公路","lon":"121.26595553","lat":"31.309193975","category":"500","category_name":"未知分类","address":"上海胜辛南路翔方公路"},{"poiid":"B2094654D46BA5FA479B","title":"上海真圣塑料制品有限公司","lon":"121.29449","lat":"31.31294","category":"263","category_name":"公司","address":""},{"poiid":"B2094757D16DAAFD479B","title":"昌蔚咖啡","lon":"121.27795492","lat":"31.326356921","category":"65","category_name":"咖啡厅","address":"上海市嘉定区马陆镇育英街"},{"poiid":"B2094654D46BA5FE429C","title":"上海医药高等专科学校嘉定校区","lon":"121.28847","lat":"31.32225","category":"52","category_name":"高等院校","address":""},{"poiid":"B2094757D568AAFC4492","title":"上海交通大学医学院附属卫生学校嘉定校区","lon":"121.2884646","lat":"31.32224745","category":"52","category_name":"高等院校","address":"沪宜公路1843"},{"poiid":"B2094757D16FA0FB469D","title":"北嘉线","lon":"121.29096975","lat":"31.318612682","category":"500","category_name":"未知分类","address":"上海北区汽车站至嘉定南门汽车站"},{"poiid":"B2094757D165A7FA499E","title":"上海惠亚电子有限公司","lon":"121.29420592","lat":"31.302114418","category":"263","category_name":"公司","address":"上海市嘉定区南翔镇惠亚路188号"},{"poiid":"B2094655D36DA1F44899","title":"翔方公路胜辛南路","lon":"121.26495","lat":"31.31091","category":"38","category_name":"公交车站","address":""},{"poiid":"B2094757D66CA0F5409E","title":"陈翔路","lon":"121.29971492","lat":"31.311318609","category":"500","category_name":"未知分类","address":"上海嘉定陈翔路"},{"poiid":"B2094654D46BA5FB4793","title":"上海南洋电机有限公司(嘉前路)","lon":"121.28856","lat":"31.29937","category":"263","category_name":"公司","address":""},{"poiid":"B2094654D46BA5FC4398","title":"上海市民办育英高级中学","lon":"121.28045","lat":"31.32344","category":"55","category_name":"中学","address":"育英街353"},{"poiid":"B2094654D46BA5FE4392","title":"上海市市级千亩苗木基地","lon":"121.26757","lat":"31.31577","category":"45","category_name":"产业园区","address":""},{"poiid":"B2094654D46BA5FC439B","title":"嘉定区马陆育才联合中学","lon":"121.28018","lat":"31.32406","category":"55","category_name":"中学","address":"育英街355"},{"poiid":"B2094757D165A0FD409F","title":"育才中学第一食堂","lon":"121.28723","lat":"31.3258","category":"68","category_name":"快餐厅","address":"嘉定区马陆镇沪宜公路2001号"},{"poiid":"B2094757D66FA1FE439E","title":"嘉定","lon":"121.269656","lat":"31.31943","category":"500","category_name":"未知分类","address":"上海马陆"},{"poiid":"B2094654D46BA5FB469E","title":"金朝生物科技(上海)有限公司","lon":"121.28252","lat":"31.29696","category":"263","category_name":"公司","address":""},{"poiid":"B2094654D46BABFE429F","title":"老街坊川菜馆","lon":"121.27884","lat":"31.32772","category":"71","category_name":"四川菜","address":"嘉定区马陆镇育英街(樱花街育英街)"},{"poiid":"B2094757D464A0FA4398","title":"宝乐大酒店","lon":"121.282058054","lat":"31.327222793","category":"76","category_name":"上海菜","address":"嘉定区马陆育英街500号(樱花街口)"},{"poiid":"B2094750D16BA4FE4299","title":"好世皇马苑","lon":"121.281971","lat":"31.326236","category":"252","category_name":"楼宇机构","address":"康丰路28弄(近崇文路)"},{"poiid":"B2094654D46BA5FA4898","title":"南翔镇静华村社区卫生服务站","lon":"121.30046","lat":"31.31069","category":"162","category_name":"医院","address":""},{"poiid":"B2094757D66FA7FE409F","title":"育才高级中学　后门","lon":"121.28181922","lat":"31.324095174","category":"500","category_name":"未知分类","address":"上海嘉定区马陆镇育英路"},{"poiid":"B2094757D66CA3F54592","title":"阿勇家常菜(马陆店)","lon":"121.27508632","lat":"31.327947144","category":"76","category_name":"上海菜","address":"嘉定区宝安公路3567号"},{"poiid":"B2094654D46BA5FE419B","title":"育兰社区","lon":"121.28147","lat":"31.327398","category":"47","category_name":"住宅区","address":"樱花路110弄"},{"poiid":"B2094655D26BA1FA489C","title":"马陆卫生院","lon":"121.2874","lat":"31.32607","category":"162","category_name":"医院","address":"嘉定区沪宜公路2091号"},{"poiid":"B2094654D46BA5FD499E","title":"歌顿咖啡 马陆镇店","lon":"121.282347054","lat":"31.326544793","category":"65","category_name":"咖啡厅","address":"嘉定区马陆镇育英街409号"},{"poiid":"B2094757D16DABF8449B","title":"四川姐妹饭店","lon":"121.279551","lat":"31.326087","category":"247","category_name":"餐饮美食","address":"上海育英街"},{"poiid":"B209475CD66FA2FF4599","title":"美亚影城","lon":"121.270912","lat":"31.325794","category":"178","category_name":"电影院","address":"上海市 上海市嘉定区马陆镇宝安公路"},{"poiid":"B2094757D168A0FE449C","title":"马陆小学","lon":"121.279174","lat":"31.327308","category":"56","category_name":"小学","address":"嘉定区马陆镇宝安公路3376号"},{"poiid":"B2094654D46BA5FE419E","title":"上海马陆以仁幼儿园","lon":"121.2828","lat":"31.32806","category":"57","category_name":"幼儿园","address":"嘉定区马陆镇育兰路11号"}]