[{"poiid":"B2094757D06EAAF8499F","title":"上海半岛酒店(The Peninsula,Shanghai)","lon":"121.48871485643679","lat":"31.24126498713522","category":"213","category_name":"五星级宾馆","address":"黄浦区中山东一路32号(近北京东路)"},{"poiid":"B2094757D66DA7F4469B","title":"外滩","lon":"121.490535738","lat":"31.2383514732","category":"240","category_name":"国家级景点","address":"上海市中心区黄浦江畔"},{"poiid":"B2094655D268ABFD489E","title":"外滩18号","lon":"121.48960930059434","lat":"31.238450813410314","category":"76","category_name":"上海菜","address":"黄浦区中山东一路18号"},{"poiid":"B209475CD564A7F84292","title":"上海滩新天地店","lon":"121.47463","lat":"31.22164","category":"119","category_name":"商场","address":"\"太仓路181弄新天地北里15号\r\n\""},{"poiid":"B209475CD564A7F84392","title":"上海滩浦东香格里拉店","lon":"121.50058","lat":"31.23634","category":"119","category_name":"商场","address":"浦东富成路33号香格里拉酒店内大堂层"},{"poiid":"B2094654DB6BABFD469C","title":"上海和平饭店","lon":"121.48945","lat":"31.23901","category":"213","category_name":"五星级宾馆","address":"黄浦区南京东路20号和平饭店北楼夹层(近中山东一路)"},{"poiid":"B2094757D06EAAFB419B","title":"罗斯福会所 The House of Roosevelt","lon":"121.49012383","lat":"31.240403643","category":"94","category_name":"西餐厅","address":"黄浦区中山东一路27号罗斯福8楼"},{"poiid":"B2094750D26FA4F94393","title":"MUSE","lon":"121.489089","lat":"31.240596","category":"260","category_name":"其他","address":"黄浦区北京东路99号益丰外滩源5楼(近圆明园路)"},{"poiid":"B2094757D06FA2F44992","title":"华盛大厦","lon":"121.489","lat":"31.2411","category":"46","category_name":"楼宇","address":"黄浦区南京东路311号"},{"poiid":"B2094750DA65A3F5489E","title":"御宝轩","lon":"121.489006","lat":"31.24068","category":"72","category_name":"广东菜","address":"黄浦区北京东路99号(近圆明园路)"},{"poiid":"B2094757D06FA1FD439B","title":"COSTA COFFEE(新外滩店)","lon":"121.490879","lat":"31.240587","category":"65","category_name":"咖啡厅","address":"黄浦区中山东一路388号(北京东路口)"},{"poiid":"B2094757D06FA1FC439D","title":"Bar Rouge","lon":"121.49011","lat":"31.2386","category":"260","category_name":"其他","address":"黄浦区中山东一路18号外滩18号7楼(近南京东路)"},{"poiid":"B2094757D06FA5FC439A","title":"Mr &amp; Mrs Bund","lon":"121.4901","lat":"31.23816","category":"94","category_name":"西餐厅","address":"上海黄浦区中山东一路18号外滩18号6楼(近南京东路)"},{"poiid":"B2094750D464A6F94792","title":"星巴克","lon":"121.490264","lat":"31.240295","category":"247","category_name":"餐饮美食","address":"黄浦区中山东一路363号(近北京东路)"},{"poiid":"B2094757D06FA2F5489C","title":"中国银行(上海市分行营业部)","lon":"121.489781","lat":"31.239521","category":"150","category_name":"银行","address":"上海市黄浦区中山东一路23号"},{"poiid":"B2094757D06BABFB449A","title":"Shook！上海","lon":"121.49010773","lat":"31.238661479","category":"94","category_name":"西餐厅","address":"黄浦区南京东路23号5-6楼(外滩19号)"},{"poiid":"B2094654DA6FA4F5409B","title":"曼哈顿(外滩)商务酒店","lon":"121.48818","lat":"31.23942","category":"250","category_name":"公园户外","address":"黄浦区滇池路81-85号"},{"poiid":"B2094757D069A2FA419B","title":"哈根达斯(外滩店)","lon":"121.49029","lat":"31.23784","category":"113","category_name":"冷饮店","address":"黄浦区中山东一路365号(近九江路)"},{"poiid":"B2094757D468A4FC4598","title":"艾利爵士餐厅 Sir Elly's Restaurant & Bar","lon":"121.490123054","lat":"31.240919793","category":"97","category_name":"法式菜品餐厅","address":"黄浦区中山东一路32号半岛酒店13楼(近北京东路)"},{"poiid":"B2094757D16CA4FE469A","title":"罗斯福9楼露天酒吧","lon":"121.49195883","lat":"31.237938814","category":"172","category_name":"酒吧","address":"上海外滩27号"},{"poiid":"B2094750D06EAAFB419A","title":"Muse on The Bund","lon":"121.489181","lat":"31.240453","category":"248","category_name":"生活娱乐","address":"黄浦区北京东路99号益丰外滩源5F"},{"poiid":"B2094757D469A7F4429D","title":"悦粤茶餐厅","lon":"121.49097","lat":"31.2412","category":"72","category_name":"广东菜","address":"黄浦区中山东一路429号(近北京东路)"},{"poiid":"B2094757D06FA2FD4298","title":"上海陈毅广场","lon":"121.490514434","lat":"31.2389924275","category":"250","category_name":"公园户外","address":"黄浦区中山东一路外滩(近南京东路)"},{"poiid":"B2094752D56EA0FF4498","title":"Deli & Leisure","lon":"121.488318","lat":"31.239285","category":"247","category_name":"餐饮美食","address":null},{"poiid":"B2094655D265A0F5459F","title":"斯沃琪和平饭店艺术中心","lon":"121.48965","lat":"31.23871","category":"183","category_name":"展览馆","address":"黄浦区南京东路23号(近中山东一路)"},{"poiid":"B2094655D26BA4FD489D","title":"中行大楼","lon":"121.48978","lat":"31.23953","category":"46","category_name":"楼宇","address":"重庆北部新区金渝大道89号(北部新区管委会对面)"},{"poiid":"B2094655D26DA3FF489A","title":"Bund18","lon":"121.48978","lat":"31.23842","category":"119","category_name":"商场","address":"中山东一路18"},{"poiid":"B2094750D26EA2FA419A","title":"辉哥火锅圆明园路店","lon":"121.488487","lat":"31.241041","category":"86","category_name":"火锅店","address":"黄浦区圆明园路115号洛克外滩源(近北京东路)"},{"poiid":"B2094751D268A4FC4798","title":"罗斯福八楼色戒餐厅酒吧","lon":"121.489883","lat":"31.240287","category":"247","category_name":"餐饮美食","address":"黄浦区中山东一路27号"},{"poiid":"B2094654DA6FA5FA4499","title":"解放日报大厦","lon":"121.491","lat":"31.2418","category":"46","category_name":"楼宇","address":"铁西兴华南街与十马路交汇处"},{"poiid":"B2094757D068A4FB4692","title":"外滩观光隧道","lon":"121.49087","lat":"31.23984","category":"260","category_name":"其他","address":"黄浦区外滩中山东一路300号(外滩与陆家嘴间)"},{"poiid":"B2094757D76AA1F8469A","title":"半岛茶座","lon":"121.490114054","lat":"31.240935793","category":"99","category_name":"泰国／越南菜品餐厅","address":"黄浦区中山东一路32号半岛酒店2楼(近北京东路)"},{"poiid":"B2094757D068A5F54292","title":"人民英雄纪念塔","lon":"121.49044","lat":"31.24202","category":"260","category_name":"其他","address":"黄浦区中山东一路500号黄浦公园(近黄浦公园)"},{"poiid":"B2094757D064A1FF429E","title":"立信会计师事务所(特殊普通合伙)","lon":"121.488855538","lat":"31.2386172788","category":"500","category_name":"未知分类","address":"南京东路61号新黄浦金融大厦"},{"poiid":"B2094654DA6FA4F8429B","title":"中国工商银行上海市分行营业部","lon":"121.48982","lat":"31.23983","category":"150","category_name":"银行","address":"中山东一路24"},{"poiid":"B2094655D264A6FE4299","title":"益丰大厦","lon":"121.48848","lat":"31.24032","category":"46","category_name":"楼宇","address":""},{"poiid":"B2094757D064A7F8469D","title":"和平饭店和平厅","lon":"121.48885773","lat":"31.238736481","category":"500","category_name":"未知分类","address":"黄浦区南京东路20号和平饭店"},{"poiid":"B2094757D16CA3FE469A","title":"外滩18号十八空间Space18","lon":"121.490429722","lat":"31.240429529","category":"184","category_name":"美术馆","address":"中山东一路18号外滩18号(近南京东路)"},{"poiid":"B2094655D269ABFD4098","title":"外滩十八号创意中心","lon":"121.48974","lat":"31.2384","category":"247","category_name":"餐饮美食","address":"黄浦区中山东一路18号4楼(近南京东路)"},{"poiid":"B2094757D069A6FE4593","title":"Lounge 18","lon":"121.48999","lat":"31.23888","category":"184","category_name":"美术馆","address":"黄浦区中山东一路18号外滩18号4楼(近南京东路)"},{"poiid":"B2094757D068ABFE4292","title":"和平饭店茉莉酒廊","lon":"121.48888073","lat":"31.239272492","category":"260","category_name":"其他","address":"黄浦区南京东路20号和平饭店内(近中山东一路)"},{"poiid":"B2094655D26DA3FF4793","title":"和平大厦","lon":"121.48948","lat":"31.23905","category":"46","category_name":"楼宇","address":"昌平区回龙观镇国际信息产业基地高新二街"},{"poiid":"B2094654DB65A2FE4993","title":"南京路步行街(友邦大厦西北)","lon":"121.48942","lat":"31.23846","category":"116","category_name":"特色商业街","address":""},{"poiid":"B2094752D565A5F54698","title":"御宝轩","lon":"121.488893","lat":"31.240994","category":"247","category_name":"餐饮美食","address":"上海市黄浦区北京东路99号益丰•外滩源4楼402-403号(近圆明园路)"},{"poiid":"B2094757D068A1FF469C","title":"招商银行(外滩支行)","lon":"121.48987579","lat":"31.238119125","category":"150","category_name":"银行","address":"黄浦区中山东一路16号(近九江路)"},{"poiid":"B2094757D068ABFD469F","title":"友邦大厦","lon":"121.48980712","lat":"31.238212585","category":"46","category_name":"楼宇","address":"上海中山东一路17号"},{"poiid":"B2094750D76FA5FB439A","title":"罗斯福酒窖餐厅","lon":"121.49","lat":"31.2402","category":"94","category_name":"西餐厅","address":"黄浦区中山东一路27号罗斯福公馆2楼(近北京东路)"},{"poiid":"B2094757D064A7FD4293","title":"半岛酒店逸龙阁","lon":"121.48892819","lat":"31.241136882","category":"217","category_name":"旅馆招待所","address":"上海中山东一路32号"},{"poiid":"B2094752D36DABFB4299","title":"Capo at Rockbund","lon":"121.491364","lat":"31.24234","category":"500","category_name":"未知分类","address":"益豐外灘源5樓"},{"poiid":"B2094757D16DA2FB419B","title":"浦西外滩滨江大道","lon":"121.490415","lat":"31.239759","category":"500","category_name":"未知分类","address":"上海浦东滨江大道江对岸"},{"poiid":"B2094757D06EAAF8499F","title":"上海半岛酒店(The Peninsula,Shanghai)","lon":"121.48871485643679","lat":"31.24126498713522","category":"213","category_name":"五星级宾馆","address":"黄浦区中山东一路32号(近北京东路)"},{"poiid":"B2094757D66DA7F4469B","title":"外滩","lon":"121.490535738","lat":"31.2383514732","category":"240","category_name":"国家级景点","address":"上海市中心区黄浦江畔"},{"poiid":"B2094655D268ABFD489E","title":"外滩18号","lon":"121.48960930059434","lat":"31.238450813410314","category":"76","category_name":"上海菜","address":"黄浦区中山东一路18号"},{"poiid":"B209475CD564A7F84292","title":"上海滩新天地店","lon":"121.47463","lat":"31.22164","category":"119","category_name":"商场","address":"\"太仓路181弄新天地北里15号\r\n\""},{"poiid":"B209475CD564A7F84392","title":"上海滩浦东香格里拉店","lon":"121.50058","lat":"31.23634","category":"119","category_name":"商场","address":"浦东富成路33号香格里拉酒店内大堂层"},{"poiid":"B2094654DB6BABFD469C","title":"上海和平饭店","lon":"121.48945","lat":"31.23901","category":"213","category_name":"五星级宾馆","address":"黄浦区南京东路20号和平饭店北楼夹层(近中山东一路)"},{"poiid":"B2094757D06EAAFB419B","title":"罗斯福会所 The House of Roosevelt","lon":"121.49012383","lat":"31.240403643","category":"94","category_name":"西餐厅","address":"黄浦区中山东一路27号罗斯福8楼"},{"poiid":"B2094750D26FA4F94393","title":"MUSE","lon":"121.489089","lat":"31.240596","category":"260","category_name":"其他","address":"黄浦区北京东路99号益丰外滩源5楼(近圆明园路)"},{"poiid":"B2094757D06FA2F44992","title":"华盛大厦","lon":"121.489","lat":"31.2411","category":"46","category_name":"楼宇","address":"黄浦区南京东路311号"},{"poiid":"B2094750DA65A3F5489E","title":"御宝轩","lon":"121.489006","lat":"31.24068","category":"72","category_name":"广东菜","address":"黄浦区北京东路99号(近圆明园路)"},{"poiid":"B2094757D06FA1FD439B","title":"COSTA COFFEE(新外滩店)","lon":"121.490879","lat":"31.240587","category":"65","category_name":"咖啡厅","address":"黄浦区中山东一路388号(北京东路口)"},{"poiid":"B2094757D06FA1FC439D","title":"Bar Rouge","lon":"121.49011","lat":"31.2386","category":"260","category_name":"其他","address":"黄浦区中山东一路18号外滩18号7楼(近南京东路)"},{"poiid":"B2094757D06FA5FC439A","title":"Mr &amp; Mrs Bund","lon":"121.4901","lat":"31.23816","category":"94","category_name":"西餐厅","address":"上海黄浦区中山东一路18号外滩18号6楼(近南京东路)"},{"poiid":"B2094750D464A6F94792","title":"星巴克","lon":"121.490264","lat":"31.240295","category":"247","category_name":"餐饮美食","address":"黄浦区中山东一路363号(近北京东路)"},{"poiid":"B2094757D06FA2F5489C","title":"中国银行(上海市分行营业部)","lon":"121.489781","lat":"31.239521","category":"150","category_name":"银行","address":"上海市黄浦区中山东一路23号"},{"poiid":"B2094757D06BABFB449A","title":"Shook！上海","lon":"121.49010773","lat":"31.238661479","category":"94","category_name":"西餐厅","address":"黄浦区南京东路23号5-6楼(外滩19号)"},{"poiid":"B2094654DA6FA4F5409B","title":"曼哈顿(外滩)商务酒店","lon":"121.48818","lat":"31.23942","category":"250","category_name":"公园户外","address":"黄浦区滇池路81-85号"},{"poiid":"B2094757D069A2FA419B","title":"哈根达斯(外滩店)","lon":"121.49029","lat":"31.23784","category":"113","category_name":"冷饮店","address":"黄浦区中山东一路365号(近九江路)"},{"poiid":"B2094757D468A4FC4598","title":"艾利爵士餐厅 Sir Elly's Restaurant & Bar","lon":"121.490123054","lat":"31.240919793","category":"97","category_name":"法式菜品餐厅","address":"黄浦区中山东一路32号半岛酒店13楼(近北京东路)"},{"poiid":"B2094757D16CA4FE469A","title":"罗斯福9楼露天酒吧","lon":"121.49195883","lat":"31.237938814","category":"172","category_name":"酒吧","address":"上海外滩27号"},{"poiid":"B2094750D06EAAFB419A","title":"Muse on The Bund","lon":"121.489181","lat":"31.240453","category":"248","category_name":"生活娱乐","address":"黄浦区北京东路99号益丰外滩源5F"},{"poiid":"B2094757D469A7F4429D","title":"悦粤茶餐厅","lon":"121.49097","lat":"31.2412","category":"72","category_name":"广东菜","address":"黄浦区中山东一路429号(近北京东路)"},{"poiid":"B2094757D06FA2FD4298","title":"上海陈毅广场","lon":"121.490514434","lat":"31.2389924275","category":"250","category_name":"公园户外","address":"黄浦区中山东一路外滩(近南京东路)"},{"poiid":"B2094752D56EA0FF4498","title":"Deli & Leisure","lon":"121.488318","lat":"31.239285","category":"247","category_name":"餐饮美食","address":null},{"poiid":"B2094655D265A0F5459F","title":"斯沃琪和平饭店艺术中心","lon":"121.48965","lat":"31.23871","category":"183","category_name":"展览馆","address":"黄浦区南京东路23号(近中山东一路)"},{"poiid":"B2094655D26BA4FD489D","title":"中行大楼","lon":"121.48978","lat":"31.23953","category":"46","category_name":"楼宇","address":"重庆北部新区金渝大道89号(北部新区管委会对面)"},{"poiid":"B2094655D26DA3FF489A","title":"Bund18","lon":"121.48978","lat":"31.23842","category":"119","category_name":"商场","address":"中山东一路18"},{"poiid":"B2094750D26EA2FA419A","title":"辉哥火锅圆明园路店","lon":"121.488487","lat":"31.241041","category":"86","category_name":"火锅店","address":"黄浦区圆明园路115号洛克外滩源(近北京东路)"},{"poiid":"B2094751D268A4FC4798","title":"罗斯福八楼色戒餐厅酒吧","lon":"121.489883","lat":"31.240287","category":"247","category_name":"餐饮美食","address":"黄浦区中山东一路27号"},{"poiid":"B2094654DA6FA5FA4499","title":"解放日报大厦","lon":"121.491","lat":"31.2418","category":"46","category_name":"楼宇","address":"铁西兴华南街与十马路交汇处"},{"poiid":"B2094757D068A4FB4692","title":"外滩观光隧道","lon":"121.49087","lat":"31.23984","category":"260","category_name":"其他","address":"黄浦区外滩中山东一路300号(外滩与陆家嘴间)"},{"poiid":"B2094757D76AA1F8469A","title":"半岛茶座","lon":"121.490114054","lat":"31.240935793","category":"99","category_name":"泰国／越南菜品餐厅","address":"黄浦区中山东一路32号半岛酒店2楼(近北京东路)"},{"poiid":"B2094757D068A5F54292","title":"人民英雄纪念塔","lon":"121.49044","lat":"31.24202","category":"260","category_name":"其他","address":"黄浦区中山东一路500号黄浦公园(近黄浦公园)"},{"poiid":"B2094757D064A1FF429E","title":"立信会计师事务所(特殊普通合伙)","lon":"121.488855538","lat":"31.2386172788","category":"500","category_name":"未知分类","address":"南京东路61号新黄浦金融大厦"},{"poiid":"B2094654DA6FA4F8429B","title":"中国工商银行上海市分行营业部","lon":"121.48982","lat":"31.23983","category":"150","category_name":"银行","address":"中山东一路24"},{"poiid":"B2094655D264A6FE4299","title":"益丰大厦","lon":"121.48848","lat":"31.24032","category":"46","category_name":"楼宇","address":""},{"poiid":"B2094757D064A7F8469D","title":"和平饭店和平厅","lon":"121.48885773","lat":"31.238736481","category":"500","category_name":"未知分类","address":"黄浦区南京东路20号和平饭店"},{"poiid":"B2094757D16CA3FE469A","title":"外滩18号十八空间Space18","lon":"121.490429722","lat":"31.240429529","category":"184","category_name":"美术馆","address":"中山东一路18号外滩18号(近南京东路)"},{"poiid":"B2094655D269ABFD4098","title":"外滩十八号创意中心","lon":"121.48974","lat":"31.2384","category":"247","category_name":"餐饮美食","address":"黄浦区中山东一路18号4楼(近南京东路)"},{"poiid":"B2094757D069A6FE4593","title":"Lounge 18","lon":"121.48999","lat":"31.23888","category":"184","category_name":"美术馆","address":"黄浦区中山东一路18号外滩18号4楼(近南京东路)"},{"poiid":"B2094757D068ABFE4292","title":"和平饭店茉莉酒廊","lon":"121.48888073","lat":"31.239272492","category":"260","category_name":"其他","address":"黄浦区南京东路20号和平饭店内(近中山东一路)"},{"poiid":"B2094655D26DA3FF4793","title":"和平大厦","lon":"121.48948","lat":"31.23905","category":"46","category_name":"楼宇","address":"昌平区回龙观镇国际信息产业基地高新二街"},{"poiid":"B2094654DB65A2FE4993","title":"南京路步行街(友邦大厦西北)","lon":"121.48942","lat":"31.23846","category":"116","category_name":"特色商业街","address":""},{"poiid":"B2094752D565A5F54698","title":"御宝轩","lon":"121.488893","lat":"31.240994","category":"247","category_name":"餐饮美食","address":"上海市黄浦区北京东路99号益丰•外滩源4楼402-403号(近圆明园路)"},{"poiid":"B2094757D068A1FF469C","title":"招商银行(外滩支行)","lon":"121.48987579","lat":"31.238119125","category":"150","category_name":"银行","address":"黄浦区中山东一路16号(近九江路)"},{"poiid":"B2094757D068ABFD469F","title":"友邦大厦","lon":"121.48980712","lat":"31.238212585","category":"46","category_name":"楼宇","address":"上海中山东一路17号"},{"poiid":"B2094750D76FA5FB439A","title":"罗斯福酒窖餐厅","lon":"121.49","lat":"31.2402","category":"94","category_name":"西餐厅","address":"黄浦区中山东一路27号罗斯福公馆2楼(近北京东路)"},{"poiid":"B2094757D064A7FD4293","title":"半岛酒店逸龙阁","lon":"121.48892819","lat":"31.241136882","category":"217","category_name":"旅馆招待所","address":"上海中山东一路32号"},{"poiid":"B2094752D36DABFB4299","title":"Capo at Rockbund","lon":"121.491364","lat":"31.24234","category":"500","category_name":"未知分类","address":"益豐外灘源5樓"},{"poiid":"B2094757D16DA2FB419B","title":"浦西外滩滨江大道","lon":"121.490415","lat":"31.239759","category":"500","category_name":"未知分类","address":"上海浦东滨江大道江对岸"},{"poiid":"B2094757D06EAAF8499F","title":"上海半岛酒店(The Peninsula,Shanghai)","lon":"121.48871485643679","lat":"31.24126498713522","category":"213","category_name":"五星级宾馆","address":"黄浦区中山东一路32号(近北京东路)"},{"poiid":"B2094757D66DA7F4469B","title":"外滩","lon":"121.490535738","lat":"31.2383514732","category":"240","category_name":"国家级景点","address":"上海市中心区黄浦江畔"},{"poiid":"B2094655D268ABFD489E","title":"外滩18号","lon":"121.48960930059434","lat":"31.238450813410314","category":"76","category_name":"上海菜","address":"黄浦区中山东一路18号"},{"poiid":"B209475CD564A7F84292","title":"上海滩新天地店","lon":"121.47463","lat":"31.22164","category":"119","category_name":"商场","address":"\"太仓路181弄新天地北里15号\r\n\""},{"poiid":"B209475CD564A7F84392","title":"上海滩浦东香格里拉店","lon":"121.50058","lat":"31.23634","category":"119","category_name":"商场","address":"浦东富成路33号香格里拉酒店内大堂层"},{"poiid":"B2094654DB6BABFD469C","title":"上海和平饭店","lon":"121.48945","lat":"31.23901","category":"213","category_name":"五星级宾馆","address":"黄浦区南京东路20号和平饭店北楼夹层(近中山东一路)"},{"poiid":"B2094757D06EAAFB419B","title":"罗斯福会所 The House of Roosevelt","lon":"121.49012383","lat":"31.240403643","category":"94","category_name":"西餐厅","address":"黄浦区中山东一路27号罗斯福8楼"},{"poiid":"B2094750D26FA4F94393","title":"MUSE","lon":"121.489089","lat":"31.240596","category":"260","category_name":"其他","address":"黄浦区北京东路99号益丰外滩源5楼(近圆明园路)"},{"poiid":"B2094757D06FA2F44992","title":"华盛大厦","lon":"121.489","lat":"31.2411","category":"46","category_name":"楼宇","address":"黄浦区南京东路311号"},{"poiid":"B2094750DA65A3F5489E","title":"御宝轩","lon":"121.489006","lat":"31.24068","category":"72","category_name":"广东菜","address":"黄浦区北京东路99号(近圆明园路)"},{"poiid":"B2094757D06FA1FD439B","title":"COSTA COFFEE(新外滩店)","lon":"121.490879","lat":"31.240587","category":"65","category_name":"咖啡厅","address":"黄浦区中山东一路388号(北京东路口)"},{"poiid":"B2094757D06FA1FC439D","title":"Bar Rouge","lon":"121.49011","lat":"31.2386","category":"260","category_name":"其他","address":"黄浦区中山东一路18号外滩18号7楼(近南京东路)"},{"poiid":"B2094757D06FA5FC439A","title":"Mr &amp; Mrs Bund","lon":"121.4901","lat":"31.23816","category":"94","category_name":"西餐厅","address":"上海黄浦区中山东一路18号外滩18号6楼(近南京东路)"},{"poiid":"B2094750D464A6F94792","title":"星巴克","lon":"121.490264","lat":"31.240295","category":"247","category_name":"餐饮美食","address":"黄浦区中山东一路363号(近北京东路)"},{"poiid":"B2094757D06FA2F5489C","title":"中国银行(上海市分行营业部)","lon":"121.489781","lat":"31.239521","category":"150","category_name":"银行","address":"上海市黄浦区中山东一路23号"},{"poiid":"B2094757D06BABFB449A","title":"Shook！上海","lon":"121.49010773","lat":"31.238661479","category":"94","category_name":"西餐厅","address":"黄浦区南京东路23号5-6楼(外滩19号)"},{"poiid":"B2094654DA6FA4F5409B","title":"曼哈顿(外滩)商务酒店","lon":"121.48818","lat":"31.23942","category":"250","category_name":"公园户外","address":"黄浦区滇池路81-85号"},{"poiid":"B2094757D069A2FA419B","title":"哈根达斯(外滩店)","lon":"121.49029","lat":"31.23784","category":"113","category_name":"冷饮店","address":"黄浦区中山东一路365号(近九江路)"},{"poiid":"B2094757D468A4FC4598","title":"艾利爵士餐厅 Sir Elly's Restaurant & Bar","lon":"121.490123054","lat":"31.240919793","category":"97","category_name":"法式菜品餐厅","address":"黄浦区中山东一路32号半岛酒店13楼(近北京东路)"},{"poiid":"B2094757D16CA4FE469A","title":"罗斯福9楼露天酒吧","lon":"121.49195883","lat":"31.237938814","category":"172","category_name":"酒吧","address":"上海外滩27号"},{"poiid":"B2094750D06EAAFB419A","title":"Muse on The Bund","lon":"121.489181","lat":"31.240453","category":"248","category_name":"生活娱乐","address":"黄浦区北京东路99号益丰外滩源5F"},{"poiid":"B2094757D469A7F4429D","title":"悦粤茶餐厅","lon":"121.49097","lat":"31.2412","category":"72","category_name":"广东菜","address":"黄浦区中山东一路429号(近北京东路)"},{"poiid":"B2094757D06FA2FD4298","title":"上海陈毅广场","lon":"121.490514434","lat":"31.2389924275","category":"250","category_name":"公园户外","address":"黄浦区中山东一路外滩(近南京东路)"},{"poiid":"B2094752D56EA0FF4498","title":"Deli & Leisure","lon":"121.488318","lat":"31.239285","category":"247","category_name":"餐饮美食","address":null},{"poiid":"B2094655D265A0F5459F","title":"斯沃琪和平饭店艺术中心","lon":"121.48965","lat":"31.23871","category":"183","category_name":"展览馆","address":"黄浦区南京东路23号(近中山东一路)"},{"poiid":"B2094655D26BA4FD489D","title":"中行大楼","lon":"121.48978","lat":"31.23953","category":"46","category_name":"楼宇","address":"重庆北部新区金渝大道89号(北部新区管委会对面)"},{"poiid":"B2094655D26DA3FF489A","title":"Bund18","lon":"121.48978","lat":"31.23842","category":"119","category_name":"商场","address":"中山东一路18"},{"poiid":"B2094750D26EA2FA419A","title":"辉哥火锅圆明园路店","lon":"121.488487","lat":"31.241041","category":"86","category_name":"火锅店","address":"黄浦区圆明园路115号洛克外滩源(近北京东路)"},{"poiid":"B2094751D268A4FC4798","title":"罗斯福八楼色戒餐厅酒吧","lon":"121.489883","lat":"31.240287","category":"247","category_name":"餐饮美食","address":"黄浦区中山东一路27号"},{"poiid":"B2094654DA6FA5FA4499","title":"解放日报大厦","lon":"121.491","lat":"31.2418","category":"46","category_name":"楼宇","address":"铁西兴华南街与十马路交汇处"},{"poiid":"B2094757D068A4FB4692","title":"外滩观光隧道","lon":"121.49087","lat":"31.23984","category":"260","category_name":"其他","address":"黄浦区外滩中山东一路300号(外滩与陆家嘴间)"},{"poiid":"B2094757D76AA1F8469A","title":"半岛茶座","lon":"121.490114054","lat":"31.240935793","category":"99","category_name":"泰国／越南菜品餐厅","address":"黄浦区中山东一路32号半岛酒店2楼(近北京东路)"},{"poiid":"B2094757D068A5F54292","title":"人民英雄纪念塔","lon":"121.49044","lat":"31.24202","category":"260","category_name":"其他","address":"黄浦区中山东一路500号黄浦公园(近黄浦公园)"},{"poiid":"B2094757D064A1FF429E","title":"立信会计师事务所(特殊普通合伙)","lon":"121.488855538","lat":"31.2386172788","category":"500","category_name":"未知分类","address":"南京东路61号新黄浦金融大厦"},{"poiid":"B2094654DA6FA4F8429B","title":"中国工商银行上海市分行营业部","lon":"121.48982","lat":"31.23983","category":"150","category_name":"银行","address":"中山东一路24"},{"poiid":"B2094655D264A6FE4299","title":"益丰大厦","lon":"121.48848","lat":"31.24032","category":"46","category_name":"楼宇","address":""},{"poiid":"B2094757D064A7F8469D","title":"和平饭店和平厅","lon":"121.48885773","lat":"31.238736481","category":"500","category_name":"未知分类","address":"黄浦区南京东路20号和平饭店"},{"poiid":"B2094757D16CA3FE469A","title":"外滩18号十八空间Space18","lon":"121.490429722","lat":"31.240429529","category":"184","category_name":"美术馆","address":"中山东一路18号外滩18号(近南京东路)"},{"poiid":"B2094655D269ABFD4098","title":"外滩十八号创意中心","lon":"121.48974","lat":"31.2384","category":"247","category_name":"餐饮美食","address":"黄浦区中山东一路18号4楼(近南京东路)"},{"poiid":"B2094757D069A6FE4593","title":"Lounge 18","lon":"121.48999","lat":"31.23888","category":"184","category_name":"美术馆","address":"黄浦区中山东一路18号外滩18号4楼(近南京东路)"},{"poiid":"B2094757D068ABFE4292","title":"和平饭店茉莉酒廊","lon":"121.48888073","lat":"31.239272492","category":"260","category_name":"其他","address":"黄浦区南京东路20号和平饭店内(近中山东一路)"},{"poiid":"B2094655D26DA3FF4793","title":"和平大厦","lon":"121.48948","lat":"31.23905","category":"46","category_name":"楼宇","address":"昌平区回龙观镇国际信息产业基地高新二街"},{"poiid":"B2094654DB65A2FE4993","title":"南京路步行街(友邦大厦西北)","lon":"121.48942","lat":"31.23846","category":"116","category_name":"特色商业街","address":""},{"poiid":"B2094752D565A5F54698","title":"御宝轩","lon":"121.488893","lat":"31.240994","category":"247","category_name":"餐饮美食","address":"上海市黄浦区北京东路99号益丰•外滩源4楼402-403号(近圆明园路)"},{"poiid":"B2094757D068A1FF469C","title":"招商银行(外滩支行)","lon":"121.48987579","lat":"31.238119125","category":"150","category_name":"银行","address":"黄浦区中山东一路16号(近九江路)"},{"poiid":"B2094757D068ABFD469F","title":"友邦大厦","lon":"121.48980712","lat":"31.238212585","category":"46","category_name":"楼宇","address":"上海中山东一路17号"},{"poiid":"B2094750D76FA5FB439A","title":"罗斯福酒窖餐厅","lon":"121.49","lat":"31.2402","category":"94","category_name":"西餐厅","address":"黄浦区中山东一路27号罗斯福公馆2楼(近北京东路)"},{"poiid":"B2094757D064A7FD4293","title":"半岛酒店逸龙阁","lon":"121.48892819","lat":"31.241136882","category":"217","category_name":"旅馆招待所","address":"上海中山东一路32号"},{"poiid":"B2094752D36DABFB4299","title":"Capo at Rockbund","lon":"121.491364","lat":"31.24234","category":"500","category_name":"未知分类","address":"益豐外灘源5樓"},{"poiid":"B2094757D16DA2FB419B","title":"浦西外滩滨江大道","lon":"121.490415","lat":"31.239759","category":"500","category_name":"未知分类","address":"上海浦东滨江大道江对岸"},{"poiid":"B2094757D06EAAF8499F","title":"上海半岛酒店(The Peninsula,Shanghai)","lon":"121.48871485643679","lat":"31.24126498713522","category":"213","category_name":"五星级宾馆","address":"黄浦区中山东一路32号(近北京东路)"},{"poiid":"B2094757D66DA7F4469B","title":"外滩","lon":"121.490535738","lat":"31.2383514732","category":"240","category_name":"国家级景点","address":"上海市中心区黄浦江畔"},{"poiid":"B2094655D268ABFD489E","title":"外滩18号","lon":"121.48960930059434","lat":"31.238450813410314","category":"76","category_name":"上海菜","address":"黄浦区中山东一路18号"},{"poiid":"B209475CD564A7F84292","title":"上海滩新天地店","lon":"121.47463","lat":"31.22164","category":"119","category_name":"商场","address":"\"太仓路181弄新天地北里15号\r\n\""},{"poiid":"B209475CD564A7F84392","title":"上海滩浦东香格里拉店","lon":"121.50058","lat":"31.23634","category":"119","category_name":"商场","address":"浦东富成路33号香格里拉酒店内大堂层"},{"poiid":"B2094654DB6BABFD469C","title":"上海和平饭店","lon":"121.48945","lat":"31.23901","category":"213","category_name":"五星级宾馆","address":"黄浦区南京东路20号和平饭店北楼夹层(近中山东一路)"},{"poiid":"B2094757D06EAAFB419B","title":"罗斯福会所 The House of Roosevelt","lon":"121.49012383","lat":"31.240403643","category":"94","category_name":"西餐厅","address":"黄浦区中山东一路27号罗斯福8楼"},{"poiid":"B2094750D26FA4F94393","title":"MUSE","lon":"121.489089","lat":"31.240596","category":"260","category_name":"其他","address":"黄浦区北京东路99号益丰外滩源5楼(近圆明园路)"},{"poiid":"B2094757D06FA2F44992","title":"华盛大厦","lon":"121.489","lat":"31.2411","category":"46","category_name":"楼宇","address":"黄浦区南京东路311号"},{"poiid":"B2094750DA65A3F5489E","title":"御宝轩","lon":"121.489006","lat":"31.24068","category":"72","category_name":"广东菜","address":"黄浦区北京东路99号(近圆明园路)"},{"poiid":"B2094757D06FA1FD439B","title":"COSTA COFFEE(新外滩店)","lon":"121.490879","lat":"31.240587","category":"65","category_name":"咖啡厅","address":"黄浦区中山东一路388号(北京东路口)"},{"poiid":"B2094757D06FA1FC439D","title":"Bar Rouge","lon":"121.49011","lat":"31.2386","category":"260","category_name":"其他","address":"黄浦区中山东一路18号外滩18号7楼(近南京东路)"},{"poiid":"B2094757D06FA5FC439A","title":"Mr &amp; Mrs Bund","lon":"121.4901","lat":"31.23816","category":"94","category_name":"西餐厅","address":"上海黄浦区中山东一路18号外滩18号6楼(近南京东路)"},{"poiid":"B2094750D464A6F94792","title":"星巴克","lon":"121.490264","lat":"31.240295","category":"247","category_name":"餐饮美食","address":"黄浦区中山东一路363号(近北京东路)"},{"poiid":"B2094757D06FA2F5489C","title":"中国银行(上海市分行营业部)","lon":"121.489781","lat":"31.239521","category":"150","category_name":"银行","address":"上海市黄浦区中山东一路23号"},{"poiid":"B2094757D06BABFB449A","title":"Shook！上海","lon":"121.49010773","lat":"31.238661479","category":"94","category_name":"西餐厅","address":"黄浦区南京东路23号5-6楼(外滩19号)"},{"poiid":"B2094654DA6FA4F5409B","title":"曼哈顿(外滩)商务酒店","lon":"121.48818","lat":"31.23942","category":"250","category_name":"公园户外","address":"黄浦区滇池路81-85号"},{"poiid":"B2094757D069A2FA419B","title":"哈根达斯(外滩店)","lon":"121.49029","lat":"31.23784","category":"113","category_name":"冷饮店","address":"黄浦区中山东一路365号(近九江路)"},{"poiid":"B2094757D468A4FC4598","title":"艾利爵士餐厅 Sir Elly's Restaurant & Bar","lon":"121.490123054","lat":"31.240919793","category":"97","category_name":"法式菜品餐厅","address":"黄浦区中山东一路32号半岛酒店13楼(近北京东路)"},{"poiid":"B2094757D16CA4FE469A","title":"罗斯福9楼露天酒吧","lon":"121.49195883","lat":"31.237938814","category":"172","category_name":"酒吧","address":"上海外滩27号"},{"poiid":"B2094750D06EAAFB419A","title":"Muse on The Bund","lon":"121.489181","lat":"31.240453","category":"248","category_name":"生活娱乐","address":"黄浦区北京东路99号益丰外滩源5F"},{"poiid":"B2094757D469A7F4429D","title":"悦粤茶餐厅","lon":"121.49097","lat":"31.2412","category":"72","category_name":"广东菜","address":"黄浦区中山东一路429号(近北京东路)"},{"poiid":"B2094757D06FA2FD4298","title":"上海陈毅广场","lon":"121.490514434","lat":"31.2389924275","category":"250","category_name":"公园户外","address":"黄浦区中山东一路外滩(近南京东路)"},{"poiid":"B2094752D56EA0FF4498","title":"Deli & Leisure","lon":"121.488318","lat":"31.239285","category":"247","category_name":"餐饮美食","address":null},{"poiid":"B2094655D265A0F5459F","title":"斯沃琪和平饭店艺术中心","lon":"121.48965","lat":"31.23871","category":"183","category_name":"展览馆","address":"黄浦区南京东路23号(近中山东一路)"},{"poiid":"B2094655D26BA4FD489D","title":"中行大楼","lon":"121.48978","lat":"31.23953","category":"46","category_name":"楼宇","address":"重庆北部新区金渝大道89号(北部新区管委会对面)"},{"poiid":"B2094655D26DA3FF489A","title":"Bund18","lon":"121.48978","lat":"31.23842","category":"119","category_name":"商场","address":"中山东一路18"},{"poiid":"B2094750D26EA2FA419A","title":"辉哥火锅圆明园路店","lon":"121.488487","lat":"31.241041","category":"86","category_name":"火锅店","address":"黄浦区圆明园路115号洛克外滩源(近北京东路)"},{"poiid":"B2094751D268A4FC4798","title":"罗斯福八楼色戒餐厅酒吧","lon":"121.489883","lat":"31.240287","category":"247","category_name":"餐饮美食","address":"黄浦区中山东一路27号"},{"poiid":"B2094654DA6FA5FA4499","title":"解放日报大厦","lon":"121.491","lat":"31.2418","category":"46","category_name":"楼宇","address":"铁西兴华南街与十马路交汇处"},{"poiid":"B2094757D068A4FB4692","title":"外滩观光隧道","lon":"121.49087","lat":"31.23984","category":"260","category_name":"其他","address":"黄浦区外滩中山东一路300号(外滩与陆家嘴间)"},{"poiid":"B2094757D76AA1F8469A","title":"半岛茶座","lon":"121.490114054","lat":"31.240935793","category":"99","category_name":"泰国／越南菜品餐厅","address":"黄浦区中山东一路32号半岛酒店2楼(近北京东路)"},{"poiid":"B2094757D068A5F54292","title":"人民英雄纪念塔","lon":"121.49044","lat":"31.24202","category":"260","category_name":"其他","address":"黄浦区中山东一路500号黄浦公园(近黄浦公园)"},{"poiid":"B2094757D064A1FF429E","title":"立信会计师事务所(特殊普通合伙)","lon":"121.488855538","lat":"31.2386172788","category":"500","category_name":"未知分类","address":"南京东路61号新黄浦金融大厦"},{"poiid":"B2094654DA6FA4F8429B","title":"中国工商银行上海市分行营业部","lon":"121.48982","lat":"31.23983","category":"150","category_name":"银行","address":"中山东一路24"},{"poiid":"B2094655D264A6FE4299","title":"益丰大厦","lon":"121.48848","lat":"31.24032","category":"46","category_name":"楼宇","address":""},{"poiid":"B2094757D064A7F8469D","title":"和平饭店和平厅","lon":"121.48885773","lat":"31.238736481","category":"500","category_name":"未知分类","address":"黄浦区南京东路20号和平饭店"},{"poiid":"B2094757D16CA3FE469A","title":"外滩18号十八空间Space18","lon":"121.490429722","lat":"31.240429529","category":"184","category_name":"美术馆","address":"中山东一路18号外滩18号(近南京东路)"},{"poiid":"B2094655D269ABFD4098","title":"外滩十八号创意中心","lon":"121.48974","lat":"31.2384","category":"247","category_name":"餐饮美食","address":"黄浦区中山东一路18号4楼(近南京东路)"},{"poiid":"B2094757D069A6FE4593","title":"Lounge 18","lon":"121.48999","lat":"31.23888","category":"184","category_name":"美术馆","address":"黄浦区中山东一路18号外滩18号4楼(近南京东路)"},{"poiid":"B2094757D068ABFE4292","title":"和平饭店茉莉酒廊","lon":"121.48888073","lat":"31.239272492","category":"260","category_name":"其他","address":"黄浦区南京东路20号和平饭店内(近中山东一路)"},{"poiid":"B2094655D26DA3FF4793","title":"和平大厦","lon":"121.48948","lat":"31.23905","category":"46","category_name":"楼宇","address":"昌平区回龙观镇国际信息产业基地高新二街"},{"poiid":"B2094654DB65A2FE4993","title":"南京路步行街(友邦大厦西北)","lon":"121.48942","lat":"31.23846","category":"116","category_name":"特色商业街","address":""},{"poiid":"B2094752D565A5F54698","title":"御宝轩","lon":"121.488893","lat":"31.240994","category":"247","category_name":"餐饮美食","address":"上海市黄浦区北京东路99号益丰•外滩源4楼402-403号(近圆明园路)"},{"poiid":"B2094757D068A1FF469C","title":"招商银行(外滩支行)","lon":"121.48987579","lat":"31.238119125","category":"150","category_name":"银行","address":"黄浦区中山东一路16号(近九江路)"},{"poiid":"B2094757D068ABFD469F","title":"友邦大厦","lon":"121.48980712","lat":"31.238212585","category":"46","category_name":"楼宇","address":"上海中山东一路17号"},{"poiid":"B2094750D76FA5FB439A","title":"罗斯福酒窖餐厅","lon":"121.49","lat":"31.2402","category":"94","category_name":"西餐厅","address":"黄浦区中山东一路27号罗斯福公馆2楼(近北京东路)"},{"poiid":"B2094757D064A7FD4293","title":"半岛酒店逸龙阁","lon":"121.48892819","lat":"31.241136882","category":"217","category_name":"旅馆招待所","address":"上海中山东一路32号"},{"poiid":"B2094752D36DABFB4299","title":"Capo at Rockbund","lon":"121.491364","lat":"31.24234","category":"500","category_name":"未知分类","address":"益豐外灘源5樓"},{"poiid":"B2094757D16DA2FB419B","title":"浦西外滩滨江大道","lon":"121.490415","lat":"31.239759","category":"500","category_name":"未知分类","address":"上海浦东滨江大道江对岸"}]