[{"poiid":"B2094757D06EABF54093","title":"古董花园 Antique Garden","lon":"121.46692867894","lat":"31.216339592929","category":"47","category_name":"住宅区","address":"卢湾区思南路44号甲(近香山路)"},{"poiid":"B2094654DA6EA4FB409C","title":"Club G Plus","lon":"121.465873","lat":"31.214857","category":"260","category_name":"其他","address":"卢湾区兴业路123弄新天地南里广场6号楼5楼(近马当路)"},{"poiid":"B2094757D06FA2FE4799","title":"上海瑞金洲际酒店","lon":"121.46510953447012","lat":"31.213619361647314","category":"217","category_name":"旅馆招待所","address":"卢湾区瑞金二路118号上海瑞金洲际酒店内(近复兴中路)"},{"poiid":"B2094753D76FAAFA449C","title":"上海滩国泰旗舰店","lon":"121.466011","lat":"31.216125","category":"249","category_name":"购物服务","address":"淮海中路868号"},{"poiid":"B209475CD564A7F84292","title":"上海滩新天地店","lon":"121.47463","lat":"31.22164","category":"119","category_name":"商场","address":"\"太仓路181弄新天地北里15号\r\n\""},{"poiid":"B209475CD564A7F8439E","title":"上海滩中信泰富店","lon":"121.45602","lat":"31.22851","category":"119","category_name":"商场","address":"\"南京西路1168号中信泰富广场，店铺号221.\r\n\""},{"poiid":"B2094654DB69A4F8439F","title":"星巴克(瑞金路店)","lon":"121.4649203","lat":"31.2150973","category":"260","category_name":"其他","address":"卢湾区瑞金二路101-107号(近复兴中路)"},{"poiid":"B2094757D068A5F54199","title":"park97","lon":"121.465627738","lat":"31.2151659791","category":"172","category_name":"酒吧","address":"上海市卢湾区茂名南路"},{"poiid":"B2094757D068A3FE4093","title":"香山中医医院","lon":"121.46655501","lat":"31.21583555","category":"162","category_name":"医院","address":"卢湾区复兴中路528号(复兴中路思南路)"},{"poiid":"B2094752DB6BA3F9459B","title":"上海文化广场剧院","lon":"121.465729","lat":"31.215866","category":"500","category_name":"未知分类","address":"上海市 上海市复兴中路597号"},{"poiid":"B2094757D06FA4FA419C","title":"永兴餐厅","lon":"121.46444","lat":"31.21441","category":"76","category_name":"上海菜","address":"卢湾区复兴中路626弄1号(茂名路瑞金路间)"},{"poiid":"B2094753D565A2FA469A","title":"贝克街221B","lon":"121.465248","lat":"31.21626","category":"47","category_name":"住宅区","address":"上海市 卢湾区瑞金二路50号"},{"poiid":"B209475CD76CA4FC489F","title":"the CAFE KACAO","lon":"121.46556","lat":"31.216766","category":"500","category_name":"未知分类","address":"上海市 思南路8号"},{"poiid":"B2094757D16EA1FF449A","title":"香啡缤(思南公馆)","lon":"121.466178738","lat":"31.2163040034","category":"260","category_name":"其他","address":"卢湾区思南路55号思南公馆26B号楼1楼(近复兴中路)"},{"poiid":"B2094757D068A1FB489E","title":"La Vida","lon":"121.46538","lat":"31.21665","category":"94","category_name":"西餐厅","address":"卢湾区陕西南路402号(近复兴中路)"},{"poiid":"B2094757D06FAAF44798","title":"EASO ROOM","lon":"121.46515","lat":"31.21538","category":"260","category_name":"其他","address":"卢湾区香山路32号(近瑞金二路)"},{"poiid":"B2094753D56DA3FA4098","title":"鱼酷活鱼现烤","lon":"121.463157","lat":"31.214649","category":"247","category_name":"餐饮美食","address":"上海市 淮海中路988号黄金世界地下1层"},{"poiid":"B2094655D26EA0F44998","title":"扬州饭店(瑞金店)","lon":"121.46484","lat":"31.21428","category":"74","category_name":"江苏菜","address":"卢湾区瑞金二路108号民防大厦3楼(近复兴中路)"},{"poiid":"B2094757D06AA2F54593","title":"南蛮亭 思南公馆店","lon":"121.468088","lat":"31.214529","category":"95","category_name":"日本料理","address":"卢湾区思南路45号思南公馆32号楼3楼(近复兴中路)"},{"poiid":"B2094757D464A7FC479A","title":"麒麟宫酒家","lon":"121.46456723123","lat":"31.216548649768","category":"76","category_name":"上海菜","address":"卢湾区瑞金二路75号(近南昌路)"},{"poiid":"B2094750D16AA1F4479A","title":"壹•火锅 The One Hotpot","lon":"121.465843","lat":"31.216817","category":"247","category_name":"餐饮美食","address":"复兴中路535号(思南公馆30号)"},{"poiid":"B209475CD26CA4FC4598","title":"iapm上海环贸广场","lon":"121.46421","lat":"31.215311","category":"500","category_name":"未知分类","address":"上海市 淮海中路999号"},{"poiid":"B2094757D069A4FD459B","title":"老锦江饭店夜上海餐厅","lon":"121.463289476","lat":"31.2152020027","category":"76","category_name":"上海菜","address":"上海茂名路"},{"poiid":"B2094654DA6DABF9419D","title":"思南路幼儿园","lon":"121.46619","lat":"31.21685","category":"57","category_name":"幼儿园","address":"卢湾区皋兰路11号(近思南路)"},{"poiid":"B2094655D36CA6FF439C","title":"复兴中路瑞金二路","lon":"121.46427","lat":"31.2147","category":"38","category_name":"公交车站","address":""},{"poiid":"B2094757D568ABFC4799","title":"交大医学院西校区","lon":"121.46739","lat":"31.21463","category":"52","category_name":"高等院校","address":"重庆南路280号"},{"poiid":"B2094757D064A3F4499B","title":"一豚","lon":"121.465683738","lat":"31.2149439744","category":"95","category_name":"日本料理","address":"卢湾区复兴中路581号(近瑞金二路)"},{"poiid":"B2094757D064A3F9469C","title":"紋兵衛 瑞金店","lon":"121.46328773","lat":"31.213058934","category":"257","category_name":"中餐厅","address":"上海茂名南路205瑞金大厦１ＦA室"},{"poiid":"B2094757D168A4FB4799","title":"瑞金宾馆11号","lon":"121.46414973","lat":"31.213976953","category":"217","category_name":"旅馆招待所","address":"上海市黄浦区瑞金二路118号（近复兴中路）"},{"poiid":"B2094757D06AA5FA479D","title":"阿三烤鸭","lon":"121.46508","lat":"31.21477","category":"68","category_name":"快餐厅","address":"卢湾区复兴中路589号(近瑞金二路)"},{"poiid":"B2094757D068A4FC449D","title":"园梅","lon":"121.46394","lat":"31.21421","category":"149","category_name":"洗浴推拿场所","address":"卢湾区复兴中路614号(近瑞金二路)"},{"poiid":"B2094757D06BA3F8439C","title":"瑞金宾馆百合苑","lon":"121.464818","lat":"31.212616","category":"217","category_name":"旅馆招待所","address":"上海瑞金宾馆内"},{"poiid":"B2094757D168A6F84893","title":"瑞金11号私房菜","lon":"121.46442473","lat":"31.213289939","category":"76","category_name":"上海菜","address":"卢湾区瑞金二路118号瑞金宾馆11号楼(近复兴中路)"},{"poiid":"B209475DD468A2FA479C","title":"小小南国","lon":"121.46434","lat":"31.214624","category":"247","category_name":"餐饮美食","address":"上海市 上海市徐汇区淮海中路939号"},{"poiid":"B2094753D46BA1FD439E","title":"楓の私廚料理","lon":"121.465393","lat":"31.216409","category":"247","category_name":"餐饮美食","address":"上海市 淮海中路816弄內58號"},{"poiid":"B2094757D16AA1FC439E","title":"民防科普教育馆","lon":"121.46327","lat":"31.21381","category":"179","category_name":"音乐厅","address":"上海卢湾区复兴中路593号民防大厦内(近瑞金二路)  "},{"poiid":"B2094753D26BA3FA409A","title":"思南公馆","lon":"121.466143","lat":"31.216217","category":"500","category_name":"未知分类","address":"上海市 复兴中路思南路"},{"poiid":"B209475DD26BA4FB419F","title":"查厘士港式餐厅","lon":"121.463211","lat":"31.213726","category":"247","category_name":"餐饮美食","address":"上海市 徐汇区淮海中路988号3F"},{"poiid":"B2094655D268A6F9429C","title":"瑞金宾馆贵宾楼","lon":"121.46363","lat":"31.21397","category":"213","category_name":"五星级宾馆","address":""},{"poiid":"B2094655D36CA6FF439F","title":"复兴中路茂名南路","lon":"121.46384","lat":"31.21459","category":"38","category_name":"公交车站","address":"上海复兴中路茂名南路"},{"poiid":"B2094757D16DA3F5449D","title":"松坂烤肉","lon":"121.46526336","lat":"31.216856002","category":"247","category_name":"餐饮美食","address":"上海老锦江内"},{"poiid":"B2094655D26AA7FC479A","title":"瑞金宾馆宴会厅","lon":"121.46607","lat":"31.2139","category":"247","category_name":"餐饮美食","address":"卢湾区瑞金二路118号瑞金宾馆内(近复兴中路)查看地图"},{"poiid":"B2094655D264A5FC449E","title":"illy","lon":"121.46504","lat":"31.21569","category":"256","category_name":"外国餐厅","address":"卢湾区建国中路155弄39号"},{"poiid":"B2094757D66BABFD419B","title":"北万新 香山店","lon":"121.464814054","lat":"31.214811793","category":"68","category_name":"快餐厅","address":"卢湾区瑞金二路111号(近复兴中路)"},{"poiid":"B209475CDA6EA7F4449A","title":"ipam环贸","lon":"121.465614","lat":"31.215686","category":"500","category_name":"未知分类","address":"上海市 淮海中路"},{"poiid":"B2094654DB69AAF9419E","title":"中国银行卢湾支行","lon":"121.4629","lat":"31.21385","category":"150","category_name":"银行","address":"上海市卢湾区茂名南路205号"},{"poiid":"B2094757D56EA4FF4998","title":"上海南京路新世界","lon":"121.464692","lat":"31.215499","category":"249","category_name":"购物服务","address":"上海市南京西路2－68号(88号)五层"},{"poiid":"B2094757D064AAFA4699","title":"Shoga 姜","lon":"121.46685073","lat":"31.216485007","category":"95","category_name":"日本料理","address":"卢湾区思南路30号"},{"poiid":"B2094654DA6DA6F5409B","title":"花园坊","lon":"121.46608","lat":"31.213909","category":"47","category_name":"住宅区","address":"卢湾区瑞金二路129弄(近复兴中路)"},{"poiid":"B2094757D164A7F5479B","title":"上海皋兰路东正教教堂","lon":"121.46599565","lat":"31.216691602","category":"245","category_name":"教堂","address":"上海卢湾区皋兰路16号"},{"poiid":"B2094757D06EABF54093","title":"古董花园 Antique Garden","lon":"121.46692867894","lat":"31.216339592929","category":"47","category_name":"住宅区","address":"卢湾区思南路44号甲(近香山路)"},{"poiid":"B2094654DA6EA4FB409C","title":"Club G Plus","lon":"121.465873","lat":"31.214857","category":"260","category_name":"其他","address":"卢湾区兴业路123弄新天地南里广场6号楼5楼(近马当路)"},{"poiid":"B2094757D06FA2FE4799","title":"上海瑞金洲际酒店","lon":"121.46510953447012","lat":"31.213619361647314","category":"217","category_name":"旅馆招待所","address":"卢湾区瑞金二路118号上海瑞金洲际酒店内(近复兴中路)"},{"poiid":"B2094753D76FAAFA449C","title":"上海滩国泰旗舰店","lon":"121.466011","lat":"31.216125","category":"249","category_name":"购物服务","address":"淮海中路868号"},{"poiid":"B209475CD564A7F84292","title":"上海滩新天地店","lon":"121.47463","lat":"31.22164","category":"119","category_name":"商场","address":"\"太仓路181弄新天地北里15号\r\n\""},{"poiid":"B209475CD564A7F8439E","title":"上海滩中信泰富店","lon":"121.45602","lat":"31.22851","category":"119","category_name":"商场","address":"\"南京西路1168号中信泰富广场，店铺号221.\r\n\""},{"poiid":"B2094654DB69A4F8439F","title":"星巴克(瑞金路店)","lon":"121.4649203","lat":"31.2150973","category":"260","category_name":"其他","address":"卢湾区瑞金二路101-107号(近复兴中路)"},{"poiid":"B2094757D068A5F54199","title":"park97","lon":"121.465627738","lat":"31.2151659791","category":"172","category_name":"酒吧","address":"上海市卢湾区茂名南路"},{"poiid":"B2094757D068A3FE4093","title":"香山中医医院","lon":"121.46655501","lat":"31.21583555","category":"162","category_name":"医院","address":"卢湾区复兴中路528号(复兴中路思南路)"},{"poiid":"B2094752DB6BA3F9459B","title":"上海文化广场剧院","lon":"121.465729","lat":"31.215866","category":"500","category_name":"未知分类","address":"上海市 上海市复兴中路597号"},{"poiid":"B2094757D06FA4FA419C","title":"永兴餐厅","lon":"121.46444","lat":"31.21441","category":"76","category_name":"上海菜","address":"卢湾区复兴中路626弄1号(茂名路瑞金路间)"},{"poiid":"B2094753D565A2FA469A","title":"贝克街221B","lon":"121.465248","lat":"31.21626","category":"47","category_name":"住宅区","address":"上海市 卢湾区瑞金二路50号"},{"poiid":"B209475CD76CA4FC489F","title":"the CAFE KACAO","lon":"121.46556","lat":"31.216766","category":"500","category_name":"未知分类","address":"上海市 思南路8号"},{"poiid":"B2094757D16EA1FF449A","title":"香啡缤(思南公馆)","lon":"121.466178738","lat":"31.2163040034","category":"260","category_name":"其他","address":"卢湾区思南路55号思南公馆26B号楼1楼(近复兴中路)"},{"poiid":"B2094757D068A1FB489E","title":"La Vida","lon":"121.46538","lat":"31.21665","category":"94","category_name":"西餐厅","address":"卢湾区陕西南路402号(近复兴中路)"},{"poiid":"B2094757D06FAAF44798","title":"EASO ROOM","lon":"121.46515","lat":"31.21538","category":"260","category_name":"其他","address":"卢湾区香山路32号(近瑞金二路)"},{"poiid":"B2094753D56DA3FA4098","title":"鱼酷活鱼现烤","lon":"121.463157","lat":"31.214649","category":"247","category_name":"餐饮美食","address":"上海市 淮海中路988号黄金世界地下1层"},{"poiid":"B2094655D26EA0F44998","title":"扬州饭店(瑞金店)","lon":"121.46484","lat":"31.21428","category":"74","category_name":"江苏菜","address":"卢湾区瑞金二路108号民防大厦3楼(近复兴中路)"},{"poiid":"B2094757D06AA2F54593","title":"南蛮亭 思南公馆店","lon":"121.468088","lat":"31.214529","category":"95","category_name":"日本料理","address":"卢湾区思南路45号思南公馆32号楼3楼(近复兴中路)"},{"poiid":"B2094757D464A7FC479A","title":"麒麟宫酒家","lon":"121.46456723123","lat":"31.216548649768","category":"76","category_name":"上海菜","address":"卢湾区瑞金二路75号(近南昌路)"},{"poiid":"B2094750D16AA1F4479A","title":"壹•火锅 The One Hotpot","lon":"121.465843","lat":"31.216817","category":"247","category_name":"餐饮美食","address":"复兴中路535号(思南公馆30号)"},{"poiid":"B209475CD26CA4FC4598","title":"iapm上海环贸广场","lon":"121.46421","lat":"31.215311","category":"500","category_name":"未知分类","address":"上海市 淮海中路999号"},{"poiid":"B2094757D069A4FD459B","title":"老锦江饭店夜上海餐厅","lon":"121.463289476","lat":"31.2152020027","category":"76","category_name":"上海菜","address":"上海茂名路"},{"poiid":"B2094654DA6DABF9419D","title":"思南路幼儿园","lon":"121.46619","lat":"31.21685","category":"57","category_name":"幼儿园","address":"卢湾区皋兰路11号(近思南路)"},{"poiid":"B2094655D36CA6FF439C","title":"复兴中路瑞金二路","lon":"121.46427","lat":"31.2147","category":"38","category_name":"公交车站","address":""},{"poiid":"B2094757D568ABFC4799","title":"交大医学院西校区","lon":"121.46739","lat":"31.21463","category":"52","category_name":"高等院校","address":"重庆南路280号"},{"poiid":"B2094757D064A3F4499B","title":"一豚","lon":"121.465683738","lat":"31.2149439744","category":"95","category_name":"日本料理","address":"卢湾区复兴中路581号(近瑞金二路)"},{"poiid":"B2094757D064A3F9469C","title":"紋兵衛 瑞金店","lon":"121.46328773","lat":"31.213058934","category":"257","category_name":"中餐厅","address":"上海茂名南路205瑞金大厦１ＦA室"},{"poiid":"B2094757D168A4FB4799","title":"瑞金宾馆11号","lon":"121.46414973","lat":"31.213976953","category":"217","category_name":"旅馆招待所","address":"上海市黄浦区瑞金二路118号（近复兴中路）"},{"poiid":"B2094757D06AA5FA479D","title":"阿三烤鸭","lon":"121.46508","lat":"31.21477","category":"68","category_name":"快餐厅","address":"卢湾区复兴中路589号(近瑞金二路)"},{"poiid":"B2094757D068A4FC449D","title":"园梅","lon":"121.46394","lat":"31.21421","category":"149","category_name":"洗浴推拿场所","address":"卢湾区复兴中路614号(近瑞金二路)"},{"poiid":"B2094757D06BA3F8439C","title":"瑞金宾馆百合苑","lon":"121.464818","lat":"31.212616","category":"217","category_name":"旅馆招待所","address":"上海瑞金宾馆内"},{"poiid":"B2094757D168A6F84893","title":"瑞金11号私房菜","lon":"121.46442473","lat":"31.213289939","category":"76","category_name":"上海菜","address":"卢湾区瑞金二路118号瑞金宾馆11号楼(近复兴中路)"},{"poiid":"B209475DD468A2FA479C","title":"小小南国","lon":"121.46434","lat":"31.214624","category":"247","category_name":"餐饮美食","address":"上海市 上海市徐汇区淮海中路939号"},{"poiid":"B2094753D46BA1FD439E","title":"楓の私廚料理","lon":"121.465393","lat":"31.216409","category":"247","category_name":"餐饮美食","address":"上海市 淮海中路816弄內58號"},{"poiid":"B2094757D16AA1FC439E","title":"民防科普教育馆","lon":"121.46327","lat":"31.21381","category":"179","category_name":"音乐厅","address":"上海卢湾区复兴中路593号民防大厦内(近瑞金二路)  "},{"poiid":"B2094753D26BA3FA409A","title":"思南公馆","lon":"121.466143","lat":"31.216217","category":"500","category_name":"未知分类","address":"上海市 复兴中路思南路"},{"poiid":"B209475DD26BA4FB419F","title":"查厘士港式餐厅","lon":"121.463211","lat":"31.213726","category":"247","category_name":"餐饮美食","address":"上海市 徐汇区淮海中路988号3F"},{"poiid":"B2094655D268A6F9429C","title":"瑞金宾馆贵宾楼","lon":"121.46363","lat":"31.21397","category":"213","category_name":"五星级宾馆","address":""},{"poiid":"B2094655D36CA6FF439F","title":"复兴中路茂名南路","lon":"121.46384","lat":"31.21459","category":"38","category_name":"公交车站","address":"上海复兴中路茂名南路"},{"poiid":"B2094757D16DA3F5449D","title":"松坂烤肉","lon":"121.46526336","lat":"31.216856002","category":"247","category_name":"餐饮美食","address":"上海老锦江内"},{"poiid":"B2094655D26AA7FC479A","title":"瑞金宾馆宴会厅","lon":"121.46607","lat":"31.2139","category":"247","category_name":"餐饮美食","address":"卢湾区瑞金二路118号瑞金宾馆内(近复兴中路)查看地图"},{"poiid":"B2094655D264A5FC449E","title":"illy","lon":"121.46504","lat":"31.21569","category":"256","category_name":"外国餐厅","address":"卢湾区建国中路155弄39号"},{"poiid":"B2094757D66BABFD419B","title":"北万新 香山店","lon":"121.464814054","lat":"31.214811793","category":"68","category_name":"快餐厅","address":"卢湾区瑞金二路111号(近复兴中路)"},{"poiid":"B209475CDA6EA7F4449A","title":"ipam环贸","lon":"121.465614","lat":"31.215686","category":"500","category_name":"未知分类","address":"上海市 淮海中路"},{"poiid":"B2094654DB69AAF9419E","title":"中国银行卢湾支行","lon":"121.4629","lat":"31.21385","category":"150","category_name":"银行","address":"上海市卢湾区茂名南路205号"},{"poiid":"B2094757D56EA4FF4998","title":"上海南京路新世界","lon":"121.464692","lat":"31.215499","category":"249","category_name":"购物服务","address":"上海市南京西路2－68号(88号)五层"},{"poiid":"B2094757D064AAFA4699","title":"Shoga 姜","lon":"121.46685073","lat":"31.216485007","category":"95","category_name":"日本料理","address":"卢湾区思南路30号"},{"poiid":"B2094654DA6DA6F5409B","title":"花园坊","lon":"121.46608","lat":"31.213909","category":"47","category_name":"住宅区","address":"卢湾区瑞金二路129弄(近复兴中路)"},{"poiid":"B2094757D164A7F5479B","title":"上海皋兰路东正教教堂","lon":"121.46599565","lat":"31.216691602","category":"245","category_name":"教堂","address":"上海卢湾区皋兰路16号"},{"poiid":"B2094757D06EABF54093","title":"古董花园 Antique Garden","lon":"121.46692867894","lat":"31.216339592929","category":"47","category_name":"住宅区","address":"卢湾区思南路44号甲(近香山路)"},{"poiid":"B2094654DA6EA4FB409C","title":"Club G Plus","lon":"121.465873","lat":"31.214857","category":"260","category_name":"其他","address":"卢湾区兴业路123弄新天地南里广场6号楼5楼(近马当路)"},{"poiid":"B2094757D06FA2FE4799","title":"上海瑞金洲际酒店","lon":"121.46510953447012","lat":"31.213619361647314","category":"217","category_name":"旅馆招待所","address":"卢湾区瑞金二路118号上海瑞金洲际酒店内(近复兴中路)"},{"poiid":"B2094753D76FAAFA449C","title":"上海滩国泰旗舰店","lon":"121.466011","lat":"31.216125","category":"249","category_name":"购物服务","address":"淮海中路868号"},{"poiid":"B209475CD564A7F84292","title":"上海滩新天地店","lon":"121.47463","lat":"31.22164","category":"119","category_name":"商场","address":"\"太仓路181弄新天地北里15号\r\n\""},{"poiid":"B209475CD564A7F8439E","title":"上海滩中信泰富店","lon":"121.45602","lat":"31.22851","category":"119","category_name":"商场","address":"\"南京西路1168号中信泰富广场，店铺号221.\r\n\""},{"poiid":"B2094654DB69A4F8439F","title":"星巴克(瑞金路店)","lon":"121.4649203","lat":"31.2150973","category":"260","category_name":"其他","address":"卢湾区瑞金二路101-107号(近复兴中路)"},{"poiid":"B2094757D068A5F54199","title":"park97","lon":"121.465627738","lat":"31.2151659791","category":"172","category_name":"酒吧","address":"上海市卢湾区茂名南路"},{"poiid":"B2094757D068A3FE4093","title":"香山中医医院","lon":"121.46655501","lat":"31.21583555","category":"162","category_name":"医院","address":"卢湾区复兴中路528号(复兴中路思南路)"},{"poiid":"B2094752DB6BA3F9459B","title":"上海文化广场剧院","lon":"121.465729","lat":"31.215866","category":"500","category_name":"未知分类","address":"上海市 上海市复兴中路597号"},{"poiid":"B2094757D06FA4FA419C","title":"永兴餐厅","lon":"121.46444","lat":"31.21441","category":"76","category_name":"上海菜","address":"卢湾区复兴中路626弄1号(茂名路瑞金路间)"},{"poiid":"B2094753D565A2FA469A","title":"贝克街221B","lon":"121.465248","lat":"31.21626","category":"47","category_name":"住宅区","address":"上海市 卢湾区瑞金二路50号"},{"poiid":"B209475CD76CA4FC489F","title":"the CAFE KACAO","lon":"121.46556","lat":"31.216766","category":"500","category_name":"未知分类","address":"上海市 思南路8号"},{"poiid":"B2094757D16EA1FF449A","title":"香啡缤(思南公馆)","lon":"121.466178738","lat":"31.2163040034","category":"260","category_name":"其他","address":"卢湾区思南路55号思南公馆26B号楼1楼(近复兴中路)"},{"poiid":"B2094757D068A1FB489E","title":"La Vida","lon":"121.46538","lat":"31.21665","category":"94","category_name":"西餐厅","address":"卢湾区陕西南路402号(近复兴中路)"},{"poiid":"B2094757D06FAAF44798","title":"EASO ROOM","lon":"121.46515","lat":"31.21538","category":"260","category_name":"其他","address":"卢湾区香山路32号(近瑞金二路)"},{"poiid":"B2094753D56DA3FA4098","title":"鱼酷活鱼现烤","lon":"121.463157","lat":"31.214649","category":"247","category_name":"餐饮美食","address":"上海市 淮海中路988号黄金世界地下1层"},{"poiid":"B2094655D26EA0F44998","title":"扬州饭店(瑞金店)","lon":"121.46484","lat":"31.21428","category":"74","category_name":"江苏菜","address":"卢湾区瑞金二路108号民防大厦3楼(近复兴中路)"},{"poiid":"B2094757D06AA2F54593","title":"南蛮亭 思南公馆店","lon":"121.468088","lat":"31.214529","category":"95","category_name":"日本料理","address":"卢湾区思南路45号思南公馆32号楼3楼(近复兴中路)"},{"poiid":"B2094757D464A7FC479A","title":"麒麟宫酒家","lon":"121.46456723123","lat":"31.216548649768","category":"76","category_name":"上海菜","address":"卢湾区瑞金二路75号(近南昌路)"},{"poiid":"B2094750D16AA1F4479A","title":"壹•火锅 The One Hotpot","lon":"121.465843","lat":"31.216817","category":"247","category_name":"餐饮美食","address":"复兴中路535号(思南公馆30号)"},{"poiid":"B209475CD26CA4FC4598","title":"iapm上海环贸广场","lon":"121.46421","lat":"31.215311","category":"500","category_name":"未知分类","address":"上海市 淮海中路999号"},{"poiid":"B2094757D069A4FD459B","title":"老锦江饭店夜上海餐厅","lon":"121.463289476","lat":"31.2152020027","category":"76","category_name":"上海菜","address":"上海茂名路"},{"poiid":"B2094654DA6DABF9419D","title":"思南路幼儿园","lon":"121.46619","lat":"31.21685","category":"57","category_name":"幼儿园","address":"卢湾区皋兰路11号(近思南路)"},{"poiid":"B2094655D36CA6FF439C","title":"复兴中路瑞金二路","lon":"121.46427","lat":"31.2147","category":"38","category_name":"公交车站","address":""},{"poiid":"B2094757D568ABFC4799","title":"交大医学院西校区","lon":"121.46739","lat":"31.21463","category":"52","category_name":"高等院校","address":"重庆南路280号"},{"poiid":"B2094757D064A3F4499B","title":"一豚","lon":"121.465683738","lat":"31.2149439744","category":"95","category_name":"日本料理","address":"卢湾区复兴中路581号(近瑞金二路)"},{"poiid":"B2094757D064A3F9469C","title":"紋兵衛 瑞金店","lon":"121.46328773","lat":"31.213058934","category":"257","category_name":"中餐厅","address":"上海茂名南路205瑞金大厦１ＦA室"},{"poiid":"B2094757D168A4FB4799","title":"瑞金宾馆11号","lon":"121.46414973","lat":"31.213976953","category":"217","category_name":"旅馆招待所","address":"上海市黄浦区瑞金二路118号（近复兴中路）"},{"poiid":"B2094757D06AA5FA479D","title":"阿三烤鸭","lon":"121.46508","lat":"31.21477","category":"68","category_name":"快餐厅","address":"卢湾区复兴中路589号(近瑞金二路)"},{"poiid":"B2094757D068A4FC449D","title":"园梅","lon":"121.46394","lat":"31.21421","category":"149","category_name":"洗浴推拿场所","address":"卢湾区复兴中路614号(近瑞金二路)"},{"poiid":"B2094757D06BA3F8439C","title":"瑞金宾馆百合苑","lon":"121.464818","lat":"31.212616","category":"217","category_name":"旅馆招待所","address":"上海瑞金宾馆内"},{"poiid":"B2094757D168A6F84893","title":"瑞金11号私房菜","lon":"121.46442473","lat":"31.213289939","category":"76","category_name":"上海菜","address":"卢湾区瑞金二路118号瑞金宾馆11号楼(近复兴中路)"},{"poiid":"B209475DD468A2FA479C","title":"小小南国","lon":"121.46434","lat":"31.214624","category":"247","category_name":"餐饮美食","address":"上海市 上海市徐汇区淮海中路939号"},{"poiid":"B2094753D46BA1FD439E","title":"楓の私廚料理","lon":"121.465393","lat":"31.216409","category":"247","category_name":"餐饮美食","address":"上海市 淮海中路816弄內58號"},{"poiid":"B2094757D16AA1FC439E","title":"民防科普教育馆","lon":"121.46327","lat":"31.21381","category":"179","category_name":"音乐厅","address":"上海卢湾区复兴中路593号民防大厦内(近瑞金二路)  "},{"poiid":"B2094753D26BA3FA409A","title":"思南公馆","lon":"121.466143","lat":"31.216217","category":"500","category_name":"未知分类","address":"上海市 复兴中路思南路"},{"poiid":"B209475DD26BA4FB419F","title":"查厘士港式餐厅","lon":"121.463211","lat":"31.213726","category":"247","category_name":"餐饮美食","address":"上海市 徐汇区淮海中路988号3F"},{"poiid":"B2094655D268A6F9429C","title":"瑞金宾馆贵宾楼","lon":"121.46363","lat":"31.21397","category":"213","category_name":"五星级宾馆","address":""},{"poiid":"B2094655D36CA6FF439F","title":"复兴中路茂名南路","lon":"121.46384","lat":"31.21459","category":"38","category_name":"公交车站","address":"上海复兴中路茂名南路"},{"poiid":"B2094757D16DA3F5449D","title":"松坂烤肉","lon":"121.46526336","lat":"31.216856002","category":"247","category_name":"餐饮美食","address":"上海老锦江内"},{"poiid":"B2094655D26AA7FC479A","title":"瑞金宾馆宴会厅","lon":"121.46607","lat":"31.2139","category":"247","category_name":"餐饮美食","address":"卢湾区瑞金二路118号瑞金宾馆内(近复兴中路)查看地图"},{"poiid":"B2094655D264A5FC449E","title":"illy","lon":"121.46504","lat":"31.21569","category":"256","category_name":"外国餐厅","address":"卢湾区建国中路155弄39号"},{"poiid":"B2094757D66BABFD419B","title":"北万新 香山店","lon":"121.464814054","lat":"31.214811793","category":"68","category_name":"快餐厅","address":"卢湾区瑞金二路111号(近复兴中路)"},{"poiid":"B209475CDA6EA7F4449A","title":"ipam环贸","lon":"121.465614","lat":"31.215686","category":"500","category_name":"未知分类","address":"上海市 淮海中路"},{"poiid":"B2094654DB69AAF9419E","title":"中国银行卢湾支行","lon":"121.4629","lat":"31.21385","category":"150","category_name":"银行","address":"上海市卢湾区茂名南路205号"},{"poiid":"B2094757D56EA4FF4998","title":"上海南京路新世界","lon":"121.464692","lat":"31.215499","category":"249","category_name":"购物服务","address":"上海市南京西路2－68号(88号)五层"},{"poiid":"B2094757D064AAFA4699","title":"Shoga 姜","lon":"121.46685073","lat":"31.216485007","category":"95","category_name":"日本料理","address":"卢湾区思南路30号"},{"poiid":"B2094654DA6DA6F5409B","title":"花园坊","lon":"121.46608","lat":"31.213909","category":"47","category_name":"住宅区","address":"卢湾区瑞金二路129弄(近复兴中路)"},{"poiid":"B2094757D164A7F5479B","title":"上海皋兰路东正教教堂","lon":"121.46599565","lat":"31.216691602","category":"245","category_name":"教堂","address":"上海卢湾区皋兰路16号"},{"poiid":"B2094757D06EABF54093","title":"古董花园 Antique Garden","lon":"121.46692867894","lat":"31.216339592929","category":"47","category_name":"住宅区","address":"卢湾区思南路44号甲(近香山路)"},{"poiid":"B2094654DA6EA4FB409C","title":"Club G Plus","lon":"121.465873","lat":"31.214857","category":"260","category_name":"其他","address":"卢湾区兴业路123弄新天地南里广场6号楼5楼(近马当路)"},{"poiid":"B2094757D06FA2FE4799","title":"上海瑞金洲际酒店","lon":"121.46510953447012","lat":"31.213619361647314","category":"217","category_name":"旅馆招待所","address":"卢湾区瑞金二路118号上海瑞金洲际酒店内(近复兴中路)"},{"poiid":"B2094753D76FAAFA449C","title":"上海滩国泰旗舰店","lon":"121.466011","lat":"31.216125","category":"249","category_name":"购物服务","address":"淮海中路868号"},{"poiid":"B209475CD564A7F84292","title":"上海滩新天地店","lon":"121.47463","lat":"31.22164","category":"119","category_name":"商场","address":"\"太仓路181弄新天地北里15号\r\n\""},{"poiid":"B209475CD564A7F8439E","title":"上海滩中信泰富店","lon":"121.45602","lat":"31.22851","category":"119","category_name":"商场","address":"\"南京西路1168号中信泰富广场，店铺号221.\r\n\""},{"poiid":"B2094654DB69A4F8439F","title":"星巴克(瑞金路店)","lon":"121.4649203","lat":"31.2150973","category":"260","category_name":"其他","address":"卢湾区瑞金二路101-107号(近复兴中路)"},{"poiid":"B2094757D068A5F54199","title":"park97","lon":"121.465627738","lat":"31.2151659791","category":"172","category_name":"酒吧","address":"上海市卢湾区茂名南路"},{"poiid":"B2094757D068A3FE4093","title":"香山中医医院","lon":"121.46655501","lat":"31.21583555","category":"162","category_name":"医院","address":"卢湾区复兴中路528号(复兴中路思南路)"},{"poiid":"B2094752DB6BA3F9459B","title":"上海文化广场剧院","lon":"121.465729","lat":"31.215866","category":"500","category_name":"未知分类","address":"上海市 上海市复兴中路597号"},{"poiid":"B2094757D06FA4FA419C","title":"永兴餐厅","lon":"121.46444","lat":"31.21441","category":"76","category_name":"上海菜","address":"卢湾区复兴中路626弄1号(茂名路瑞金路间)"},{"poiid":"B2094753D565A2FA469A","title":"贝克街221B","lon":"121.465248","lat":"31.21626","category":"47","category_name":"住宅区","address":"上海市 卢湾区瑞金二路50号"},{"poiid":"B209475CD76CA4FC489F","title":"the CAFE KACAO","lon":"121.46556","lat":"31.216766","category":"500","category_name":"未知分类","address":"上海市 思南路8号"},{"poiid":"B2094757D16EA1FF449A","title":"香啡缤(思南公馆)","lon":"121.466178738","lat":"31.2163040034","category":"260","category_name":"其他","address":"卢湾区思南路55号思南公馆26B号楼1楼(近复兴中路)"},{"poiid":"B2094757D068A1FB489E","title":"La Vida","lon":"121.46538","lat":"31.21665","category":"94","category_name":"西餐厅","address":"卢湾区陕西南路402号(近复兴中路)"},{"poiid":"B2094757D06FAAF44798","title":"EASO ROOM","lon":"121.46515","lat":"31.21538","category":"260","category_name":"其他","address":"卢湾区香山路32号(近瑞金二路)"},{"poiid":"B2094753D56DA3FA4098","title":"鱼酷活鱼现烤","lon":"121.463157","lat":"31.214649","category":"247","category_name":"餐饮美食","address":"上海市 淮海中路988号黄金世界地下1层"},{"poiid":"B2094655D26EA0F44998","title":"扬州饭店(瑞金店)","lon":"121.46484","lat":"31.21428","category":"74","category_name":"江苏菜","address":"卢湾区瑞金二路108号民防大厦3楼(近复兴中路)"},{"poiid":"B2094757D06AA2F54593","title":"南蛮亭 思南公馆店","lon":"121.468088","lat":"31.214529","category":"95","category_name":"日本料理","address":"卢湾区思南路45号思南公馆32号楼3楼(近复兴中路)"},{"poiid":"B2094757D464A7FC479A","title":"麒麟宫酒家","lon":"121.46456723123","lat":"31.216548649768","category":"76","category_name":"上海菜","address":"卢湾区瑞金二路75号(近南昌路)"},{"poiid":"B2094750D16AA1F4479A","title":"壹•火锅 The One Hotpot","lon":"121.465843","lat":"31.216817","category":"247","category_name":"餐饮美食","address":"复兴中路535号(思南公馆30号)"},{"poiid":"B209475CD26CA4FC4598","title":"iapm上海环贸广场","lon":"121.46421","lat":"31.215311","category":"500","category_name":"未知分类","address":"上海市 淮海中路999号"},{"poiid":"B2094757D069A4FD459B","title":"老锦江饭店夜上海餐厅","lon":"121.463289476","lat":"31.2152020027","category":"76","category_name":"上海菜","address":"上海茂名路"},{"poiid":"B2094654DA6DABF9419D","title":"思南路幼儿园","lon":"121.46619","lat":"31.21685","category":"57","category_name":"幼儿园","address":"卢湾区皋兰路11号(近思南路)"},{"poiid":"B2094655D36CA6FF439C","title":"复兴中路瑞金二路","lon":"121.46427","lat":"31.2147","category":"38","category_name":"公交车站","address":""},{"poiid":"B2094757D568ABFC4799","title":"交大医学院西校区","lon":"121.46739","lat":"31.21463","category":"52","category_name":"高等院校","address":"重庆南路280号"},{"poiid":"B2094757D064A3F4499B","title":"一豚","lon":"121.465683738","lat":"31.2149439744","category":"95","category_name":"日本料理","address":"卢湾区复兴中路581号(近瑞金二路)"},{"poiid":"B2094757D064A3F9469C","title":"紋兵衛 瑞金店","lon":"121.46328773","lat":"31.213058934","category":"257","category_name":"中餐厅","address":"上海茂名南路205瑞金大厦１ＦA室"},{"poiid":"B2094757D168A4FB4799","title":"瑞金宾馆11号","lon":"121.46414973","lat":"31.213976953","category":"217","category_name":"旅馆招待所","address":"上海市黄浦区瑞金二路118号（近复兴中路）"},{"poiid":"B2094757D06AA5FA479D","title":"阿三烤鸭","lon":"121.46508","lat":"31.21477","category":"68","category_name":"快餐厅","address":"卢湾区复兴中路589号(近瑞金二路)"},{"poiid":"B2094757D068A4FC449D","title":"园梅","lon":"121.46394","lat":"31.21421","category":"149","category_name":"洗浴推拿场所","address":"卢湾区复兴中路614号(近瑞金二路)"},{"poiid":"B2094757D06BA3F8439C","title":"瑞金宾馆百合苑","lon":"121.464818","lat":"31.212616","category":"217","category_name":"旅馆招待所","address":"上海瑞金宾馆内"},{"poiid":"B2094757D168A6F84893","title":"瑞金11号私房菜","lon":"121.46442473","lat":"31.213289939","category":"76","category_name":"上海菜","address":"卢湾区瑞金二路118号瑞金宾馆11号楼(近复兴中路)"},{"poiid":"B209475DD468A2FA479C","title":"小小南国","lon":"121.46434","lat":"31.214624","category":"247","category_name":"餐饮美食","address":"上海市 上海市徐汇区淮海中路939号"},{"poiid":"B2094753D46BA1FD439E","title":"楓の私廚料理","lon":"121.465393","lat":"31.216409","category":"247","category_name":"餐饮美食","address":"上海市 淮海中路816弄內58號"},{"poiid":"B2094757D16AA1FC439E","title":"民防科普教育馆","lon":"121.46327","lat":"31.21381","category":"179","category_name":"音乐厅","address":"上海卢湾区复兴中路593号民防大厦内(近瑞金二路)  "},{"poiid":"B2094753D26BA3FA409A","title":"思南公馆","lon":"121.466143","lat":"31.216217","category":"500","category_name":"未知分类","address":"上海市 复兴中路思南路"},{"poiid":"B209475DD26BA4FB419F","title":"查厘士港式餐厅","lon":"121.463211","lat":"31.213726","category":"247","category_name":"餐饮美食","address":"上海市 徐汇区淮海中路988号3F"},{"poiid":"B2094655D268A6F9429C","title":"瑞金宾馆贵宾楼","lon":"121.46363","lat":"31.21397","category":"213","category_name":"五星级宾馆","address":""},{"poiid":"B2094655D36CA6FF439F","title":"复兴中路茂名南路","lon":"121.46384","lat":"31.21459","category":"38","category_name":"公交车站","address":"上海复兴中路茂名南路"},{"poiid":"B2094757D16DA3F5449D","title":"松坂烤肉","lon":"121.46526336","lat":"31.216856002","category":"247","category_name":"餐饮美食","address":"上海老锦江内"},{"poiid":"B2094655D26AA7FC479A","title":"瑞金宾馆宴会厅","lon":"121.46607","lat":"31.2139","category":"247","category_name":"餐饮美食","address":"卢湾区瑞金二路118号瑞金宾馆内(近复兴中路)查看地图"},{"poiid":"B2094655D264A5FC449E","title":"illy","lon":"121.46504","lat":"31.21569","category":"256","category_name":"外国餐厅","address":"卢湾区建国中路155弄39号"},{"poiid":"B2094757D66BABFD419B","title":"北万新 香山店","lon":"121.464814054","lat":"31.214811793","category":"68","category_name":"快餐厅","address":"卢湾区瑞金二路111号(近复兴中路)"},{"poiid":"B209475CDA6EA7F4449A","title":"ipam环贸","lon":"121.465614","lat":"31.215686","category":"500","category_name":"未知分类","address":"上海市 淮海中路"},{"poiid":"B2094654DB69AAF9419E","title":"中国银行卢湾支行","lon":"121.4629","lat":"31.21385","category":"150","category_name":"银行","address":"上海市卢湾区茂名南路205号"},{"poiid":"B2094757D56EA4FF4998","title":"上海南京路新世界","lon":"121.464692","lat":"31.215499","category":"249","category_name":"购物服务","address":"上海市南京西路2－68号(88号)五层"},{"poiid":"B2094757D064AAFA4699","title":"Shoga 姜","lon":"121.46685073","lat":"31.216485007","category":"95","category_name":"日本料理","address":"卢湾区思南路30号"},{"poiid":"B2094654DA6DA6F5409B","title":"花园坊","lon":"121.46608","lat":"31.213909","category":"47","category_name":"住宅区","address":"卢湾区瑞金二路129弄(近复兴中路)"},{"poiid":"B2094757D164A7F5479B","title":"上海皋兰路东正教教堂","lon":"121.46599565","lat":"31.216691602","category":"245","category_name":"教堂","address":"上海卢湾区皋兰路16号"}]