[{"poiid":"B2094655D26FABFB479E","title":"开元地中海","lon":"121.226","lat":"31.0447","category":"119","category_name":"商场","address":"上海松江区新松江路925号(人民北路口)"},{"poiid":"B2094654DB64A0FC4993","title":"上海市第一人民医院（南部分院）","lon":"121.22572","lat":"31.04036","category":"162","category_name":"医院","address":"近郊新松江路650号(近人民北路)"},{"poiid":"B2094655D26AA0FA459D","title":"地铁松江大学城站","lon":"121.2328121282244","lat":"31.053876849388867","category":"36","category_name":"地铁站","address":"上海市松江区"},{"poiid":"B2094757D06AA0F9409D","title":"上海外国语大学图文信息中心","lon":"121.225394867","lat":"31.0475109834","category":"253","category_name":"校园生活","address":"松江区文翔路1550号上海外国语大学图文信息中心"},{"poiid":"B2094654DB6EA2F8449A","title":"上海外国语大学（松江校区）","lon":"121.22192","lat":"31.04948","category":"671","category_name":"高校中心点","address":"上海市松江区文翔路1550号"},{"poiid":"B2094757D069A2FA429B","title":"中央公园","lon":"121.227502823","lat":"31.0360280584","category":"196","category_name":"公园","address":"上海松江新城翠湖路"},{"poiid":"B2094757D16EAAF9449E","title":"上海市交通大学附属第一人民医院南院9B","lon":"121.222828767","lat":"31.0419531613","category":"162","category_name":"医院","address":"上海市新松江路650号"},{"poiid":"B2094655D26FAAFA4592","title":"上外小别墅","lon":"121.22942","lat":"31.04522","category":"47","category_name":"住宅区","address":"松江区文翔路1550号上海外国语大学松江校区内(文翔路西林北路)"},{"poiid":"B2094757D064A1FA429D","title":"二期某寝室","lon":"121.220894","lat":"31.050056","category":"249","category_name":"购物服务","address":null},{"poiid":"B2094757D06FA2FA409F","title":"上海外国语大学英语学院","lon":"121.226543","lat":"31.047136","category":"253","category_name":"校园生活","address":"松江区文翔路1550号上海外国语大学五教楼(英院)"},{"poiid":"B2094655D268A1FE439C","title":"上海市第一人民医院(南部)急诊部","lon":"121.22573","lat":"31.04159","category":"162","category_name":"医院","address":"文翔路1485"},{"poiid":"B2094757D06FA0FE4893","title":"上海外国语大学三教楼","lon":"121.223651","lat":"31.0452","category":"253","category_name":"校园生活","address":"松江区文翔路1550号上海外国语大学三教楼(法语,德语,西方语系)"},{"poiid":"B2094757D06FABFB4798","title":"上海外国语大学教育会堂","lon":"121.22410545","lat":"31.044146872","category":"260","category_name":"其他","address":"上海松江区文翔路1550号"},{"poiid":"B2094757D569A2F8419D","title":"御上海","lon":"121.23415","lat":"31.049538","category":"47","category_name":"住宅区","address":"上海松江区谷阳北路2399弄"},{"poiid":"B2094757D164A2FC429A","title":"上海外国语大学西外外国语学校","lon":"121.23489246","lat":"31.042756779","category":"500","category_name":"未知分类","address":"松江区文翔路1100号"},{"poiid":"B2094757D06FA2FF4498","title":"上海外国语大学二教楼","lon":"121.223657","lat":"31.047221","category":"253","category_name":"校园生活","address":"松江区文翔路1550号上海外国语大学二教楼,(国际工商管理学院,国际金融贸易学院)"},{"poiid":"B2094757D06FA1FB4192","title":"上海外国语大学一教楼","lon":"121.223258","lat":"31.048041","category":"253","category_name":"校园生活","address":"松江区文翔路1550号上海外国语大学一教楼(国际教育学院,新闻传播学院)"},{"poiid":"B2094757D06FA5FD419E","title":"上海外国语大学法学院","lon":"121.226377","lat":"31.045086","category":"253","category_name":"校园生活","address":"松江区文翔路1550号上海外国语大学四教楼(法学院)"},{"poiid":"B2094654DB6EA2F8469A","title":"嘉和休闲广场","lon":"121.22469730537","lat":"31.038981603495","category":"201","category_name":"城市广场","address":"崇文区前门大街东打磨厂"},{"poiid":"B2094655D268A1FB429A","title":"新沙珑国际宾馆","lon":"121.23057","lat":"31.05185","category":"250","category_name":"公园户外","address":"松江区梅家浜路1501号(地铁9号线松江大学城站对面)"},{"poiid":"B2094757D06FA0FD4699","title":"上海外国语大学日本文化经济学院","lon":"121.22527859","lat":"31.049337791","category":"253","category_name":"校园生活","address":"松江区文翔路1550号上海外国语大学八教楼(日院)"},{"poiid":"B2094655D26DA6FD459B","title":"文景苑","lon":"121.2337","lat":"31.040943","category":"47","category_name":"住宅区","address":"上海市松江区文翔路1099弄"},{"poiid":"B2094654DB6DA4F4489C","title":"松云水苑","lon":"121.23747","lat":"31.044041","category":"47","category_name":"住宅区","address":"文翔路928弄"},{"poiid":"B2094654DB6EA2FB449D","title":"上海交通大学附属第一人民医院南院","lon":"121.22572","lat":"31.04037","category":"265","category_name":"知名企业","address":"新松江路1485号"},{"poiid":"B2094753D16EA0FD439B","title":"优麦克主题KTV","lon":"121.23027","lat":"31.05259","category":"170","category_name":"KTV","address":"松江区梅家浜路1500弄1号305(大学城地铁站对面)"},{"poiid":"B2094655D268A5F9459D","title":"大邱泾","lon":"121.2277","lat":"31.04603","category":"196","category_name":"公园","address":""},{"poiid":"B2094757D16CAAF9469C","title":"上外小别墅食堂","lon":"121.229416","lat":"31.045226","category":"253","category_name":"校园生活","address":"上海上外小别墅"},{"poiid":"B2094751D565A1FC4293","title":"麻里麻里","lon":"121.230762","lat":"31.0504426","category":"71","category_name":"四川菜","address":"松江区梅家浜路1500弄三湘财富广场内"},{"poiid":"B2094655D268A0FA4693","title":"沙珑餐店","lon":"121.23085","lat":"31.05185","category":"257","category_name":"中餐厅","address":"梅家浜路1501号"},{"poiid":"B2094655D36CA7F5499E","title":"谷阳北路文翔路","lon":"121.23525","lat":"31.045","category":"38","category_name":"公交车站","address":""},{"poiid":"B2094752D26DA0FD459B","title":"新石器烤肉(三湘店)","lon":"121.23001","lat":"31.05212","category":"68","category_name":"快餐厅","address":"松江区梅家浜路1500弄三湘财富广场(近9号线松江大学城站)"},{"poiid":"B2094655D26FA4F5469A","title":"上海外国语大学五教楼","lon":"121.22692","lat":"31.04708","category":"52","category_name":"高等院校","address":""},{"poiid":"B2094655D268A0FA479A","title":"神户亭铁板烧","lon":"121.23086","lat":"31.05185","category":"269","category_name":"烧烤","address":"松江区梅家浜路1501号新沙珑国际宾馆1楼(近松江大学城)"},{"poiid":"B2094655D26FA4F5479A","title":"上海外国语大学俄语系","lon":"121.22701","lat":"31.04812","category":"52","category_name":"高等院校","address":""},{"poiid":"B2094757D16CA3FD469C","title":"友福咖啡","lon":"121.2347618","lat":"31.0387261","category":"260","category_name":"其他","address":"松江区新松江路265号(近开元地中海)"},{"poiid":"B2094654DB6EA2F4449B","title":"名庭花苑","lon":"121.24","lat":"31.0444","category":"47","category_name":"住宅区","address":"上海市松江区新松江路259弄"},{"poiid":"B2094655D268A5F9469D","title":"快客No.5127","lon":"121.23363","lat":"31.04212","category":"117","category_name":"便民商店/便利店","address":"文翔路1105"},{"poiid":"B2094757D16EA3F9489A","title":"松江客运中心","lon":"121.23240902","lat":"31.049586111","category":"38","category_name":"公交车站","address":"松江区梅家浜路嘉松南路(近松江大学城站)"},{"poiid":"B2094757D064A0F4409A","title":"上海外国语大学东方语学院","lon":"121.22653476","lat":"31.048795114","category":"253","category_name":"校园生活","address":"松江区文翔路1550号上海外国语大学七教楼"},{"poiid":"B2094757D06BA4FB449E","title":"上外图文信息中心四楼外文阅览室","lon":"121.224923187","lat":"31.0472754707","category":"181","category_name":"图书馆","address":"松江区文翔路1550号上海外国语大学图文信息中心"},{"poiid":"B2094757D068A1FD449F","title":"上海外国语大学师生活动中心","lon":"121.224096","lat":"31.048878","category":"249","category_name":"购物服务","address":"松江区文翔路1550号上海外国语大学内"},{"poiid":"B2094655D268A6F9479F","title":"上外行政办公楼","lon":"121.22666","lat":"31.04356","category":"52","category_name":"高等院校","address":""},{"poiid":"B2094655D26BA2FD4393","title":"文翔路第一人民医院","lon":"121.22752","lat":"31.04239","category":"162","category_name":"医院","address":""},{"poiid":"B2094655D268A5F94592","title":"大邱泾(南门)","lon":"121.22769","lat":"31.0458","category":"680","category_name":"楼宇机构","address":""},{"poiid":"B2094757D16BA5FE4092","title":"上外3158","lon":"121.23461746","lat":"31.044823824","category":"500","category_name":"未知分类","address":"上海外国语大学三教楼"},{"poiid":"B2094757D16DA3FE469A","title":"上外松江教育会堂第一报告厅","lon":"121.22894948","lat":"31.04799976","category":"500","category_name":"未知分类","address":"上海文翔路1550号"},{"poiid":"B2094752D36DA5F9429D","title":"上海松江开元地中海影城","lon":"121.22453","lat":"31.04472","category":"178","category_name":"电影院","address":"松江区新松江路927弄4042号开元地中海商业广场4楼(近西林北路口)"},{"poiid":"B2094752D46BA1FD429D","title":"佘山国家森林公园","lon":"121.230003","lat":"31.040756","category":"250","category_name":"公园户外","address":"佘山塔隆"},{"poiid":"B2094757D16DA0FD409A","title":"一茶一座（开元地中海店）","lon":"121.22509546","lat":"31.046396858","category":"47","category_name":"住宅区","address":"松江区开元地中海3楼"},{"poiid":"B2094750DB6EABF8499D","title":"星辰园","lon":"121.23","lat":"31.051447","category":"47","category_name":"住宅区","address":"上海市松江区松江区梅家浜路1505弄"},{"poiid":"B2094655D26FABFB479E","title":"开元地中海","lon":"121.226","lat":"31.0447","category":"119","category_name":"商场","address":"上海松江区新松江路925号(人民北路口)"},{"poiid":"B2094654DB64A0FC4993","title":"上海市第一人民医院（南部分院）","lon":"121.22572","lat":"31.04036","category":"162","category_name":"医院","address":"近郊新松江路650号(近人民北路)"},{"poiid":"B2094655D26AA0FA459D","title":"地铁松江大学城站","lon":"121.2328121282244","lat":"31.053876849388867","category":"36","category_name":"地铁站","address":"上海市松江区"},{"poiid":"B2094757D06AA0F9409D","title":"上海外国语大学图文信息中心","lon":"121.225394867","lat":"31.0475109834","category":"253","category_name":"校园生活","address":"松江区文翔路1550号上海外国语大学图文信息中心"},{"poiid":"B2094654DB6EA2F8449A","title":"上海外国语大学（松江校区）","lon":"121.22192","lat":"31.04948","category":"671","category_name":"高校中心点","address":"上海市松江区文翔路1550号"},{"poiid":"B2094757D069A2FA429B","title":"中央公园","lon":"121.227502823","lat":"31.0360280584","category":"196","category_name":"公园","address":"上海松江新城翠湖路"},{"poiid":"B2094757D16EAAF9449E","title":"上海市交通大学附属第一人民医院南院9B","lon":"121.222828767","lat":"31.0419531613","category":"162","category_name":"医院","address":"上海市新松江路650号"},{"poiid":"B2094655D26FAAFA4592","title":"上外小别墅","lon":"121.22942","lat":"31.04522","category":"47","category_name":"住宅区","address":"松江区文翔路1550号上海外国语大学松江校区内(文翔路西林北路)"},{"poiid":"B2094757D064A1FA429D","title":"二期某寝室","lon":"121.220894","lat":"31.050056","category":"249","category_name":"购物服务","address":null},{"poiid":"B2094757D06FA2FA409F","title":"上海外国语大学英语学院","lon":"121.226543","lat":"31.047136","category":"253","category_name":"校园生活","address":"松江区文翔路1550号上海外国语大学五教楼(英院)"},{"poiid":"B2094655D268A1FE439C","title":"上海市第一人民医院(南部)急诊部","lon":"121.22573","lat":"31.04159","category":"162","category_name":"医院","address":"文翔路1485"},{"poiid":"B2094757D06FA0FE4893","title":"上海外国语大学三教楼","lon":"121.223651","lat":"31.0452","category":"253","category_name":"校园生活","address":"松江区文翔路1550号上海外国语大学三教楼(法语,德语,西方语系)"},{"poiid":"B2094757D06FABFB4798","title":"上海外国语大学教育会堂","lon":"121.22410545","lat":"31.044146872","category":"260","category_name":"其他","address":"上海松江区文翔路1550号"},{"poiid":"B2094757D569A2F8419D","title":"御上海","lon":"121.23415","lat":"31.049538","category":"47","category_name":"住宅区","address":"上海松江区谷阳北路2399弄"},{"poiid":"B2094757D164A2FC429A","title":"上海外国语大学西外外国语学校","lon":"121.23489246","lat":"31.042756779","category":"500","category_name":"未知分类","address":"松江区文翔路1100号"},{"poiid":"B2094757D06FA2FF4498","title":"上海外国语大学二教楼","lon":"121.223657","lat":"31.047221","category":"253","category_name":"校园生活","address":"松江区文翔路1550号上海外国语大学二教楼,(国际工商管理学院,国际金融贸易学院)"},{"poiid":"B2094757D06FA1FB4192","title":"上海外国语大学一教楼","lon":"121.223258","lat":"31.048041","category":"253","category_name":"校园生活","address":"松江区文翔路1550号上海外国语大学一教楼(国际教育学院,新闻传播学院)"},{"poiid":"B2094757D06FA5FD419E","title":"上海外国语大学法学院","lon":"121.226377","lat":"31.045086","category":"253","category_name":"校园生活","address":"松江区文翔路1550号上海外国语大学四教楼(法学院)"},{"poiid":"B2094654DB6EA2F8469A","title":"嘉和休闲广场","lon":"121.22469730537","lat":"31.038981603495","category":"201","category_name":"城市广场","address":"崇文区前门大街东打磨厂"},{"poiid":"B2094655D268A1FB429A","title":"新沙珑国际宾馆","lon":"121.23057","lat":"31.05185","category":"250","category_name":"公园户外","address":"松江区梅家浜路1501号(地铁9号线松江大学城站对面)"},{"poiid":"B2094757D06FA0FD4699","title":"上海外国语大学日本文化经济学院","lon":"121.22527859","lat":"31.049337791","category":"253","category_name":"校园生活","address":"松江区文翔路1550号上海外国语大学八教楼(日院)"},{"poiid":"B2094655D26DA6FD459B","title":"文景苑","lon":"121.2337","lat":"31.040943","category":"47","category_name":"住宅区","address":"上海市松江区文翔路1099弄"},{"poiid":"B2094654DB6DA4F4489C","title":"松云水苑","lon":"121.23747","lat":"31.044041","category":"47","category_name":"住宅区","address":"文翔路928弄"},{"poiid":"B2094654DB6EA2FB449D","title":"上海交通大学附属第一人民医院南院","lon":"121.22572","lat":"31.04037","category":"265","category_name":"知名企业","address":"新松江路1485号"},{"poiid":"B2094753D16EA0FD439B","title":"优麦克主题KTV","lon":"121.23027","lat":"31.05259","category":"170","category_name":"KTV","address":"松江区梅家浜路1500弄1号305(大学城地铁站对面)"},{"poiid":"B2094655D268A5F9459D","title":"大邱泾","lon":"121.2277","lat":"31.04603","category":"196","category_name":"公园","address":""},{"poiid":"B2094757D16CAAF9469C","title":"上外小别墅食堂","lon":"121.229416","lat":"31.045226","category":"253","category_name":"校园生活","address":"上海上外小别墅"},{"poiid":"B2094751D565A1FC4293","title":"麻里麻里","lon":"121.230762","lat":"31.0504426","category":"71","category_name":"四川菜","address":"松江区梅家浜路1500弄三湘财富广场内"},{"poiid":"B2094655D268A0FA4693","title":"沙珑餐店","lon":"121.23085","lat":"31.05185","category":"257","category_name":"中餐厅","address":"梅家浜路1501号"},{"poiid":"B2094655D36CA7F5499E","title":"谷阳北路文翔路","lon":"121.23525","lat":"31.045","category":"38","category_name":"公交车站","address":""},{"poiid":"B2094752D26DA0FD459B","title":"新石器烤肉(三湘店)","lon":"121.23001","lat":"31.05212","category":"68","category_name":"快餐厅","address":"松江区梅家浜路1500弄三湘财富广场(近9号线松江大学城站)"},{"poiid":"B2094655D26FA4F5469A","title":"上海外国语大学五教楼","lon":"121.22692","lat":"31.04708","category":"52","category_name":"高等院校","address":""},{"poiid":"B2094655D268A0FA479A","title":"神户亭铁板烧","lon":"121.23086","lat":"31.05185","category":"269","category_name":"烧烤","address":"松江区梅家浜路1501号新沙珑国际宾馆1楼(近松江大学城)"},{"poiid":"B2094655D26FA4F5479A","title":"上海外国语大学俄语系","lon":"121.22701","lat":"31.04812","category":"52","category_name":"高等院校","address":""},{"poiid":"B2094757D16CA3FD469C","title":"友福咖啡","lon":"121.2347618","lat":"31.0387261","category":"260","category_name":"其他","address":"松江区新松江路265号(近开元地中海)"},{"poiid":"B2094654DB6EA2F4449B","title":"名庭花苑","lon":"121.24","lat":"31.0444","category":"47","category_name":"住宅区","address":"上海市松江区新松江路259弄"},{"poiid":"B2094655D268A5F9469D","title":"快客No.5127","lon":"121.23363","lat":"31.04212","category":"117","category_name":"便民商店/便利店","address":"文翔路1105"},{"poiid":"B2094757D16EA3F9489A","title":"松江客运中心","lon":"121.23240902","lat":"31.049586111","category":"38","category_name":"公交车站","address":"松江区梅家浜路嘉松南路(近松江大学城站)"},{"poiid":"B2094757D064A0F4409A","title":"上海外国语大学东方语学院","lon":"121.22653476","lat":"31.048795114","category":"253","category_name":"校园生活","address":"松江区文翔路1550号上海外国语大学七教楼"},{"poiid":"B2094757D06BA4FB449E","title":"上外图文信息中心四楼外文阅览室","lon":"121.224923187","lat":"31.0472754707","category":"181","category_name":"图书馆","address":"松江区文翔路1550号上海外国语大学图文信息中心"},{"poiid":"B2094757D068A1FD449F","title":"上海外国语大学师生活动中心","lon":"121.224096","lat":"31.048878","category":"249","category_name":"购物服务","address":"松江区文翔路1550号上海外国语大学内"},{"poiid":"B2094655D268A6F9479F","title":"上外行政办公楼","lon":"121.22666","lat":"31.04356","category":"52","category_name":"高等院校","address":""},{"poiid":"B2094655D26BA2FD4393","title":"文翔路第一人民医院","lon":"121.22752","lat":"31.04239","category":"162","category_name":"医院","address":""},{"poiid":"B2094655D268A5F94592","title":"大邱泾(南门)","lon":"121.22769","lat":"31.0458","category":"680","category_name":"楼宇机构","address":""},{"poiid":"B2094757D16BA5FE4092","title":"上外3158","lon":"121.23461746","lat":"31.044823824","category":"500","category_name":"未知分类","address":"上海外国语大学三教楼"},{"poiid":"B2094757D16DA3FE469A","title":"上外松江教育会堂第一报告厅","lon":"121.22894948","lat":"31.04799976","category":"500","category_name":"未知分类","address":"上海文翔路1550号"},{"poiid":"B2094752D36DA5F9429D","title":"上海松江开元地中海影城","lon":"121.22453","lat":"31.04472","category":"178","category_name":"电影院","address":"松江区新松江路927弄4042号开元地中海商业广场4楼(近西林北路口)"},{"poiid":"B2094752D46BA1FD429D","title":"佘山国家森林公园","lon":"121.230003","lat":"31.040756","category":"250","category_name":"公园户外","address":"佘山塔隆"},{"poiid":"B2094757D16DA0FD409A","title":"一茶一座（开元地中海店）","lon":"121.22509546","lat":"31.046396858","category":"47","category_name":"住宅区","address":"松江区开元地中海3楼"},{"poiid":"B2094750DB6EABF8499D","title":"星辰园","lon":"121.23","lat":"31.051447","category":"47","category_name":"住宅区","address":"上海市松江区松江区梅家浜路1505弄"},{"poiid":"B2094655D26FABFB479E","title":"开元地中海","lon":"121.226","lat":"31.0447","category":"119","category_name":"商场","address":"上海松江区新松江路925号(人民北路口)"},{"poiid":"B2094654DB64A0FC4993","title":"上海市第一人民医院（南部分院）","lon":"121.22572","lat":"31.04036","category":"162","category_name":"医院","address":"近郊新松江路650号(近人民北路)"},{"poiid":"B2094655D26AA0FA459D","title":"地铁松江大学城站","lon":"121.2328121282244","lat":"31.053876849388867","category":"36","category_name":"地铁站","address":"上海市松江区"},{"poiid":"B2094757D06AA0F9409D","title":"上海外国语大学图文信息中心","lon":"121.225394867","lat":"31.0475109834","category":"253","category_name":"校园生活","address":"松江区文翔路1550号上海外国语大学图文信息中心"},{"poiid":"B2094654DB6EA2F8449A","title":"上海外国语大学（松江校区）","lon":"121.22192","lat":"31.04948","category":"671","category_name":"高校中心点","address":"上海市松江区文翔路1550号"},{"poiid":"B2094757D069A2FA429B","title":"中央公园","lon":"121.227502823","lat":"31.0360280584","category":"196","category_name":"公园","address":"上海松江新城翠湖路"},{"poiid":"B2094757D16EAAF9449E","title":"上海市交通大学附属第一人民医院南院9B","lon":"121.222828767","lat":"31.0419531613","category":"162","category_name":"医院","address":"上海市新松江路650号"},{"poiid":"B2094655D26FAAFA4592","title":"上外小别墅","lon":"121.22942","lat":"31.04522","category":"47","category_name":"住宅区","address":"松江区文翔路1550号上海外国语大学松江校区内(文翔路西林北路)"},{"poiid":"B2094757D064A1FA429D","title":"二期某寝室","lon":"121.220894","lat":"31.050056","category":"249","category_name":"购物服务","address":null},{"poiid":"B2094757D06FA2FA409F","title":"上海外国语大学英语学院","lon":"121.226543","lat":"31.047136","category":"253","category_name":"校园生活","address":"松江区文翔路1550号上海外国语大学五教楼(英院)"},{"poiid":"B2094655D268A1FE439C","title":"上海市第一人民医院(南部)急诊部","lon":"121.22573","lat":"31.04159","category":"162","category_name":"医院","address":"文翔路1485"},{"poiid":"B2094757D06FA0FE4893","title":"上海外国语大学三教楼","lon":"121.223651","lat":"31.0452","category":"253","category_name":"校园生活","address":"松江区文翔路1550号上海外国语大学三教楼(法语,德语,西方语系)"},{"poiid":"B2094757D06FABFB4798","title":"上海外国语大学教育会堂","lon":"121.22410545","lat":"31.044146872","category":"260","category_name":"其他","address":"上海松江区文翔路1550号"},{"poiid":"B2094757D569A2F8419D","title":"御上海","lon":"121.23415","lat":"31.049538","category":"47","category_name":"住宅区","address":"上海松江区谷阳北路2399弄"},{"poiid":"B2094757D164A2FC429A","title":"上海外国语大学西外外国语学校","lon":"121.23489246","lat":"31.042756779","category":"500","category_name":"未知分类","address":"松江区文翔路1100号"},{"poiid":"B2094757D06FA2FF4498","title":"上海外国语大学二教楼","lon":"121.223657","lat":"31.047221","category":"253","category_name":"校园生活","address":"松江区文翔路1550号上海外国语大学二教楼,(国际工商管理学院,国际金融贸易学院)"},{"poiid":"B2094757D06FA1FB4192","title":"上海外国语大学一教楼","lon":"121.223258","lat":"31.048041","category":"253","category_name":"校园生活","address":"松江区文翔路1550号上海外国语大学一教楼(国际教育学院,新闻传播学院)"},{"poiid":"B2094757D06FA5FD419E","title":"上海外国语大学法学院","lon":"121.226377","lat":"31.045086","category":"253","category_name":"校园生活","address":"松江区文翔路1550号上海外国语大学四教楼(法学院)"},{"poiid":"B2094654DB6EA2F8469A","title":"嘉和休闲广场","lon":"121.22469730537","lat":"31.038981603495","category":"201","category_name":"城市广场","address":"崇文区前门大街东打磨厂"},{"poiid":"B2094655D268A1FB429A","title":"新沙珑国际宾馆","lon":"121.23057","lat":"31.05185","category":"250","category_name":"公园户外","address":"松江区梅家浜路1501号(地铁9号线松江大学城站对面)"},{"poiid":"B2094757D06FA0FD4699","title":"上海外国语大学日本文化经济学院","lon":"121.22527859","lat":"31.049337791","category":"253","category_name":"校园生活","address":"松江区文翔路1550号上海外国语大学八教楼(日院)"},{"poiid":"B2094655D26DA6FD459B","title":"文景苑","lon":"121.2337","lat":"31.040943","category":"47","category_name":"住宅区","address":"上海市松江区文翔路1099弄"},{"poiid":"B2094654DB6DA4F4489C","title":"松云水苑","lon":"121.23747","lat":"31.044041","category":"47","category_name":"住宅区","address":"文翔路928弄"},{"poiid":"B2094654DB6EA2FB449D","title":"上海交通大学附属第一人民医院南院","lon":"121.22572","lat":"31.04037","category":"265","category_name":"知名企业","address":"新松江路1485号"},{"poiid":"B2094753D16EA0FD439B","title":"优麦克主题KTV","lon":"121.23027","lat":"31.05259","category":"170","category_name":"KTV","address":"松江区梅家浜路1500弄1号305(大学城地铁站对面)"},{"poiid":"B2094655D268A5F9459D","title":"大邱泾","lon":"121.2277","lat":"31.04603","category":"196","category_name":"公园","address":""},{"poiid":"B2094757D16CAAF9469C","title":"上外小别墅食堂","lon":"121.229416","lat":"31.045226","category":"253","category_name":"校园生活","address":"上海上外小别墅"},{"poiid":"B2094751D565A1FC4293","title":"麻里麻里","lon":"121.230762","lat":"31.0504426","category":"71","category_name":"四川菜","address":"松江区梅家浜路1500弄三湘财富广场内"},{"poiid":"B2094655D268A0FA4693","title":"沙珑餐店","lon":"121.23085","lat":"31.05185","category":"257","category_name":"中餐厅","address":"梅家浜路1501号"},{"poiid":"B2094655D36CA7F5499E","title":"谷阳北路文翔路","lon":"121.23525","lat":"31.045","category":"38","category_name":"公交车站","address":""},{"poiid":"B2094752D26DA0FD459B","title":"新石器烤肉(三湘店)","lon":"121.23001","lat":"31.05212","category":"68","category_name":"快餐厅","address":"松江区梅家浜路1500弄三湘财富广场(近9号线松江大学城站)"},{"poiid":"B2094655D26FA4F5469A","title":"上海外国语大学五教楼","lon":"121.22692","lat":"31.04708","category":"52","category_name":"高等院校","address":""},{"poiid":"B2094655D268A0FA479A","title":"神户亭铁板烧","lon":"121.23086","lat":"31.05185","category":"269","category_name":"烧烤","address":"松江区梅家浜路1501号新沙珑国际宾馆1楼(近松江大学城)"},{"poiid":"B2094655D26FA4F5479A","title":"上海外国语大学俄语系","lon":"121.22701","lat":"31.04812","category":"52","category_name":"高等院校","address":""},{"poiid":"B2094757D16CA3FD469C","title":"友福咖啡","lon":"121.2347618","lat":"31.0387261","category":"260","category_name":"其他","address":"松江区新松江路265号(近开元地中海)"},{"poiid":"B2094654DB6EA2F4449B","title":"名庭花苑","lon":"121.24","lat":"31.0444","category":"47","category_name":"住宅区","address":"上海市松江区新松江路259弄"},{"poiid":"B2094655D268A5F9469D","title":"快客No.5127","lon":"121.23363","lat":"31.04212","category":"117","category_name":"便民商店/便利店","address":"文翔路1105"},{"poiid":"B2094757D16EA3F9489A","title":"松江客运中心","lon":"121.23240902","lat":"31.049586111","category":"38","category_name":"公交车站","address":"松江区梅家浜路嘉松南路(近松江大学城站)"},{"poiid":"B2094757D064A0F4409A","title":"上海外国语大学东方语学院","lon":"121.22653476","lat":"31.048795114","category":"253","category_name":"校园生活","address":"松江区文翔路1550号上海外国语大学七教楼"},{"poiid":"B2094757D06BA4FB449E","title":"上外图文信息中心四楼外文阅览室","lon":"121.224923187","lat":"31.0472754707","category":"181","category_name":"图书馆","address":"松江区文翔路1550号上海外国语大学图文信息中心"},{"poiid":"B2094757D068A1FD449F","title":"上海外国语大学师生活动中心","lon":"121.224096","lat":"31.048878","category":"249","category_name":"购物服务","address":"松江区文翔路1550号上海外国语大学内"},{"poiid":"B2094655D268A6F9479F","title":"上外行政办公楼","lon":"121.22666","lat":"31.04356","category":"52","category_name":"高等院校","address":""},{"poiid":"B2094655D26BA2FD4393","title":"文翔路第一人民医院","lon":"121.22752","lat":"31.04239","category":"162","category_name":"医院","address":""},{"poiid":"B2094655D268A5F94592","title":"大邱泾(南门)","lon":"121.22769","lat":"31.0458","category":"680","category_name":"楼宇机构","address":""},{"poiid":"B2094757D16BA5FE4092","title":"上外3158","lon":"121.23461746","lat":"31.044823824","category":"500","category_name":"未知分类","address":"上海外国语大学三教楼"},{"poiid":"B2094757D16DA3FE469A","title":"上外松江教育会堂第一报告厅","lon":"121.22894948","lat":"31.04799976","category":"500","category_name":"未知分类","address":"上海文翔路1550号"},{"poiid":"B2094752D36DA5F9429D","title":"上海松江开元地中海影城","lon":"121.22453","lat":"31.04472","category":"178","category_name":"电影院","address":"松江区新松江路927弄4042号开元地中海商业广场4楼(近西林北路口)"},{"poiid":"B2094752D46BA1FD429D","title":"佘山国家森林公园","lon":"121.230003","lat":"31.040756","category":"250","category_name":"公园户外","address":"佘山塔隆"},{"poiid":"B2094757D16DA0FD409A","title":"一茶一座（开元地中海店）","lon":"121.22509546","lat":"31.046396858","category":"47","category_name":"住宅区","address":"松江区开元地中海3楼"},{"poiid":"B2094750DB6EABF8499D","title":"星辰园","lon":"121.23","lat":"31.051447","category":"47","category_name":"住宅区","address":"上海市松江区松江区梅家浜路1505弄"},{"poiid":"B2094655D26FABFB479E","title":"开元地中海","lon":"121.226","lat":"31.0447","category":"119","category_name":"商场","address":"上海松江区新松江路925号(人民北路口)"},{"poiid":"B2094654DB64A0FC4993","title":"上海市第一人民医院（南部分院）","lon":"121.22572","lat":"31.04036","category":"162","category_name":"医院","address":"近郊新松江路650号(近人民北路)"},{"poiid":"B2094655D26AA0FA459D","title":"地铁松江大学城站","lon":"121.2328121282244","lat":"31.053876849388867","category":"36","category_name":"地铁站","address":"上海市松江区"},{"poiid":"B2094757D06AA0F9409D","title":"上海外国语大学图文信息中心","lon":"121.225394867","lat":"31.0475109834","category":"253","category_name":"校园生活","address":"松江区文翔路1550号上海外国语大学图文信息中心"},{"poiid":"B2094654DB6EA2F8449A","title":"上海外国语大学（松江校区）","lon":"121.22192","lat":"31.04948","category":"671","category_name":"高校中心点","address":"上海市松江区文翔路1550号"},{"poiid":"B2094757D069A2FA429B","title":"中央公园","lon":"121.227502823","lat":"31.0360280584","category":"196","category_name":"公园","address":"上海松江新城翠湖路"},{"poiid":"B2094757D16EAAF9449E","title":"上海市交通大学附属第一人民医院南院9B","lon":"121.222828767","lat":"31.0419531613","category":"162","category_name":"医院","address":"上海市新松江路650号"},{"poiid":"B2094655D26FAAFA4592","title":"上外小别墅","lon":"121.22942","lat":"31.04522","category":"47","category_name":"住宅区","address":"松江区文翔路1550号上海外国语大学松江校区内(文翔路西林北路)"},{"poiid":"B2094757D064A1FA429D","title":"二期某寝室","lon":"121.220894","lat":"31.050056","category":"249","category_name":"购物服务","address":null},{"poiid":"B2094757D06FA2FA409F","title":"上海外国语大学英语学院","lon":"121.226543","lat":"31.047136","category":"253","category_name":"校园生活","address":"松江区文翔路1550号上海外国语大学五教楼(英院)"},{"poiid":"B2094655D268A1FE439C","title":"上海市第一人民医院(南部)急诊部","lon":"121.22573","lat":"31.04159","category":"162","category_name":"医院","address":"文翔路1485"},{"poiid":"B2094757D06FA0FE4893","title":"上海外国语大学三教楼","lon":"121.223651","lat":"31.0452","category":"253","category_name":"校园生活","address":"松江区文翔路1550号上海外国语大学三教楼(法语,德语,西方语系)"},{"poiid":"B2094757D06FABFB4798","title":"上海外国语大学教育会堂","lon":"121.22410545","lat":"31.044146872","category":"260","category_name":"其他","address":"上海松江区文翔路1550号"},{"poiid":"B2094757D569A2F8419D","title":"御上海","lon":"121.23415","lat":"31.049538","category":"47","category_name":"住宅区","address":"上海松江区谷阳北路2399弄"},{"poiid":"B2094757D164A2FC429A","title":"上海外国语大学西外外国语学校","lon":"121.23489246","lat":"31.042756779","category":"500","category_name":"未知分类","address":"松江区文翔路1100号"},{"poiid":"B2094757D06FA2FF4498","title":"上海外国语大学二教楼","lon":"121.223657","lat":"31.047221","category":"253","category_name":"校园生活","address":"松江区文翔路1550号上海外国语大学二教楼,(国际工商管理学院,国际金融贸易学院)"},{"poiid":"B2094757D06FA1FB4192","title":"上海外国语大学一教楼","lon":"121.223258","lat":"31.048041","category":"253","category_name":"校园生活","address":"松江区文翔路1550号上海外国语大学一教楼(国际教育学院,新闻传播学院)"},{"poiid":"B2094757D06FA5FD419E","title":"上海外国语大学法学院","lon":"121.226377","lat":"31.045086","category":"253","category_name":"校园生活","address":"松江区文翔路1550号上海外国语大学四教楼(法学院)"},{"poiid":"B2094654DB6EA2F8469A","title":"嘉和休闲广场","lon":"121.22469730537","lat":"31.038981603495","category":"201","category_name":"城市广场","address":"崇文区前门大街东打磨厂"},{"poiid":"B2094655D268A1FB429A","title":"新沙珑国际宾馆","lon":"121.23057","lat":"31.05185","category":"250","category_name":"公园户外","address":"松江区梅家浜路1501号(地铁9号线松江大学城站对面)"},{"poiid":"B2094757D06FA0FD4699","title":"上海外国语大学日本文化经济学院","lon":"121.22527859","lat":"31.049337791","category":"253","category_name":"校园生活","address":"松江区文翔路1550号上海外国语大学八教楼(日院)"},{"poiid":"B2094655D26DA6FD459B","title":"文景苑","lon":"121.2337","lat":"31.040943","category":"47","category_name":"住宅区","address":"上海市松江区文翔路1099弄"},{"poiid":"B2094654DB6DA4F4489C","title":"松云水苑","lon":"121.23747","lat":"31.044041","category":"47","category_name":"住宅区","address":"文翔路928弄"},{"poiid":"B2094654DB6EA2FB449D","title":"上海交通大学附属第一人民医院南院","lon":"121.22572","lat":"31.04037","category":"265","category_name":"知名企业","address":"新松江路1485号"},{"poiid":"B2094753D16EA0FD439B","title":"优麦克主题KTV","lon":"121.23027","lat":"31.05259","category":"170","category_name":"KTV","address":"松江区梅家浜路1500弄1号305(大学城地铁站对面)"},{"poiid":"B2094655D268A5F9459D","title":"大邱泾","lon":"121.2277","lat":"31.04603","category":"196","category_name":"公园","address":""},{"poiid":"B2094757D16CAAF9469C","title":"上外小别墅食堂","lon":"121.229416","lat":"31.045226","category":"253","category_name":"校园生活","address":"上海上外小别墅"},{"poiid":"B2094751D565A1FC4293","title":"麻里麻里","lon":"121.230762","lat":"31.0504426","category":"71","category_name":"四川菜","address":"松江区梅家浜路1500弄三湘财富广场内"},{"poiid":"B2094655D268A0FA4693","title":"沙珑餐店","lon":"121.23085","lat":"31.05185","category":"257","category_name":"中餐厅","address":"梅家浜路1501号"},{"poiid":"B2094655D36CA7F5499E","title":"谷阳北路文翔路","lon":"121.23525","lat":"31.045","category":"38","category_name":"公交车站","address":""},{"poiid":"B2094752D26DA0FD459B","title":"新石器烤肉(三湘店)","lon":"121.23001","lat":"31.05212","category":"68","category_name":"快餐厅","address":"松江区梅家浜路1500弄三湘财富广场(近9号线松江大学城站)"},{"poiid":"B2094655D26FA4F5469A","title":"上海外国语大学五教楼","lon":"121.22692","lat":"31.04708","category":"52","category_name":"高等院校","address":""},{"poiid":"B2094655D268A0FA479A","title":"神户亭铁板烧","lon":"121.23086","lat":"31.05185","category":"269","category_name":"烧烤","address":"松江区梅家浜路1501号新沙珑国际宾馆1楼(近松江大学城)"},{"poiid":"B2094655D26FA4F5479A","title":"上海外国语大学俄语系","lon":"121.22701","lat":"31.04812","category":"52","category_name":"高等院校","address":""},{"poiid":"B2094757D16CA3FD469C","title":"友福咖啡","lon":"121.2347618","lat":"31.0387261","category":"260","category_name":"其他","address":"松江区新松江路265号(近开元地中海)"},{"poiid":"B2094654DB6EA2F4449B","title":"名庭花苑","lon":"121.24","lat":"31.0444","category":"47","category_name":"住宅区","address":"上海市松江区新松江路259弄"},{"poiid":"B2094655D268A5F9469D","title":"快客No.5127","lon":"121.23363","lat":"31.04212","category":"117","category_name":"便民商店/便利店","address":"文翔路1105"},{"poiid":"B2094757D16EA3F9489A","title":"松江客运中心","lon":"121.23240902","lat":"31.049586111","category":"38","category_name":"公交车站","address":"松江区梅家浜路嘉松南路(近松江大学城站)"},{"poiid":"B2094757D064A0F4409A","title":"上海外国语大学东方语学院","lon":"121.22653476","lat":"31.048795114","category":"253","category_name":"校园生活","address":"松江区文翔路1550号上海外国语大学七教楼"},{"poiid":"B2094757D06BA4FB449E","title":"上外图文信息中心四楼外文阅览室","lon":"121.224923187","lat":"31.0472754707","category":"181","category_name":"图书馆","address":"松江区文翔路1550号上海外国语大学图文信息中心"},{"poiid":"B2094757D068A1FD449F","title":"上海外国语大学师生活动中心","lon":"121.224096","lat":"31.048878","category":"249","category_name":"购物服务","address":"松江区文翔路1550号上海外国语大学内"},{"poiid":"B2094655D268A6F9479F","title":"上外行政办公楼","lon":"121.22666","lat":"31.04356","category":"52","category_name":"高等院校","address":""},{"poiid":"B2094655D26BA2FD4393","title":"文翔路第一人民医院","lon":"121.22752","lat":"31.04239","category":"162","category_name":"医院","address":""},{"poiid":"B2094655D268A5F94592","title":"大邱泾(南门)","lon":"121.22769","lat":"31.0458","category":"680","category_name":"楼宇机构","address":""},{"poiid":"B2094757D16BA5FE4092","title":"上外3158","lon":"121.23461746","lat":"31.044823824","category":"500","category_name":"未知分类","address":"上海外国语大学三教楼"},{"poiid":"B2094757D16DA3FE469A","title":"上外松江教育会堂第一报告厅","lon":"121.22894948","lat":"31.04799976","category":"500","category_name":"未知分类","address":"上海文翔路1550号"},{"poiid":"B2094752D36DA5F9429D","title":"上海松江开元地中海影城","lon":"121.22453","lat":"31.04472","category":"178","category_name":"电影院","address":"松江区新松江路927弄4042号开元地中海商业广场4楼(近西林北路口)"},{"poiid":"B2094752D46BA1FD429D","title":"佘山国家森林公园","lon":"121.230003","lat":"31.040756","category":"250","category_name":"公园户外","address":"佘山塔隆"},{"poiid":"B2094757D16DA0FD409A","title":"一茶一座（开元地中海店）","lon":"121.22509546","lat":"31.046396858","category":"47","category_name":"住宅区","address":"松江区开元地中海3楼"},{"poiid":"B2094750DB6EABF8499D","title":"星辰园","lon":"121.23","lat":"31.051447","category":"47","category_name":"住宅区","address":"上海市松江区松江区梅家浜路1505弄"}]