[{"poiid":"B2094655D26EA0FC4098","title":"上海师范大学(徐汇校区)","lon":"121.41925","lat":"31.16163","category":"52","category_name":"高等院校","address":"徐汇区桂林路100号上海师范大学内(近钦州南路)"},{"poiid":"B2094654DB64A2F94698","title":"上海师范大学第一教学大楼","lon":"121.41706","lat":"31.16147","category":"52","category_name":"高等院校","address":""},{"poiid":"B2094750DA65A5FA419C","title":"辣串门","lon":"121.419754","lat":"31.158313","category":"71","category_name":"四川菜","address":"徐汇区钦州南路607号(近桂林路)"},{"poiid":"B2094757D069A3FB4593","title":"上海师范大学 四教","lon":"121.421108086","lat":"31.1598083047","category":"253","category_name":"校园生活","address":"上海师范大学徐汇校区第四教学楼"},{"poiid":"B2094757D06FA7F54392","title":"上海师范大学 金融学院","lon":"121.41932158","lat":"31.161750092","category":"253","category_name":"校园生活","address":"上海市徐汇区桂林路100号"},{"poiid":"B2094751D36FA0F5459D","title":"家在塔啦蒙古特色餐厅","lon":"121.42051","lat":"31.15728","category":"84","category_name":"西北菜","address":"徐汇区桂林路37号2楼(近钦州南路)"},{"poiid":"B2094757D06FAAFC4099","title":"上海师范大学东部礼堂","lon":"121.420266","lat":"31.16158","category":"249","category_name":"购物服务","address":"徐汇区桂林路100号上海师范大学内(近钦州南路)"},{"poiid":"B2094757D06AABFC409D","title":"mayli's coffee","lon":"121.41984958","lat":"31.159027039","category":"260","category_name":"其他","address":"徐汇区桂林路64号(近钦州南路)"},{"poiid":"B2094757D068AAF94593","title":"三只熊韩国料理","lon":"121.41581726","lat":"31.160243988","category":"96","category_name":"韩国料理","address":"徐汇区桂林路100号东部校区紫薇苑2楼"},{"poiid":"B2094655D26FABFF449C","title":"上海师范大学图书馆","lon":"121.41513","lat":"31.16249","category":"181","category_name":"图书馆","address":"市桂林路100号;奉贤校区:上海市奉炮路553号"},{"poiid":"B2094757D064A5F5429E","title":"上海师范大学 音乐学院","lon":"121.42111953","lat":"31.161471007","category":"500","category_name":"未知分类","address":"上海徐汇区桂林路100号"},{"poiid":"B2094757D06FABF8469C","title":"上师大教苑楼","lon":"121.420818","lat":"31.16155","category":"253","category_name":"校园生活","address":"上海师范大学徐汇东部校区"},{"poiid":"B2094757D064A1F54893","title":"上海师范大学(徐汇校区)韩国料理","lon":"121.415189483","lat":"31.1605937547","category":"500","category_name":"未知分类","address":"上海桂林路100号香樟苑2楼"},{"poiid":"B2094757D06FA6F44293","title":"肯德基 KFC (钦州南路店)","lon":"121.420366474","lat":"31.1577847392","category":"68","category_name":"快餐厅","address":"徐汇区桂林路39号(近钦州南路)"},{"poiid":"B2094655D26FABFE4492","title":"上海师范大学香樟苑","lon":"121.41528","lat":"31.16032","category":"52","category_name":"高等院校","address":""},{"poiid":"B2094757DB6DA5F94699","title":"维也纳酒店（上海南站光大店）","lon":"121.419868469","lat":"31.156417596","category":"216","category_name":"经济型连锁酒店","address":"徐汇区桂林路46号徐汇工人文化中心内(近桂林西街)"},{"poiid":"B2094655D26FA4F4489A","title":"上海师范大学体育场","lon":"121.41722","lat":"31.16043","category":"224","category_name":"综合体育馆","address":""},{"poiid":"B2094654DB6AA6FF459A","title":"上海教育国际交流中心","lon":"121.42129","lat":"31.15932","category":"250","category_name":"公园户外","address":"上海市徐汇区桂林路55号(近钦州南路)"},{"poiid":"B2094757D065A6F44799","title":"上海市徐汇区委党校","lon":"121.42081353","lat":"31.158989613","category":"500","category_name":"未知分类","address":"上海钦州南路567号"},{"poiid":"B2094654DA65A6FC489D","title":"避风塘 上师大店","lon":"121.419446054","lat":"31.159835793","category":"111","category_name":"休闲餐饮场所","address":"徐汇区桂林路68号(近上海师范大学)"},{"poiid":"B2094757D068A4FE4899","title":"上海师大新村","lon":"121.4197685","lat":"31.1597457","category":"47","category_name":"住宅区","address":"上海市徐汇区桂林路70弄"},{"poiid":"B2094757D064A7F5429C","title":"上海师范大学校医院（徐汇校区）","lon":"121.41705158","lat":"31.160499068","category":"162","category_name":"医院","address":"上海桂林路100号"},{"poiid":"B2094757D06BA3FA4293","title":"上海师范大学 体化楼","lon":"121.41631288","lat":"31.162117226","category":"253","category_name":"校园生活","address":"上海徐汇区桂林路100号,西部"},{"poiid":"B2094655D268A5F4499F","title":"上海师范大学会议中心","lon":"121.41941","lat":"31.16035","category":"185","category_name":"会展中心","address":""},{"poiid":"B2094757D665A0F9469B","title":"缤纷谷 上师大店","lon":"121.41902","lat":"31.16113","category":"67","category_name":"甜品店","address":"徐汇区桂林路100号上海师范大学西部食堂(近钦州南路)"},{"poiid":"B2094655D268A0FB4092","title":"萨拉欢乐餐厅","lon":"121.41482","lat":"31.15996","category":"94","category_name":"西餐厅","address":"徐汇区桂林路100号上海师范大学西部内(近钦州南路)"},{"poiid":"B2094757D06BA6F54693","title":"乔家大院东北菜","lon":"121.42141","lat":"31.15727","category":"82","category_name":"东北菜","address":"徐汇区桂林东街217号康乐小区"},{"poiid":"B2094757D664A7FF439F","title":"笑缘美食广场","lon":"121.41651","lat":"31.15976","category":"68","category_name":"快餐厅","address":"徐汇区桂林路100号上海师范大学内(近钦州南路)"},{"poiid":"B2094655D26FABF8449B","title":"上海师范大学外宾楼","lon":"121.4183","lat":"31.16041","category":"52","category_name":"高等院校","address":""},{"poiid":"B2094655D36CA2F4479F","title":"上海师大","lon":"121.41938","lat":"31.16205","category":"38","category_name":"公交车站","address":""},{"poiid":"B2094757D06AA2FF4798","title":"上海师范大学附属中学","lon":"121.419041","lat":"31.163372","category":"253","category_name":"校园生活","address":"徐汇区桂林路100号上海师范大学内(近钦州南路)"},{"poiid":"B2094757D06FA2FB469D","title":"美丽咖啡馆","lon":"121.41975647","lat":"31.158919741","category":"217","category_name":"旅馆招待所","address":"上海徐汇区桂林路64-2号"},{"poiid":"B2094757D06BA6F54293","title":"重庆鸡公煲(上师大店)","lon":"121.41825","lat":"31.16075","category":"71","category_name":"四川菜","address":"徐汇区桂林路100号上海师范大学内(近钦州南路)"},{"poiid":"B2094757D46EA2FD4398","title":"翔寿司 桂林路店","lon":"121.419127","lat":"31.162943","category":"95","category_name":"日本料理","address":"徐汇区桂林路116号(近上海师范大学)"},{"poiid":"B2094757D665A2F4429B","title":"巴麦隆烤肉 桂林路店","lon":"121.419963","lat":"31.157932","category":"68","category_name":"快餐厅","address":"徐汇区桂林路50号(钦州南路口)"},{"poiid":"B2094655D26FABFE449C","title":"上海师范大学丹桂苑","lon":"121.41432","lat":"31.15969","category":"257","category_name":"中餐厅","address":"虹漕南路出口"},{"poiid":"B2094655D26FA6FE479E","title":"韩国料理(上海师范大学店)","lon":"121.41753","lat":"31.16152","category":"96","category_name":"韩国料理","address":"桂林路100号上师大食堂2楼"},{"poiid":"B2094655D26FA5F8419D","title":"长兴坊","lon":"121.41614","lat":"31.156137","category":"47","category_name":"住宅区","address":"桂林西街15弄1-85号"},{"poiid":"B2094655D268A5F4419B","title":"上海师范大学球类馆","lon":"121.4188","lat":"31.1608","category":"224","category_name":"综合体育馆","address":""},{"poiid":"B2094655D26FAAFD469F","title":"紫竹园","lon":"121.421","lat":"31.1583","category":"47","category_name":"住宅区","address":"上海徐汇区浦北路948弄"},{"poiid":"B2094757D469A5FF4799","title":"悸动台湾正宗烧仙草 上师大店","lon":"121.419468054","lat":"31.160151793","category":"67","category_name":"甜品店","address":"徐汇区桂林路112-2号(上海师范大学门口)"},{"poiid":"B2094655D26FABF84393","title":"上海师范大学办公大楼","lon":"121.41899","lat":"31.16012","category":"52","category_name":"高等院校","address":"上海徐汇区梅陇路130号华东理工大学徐汇校区"},{"poiid":"B2094654DB6CA7F44593","title":"湘轩湖南乡土风味桂林店","lon":"121.42044","lat":"31.15766","category":"77","category_name":"湖南菜","address":"徐汇区桂林路37号(近钦州南路)"},{"poiid":"B2094655D26DA7F54799","title":"上海师大新村(南门)","lon":"121.41697","lat":"31.1578","category":"47","category_name":"住宅区","address":"钦州南路650"},{"poiid":"B2094655D265A3FC489A","title":"上海师范大学西部第十四学生宿舍","lon":"121.41456","lat":"31.1587","category":"47","category_name":"住宅区","address":""},{"poiid":"B2094757D469A0F44099","title":"川味麻辣烫 上师大店","lon":"121.419207054","lat":"31.161517793","category":"68","category_name":"快餐厅","address":"徐汇区桂林路100号上师大旁(近钦州南路)"},{"poiid":"B2094654DA65A6FC489C","title":"南京游子老鸭粉丝汤(桂林路)","lon":"121.41953","lat":"31.15958","category":"68","category_name":"快餐厅","address":"徐汇区桂林路68号(近避风塘茶楼)"},{"poiid":"B2094757D06FAAFC479D","title":"上海市民进自强进修学院(漕宝路校区)","lon":"121.41656494","lat":"31.162584304","category":"217","category_name":"旅馆招待所","address":"上海市徐汇区漕宝路300号(近桂林公园)"},{"poiid":"B2094655D264A2F8429E","title":"上师大紫薇休闲吧","lon":"121.41752","lat":"31.16152","category":"68","category_name":"快餐厅","address":"徐汇区桂林路100号上海师范大学内(近钦州南路)"},{"poiid":"B2094655D265A7FC4099","title":"上师大外宾楼餐厅","lon":"121.41753","lat":"31.16152","category":"76","category_name":"上海菜","address":"徐汇区桂林路100号上海师范大学内(近钦州南路)"},{"poiid":"B2094655D26EA0FC4098","title":"上海师范大学(徐汇校区)","lon":"121.41925","lat":"31.16163","category":"52","category_name":"高等院校","address":"徐汇区桂林路100号上海师范大学内(近钦州南路)"},{"poiid":"B2094654DB64A2F94698","title":"上海师范大学第一教学大楼","lon":"121.41706","lat":"31.16147","category":"52","category_name":"高等院校","address":""},{"poiid":"B2094750DA65A5FA419C","title":"辣串门","lon":"121.419754","lat":"31.158313","category":"71","category_name":"四川菜","address":"徐汇区钦州南路607号(近桂林路)"},{"poiid":"B2094757D069A3FB4593","title":"上海师范大学 四教","lon":"121.421108086","lat":"31.1598083047","category":"253","category_name":"校园生活","address":"上海师范大学徐汇校区第四教学楼"},{"poiid":"B2094757D06FA7F54392","title":"上海师范大学 金融学院","lon":"121.41932158","lat":"31.161750092","category":"253","category_name":"校园生活","address":"上海市徐汇区桂林路100号"},{"poiid":"B2094751D36FA0F5459D","title":"家在塔啦蒙古特色餐厅","lon":"121.42051","lat":"31.15728","category":"84","category_name":"西北菜","address":"徐汇区桂林路37号2楼(近钦州南路)"},{"poiid":"B2094757D06FAAFC4099","title":"上海师范大学东部礼堂","lon":"121.420266","lat":"31.16158","category":"249","category_name":"购物服务","address":"徐汇区桂林路100号上海师范大学内(近钦州南路)"},{"poiid":"B2094757D06AABFC409D","title":"mayli's coffee","lon":"121.41984958","lat":"31.159027039","category":"260","category_name":"其他","address":"徐汇区桂林路64号(近钦州南路)"},{"poiid":"B2094757D068AAF94593","title":"三只熊韩国料理","lon":"121.41581726","lat":"31.160243988","category":"96","category_name":"韩国料理","address":"徐汇区桂林路100号东部校区紫薇苑2楼"},{"poiid":"B2094655D26FABFF449C","title":"上海师范大学图书馆","lon":"121.41513","lat":"31.16249","category":"181","category_name":"图书馆","address":"市桂林路100号;奉贤校区:上海市奉炮路553号"},{"poiid":"B2094757D064A5F5429E","title":"上海师范大学 音乐学院","lon":"121.42111953","lat":"31.161471007","category":"500","category_name":"未知分类","address":"上海徐汇区桂林路100号"},{"poiid":"B2094757D06FABF8469C","title":"上师大教苑楼","lon":"121.420818","lat":"31.16155","category":"253","category_name":"校园生活","address":"上海师范大学徐汇东部校区"},{"poiid":"B2094757D064A1F54893","title":"上海师范大学(徐汇校区)韩国料理","lon":"121.415189483","lat":"31.1605937547","category":"500","category_name":"未知分类","address":"上海桂林路100号香樟苑2楼"},{"poiid":"B2094757D06FA6F44293","title":"肯德基 KFC (钦州南路店)","lon":"121.420366474","lat":"31.1577847392","category":"68","category_name":"快餐厅","address":"徐汇区桂林路39号(近钦州南路)"},{"poiid":"B2094655D26FABFE4492","title":"上海师范大学香樟苑","lon":"121.41528","lat":"31.16032","category":"52","category_name":"高等院校","address":""},{"poiid":"B2094757DB6DA5F94699","title":"维也纳酒店（上海南站光大店）","lon":"121.419868469","lat":"31.156417596","category":"216","category_name":"经济型连锁酒店","address":"徐汇区桂林路46号徐汇工人文化中心内(近桂林西街)"},{"poiid":"B2094655D26FA4F4489A","title":"上海师范大学体育场","lon":"121.41722","lat":"31.16043","category":"224","category_name":"综合体育馆","address":""},{"poiid":"B2094654DB6AA6FF459A","title":"上海教育国际交流中心","lon":"121.42129","lat":"31.15932","category":"250","category_name":"公园户外","address":"上海市徐汇区桂林路55号(近钦州南路)"},{"poiid":"B2094757D065A6F44799","title":"上海市徐汇区委党校","lon":"121.42081353","lat":"31.158989613","category":"500","category_name":"未知分类","address":"上海钦州南路567号"},{"poiid":"B2094654DA65A6FC489D","title":"避风塘 上师大店","lon":"121.419446054","lat":"31.159835793","category":"111","category_name":"休闲餐饮场所","address":"徐汇区桂林路68号(近上海师范大学)"},{"poiid":"B2094757D068A4FE4899","title":"上海师大新村","lon":"121.4197685","lat":"31.1597457","category":"47","category_name":"住宅区","address":"上海市徐汇区桂林路70弄"},{"poiid":"B2094757D064A7F5429C","title":"上海师范大学校医院（徐汇校区）","lon":"121.41705158","lat":"31.160499068","category":"162","category_name":"医院","address":"上海桂林路100号"},{"poiid":"B2094757D06BA3FA4293","title":"上海师范大学 体化楼","lon":"121.41631288","lat":"31.162117226","category":"253","category_name":"校园生活","address":"上海徐汇区桂林路100号,西部"},{"poiid":"B2094655D268A5F4499F","title":"上海师范大学会议中心","lon":"121.41941","lat":"31.16035","category":"185","category_name":"会展中心","address":""},{"poiid":"B2094757D665A0F9469B","title":"缤纷谷 上师大店","lon":"121.41902","lat":"31.16113","category":"67","category_name":"甜品店","address":"徐汇区桂林路100号上海师范大学西部食堂(近钦州南路)"},{"poiid":"B2094655D268A0FB4092","title":"萨拉欢乐餐厅","lon":"121.41482","lat":"31.15996","category":"94","category_name":"西餐厅","address":"徐汇区桂林路100号上海师范大学西部内(近钦州南路)"},{"poiid":"B2094757D06BA6F54693","title":"乔家大院东北菜","lon":"121.42141","lat":"31.15727","category":"82","category_name":"东北菜","address":"徐汇区桂林东街217号康乐小区"},{"poiid":"B2094757D664A7FF439F","title":"笑缘美食广场","lon":"121.41651","lat":"31.15976","category":"68","category_name":"快餐厅","address":"徐汇区桂林路100号上海师范大学内(近钦州南路)"},{"poiid":"B2094655D26FABF8449B","title":"上海师范大学外宾楼","lon":"121.4183","lat":"31.16041","category":"52","category_name":"高等院校","address":""},{"poiid":"B2094655D36CA2F4479F","title":"上海师大","lon":"121.41938","lat":"31.16205","category":"38","category_name":"公交车站","address":""},{"poiid":"B2094757D06AA2FF4798","title":"上海师范大学附属中学","lon":"121.419041","lat":"31.163372","category":"253","category_name":"校园生活","address":"徐汇区桂林路100号上海师范大学内(近钦州南路)"},{"poiid":"B2094757D06FA2FB469D","title":"美丽咖啡馆","lon":"121.41975647","lat":"31.158919741","category":"217","category_name":"旅馆招待所","address":"上海徐汇区桂林路64-2号"},{"poiid":"B2094757D06BA6F54293","title":"重庆鸡公煲(上师大店)","lon":"121.41825","lat":"31.16075","category":"71","category_name":"四川菜","address":"徐汇区桂林路100号上海师范大学内(近钦州南路)"},{"poiid":"B2094757D46EA2FD4398","title":"翔寿司 桂林路店","lon":"121.419127","lat":"31.162943","category":"95","category_name":"日本料理","address":"徐汇区桂林路116号(近上海师范大学)"},{"poiid":"B2094757D665A2F4429B","title":"巴麦隆烤肉 桂林路店","lon":"121.419963","lat":"31.157932","category":"68","category_name":"快餐厅","address":"徐汇区桂林路50号(钦州南路口)"},{"poiid":"B2094655D26FABFE449C","title":"上海师范大学丹桂苑","lon":"121.41432","lat":"31.15969","category":"257","category_name":"中餐厅","address":"虹漕南路出口"},{"poiid":"B2094655D26FA6FE479E","title":"韩国料理(上海师范大学店)","lon":"121.41753","lat":"31.16152","category":"96","category_name":"韩国料理","address":"桂林路100号上师大食堂2楼"},{"poiid":"B2094655D26FA5F8419D","title":"长兴坊","lon":"121.41614","lat":"31.156137","category":"47","category_name":"住宅区","address":"桂林西街15弄1-85号"},{"poiid":"B2094655D268A5F4419B","title":"上海师范大学球类馆","lon":"121.4188","lat":"31.1608","category":"224","category_name":"综合体育馆","address":""},{"poiid":"B2094655D26FAAFD469F","title":"紫竹园","lon":"121.421","lat":"31.1583","category":"47","category_name":"住宅区","address":"上海徐汇区浦北路948弄"},{"poiid":"B2094757D469A5FF4799","title":"悸动台湾正宗烧仙草 上师大店","lon":"121.419468054","lat":"31.160151793","category":"67","category_name":"甜品店","address":"徐汇区桂林路112-2号(上海师范大学门口)"},{"poiid":"B2094655D26FABF84393","title":"上海师范大学办公大楼","lon":"121.41899","lat":"31.16012","category":"52","category_name":"高等院校","address":"上海徐汇区梅陇路130号华东理工大学徐汇校区"},{"poiid":"B2094654DB6CA7F44593","title":"湘轩湖南乡土风味桂林店","lon":"121.42044","lat":"31.15766","category":"77","category_name":"湖南菜","address":"徐汇区桂林路37号(近钦州南路)"},{"poiid":"B2094655D26DA7F54799","title":"上海师大新村(南门)","lon":"121.41697","lat":"31.1578","category":"47","category_name":"住宅区","address":"钦州南路650"},{"poiid":"B2094655D265A3FC489A","title":"上海师范大学西部第十四学生宿舍","lon":"121.41456","lat":"31.1587","category":"47","category_name":"住宅区","address":""},{"poiid":"B2094757D469A0F44099","title":"川味麻辣烫 上师大店","lon":"121.419207054","lat":"31.161517793","category":"68","category_name":"快餐厅","address":"徐汇区桂林路100号上师大旁(近钦州南路)"},{"poiid":"B2094654DA65A6FC489C","title":"南京游子老鸭粉丝汤(桂林路)","lon":"121.41953","lat":"31.15958","category":"68","category_name":"快餐厅","address":"徐汇区桂林路68号(近避风塘茶楼)"},{"poiid":"B2094757D06FAAFC479D","title":"上海市民进自强进修学院(漕宝路校区)","lon":"121.41656494","lat":"31.162584304","category":"217","category_name":"旅馆招待所","address":"上海市徐汇区漕宝路300号(近桂林公园)"},{"poiid":"B2094655D264A2F8429E","title":"上师大紫薇休闲吧","lon":"121.41752","lat":"31.16152","category":"68","category_name":"快餐厅","address":"徐汇区桂林路100号上海师范大学内(近钦州南路)"},{"poiid":"B2094655D265A7FC4099","title":"上师大外宾楼餐厅","lon":"121.41753","lat":"31.16152","category":"76","category_name":"上海菜","address":"徐汇区桂林路100号上海师范大学内(近钦州南路)"},{"poiid":"B2094655D26EA0FC4098","title":"上海师范大学(徐汇校区)","lon":"121.41925","lat":"31.16163","category":"52","category_name":"高等院校","address":"徐汇区桂林路100号上海师范大学内(近钦州南路)"},{"poiid":"B2094654DB64A2F94698","title":"上海师范大学第一教学大楼","lon":"121.41706","lat":"31.16147","category":"52","category_name":"高等院校","address":""},{"poiid":"B2094750DA65A5FA419C","title":"辣串门","lon":"121.419754","lat":"31.158313","category":"71","category_name":"四川菜","address":"徐汇区钦州南路607号(近桂林路)"},{"poiid":"B2094757D069A3FB4593","title":"上海师范大学 四教","lon":"121.421108086","lat":"31.1598083047","category":"253","category_name":"校园生活","address":"上海师范大学徐汇校区第四教学楼"},{"poiid":"B2094757D06FA7F54392","title":"上海师范大学 金融学院","lon":"121.41932158","lat":"31.161750092","category":"253","category_name":"校园生活","address":"上海市徐汇区桂林路100号"},{"poiid":"B2094751D36FA0F5459D","title":"家在塔啦蒙古特色餐厅","lon":"121.42051","lat":"31.15728","category":"84","category_name":"西北菜","address":"徐汇区桂林路37号2楼(近钦州南路)"},{"poiid":"B2094757D06FAAFC4099","title":"上海师范大学东部礼堂","lon":"121.420266","lat":"31.16158","category":"249","category_name":"购物服务","address":"徐汇区桂林路100号上海师范大学内(近钦州南路)"},{"poiid":"B2094757D06AABFC409D","title":"mayli's coffee","lon":"121.41984958","lat":"31.159027039","category":"260","category_name":"其他","address":"徐汇区桂林路64号(近钦州南路)"},{"poiid":"B2094757D068AAF94593","title":"三只熊韩国料理","lon":"121.41581726","lat":"31.160243988","category":"96","category_name":"韩国料理","address":"徐汇区桂林路100号东部校区紫薇苑2楼"},{"poiid":"B2094655D26FABFF449C","title":"上海师范大学图书馆","lon":"121.41513","lat":"31.16249","category":"181","category_name":"图书馆","address":"市桂林路100号;奉贤校区:上海市奉炮路553号"},{"poiid":"B2094757D064A5F5429E","title":"上海师范大学 音乐学院","lon":"121.42111953","lat":"31.161471007","category":"500","category_name":"未知分类","address":"上海徐汇区桂林路100号"},{"poiid":"B2094757D06FABF8469C","title":"上师大教苑楼","lon":"121.420818","lat":"31.16155","category":"253","category_name":"校园生活","address":"上海师范大学徐汇东部校区"},{"poiid":"B2094757D064A1F54893","title":"上海师范大学(徐汇校区)韩国料理","lon":"121.415189483","lat":"31.1605937547","category":"500","category_name":"未知分类","address":"上海桂林路100号香樟苑2楼"},{"poiid":"B2094757D06FA6F44293","title":"肯德基 KFC (钦州南路店)","lon":"121.420366474","lat":"31.1577847392","category":"68","category_name":"快餐厅","address":"徐汇区桂林路39号(近钦州南路)"},{"poiid":"B2094655D26FABFE4492","title":"上海师范大学香樟苑","lon":"121.41528","lat":"31.16032","category":"52","category_name":"高等院校","address":""},{"poiid":"B2094757DB6DA5F94699","title":"维也纳酒店（上海南站光大店）","lon":"121.419868469","lat":"31.156417596","category":"216","category_name":"经济型连锁酒店","address":"徐汇区桂林路46号徐汇工人文化中心内(近桂林西街)"},{"poiid":"B2094655D26FA4F4489A","title":"上海师范大学体育场","lon":"121.41722","lat":"31.16043","category":"224","category_name":"综合体育馆","address":""},{"poiid":"B2094654DB6AA6FF459A","title":"上海教育国际交流中心","lon":"121.42129","lat":"31.15932","category":"250","category_name":"公园户外","address":"上海市徐汇区桂林路55号(近钦州南路)"},{"poiid":"B2094757D065A6F44799","title":"上海市徐汇区委党校","lon":"121.42081353","lat":"31.158989613","category":"500","category_name":"未知分类","address":"上海钦州南路567号"},{"poiid":"B2094654DA65A6FC489D","title":"避风塘 上师大店","lon":"121.419446054","lat":"31.159835793","category":"111","category_name":"休闲餐饮场所","address":"徐汇区桂林路68号(近上海师范大学)"},{"poiid":"B2094757D068A4FE4899","title":"上海师大新村","lon":"121.4197685","lat":"31.1597457","category":"47","category_name":"住宅区","address":"上海市徐汇区桂林路70弄"},{"poiid":"B2094757D064A7F5429C","title":"上海师范大学校医院（徐汇校区）","lon":"121.41705158","lat":"31.160499068","category":"162","category_name":"医院","address":"上海桂林路100号"},{"poiid":"B2094757D06BA3FA4293","title":"上海师范大学 体化楼","lon":"121.41631288","lat":"31.162117226","category":"253","category_name":"校园生活","address":"上海徐汇区桂林路100号,西部"},{"poiid":"B2094655D268A5F4499F","title":"上海师范大学会议中心","lon":"121.41941","lat":"31.16035","category":"185","category_name":"会展中心","address":""},{"poiid":"B2094757D665A0F9469B","title":"缤纷谷 上师大店","lon":"121.41902","lat":"31.16113","category":"67","category_name":"甜品店","address":"徐汇区桂林路100号上海师范大学西部食堂(近钦州南路)"},{"poiid":"B2094655D268A0FB4092","title":"萨拉欢乐餐厅","lon":"121.41482","lat":"31.15996","category":"94","category_name":"西餐厅","address":"徐汇区桂林路100号上海师范大学西部内(近钦州南路)"},{"poiid":"B2094757D06BA6F54693","title":"乔家大院东北菜","lon":"121.42141","lat":"31.15727","category":"82","category_name":"东北菜","address":"徐汇区桂林东街217号康乐小区"},{"poiid":"B2094757D664A7FF439F","title":"笑缘美食广场","lon":"121.41651","lat":"31.15976","category":"68","category_name":"快餐厅","address":"徐汇区桂林路100号上海师范大学内(近钦州南路)"},{"poiid":"B2094655D26FABF8449B","title":"上海师范大学外宾楼","lon":"121.4183","lat":"31.16041","category":"52","category_name":"高等院校","address":""},{"poiid":"B2094655D36CA2F4479F","title":"上海师大","lon":"121.41938","lat":"31.16205","category":"38","category_name":"公交车站","address":""},{"poiid":"B2094757D06AA2FF4798","title":"上海师范大学附属中学","lon":"121.419041","lat":"31.163372","category":"253","category_name":"校园生活","address":"徐汇区桂林路100号上海师范大学内(近钦州南路)"},{"poiid":"B2094757D06FA2FB469D","title":"美丽咖啡馆","lon":"121.41975647","lat":"31.158919741","category":"217","category_name":"旅馆招待所","address":"上海徐汇区桂林路64-2号"},{"poiid":"B2094757D06BA6F54293","title":"重庆鸡公煲(上师大店)","lon":"121.41825","lat":"31.16075","category":"71","category_name":"四川菜","address":"徐汇区桂林路100号上海师范大学内(近钦州南路)"},{"poiid":"B2094757D46EA2FD4398","title":"翔寿司 桂林路店","lon":"121.419127","lat":"31.162943","category":"95","category_name":"日本料理","address":"徐汇区桂林路116号(近上海师范大学)"},{"poiid":"B2094757D665A2F4429B","title":"巴麦隆烤肉 桂林路店","lon":"121.419963","lat":"31.157932","category":"68","category_name":"快餐厅","address":"徐汇区桂林路50号(钦州南路口)"},{"poiid":"B2094655D26FABFE449C","title":"上海师范大学丹桂苑","lon":"121.41432","lat":"31.15969","category":"257","category_name":"中餐厅","address":"虹漕南路出口"},{"poiid":"B2094655D26FA6FE479E","title":"韩国料理(上海师范大学店)","lon":"121.41753","lat":"31.16152","category":"96","category_name":"韩国料理","address":"桂林路100号上师大食堂2楼"},{"poiid":"B2094655D26FA5F8419D","title":"长兴坊","lon":"121.41614","lat":"31.156137","category":"47","category_name":"住宅区","address":"桂林西街15弄1-85号"},{"poiid":"B2094655D268A5F4419B","title":"上海师范大学球类馆","lon":"121.4188","lat":"31.1608","category":"224","category_name":"综合体育馆","address":""},{"poiid":"B2094655D26FAAFD469F","title":"紫竹园","lon":"121.421","lat":"31.1583","category":"47","category_name":"住宅区","address":"上海徐汇区浦北路948弄"},{"poiid":"B2094757D469A5FF4799","title":"悸动台湾正宗烧仙草 上师大店","lon":"121.419468054","lat":"31.160151793","category":"67","category_name":"甜品店","address":"徐汇区桂林路112-2号(上海师范大学门口)"},{"poiid":"B2094655D26FABF84393","title":"上海师范大学办公大楼","lon":"121.41899","lat":"31.16012","category":"52","category_name":"高等院校","address":"上海徐汇区梅陇路130号华东理工大学徐汇校区"},{"poiid":"B2094654DB6CA7F44593","title":"湘轩湖南乡土风味桂林店","lon":"121.42044","lat":"31.15766","category":"77","category_name":"湖南菜","address":"徐汇区桂林路37号(近钦州南路)"},{"poiid":"B2094655D26DA7F54799","title":"上海师大新村(南门)","lon":"121.41697","lat":"31.1578","category":"47","category_name":"住宅区","address":"钦州南路650"},{"poiid":"B2094655D265A3FC489A","title":"上海师范大学西部第十四学生宿舍","lon":"121.41456","lat":"31.1587","category":"47","category_name":"住宅区","address":""},{"poiid":"B2094757D469A0F44099","title":"川味麻辣烫 上师大店","lon":"121.419207054","lat":"31.161517793","category":"68","category_name":"快餐厅","address":"徐汇区桂林路100号上师大旁(近钦州南路)"},{"poiid":"B2094654DA65A6FC489C","title":"南京游子老鸭粉丝汤(桂林路)","lon":"121.41953","lat":"31.15958","category":"68","category_name":"快餐厅","address":"徐汇区桂林路68号(近避风塘茶楼)"},{"poiid":"B2094757D06FAAFC479D","title":"上海市民进自强进修学院(漕宝路校区)","lon":"121.41656494","lat":"31.162584304","category":"217","category_name":"旅馆招待所","address":"上海市徐汇区漕宝路300号(近桂林公园)"},{"poiid":"B2094655D264A2F8429E","title":"上师大紫薇休闲吧","lon":"121.41752","lat":"31.16152","category":"68","category_name":"快餐厅","address":"徐汇区桂林路100号上海师范大学内(近钦州南路)"},{"poiid":"B2094655D265A7FC4099","title":"上师大外宾楼餐厅","lon":"121.41753","lat":"31.16152","category":"76","category_name":"上海菜","address":"徐汇区桂林路100号上海师范大学内(近钦州南路)"},{"poiid":"B2094655D26EA0FC4098","title":"上海师范大学(徐汇校区)","lon":"121.41925","lat":"31.16163","category":"52","category_name":"高等院校","address":"徐汇区桂林路100号上海师范大学内(近钦州南路)"},{"poiid":"B2094654DB64A2F94698","title":"上海师范大学第一教学大楼","lon":"121.41706","lat":"31.16147","category":"52","category_name":"高等院校","address":""},{"poiid":"B2094750DA65A5FA419C","title":"辣串门","lon":"121.419754","lat":"31.158313","category":"71","category_name":"四川菜","address":"徐汇区钦州南路607号(近桂林路)"},{"poiid":"B2094757D069A3FB4593","title":"上海师范大学 四教","lon":"121.421108086","lat":"31.1598083047","category":"253","category_name":"校园生活","address":"上海师范大学徐汇校区第四教学楼"},{"poiid":"B2094757D06FA7F54392","title":"上海师范大学 金融学院","lon":"121.41932158","lat":"31.161750092","category":"253","category_name":"校园生活","address":"上海市徐汇区桂林路100号"},{"poiid":"B2094751D36FA0F5459D","title":"家在塔啦蒙古特色餐厅","lon":"121.42051","lat":"31.15728","category":"84","category_name":"西北菜","address":"徐汇区桂林路37号2楼(近钦州南路)"},{"poiid":"B2094757D06FAAFC4099","title":"上海师范大学东部礼堂","lon":"121.420266","lat":"31.16158","category":"249","category_name":"购物服务","address":"徐汇区桂林路100号上海师范大学内(近钦州南路)"},{"poiid":"B2094757D06AABFC409D","title":"mayli's coffee","lon":"121.41984958","lat":"31.159027039","category":"260","category_name":"其他","address":"徐汇区桂林路64号(近钦州南路)"},{"poiid":"B2094757D068AAF94593","title":"三只熊韩国料理","lon":"121.41581726","lat":"31.160243988","category":"96","category_name":"韩国料理","address":"徐汇区桂林路100号东部校区紫薇苑2楼"},{"poiid":"B2094655D26FABFF449C","title":"上海师范大学图书馆","lon":"121.41513","lat":"31.16249","category":"181","category_name":"图书馆","address":"市桂林路100号;奉贤校区:上海市奉炮路553号"},{"poiid":"B2094757D064A5F5429E","title":"上海师范大学 音乐学院","lon":"121.42111953","lat":"31.161471007","category":"500","category_name":"未知分类","address":"上海徐汇区桂林路100号"},{"poiid":"B2094757D06FABF8469C","title":"上师大教苑楼","lon":"121.420818","lat":"31.16155","category":"253","category_name":"校园生活","address":"上海师范大学徐汇东部校区"},{"poiid":"B2094757D064A1F54893","title":"上海师范大学(徐汇校区)韩国料理","lon":"121.415189483","lat":"31.1605937547","category":"500","category_name":"未知分类","address":"上海桂林路100号香樟苑2楼"},{"poiid":"B2094757D06FA6F44293","title":"肯德基 KFC (钦州南路店)","lon":"121.420366474","lat":"31.1577847392","category":"68","category_name":"快餐厅","address":"徐汇区桂林路39号(近钦州南路)"},{"poiid":"B2094655D26FABFE4492","title":"上海师范大学香樟苑","lon":"121.41528","lat":"31.16032","category":"52","category_name":"高等院校","address":""},{"poiid":"B2094757DB6DA5F94699","title":"维也纳酒店（上海南站光大店）","lon":"121.419868469","lat":"31.156417596","category":"216","category_name":"经济型连锁酒店","address":"徐汇区桂林路46号徐汇工人文化中心内(近桂林西街)"},{"poiid":"B2094655D26FA4F4489A","title":"上海师范大学体育场","lon":"121.41722","lat":"31.16043","category":"224","category_name":"综合体育馆","address":""},{"poiid":"B2094654DB6AA6FF459A","title":"上海教育国际交流中心","lon":"121.42129","lat":"31.15932","category":"250","category_name":"公园户外","address":"上海市徐汇区桂林路55号(近钦州南路)"},{"poiid":"B2094757D065A6F44799","title":"上海市徐汇区委党校","lon":"121.42081353","lat":"31.158989613","category":"500","category_name":"未知分类","address":"上海钦州南路567号"},{"poiid":"B2094654DA65A6FC489D","title":"避风塘 上师大店","lon":"121.419446054","lat":"31.159835793","category":"111","category_name":"休闲餐饮场所","address":"徐汇区桂林路68号(近上海师范大学)"},{"poiid":"B2094757D068A4FE4899","title":"上海师大新村","lon":"121.4197685","lat":"31.1597457","category":"47","category_name":"住宅区","address":"上海市徐汇区桂林路70弄"},{"poiid":"B2094757D064A7F5429C","title":"上海师范大学校医院（徐汇校区）","lon":"121.41705158","lat":"31.160499068","category":"162","category_name":"医院","address":"上海桂林路100号"},{"poiid":"B2094757D06BA3FA4293","title":"上海师范大学 体化楼","lon":"121.41631288","lat":"31.162117226","category":"253","category_name":"校园生活","address":"上海徐汇区桂林路100号,西部"},{"poiid":"B2094655D268A5F4499F","title":"上海师范大学会议中心","lon":"121.41941","lat":"31.16035","category":"185","category_name":"会展中心","address":""},{"poiid":"B2094757D665A0F9469B","title":"缤纷谷 上师大店","lon":"121.41902","lat":"31.16113","category":"67","category_name":"甜品店","address":"徐汇区桂林路100号上海师范大学西部食堂(近钦州南路)"},{"poiid":"B2094655D268A0FB4092","title":"萨拉欢乐餐厅","lon":"121.41482","lat":"31.15996","category":"94","category_name":"西餐厅","address":"徐汇区桂林路100号上海师范大学西部内(近钦州南路)"},{"poiid":"B2094757D06BA6F54693","title":"乔家大院东北菜","lon":"121.42141","lat":"31.15727","category":"82","category_name":"东北菜","address":"徐汇区桂林东街217号康乐小区"},{"poiid":"B2094757D664A7FF439F","title":"笑缘美食广场","lon":"121.41651","lat":"31.15976","category":"68","category_name":"快餐厅","address":"徐汇区桂林路100号上海师范大学内(近钦州南路)"},{"poiid":"B2094655D26FABF8449B","title":"上海师范大学外宾楼","lon":"121.4183","lat":"31.16041","category":"52","category_name":"高等院校","address":""},{"poiid":"B2094655D36CA2F4479F","title":"上海师大","lon":"121.41938","lat":"31.16205","category":"38","category_name":"公交车站","address":""},{"poiid":"B2094757D06AA2FF4798","title":"上海师范大学附属中学","lon":"121.419041","lat":"31.163372","category":"253","category_name":"校园生活","address":"徐汇区桂林路100号上海师范大学内(近钦州南路)"},{"poiid":"B2094757D06FA2FB469D","title":"美丽咖啡馆","lon":"121.41975647","lat":"31.158919741","category":"217","category_name":"旅馆招待所","address":"上海徐汇区桂林路64-2号"},{"poiid":"B2094757D06BA6F54293","title":"重庆鸡公煲(上师大店)","lon":"121.41825","lat":"31.16075","category":"71","category_name":"四川菜","address":"徐汇区桂林路100号上海师范大学内(近钦州南路)"},{"poiid":"B2094757D46EA2FD4398","title":"翔寿司 桂林路店","lon":"121.419127","lat":"31.162943","category":"95","category_name":"日本料理","address":"徐汇区桂林路116号(近上海师范大学)"},{"poiid":"B2094757D665A2F4429B","title":"巴麦隆烤肉 桂林路店","lon":"121.419963","lat":"31.157932","category":"68","category_name":"快餐厅","address":"徐汇区桂林路50号(钦州南路口)"},{"poiid":"B2094655D26FABFE449C","title":"上海师范大学丹桂苑","lon":"121.41432","lat":"31.15969","category":"257","category_name":"中餐厅","address":"虹漕南路出口"},{"poiid":"B2094655D26FA6FE479E","title":"韩国料理(上海师范大学店)","lon":"121.41753","lat":"31.16152","category":"96","category_name":"韩国料理","address":"桂林路100号上师大食堂2楼"},{"poiid":"B2094655D26FA5F8419D","title":"长兴坊","lon":"121.41614","lat":"31.156137","category":"47","category_name":"住宅区","address":"桂林西街15弄1-85号"},{"poiid":"B2094655D268A5F4419B","title":"上海师范大学球类馆","lon":"121.4188","lat":"31.1608","category":"224","category_name":"综合体育馆","address":""},{"poiid":"B2094655D26FAAFD469F","title":"紫竹园","lon":"121.421","lat":"31.1583","category":"47","category_name":"住宅区","address":"上海徐汇区浦北路948弄"},{"poiid":"B2094757D469A5FF4799","title":"悸动台湾正宗烧仙草 上师大店","lon":"121.419468054","lat":"31.160151793","category":"67","category_name":"甜品店","address":"徐汇区桂林路112-2号(上海师范大学门口)"},{"poiid":"B2094655D26FABF84393","title":"上海师范大学办公大楼","lon":"121.41899","lat":"31.16012","category":"52","category_name":"高等院校","address":"上海徐汇区梅陇路130号华东理工大学徐汇校区"},{"poiid":"B2094654DB6CA7F44593","title":"湘轩湖南乡土风味桂林店","lon":"121.42044","lat":"31.15766","category":"77","category_name":"湖南菜","address":"徐汇区桂林路37号(近钦州南路)"},{"poiid":"B2094655D26DA7F54799","title":"上海师大新村(南门)","lon":"121.41697","lat":"31.1578","category":"47","category_name":"住宅区","address":"钦州南路650"},{"poiid":"B2094655D265A3FC489A","title":"上海师范大学西部第十四学生宿舍","lon":"121.41456","lat":"31.1587","category":"47","category_name":"住宅区","address":""},{"poiid":"B2094757D469A0F44099","title":"川味麻辣烫 上师大店","lon":"121.419207054","lat":"31.161517793","category":"68","category_name":"快餐厅","address":"徐汇区桂林路100号上师大旁(近钦州南路)"},{"poiid":"B2094654DA65A6FC489C","title":"南京游子老鸭粉丝汤(桂林路)","lon":"121.41953","lat":"31.15958","category":"68","category_name":"快餐厅","address":"徐汇区桂林路68号(近避风塘茶楼)"},{"poiid":"B2094757D06FAAFC479D","title":"上海市民进自强进修学院(漕宝路校区)","lon":"121.41656494","lat":"31.162584304","category":"217","category_name":"旅馆招待所","address":"上海市徐汇区漕宝路300号(近桂林公园)"},{"poiid":"B2094655D264A2F8429E","title":"上师大紫薇休闲吧","lon":"121.41752","lat":"31.16152","category":"68","category_name":"快餐厅","address":"徐汇区桂林路100号上海师范大学内(近钦州南路)"},{"poiid":"B2094655D265A7FC4099","title":"上师大外宾楼餐厅","lon":"121.41753","lat":"31.16152","category":"76","category_name":"上海菜","address":"徐汇区桂林路100号上海师范大学内(近钦州南路)"}]