[{"poiid":"B2094757D06EAAF8429C","title":"松江大学城二期宿舍","lon":"121.215076","lat":"31.050489","category":"253","category_name":"校园生活","address":"上海松江区松江大学城文汇路300弄"},{"poiid":"B2094655D26BA2FB449D","title":"松江大学城","lon":"121.21218","lat":"31.04941","category":"38","category_name":"公交车站","address":""},{"poiid":"B2094757D06FA3FB4499","title":"王小姐的店","lon":"121.20830277","lat":"31.049656643","category":"260","category_name":"其他","address":"松江区松江大学城一期文汇路652弄203室(近龙腾路)"},{"poiid":"B2094757D06FA3FE439F","title":"松江大学城一期学生公寓","lon":"121.208628196","lat":"31.0513171146","category":"253","category_name":"校园生活","address":"松江区文汇路600号(上海对外贸易学院对面)"},{"poiid":"B2094757D069A0F4419D","title":"东华大学图书馆(松江校区)","lon":"121.213105943","lat":"31.0565057824","category":"253","category_name":"校园生活","address":"松江区人民北路2999号(北翠路人民北路)"},{"poiid":"B2094757D06FA3FB4793","title":"东华大学 (松江校区) 第一教学楼","lon":"121.216392517","lat":"31.0574913025","category":"253","category_name":"校园生活","address":"上海松江区人民北路2999号 东华大学内"},{"poiid":"B2094655D268A6FD479C","title":"东华大学第二教学楼","lon":"121.2189","lat":"31.0551","category":"52","category_name":"高等院校","address":""},{"poiid":"B2094757D06FA2F9479F","title":"翰莘美食城","lon":"121.215438167","lat":"31.0495852406","category":"68","category_name":"快餐厅","address":"松江区文汇路600号翰莘美食城内(上海对外贸易学院对面)"},{"poiid":"B2094757D068A7F4459C","title":"RouRou Coffee","lon":"121.208647","lat":"31.049337","category":"260","category_name":"其他","address":"松江区文汇路652弄201室(近龙腾路)"},{"poiid":"B2094757D069A2FC439A","title":"上海工程技术大学C楼","lon":"121.20699779","lat":"31.054935392","category":"500","category_name":"未知分类","address":"上海工程技术大学C楼"},{"poiid":"B2094757D068A0F94798","title":"东华大学食堂(松江校区)","lon":"121.21399916","lat":"31.054109358","category":"68","category_name":"快餐厅","address":"松江区松江大学城二期东华大学一食堂"},{"poiid":"B2094757D069A1F5409A","title":"东华大学锦绣会堂","lon":"121.213003096","lat":"31.0536938654","category":"260","category_name":"其他","address":"上海东华大学内(近一食堂)"},{"poiid":"B2094757D069A4FE489D","title":"东华大学体育馆","lon":"121.212041857","lat":"31.0542823987","category":"253","category_name":"校园生活","address":"上海市松江区人民北路2999号东华大学内"},{"poiid":"B2094757D06FABFA4099","title":"上海大学生体育中心游泳馆","lon":"121.21238","lat":"31.04781","category":"220","category_name":"运动场所","address":"松江区文翔路2000号(近上海外贸学院)"},{"poiid":"B2094757D568A7F4429E","title":"松江大学城300弄","lon":"121.2150869","lat":"31.05049806","category":"52","category_name":"高等院校","address":"文汇路300弄"},{"poiid":"B2094757D068A7FB4493","title":"上海工程技術大學教學樓E樓","lon":"121.20913696","lat":"31.056999206","category":"253","category_name":"校园生活","address":"上海龍騰路333號"},{"poiid":"B2094655D268A6FD479D","title":"东华大学第一教学楼","lon":"121.21884","lat":"31.0559","category":"52","category_name":"高等院校","address":""},{"poiid":"B2094757D068A7FC489B","title":"Tomato   Korean   Restaurant","lon":"121.21267","lat":"31.04947","category":"96","category_name":"韩国料理","address":"松江区松江大学城文汇路珍奶会所后侧2楼(外贸学院对面)"},{"poiid":"B2094655D26FAAFA4892","title":"东华大学图文信息大楼","lon":"121.21314","lat":"31.05648","category":"52","category_name":"高等院校","address":""},{"poiid":"B2094655D26FAAFA469D","title":"上海工程技术大学行政楼","lon":"121.20844","lat":"31.05723","category":"52","category_name":"高等院校","address":"腾飞东路"},{"poiid":"B2094757D06FA4FF4599","title":"金牛角牛排馆","lon":"121.21774585","lat":"31.049694934","category":"260","category_name":"其他","address":"上海松江区文汇路300弄"},{"poiid":"B2094757D068A6FF459B","title":"樱花广场","lon":"121.209078","lat":"31.049391","category":"119","category_name":"商场","address":"松江区松江大学城文汇路718号(近1期)"},{"poiid":"B2094757D069A6F44899","title":"上海工程技术大学 教学F楼","lon":"121.206471074","lat":"31.0557901524","category":"253","category_name":"校园生活","address":"上海龙腾路333号"},{"poiid":"B2094655D26FAAFC499F","title":"上海对外贸易学院餐厅","lon":"121.21511","lat":"31.04906","category":"257","category_name":"中餐厅","address":""},{"poiid":"B2094655D268A6FD409D","title":"镜月湖","lon":"121.21609","lat":"31.05591","category":"250","category_name":"公园户外","address":""},{"poiid":"B2094757D068A7FF489B","title":"吉姆丽德乡村西餐厅(大学城二期店)","lon":"121.21560807","lat":"31.049687665","category":"94","category_name":"西餐厅","address":"上海近郊松江区文汇路242弄206号大学城二期翰莘美食城2楼(近对外贸易学院)"},{"poiid":"B2094757D56DA5F84792","title":"MINGS","lon":"121.207947","lat":"31.049933","category":"260","category_name":"其他","address":"松江区文汇路656弄104号(近罗森超市)"},{"poiid":"B2094757D069A3FE4592","title":"大学生国际冰球馆","lon":"121.21544872","lat":"31.049607768","category":"220","category_name":"运动场所","address":"松江区文翔路2000号(近上海外贸学院)"},{"poiid":"B2094655D268A6FD4098","title":"东华大学信息学院","lon":"121.21128","lat":"31.05686","category":"52","category_name":"高等院校","address":""},{"poiid":"B2094750D76DA7FC469E","title":"Constellation星座咖啡","lon":"121.214","lat":"31.0497","category":"260","category_name":"其他","address":"松江区文汇路338弄松江大学城二期219室"},{"poiid":"B2094655D268A6FD409E","title":"东华大学计算机人文外语学院","lon":"121.21124","lat":"31.05588","category":"52","category_name":"高等院校","address":""},{"poiid":"B2094655D268A7FD4592","title":"东华大学纺织学院","lon":"121.21131","lat":"31.05742","category":"52","category_name":"高等院校","address":""},{"poiid":"B2094757D064A1FE449D","title":"华东政法大学富田体育馆","lon":"121.21102905","lat":"31.049386978","category":"500","category_name":"未知分类","address":"上海松江大学城"},{"poiid":"B2094655D268A7FD459C","title":"东华大学化学化工与生物工程学院","lon":"121.21073","lat":"31.05758","category":"52","category_name":"高等院校","address":""},{"poiid":"B2094750DB65A6FD439E","title":"Mini Park","lon":"121.208183","lat":"31.049587","category":"67","category_name":"甜品店","address":"松江区文汇路652弄207号(近龙腾路)"},{"poiid":"B2094655D26FAAF4449D","title":"上海对外贸易学院(北二门)","lon":"121.21743","lat":"31.04918","category":"52","category_name":"高等院校","address":""},{"poiid":"B2094757D065A0F44693","title":"上海工程技术大学教学楼E楼","lon":"121.209454","lat":"31.056982","category":"253","category_name":"校园生活","address":"上海松江区龙腾路333号教学楼E楼"},{"poiid":"B2094655D268A6FD4099","title":"东华大学理学院","lon":"121.21104","lat":"31.0567","category":"671","category_name":"高校中心点","address":""},{"poiid":"B2094757D169ABFB4999","title":"东华大学一食堂兰笋厅","lon":"121.213411708","lat":"31.0543387834","category":"500","category_name":"未知分类","address":"上海松江区人民北路2999号东华大学一食堂三楼"},{"poiid":"B2094757D068ABFF499A","title":"蜜蜜甜糖水店(大学城二期店)","lon":"121.21544342","lat":"31.0495984929","category":"67","category_name":"甜品店","address":"上海近郊松江区文汇路258号翰莘美食城2楼"},{"poiid":"B2094655D268A6FD409C","title":"东华大学网球场","lon":"121.21217","lat":"31.05338","category":"226","category_name":"网球场","address":""},{"poiid":"B2094757D66DAAF5469A","title":"东华大学综合实验楼","lon":"121.215733","lat":"31.057157","category":"500","category_name":"未知分类","address":"上海松江区人民北路2999号东华大学松江校区"},{"poiid":"B2094757D069A1F5409D","title":"复旦大学上海视觉艺术学院时尚楼","lon":"121.21122094","lat":"31.048251823","category":"500","category_name":"未知分类","address":"上海松江区文翔路2200号"},{"poiid":"B2094757D06AA0F94793","title":"东华大学材料学院","lon":"121.217734269","lat":"31.0576560476","category":"500","category_name":"未知分类","address":"上海人民北路2999号"},{"poiid":"B2094750DA6EABFE489F","title":"上海工程技术大学教学楼A楼","lon":"121.207946","lat":"31.053899","category":"500","category_name":"未知分类","address":null},{"poiid":"B2094655D268A7FD459D","title":"东华大学机械学院","lon":"121.21163","lat":"31.0586","category":"52","category_name":"高等院校","address":""},{"poiid":"B2094757D06BA5FD409A","title":"东北一家人","lon":"121.20223","lat":"31.04942","category":"82","category_name":"东北菜","address":"松江区文汇路818号2楼(近三期公寓)"},{"poiid":"B2094753D76BA1FE449B","title":"东华大学第一报告厅","lon":"121.213439","lat":"31.056501","category":"500","category_name":"未知分类","address":"上海市 松江区广富林路"},{"poiid":"B2094752D564A0FC4292","title":"松江大学城地铁站","lon":"121.214551","lat":"31.057985","category":"36","category_name":"地铁站","address":"松江大学城地铁站"},{"poiid":"B2094757D168A2F5439B","title":"Wayhome书房","lon":"121.20845819","lat":"31.049754081","category":"249","category_name":"购物服务","address":null},{"poiid":"B2094757D06EAAF8429C","title":"松江大学城二期宿舍","lon":"121.215076","lat":"31.050489","category":"253","category_name":"校园生活","address":"上海松江区松江大学城文汇路300弄"},{"poiid":"B2094655D26BA2FB449D","title":"松江大学城","lon":"121.21218","lat":"31.04941","category":"38","category_name":"公交车站","address":""},{"poiid":"B2094757D06FA3FB4499","title":"王小姐的店","lon":"121.20830277","lat":"31.049656643","category":"260","category_name":"其他","address":"松江区松江大学城一期文汇路652弄203室(近龙腾路)"},{"poiid":"B2094757D06FA3FE439F","title":"松江大学城一期学生公寓","lon":"121.208628196","lat":"31.0513171146","category":"253","category_name":"校园生活","address":"松江区文汇路600号(上海对外贸易学院对面)"},{"poiid":"B2094757D069A0F4419D","title":"东华大学图书馆(松江校区)","lon":"121.213105943","lat":"31.0565057824","category":"253","category_name":"校园生活","address":"松江区人民北路2999号(北翠路人民北路)"},{"poiid":"B2094757D06FA3FB4793","title":"东华大学 (松江校区) 第一教学楼","lon":"121.216392517","lat":"31.0574913025","category":"253","category_name":"校园生活","address":"上海松江区人民北路2999号 东华大学内"},{"poiid":"B2094655D268A6FD479C","title":"东华大学第二教学楼","lon":"121.2189","lat":"31.0551","category":"52","category_name":"高等院校","address":""},{"poiid":"B2094757D06FA2F9479F","title":"翰莘美食城","lon":"121.215438167","lat":"31.0495852406","category":"68","category_name":"快餐厅","address":"松江区文汇路600号翰莘美食城内(上海对外贸易学院对面)"},{"poiid":"B2094757D068A7F4459C","title":"RouRou Coffee","lon":"121.208647","lat":"31.049337","category":"260","category_name":"其他","address":"松江区文汇路652弄201室(近龙腾路)"},{"poiid":"B2094757D069A2FC439A","title":"上海工程技术大学C楼","lon":"121.20699779","lat":"31.054935392","category":"500","category_name":"未知分类","address":"上海工程技术大学C楼"},{"poiid":"B2094757D068A0F94798","title":"东华大学食堂(松江校区)","lon":"121.21399916","lat":"31.054109358","category":"68","category_name":"快餐厅","address":"松江区松江大学城二期东华大学一食堂"},{"poiid":"B2094757D069A1F5409A","title":"东华大学锦绣会堂","lon":"121.213003096","lat":"31.0536938654","category":"260","category_name":"其他","address":"上海东华大学内(近一食堂)"},{"poiid":"B2094757D069A4FE489D","title":"东华大学体育馆","lon":"121.212041857","lat":"31.0542823987","category":"253","category_name":"校园生活","address":"上海市松江区人民北路2999号东华大学内"},{"poiid":"B2094757D06FABFA4099","title":"上海大学生体育中心游泳馆","lon":"121.21238","lat":"31.04781","category":"220","category_name":"运动场所","address":"松江区文翔路2000号(近上海外贸学院)"},{"poiid":"B2094757D568A7F4429E","title":"松江大学城300弄","lon":"121.2150869","lat":"31.05049806","category":"52","category_name":"高等院校","address":"文汇路300弄"},{"poiid":"B2094757D068A7FB4493","title":"上海工程技術大學教學樓E樓","lon":"121.20913696","lat":"31.056999206","category":"253","category_name":"校园生活","address":"上海龍騰路333號"},{"poiid":"B2094655D268A6FD479D","title":"东华大学第一教学楼","lon":"121.21884","lat":"31.0559","category":"52","category_name":"高等院校","address":""},{"poiid":"B2094757D068A7FC489B","title":"Tomato   Korean   Restaurant","lon":"121.21267","lat":"31.04947","category":"96","category_name":"韩国料理","address":"松江区松江大学城文汇路珍奶会所后侧2楼(外贸学院对面)"},{"poiid":"B2094655D26FAAFA4892","title":"东华大学图文信息大楼","lon":"121.21314","lat":"31.05648","category":"52","category_name":"高等院校","address":""},{"poiid":"B2094655D26FAAFA469D","title":"上海工程技术大学行政楼","lon":"121.20844","lat":"31.05723","category":"52","category_name":"高等院校","address":"腾飞东路"},{"poiid":"B2094757D06FA4FF4599","title":"金牛角牛排馆","lon":"121.21774585","lat":"31.049694934","category":"260","category_name":"其他","address":"上海松江区文汇路300弄"},{"poiid":"B2094757D068A6FF459B","title":"樱花广场","lon":"121.209078","lat":"31.049391","category":"119","category_name":"商场","address":"松江区松江大学城文汇路718号(近1期)"},{"poiid":"B2094757D069A6F44899","title":"上海工程技术大学 教学F楼","lon":"121.206471074","lat":"31.0557901524","category":"253","category_name":"校园生活","address":"上海龙腾路333号"},{"poiid":"B2094655D26FAAFC499F","title":"上海对外贸易学院餐厅","lon":"121.21511","lat":"31.04906","category":"257","category_name":"中餐厅","address":""},{"poiid":"B2094655D268A6FD409D","title":"镜月湖","lon":"121.21609","lat":"31.05591","category":"250","category_name":"公园户外","address":""},{"poiid":"B2094757D068A7FF489B","title":"吉姆丽德乡村西餐厅(大学城二期店)","lon":"121.21560807","lat":"31.049687665","category":"94","category_name":"西餐厅","address":"上海近郊松江区文汇路242弄206号大学城二期翰莘美食城2楼(近对外贸易学院)"},{"poiid":"B2094757D56DA5F84792","title":"MINGS","lon":"121.207947","lat":"31.049933","category":"260","category_name":"其他","address":"松江区文汇路656弄104号(近罗森超市)"},{"poiid":"B2094757D069A3FE4592","title":"大学生国际冰球馆","lon":"121.21544872","lat":"31.049607768","category":"220","category_name":"运动场所","address":"松江区文翔路2000号(近上海外贸学院)"},{"poiid":"B2094655D268A6FD4098","title":"东华大学信息学院","lon":"121.21128","lat":"31.05686","category":"52","category_name":"高等院校","address":""},{"poiid":"B2094750D76DA7FC469E","title":"Constellation星座咖啡","lon":"121.214","lat":"31.0497","category":"260","category_name":"其他","address":"松江区文汇路338弄松江大学城二期219室"},{"poiid":"B2094655D268A6FD409E","title":"东华大学计算机人文外语学院","lon":"121.21124","lat":"31.05588","category":"52","category_name":"高等院校","address":""},{"poiid":"B2094655D268A7FD4592","title":"东华大学纺织学院","lon":"121.21131","lat":"31.05742","category":"52","category_name":"高等院校","address":""},{"poiid":"B2094757D064A1FE449D","title":"华东政法大学富田体育馆","lon":"121.21102905","lat":"31.049386978","category":"500","category_name":"未知分类","address":"上海松江大学城"},{"poiid":"B2094655D268A7FD459C","title":"东华大学化学化工与生物工程学院","lon":"121.21073","lat":"31.05758","category":"52","category_name":"高等院校","address":""},{"poiid":"B2094750DB65A6FD439E","title":"Mini Park","lon":"121.208183","lat":"31.049587","category":"67","category_name":"甜品店","address":"松江区文汇路652弄207号(近龙腾路)"},{"poiid":"B2094655D26FAAF4449D","title":"上海对外贸易学院(北二门)","lon":"121.21743","lat":"31.04918","category":"52","category_name":"高等院校","address":""},{"poiid":"B2094757D065A0F44693","title":"上海工程技术大学教学楼E楼","lon":"121.209454","lat":"31.056982","category":"253","category_name":"校园生活","address":"上海松江区龙腾路333号教学楼E楼"},{"poiid":"B2094655D268A6FD4099","title":"东华大学理学院","lon":"121.21104","lat":"31.0567","category":"671","category_name":"高校中心点","address":""},{"poiid":"B2094757D169ABFB4999","title":"东华大学一食堂兰笋厅","lon":"121.213411708","lat":"31.0543387834","category":"500","category_name":"未知分类","address":"上海松江区人民北路2999号东华大学一食堂三楼"},{"poiid":"B2094757D068ABFF499A","title":"蜜蜜甜糖水店(大学城二期店)","lon":"121.21544342","lat":"31.0495984929","category":"67","category_name":"甜品店","address":"上海近郊松江区文汇路258号翰莘美食城2楼"},{"poiid":"B2094655D268A6FD409C","title":"东华大学网球场","lon":"121.21217","lat":"31.05338","category":"226","category_name":"网球场","address":""},{"poiid":"B2094757D66DAAF5469A","title":"东华大学综合实验楼","lon":"121.215733","lat":"31.057157","category":"500","category_name":"未知分类","address":"上海松江区人民北路2999号东华大学松江校区"},{"poiid":"B2094757D069A1F5409D","title":"复旦大学上海视觉艺术学院时尚楼","lon":"121.21122094","lat":"31.048251823","category":"500","category_name":"未知分类","address":"上海松江区文翔路2200号"},{"poiid":"B2094757D06AA0F94793","title":"东华大学材料学院","lon":"121.217734269","lat":"31.0576560476","category":"500","category_name":"未知分类","address":"上海人民北路2999号"},{"poiid":"B2094750DA6EABFE489F","title":"上海工程技术大学教学楼A楼","lon":"121.207946","lat":"31.053899","category":"500","category_name":"未知分类","address":null},{"poiid":"B2094655D268A7FD459D","title":"东华大学机械学院","lon":"121.21163","lat":"31.0586","category":"52","category_name":"高等院校","address":""},{"poiid":"B2094757D06BA5FD409A","title":"东北一家人","lon":"121.20223","lat":"31.04942","category":"82","category_name":"东北菜","address":"松江区文汇路818号2楼(近三期公寓)"},{"poiid":"B2094753D76BA1FE449B","title":"东华大学第一报告厅","lon":"121.213439","lat":"31.056501","category":"500","category_name":"未知分类","address":"上海市 松江区广富林路"},{"poiid":"B2094752D564A0FC4292","title":"松江大学城地铁站","lon":"121.214551","lat":"31.057985","category":"36","category_name":"地铁站","address":"松江大学城地铁站"},{"poiid":"B2094757D168A2F5439B","title":"Wayhome书房","lon":"121.20845819","lat":"31.049754081","category":"249","category_name":"购物服务","address":null},{"poiid":"B2094757D06EAAF8429C","title":"松江大学城二期宿舍","lon":"121.215076","lat":"31.050489","category":"253","category_name":"校园生活","address":"上海松江区松江大学城文汇路300弄"},{"poiid":"B2094655D26BA2FB449D","title":"松江大学城","lon":"121.21218","lat":"31.04941","category":"38","category_name":"公交车站","address":""},{"poiid":"B2094757D06FA3FB4499","title":"王小姐的店","lon":"121.20830277","lat":"31.049656643","category":"260","category_name":"其他","address":"松江区松江大学城一期文汇路652弄203室(近龙腾路)"},{"poiid":"B2094757D06FA3FE439F","title":"松江大学城一期学生公寓","lon":"121.208628196","lat":"31.0513171146","category":"253","category_name":"校园生活","address":"松江区文汇路600号(上海对外贸易学院对面)"},{"poiid":"B2094757D069A0F4419D","title":"东华大学图书馆(松江校区)","lon":"121.213105943","lat":"31.0565057824","category":"253","category_name":"校园生活","address":"松江区人民北路2999号(北翠路人民北路)"},{"poiid":"B2094757D06FA3FB4793","title":"东华大学 (松江校区) 第一教学楼","lon":"121.216392517","lat":"31.0574913025","category":"253","category_name":"校园生活","address":"上海松江区人民北路2999号 东华大学内"},{"poiid":"B2094655D268A6FD479C","title":"东华大学第二教学楼","lon":"121.2189","lat":"31.0551","category":"52","category_name":"高等院校","address":""},{"poiid":"B2094757D06FA2F9479F","title":"翰莘美食城","lon":"121.215438167","lat":"31.0495852406","category":"68","category_name":"快餐厅","address":"松江区文汇路600号翰莘美食城内(上海对外贸易学院对面)"},{"poiid":"B2094757D068A7F4459C","title":"RouRou Coffee","lon":"121.208647","lat":"31.049337","category":"260","category_name":"其他","address":"松江区文汇路652弄201室(近龙腾路)"},{"poiid":"B2094757D069A2FC439A","title":"上海工程技术大学C楼","lon":"121.20699779","lat":"31.054935392","category":"500","category_name":"未知分类","address":"上海工程技术大学C楼"},{"poiid":"B2094757D068A0F94798","title":"东华大学食堂(松江校区)","lon":"121.21399916","lat":"31.054109358","category":"68","category_name":"快餐厅","address":"松江区松江大学城二期东华大学一食堂"},{"poiid":"B2094757D069A1F5409A","title":"东华大学锦绣会堂","lon":"121.213003096","lat":"31.0536938654","category":"260","category_name":"其他","address":"上海东华大学内(近一食堂)"},{"poiid":"B2094757D069A4FE489D","title":"东华大学体育馆","lon":"121.212041857","lat":"31.0542823987","category":"253","category_name":"校园生活","address":"上海市松江区人民北路2999号东华大学内"},{"poiid":"B2094757D06FABFA4099","title":"上海大学生体育中心游泳馆","lon":"121.21238","lat":"31.04781","category":"220","category_name":"运动场所","address":"松江区文翔路2000号(近上海外贸学院)"},{"poiid":"B2094757D568A7F4429E","title":"松江大学城300弄","lon":"121.2150869","lat":"31.05049806","category":"52","category_name":"高等院校","address":"文汇路300弄"},{"poiid":"B2094757D068A7FB4493","title":"上海工程技術大學教學樓E樓","lon":"121.20913696","lat":"31.056999206","category":"253","category_name":"校园生活","address":"上海龍騰路333號"},{"poiid":"B2094655D268A6FD479D","title":"东华大学第一教学楼","lon":"121.21884","lat":"31.0559","category":"52","category_name":"高等院校","address":""},{"poiid":"B2094757D068A7FC489B","title":"Tomato   Korean   Restaurant","lon":"121.21267","lat":"31.04947","category":"96","category_name":"韩国料理","address":"松江区松江大学城文汇路珍奶会所后侧2楼(外贸学院对面)"},{"poiid":"B2094655D26FAAFA4892","title":"东华大学图文信息大楼","lon":"121.21314","lat":"31.05648","category":"52","category_name":"高等院校","address":""},{"poiid":"B2094655D26FAAFA469D","title":"上海工程技术大学行政楼","lon":"121.20844","lat":"31.05723","category":"52","category_name":"高等院校","address":"腾飞东路"},{"poiid":"B2094757D06FA4FF4599","title":"金牛角牛排馆","lon":"121.21774585","lat":"31.049694934","category":"260","category_name":"其他","address":"上海松江区文汇路300弄"},{"poiid":"B2094757D068A6FF459B","title":"樱花广场","lon":"121.209078","lat":"31.049391","category":"119","category_name":"商场","address":"松江区松江大学城文汇路718号(近1期)"},{"poiid":"B2094757D069A6F44899","title":"上海工程技术大学 教学F楼","lon":"121.206471074","lat":"31.0557901524","category":"253","category_name":"校园生活","address":"上海龙腾路333号"},{"poiid":"B2094655D26FAAFC499F","title":"上海对外贸易学院餐厅","lon":"121.21511","lat":"31.04906","category":"257","category_name":"中餐厅","address":""},{"poiid":"B2094655D268A6FD409D","title":"镜月湖","lon":"121.21609","lat":"31.05591","category":"250","category_name":"公园户外","address":""},{"poiid":"B2094757D068A7FF489B","title":"吉姆丽德乡村西餐厅(大学城二期店)","lon":"121.21560807","lat":"31.049687665","category":"94","category_name":"西餐厅","address":"上海近郊松江区文汇路242弄206号大学城二期翰莘美食城2楼(近对外贸易学院)"},{"poiid":"B2094757D56DA5F84792","title":"MINGS","lon":"121.207947","lat":"31.049933","category":"260","category_name":"其他","address":"松江区文汇路656弄104号(近罗森超市)"},{"poiid":"B2094757D069A3FE4592","title":"大学生国际冰球馆","lon":"121.21544872","lat":"31.049607768","category":"220","category_name":"运动场所","address":"松江区文翔路2000号(近上海外贸学院)"},{"poiid":"B2094655D268A6FD4098","title":"东华大学信息学院","lon":"121.21128","lat":"31.05686","category":"52","category_name":"高等院校","address":""},{"poiid":"B2094750D76DA7FC469E","title":"Constellation星座咖啡","lon":"121.214","lat":"31.0497","category":"260","category_name":"其他","address":"松江区文汇路338弄松江大学城二期219室"},{"poiid":"B2094655D268A6FD409E","title":"东华大学计算机人文外语学院","lon":"121.21124","lat":"31.05588","category":"52","category_name":"高等院校","address":""},{"poiid":"B2094655D268A7FD4592","title":"东华大学纺织学院","lon":"121.21131","lat":"31.05742","category":"52","category_name":"高等院校","address":""},{"poiid":"B2094757D064A1FE449D","title":"华东政法大学富田体育馆","lon":"121.21102905","lat":"31.049386978","category":"500","category_name":"未知分类","address":"上海松江大学城"},{"poiid":"B2094655D268A7FD459C","title":"东华大学化学化工与生物工程学院","lon":"121.21073","lat":"31.05758","category":"52","category_name":"高等院校","address":""},{"poiid":"B2094750DB65A6FD439E","title":"Mini Park","lon":"121.208183","lat":"31.049587","category":"67","category_name":"甜品店","address":"松江区文汇路652弄207号(近龙腾路)"},{"poiid":"B2094655D26FAAF4449D","title":"上海对外贸易学院(北二门)","lon":"121.21743","lat":"31.04918","category":"52","category_name":"高等院校","address":""},{"poiid":"B2094757D065A0F44693","title":"上海工程技术大学教学楼E楼","lon":"121.209454","lat":"31.056982","category":"253","category_name":"校园生活","address":"上海松江区龙腾路333号教学楼E楼"},{"poiid":"B2094655D268A6FD4099","title":"东华大学理学院","lon":"121.21104","lat":"31.0567","category":"671","category_name":"高校中心点","address":""},{"poiid":"B2094757D169ABFB4999","title":"东华大学一食堂兰笋厅","lon":"121.213411708","lat":"31.0543387834","category":"500","category_name":"未知分类","address":"上海松江区人民北路2999号东华大学一食堂三楼"},{"poiid":"B2094757D068ABFF499A","title":"蜜蜜甜糖水店(大学城二期店)","lon":"121.21544342","lat":"31.0495984929","category":"67","category_name":"甜品店","address":"上海近郊松江区文汇路258号翰莘美食城2楼"},{"poiid":"B2094655D268A6FD409C","title":"东华大学网球场","lon":"121.21217","lat":"31.05338","category":"226","category_name":"网球场","address":""},{"poiid":"B2094757D66DAAF5469A","title":"东华大学综合实验楼","lon":"121.215733","lat":"31.057157","category":"500","category_name":"未知分类","address":"上海松江区人民北路2999号东华大学松江校区"},{"poiid":"B2094757D069A1F5409D","title":"复旦大学上海视觉艺术学院时尚楼","lon":"121.21122094","lat":"31.048251823","category":"500","category_name":"未知分类","address":"上海松江区文翔路2200号"},{"poiid":"B2094757D06AA0F94793","title":"东华大学材料学院","lon":"121.217734269","lat":"31.0576560476","category":"500","category_name":"未知分类","address":"上海人民北路2999号"},{"poiid":"B2094750DA6EABFE489F","title":"上海工程技术大学教学楼A楼","lon":"121.207946","lat":"31.053899","category":"500","category_name":"未知分类","address":null},{"poiid":"B2094655D268A7FD459D","title":"东华大学机械学院","lon":"121.21163","lat":"31.0586","category":"52","category_name":"高等院校","address":""},{"poiid":"B2094757D06BA5FD409A","title":"东北一家人","lon":"121.20223","lat":"31.04942","category":"82","category_name":"东北菜","address":"松江区文汇路818号2楼(近三期公寓)"},{"poiid":"B2094753D76BA1FE449B","title":"东华大学第一报告厅","lon":"121.213439","lat":"31.056501","category":"500","category_name":"未知分类","address":"上海市 松江区广富林路"},{"poiid":"B2094752D564A0FC4292","title":"松江大学城地铁站","lon":"121.214551","lat":"31.057985","category":"36","category_name":"地铁站","address":"松江大学城地铁站"},{"poiid":"B2094757D168A2F5439B","title":"Wayhome书房","lon":"121.20845819","lat":"31.049754081","category":"249","category_name":"购物服务","address":null},{"poiid":"B2094757D06EAAF8429C","title":"松江大学城二期宿舍","lon":"121.215076","lat":"31.050489","category":"253","category_name":"校园生活","address":"上海松江区松江大学城文汇路300弄"},{"poiid":"B2094655D26BA2FB449D","title":"松江大学城","lon":"121.21218","lat":"31.04941","category":"38","category_name":"公交车站","address":""},{"poiid":"B2094757D06FA3FB4499","title":"王小姐的店","lon":"121.20830277","lat":"31.049656643","category":"260","category_name":"其他","address":"松江区松江大学城一期文汇路652弄203室(近龙腾路)"},{"poiid":"B2094757D06FA3FE439F","title":"松江大学城一期学生公寓","lon":"121.208628196","lat":"31.0513171146","category":"253","category_name":"校园生活","address":"松江区文汇路600号(上海对外贸易学院对面)"},{"poiid":"B2094757D069A0F4419D","title":"东华大学图书馆(松江校区)","lon":"121.213105943","lat":"31.0565057824","category":"253","category_name":"校园生活","address":"松江区人民北路2999号(北翠路人民北路)"},{"poiid":"B2094757D06FA3FB4793","title":"东华大学 (松江校区) 第一教学楼","lon":"121.216392517","lat":"31.0574913025","category":"253","category_name":"校园生活","address":"上海松江区人民北路2999号 东华大学内"},{"poiid":"B2094655D268A6FD479C","title":"东华大学第二教学楼","lon":"121.2189","lat":"31.0551","category":"52","category_name":"高等院校","address":""},{"poiid":"B2094757D06FA2F9479F","title":"翰莘美食城","lon":"121.215438167","lat":"31.0495852406","category":"68","category_name":"快餐厅","address":"松江区文汇路600号翰莘美食城内(上海对外贸易学院对面)"},{"poiid":"B2094757D068A7F4459C","title":"RouRou Coffee","lon":"121.208647","lat":"31.049337","category":"260","category_name":"其他","address":"松江区文汇路652弄201室(近龙腾路)"},{"poiid":"B2094757D069A2FC439A","title":"上海工程技术大学C楼","lon":"121.20699779","lat":"31.054935392","category":"500","category_name":"未知分类","address":"上海工程技术大学C楼"},{"poiid":"B2094757D068A0F94798","title":"东华大学食堂(松江校区)","lon":"121.21399916","lat":"31.054109358","category":"68","category_name":"快餐厅","address":"松江区松江大学城二期东华大学一食堂"},{"poiid":"B2094757D069A1F5409A","title":"东华大学锦绣会堂","lon":"121.213003096","lat":"31.0536938654","category":"260","category_name":"其他","address":"上海东华大学内(近一食堂)"},{"poiid":"B2094757D069A4FE489D","title":"东华大学体育馆","lon":"121.212041857","lat":"31.0542823987","category":"253","category_name":"校园生活","address":"上海市松江区人民北路2999号东华大学内"},{"poiid":"B2094757D06FABFA4099","title":"上海大学生体育中心游泳馆","lon":"121.21238","lat":"31.04781","category":"220","category_name":"运动场所","address":"松江区文翔路2000号(近上海外贸学院)"},{"poiid":"B2094757D568A7F4429E","title":"松江大学城300弄","lon":"121.2150869","lat":"31.05049806","category":"52","category_name":"高等院校","address":"文汇路300弄"},{"poiid":"B2094757D068A7FB4493","title":"上海工程技術大學教學樓E樓","lon":"121.20913696","lat":"31.056999206","category":"253","category_name":"校园生活","address":"上海龍騰路333號"},{"poiid":"B2094655D268A6FD479D","title":"东华大学第一教学楼","lon":"121.21884","lat":"31.0559","category":"52","category_name":"高等院校","address":""},{"poiid":"B2094757D068A7FC489B","title":"Tomato   Korean   Restaurant","lon":"121.21267","lat":"31.04947","category":"96","category_name":"韩国料理","address":"松江区松江大学城文汇路珍奶会所后侧2楼(外贸学院对面)"},{"poiid":"B2094655D26FAAFA4892","title":"东华大学图文信息大楼","lon":"121.21314","lat":"31.05648","category":"52","category_name":"高等院校","address":""},{"poiid":"B2094655D26FAAFA469D","title":"上海工程技术大学行政楼","lon":"121.20844","lat":"31.05723","category":"52","category_name":"高等院校","address":"腾飞东路"},{"poiid":"B2094757D06FA4FF4599","title":"金牛角牛排馆","lon":"121.21774585","lat":"31.049694934","category":"260","category_name":"其他","address":"上海松江区文汇路300弄"},{"poiid":"B2094757D068A6FF459B","title":"樱花广场","lon":"121.209078","lat":"31.049391","category":"119","category_name":"商场","address":"松江区松江大学城文汇路718号(近1期)"},{"poiid":"B2094757D069A6F44899","title":"上海工程技术大学 教学F楼","lon":"121.206471074","lat":"31.0557901524","category":"253","category_name":"校园生活","address":"上海龙腾路333号"},{"poiid":"B2094655D26FAAFC499F","title":"上海对外贸易学院餐厅","lon":"121.21511","lat":"31.04906","category":"257","category_name":"中餐厅","address":""},{"poiid":"B2094655D268A6FD409D","title":"镜月湖","lon":"121.21609","lat":"31.05591","category":"250","category_name":"公园户外","address":""},{"poiid":"B2094757D068A7FF489B","title":"吉姆丽德乡村西餐厅(大学城二期店)","lon":"121.21560807","lat":"31.049687665","category":"94","category_name":"西餐厅","address":"上海近郊松江区文汇路242弄206号大学城二期翰莘美食城2楼(近对外贸易学院)"},{"poiid":"B2094757D56DA5F84792","title":"MINGS","lon":"121.207947","lat":"31.049933","category":"260","category_name":"其他","address":"松江区文汇路656弄104号(近罗森超市)"},{"poiid":"B2094757D069A3FE4592","title":"大学生国际冰球馆","lon":"121.21544872","lat":"31.049607768","category":"220","category_name":"运动场所","address":"松江区文翔路2000号(近上海外贸学院)"},{"poiid":"B2094655D268A6FD4098","title":"东华大学信息学院","lon":"121.21128","lat":"31.05686","category":"52","category_name":"高等院校","address":""},{"poiid":"B2094750D76DA7FC469E","title":"Constellation星座咖啡","lon":"121.214","lat":"31.0497","category":"260","category_name":"其他","address":"松江区文汇路338弄松江大学城二期219室"},{"poiid":"B2094655D268A6FD409E","title":"东华大学计算机人文外语学院","lon":"121.21124","lat":"31.05588","category":"52","category_name":"高等院校","address":""},{"poiid":"B2094655D268A7FD4592","title":"东华大学纺织学院","lon":"121.21131","lat":"31.05742","category":"52","category_name":"高等院校","address":""},{"poiid":"B2094757D064A1FE449D","title":"华东政法大学富田体育馆","lon":"121.21102905","lat":"31.049386978","category":"500","category_name":"未知分类","address":"上海松江大学城"},{"poiid":"B2094655D268A7FD459C","title":"东华大学化学化工与生物工程学院","lon":"121.21073","lat":"31.05758","category":"52","category_name":"高等院校","address":""},{"poiid":"B2094750DB65A6FD439E","title":"Mini Park","lon":"121.208183","lat":"31.049587","category":"67","category_name":"甜品店","address":"松江区文汇路652弄207号(近龙腾路)"},{"poiid":"B2094655D26FAAF4449D","title":"上海对外贸易学院(北二门)","lon":"121.21743","lat":"31.04918","category":"52","category_name":"高等院校","address":""},{"poiid":"B2094757D065A0F44693","title":"上海工程技术大学教学楼E楼","lon":"121.209454","lat":"31.056982","category":"253","category_name":"校园生活","address":"上海松江区龙腾路333号教学楼E楼"},{"poiid":"B2094655D268A6FD4099","title":"东华大学理学院","lon":"121.21104","lat":"31.0567","category":"671","category_name":"高校中心点","address":""},{"poiid":"B2094757D169ABFB4999","title":"东华大学一食堂兰笋厅","lon":"121.213411708","lat":"31.0543387834","category":"500","category_name":"未知分类","address":"上海松江区人民北路2999号东华大学一食堂三楼"},{"poiid":"B2094757D068ABFF499A","title":"蜜蜜甜糖水店(大学城二期店)","lon":"121.21544342","lat":"31.0495984929","category":"67","category_name":"甜品店","address":"上海近郊松江区文汇路258号翰莘美食城2楼"},{"poiid":"B2094655D268A6FD409C","title":"东华大学网球场","lon":"121.21217","lat":"31.05338","category":"226","category_name":"网球场","address":""},{"poiid":"B2094757D66DAAF5469A","title":"东华大学综合实验楼","lon":"121.215733","lat":"31.057157","category":"500","category_name":"未知分类","address":"上海松江区人民北路2999号东华大学松江校区"},{"poiid":"B2094757D069A1F5409D","title":"复旦大学上海视觉艺术学院时尚楼","lon":"121.21122094","lat":"31.048251823","category":"500","category_name":"未知分类","address":"上海松江区文翔路2200号"},{"poiid":"B2094757D06AA0F94793","title":"东华大学材料学院","lon":"121.217734269","lat":"31.0576560476","category":"500","category_name":"未知分类","address":"上海人民北路2999号"},{"poiid":"B2094750DA6EABFE489F","title":"上海工程技术大学教学楼A楼","lon":"121.207946","lat":"31.053899","category":"500","category_name":"未知分类","address":null},{"poiid":"B2094655D268A7FD459D","title":"东华大学机械学院","lon":"121.21163","lat":"31.0586","category":"52","category_name":"高等院校","address":""},{"poiid":"B2094757D06BA5FD409A","title":"东北一家人","lon":"121.20223","lat":"31.04942","category":"82","category_name":"东北菜","address":"松江区文汇路818号2楼(近三期公寓)"},{"poiid":"B2094753D76BA1FE449B","title":"东华大学第一报告厅","lon":"121.213439","lat":"31.056501","category":"500","category_name":"未知分类","address":"上海市 松江区广富林路"},{"poiid":"B2094752D564A0FC4292","title":"松江大学城地铁站","lon":"121.214551","lat":"31.057985","category":"36","category_name":"地铁站","address":"松江大学城地铁站"},{"poiid":"B2094757D168A2F5439B","title":"Wayhome书房","lon":"121.20845819","lat":"31.049754081","category":"249","category_name":"购物服务","address":null}]