[{"poiid":"B2094757D06FA3FD4598","title":"衡山路","lon":"121.44432","lat":"31.20163","category":"260","category_name":"其他","address":"徐汇区衡山路(衡山路吴兴路)"},{"poiid":"B2094654DB64A6FD4192","title":"上海安亭别墅花园酒店","lon":"121.4473","lat":"31.20273","category":"214","category_name":"四星级宾馆","address":"上海市徐汇区安亭路46号(近建国西路)"},{"poiid":"B2094757D66DA4FD4499","title":"菲芘酒吧","lon":"121.447201886","lat":"31.2057479523","category":"174","category_name":"迪厅","address":"上海衡山路10号甲一层"},{"poiid":"B2094753D76FAAFA449C","title":"上海滩国泰旗舰店","lon":"121.466011","lat":"31.216125","category":"249","category_name":"购物服务","address":"淮海中路868号"},{"poiid":"B209475CD564A7F8439E","title":"上海滩中信泰富店","lon":"121.45602","lat":"31.22851","category":"119","category_name":"商场","address":"\"南京西路1168号中信泰富广场，店铺号221.\r\n\""},{"poiid":"B2094757D06FA2FD419D","title":"Cotton's(安亭路店)","lon":"121.44787979","lat":"31.201636707","category":"260","category_name":"其他","address":"徐汇区安亭路132号(建国西路口)"},{"poiid":"B2094757D568AAF94199","title":"Shari","lon":"121.44823703","lat":"31.20476101","category":"95","category_name":"日本料理","address":"徐汇区永嘉路630号(近乌鲁木齐南路)"},{"poiid":"B2094757DB6FA2FB499A","title":"衡山路十二号豪华精选酒店","lon":"121.44645321431","lat":"31.20471978314","category":"215","category_name":"三星级宾馆","address":"徐汇区衡山路12号"},{"poiid":"B2094757D06EAAFF4899","title":"星巴克 衡山路店 Starbucks Cafe","lon":"121.446764054","lat":"31.206216793","category":"260","category_name":"其他","address":"徐汇区衡山路4号领馆广场内(近乌鲁木齐南路)"},{"poiid":"B2094757D06EAAFC4292","title":"菲比","lon":"121.44647479","lat":"31.204945495","category":"172","category_name":"酒吧","address":"徐汇区衡山路10号欧登大厦1楼(近乌鲁木齐南路)"},{"poiid":"B2094757D06FA3F84899","title":"衡山小馆(衡山店)","lon":"121.44508","lat":"31.20207","category":"72","category_name":"广东菜","address":"徐汇区衡山路308号(近高安路)"},{"poiid":"B2094757D06AA3FA479B","title":"H2","lon":"121.449141","lat":"31.204116","category":"94","category_name":"西餐厅","address":"徐汇区乌鲁木齐南路145号(近永嘉路)"},{"poiid":"B2094757D665AAF8409F","title":"西界酒吧 West Side","lon":"121.447479054","lat":"31.205316793","category":"260","category_name":"其他","address":"徐汇区衡山路237号(近高安路)"},{"poiid":"B2094654DA6DA7FA409A","title":"贝尼酒吧","lon":"121.44584","lat":"31.20336","category":"260","category_name":"其他","address":"徐汇区永嘉路705号(衡山路口)"},{"poiid":"B2094757D06EAAF54392","title":"衡山路地铁站","lon":"121.44659716","lat":"31.204602285","category":"36","category_name":"地铁站","address":"上海轨道交通 一号线 轨交衡山路站 1"},{"poiid":"B2094757D06AA2FB4299","title":"MT3","lon":"121.44685058","lat":"31.205462946","category":"500","category_name":"未知分类","address":"上海衡山路10号"},{"poiid":"B2094757D06FA2F9409B","title":"建汇大厦","lon":"121.446","lat":"31.2018","category":"46","category_name":"楼宇","address":"上海市徐汇区衡山路922号"},{"poiid":"B2094757D06FAAF9499C","title":"一哥海鲜火锅","lon":"121.446774586","lat":"31.2056789509","category":"86","category_name":"火锅店","address":"徐汇区衡山路10号(近高安路)"},{"poiid":"B2094654DA6DA7F94592","title":"欧登","lon":"121.44657","lat":"31.20556","category":"46","category_name":"楼宇","address":"上海衡山路10号甲"},{"poiid":"B2094757D06FAAFB409A","title":"徐家汇国际大厦","lon":"121.448","lat":"31.2012","category":"46","category_name":"楼宇","address":"上海市徐汇区肇嘉浜路1033号"},{"poiid":"B2094757D068AAFD4199","title":"GOD HANDS日系发型设计","lon":"121.44647658","lat":"31.204292923","category":"148","category_name":"美容美发店","address":"上海市徐汇区衡山路235号"},{"poiid":"B2094757DA6AA6FB449C","title":"上海歌城","lon":"121.445144","lat":"31.203566","category":"170","category_name":"KTV","address":"长宁区淮海西路"},{"poiid":"B2094757D068A4FF459E","title":"巴犀烧烤屋","lon":"121.44698","lat":"31.20507","category":"94","category_name":"西餐厅","address":"徐汇区衡山路4号领馆广场内(近乌鲁木齐南路)"},{"poiid":"B2094654DA6DABFE459A","title":"巾帼园","lon":"121.446","lat":"31.2033","category":"46","category_name":"楼宇","address":"上海天平路245号"},{"poiid":"B2094757D069A4F44493","title":"Club Phebe","lon":"121.44689243","lat":"31.205410175","category":"500","category_name":"未知分类","address":"上海衡山路乌鲁木齐路"},{"poiid":"B2094757D06FA6F44792","title":"哥莉酒吧","lon":"121.445563","lat":"31.203115","category":"260","category_name":"其他","address":"徐汇区衡山路(高安路口)"},{"poiid":"B2094757D06BA3F94999","title":"衡山路高安路","lon":"121.44600788","lat":"31.203830914","category":"500","category_name":"未知分类","address":"上海徐汇区"},{"poiid":"B2094654DA6DA7F94992","title":"88酒吧","lon":"121.44596","lat":"31.20336","category":"172","category_name":"酒吧","address":"上海静安区富民路291号悟锦大厦2楼(近长乐路),,,88号酒吧"},{"poiid":"B2094655D26EAAF84199","title":"唐韵茶坊 徐汇店","lon":"121.44775275124","lat":"31.205628558528","category":"66","category_name":"茶艺馆","address":"徐汇区衡山路199号(高安路乌鲁木齐路间)"},{"poiid":"B2094757D66AA5FD409E","title":"摩砚 MURAL Bar","lon":"121.44643577473","lat":"31.20377994383","category":"260","category_name":"其他","address":"徐汇区永嘉路697号地下室(近衡山路)"},{"poiid":"B2094757D068A3FC489D","title":"顿迪酒吧","lon":"121.44623","lat":"31.20313","category":"260","category_name":"其他","address":"徐汇区衡山路281号(近高安路)"},{"poiid":"B2094757D06BA1F9499F","title":"上海市徐汇公证处","lon":"121.44639658","lat":"31.203727912","category":"500","category_name":"未知分类","address":"上海市徐汇区衡山路249号"},{"poiid":"B2094757D06AA0FD429B","title":"衡园酒家","lon":"121.44657","lat":"31.20198","category":"76","category_name":"上海菜","address":"徐汇区高安路35号2楼(衡山路口)"},{"poiid":"B2094750D66EA5FA409B","title":"建国328小馆","lon":"121.44886","lat":"31.204284","category":"76","category_name":"上海菜","address":"徐汇区建国西路328号(近襄阳南路)"},{"poiid":"B2094654DB69A7FD4393","title":"名轩(徐汇店)","lon":"121.4473","lat":"31.20273","category":"72","category_name":"广东菜","address":"徐汇区安亭路46号安亭别墅1号楼(近永嘉路)"},{"poiid":"B2094757DA69A2FB4893","title":"上海真爱酒吧Truelove","lon":"121.44662487568","lat":"31.205536497467","category":"172","category_name":"酒吧","address":"徐汇区衡山路10号(近高安路)"},{"poiid":"B2094750D06CA7FD409A","title":"SomeWhere秘境咖啡馆","lon":"121.44684","lat":"31.20488","category":"260","category_name":"其他","address":"徐汇区衡山路235号1楼(近高安路)"},{"poiid":"B2094750DB68A5F94998","title":"大蒜土耳其餐厅","lon":"121.447509","lat":"31.204093","category":"94","category_name":"西餐厅","address":"徐汇区永嘉路698号(近安亭路)"},{"poiid":"B2094751D36DA6FF4099","title":"悦海壹号","lon":"121.44688","lat":"31.20476","category":"76","category_name":"上海菜","address":"徐汇区衡山路237号高安公馆2楼(近永嘉路)"},{"poiid":"B2094654DA6DA7F9459C","title":"MT Club(衡山路店)","lon":"121.44657","lat":"31.20556","category":"248","category_name":"生活娱乐","address":"上海徐汇区衡山路10号欧登保龄球甲2楼"},{"poiid":"B2094757D068A6F8409B","title":"瑜伽空间(Yoga Space)","lon":"121.44525","lat":"31.20361","category":"148","category_name":"美容美发店","address":"上海徐汇区高安路35号3楼(近衡山路)"},{"poiid":"B2094750DA68A0FF419B","title":"garlic","lon":"121.447525","lat":"31.204221","category":"247","category_name":"餐饮美食","address":"徐匯區永嘉路698號"},{"poiid":"B2094757D069A6F4429C","title":"Mural","lon":"121.446511","lat":"31.203679","category":"172","category_name":"酒吧","address":"上海永嘉路697号"},{"poiid":"B2094655D26AA7FC4693","title":"安亭别墅宴会厅","lon":"121.4473","lat":"31.20273","category":"247","category_name":"餐饮美食","address":"徐汇区安亭路46号安亭别墅内(近永嘉路)查看地图"},{"poiid":"B2094750DA6EA6FC429D","title":"欧登保龄球","lon":"121.4468","lat":"31.205379","category":"220","category_name":"运动场所","address":"衡山路10号"},{"poiid":"B2094757D068A1FA459A","title":"高安路","lon":"121.44740295","lat":"31.204931259","category":"260","category_name":"其他","address":"上海徐汇区高安路"},{"poiid":"B2094757D16AA7FA4592","title":"机关建国幼儿园(安亭路)","lon":"121.447842","lat":"31.202596","category":"57","category_name":"幼儿园","address":"上海安亭路112号"},{"poiid":"B2094757D168A3FB439B","title":"安亭路","lon":"121.447302","lat":"31.202734","category":"500","category_name":"未知分类","address":"上海市徐汇区安亭路"},{"poiid":"B2094654DA6DA7FA4098","title":"华龙公寓","lon":"121.44634","lat":"31.203436","category":"47","category_name":"住宅区","address":"永嘉路699-701"},{"poiid":"B2094654DA6DA7FA4398","title":"上海质量技术认证中心","lon":"121.44767","lat":"31.20398","category":"250","category_name":"公园户外","address":"永嘉路627"},{"poiid":"B2094757D06FA3FD4598","title":"衡山路","lon":"121.44432","lat":"31.20163","category":"260","category_name":"其他","address":"徐汇区衡山路(衡山路吴兴路)"},{"poiid":"B2094654DB64A6FD4192","title":"上海安亭别墅花园酒店","lon":"121.4473","lat":"31.20273","category":"214","category_name":"四星级宾馆","address":"上海市徐汇区安亭路46号(近建国西路)"},{"poiid":"B2094757D66DA4FD4499","title":"菲芘酒吧","lon":"121.447201886","lat":"31.2057479523","category":"174","category_name":"迪厅","address":"上海衡山路10号甲一层"},{"poiid":"B2094753D76FAAFA449C","title":"上海滩国泰旗舰店","lon":"121.466011","lat":"31.216125","category":"249","category_name":"购物服务","address":"淮海中路868号"},{"poiid":"B209475CD564A7F8439E","title":"上海滩中信泰富店","lon":"121.45602","lat":"31.22851","category":"119","category_name":"商场","address":"\"南京西路1168号中信泰富广场，店铺号221.\r\n\""},{"poiid":"B2094757D06FA2FD419D","title":"Cotton's(安亭路店)","lon":"121.44787979","lat":"31.201636707","category":"260","category_name":"其他","address":"徐汇区安亭路132号(建国西路口)"},{"poiid":"B2094757D568AAF94199","title":"Shari","lon":"121.44823703","lat":"31.20476101","category":"95","category_name":"日本料理","address":"徐汇区永嘉路630号(近乌鲁木齐南路)"},{"poiid":"B2094757DB6FA2FB499A","title":"衡山路十二号豪华精选酒店","lon":"121.44645321431","lat":"31.20471978314","category":"215","category_name":"三星级宾馆","address":"徐汇区衡山路12号"},{"poiid":"B2094757D06EAAFF4899","title":"星巴克 衡山路店 Starbucks Cafe","lon":"121.446764054","lat":"31.206216793","category":"260","category_name":"其他","address":"徐汇区衡山路4号领馆广场内(近乌鲁木齐南路)"},{"poiid":"B2094757D06EAAFC4292","title":"菲比","lon":"121.44647479","lat":"31.204945495","category":"172","category_name":"酒吧","address":"徐汇区衡山路10号欧登大厦1楼(近乌鲁木齐南路)"},{"poiid":"B2094757D06FA3F84899","title":"衡山小馆(衡山店)","lon":"121.44508","lat":"31.20207","category":"72","category_name":"广东菜","address":"徐汇区衡山路308号(近高安路)"},{"poiid":"B2094757D06AA3FA479B","title":"H2","lon":"121.449141","lat":"31.204116","category":"94","category_name":"西餐厅","address":"徐汇区乌鲁木齐南路145号(近永嘉路)"},{"poiid":"B2094757D665AAF8409F","title":"西界酒吧 West Side","lon":"121.447479054","lat":"31.205316793","category":"260","category_name":"其他","address":"徐汇区衡山路237号(近高安路)"},{"poiid":"B2094654DA6DA7FA409A","title":"贝尼酒吧","lon":"121.44584","lat":"31.20336","category":"260","category_name":"其他","address":"徐汇区永嘉路705号(衡山路口)"},{"poiid":"B2094757D06EAAF54392","title":"衡山路地铁站","lon":"121.44659716","lat":"31.204602285","category":"36","category_name":"地铁站","address":"上海轨道交通 一号线 轨交衡山路站 1"},{"poiid":"B2094757D06AA2FB4299","title":"MT3","lon":"121.44685058","lat":"31.205462946","category":"500","category_name":"未知分类","address":"上海衡山路10号"},{"poiid":"B2094757D06FA2F9409B","title":"建汇大厦","lon":"121.446","lat":"31.2018","category":"46","category_name":"楼宇","address":"上海市徐汇区衡山路922号"},{"poiid":"B2094757D06FAAF9499C","title":"一哥海鲜火锅","lon":"121.446774586","lat":"31.2056789509","category":"86","category_name":"火锅店","address":"徐汇区衡山路10号(近高安路)"},{"poiid":"B2094654DA6DA7F94592","title":"欧登","lon":"121.44657","lat":"31.20556","category":"46","category_name":"楼宇","address":"上海衡山路10号甲"},{"poiid":"B2094757D06FAAFB409A","title":"徐家汇国际大厦","lon":"121.448","lat":"31.2012","category":"46","category_name":"楼宇","address":"上海市徐汇区肇嘉浜路1033号"},{"poiid":"B2094757D068AAFD4199","title":"GOD HANDS日系发型设计","lon":"121.44647658","lat":"31.204292923","category":"148","category_name":"美容美发店","address":"上海市徐汇区衡山路235号"},{"poiid":"B2094757DA6AA6FB449C","title":"上海歌城","lon":"121.445144","lat":"31.203566","category":"170","category_name":"KTV","address":"长宁区淮海西路"},{"poiid":"B2094757D068A4FF459E","title":"巴犀烧烤屋","lon":"121.44698","lat":"31.20507","category":"94","category_name":"西餐厅","address":"徐汇区衡山路4号领馆广场内(近乌鲁木齐南路)"},{"poiid":"B2094654DA6DABFE459A","title":"巾帼园","lon":"121.446","lat":"31.2033","category":"46","category_name":"楼宇","address":"上海天平路245号"},{"poiid":"B2094757D069A4F44493","title":"Club Phebe","lon":"121.44689243","lat":"31.205410175","category":"500","category_name":"未知分类","address":"上海衡山路乌鲁木齐路"},{"poiid":"B2094757D06FA6F44792","title":"哥莉酒吧","lon":"121.445563","lat":"31.203115","category":"260","category_name":"其他","address":"徐汇区衡山路(高安路口)"},{"poiid":"B2094757D06BA3F94999","title":"衡山路高安路","lon":"121.44600788","lat":"31.203830914","category":"500","category_name":"未知分类","address":"上海徐汇区"},{"poiid":"B2094654DA6DA7F94992","title":"88酒吧","lon":"121.44596","lat":"31.20336","category":"172","category_name":"酒吧","address":"上海静安区富民路291号悟锦大厦2楼(近长乐路),,,88号酒吧"},{"poiid":"B2094655D26EAAF84199","title":"唐韵茶坊 徐汇店","lon":"121.44775275124","lat":"31.205628558528","category":"66","category_name":"茶艺馆","address":"徐汇区衡山路199号(高安路乌鲁木齐路间)"},{"poiid":"B2094757D66AA5FD409E","title":"摩砚 MURAL Bar","lon":"121.44643577473","lat":"31.20377994383","category":"260","category_name":"其他","address":"徐汇区永嘉路697号地下室(近衡山路)"},{"poiid":"B2094757D068A3FC489D","title":"顿迪酒吧","lon":"121.44623","lat":"31.20313","category":"260","category_name":"其他","address":"徐汇区衡山路281号(近高安路)"},{"poiid":"B2094757D06BA1F9499F","title":"上海市徐汇公证处","lon":"121.44639658","lat":"31.203727912","category":"500","category_name":"未知分类","address":"上海市徐汇区衡山路249号"},{"poiid":"B2094757D06AA0FD429B","title":"衡园酒家","lon":"121.44657","lat":"31.20198","category":"76","category_name":"上海菜","address":"徐汇区高安路35号2楼(衡山路口)"},{"poiid":"B2094750D66EA5FA409B","title":"建国328小馆","lon":"121.44886","lat":"31.204284","category":"76","category_name":"上海菜","address":"徐汇区建国西路328号(近襄阳南路)"},{"poiid":"B2094654DB69A7FD4393","title":"名轩(徐汇店)","lon":"121.4473","lat":"31.20273","category":"72","category_name":"广东菜","address":"徐汇区安亭路46号安亭别墅1号楼(近永嘉路)"},{"poiid":"B2094757DA69A2FB4893","title":"上海真爱酒吧Truelove","lon":"121.44662487568","lat":"31.205536497467","category":"172","category_name":"酒吧","address":"徐汇区衡山路10号(近高安路)"},{"poiid":"B2094750D06CA7FD409A","title":"SomeWhere秘境咖啡馆","lon":"121.44684","lat":"31.20488","category":"260","category_name":"其他","address":"徐汇区衡山路235号1楼(近高安路)"},{"poiid":"B2094750DB68A5F94998","title":"大蒜土耳其餐厅","lon":"121.447509","lat":"31.204093","category":"94","category_name":"西餐厅","address":"徐汇区永嘉路698号(近安亭路)"},{"poiid":"B2094751D36DA6FF4099","title":"悦海壹号","lon":"121.44688","lat":"31.20476","category":"76","category_name":"上海菜","address":"徐汇区衡山路237号高安公馆2楼(近永嘉路)"},{"poiid":"B2094654DA6DA7F9459C","title":"MT Club(衡山路店)","lon":"121.44657","lat":"31.20556","category":"248","category_name":"生活娱乐","address":"上海徐汇区衡山路10号欧登保龄球甲2楼"},{"poiid":"B2094757D068A6F8409B","title":"瑜伽空间(Yoga Space)","lon":"121.44525","lat":"31.20361","category":"148","category_name":"美容美发店","address":"上海徐汇区高安路35号3楼(近衡山路)"},{"poiid":"B2094750DA68A0FF419B","title":"garlic","lon":"121.447525","lat":"31.204221","category":"247","category_name":"餐饮美食","address":"徐匯區永嘉路698號"},{"poiid":"B2094757D069A6F4429C","title":"Mural","lon":"121.446511","lat":"31.203679","category":"172","category_name":"酒吧","address":"上海永嘉路697号"},{"poiid":"B2094655D26AA7FC4693","title":"安亭别墅宴会厅","lon":"121.4473","lat":"31.20273","category":"247","category_name":"餐饮美食","address":"徐汇区安亭路46号安亭别墅内(近永嘉路)查看地图"},{"poiid":"B2094750DA6EA6FC429D","title":"欧登保龄球","lon":"121.4468","lat":"31.205379","category":"220","category_name":"运动场所","address":"衡山路10号"},{"poiid":"B2094757D068A1FA459A","title":"高安路","lon":"121.44740295","lat":"31.204931259","category":"260","category_name":"其他","address":"上海徐汇区高安路"},{"poiid":"B2094757D16AA7FA4592","title":"机关建国幼儿园(安亭路)","lon":"121.447842","lat":"31.202596","category":"57","category_name":"幼儿园","address":"上海安亭路112号"},{"poiid":"B2094757D168A3FB439B","title":"安亭路","lon":"121.447302","lat":"31.202734","category":"500","category_name":"未知分类","address":"上海市徐汇区安亭路"},{"poiid":"B2094654DA6DA7FA4098","title":"华龙公寓","lon":"121.44634","lat":"31.203436","category":"47","category_name":"住宅区","address":"永嘉路699-701"},{"poiid":"B2094654DA6DA7FA4398","title":"上海质量技术认证中心","lon":"121.44767","lat":"31.20398","category":"250","category_name":"公园户外","address":"永嘉路627"},{"poiid":"B2094757D06FA3FD4598","title":"衡山路","lon":"121.44432","lat":"31.20163","category":"260","category_name":"其他","address":"徐汇区衡山路(衡山路吴兴路)"},{"poiid":"B2094654DB64A6FD4192","title":"上海安亭别墅花园酒店","lon":"121.4473","lat":"31.20273","category":"214","category_name":"四星级宾馆","address":"上海市徐汇区安亭路46号(近建国西路)"},{"poiid":"B2094757D66DA4FD4499","title":"菲芘酒吧","lon":"121.447201886","lat":"31.2057479523","category":"174","category_name":"迪厅","address":"上海衡山路10号甲一层"},{"poiid":"B2094753D76FAAFA449C","title":"上海滩国泰旗舰店","lon":"121.466011","lat":"31.216125","category":"249","category_name":"购物服务","address":"淮海中路868号"},{"poiid":"B209475CD564A7F8439E","title":"上海滩中信泰富店","lon":"121.45602","lat":"31.22851","category":"119","category_name":"商场","address":"\"南京西路1168号中信泰富广场，店铺号221.\r\n\""},{"poiid":"B2094757D06FA2FD419D","title":"Cotton's(安亭路店)","lon":"121.44787979","lat":"31.201636707","category":"260","category_name":"其他","address":"徐汇区安亭路132号(建国西路口)"},{"poiid":"B2094757D568AAF94199","title":"Shari","lon":"121.44823703","lat":"31.20476101","category":"95","category_name":"日本料理","address":"徐汇区永嘉路630号(近乌鲁木齐南路)"},{"poiid":"B2094757DB6FA2FB499A","title":"衡山路十二号豪华精选酒店","lon":"121.44645321431","lat":"31.20471978314","category":"215","category_name":"三星级宾馆","address":"徐汇区衡山路12号"},{"poiid":"B2094757D06EAAFF4899","title":"星巴克 衡山路店 Starbucks Cafe","lon":"121.446764054","lat":"31.206216793","category":"260","category_name":"其他","address":"徐汇区衡山路4号领馆广场内(近乌鲁木齐南路)"},{"poiid":"B2094757D06EAAFC4292","title":"菲比","lon":"121.44647479","lat":"31.204945495","category":"172","category_name":"酒吧","address":"徐汇区衡山路10号欧登大厦1楼(近乌鲁木齐南路)"},{"poiid":"B2094757D06FA3F84899","title":"衡山小馆(衡山店)","lon":"121.44508","lat":"31.20207","category":"72","category_name":"广东菜","address":"徐汇区衡山路308号(近高安路)"},{"poiid":"B2094757D06AA3FA479B","title":"H2","lon":"121.449141","lat":"31.204116","category":"94","category_name":"西餐厅","address":"徐汇区乌鲁木齐南路145号(近永嘉路)"},{"poiid":"B2094757D665AAF8409F","title":"西界酒吧 West Side","lon":"121.447479054","lat":"31.205316793","category":"260","category_name":"其他","address":"徐汇区衡山路237号(近高安路)"},{"poiid":"B2094654DA6DA7FA409A","title":"贝尼酒吧","lon":"121.44584","lat":"31.20336","category":"260","category_name":"其他","address":"徐汇区永嘉路705号(衡山路口)"},{"poiid":"B2094757D06EAAF54392","title":"衡山路地铁站","lon":"121.44659716","lat":"31.204602285","category":"36","category_name":"地铁站","address":"上海轨道交通 一号线 轨交衡山路站 1"},{"poiid":"B2094757D06AA2FB4299","title":"MT3","lon":"121.44685058","lat":"31.205462946","category":"500","category_name":"未知分类","address":"上海衡山路10号"},{"poiid":"B2094757D06FA2F9409B","title":"建汇大厦","lon":"121.446","lat":"31.2018","category":"46","category_name":"楼宇","address":"上海市徐汇区衡山路922号"},{"poiid":"B2094757D06FAAF9499C","title":"一哥海鲜火锅","lon":"121.446774586","lat":"31.2056789509","category":"86","category_name":"火锅店","address":"徐汇区衡山路10号(近高安路)"},{"poiid":"B2094654DA6DA7F94592","title":"欧登","lon":"121.44657","lat":"31.20556","category":"46","category_name":"楼宇","address":"上海衡山路10号甲"},{"poiid":"B2094757D06FAAFB409A","title":"徐家汇国际大厦","lon":"121.448","lat":"31.2012","category":"46","category_name":"楼宇","address":"上海市徐汇区肇嘉浜路1033号"},{"poiid":"B2094757D068AAFD4199","title":"GOD HANDS日系发型设计","lon":"121.44647658","lat":"31.204292923","category":"148","category_name":"美容美发店","address":"上海市徐汇区衡山路235号"},{"poiid":"B2094757DA6AA6FB449C","title":"上海歌城","lon":"121.445144","lat":"31.203566","category":"170","category_name":"KTV","address":"长宁区淮海西路"},{"poiid":"B2094757D068A4FF459E","title":"巴犀烧烤屋","lon":"121.44698","lat":"31.20507","category":"94","category_name":"西餐厅","address":"徐汇区衡山路4号领馆广场内(近乌鲁木齐南路)"},{"poiid":"B2094654DA6DABFE459A","title":"巾帼园","lon":"121.446","lat":"31.2033","category":"46","category_name":"楼宇","address":"上海天平路245号"},{"poiid":"B2094757D069A4F44493","title":"Club Phebe","lon":"121.44689243","lat":"31.205410175","category":"500","category_name":"未知分类","address":"上海衡山路乌鲁木齐路"},{"poiid":"B2094757D06FA6F44792","title":"哥莉酒吧","lon":"121.445563","lat":"31.203115","category":"260","category_name":"其他","address":"徐汇区衡山路(高安路口)"},{"poiid":"B2094757D06BA3F94999","title":"衡山路高安路","lon":"121.44600788","lat":"31.203830914","category":"500","category_name":"未知分类","address":"上海徐汇区"},{"poiid":"B2094654DA6DA7F94992","title":"88酒吧","lon":"121.44596","lat":"31.20336","category":"172","category_name":"酒吧","address":"上海静安区富民路291号悟锦大厦2楼(近长乐路),,,88号酒吧"},{"poiid":"B2094655D26EAAF84199","title":"唐韵茶坊 徐汇店","lon":"121.44775275124","lat":"31.205628558528","category":"66","category_name":"茶艺馆","address":"徐汇区衡山路199号(高安路乌鲁木齐路间)"},{"poiid":"B2094757D66AA5FD409E","title":"摩砚 MURAL Bar","lon":"121.44643577473","lat":"31.20377994383","category":"260","category_name":"其他","address":"徐汇区永嘉路697号地下室(近衡山路)"},{"poiid":"B2094757D068A3FC489D","title":"顿迪酒吧","lon":"121.44623","lat":"31.20313","category":"260","category_name":"其他","address":"徐汇区衡山路281号(近高安路)"},{"poiid":"B2094757D06BA1F9499F","title":"上海市徐汇公证处","lon":"121.44639658","lat":"31.203727912","category":"500","category_name":"未知分类","address":"上海市徐汇区衡山路249号"},{"poiid":"B2094757D06AA0FD429B","title":"衡园酒家","lon":"121.44657","lat":"31.20198","category":"76","category_name":"上海菜","address":"徐汇区高安路35号2楼(衡山路口)"},{"poiid":"B2094750D66EA5FA409B","title":"建国328小馆","lon":"121.44886","lat":"31.204284","category":"76","category_name":"上海菜","address":"徐汇区建国西路328号(近襄阳南路)"},{"poiid":"B2094654DB69A7FD4393","title":"名轩(徐汇店)","lon":"121.4473","lat":"31.20273","category":"72","category_name":"广东菜","address":"徐汇区安亭路46号安亭别墅1号楼(近永嘉路)"},{"poiid":"B2094757DA69A2FB4893","title":"上海真爱酒吧Truelove","lon":"121.44662487568","lat":"31.205536497467","category":"172","category_name":"酒吧","address":"徐汇区衡山路10号(近高安路)"},{"poiid":"B2094750D06CA7FD409A","title":"SomeWhere秘境咖啡馆","lon":"121.44684","lat":"31.20488","category":"260","category_name":"其他","address":"徐汇区衡山路235号1楼(近高安路)"},{"poiid":"B2094750DB68A5F94998","title":"大蒜土耳其餐厅","lon":"121.447509","lat":"31.204093","category":"94","category_name":"西餐厅","address":"徐汇区永嘉路698号(近安亭路)"},{"poiid":"B2094751D36DA6FF4099","title":"悦海壹号","lon":"121.44688","lat":"31.20476","category":"76","category_name":"上海菜","address":"徐汇区衡山路237号高安公馆2楼(近永嘉路)"},{"poiid":"B2094654DA6DA7F9459C","title":"MT Club(衡山路店)","lon":"121.44657","lat":"31.20556","category":"248","category_name":"生活娱乐","address":"上海徐汇区衡山路10号欧登保龄球甲2楼"},{"poiid":"B2094757D068A6F8409B","title":"瑜伽空间(Yoga Space)","lon":"121.44525","lat":"31.20361","category":"148","category_name":"美容美发店","address":"上海徐汇区高安路35号3楼(近衡山路)"},{"poiid":"B2094750DA68A0FF419B","title":"garlic","lon":"121.447525","lat":"31.204221","category":"247","category_name":"餐饮美食","address":"徐匯區永嘉路698號"},{"poiid":"B2094757D069A6F4429C","title":"Mural","lon":"121.446511","lat":"31.203679","category":"172","category_name":"酒吧","address":"上海永嘉路697号"},{"poiid":"B2094655D26AA7FC4693","title":"安亭别墅宴会厅","lon":"121.4473","lat":"31.20273","category":"247","category_name":"餐饮美食","address":"徐汇区安亭路46号安亭别墅内(近永嘉路)查看地图"},{"poiid":"B2094750DA6EA6FC429D","title":"欧登保龄球","lon":"121.4468","lat":"31.205379","category":"220","category_name":"运动场所","address":"衡山路10号"},{"poiid":"B2094757D068A1FA459A","title":"高安路","lon":"121.44740295","lat":"31.204931259","category":"260","category_name":"其他","address":"上海徐汇区高安路"},{"poiid":"B2094757D16AA7FA4592","title":"机关建国幼儿园(安亭路)","lon":"121.447842","lat":"31.202596","category":"57","category_name":"幼儿园","address":"上海安亭路112号"},{"poiid":"B2094757D168A3FB439B","title":"安亭路","lon":"121.447302","lat":"31.202734","category":"500","category_name":"未知分类","address":"上海市徐汇区安亭路"},{"poiid":"B2094654DA6DA7FA4098","title":"华龙公寓","lon":"121.44634","lat":"31.203436","category":"47","category_name":"住宅区","address":"永嘉路699-701"},{"poiid":"B2094654DA6DA7FA4398","title":"上海质量技术认证中心","lon":"121.44767","lat":"31.20398","category":"250","category_name":"公园户外","address":"永嘉路627"},{"poiid":"B2094757D06FA3FD4598","title":"衡山路","lon":"121.44432","lat":"31.20163","category":"260","category_name":"其他","address":"徐汇区衡山路(衡山路吴兴路)"},{"poiid":"B2094654DB64A6FD4192","title":"上海安亭别墅花园酒店","lon":"121.4473","lat":"31.20273","category":"214","category_name":"四星级宾馆","address":"上海市徐汇区安亭路46号(近建国西路)"},{"poiid":"B2094757D66DA4FD4499","title":"菲芘酒吧","lon":"121.447201886","lat":"31.2057479523","category":"174","category_name":"迪厅","address":"上海衡山路10号甲一层"},{"poiid":"B2094753D76FAAFA449C","title":"上海滩国泰旗舰店","lon":"121.466011","lat":"31.216125","category":"249","category_name":"购物服务","address":"淮海中路868号"},{"poiid":"B209475CD564A7F8439E","title":"上海滩中信泰富店","lon":"121.45602","lat":"31.22851","category":"119","category_name":"商场","address":"\"南京西路1168号中信泰富广场，店铺号221.\r\n\""},{"poiid":"B2094757D06FA2FD419D","title":"Cotton's(安亭路店)","lon":"121.44787979","lat":"31.201636707","category":"260","category_name":"其他","address":"徐汇区安亭路132号(建国西路口)"},{"poiid":"B2094757D568AAF94199","title":"Shari","lon":"121.44823703","lat":"31.20476101","category":"95","category_name":"日本料理","address":"徐汇区永嘉路630号(近乌鲁木齐南路)"},{"poiid":"B2094757DB6FA2FB499A","title":"衡山路十二号豪华精选酒店","lon":"121.44645321431","lat":"31.20471978314","category":"215","category_name":"三星级宾馆","address":"徐汇区衡山路12号"},{"poiid":"B2094757D06EAAFF4899","title":"星巴克 衡山路店 Starbucks Cafe","lon":"121.446764054","lat":"31.206216793","category":"260","category_name":"其他","address":"徐汇区衡山路4号领馆广场内(近乌鲁木齐南路)"},{"poiid":"B2094757D06EAAFC4292","title":"菲比","lon":"121.44647479","lat":"31.204945495","category":"172","category_name":"酒吧","address":"徐汇区衡山路10号欧登大厦1楼(近乌鲁木齐南路)"},{"poiid":"B2094757D06FA3F84899","title":"衡山小馆(衡山店)","lon":"121.44508","lat":"31.20207","category":"72","category_name":"广东菜","address":"徐汇区衡山路308号(近高安路)"},{"poiid":"B2094757D06AA3FA479B","title":"H2","lon":"121.449141","lat":"31.204116","category":"94","category_name":"西餐厅","address":"徐汇区乌鲁木齐南路145号(近永嘉路)"},{"poiid":"B2094757D665AAF8409F","title":"西界酒吧 West Side","lon":"121.447479054","lat":"31.205316793","category":"260","category_name":"其他","address":"徐汇区衡山路237号(近高安路)"},{"poiid":"B2094654DA6DA7FA409A","title":"贝尼酒吧","lon":"121.44584","lat":"31.20336","category":"260","category_name":"其他","address":"徐汇区永嘉路705号(衡山路口)"},{"poiid":"B2094757D06EAAF54392","title":"衡山路地铁站","lon":"121.44659716","lat":"31.204602285","category":"36","category_name":"地铁站","address":"上海轨道交通 一号线 轨交衡山路站 1"},{"poiid":"B2094757D06AA2FB4299","title":"MT3","lon":"121.44685058","lat":"31.205462946","category":"500","category_name":"未知分类","address":"上海衡山路10号"},{"poiid":"B2094757D06FA2F9409B","title":"建汇大厦","lon":"121.446","lat":"31.2018","category":"46","category_name":"楼宇","address":"上海市徐汇区衡山路922号"},{"poiid":"B2094757D06FAAF9499C","title":"一哥海鲜火锅","lon":"121.446774586","lat":"31.2056789509","category":"86","category_name":"火锅店","address":"徐汇区衡山路10号(近高安路)"},{"poiid":"B2094654DA6DA7F94592","title":"欧登","lon":"121.44657","lat":"31.20556","category":"46","category_name":"楼宇","address":"上海衡山路10号甲"},{"poiid":"B2094757D06FAAFB409A","title":"徐家汇国际大厦","lon":"121.448","lat":"31.2012","category":"46","category_name":"楼宇","address":"上海市徐汇区肇嘉浜路1033号"},{"poiid":"B2094757D068AAFD4199","title":"GOD HANDS日系发型设计","lon":"121.44647658","lat":"31.204292923","category":"148","category_name":"美容美发店","address":"上海市徐汇区衡山路235号"},{"poiid":"B2094757DA6AA6FB449C","title":"上海歌城","lon":"121.445144","lat":"31.203566","category":"170","category_name":"KTV","address":"长宁区淮海西路"},{"poiid":"B2094757D068A4FF459E","title":"巴犀烧烤屋","lon":"121.44698","lat":"31.20507","category":"94","category_name":"西餐厅","address":"徐汇区衡山路4号领馆广场内(近乌鲁木齐南路)"},{"poiid":"B2094654DA6DABFE459A","title":"巾帼园","lon":"121.446","lat":"31.2033","category":"46","category_name":"楼宇","address":"上海天平路245号"},{"poiid":"B2094757D069A4F44493","title":"Club Phebe","lon":"121.44689243","lat":"31.205410175","category":"500","category_name":"未知分类","address":"上海衡山路乌鲁木齐路"},{"poiid":"B2094757D06FA6F44792","title":"哥莉酒吧","lon":"121.445563","lat":"31.203115","category":"260","category_name":"其他","address":"徐汇区衡山路(高安路口)"},{"poiid":"B2094757D06BA3F94999","title":"衡山路高安路","lon":"121.44600788","lat":"31.203830914","category":"500","category_name":"未知分类","address":"上海徐汇区"},{"poiid":"B2094654DA6DA7F94992","title":"88酒吧","lon":"121.44596","lat":"31.20336","category":"172","category_name":"酒吧","address":"上海静安区富民路291号悟锦大厦2楼(近长乐路),,,88号酒吧"},{"poiid":"B2094655D26EAAF84199","title":"唐韵茶坊 徐汇店","lon":"121.44775275124","lat":"31.205628558528","category":"66","category_name":"茶艺馆","address":"徐汇区衡山路199号(高安路乌鲁木齐路间)"},{"poiid":"B2094757D66AA5FD409E","title":"摩砚 MURAL Bar","lon":"121.44643577473","lat":"31.20377994383","category":"260","category_name":"其他","address":"徐汇区永嘉路697号地下室(近衡山路)"},{"poiid":"B2094757D068A3FC489D","title":"顿迪酒吧","lon":"121.44623","lat":"31.20313","category":"260","category_name":"其他","address":"徐汇区衡山路281号(近高安路)"},{"poiid":"B2094757D06BA1F9499F","title":"上海市徐汇公证处","lon":"121.44639658","lat":"31.203727912","category":"500","category_name":"未知分类","address":"上海市徐汇区衡山路249号"},{"poiid":"B2094757D06AA0FD429B","title":"衡园酒家","lon":"121.44657","lat":"31.20198","category":"76","category_name":"上海菜","address":"徐汇区高安路35号2楼(衡山路口)"},{"poiid":"B2094750D66EA5FA409B","title":"建国328小馆","lon":"121.44886","lat":"31.204284","category":"76","category_name":"上海菜","address":"徐汇区建国西路328号(近襄阳南路)"},{"poiid":"B2094654DB69A7FD4393","title":"名轩(徐汇店)","lon":"121.4473","lat":"31.20273","category":"72","category_name":"广东菜","address":"徐汇区安亭路46号安亭别墅1号楼(近永嘉路)"},{"poiid":"B2094757DA69A2FB4893","title":"上海真爱酒吧Truelove","lon":"121.44662487568","lat":"31.205536497467","category":"172","category_name":"酒吧","address":"徐汇区衡山路10号(近高安路)"},{"poiid":"B2094750D06CA7FD409A","title":"SomeWhere秘境咖啡馆","lon":"121.44684","lat":"31.20488","category":"260","category_name":"其他","address":"徐汇区衡山路235号1楼(近高安路)"},{"poiid":"B2094750DB68A5F94998","title":"大蒜土耳其餐厅","lon":"121.447509","lat":"31.204093","category":"94","category_name":"西餐厅","address":"徐汇区永嘉路698号(近安亭路)"},{"poiid":"B2094751D36DA6FF4099","title":"悦海壹号","lon":"121.44688","lat":"31.20476","category":"76","category_name":"上海菜","address":"徐汇区衡山路237号高安公馆2楼(近永嘉路)"},{"poiid":"B2094654DA6DA7F9459C","title":"MT Club(衡山路店)","lon":"121.44657","lat":"31.20556","category":"248","category_name":"生活娱乐","address":"上海徐汇区衡山路10号欧登保龄球甲2楼"},{"poiid":"B2094757D068A6F8409B","title":"瑜伽空间(Yoga Space)","lon":"121.44525","lat":"31.20361","category":"148","category_name":"美容美发店","address":"上海徐汇区高安路35号3楼(近衡山路)"},{"poiid":"B2094750DA68A0FF419B","title":"garlic","lon":"121.447525","lat":"31.204221","category":"247","category_name":"餐饮美食","address":"徐匯區永嘉路698號"},{"poiid":"B2094757D069A6F4429C","title":"Mural","lon":"121.446511","lat":"31.203679","category":"172","category_name":"酒吧","address":"上海永嘉路697号"},{"poiid":"B2094655D26AA7FC4693","title":"安亭别墅宴会厅","lon":"121.4473","lat":"31.20273","category":"247","category_name":"餐饮美食","address":"徐汇区安亭路46号安亭别墅内(近永嘉路)查看地图"},{"poiid":"B2094750DA6EA6FC429D","title":"欧登保龄球","lon":"121.4468","lat":"31.205379","category":"220","category_name":"运动场所","address":"衡山路10号"},{"poiid":"B2094757D068A1FA459A","title":"高安路","lon":"121.44740295","lat":"31.204931259","category":"260","category_name":"其他","address":"上海徐汇区高安路"},{"poiid":"B2094757D16AA7FA4592","title":"机关建国幼儿园(安亭路)","lon":"121.447842","lat":"31.202596","category":"57","category_name":"幼儿园","address":"上海安亭路112号"},{"poiid":"B2094757D168A3FB439B","title":"安亭路","lon":"121.447302","lat":"31.202734","category":"500","category_name":"未知分类","address":"上海市徐汇区安亭路"},{"poiid":"B2094654DA6DA7FA4098","title":"华龙公寓","lon":"121.44634","lat":"31.203436","category":"47","category_name":"住宅区","address":"永嘉路699-701"},{"poiid":"B2094654DA6DA7FA4398","title":"上海质量技术认证中心","lon":"121.44767","lat":"31.20398","category":"250","category_name":"公园户外","address":"永嘉路627"}]