[{"poiid":"B2094757D06AABF5429E","title":"吴淞口国际邮轮港","lon":"121.50557","lat":"31.404876","category":"500","category_name":"未知分类","address":"上海市宝山区宝杨路１号"},{"poiid":"B2094757D06FA5F44392","title":"宝杨码头","lon":"121.501694","lat":"31.40562","category":"234","category_name":"海滨浴场","address":"上海宝山区宝杨支路18号"},{"poiid":"B2094757D06FA1FE4299","title":"临江公园","lon":"121.49385081","lat":"31.408717702","category":"196","category_name":"公园","address":"上海市宝山区友谊路1号"},{"poiid":"B2094757D068A7FC4592","title":"行知中学","lon":"121.49784","lat":"31.40544","category":"55","category_name":"中学","address":"宝山区宝林支路99号"},{"poiid":"B2094757D068A4FE4693","title":"长江江堤","lon":"121.49430583","lat":"31.411120415","category":"500","category_name":"未知分类","address":"上海市宝山区盘古路"},{"poiid":"B2094654D46AA6FA4693","title":"宝杨路码头候船室","lon":"121.50009","lat":"31.40575","category":"34","category_name":"港口码头","address":""},{"poiid":"B2094757DA6FA2FC4998","title":"吴淞炮台湾湿地公园(北门)","lon":"121.501836776732","lat":"31.4026964848086","category":"250","category_name":"公园户外","address":"宝山区宝杨路(近宝杨支路)"},{"poiid":"B2094757D06FABFE459A","title":"海江二村","lon":"121.50371","lat":"31.393312","category":"47","category_name":"住宅区","address":"永乐路222弄"},{"poiid":"B2094654D46AA6FA469B","title":"宝钢宝林九村","lon":"121.49991","lat":"31.40378","category":"47","category_name":"住宅区","address":"友谊路"},{"poiid":"B2094757D568A5FC4293","title":"宝杨路客运码头","lon":"121.5038789","lat":"31.40380139","category":"35","category_name":"长途汽车站","address":"宝杨支路18号宝杨码头"},{"poiid":"B2094654D46AA4FE459C","title":"上海市基督教吴淞堂","lon":"121.5013","lat":"31.40229","category":"245","category_name":"教堂","address":"宝山区宝杨路74"},{"poiid":"B2094757D164A4FA439B","title":"海滨五村","lon":"121.50103062728","lat":"31.401987993104","category":"46","category_name":"楼宇","address":"上海牡丹江路水产路"},{"poiid":"B2094654D46AA4FE439C","title":"中艺花园","lon":"121.49869","lat":"31.3999","category":"47","category_name":"住宅区","address":"中艺花园位于宝山海江路9号"},{"poiid":"B2094654D46AA4FE4198","title":"宝山六村","lon":"121.502","lat":"31.397743","category":"47","category_name":"住宅区","address":"上海市宝山区永乐路115弄"},{"poiid":"B2094757D06AA1FA4199","title":"小绍兴(东林路店)","lon":"121.49421","lat":"31.40477","category":"68","category_name":"快餐厅","address":"宝山区东林路227号(近密山路)"},{"poiid":"B2094750D268AAFD4299","title":"鲜芋仙易买得牡丹江路店","lon":"121.495666","lat":"31.397224","category":"247","category_name":"餐饮美食","address":"宝山区牡丹江路1258号易买得内(近安信广场)"},{"poiid":"B2094757D16FA6F5489C","title":"宝林四小","lon":"121.50114293","lat":"31.402752243","category":"56","category_name":"小学","address":"上海宝山区宝林七村82号"},{"poiid":"B2094757D16CA2F5449B","title":"杉松酒家","lon":"121.49534","lat":"31.40153","category":"76","category_name":"上海菜","address":"宝山区东林路17号(近宝杨路)"},{"poiid":"B2094750D16BA2FE4598","title":"皇家加勒比游轮","lon":"121.502983","lat":"31.404596","category":"500","category_name":"未知分类","address":null},{"poiid":"B2094750D16BA0F84992","title":"宝山体育中心羽毛球馆","lon":"121.498832","lat":"31.398883","category":"250","category_name":"公园户外","address":"宝山区永清路700号(近海江路)"},{"poiid":"B2094654D46AA6FB409B","title":"宝钢宝林六村","lon":"121.49604","lat":"31.40335","category":"47","category_name":"住宅区","address":"友谊路"},{"poiid":"B2094757D06AABFA439B","title":"淞沪抗战纪念馆","lon":"121.493002","lat":"31.408646","category":"182","category_name":"博物馆","address":"宝山区友谊路1号临江公园内(近东林路)"},{"poiid":"B2094654D46AA4FE4993","title":"宝钢宝山十村(淞宝路)","lon":"121.49414","lat":"31.39959","category":"47","category_name":"住宅区","address":"宝山十村108"},{"poiid":"B2094757D16DA6FE499F","title":"行知中学宿舍楼","lon":"121.50007523","lat":"31.403496958","category":"500","category_name":"未知分类","address":"上海市宝山区宝杨路55号"},{"poiid":"B2094655D268A4FB4792","title":"上海市基督教吴淞堂(北门)","lon":"121.50147","lat":"31.40249","category":"680","category_name":"楼宇机构","address":""},{"poiid":"B2094654D46AA5F5439F","title":"宝林八村","lon":"121.49574","lat":"31.407093","category":"47","category_name":"住宅区","address":"宝林八村"},{"poiid":"B2094655D36CA5F54793","title":"宝杨路宝东路","lon":"121.49815","lat":"31.4021","category":"38","category_name":"公交车站","address":""},{"poiid":"B2094757D66CA6FB459F","title":"黄浦江边","lon":"121.49665683","lat":"31.408402359","category":"500","category_name":"未知分类","address":"上海市宝山区东林路"},{"poiid":"B2094654D46AA4FD4398","title":"上海交通大学医学附属卫生学校宝山分校","lon":"121.49748","lat":"31.3955","category":"52","category_name":"高等院校","address":"永乐路399"},{"poiid":"B2094654D46AA4FE419F","title":"海江公寓","lon":"121.5037","lat":"31.399063","category":"47","category_name":"住宅区","address":"塘后路285弄"},{"poiid":"B2094757D068A7F44393","title":"宝山七村","lon":"121.49985","lat":"31.396515","category":"252","category_name":"楼宇机构","address":"上海宝山区海江路永乐路"},{"poiid":"B2094750D669A4FA459A","title":"上海长江河口科技馆","lon":"121.506713","lat":"31.400457","category":"250","category_name":"公园户外","address":"宝山区塘后路206号吴淞炮台湾湿地公园(近国际邮轮码头)"},{"poiid":"B2094654D46AA6FB419A","title":"晓刚面亭","lon":"121.49426744298","lat":"31.404081705949","category":"68","category_name":"快餐厅","address":"宝山区东林路69号(近宝杨路)"},{"poiid":"B2094654D46AA5F5439E","title":"临江佳园","lon":"121.497","lat":"31.407377","category":"47","category_name":"住宅区","address":"上海市宝山区密山东路11号"},{"poiid":"B2094654D46AA6FA469A","title":"友谊街道社区卫生服务中心","lon":"121.49568","lat":"31.40164","category":"162","category_name":"医院","address":"宝杨路333"},{"poiid":"B2094654D46AA6FA479A","title":"宝林七村","lon":"121.49573","lat":"31.404539","category":"47","category_name":"住宅区","address":"上海市宝林路子青路"},{"poiid":"B2094655D268A0F8409A","title":"宝钢宝林九村(西门)","lon":"121.49914","lat":"31.40348","category":"656","category_name":"大门","address":""},{"poiid":"B2094757D16DA2F8459D","title":"上海市宝山区医疗保险事务中心","lon":"121.499964831","lat":"31.3996001779","category":"500","category_name":"未知分类","address":"上海市宝山区宝东路879号"},{"poiid":"B2094655D268A0F54092","title":"锦江之星旅馆宝杨码头店","lon":"121.49147","lat":"31.39991","category":"216","category_name":"经济型连锁酒店","address":"上海市宝山区宝杨路580号"},{"poiid":"B2094655D268A1F9419B","title":"福幸餐厅","lon":"121.50036","lat":"31.40158","category":"260","category_name":"其他","address":"宝山区东林路3号(近宝杨路)"},{"poiid":"B2094750D76EA2FB449D","title":"新青年羊蝎子火锅","lon":"121.494","lat":"31.4042","category":"86","category_name":"火锅店","address":"宝山区东林路197号(近宝杨路)"},{"poiid":"B2094757D164A6F5489B","title":"潮州汤骨煲 东林路店","lon":"121.494951054","lat":"31.401899793","category":"86","category_name":"火锅店","address":"宝山区东林路69号(近宝杨路)"},{"poiid":"B2094654D46AA7FB4099","title":"宝山一村","lon":"121.509","lat":"31.4009","category":"47","category_name":"住宅区","address":"上海双城路宝东路宝山一村4号"},{"poiid":"B2094757D16FA5FB489A","title":"宝信软件海江路基地","lon":"121.501192","lat":"31.399475","category":"500","category_name":"未知分类","address":"上海宝山区海江路5号"},{"poiid":"B2094654D46AA4FE479C","title":"宝山派出所","lon":"121.49796","lat":"31.40126","category":"609","category_name":"警察局","address":"宝杨路256号"},{"poiid":"B2094750D665A3F84899","title":"段氏龙虾(东林路店)","lon":"121.494","lat":"31.4051","category":"68","category_name":"快餐厅","address":"宝山区东林路"},{"poiid":"B2094655D26FABFA439F","title":"宝钢宝林六村(南一门)","lon":"121.49822","lat":"31.4023","category":"656","category_name":"大门","address":""},{"poiid":"B2094757D66FA3FF499F","title":"中国黄金宝山店","lon":"121.496805031","lat":"31.4040325694","category":"500","category_name":"未知分类","address":"上海牡丹江路1670号"},{"poiid":"B2094654D46AA4FE4398","title":"上海市宝山区民政福利企业公司","lon":"121.50061","lat":"31.39995","category":"263","category_name":"公司","address":"宝东路885"},{"poiid":"B2094757D165ABF8439A","title":"湘村人家 宝山店","lon":"121.493932","lat":"31.404509","category":"77","category_name":"湖南菜","address":"宝山区东林路168号(近密山路)"},{"poiid":"B2094757D06AABF5429E","title":"吴淞口国际邮轮港","lon":"121.50557","lat":"31.404876","category":"500","category_name":"未知分类","address":"上海市宝山区宝杨路１号"},{"poiid":"B2094757D06FA5F44392","title":"宝杨码头","lon":"121.501694","lat":"31.40562","category":"234","category_name":"海滨浴场","address":"上海宝山区宝杨支路18号"},{"poiid":"B2094757D06FA1FE4299","title":"临江公园","lon":"121.49385081","lat":"31.408717702","category":"196","category_name":"公园","address":"上海市宝山区友谊路1号"},{"poiid":"B2094757D068A7FC4592","title":"行知中学","lon":"121.49784","lat":"31.40544","category":"55","category_name":"中学","address":"宝山区宝林支路99号"},{"poiid":"B2094757D068A4FE4693","title":"长江江堤","lon":"121.49430583","lat":"31.411120415","category":"500","category_name":"未知分类","address":"上海市宝山区盘古路"},{"poiid":"B2094654D46AA6FA4693","title":"宝杨路码头候船室","lon":"121.50009","lat":"31.40575","category":"34","category_name":"港口码头","address":""},{"poiid":"B2094757DA6FA2FC4998","title":"吴淞炮台湾湿地公园(北门)","lon":"121.501836776732","lat":"31.4026964848086","category":"250","category_name":"公园户外","address":"宝山区宝杨路(近宝杨支路)"},{"poiid":"B2094757D06FABFE459A","title":"海江二村","lon":"121.50371","lat":"31.393312","category":"47","category_name":"住宅区","address":"永乐路222弄"},{"poiid":"B2094654D46AA6FA469B","title":"宝钢宝林九村","lon":"121.49991","lat":"31.40378","category":"47","category_name":"住宅区","address":"友谊路"},{"poiid":"B2094757D568A5FC4293","title":"宝杨路客运码头","lon":"121.5038789","lat":"31.40380139","category":"35","category_name":"长途汽车站","address":"宝杨支路18号宝杨码头"},{"poiid":"B2094654D46AA4FE459C","title":"上海市基督教吴淞堂","lon":"121.5013","lat":"31.40229","category":"245","category_name":"教堂","address":"宝山区宝杨路74"},{"poiid":"B2094757D164A4FA439B","title":"海滨五村","lon":"121.50103062728","lat":"31.401987993104","category":"46","category_name":"楼宇","address":"上海牡丹江路水产路"},{"poiid":"B2094654D46AA4FE439C","title":"中艺花园","lon":"121.49869","lat":"31.3999","category":"47","category_name":"住宅区","address":"中艺花园位于宝山海江路9号"},{"poiid":"B2094654D46AA4FE4198","title":"宝山六村","lon":"121.502","lat":"31.397743","category":"47","category_name":"住宅区","address":"上海市宝山区永乐路115弄"},{"poiid":"B2094757D06AA1FA4199","title":"小绍兴(东林路店)","lon":"121.49421","lat":"31.40477","category":"68","category_name":"快餐厅","address":"宝山区东林路227号(近密山路)"},{"poiid":"B2094750D268AAFD4299","title":"鲜芋仙易买得牡丹江路店","lon":"121.495666","lat":"31.397224","category":"247","category_name":"餐饮美食","address":"宝山区牡丹江路1258号易买得内(近安信广场)"},{"poiid":"B2094757D16FA6F5489C","title":"宝林四小","lon":"121.50114293","lat":"31.402752243","category":"56","category_name":"小学","address":"上海宝山区宝林七村82号"},{"poiid":"B2094757D16CA2F5449B","title":"杉松酒家","lon":"121.49534","lat":"31.40153","category":"76","category_name":"上海菜","address":"宝山区东林路17号(近宝杨路)"},{"poiid":"B2094750D16BA2FE4598","title":"皇家加勒比游轮","lon":"121.502983","lat":"31.404596","category":"500","category_name":"未知分类","address":null},{"poiid":"B2094750D16BA0F84992","title":"宝山体育中心羽毛球馆","lon":"121.498832","lat":"31.398883","category":"250","category_name":"公园户外","address":"宝山区永清路700号(近海江路)"},{"poiid":"B2094654D46AA6FB409B","title":"宝钢宝林六村","lon":"121.49604","lat":"31.40335","category":"47","category_name":"住宅区","address":"友谊路"},{"poiid":"B2094757D06AABFA439B","title":"淞沪抗战纪念馆","lon":"121.493002","lat":"31.408646","category":"182","category_name":"博物馆","address":"宝山区友谊路1号临江公园内(近东林路)"},{"poiid":"B2094654D46AA4FE4993","title":"宝钢宝山十村(淞宝路)","lon":"121.49414","lat":"31.39959","category":"47","category_name":"住宅区","address":"宝山十村108"},{"poiid":"B2094757D16DA6FE499F","title":"行知中学宿舍楼","lon":"121.50007523","lat":"31.403496958","category":"500","category_name":"未知分类","address":"上海市宝山区宝杨路55号"},{"poiid":"B2094655D268A4FB4792","title":"上海市基督教吴淞堂(北门)","lon":"121.50147","lat":"31.40249","category":"680","category_name":"楼宇机构","address":""},{"poiid":"B2094654D46AA5F5439F","title":"宝林八村","lon":"121.49574","lat":"31.407093","category":"47","category_name":"住宅区","address":"宝林八村"},{"poiid":"B2094655D36CA5F54793","title":"宝杨路宝东路","lon":"121.49815","lat":"31.4021","category":"38","category_name":"公交车站","address":""},{"poiid":"B2094757D66CA6FB459F","title":"黄浦江边","lon":"121.49665683","lat":"31.408402359","category":"500","category_name":"未知分类","address":"上海市宝山区东林路"},{"poiid":"B2094654D46AA4FD4398","title":"上海交通大学医学附属卫生学校宝山分校","lon":"121.49748","lat":"31.3955","category":"52","category_name":"高等院校","address":"永乐路399"},{"poiid":"B2094654D46AA4FE419F","title":"海江公寓","lon":"121.5037","lat":"31.399063","category":"47","category_name":"住宅区","address":"塘后路285弄"},{"poiid":"B2094757D068A7F44393","title":"宝山七村","lon":"121.49985","lat":"31.396515","category":"252","category_name":"楼宇机构","address":"上海宝山区海江路永乐路"},{"poiid":"B2094750D669A4FA459A","title":"上海长江河口科技馆","lon":"121.506713","lat":"31.400457","category":"250","category_name":"公园户外","address":"宝山区塘后路206号吴淞炮台湾湿地公园(近国际邮轮码头)"},{"poiid":"B2094654D46AA6FB419A","title":"晓刚面亭","lon":"121.49426744298","lat":"31.404081705949","category":"68","category_name":"快餐厅","address":"宝山区东林路69号(近宝杨路)"},{"poiid":"B2094654D46AA5F5439E","title":"临江佳园","lon":"121.497","lat":"31.407377","category":"47","category_name":"住宅区","address":"上海市宝山区密山东路11号"},{"poiid":"B2094654D46AA6FA469A","title":"友谊街道社区卫生服务中心","lon":"121.49568","lat":"31.40164","category":"162","category_name":"医院","address":"宝杨路333"},{"poiid":"B2094654D46AA6FA479A","title":"宝林七村","lon":"121.49573","lat":"31.404539","category":"47","category_name":"住宅区","address":"上海市宝林路子青路"},{"poiid":"B2094655D268A0F8409A","title":"宝钢宝林九村(西门)","lon":"121.49914","lat":"31.40348","category":"656","category_name":"大门","address":""},{"poiid":"B2094757D16DA2F8459D","title":"上海市宝山区医疗保险事务中心","lon":"121.499964831","lat":"31.3996001779","category":"500","category_name":"未知分类","address":"上海市宝山区宝东路879号"},{"poiid":"B2094655D268A0F54092","title":"锦江之星旅馆宝杨码头店","lon":"121.49147","lat":"31.39991","category":"216","category_name":"经济型连锁酒店","address":"上海市宝山区宝杨路580号"},{"poiid":"B2094655D268A1F9419B","title":"福幸餐厅","lon":"121.50036","lat":"31.40158","category":"260","category_name":"其他","address":"宝山区东林路3号(近宝杨路)"},{"poiid":"B2094750D76EA2FB449D","title":"新青年羊蝎子火锅","lon":"121.494","lat":"31.4042","category":"86","category_name":"火锅店","address":"宝山区东林路197号(近宝杨路)"},{"poiid":"B2094757D164A6F5489B","title":"潮州汤骨煲 东林路店","lon":"121.494951054","lat":"31.401899793","category":"86","category_name":"火锅店","address":"宝山区东林路69号(近宝杨路)"},{"poiid":"B2094654D46AA7FB4099","title":"宝山一村","lon":"121.509","lat":"31.4009","category":"47","category_name":"住宅区","address":"上海双城路宝东路宝山一村4号"},{"poiid":"B2094757D16FA5FB489A","title":"宝信软件海江路基地","lon":"121.501192","lat":"31.399475","category":"500","category_name":"未知分类","address":"上海宝山区海江路5号"},{"poiid":"B2094654D46AA4FE479C","title":"宝山派出所","lon":"121.49796","lat":"31.40126","category":"609","category_name":"警察局","address":"宝杨路256号"},{"poiid":"B2094750D665A3F84899","title":"段氏龙虾(东林路店)","lon":"121.494","lat":"31.4051","category":"68","category_name":"快餐厅","address":"宝山区东林路"},{"poiid":"B2094655D26FABFA439F","title":"宝钢宝林六村(南一门)","lon":"121.49822","lat":"31.4023","category":"656","category_name":"大门","address":""},{"poiid":"B2094757D66FA3FF499F","title":"中国黄金宝山店","lon":"121.496805031","lat":"31.4040325694","category":"500","category_name":"未知分类","address":"上海牡丹江路1670号"},{"poiid":"B2094654D46AA4FE4398","title":"上海市宝山区民政福利企业公司","lon":"121.50061","lat":"31.39995","category":"263","category_name":"公司","address":"宝东路885"},{"poiid":"B2094757D165ABF8439A","title":"湘村人家 宝山店","lon":"121.493932","lat":"31.404509","category":"77","category_name":"湖南菜","address":"宝山区东林路168号(近密山路)"},{"poiid":"B2094757D06AABF5429E","title":"吴淞口国际邮轮港","lon":"121.50557","lat":"31.404876","category":"500","category_name":"未知分类","address":"上海市宝山区宝杨路１号"},{"poiid":"B2094757D06FA5F44392","title":"宝杨码头","lon":"121.501694","lat":"31.40562","category":"234","category_name":"海滨浴场","address":"上海宝山区宝杨支路18号"},{"poiid":"B2094757D06FA1FE4299","title":"临江公园","lon":"121.49385081","lat":"31.408717702","category":"196","category_name":"公园","address":"上海市宝山区友谊路1号"},{"poiid":"B2094757D068A7FC4592","title":"行知中学","lon":"121.49784","lat":"31.40544","category":"55","category_name":"中学","address":"宝山区宝林支路99号"},{"poiid":"B2094757D068A4FE4693","title":"长江江堤","lon":"121.49430583","lat":"31.411120415","category":"500","category_name":"未知分类","address":"上海市宝山区盘古路"},{"poiid":"B2094654D46AA6FA4693","title":"宝杨路码头候船室","lon":"121.50009","lat":"31.40575","category":"34","category_name":"港口码头","address":""},{"poiid":"B2094757DA6FA2FC4998","title":"吴淞炮台湾湿地公园(北门)","lon":"121.501836776732","lat":"31.4026964848086","category":"250","category_name":"公园户外","address":"宝山区宝杨路(近宝杨支路)"},{"poiid":"B2094757D06FABFE459A","title":"海江二村","lon":"121.50371","lat":"31.393312","category":"47","category_name":"住宅区","address":"永乐路222弄"},{"poiid":"B2094654D46AA6FA469B","title":"宝钢宝林九村","lon":"121.49991","lat":"31.40378","category":"47","category_name":"住宅区","address":"友谊路"},{"poiid":"B2094757D568A5FC4293","title":"宝杨路客运码头","lon":"121.5038789","lat":"31.40380139","category":"35","category_name":"长途汽车站","address":"宝杨支路18号宝杨码头"},{"poiid":"B2094654D46AA4FE459C","title":"上海市基督教吴淞堂","lon":"121.5013","lat":"31.40229","category":"245","category_name":"教堂","address":"宝山区宝杨路74"},{"poiid":"B2094757D164A4FA439B","title":"海滨五村","lon":"121.50103062728","lat":"31.401987993104","category":"46","category_name":"楼宇","address":"上海牡丹江路水产路"},{"poiid":"B2094654D46AA4FE439C","title":"中艺花园","lon":"121.49869","lat":"31.3999","category":"47","category_name":"住宅区","address":"中艺花园位于宝山海江路9号"},{"poiid":"B2094654D46AA4FE4198","title":"宝山六村","lon":"121.502","lat":"31.397743","category":"47","category_name":"住宅区","address":"上海市宝山区永乐路115弄"},{"poiid":"B2094757D06AA1FA4199","title":"小绍兴(东林路店)","lon":"121.49421","lat":"31.40477","category":"68","category_name":"快餐厅","address":"宝山区东林路227号(近密山路)"},{"poiid":"B2094750D268AAFD4299","title":"鲜芋仙易买得牡丹江路店","lon":"121.495666","lat":"31.397224","category":"247","category_name":"餐饮美食","address":"宝山区牡丹江路1258号易买得内(近安信广场)"},{"poiid":"B2094757D16FA6F5489C","title":"宝林四小","lon":"121.50114293","lat":"31.402752243","category":"56","category_name":"小学","address":"上海宝山区宝林七村82号"},{"poiid":"B2094757D16CA2F5449B","title":"杉松酒家","lon":"121.49534","lat":"31.40153","category":"76","category_name":"上海菜","address":"宝山区东林路17号(近宝杨路)"},{"poiid":"B2094750D16BA2FE4598","title":"皇家加勒比游轮","lon":"121.502983","lat":"31.404596","category":"500","category_name":"未知分类","address":null},{"poiid":"B2094750D16BA0F84992","title":"宝山体育中心羽毛球馆","lon":"121.498832","lat":"31.398883","category":"250","category_name":"公园户外","address":"宝山区永清路700号(近海江路)"},{"poiid":"B2094654D46AA6FB409B","title":"宝钢宝林六村","lon":"121.49604","lat":"31.40335","category":"47","category_name":"住宅区","address":"友谊路"},{"poiid":"B2094757D06AABFA439B","title":"淞沪抗战纪念馆","lon":"121.493002","lat":"31.408646","category":"182","category_name":"博物馆","address":"宝山区友谊路1号临江公园内(近东林路)"},{"poiid":"B2094654D46AA4FE4993","title":"宝钢宝山十村(淞宝路)","lon":"121.49414","lat":"31.39959","category":"47","category_name":"住宅区","address":"宝山十村108"},{"poiid":"B2094757D16DA6FE499F","title":"行知中学宿舍楼","lon":"121.50007523","lat":"31.403496958","category":"500","category_name":"未知分类","address":"上海市宝山区宝杨路55号"},{"poiid":"B2094655D268A4FB4792","title":"上海市基督教吴淞堂(北门)","lon":"121.50147","lat":"31.40249","category":"680","category_name":"楼宇机构","address":""},{"poiid":"B2094654D46AA5F5439F","title":"宝林八村","lon":"121.49574","lat":"31.407093","category":"47","category_name":"住宅区","address":"宝林八村"},{"poiid":"B2094655D36CA5F54793","title":"宝杨路宝东路","lon":"121.49815","lat":"31.4021","category":"38","category_name":"公交车站","address":""},{"poiid":"B2094757D66CA6FB459F","title":"黄浦江边","lon":"121.49665683","lat":"31.408402359","category":"500","category_name":"未知分类","address":"上海市宝山区东林路"},{"poiid":"B2094654D46AA4FD4398","title":"上海交通大学医学附属卫生学校宝山分校","lon":"121.49748","lat":"31.3955","category":"52","category_name":"高等院校","address":"永乐路399"},{"poiid":"B2094654D46AA4FE419F","title":"海江公寓","lon":"121.5037","lat":"31.399063","category":"47","category_name":"住宅区","address":"塘后路285弄"},{"poiid":"B2094757D068A7F44393","title":"宝山七村","lon":"121.49985","lat":"31.396515","category":"252","category_name":"楼宇机构","address":"上海宝山区海江路永乐路"},{"poiid":"B2094750D669A4FA459A","title":"上海长江河口科技馆","lon":"121.506713","lat":"31.400457","category":"250","category_name":"公园户外","address":"宝山区塘后路206号吴淞炮台湾湿地公园(近国际邮轮码头)"},{"poiid":"B2094654D46AA6FB419A","title":"晓刚面亭","lon":"121.49426744298","lat":"31.404081705949","category":"68","category_name":"快餐厅","address":"宝山区东林路69号(近宝杨路)"},{"poiid":"B2094654D46AA5F5439E","title":"临江佳园","lon":"121.497","lat":"31.407377","category":"47","category_name":"住宅区","address":"上海市宝山区密山东路11号"},{"poiid":"B2094654D46AA6FA469A","title":"友谊街道社区卫生服务中心","lon":"121.49568","lat":"31.40164","category":"162","category_name":"医院","address":"宝杨路333"},{"poiid":"B2094654D46AA6FA479A","title":"宝林七村","lon":"121.49573","lat":"31.404539","category":"47","category_name":"住宅区","address":"上海市宝林路子青路"},{"poiid":"B2094655D268A0F8409A","title":"宝钢宝林九村(西门)","lon":"121.49914","lat":"31.40348","category":"656","category_name":"大门","address":""},{"poiid":"B2094757D16DA2F8459D","title":"上海市宝山区医疗保险事务中心","lon":"121.499964831","lat":"31.3996001779","category":"500","category_name":"未知分类","address":"上海市宝山区宝东路879号"},{"poiid":"B2094655D268A0F54092","title":"锦江之星旅馆宝杨码头店","lon":"121.49147","lat":"31.39991","category":"216","category_name":"经济型连锁酒店","address":"上海市宝山区宝杨路580号"},{"poiid":"B2094655D268A1F9419B","title":"福幸餐厅","lon":"121.50036","lat":"31.40158","category":"260","category_name":"其他","address":"宝山区东林路3号(近宝杨路)"},{"poiid":"B2094750D76EA2FB449D","title":"新青年羊蝎子火锅","lon":"121.494","lat":"31.4042","category":"86","category_name":"火锅店","address":"宝山区东林路197号(近宝杨路)"},{"poiid":"B2094757D164A6F5489B","title":"潮州汤骨煲 东林路店","lon":"121.494951054","lat":"31.401899793","category":"86","category_name":"火锅店","address":"宝山区东林路69号(近宝杨路)"},{"poiid":"B2094654D46AA7FB4099","title":"宝山一村","lon":"121.509","lat":"31.4009","category":"47","category_name":"住宅区","address":"上海双城路宝东路宝山一村4号"},{"poiid":"B2094757D16FA5FB489A","title":"宝信软件海江路基地","lon":"121.501192","lat":"31.399475","category":"500","category_name":"未知分类","address":"上海宝山区海江路5号"},{"poiid":"B2094654D46AA4FE479C","title":"宝山派出所","lon":"121.49796","lat":"31.40126","category":"609","category_name":"警察局","address":"宝杨路256号"},{"poiid":"B2094750D665A3F84899","title":"段氏龙虾(东林路店)","lon":"121.494","lat":"31.4051","category":"68","category_name":"快餐厅","address":"宝山区东林路"},{"poiid":"B2094655D26FABFA439F","title":"宝钢宝林六村(南一门)","lon":"121.49822","lat":"31.4023","category":"656","category_name":"大门","address":""},{"poiid":"B2094757D66FA3FF499F","title":"中国黄金宝山店","lon":"121.496805031","lat":"31.4040325694","category":"500","category_name":"未知分类","address":"上海牡丹江路1670号"},{"poiid":"B2094654D46AA4FE4398","title":"上海市宝山区民政福利企业公司","lon":"121.50061","lat":"31.39995","category":"263","category_name":"公司","address":"宝东路885"},{"poiid":"B2094757D165ABF8439A","title":"湘村人家 宝山店","lon":"121.493932","lat":"31.404509","category":"77","category_name":"湖南菜","address":"宝山区东林路168号(近密山路)"},{"poiid":"B2094757D06AABF5429E","title":"吴淞口国际邮轮港","lon":"121.50557","lat":"31.404876","category":"500","category_name":"未知分类","address":"上海市宝山区宝杨路１号"},{"poiid":"B2094757D06FA5F44392","title":"宝杨码头","lon":"121.501694","lat":"31.40562","category":"234","category_name":"海滨浴场","address":"上海宝山区宝杨支路18号"},{"poiid":"B2094757D06FA1FE4299","title":"临江公园","lon":"121.49385081","lat":"31.408717702","category":"196","category_name":"公园","address":"上海市宝山区友谊路1号"},{"poiid":"B2094757D068A7FC4592","title":"行知中学","lon":"121.49784","lat":"31.40544","category":"55","category_name":"中学","address":"宝山区宝林支路99号"},{"poiid":"B2094757D068A4FE4693","title":"长江江堤","lon":"121.49430583","lat":"31.411120415","category":"500","category_name":"未知分类","address":"上海市宝山区盘古路"},{"poiid":"B2094654D46AA6FA4693","title":"宝杨路码头候船室","lon":"121.50009","lat":"31.40575","category":"34","category_name":"港口码头","address":""},{"poiid":"B2094757DA6FA2FC4998","title":"吴淞炮台湾湿地公园(北门)","lon":"121.501836776732","lat":"31.4026964848086","category":"250","category_name":"公园户外","address":"宝山区宝杨路(近宝杨支路)"},{"poiid":"B2094757D06FABFE459A","title":"海江二村","lon":"121.50371","lat":"31.393312","category":"47","category_name":"住宅区","address":"永乐路222弄"},{"poiid":"B2094654D46AA6FA469B","title":"宝钢宝林九村","lon":"121.49991","lat":"31.40378","category":"47","category_name":"住宅区","address":"友谊路"},{"poiid":"B2094757D568A5FC4293","title":"宝杨路客运码头","lon":"121.5038789","lat":"31.40380139","category":"35","category_name":"长途汽车站","address":"宝杨支路18号宝杨码头"},{"poiid":"B2094654D46AA4FE459C","title":"上海市基督教吴淞堂","lon":"121.5013","lat":"31.40229","category":"245","category_name":"教堂","address":"宝山区宝杨路74"},{"poiid":"B2094757D164A4FA439B","title":"海滨五村","lon":"121.50103062728","lat":"31.401987993104","category":"46","category_name":"楼宇","address":"上海牡丹江路水产路"},{"poiid":"B2094654D46AA4FE439C","title":"中艺花园","lon":"121.49869","lat":"31.3999","category":"47","category_name":"住宅区","address":"中艺花园位于宝山海江路9号"},{"poiid":"B2094654D46AA4FE4198","title":"宝山六村","lon":"121.502","lat":"31.397743","category":"47","category_name":"住宅区","address":"上海市宝山区永乐路115弄"},{"poiid":"B2094757D06AA1FA4199","title":"小绍兴(东林路店)","lon":"121.49421","lat":"31.40477","category":"68","category_name":"快餐厅","address":"宝山区东林路227号(近密山路)"},{"poiid":"B2094750D268AAFD4299","title":"鲜芋仙易买得牡丹江路店","lon":"121.495666","lat":"31.397224","category":"247","category_name":"餐饮美食","address":"宝山区牡丹江路1258号易买得内(近安信广场)"},{"poiid":"B2094757D16FA6F5489C","title":"宝林四小","lon":"121.50114293","lat":"31.402752243","category":"56","category_name":"小学","address":"上海宝山区宝林七村82号"},{"poiid":"B2094757D16CA2F5449B","title":"杉松酒家","lon":"121.49534","lat":"31.40153","category":"76","category_name":"上海菜","address":"宝山区东林路17号(近宝杨路)"},{"poiid":"B2094750D16BA2FE4598","title":"皇家加勒比游轮","lon":"121.502983","lat":"31.404596","category":"500","category_name":"未知分类","address":null},{"poiid":"B2094750D16BA0F84992","title":"宝山体育中心羽毛球馆","lon":"121.498832","lat":"31.398883","category":"250","category_name":"公园户外","address":"宝山区永清路700号(近海江路)"},{"poiid":"B2094654D46AA6FB409B","title":"宝钢宝林六村","lon":"121.49604","lat":"31.40335","category":"47","category_name":"住宅区","address":"友谊路"},{"poiid":"B2094757D06AABFA439B","title":"淞沪抗战纪念馆","lon":"121.493002","lat":"31.408646","category":"182","category_name":"博物馆","address":"宝山区友谊路1号临江公园内(近东林路)"},{"poiid":"B2094654D46AA4FE4993","title":"宝钢宝山十村(淞宝路)","lon":"121.49414","lat":"31.39959","category":"47","category_name":"住宅区","address":"宝山十村108"},{"poiid":"B2094757D16DA6FE499F","title":"行知中学宿舍楼","lon":"121.50007523","lat":"31.403496958","category":"500","category_name":"未知分类","address":"上海市宝山区宝杨路55号"},{"poiid":"B2094655D268A4FB4792","title":"上海市基督教吴淞堂(北门)","lon":"121.50147","lat":"31.40249","category":"680","category_name":"楼宇机构","address":""},{"poiid":"B2094654D46AA5F5439F","title":"宝林八村","lon":"121.49574","lat":"31.407093","category":"47","category_name":"住宅区","address":"宝林八村"},{"poiid":"B2094655D36CA5F54793","title":"宝杨路宝东路","lon":"121.49815","lat":"31.4021","category":"38","category_name":"公交车站","address":""},{"poiid":"B2094757D66CA6FB459F","title":"黄浦江边","lon":"121.49665683","lat":"31.408402359","category":"500","category_name":"未知分类","address":"上海市宝山区东林路"},{"poiid":"B2094654D46AA4FD4398","title":"上海交通大学医学附属卫生学校宝山分校","lon":"121.49748","lat":"31.3955","category":"52","category_name":"高等院校","address":"永乐路399"},{"poiid":"B2094654D46AA4FE419F","title":"海江公寓","lon":"121.5037","lat":"31.399063","category":"47","category_name":"住宅区","address":"塘后路285弄"},{"poiid":"B2094757D068A7F44393","title":"宝山七村","lon":"121.49985","lat":"31.396515","category":"252","category_name":"楼宇机构","address":"上海宝山区海江路永乐路"},{"poiid":"B2094750D669A4FA459A","title":"上海长江河口科技馆","lon":"121.506713","lat":"31.400457","category":"250","category_name":"公园户外","address":"宝山区塘后路206号吴淞炮台湾湿地公园(近国际邮轮码头)"},{"poiid":"B2094654D46AA6FB419A","title":"晓刚面亭","lon":"121.49426744298","lat":"31.404081705949","category":"68","category_name":"快餐厅","address":"宝山区东林路69号(近宝杨路)"},{"poiid":"B2094654D46AA5F5439E","title":"临江佳园","lon":"121.497","lat":"31.407377","category":"47","category_name":"住宅区","address":"上海市宝山区密山东路11号"},{"poiid":"B2094654D46AA6FA469A","title":"友谊街道社区卫生服务中心","lon":"121.49568","lat":"31.40164","category":"162","category_name":"医院","address":"宝杨路333"},{"poiid":"B2094654D46AA6FA479A","title":"宝林七村","lon":"121.49573","lat":"31.404539","category":"47","category_name":"住宅区","address":"上海市宝林路子青路"},{"poiid":"B2094655D268A0F8409A","title":"宝钢宝林九村(西门)","lon":"121.49914","lat":"31.40348","category":"656","category_name":"大门","address":""},{"poiid":"B2094757D16DA2F8459D","title":"上海市宝山区医疗保险事务中心","lon":"121.499964831","lat":"31.3996001779","category":"500","category_name":"未知分类","address":"上海市宝山区宝东路879号"},{"poiid":"B2094655D268A0F54092","title":"锦江之星旅馆宝杨码头店","lon":"121.49147","lat":"31.39991","category":"216","category_name":"经济型连锁酒店","address":"上海市宝山区宝杨路580号"},{"poiid":"B2094655D268A1F9419B","title":"福幸餐厅","lon":"121.50036","lat":"31.40158","category":"260","category_name":"其他","address":"宝山区东林路3号(近宝杨路)"},{"poiid":"B2094750D76EA2FB449D","title":"新青年羊蝎子火锅","lon":"121.494","lat":"31.4042","category":"86","category_name":"火锅店","address":"宝山区东林路197号(近宝杨路)"},{"poiid":"B2094757D164A6F5489B","title":"潮州汤骨煲 东林路店","lon":"121.494951054","lat":"31.401899793","category":"86","category_name":"火锅店","address":"宝山区东林路69号(近宝杨路)"},{"poiid":"B2094654D46AA7FB4099","title":"宝山一村","lon":"121.509","lat":"31.4009","category":"47","category_name":"住宅区","address":"上海双城路宝东路宝山一村4号"},{"poiid":"B2094757D16FA5FB489A","title":"宝信软件海江路基地","lon":"121.501192","lat":"31.399475","category":"500","category_name":"未知分类","address":"上海宝山区海江路5号"},{"poiid":"B2094654D46AA4FE479C","title":"宝山派出所","lon":"121.49796","lat":"31.40126","category":"609","category_name":"警察局","address":"宝杨路256号"},{"poiid":"B2094750D665A3F84899","title":"段氏龙虾(东林路店)","lon":"121.494","lat":"31.4051","category":"68","category_name":"快餐厅","address":"宝山区东林路"},{"poiid":"B2094655D26FABFA439F","title":"宝钢宝林六村(南一门)","lon":"121.49822","lat":"31.4023","category":"656","category_name":"大门","address":""},{"poiid":"B2094757D66FA3FF499F","title":"中国黄金宝山店","lon":"121.496805031","lat":"31.4040325694","category":"500","category_name":"未知分类","address":"上海牡丹江路1670号"},{"poiid":"B2094654D46AA4FE4398","title":"上海市宝山区民政福利企业公司","lon":"121.50061","lat":"31.39995","category":"263","category_name":"公司","address":"宝东路885"},{"poiid":"B2094757D165ABF8439A","title":"湘村人家 宝山店","lon":"121.493932","lat":"31.404509","category":"77","category_name":"湖南菜","address":"宝山区东林路168号(近密山路)"}]