[{"poiid":"B2094757D06FA2FD439F","title":"红房子西菜馆","lon":"121.46237","lat":"31.21747","category":"94","category_name":"西餐厅","address":"卢湾区淮海中路845号(近茂名南路)"},{"poiid":"B2094757D06FA3FC409E","title":"瑞福园(茂名店)","lon":"121.46258","lat":"31.21393","category":"76","category_name":"上海菜","address":"卢湾区茂名南路132号乙(近复兴中路)"},{"poiid":"B2094757D06FA2FE419C","title":"意粉屋 Pasta Inn","lon":"121.46229","lat":"31.21471","category":"94","category_name":"西餐厅","address":"卢湾区茂名南路132号(近南昌路)"},{"poiid":"B2094753D76FAAFA449C","title":"上海滩国泰旗舰店","lon":"121.466011","lat":"31.216125","category":"249","category_name":"购物服务","address":"淮海中路868号"},{"poiid":"B209475CD564A7F84292","title":"上海滩新天地店","lon":"121.47463","lat":"31.22164","category":"119","category_name":"商场","address":"\"太仓路181弄新天地北里15号\r\n\""},{"poiid":"B209475CD564A7F8439E","title":"上海滩中信泰富店","lon":"121.45602","lat":"31.22851","category":"119","category_name":"商场","address":"\"南京西路1168号中信泰富广场，店铺号221.\r\n\""},{"poiid":"B2094753DB6CA2FE419F","title":"百丽宫影城（环贸iapm 店）","lon":"121.461425","lat":"31.214521","category":"178","category_name":"电影院","address":"淮海中路999号环贸广场"},{"poiid":"B2094757D06EAAF84093","title":"Citta'享咖(淮海中路店)","lon":"121.4627","lat":"31.2178","category":"65","category_name":"咖啡厅","address":"上海卢湾区淮海中路835号(近茂名南路近国泰电影院)  "},{"poiid":"B2094757D06FABFE479E","title":"阿大葱油饼","lon":"121.46193","lat":"31.21593","category":"68","category_name":"快餐厅","address":"卢湾区茂名南路159弄2号后门(近南昌路)"},{"poiid":"B2094757D06FA2FA4393","title":"必胜客(永新店)","lon":"121.461029357","lat":"31.2173208917","category":"94","category_name":"西餐厅","address":"卢湾区淮海中路887号永新百货B1楼(近茂名南路)"},{"poiid":"B2094757D06FA5F94792","title":"陋室设计书吧","lon":"121.46311623809811","lat":"31.217176613800408","category":"260","category_name":"其他","address":"卢湾区南昌路145号乙(近茂名南路)"},{"poiid":"B2094757D068ABFD449F","title":"南昌路","lon":"121.46371047","lat":"31.217465104","category":"260","category_name":"其他","address":"上海徐汇区南昌路"},{"poiid":"B2094757D06FA7F44393","title":"甜蜜蜜(茂名南路店)","lon":"121.46152","lat":"31.21648","category":"67","category_name":"甜品店","address":"卢湾区茂名南路80号(近南昌路)"},{"poiid":"B2094753D56BA5FF429A","title":"贝克街221B福尔摩斯主题咖啡店","lon":"121.462867","lat":"31.216363","category":"500","category_name":"未知分类","address":"上海市 瑞金二路50号"},{"poiid":"B2094757D069A3FC449D","title":"8号线人民广场站","lon":"121.46167173","lat":"31.217903037","category":"36","category_name":"地铁站","address":"上海市黄浦区"},{"poiid":"B2094757D068A2FB459C","title":"仁清 南昌路店 NINSEI JAPANESE DININGBAR","lon":"121.4639582539","lat":"31.217281624639","category":"95","category_name":"日本料理","address":"卢湾区南昌路125号(近瑞金二路)"},{"poiid":"B2094757D068A2FA4099","title":"巨鹿路","lon":"121.46028137","lat":"31.215452194","category":"260","category_name":"其他","address":"上海卢湾区巨鹿路"},{"poiid":"B2094753D56DA3FA4098","title":"鱼酷活鱼现烤","lon":"121.463157","lat":"31.214649","category":"247","category_name":"餐饮美食","address":"上海市 淮海中路988号黄金世界地下1层"},{"poiid":"B2094654DA6EA1FF4692","title":"福瑞园联谊餐室","lon":"121.46203","lat":"31.21497","category":"257","category_name":"中餐厅","address":"茂名南路132号乙"},{"poiid":"B2094654DA6EA1FD4399","title":"iD Hair","lon":"121.46328","lat":"31.21737","category":"148","category_name":"美容美发店","address":"卢湾区南昌路274号"},{"poiid":"B2094753DB6CA4F4439C","title":"環貿iapm","lon":"121.462417","lat":"31.215452","category":"500","category_name":"未知分类","address":"上海市 淮海中路999號"},{"poiid":"B209475CD769A1FE449F","title":"Mr.Choi蔡嘉法式甜品","lon":"121.462043","lat":"31.215843","category":"247","category_name":"餐饮美食","address":"上海市 茂名南路112号(南昌路)"},{"poiid":"B209475CD469A5F8459D","title":"一风堂","lon":"121.461448","lat":"31.214548","category":"500","category_name":"未知分类","address":"上海市 iapm"},{"poiid":"B2094757D068A3FE4599","title":"肯德基 KFC (永新店)","lon":"121.46133117","lat":"31.217547569","category":"68","category_name":"快餐厅","address":"卢湾区淮海中路887号永新百货内(近茂名南路)"},{"poiid":"B209475CD56CA1FE4599","title":"优衣库（UNIQLO SHANGHAI 店）","lon":"121.461094","lat":"31.21732","category":"141","category_name":"服装鞋帽皮具店","address":"上海市黄浦区淮海中路887号"},{"poiid":"B209475CD26CA4FC4598","title":"iapm上海环贸广场","lon":"121.46421","lat":"31.215311","category":"500","category_name":"未知分类","address":"上海市 淮海中路999号"},{"poiid":"B209475CD76CA5F8419D","title":"白熊咖喱（iapm环贸购物中心）","lon":"121.462478","lat":"31.213878","category":"500","category_name":"未知分类","address":"上海市 淮海中路999号环贸广场L5-512(近陕西南路)"},{"poiid":"B2094757D464ABF4449C","title":"享咖 淮海中路店 Citta'","lon":"121.462261054","lat":"31.217926793","category":"65","category_name":"咖啡厅","address":"淮海中路837号近茂名南路"},{"poiid":"B2094757D069A4FD459B","title":"老锦江饭店夜上海餐厅","lon":"121.463289476","lat":"31.2152020027","category":"76","category_name":"上海菜","address":"上海茂名路"},{"poiid":"B2094655D36CA6FF439C","title":"复兴中路瑞金二路","lon":"121.46427","lat":"31.2147","category":"38","category_name":"公交车站","address":""},{"poiid":"B2094753DB68A2F9499C","title":"老吉士","lon":"121.461433","lat":"31.214521","category":"247","category_name":"餐饮美食","address":"上海市 淮海中路999号环贸iapm商场3楼"},{"poiid":"B209475DD76FA7FB4492","title":"恋暖の初茶","lon":"121.461441","lat":"31.214523","category":"247","category_name":"餐饮美食","address":"上海市 淮海中路999号环贸iapm广场LG2-227号铺"},{"poiid":"B2094757D068A1F44692","title":"1931 Cafe","lon":"121.462","lat":"31.21537","category":"260","category_name":"其他","address":"卢湾区茂名南路114号(南昌路口)"},{"poiid":"B2094757D068A4FC449D","title":"园梅","lon":"121.46394","lat":"31.21421","category":"149","category_name":"洗浴推拿场所","address":"卢湾区复兴中路614号(近瑞金二路)"},{"poiid":"B209475CD66BA4FE4399","title":"鹿港小镇（环贸广场店）","lon":"121.462371","lat":"31.214084","category":"500","category_name":"未知分类","address":"上海市 淮海中路999号环贸IAPM广场LG1-143（陕西南路）"},{"poiid":"B2094750D464A6F84193","title":"Grace Studio","lon":"121.460456","lat":"31.215869","category":"248","category_name":"生活娱乐","address":"淮海中路927弄淮海坊93号"},{"poiid":"B2094654DA6EA1FF4198","title":"永新百货","lon":"121.46109","lat":"31.2174","category":"119","category_name":"商场","address":"卢湾区淮海中路887号(近茂名南路)"},{"poiid":"B2094757D16AA1FC439E","title":"民防科普教育馆","lon":"121.46327","lat":"31.21381","category":"179","category_name":"音乐厅","address":"上海卢湾区复兴中路593号民防大厦内(近瑞金二路)  "},{"poiid":"B2094655D268A6F9429C","title":"瑞金宾馆贵宾楼","lon":"121.46363","lat":"31.21397","category":"213","category_name":"五星级宾馆","address":""},{"poiid":"B2094655D36CA6FF439F","title":"复兴中路茂名南路","lon":"121.46384","lat":"31.21459","category":"38","category_name":"公交车站","address":"上海复兴中路茂名南路"},{"poiid":"B2094654DB69AAF9419E","title":"中国银行卢湾支行","lon":"121.4629","lat":"31.21385","category":"150","category_name":"银行","address":"上海市卢湾区茂名南路205号"},{"poiid":"B209475DDA69A5F4419F","title":"AIME PATISSERIE","lon":"121.460853","lat":"31.214288","category":"247","category_name":"餐饮美食","address":"上海市 上海淮海中路1008号"},{"poiid":"B2094757D664A6FA469E","title":"老马车桂林米粉店 南昌路店","lon":"121.463039054","lat":"31.217267793","category":"68","category_name":"快餐厅","address":"卢湾区南昌路256号(近瑞金二路)"},{"poiid":"B209475DD268A3FB439E","title":"新肴珍宝海鲜（JUMBO Seafood）","lon":"121.463203","lat":"31.214633","category":"247","category_name":"餐饮美食","address":"上海市 淮海中路999号环贸广场L5-502"},{"poiid":"B209475CD66AA0F9419D","title":"百丽宫影城（环贸iapm店）","lon":"121.461448","lat":"31.214538","category":"178","category_name":"电影院","address":"上海市 淮海中路999号"},{"poiid":"B2094757D465AAF8459A","title":"糖潮食坊 淮海店","lon":"121.46197688897","lat":"31.217881007078","category":"247","category_name":"餐饮美食","address":"淮海中路835号近茂名路"},{"poiid":"B2094654DA6EA1FD419D","title":"雕刻时光","lon":"121.46323","lat":"31.21718","category":"141","category_name":"服装鞋帽皮具店","address":"南昌路143"},{"poiid":"B2094654DB6BA4FE449E","title":"瑞金宾馆新接待大楼","lon":"121.46363","lat":"31.21398","category":"213","category_name":"五星级宾馆","address":""},{"poiid":"B2094753D56BABF54699","title":"丸龟制面","lon":"121.463951","lat":"31.216911","category":"247","category_name":"餐饮美食","address":"上海市 海海路百盛B1"},{"poiid":"B2094655D268A5FE459D","title":"茂名南路159弄小区","lon":"121.46259","lat":"31.21637","category":"47","category_name":"住宅区","address":"茂名南路159弄1-22号"},{"poiid":"B2094757D06FA2FD439F","title":"红房子西菜馆","lon":"121.46237","lat":"31.21747","category":"94","category_name":"西餐厅","address":"卢湾区淮海中路845号(近茂名南路)"},{"poiid":"B2094757D06FA3FC409E","title":"瑞福园(茂名店)","lon":"121.46258","lat":"31.21393","category":"76","category_name":"上海菜","address":"卢湾区茂名南路132号乙(近复兴中路)"},{"poiid":"B2094757D06FA2FE419C","title":"意粉屋 Pasta Inn","lon":"121.46229","lat":"31.21471","category":"94","category_name":"西餐厅","address":"卢湾区茂名南路132号(近南昌路)"},{"poiid":"B2094753D76FAAFA449C","title":"上海滩国泰旗舰店","lon":"121.466011","lat":"31.216125","category":"249","category_name":"购物服务","address":"淮海中路868号"},{"poiid":"B209475CD564A7F84292","title":"上海滩新天地店","lon":"121.47463","lat":"31.22164","category":"119","category_name":"商场","address":"\"太仓路181弄新天地北里15号\r\n\""},{"poiid":"B209475CD564A7F8439E","title":"上海滩中信泰富店","lon":"121.45602","lat":"31.22851","category":"119","category_name":"商场","address":"\"南京西路1168号中信泰富广场，店铺号221.\r\n\""},{"poiid":"B2094753DB6CA2FE419F","title":"百丽宫影城（环贸iapm 店）","lon":"121.461425","lat":"31.214521","category":"178","category_name":"电影院","address":"淮海中路999号环贸广场"},{"poiid":"B2094757D06EAAF84093","title":"Citta'享咖(淮海中路店)","lon":"121.4627","lat":"31.2178","category":"65","category_name":"咖啡厅","address":"上海卢湾区淮海中路835号(近茂名南路近国泰电影院)  "},{"poiid":"B2094757D06FABFE479E","title":"阿大葱油饼","lon":"121.46193","lat":"31.21593","category":"68","category_name":"快餐厅","address":"卢湾区茂名南路159弄2号后门(近南昌路)"},{"poiid":"B2094757D06FA2FA4393","title":"必胜客(永新店)","lon":"121.461029357","lat":"31.2173208917","category":"94","category_name":"西餐厅","address":"卢湾区淮海中路887号永新百货B1楼(近茂名南路)"},{"poiid":"B2094757D06FA5F94792","title":"陋室设计书吧","lon":"121.46311623809811","lat":"31.217176613800408","category":"260","category_name":"其他","address":"卢湾区南昌路145号乙(近茂名南路)"},{"poiid":"B2094757D068ABFD449F","title":"南昌路","lon":"121.46371047","lat":"31.217465104","category":"260","category_name":"其他","address":"上海徐汇区南昌路"},{"poiid":"B2094757D06FA7F44393","title":"甜蜜蜜(茂名南路店)","lon":"121.46152","lat":"31.21648","category":"67","category_name":"甜品店","address":"卢湾区茂名南路80号(近南昌路)"},{"poiid":"B2094753D56BA5FF429A","title":"贝克街221B福尔摩斯主题咖啡店","lon":"121.462867","lat":"31.216363","category":"500","category_name":"未知分类","address":"上海市 瑞金二路50号"},{"poiid":"B2094757D069A3FC449D","title":"8号线人民广场站","lon":"121.46167173","lat":"31.217903037","category":"36","category_name":"地铁站","address":"上海市黄浦区"},{"poiid":"B2094757D068A2FB459C","title":"仁清 南昌路店 NINSEI JAPANESE DININGBAR","lon":"121.4639582539","lat":"31.217281624639","category":"95","category_name":"日本料理","address":"卢湾区南昌路125号(近瑞金二路)"},{"poiid":"B2094757D068A2FA4099","title":"巨鹿路","lon":"121.46028137","lat":"31.215452194","category":"260","category_name":"其他","address":"上海卢湾区巨鹿路"},{"poiid":"B2094753D56DA3FA4098","title":"鱼酷活鱼现烤","lon":"121.463157","lat":"31.214649","category":"247","category_name":"餐饮美食","address":"上海市 淮海中路988号黄金世界地下1层"},{"poiid":"B2094654DA6EA1FF4692","title":"福瑞园联谊餐室","lon":"121.46203","lat":"31.21497","category":"257","category_name":"中餐厅","address":"茂名南路132号乙"},{"poiid":"B2094654DA6EA1FD4399","title":"iD Hair","lon":"121.46328","lat":"31.21737","category":"148","category_name":"美容美发店","address":"卢湾区南昌路274号"},{"poiid":"B2094753DB6CA4F4439C","title":"環貿iapm","lon":"121.462417","lat":"31.215452","category":"500","category_name":"未知分类","address":"上海市 淮海中路999號"},{"poiid":"B209475CD769A1FE449F","title":"Mr.Choi蔡嘉法式甜品","lon":"121.462043","lat":"31.215843","category":"247","category_name":"餐饮美食","address":"上海市 茂名南路112号(南昌路)"},{"poiid":"B209475CD469A5F8459D","title":"一风堂","lon":"121.461448","lat":"31.214548","category":"500","category_name":"未知分类","address":"上海市 iapm"},{"poiid":"B2094757D068A3FE4599","title":"肯德基 KFC (永新店)","lon":"121.46133117","lat":"31.217547569","category":"68","category_name":"快餐厅","address":"卢湾区淮海中路887号永新百货内(近茂名南路)"},{"poiid":"B209475CD56CA1FE4599","title":"优衣库（UNIQLO SHANGHAI 店）","lon":"121.461094","lat":"31.21732","category":"141","category_name":"服装鞋帽皮具店","address":"上海市黄浦区淮海中路887号"},{"poiid":"B209475CD26CA4FC4598","title":"iapm上海环贸广场","lon":"121.46421","lat":"31.215311","category":"500","category_name":"未知分类","address":"上海市 淮海中路999号"},{"poiid":"B209475CD76CA5F8419D","title":"白熊咖喱（iapm环贸购物中心）","lon":"121.462478","lat":"31.213878","category":"500","category_name":"未知分类","address":"上海市 淮海中路999号环贸广场L5-512(近陕西南路)"},{"poiid":"B2094757D464ABF4449C","title":"享咖 淮海中路店 Citta'","lon":"121.462261054","lat":"31.217926793","category":"65","category_name":"咖啡厅","address":"淮海中路837号近茂名南路"},{"poiid":"B2094757D069A4FD459B","title":"老锦江饭店夜上海餐厅","lon":"121.463289476","lat":"31.2152020027","category":"76","category_name":"上海菜","address":"上海茂名路"},{"poiid":"B2094655D36CA6FF439C","title":"复兴中路瑞金二路","lon":"121.46427","lat":"31.2147","category":"38","category_name":"公交车站","address":""},{"poiid":"B2094753DB68A2F9499C","title":"老吉士","lon":"121.461433","lat":"31.214521","category":"247","category_name":"餐饮美食","address":"上海市 淮海中路999号环贸iapm商场3楼"},{"poiid":"B209475DD76FA7FB4492","title":"恋暖の初茶","lon":"121.461441","lat":"31.214523","category":"247","category_name":"餐饮美食","address":"上海市 淮海中路999号环贸iapm广场LG2-227号铺"},{"poiid":"B2094757D068A1F44692","title":"1931 Cafe","lon":"121.462","lat":"31.21537","category":"260","category_name":"其他","address":"卢湾区茂名南路114号(南昌路口)"},{"poiid":"B2094757D068A4FC449D","title":"园梅","lon":"121.46394","lat":"31.21421","category":"149","category_name":"洗浴推拿场所","address":"卢湾区复兴中路614号(近瑞金二路)"},{"poiid":"B209475CD66BA4FE4399","title":"鹿港小镇（环贸广场店）","lon":"121.462371","lat":"31.214084","category":"500","category_name":"未知分类","address":"上海市 淮海中路999号环贸IAPM广场LG1-143（陕西南路）"},{"poiid":"B2094750D464A6F84193","title":"Grace Studio","lon":"121.460456","lat":"31.215869","category":"248","category_name":"生活娱乐","address":"淮海中路927弄淮海坊93号"},{"poiid":"B2094654DA6EA1FF4198","title":"永新百货","lon":"121.46109","lat":"31.2174","category":"119","category_name":"商场","address":"卢湾区淮海中路887号(近茂名南路)"},{"poiid":"B2094757D16AA1FC439E","title":"民防科普教育馆","lon":"121.46327","lat":"31.21381","category":"179","category_name":"音乐厅","address":"上海卢湾区复兴中路593号民防大厦内(近瑞金二路)  "},{"poiid":"B2094655D268A6F9429C","title":"瑞金宾馆贵宾楼","lon":"121.46363","lat":"31.21397","category":"213","category_name":"五星级宾馆","address":""},{"poiid":"B2094655D36CA6FF439F","title":"复兴中路茂名南路","lon":"121.46384","lat":"31.21459","category":"38","category_name":"公交车站","address":"上海复兴中路茂名南路"},{"poiid":"B2094654DB69AAF9419E","title":"中国银行卢湾支行","lon":"121.4629","lat":"31.21385","category":"150","category_name":"银行","address":"上海市卢湾区茂名南路205号"},{"poiid":"B209475DDA69A5F4419F","title":"AIME PATISSERIE","lon":"121.460853","lat":"31.214288","category":"247","category_name":"餐饮美食","address":"上海市 上海淮海中路1008号"},{"poiid":"B2094757D664A6FA469E","title":"老马车桂林米粉店 南昌路店","lon":"121.463039054","lat":"31.217267793","category":"68","category_name":"快餐厅","address":"卢湾区南昌路256号(近瑞金二路)"},{"poiid":"B209475DD268A3FB439E","title":"新肴珍宝海鲜（JUMBO Seafood）","lon":"121.463203","lat":"31.214633","category":"247","category_name":"餐饮美食","address":"上海市 淮海中路999号环贸广场L5-502"},{"poiid":"B209475CD66AA0F9419D","title":"百丽宫影城（环贸iapm店）","lon":"121.461448","lat":"31.214538","category":"178","category_name":"电影院","address":"上海市 淮海中路999号"},{"poiid":"B2094757D465AAF8459A","title":"糖潮食坊 淮海店","lon":"121.46197688897","lat":"31.217881007078","category":"247","category_name":"餐饮美食","address":"淮海中路835号近茂名路"},{"poiid":"B2094654DA6EA1FD419D","title":"雕刻时光","lon":"121.46323","lat":"31.21718","category":"141","category_name":"服装鞋帽皮具店","address":"南昌路143"},{"poiid":"B2094654DB6BA4FE449E","title":"瑞金宾馆新接待大楼","lon":"121.46363","lat":"31.21398","category":"213","category_name":"五星级宾馆","address":""},{"poiid":"B2094753D56BABF54699","title":"丸龟制面","lon":"121.463951","lat":"31.216911","category":"247","category_name":"餐饮美食","address":"上海市 海海路百盛B1"},{"poiid":"B2094655D268A5FE459D","title":"茂名南路159弄小区","lon":"121.46259","lat":"31.21637","category":"47","category_name":"住宅区","address":"茂名南路159弄1-22号"},{"poiid":"B2094757D06FA2FD439F","title":"红房子西菜馆","lon":"121.46237","lat":"31.21747","category":"94","category_name":"西餐厅","address":"卢湾区淮海中路845号(近茂名南路)"},{"poiid":"B2094757D06FA3FC409E","title":"瑞福园(茂名店)","lon":"121.46258","lat":"31.21393","category":"76","category_name":"上海菜","address":"卢湾区茂名南路132号乙(近复兴中路)"},{"poiid":"B2094757D06FA2FE419C","title":"意粉屋 Pasta Inn","lon":"121.46229","lat":"31.21471","category":"94","category_name":"西餐厅","address":"卢湾区茂名南路132号(近南昌路)"},{"poiid":"B2094753D76FAAFA449C","title":"上海滩国泰旗舰店","lon":"121.466011","lat":"31.216125","category":"249","category_name":"购物服务","address":"淮海中路868号"},{"poiid":"B209475CD564A7F84292","title":"上海滩新天地店","lon":"121.47463","lat":"31.22164","category":"119","category_name":"商场","address":"\"太仓路181弄新天地北里15号\r\n\""},{"poiid":"B209475CD564A7F8439E","title":"上海滩中信泰富店","lon":"121.45602","lat":"31.22851","category":"119","category_name":"商场","address":"\"南京西路1168号中信泰富广场，店铺号221.\r\n\""},{"poiid":"B2094753DB6CA2FE419F","title":"百丽宫影城（环贸iapm 店）","lon":"121.461425","lat":"31.214521","category":"178","category_name":"电影院","address":"淮海中路999号环贸广场"},{"poiid":"B2094757D06EAAF84093","title":"Citta'享咖(淮海中路店)","lon":"121.4627","lat":"31.2178","category":"65","category_name":"咖啡厅","address":"上海卢湾区淮海中路835号(近茂名南路近国泰电影院)  "},{"poiid":"B2094757D06FABFE479E","title":"阿大葱油饼","lon":"121.46193","lat":"31.21593","category":"68","category_name":"快餐厅","address":"卢湾区茂名南路159弄2号后门(近南昌路)"},{"poiid":"B2094757D06FA2FA4393","title":"必胜客(永新店)","lon":"121.461029357","lat":"31.2173208917","category":"94","category_name":"西餐厅","address":"卢湾区淮海中路887号永新百货B1楼(近茂名南路)"},{"poiid":"B2094757D06FA5F94792","title":"陋室设计书吧","lon":"121.46311623809811","lat":"31.217176613800408","category":"260","category_name":"其他","address":"卢湾区南昌路145号乙(近茂名南路)"},{"poiid":"B2094757D068ABFD449F","title":"南昌路","lon":"121.46371047","lat":"31.217465104","category":"260","category_name":"其他","address":"上海徐汇区南昌路"},{"poiid":"B2094757D06FA7F44393","title":"甜蜜蜜(茂名南路店)","lon":"121.46152","lat":"31.21648","category":"67","category_name":"甜品店","address":"卢湾区茂名南路80号(近南昌路)"},{"poiid":"B2094753D56BA5FF429A","title":"贝克街221B福尔摩斯主题咖啡店","lon":"121.462867","lat":"31.216363","category":"500","category_name":"未知分类","address":"上海市 瑞金二路50号"},{"poiid":"B2094757D069A3FC449D","title":"8号线人民广场站","lon":"121.46167173","lat":"31.217903037","category":"36","category_name":"地铁站","address":"上海市黄浦区"},{"poiid":"B2094757D068A2FB459C","title":"仁清 南昌路店 NINSEI JAPANESE DININGBAR","lon":"121.4639582539","lat":"31.217281624639","category":"95","category_name":"日本料理","address":"卢湾区南昌路125号(近瑞金二路)"},{"poiid":"B2094757D068A2FA4099","title":"巨鹿路","lon":"121.46028137","lat":"31.215452194","category":"260","category_name":"其他","address":"上海卢湾区巨鹿路"},{"poiid":"B2094753D56DA3FA4098","title":"鱼酷活鱼现烤","lon":"121.463157","lat":"31.214649","category":"247","category_name":"餐饮美食","address":"上海市 淮海中路988号黄金世界地下1层"},{"poiid":"B2094654DA6EA1FF4692","title":"福瑞园联谊餐室","lon":"121.46203","lat":"31.21497","category":"257","category_name":"中餐厅","address":"茂名南路132号乙"},{"poiid":"B2094654DA6EA1FD4399","title":"iD Hair","lon":"121.46328","lat":"31.21737","category":"148","category_name":"美容美发店","address":"卢湾区南昌路274号"},{"poiid":"B2094753DB6CA4F4439C","title":"環貿iapm","lon":"121.462417","lat":"31.215452","category":"500","category_name":"未知分类","address":"上海市 淮海中路999號"},{"poiid":"B209475CD769A1FE449F","title":"Mr.Choi蔡嘉法式甜品","lon":"121.462043","lat":"31.215843","category":"247","category_name":"餐饮美食","address":"上海市 茂名南路112号(南昌路)"},{"poiid":"B209475CD469A5F8459D","title":"一风堂","lon":"121.461448","lat":"31.214548","category":"500","category_name":"未知分类","address":"上海市 iapm"},{"poiid":"B2094757D068A3FE4599","title":"肯德基 KFC (永新店)","lon":"121.46133117","lat":"31.217547569","category":"68","category_name":"快餐厅","address":"卢湾区淮海中路887号永新百货内(近茂名南路)"},{"poiid":"B209475CD56CA1FE4599","title":"优衣库（UNIQLO SHANGHAI 店）","lon":"121.461094","lat":"31.21732","category":"141","category_name":"服装鞋帽皮具店","address":"上海市黄浦区淮海中路887号"},{"poiid":"B209475CD26CA4FC4598","title":"iapm上海环贸广场","lon":"121.46421","lat":"31.215311","category":"500","category_name":"未知分类","address":"上海市 淮海中路999号"},{"poiid":"B209475CD76CA5F8419D","title":"白熊咖喱（iapm环贸购物中心）","lon":"121.462478","lat":"31.213878","category":"500","category_name":"未知分类","address":"上海市 淮海中路999号环贸广场L5-512(近陕西南路)"},{"poiid":"B2094757D464ABF4449C","title":"享咖 淮海中路店 Citta'","lon":"121.462261054","lat":"31.217926793","category":"65","category_name":"咖啡厅","address":"淮海中路837号近茂名南路"},{"poiid":"B2094757D069A4FD459B","title":"老锦江饭店夜上海餐厅","lon":"121.463289476","lat":"31.2152020027","category":"76","category_name":"上海菜","address":"上海茂名路"},{"poiid":"B2094655D36CA6FF439C","title":"复兴中路瑞金二路","lon":"121.46427","lat":"31.2147","category":"38","category_name":"公交车站","address":""},{"poiid":"B2094753DB68A2F9499C","title":"老吉士","lon":"121.461433","lat":"31.214521","category":"247","category_name":"餐饮美食","address":"上海市 淮海中路999号环贸iapm商场3楼"},{"poiid":"B209475DD76FA7FB4492","title":"恋暖の初茶","lon":"121.461441","lat":"31.214523","category":"247","category_name":"餐饮美食","address":"上海市 淮海中路999号环贸iapm广场LG2-227号铺"},{"poiid":"B2094757D068A1F44692","title":"1931 Cafe","lon":"121.462","lat":"31.21537","category":"260","category_name":"其他","address":"卢湾区茂名南路114号(南昌路口)"},{"poiid":"B2094757D068A4FC449D","title":"园梅","lon":"121.46394","lat":"31.21421","category":"149","category_name":"洗浴推拿场所","address":"卢湾区复兴中路614号(近瑞金二路)"},{"poiid":"B209475CD66BA4FE4399","title":"鹿港小镇（环贸广场店）","lon":"121.462371","lat":"31.214084","category":"500","category_name":"未知分类","address":"上海市 淮海中路999号环贸IAPM广场LG1-143（陕西南路）"},{"poiid":"B2094750D464A6F84193","title":"Grace Studio","lon":"121.460456","lat":"31.215869","category":"248","category_name":"生活娱乐","address":"淮海中路927弄淮海坊93号"},{"poiid":"B2094654DA6EA1FF4198","title":"永新百货","lon":"121.46109","lat":"31.2174","category":"119","category_name":"商场","address":"卢湾区淮海中路887号(近茂名南路)"},{"poiid":"B2094757D16AA1FC439E","title":"民防科普教育馆","lon":"121.46327","lat":"31.21381","category":"179","category_name":"音乐厅","address":"上海卢湾区复兴中路593号民防大厦内(近瑞金二路)  "},{"poiid":"B2094655D268A6F9429C","title":"瑞金宾馆贵宾楼","lon":"121.46363","lat":"31.21397","category":"213","category_name":"五星级宾馆","address":""},{"poiid":"B2094655D36CA6FF439F","title":"复兴中路茂名南路","lon":"121.46384","lat":"31.21459","category":"38","category_name":"公交车站","address":"上海复兴中路茂名南路"},{"poiid":"B2094654DB69AAF9419E","title":"中国银行卢湾支行","lon":"121.4629","lat":"31.21385","category":"150","category_name":"银行","address":"上海市卢湾区茂名南路205号"},{"poiid":"B209475DDA69A5F4419F","title":"AIME PATISSERIE","lon":"121.460853","lat":"31.214288","category":"247","category_name":"餐饮美食","address":"上海市 上海淮海中路1008号"},{"poiid":"B2094757D664A6FA469E","title":"老马车桂林米粉店 南昌路店","lon":"121.463039054","lat":"31.217267793","category":"68","category_name":"快餐厅","address":"卢湾区南昌路256号(近瑞金二路)"},{"poiid":"B209475DD268A3FB439E","title":"新肴珍宝海鲜（JUMBO Seafood）","lon":"121.463203","lat":"31.214633","category":"247","category_name":"餐饮美食","address":"上海市 淮海中路999号环贸广场L5-502"},{"poiid":"B209475CD66AA0F9419D","title":"百丽宫影城（环贸iapm店）","lon":"121.461448","lat":"31.214538","category":"178","category_name":"电影院","address":"上海市 淮海中路999号"},{"poiid":"B2094757D465AAF8459A","title":"糖潮食坊 淮海店","lon":"121.46197688897","lat":"31.217881007078","category":"247","category_name":"餐饮美食","address":"淮海中路835号近茂名路"},{"poiid":"B2094654DA6EA1FD419D","title":"雕刻时光","lon":"121.46323","lat":"31.21718","category":"141","category_name":"服装鞋帽皮具店","address":"南昌路143"},{"poiid":"B2094654DB6BA4FE449E","title":"瑞金宾馆新接待大楼","lon":"121.46363","lat":"31.21398","category":"213","category_name":"五星级宾馆","address":""},{"poiid":"B2094753D56BABF54699","title":"丸龟制面","lon":"121.463951","lat":"31.216911","category":"247","category_name":"餐饮美食","address":"上海市 海海路百盛B1"},{"poiid":"B2094655D268A5FE459D","title":"茂名南路159弄小区","lon":"121.46259","lat":"31.21637","category":"47","category_name":"住宅区","address":"茂名南路159弄1-22号"},{"poiid":"B2094757D06FA2FD439F","title":"红房子西菜馆","lon":"121.46237","lat":"31.21747","category":"94","category_name":"西餐厅","address":"卢湾区淮海中路845号(近茂名南路)"},{"poiid":"B2094757D06FA3FC409E","title":"瑞福园(茂名店)","lon":"121.46258","lat":"31.21393","category":"76","category_name":"上海菜","address":"卢湾区茂名南路132号乙(近复兴中路)"},{"poiid":"B2094757D06FA2FE419C","title":"意粉屋 Pasta Inn","lon":"121.46229","lat":"31.21471","category":"94","category_name":"西餐厅","address":"卢湾区茂名南路132号(近南昌路)"},{"poiid":"B2094753D76FAAFA449C","title":"上海滩国泰旗舰店","lon":"121.466011","lat":"31.216125","category":"249","category_name":"购物服务","address":"淮海中路868号"},{"poiid":"B209475CD564A7F84292","title":"上海滩新天地店","lon":"121.47463","lat":"31.22164","category":"119","category_name":"商场","address":"\"太仓路181弄新天地北里15号\r\n\""},{"poiid":"B209475CD564A7F8439E","title":"上海滩中信泰富店","lon":"121.45602","lat":"31.22851","category":"119","category_name":"商场","address":"\"南京西路1168号中信泰富广场，店铺号221.\r\n\""},{"poiid":"B2094753DB6CA2FE419F","title":"百丽宫影城（环贸iapm 店）","lon":"121.461425","lat":"31.214521","category":"178","category_name":"电影院","address":"淮海中路999号环贸广场"},{"poiid":"B2094757D06EAAF84093","title":"Citta'享咖(淮海中路店)","lon":"121.4627","lat":"31.2178","category":"65","category_name":"咖啡厅","address":"上海卢湾区淮海中路835号(近茂名南路近国泰电影院)  "},{"poiid":"B2094757D06FABFE479E","title":"阿大葱油饼","lon":"121.46193","lat":"31.21593","category":"68","category_name":"快餐厅","address":"卢湾区茂名南路159弄2号后门(近南昌路)"},{"poiid":"B2094757D06FA2FA4393","title":"必胜客(永新店)","lon":"121.461029357","lat":"31.2173208917","category":"94","category_name":"西餐厅","address":"卢湾区淮海中路887号永新百货B1楼(近茂名南路)"},{"poiid":"B2094757D06FA5F94792","title":"陋室设计书吧","lon":"121.46311623809811","lat":"31.217176613800408","category":"260","category_name":"其他","address":"卢湾区南昌路145号乙(近茂名南路)"},{"poiid":"B2094757D068ABFD449F","title":"南昌路","lon":"121.46371047","lat":"31.217465104","category":"260","category_name":"其他","address":"上海徐汇区南昌路"},{"poiid":"B2094757D06FA7F44393","title":"甜蜜蜜(茂名南路店)","lon":"121.46152","lat":"31.21648","category":"67","category_name":"甜品店","address":"卢湾区茂名南路80号(近南昌路)"},{"poiid":"B2094753D56BA5FF429A","title":"贝克街221B福尔摩斯主题咖啡店","lon":"121.462867","lat":"31.216363","category":"500","category_name":"未知分类","address":"上海市 瑞金二路50号"},{"poiid":"B2094757D069A3FC449D","title":"8号线人民广场站","lon":"121.46167173","lat":"31.217903037","category":"36","category_name":"地铁站","address":"上海市黄浦区"},{"poiid":"B2094757D068A2FB459C","title":"仁清 南昌路店 NINSEI JAPANESE DININGBAR","lon":"121.4639582539","lat":"31.217281624639","category":"95","category_name":"日本料理","address":"卢湾区南昌路125号(近瑞金二路)"},{"poiid":"B2094757D068A2FA4099","title":"巨鹿路","lon":"121.46028137","lat":"31.215452194","category":"260","category_name":"其他","address":"上海卢湾区巨鹿路"},{"poiid":"B2094753D56DA3FA4098","title":"鱼酷活鱼现烤","lon":"121.463157","lat":"31.214649","category":"247","category_name":"餐饮美食","address":"上海市 淮海中路988号黄金世界地下1层"},{"poiid":"B2094654DA6EA1FF4692","title":"福瑞园联谊餐室","lon":"121.46203","lat":"31.21497","category":"257","category_name":"中餐厅","address":"茂名南路132号乙"},{"poiid":"B2094654DA6EA1FD4399","title":"iD Hair","lon":"121.46328","lat":"31.21737","category":"148","category_name":"美容美发店","address":"卢湾区南昌路274号"},{"poiid":"B2094753DB6CA4F4439C","title":"環貿iapm","lon":"121.462417","lat":"31.215452","category":"500","category_name":"未知分类","address":"上海市 淮海中路999號"},{"poiid":"B209475CD769A1FE449F","title":"Mr.Choi蔡嘉法式甜品","lon":"121.462043","lat":"31.215843","category":"247","category_name":"餐饮美食","address":"上海市 茂名南路112号(南昌路)"},{"poiid":"B209475CD469A5F8459D","title":"一风堂","lon":"121.461448","lat":"31.214548","category":"500","category_name":"未知分类","address":"上海市 iapm"},{"poiid":"B2094757D068A3FE4599","title":"肯德基 KFC (永新店)","lon":"121.46133117","lat":"31.217547569","category":"68","category_name":"快餐厅","address":"卢湾区淮海中路887号永新百货内(近茂名南路)"},{"poiid":"B209475CD56CA1FE4599","title":"优衣库（UNIQLO SHANGHAI 店）","lon":"121.461094","lat":"31.21732","category":"141","category_name":"服装鞋帽皮具店","address":"上海市黄浦区淮海中路887号"},{"poiid":"B209475CD26CA4FC4598","title":"iapm上海环贸广场","lon":"121.46421","lat":"31.215311","category":"500","category_name":"未知分类","address":"上海市 淮海中路999号"},{"poiid":"B209475CD76CA5F8419D","title":"白熊咖喱（iapm环贸购物中心）","lon":"121.462478","lat":"31.213878","category":"500","category_name":"未知分类","address":"上海市 淮海中路999号环贸广场L5-512(近陕西南路)"},{"poiid":"B2094757D464ABF4449C","title":"享咖 淮海中路店 Citta'","lon":"121.462261054","lat":"31.217926793","category":"65","category_name":"咖啡厅","address":"淮海中路837号近茂名南路"},{"poiid":"B2094757D069A4FD459B","title":"老锦江饭店夜上海餐厅","lon":"121.463289476","lat":"31.2152020027","category":"76","category_name":"上海菜","address":"上海茂名路"},{"poiid":"B2094655D36CA6FF439C","title":"复兴中路瑞金二路","lon":"121.46427","lat":"31.2147","category":"38","category_name":"公交车站","address":""},{"poiid":"B2094753DB68A2F9499C","title":"老吉士","lon":"121.461433","lat":"31.214521","category":"247","category_name":"餐饮美食","address":"上海市 淮海中路999号环贸iapm商场3楼"},{"poiid":"B209475DD76FA7FB4492","title":"恋暖の初茶","lon":"121.461441","lat":"31.214523","category":"247","category_name":"餐饮美食","address":"上海市 淮海中路999号环贸iapm广场LG2-227号铺"},{"poiid":"B2094757D068A1F44692","title":"1931 Cafe","lon":"121.462","lat":"31.21537","category":"260","category_name":"其他","address":"卢湾区茂名南路114号(南昌路口)"},{"poiid":"B2094757D068A4FC449D","title":"园梅","lon":"121.46394","lat":"31.21421","category":"149","category_name":"洗浴推拿场所","address":"卢湾区复兴中路614号(近瑞金二路)"},{"poiid":"B209475CD66BA4FE4399","title":"鹿港小镇（环贸广场店）","lon":"121.462371","lat":"31.214084","category":"500","category_name":"未知分类","address":"上海市 淮海中路999号环贸IAPM广场LG1-143（陕西南路）"},{"poiid":"B2094750D464A6F84193","title":"Grace Studio","lon":"121.460456","lat":"31.215869","category":"248","category_name":"生活娱乐","address":"淮海中路927弄淮海坊93号"},{"poiid":"B2094654DA6EA1FF4198","title":"永新百货","lon":"121.46109","lat":"31.2174","category":"119","category_name":"商场","address":"卢湾区淮海中路887号(近茂名南路)"},{"poiid":"B2094757D16AA1FC439E","title":"民防科普教育馆","lon":"121.46327","lat":"31.21381","category":"179","category_name":"音乐厅","address":"上海卢湾区复兴中路593号民防大厦内(近瑞金二路)  "},{"poiid":"B2094655D268A6F9429C","title":"瑞金宾馆贵宾楼","lon":"121.46363","lat":"31.21397","category":"213","category_name":"五星级宾馆","address":""},{"poiid":"B2094655D36CA6FF439F","title":"复兴中路茂名南路","lon":"121.46384","lat":"31.21459","category":"38","category_name":"公交车站","address":"上海复兴中路茂名南路"},{"poiid":"B2094654DB69AAF9419E","title":"中国银行卢湾支行","lon":"121.4629","lat":"31.21385","category":"150","category_name":"银行","address":"上海市卢湾区茂名南路205号"},{"poiid":"B209475DDA69A5F4419F","title":"AIME PATISSERIE","lon":"121.460853","lat":"31.214288","category":"247","category_name":"餐饮美食","address":"上海市 上海淮海中路1008号"},{"poiid":"B2094757D664A6FA469E","title":"老马车桂林米粉店 南昌路店","lon":"121.463039054","lat":"31.217267793","category":"68","category_name":"快餐厅","address":"卢湾区南昌路256号(近瑞金二路)"},{"poiid":"B209475DD268A3FB439E","title":"新肴珍宝海鲜（JUMBO Seafood）","lon":"121.463203","lat":"31.214633","category":"247","category_name":"餐饮美食","address":"上海市 淮海中路999号环贸广场L5-502"},{"poiid":"B209475CD66AA0F9419D","title":"百丽宫影城（环贸iapm店）","lon":"121.461448","lat":"31.214538","category":"178","category_name":"电影院","address":"上海市 淮海中路999号"},{"poiid":"B2094757D465AAF8459A","title":"糖潮食坊 淮海店","lon":"121.46197688897","lat":"31.217881007078","category":"247","category_name":"餐饮美食","address":"淮海中路835号近茂名路"},{"poiid":"B2094654DA6EA1FD419D","title":"雕刻时光","lon":"121.46323","lat":"31.21718","category":"141","category_name":"服装鞋帽皮具店","address":"南昌路143"},{"poiid":"B2094654DB6BA4FE449E","title":"瑞金宾馆新接待大楼","lon":"121.46363","lat":"31.21398","category":"213","category_name":"五星级宾馆","address":""},{"poiid":"B2094753D56BABF54699","title":"丸龟制面","lon":"121.463951","lat":"31.216911","category":"247","category_name":"餐饮美食","address":"上海市 海海路百盛B1"},{"poiid":"B2094655D268A5FE459D","title":"茂名南路159弄小区","lon":"121.46259","lat":"31.21637","category":"47","category_name":"住宅区","address":"茂名南路159弄1-22号"},{"poiid":"B2094757D06FA2FD439F","title":"红房子西菜馆","lon":"121.46237","lat":"31.21747","category":"94","category_name":"西餐厅","address":"卢湾区淮海中路845号(近茂名南路)"},{"poiid":"B2094757D06FA3FC409E","title":"瑞福园(茂名店)","lon":"121.46258","lat":"31.21393","category":"76","category_name":"上海菜","address":"卢湾区茂名南路132号乙(近复兴中路)"},{"poiid":"B2094757D06FA2FE419C","title":"意粉屋 Pasta Inn","lon":"121.46229","lat":"31.21471","category":"94","category_name":"西餐厅","address":"卢湾区茂名南路132号(近南昌路)"},{"poiid":"B2094753D76FAAFA449C","title":"上海滩国泰旗舰店","lon":"121.466011","lat":"31.216125","category":"249","category_name":"购物服务","address":"淮海中路868号"},{"poiid":"B209475CD564A7F84292","title":"上海滩新天地店","lon":"121.47463","lat":"31.22164","category":"119","category_name":"商场","address":"\"太仓路181弄新天地北里15号\r\n\""},{"poiid":"B209475CD564A7F8439E","title":"上海滩中信泰富店","lon":"121.45602","lat":"31.22851","category":"119","category_name":"商场","address":"\"南京西路1168号中信泰富广场，店铺号221.\r\n\""},{"poiid":"B2094753DB6CA2FE419F","title":"百丽宫影城（环贸iapm 店）","lon":"121.461425","lat":"31.214521","category":"178","category_name":"电影院","address":"淮海中路999号环贸广场"},{"poiid":"B2094757D06EAAF84093","title":"Citta'享咖(淮海中路店)","lon":"121.4627","lat":"31.2178","category":"65","category_name":"咖啡厅","address":"上海卢湾区淮海中路835号(近茂名南路近国泰电影院)  "},{"poiid":"B2094757D06FABFE479E","title":"阿大葱油饼","lon":"121.46193","lat":"31.21593","category":"68","category_name":"快餐厅","address":"卢湾区茂名南路159弄2号后门(近南昌路)"},{"poiid":"B2094757D06FA2FA4393","title":"必胜客(永新店)","lon":"121.461029357","lat":"31.2173208917","category":"94","category_name":"西餐厅","address":"卢湾区淮海中路887号永新百货B1楼(近茂名南路)"},{"poiid":"B2094757D06FA5F94792","title":"陋室设计书吧","lon":"121.46311623809811","lat":"31.217176613800408","category":"260","category_name":"其他","address":"卢湾区南昌路145号乙(近茂名南路)"},{"poiid":"B2094757D068ABFD449F","title":"南昌路","lon":"121.46371047","lat":"31.217465104","category":"260","category_name":"其他","address":"上海徐汇区南昌路"},{"poiid":"B2094757D06FA7F44393","title":"甜蜜蜜(茂名南路店)","lon":"121.46152","lat":"31.21648","category":"67","category_name":"甜品店","address":"卢湾区茂名南路80号(近南昌路)"},{"poiid":"B2094753D56BA5FF429A","title":"贝克街221B福尔摩斯主题咖啡店","lon":"121.462867","lat":"31.216363","category":"500","category_name":"未知分类","address":"上海市 瑞金二路50号"},{"poiid":"B2094757D069A3FC449D","title":"8号线人民广场站","lon":"121.46167173","lat":"31.217903037","category":"36","category_name":"地铁站","address":"上海市黄浦区"},{"poiid":"B2094757D068A2FB459C","title":"仁清 南昌路店 NINSEI JAPANESE DININGBAR","lon":"121.4639582539","lat":"31.217281624639","category":"95","category_name":"日本料理","address":"卢湾区南昌路125号(近瑞金二路)"},{"poiid":"B2094757D068A2FA4099","title":"巨鹿路","lon":"121.46028137","lat":"31.215452194","category":"260","category_name":"其他","address":"上海卢湾区巨鹿路"},{"poiid":"B2094753D56DA3FA4098","title":"鱼酷活鱼现烤","lon":"121.463157","lat":"31.214649","category":"247","category_name":"餐饮美食","address":"上海市 淮海中路988号黄金世界地下1层"},{"poiid":"B2094654DA6EA1FF4692","title":"福瑞园联谊餐室","lon":"121.46203","lat":"31.21497","category":"257","category_name":"中餐厅","address":"茂名南路132号乙"},{"poiid":"B2094654DA6EA1FD4399","title":"iD Hair","lon":"121.46328","lat":"31.21737","category":"148","category_name":"美容美发店","address":"卢湾区南昌路274号"},{"poiid":"B2094753DB6CA4F4439C","title":"環貿iapm","lon":"121.462417","lat":"31.215452","category":"500","category_name":"未知分类","address":"上海市 淮海中路999號"},{"poiid":"B209475CD769A1FE449F","title":"Mr.Choi蔡嘉法式甜品","lon":"121.462043","lat":"31.215843","category":"247","category_name":"餐饮美食","address":"上海市 茂名南路112号(南昌路)"},{"poiid":"B209475CD469A5F8459D","title":"一风堂","lon":"121.461448","lat":"31.214548","category":"500","category_name":"未知分类","address":"上海市 iapm"},{"poiid":"B2094757D068A3FE4599","title":"肯德基 KFC (永新店)","lon":"121.46133117","lat":"31.217547569","category":"68","category_name":"快餐厅","address":"卢湾区淮海中路887号永新百货内(近茂名南路)"},{"poiid":"B209475CD56CA1FE4599","title":"优衣库（UNIQLO SHANGHAI 店）","lon":"121.461094","lat":"31.21732","category":"141","category_name":"服装鞋帽皮具店","address":"上海市黄浦区淮海中路887号"},{"poiid":"B209475CD26CA4FC4598","title":"iapm上海环贸广场","lon":"121.46421","lat":"31.215311","category":"500","category_name":"未知分类","address":"上海市 淮海中路999号"},{"poiid":"B209475CD76CA5F8419D","title":"白熊咖喱（iapm环贸购物中心）","lon":"121.462478","lat":"31.213878","category":"500","category_name":"未知分类","address":"上海市 淮海中路999号环贸广场L5-512(近陕西南路)"},{"poiid":"B2094757D464ABF4449C","title":"享咖 淮海中路店 Citta'","lon":"121.462261054","lat":"31.217926793","category":"65","category_name":"咖啡厅","address":"淮海中路837号近茂名南路"},{"poiid":"B2094757D069A4FD459B","title":"老锦江饭店夜上海餐厅","lon":"121.463289476","lat":"31.2152020027","category":"76","category_name":"上海菜","address":"上海茂名路"},{"poiid":"B2094655D36CA6FF439C","title":"复兴中路瑞金二路","lon":"121.46427","lat":"31.2147","category":"38","category_name":"公交车站","address":""},{"poiid":"B2094753DB68A2F9499C","title":"老吉士","lon":"121.461433","lat":"31.214521","category":"247","category_name":"餐饮美食","address":"上海市 淮海中路999号环贸iapm商场3楼"},{"poiid":"B209475DD76FA7FB4492","title":"恋暖の初茶","lon":"121.461441","lat":"31.214523","category":"247","category_name":"餐饮美食","address":"上海市 淮海中路999号环贸iapm广场LG2-227号铺"},{"poiid":"B2094757D068A1F44692","title":"1931 Cafe","lon":"121.462","lat":"31.21537","category":"260","category_name":"其他","address":"卢湾区茂名南路114号(南昌路口)"},{"poiid":"B2094757D068A4FC449D","title":"园梅","lon":"121.46394","lat":"31.21421","category":"149","category_name":"洗浴推拿场所","address":"卢湾区复兴中路614号(近瑞金二路)"},{"poiid":"B209475CD66BA4FE4399","title":"鹿港小镇（环贸广场店）","lon":"121.462371","lat":"31.214084","category":"500","category_name":"未知分类","address":"上海市 淮海中路999号环贸IAPM广场LG1-143（陕西南路）"},{"poiid":"B2094750D464A6F84193","title":"Grace Studio","lon":"121.460456","lat":"31.215869","category":"248","category_name":"生活娱乐","address":"淮海中路927弄淮海坊93号"},{"poiid":"B2094654DA6EA1FF4198","title":"永新百货","lon":"121.46109","lat":"31.2174","category":"119","category_name":"商场","address":"卢湾区淮海中路887号(近茂名南路)"},{"poiid":"B2094757D16AA1FC439E","title":"民防科普教育馆","lon":"121.46327","lat":"31.21381","category":"179","category_name":"音乐厅","address":"上海卢湾区复兴中路593号民防大厦内(近瑞金二路)  "},{"poiid":"B2094655D268A6F9429C","title":"瑞金宾馆贵宾楼","lon":"121.46363","lat":"31.21397","category":"213","category_name":"五星级宾馆","address":""},{"poiid":"B2094655D36CA6FF439F","title":"复兴中路茂名南路","lon":"121.46384","lat":"31.21459","category":"38","category_name":"公交车站","address":"上海复兴中路茂名南路"},{"poiid":"B2094654DB69AAF9419E","title":"中国银行卢湾支行","lon":"121.4629","lat":"31.21385","category":"150","category_name":"银行","address":"上海市卢湾区茂名南路205号"},{"poiid":"B209475DDA69A5F4419F","title":"AIME PATISSERIE","lon":"121.460853","lat":"31.214288","category":"247","category_name":"餐饮美食","address":"上海市 上海淮海中路1008号"},{"poiid":"B2094757D664A6FA469E","title":"老马车桂林米粉店 南昌路店","lon":"121.463039054","lat":"31.217267793","category":"68","category_name":"快餐厅","address":"卢湾区南昌路256号(近瑞金二路)"},{"poiid":"B209475DD268A3FB439E","title":"新肴珍宝海鲜（JUMBO Seafood）","lon":"121.463203","lat":"31.214633","category":"247","category_name":"餐饮美食","address":"上海市 淮海中路999号环贸广场L5-502"},{"poiid":"B209475CD66AA0F9419D","title":"百丽宫影城（环贸iapm店）","lon":"121.461448","lat":"31.214538","category":"178","category_name":"电影院","address":"上海市 淮海中路999号"},{"poiid":"B2094757D465AAF8459A","title":"糖潮食坊 淮海店","lon":"121.46197688897","lat":"31.217881007078","category":"247","category_name":"餐饮美食","address":"淮海中路835号近茂名路"},{"poiid":"B2094654DA6EA1FD419D","title":"雕刻时光","lon":"121.46323","lat":"31.21718","category":"141","category_name":"服装鞋帽皮具店","address":"南昌路143"},{"poiid":"B2094654DB6BA4FE449E","title":"瑞金宾馆新接待大楼","lon":"121.46363","lat":"31.21398","category":"213","category_name":"五星级宾馆","address":""},{"poiid":"B2094753D56BABF54699","title":"丸龟制面","lon":"121.463951","lat":"31.216911","category":"247","category_name":"餐饮美食","address":"上海市 海海路百盛B1"},{"poiid":"B2094655D268A5FE459D","title":"茂名南路159弄小区","lon":"121.46259","lat":"31.21637","category":"47","category_name":"住宅区","address":"茂名南路159弄1-22号"}]