[{"poiid":"B2094757D06FA3FE4392","title":"小南国(虹梅店)","lon":"121.38531","lat":"31.19075","category":"76","category_name":"上海菜","address":"闵行区虹梅路3337号(近延安西路)"},{"poiid":"B2094757D06FA6F94799","title":"Big Bamboo(虹梅路店)","lon":"121.38749807","lat":"31.191347387","category":"260","category_name":"其他","address":"闵行区虹梅路3338弄2号虹梅休闲街内(近延安西路)"},{"poiid":"B2094757D06FA1FE4492","title":"西郊宾馆","lon":"121.38651","lat":"31.19694","category":"213","category_name":"五星级宾馆","address":"长宁区虹桥路1921号(近虹许路)"},{"poiid":"B2094654D564A1FD479A","title":"虹梅休闲街","lon":"121.38869","lat":"31.19128","category":"116","category_name":"特色商业街","address":""},{"poiid":"B2094757D069A1FC4592","title":"武警总队医院","lon":"121.38895056","lat":"31.192590069","category":"162","category_name":"医院","address":"长宁区虹许路831号(近延安西路)"},{"poiid":"B2094655D26BA5FD409E","title":"小南国汤河源浴场","lon":"121.38522","lat":"31.19076","category":"149","category_name":"洗浴推拿场所","address":"闵行区虹梅路3337号(近延安西路)"},{"poiid":"B2094757D068ABFF469E","title":"德国乡村西餐厅","lon":"121.387665505","lat":"31.1913894383","category":"94","category_name":"西餐厅","address":"闵行区虹梅路3338弄虹梅休闲街22-24号(近延安西路)"},{"poiid":"B2094757D06FA5FB489C","title":"蓝蛙(虹梅店)","lon":"121.3854","lat":"31.19026","category":"260","category_name":"其他","address":"闵行区虹梅路3338弄虹梅休闲街30号(近延安西路)"},{"poiid":"B2094757D06FABFE489D","title":"shanghai brewery","lon":"121.38794295","lat":"31.191516042","category":"260","category_name":"其他","address":"闵行区虹梅路3338弄虹梅路休闲街21C(近延安西路)"},{"poiid":"B2094757D06FAAFC4293","title":"彼德西餐","lon":"121.38339","lat":"31.19292","category":"94","category_name":"西餐厅","address":"长宁区虹梅路3911号SOHO3911休闲街7号别墅(近虹桥路)"},{"poiid":"B2094757D06FA7FB4993","title":"新苑宾馆","lon":"121.38887","lat":"31.19604","category":"217","category_name":"旅馆招待所","address":"长宁区虹桥路1900号(近虹许路)"},{"poiid":"B2094757D06BA3F8439A","title":"晶浦会西郊会所","lon":"121.385306586","lat":"31.1970257818","category":"500","category_name":"未知分类","address":"虹桥路1970号近虹梅路"},{"poiid":"B2094655D26DA2F5499D","title":"希腊餐厅 虹梅路店 Greek Taverna","lon":"121.383009054","lat":"31.193537793","category":"94","category_name":"西餐厅","address":"长宁区虹梅路3911号SOHO3911休闲街1号别墅(近虹桥路)"},{"poiid":"B2094757D068A5F9439F","title":"Las Tapas(虹梅店)","lon":"121.38567","lat":"31.1907","category":"94","category_name":"西餐厅","address":"闵行区虹梅路3338弄虹梅路休闲街33号(近延安西路)"},{"poiid":"B2094757D069A3F84792","title":"大渔铁板烧(虹许店)","lon":"121.38675","lat":"31.19337","category":"95","category_name":"日本料理","address":"长宁区虹许路951号(近延安西路)"},{"poiid":"B2094757D465A1FE499C","title":"名豪鱼翅海鲜酒家 虹桥店","lon":"121.38368575468","lat":"31.192560657425","category":"72","category_name":"广东菜","address":"长宁区虹梅北路3883号(近延安西路)"},{"poiid":"B2094757D069A0F94299","title":"皇家泰厨","lon":"121.38404","lat":"31.19285","category":"99","category_name":"泰国／越南菜品餐厅","address":"长宁区虹梅路3911号SOHO3911休闲街3号别墅(近虹桥路)"},{"poiid":"B2094655D264A2FE429D","title":"MexicoLindo","lon":"121.38935","lat":"31.19165","category":"256","category_name":"外国餐厅","address":""},{"poiid":"B2094757D068A4F4459E","title":"瑠","lon":"121.38827","lat":"31.19751","category":"95","category_name":"日本料理","address":"长宁区虹桥路1848号(近虹许路)"},{"poiid":"B2094654DB69A7FD499F","title":"海之幸(虹桥店)","lon":"121.38731","lat":"31.19345","category":"95","category_name":"日本料理","address":"长宁区延安西路2890号(近虹许路)"},{"poiid":"B2094757D06BA2F9429D","title":"圆石蟹宴","lon":"121.38761797","lat":"31.193659312","category":"257","category_name":"中餐厅","address":"长宁区延安西路2882号(近虹许路)"},{"poiid":"B2094655D26EA0FC409A","title":"天泰餐厅(虹梅店)","lon":"121.386","lat":"31.19104","category":"99","category_name":"泰国／越南菜品餐厅","address":"闵行区虹梅路3338弄老外街28号(近延安西路)"},{"poiid":"B2094757D069A2F44799","title":"锅德港式极品肥牛海鲜火锅(虹梅店)","lon":"121.38441","lat":"31.19239","category":"86","category_name":"火锅店","address":"长宁区虹梅路3901号1楼(近虹桥路)"},{"poiid":"B2094757D068A3F84898","title":"百瑞宠物公园","lon":"121.38815","lat":"31.19457","category":"129","category_name":"宠物用品店","address":"上海长宁区虹许路951号3楼(近延安西路)"},{"poiid":"B2094757D064ABFD459F","title":"凌泷阁","lon":"121.38814","lat":"31.1945","category":"257","category_name":"中餐厅","address":"长宁区虹许路951号2楼(延安西路口)"},{"poiid":"B2094654D56BA6FD469D","title":"晶采轩","lon":"121.38524","lat":"31.19789","category":"72","category_name":"广东菜","address":"长宁区虹桥路1937号(近虹许路)"},{"poiid":"B2094655D36DA0F84199","title":"延安西路虹许路","lon":"121.38747","lat":"31.19413","category":"38","category_name":"公交车站","address":""},{"poiid":"B2094757D16CA6F84399","title":"雞錦日式炭燒料理店","lon":"121.38757858","lat":"31.193951721","category":"247","category_name":"餐饮美食","address":"上海雞錦日式炭燒料理店 延安西路2876号(近虹许路)"},{"poiid":"B2094757D16CA4F94493","title":"布卡拉 BUKHARA","lon":"121.384310054","lat":"31.191769793","category":"102","category_name":"印度风味","address":"闵行区虹梅路3729号(近延安西路)"},{"poiid":"B2094757D068A7F4469D","title":"仙霞网球中心","lon":"121.38789","lat":"31.19734","category":"500","category_name":"未知分类","address":"长宁区虹桥路1885号(近虹许路)"},{"poiid":"B2094757D468A4F84593","title":"西郊公馆","lon":"121.3849008","lat":"31.1970511","category":"72","category_name":"广东菜","address":"长宁区虹桥路1950号(近西郊宾馆)"},{"poiid":"B2094655D26EA4FF429A","title":"赤坂亭日式烧肉法式铁板烧","lon":"121.38445","lat":"31.19185","category":"247","category_name":"餐饮美食","address":"闵行区虹梅路3725号森晟世洋国际广场(近延安西路)"},{"poiid":"B2094757D465A3F94998","title":"芙蓉湘菜馆","lon":"121.38720267037","lat":"31.193667926916","category":"77","category_name":"湖南菜","address":"长宁区延安西路2872号(近虹许路)"},{"poiid":"B2094757D06BA2FD429E","title":"席家花园(虹梅路店)","lon":"121.38415","lat":"31.19258","category":"47","category_name":"住宅区","address":"长宁区虹梅路3911号SOHO3911休闲街2号别墅(近虹桥路)"},{"poiid":"B2094654DB64A7F9469F","title":"大渔","lon":"121.38796","lat":"31.19474","category":"95","category_name":"日本料理","address":"虹许路943号(车之家俱乐部旁)"},{"poiid":"B2094654D564A1FD4398","title":"新德里印度料理","lon":"121.38594","lat":"31.19114","category":"102","category_name":"印度风味","address":"闵行区虹梅路3338弄2号虹梅休闲街5号(近延安西路)"},{"poiid":"B2094655D26EA6F84999","title":"印度小厨(虹梅店)","lon":"121.38325","lat":"31.19355","category":"257","category_name":"中餐厅","address":"长宁区虹梅路3911号SOHO3911休闲街8号别墅(近虹桥路)"},{"poiid":"B2094655D26EA2FD439E","title":"和献洋彩","lon":"121.38541","lat":"31.19076","category":"95","category_name":"日本料理","address":"闵行区虹梅路3338弄2号虹梅休闲街32号(近延安西路)"},{"poiid":"B2094757D16BA1F8429D","title":"京城日式烧肉","lon":"121.387496","lat":"31.193566","category":"247","category_name":"餐饮美食","address":"长宁区延安西路2886号(近虹许路)"},{"poiid":"B2094757D064AAFD4098","title":"流晶逸彩","lon":"121.3882979961","lat":"31.1926391942","category":"47","category_name":"住宅区","address":"流晶逸彩位于徐汇虹中路460弄"},{"poiid":"B2094757D465A0FB4792","title":"炉端烧 IRORIYA","lon":"121.38615381693","lat":"31.193089028443","category":"95","category_name":"日本料理","address":"长宁区延安西路2896号(近虹中路)"},{"poiid":"B2094757D56EA0FB4093","title":"琉球和佐美(长宁店)","lon":"121.3883929","lat":"31.1947505","category":"247","category_name":"餐饮美食","address":"闵行区虹许路1151号西郊公寓1楼(近西郊宾馆)"},{"poiid":"B2094757D66BA2F4499F","title":"蓝屋 AIYA","lon":"121.386147054","lat":"31.193512793","category":"95","category_name":"日本料理","address":"长宁区延安西路2892号"},{"poiid":"B2094757D465A1FF4798","title":"鸡锦日式炭烧料理店","lon":"121.388203054","lat":"31.194813793","category":"269","category_name":"烧烤","address":"长宁区延安西路2876号(近虹许路)"},{"poiid":"B2094757D664A3FF4399","title":"慕光日本料理 Hikari","lon":"121.3832673","lat":"31.1937276","category":"95","category_name":"日本料理","address":"闵行区虹梅路3911号SOHO3911休闲街"},{"poiid":"B2094654D564A1FE499D","title":"华菱大厦","lon":"121.38686264585","lat":"31.195373350716","category":"46","category_name":"楼宇","address":"上海市闵行区延安西路3062弄18号"},{"poiid":"B2094751D26FA2FA469F","title":"Mr. Pancake House","lon":"121.3848","lat":"31.19157","category":"94","category_name":"西餐厅","address":"闵行区虹梅路3721弄2号(近延安西路)"},{"poiid":"B2094757D469A7F44898","title":"请请请餐厅","lon":"121.38502464296","lat":"31.191419405761","category":"76","category_name":"上海菜","address":"长宁区虹梅路3338弄虹梅休闲街3-4号(近延安西路)"},{"poiid":"B2094751D36FA6FF419C","title":"城市公牛(虹梅路店)","lon":"121.38823","lat":"31.19226","category":"94","category_name":"西餐厅","address":"闵行区虹梅路3338弄2号虹梅休闲街26号(近延安西路)"},{"poiid":"B2094655D26EA5FA499D","title":"沙华多利 虹梅店 Pasta Fresca Da Salvatore","lon":"121.3846870497","lat":"31.192252632645","category":"98","category_name":"意式菜品餐厅","address":"闵行区虹梅路3896号中洋公寓内(近延安西路)"},{"poiid":"B2094757D06FA3FE4392","title":"小南国(虹梅店)","lon":"121.38531","lat":"31.19075","category":"76","category_name":"上海菜","address":"闵行区虹梅路3337号(近延安西路)"},{"poiid":"B2094757D06FA6F94799","title":"Big Bamboo(虹梅路店)","lon":"121.38749807","lat":"31.191347387","category":"260","category_name":"其他","address":"闵行区虹梅路3338弄2号虹梅休闲街内(近延安西路)"},{"poiid":"B2094757D06FA1FE4492","title":"西郊宾馆","lon":"121.38651","lat":"31.19694","category":"213","category_name":"五星级宾馆","address":"长宁区虹桥路1921号(近虹许路)"},{"poiid":"B2094654D564A1FD479A","title":"虹梅休闲街","lon":"121.38869","lat":"31.19128","category":"116","category_name":"特色商业街","address":""},{"poiid":"B2094757D069A1FC4592","title":"武警总队医院","lon":"121.38895056","lat":"31.192590069","category":"162","category_name":"医院","address":"长宁区虹许路831号(近延安西路)"},{"poiid":"B2094655D26BA5FD409E","title":"小南国汤河源浴场","lon":"121.38522","lat":"31.19076","category":"149","category_name":"洗浴推拿场所","address":"闵行区虹梅路3337号(近延安西路)"},{"poiid":"B2094757D068ABFF469E","title":"德国乡村西餐厅","lon":"121.387665505","lat":"31.1913894383","category":"94","category_name":"西餐厅","address":"闵行区虹梅路3338弄虹梅休闲街22-24号(近延安西路)"},{"poiid":"B2094757D06FA5FB489C","title":"蓝蛙(虹梅店)","lon":"121.3854","lat":"31.19026","category":"260","category_name":"其他","address":"闵行区虹梅路3338弄虹梅休闲街30号(近延安西路)"},{"poiid":"B2094757D06FABFE489D","title":"shanghai brewery","lon":"121.38794295","lat":"31.191516042","category":"260","category_name":"其他","address":"闵行区虹梅路3338弄虹梅路休闲街21C(近延安西路)"},{"poiid":"B2094757D06FAAFC4293","title":"彼德西餐","lon":"121.38339","lat":"31.19292","category":"94","category_name":"西餐厅","address":"长宁区虹梅路3911号SOHO3911休闲街7号别墅(近虹桥路)"},{"poiid":"B2094757D06FA7FB4993","title":"新苑宾馆","lon":"121.38887","lat":"31.19604","category":"217","category_name":"旅馆招待所","address":"长宁区虹桥路1900号(近虹许路)"},{"poiid":"B2094757D06BA3F8439A","title":"晶浦会西郊会所","lon":"121.385306586","lat":"31.1970257818","category":"500","category_name":"未知分类","address":"虹桥路1970号近虹梅路"},{"poiid":"B2094655D26DA2F5499D","title":"希腊餐厅 虹梅路店 Greek Taverna","lon":"121.383009054","lat":"31.193537793","category":"94","category_name":"西餐厅","address":"长宁区虹梅路3911号SOHO3911休闲街1号别墅(近虹桥路)"},{"poiid":"B2094757D068A5F9439F","title":"Las Tapas(虹梅店)","lon":"121.38567","lat":"31.1907","category":"94","category_name":"西餐厅","address":"闵行区虹梅路3338弄虹梅路休闲街33号(近延安西路)"},{"poiid":"B2094757D069A3F84792","title":"大渔铁板烧(虹许店)","lon":"121.38675","lat":"31.19337","category":"95","category_name":"日本料理","address":"长宁区虹许路951号(近延安西路)"},{"poiid":"B2094757D465A1FE499C","title":"名豪鱼翅海鲜酒家 虹桥店","lon":"121.38368575468","lat":"31.192560657425","category":"72","category_name":"广东菜","address":"长宁区虹梅北路3883号(近延安西路)"},{"poiid":"B2094757D069A0F94299","title":"皇家泰厨","lon":"121.38404","lat":"31.19285","category":"99","category_name":"泰国／越南菜品餐厅","address":"长宁区虹梅路3911号SOHO3911休闲街3号别墅(近虹桥路)"},{"poiid":"B2094655D264A2FE429D","title":"MexicoLindo","lon":"121.38935","lat":"31.19165","category":"256","category_name":"外国餐厅","address":""},{"poiid":"B2094757D068A4F4459E","title":"瑠","lon":"121.38827","lat":"31.19751","category":"95","category_name":"日本料理","address":"长宁区虹桥路1848号(近虹许路)"},{"poiid":"B2094654DB69A7FD499F","title":"海之幸(虹桥店)","lon":"121.38731","lat":"31.19345","category":"95","category_name":"日本料理","address":"长宁区延安西路2890号(近虹许路)"},{"poiid":"B2094757D06BA2F9429D","title":"圆石蟹宴","lon":"121.38761797","lat":"31.193659312","category":"257","category_name":"中餐厅","address":"长宁区延安西路2882号(近虹许路)"},{"poiid":"B2094655D26EA0FC409A","title":"天泰餐厅(虹梅店)","lon":"121.386","lat":"31.19104","category":"99","category_name":"泰国／越南菜品餐厅","address":"闵行区虹梅路3338弄老外街28号(近延安西路)"},{"poiid":"B2094757D069A2F44799","title":"锅德港式极品肥牛海鲜火锅(虹梅店)","lon":"121.38441","lat":"31.19239","category":"86","category_name":"火锅店","address":"长宁区虹梅路3901号1楼(近虹桥路)"},{"poiid":"B2094757D068A3F84898","title":"百瑞宠物公园","lon":"121.38815","lat":"31.19457","category":"129","category_name":"宠物用品店","address":"上海长宁区虹许路951号3楼(近延安西路)"},{"poiid":"B2094757D064ABFD459F","title":"凌泷阁","lon":"121.38814","lat":"31.1945","category":"257","category_name":"中餐厅","address":"长宁区虹许路951号2楼(延安西路口)"},{"poiid":"B2094654D56BA6FD469D","title":"晶采轩","lon":"121.38524","lat":"31.19789","category":"72","category_name":"广东菜","address":"长宁区虹桥路1937号(近虹许路)"},{"poiid":"B2094655D36DA0F84199","title":"延安西路虹许路","lon":"121.38747","lat":"31.19413","category":"38","category_name":"公交车站","address":""},{"poiid":"B2094757D16CA6F84399","title":"雞錦日式炭燒料理店","lon":"121.38757858","lat":"31.193951721","category":"247","category_name":"餐饮美食","address":"上海雞錦日式炭燒料理店 延安西路2876号(近虹许路)"},{"poiid":"B2094757D16CA4F94493","title":"布卡拉 BUKHARA","lon":"121.384310054","lat":"31.191769793","category":"102","category_name":"印度风味","address":"闵行区虹梅路3729号(近延安西路)"},{"poiid":"B2094757D068A7F4469D","title":"仙霞网球中心","lon":"121.38789","lat":"31.19734","category":"500","category_name":"未知分类","address":"长宁区虹桥路1885号(近虹许路)"},{"poiid":"B2094757D468A4F84593","title":"西郊公馆","lon":"121.3849008","lat":"31.1970511","category":"72","category_name":"广东菜","address":"长宁区虹桥路1950号(近西郊宾馆)"},{"poiid":"B2094655D26EA4FF429A","title":"赤坂亭日式烧肉法式铁板烧","lon":"121.38445","lat":"31.19185","category":"247","category_name":"餐饮美食","address":"闵行区虹梅路3725号森晟世洋国际广场(近延安西路)"},{"poiid":"B2094757D465A3F94998","title":"芙蓉湘菜馆","lon":"121.38720267037","lat":"31.193667926916","category":"77","category_name":"湖南菜","address":"长宁区延安西路2872号(近虹许路)"},{"poiid":"B2094757D06BA2FD429E","title":"席家花园(虹梅路店)","lon":"121.38415","lat":"31.19258","category":"47","category_name":"住宅区","address":"长宁区虹梅路3911号SOHO3911休闲街2号别墅(近虹桥路)"},{"poiid":"B2094654DB64A7F9469F","title":"大渔","lon":"121.38796","lat":"31.19474","category":"95","category_name":"日本料理","address":"虹许路943号(车之家俱乐部旁)"},{"poiid":"B2094654D564A1FD4398","title":"新德里印度料理","lon":"121.38594","lat":"31.19114","category":"102","category_name":"印度风味","address":"闵行区虹梅路3338弄2号虹梅休闲街5号(近延安西路)"},{"poiid":"B2094655D26EA6F84999","title":"印度小厨(虹梅店)","lon":"121.38325","lat":"31.19355","category":"257","category_name":"中餐厅","address":"长宁区虹梅路3911号SOHO3911休闲街8号别墅(近虹桥路)"},{"poiid":"B2094655D26EA2FD439E","title":"和献洋彩","lon":"121.38541","lat":"31.19076","category":"95","category_name":"日本料理","address":"闵行区虹梅路3338弄2号虹梅休闲街32号(近延安西路)"},{"poiid":"B2094757D16BA1F8429D","title":"京城日式烧肉","lon":"121.387496","lat":"31.193566","category":"247","category_name":"餐饮美食","address":"长宁区延安西路2886号(近虹许路)"},{"poiid":"B2094757D064AAFD4098","title":"流晶逸彩","lon":"121.3882979961","lat":"31.1926391942","category":"47","category_name":"住宅区","address":"流晶逸彩位于徐汇虹中路460弄"},{"poiid":"B2094757D465A0FB4792","title":"炉端烧 IRORIYA","lon":"121.38615381693","lat":"31.193089028443","category":"95","category_name":"日本料理","address":"长宁区延安西路2896号(近虹中路)"},{"poiid":"B2094757D56EA0FB4093","title":"琉球和佐美(长宁店)","lon":"121.3883929","lat":"31.1947505","category":"247","category_name":"餐饮美食","address":"闵行区虹许路1151号西郊公寓1楼(近西郊宾馆)"},{"poiid":"B2094757D66BA2F4499F","title":"蓝屋 AIYA","lon":"121.386147054","lat":"31.193512793","category":"95","category_name":"日本料理","address":"长宁区延安西路2892号"},{"poiid":"B2094757D465A1FF4798","title":"鸡锦日式炭烧料理店","lon":"121.388203054","lat":"31.194813793","category":"269","category_name":"烧烤","address":"长宁区延安西路2876号(近虹许路)"},{"poiid":"B2094757D664A3FF4399","title":"慕光日本料理 Hikari","lon":"121.3832673","lat":"31.1937276","category":"95","category_name":"日本料理","address":"闵行区虹梅路3911号SOHO3911休闲街"},{"poiid":"B2094654D564A1FE499D","title":"华菱大厦","lon":"121.38686264585","lat":"31.195373350716","category":"46","category_name":"楼宇","address":"上海市闵行区延安西路3062弄18号"},{"poiid":"B2094751D26FA2FA469F","title":"Mr. Pancake House","lon":"121.3848","lat":"31.19157","category":"94","category_name":"西餐厅","address":"闵行区虹梅路3721弄2号(近延安西路)"},{"poiid":"B2094757D469A7F44898","title":"请请请餐厅","lon":"121.38502464296","lat":"31.191419405761","category":"76","category_name":"上海菜","address":"长宁区虹梅路3338弄虹梅休闲街3-4号(近延安西路)"},{"poiid":"B2094751D36FA6FF419C","title":"城市公牛(虹梅路店)","lon":"121.38823","lat":"31.19226","category":"94","category_name":"西餐厅","address":"闵行区虹梅路3338弄2号虹梅休闲街26号(近延安西路)"},{"poiid":"B2094655D26EA5FA499D","title":"沙华多利 虹梅店 Pasta Fresca Da Salvatore","lon":"121.3846870497","lat":"31.192252632645","category":"98","category_name":"意式菜品餐厅","address":"闵行区虹梅路3896号中洋公寓内(近延安西路)"},{"poiid":"B2094757D06FA3FE4392","title":"小南国(虹梅店)","lon":"121.38531","lat":"31.19075","category":"76","category_name":"上海菜","address":"闵行区虹梅路3337号(近延安西路)"},{"poiid":"B2094757D06FA6F94799","title":"Big Bamboo(虹梅路店)","lon":"121.38749807","lat":"31.191347387","category":"260","category_name":"其他","address":"闵行区虹梅路3338弄2号虹梅休闲街内(近延安西路)"},{"poiid":"B2094757D06FA1FE4492","title":"西郊宾馆","lon":"121.38651","lat":"31.19694","category":"213","category_name":"五星级宾馆","address":"长宁区虹桥路1921号(近虹许路)"},{"poiid":"B2094654D564A1FD479A","title":"虹梅休闲街","lon":"121.38869","lat":"31.19128","category":"116","category_name":"特色商业街","address":""},{"poiid":"B2094757D069A1FC4592","title":"武警总队医院","lon":"121.38895056","lat":"31.192590069","category":"162","category_name":"医院","address":"长宁区虹许路831号(近延安西路)"},{"poiid":"B2094655D26BA5FD409E","title":"小南国汤河源浴场","lon":"121.38522","lat":"31.19076","category":"149","category_name":"洗浴推拿场所","address":"闵行区虹梅路3337号(近延安西路)"},{"poiid":"B2094757D068ABFF469E","title":"德国乡村西餐厅","lon":"121.387665505","lat":"31.1913894383","category":"94","category_name":"西餐厅","address":"闵行区虹梅路3338弄虹梅休闲街22-24号(近延安西路)"},{"poiid":"B2094757D06FA5FB489C","title":"蓝蛙(虹梅店)","lon":"121.3854","lat":"31.19026","category":"260","category_name":"其他","address":"闵行区虹梅路3338弄虹梅休闲街30号(近延安西路)"},{"poiid":"B2094757D06FABFE489D","title":"shanghai brewery","lon":"121.38794295","lat":"31.191516042","category":"260","category_name":"其他","address":"闵行区虹梅路3338弄虹梅路休闲街21C(近延安西路)"},{"poiid":"B2094757D06FAAFC4293","title":"彼德西餐","lon":"121.38339","lat":"31.19292","category":"94","category_name":"西餐厅","address":"长宁区虹梅路3911号SOHO3911休闲街7号别墅(近虹桥路)"},{"poiid":"B2094757D06FA7FB4993","title":"新苑宾馆","lon":"121.38887","lat":"31.19604","category":"217","category_name":"旅馆招待所","address":"长宁区虹桥路1900号(近虹许路)"},{"poiid":"B2094757D06BA3F8439A","title":"晶浦会西郊会所","lon":"121.385306586","lat":"31.1970257818","category":"500","category_name":"未知分类","address":"虹桥路1970号近虹梅路"},{"poiid":"B2094655D26DA2F5499D","title":"希腊餐厅 虹梅路店 Greek Taverna","lon":"121.383009054","lat":"31.193537793","category":"94","category_name":"西餐厅","address":"长宁区虹梅路3911号SOHO3911休闲街1号别墅(近虹桥路)"},{"poiid":"B2094757D068A5F9439F","title":"Las Tapas(虹梅店)","lon":"121.38567","lat":"31.1907","category":"94","category_name":"西餐厅","address":"闵行区虹梅路3338弄虹梅路休闲街33号(近延安西路)"},{"poiid":"B2094757D069A3F84792","title":"大渔铁板烧(虹许店)","lon":"121.38675","lat":"31.19337","category":"95","category_name":"日本料理","address":"长宁区虹许路951号(近延安西路)"},{"poiid":"B2094757D465A1FE499C","title":"名豪鱼翅海鲜酒家 虹桥店","lon":"121.38368575468","lat":"31.192560657425","category":"72","category_name":"广东菜","address":"长宁区虹梅北路3883号(近延安西路)"},{"poiid":"B2094757D069A0F94299","title":"皇家泰厨","lon":"121.38404","lat":"31.19285","category":"99","category_name":"泰国／越南菜品餐厅","address":"长宁区虹梅路3911号SOHO3911休闲街3号别墅(近虹桥路)"},{"poiid":"B2094655D264A2FE429D","title":"MexicoLindo","lon":"121.38935","lat":"31.19165","category":"256","category_name":"外国餐厅","address":""},{"poiid":"B2094757D068A4F4459E","title":"瑠","lon":"121.38827","lat":"31.19751","category":"95","category_name":"日本料理","address":"长宁区虹桥路1848号(近虹许路)"},{"poiid":"B2094654DB69A7FD499F","title":"海之幸(虹桥店)","lon":"121.38731","lat":"31.19345","category":"95","category_name":"日本料理","address":"长宁区延安西路2890号(近虹许路)"},{"poiid":"B2094757D06BA2F9429D","title":"圆石蟹宴","lon":"121.38761797","lat":"31.193659312","category":"257","category_name":"中餐厅","address":"长宁区延安西路2882号(近虹许路)"},{"poiid":"B2094655D26EA0FC409A","title":"天泰餐厅(虹梅店)","lon":"121.386","lat":"31.19104","category":"99","category_name":"泰国／越南菜品餐厅","address":"闵行区虹梅路3338弄老外街28号(近延安西路)"},{"poiid":"B2094757D069A2F44799","title":"锅德港式极品肥牛海鲜火锅(虹梅店)","lon":"121.38441","lat":"31.19239","category":"86","category_name":"火锅店","address":"长宁区虹梅路3901号1楼(近虹桥路)"},{"poiid":"B2094757D068A3F84898","title":"百瑞宠物公园","lon":"121.38815","lat":"31.19457","category":"129","category_name":"宠物用品店","address":"上海长宁区虹许路951号3楼(近延安西路)"},{"poiid":"B2094757D064ABFD459F","title":"凌泷阁","lon":"121.38814","lat":"31.1945","category":"257","category_name":"中餐厅","address":"长宁区虹许路951号2楼(延安西路口)"},{"poiid":"B2094654D56BA6FD469D","title":"晶采轩","lon":"121.38524","lat":"31.19789","category":"72","category_name":"广东菜","address":"长宁区虹桥路1937号(近虹许路)"},{"poiid":"B2094655D36DA0F84199","title":"延安西路虹许路","lon":"121.38747","lat":"31.19413","category":"38","category_name":"公交车站","address":""},{"poiid":"B2094757D16CA6F84399","title":"雞錦日式炭燒料理店","lon":"121.38757858","lat":"31.193951721","category":"247","category_name":"餐饮美食","address":"上海雞錦日式炭燒料理店 延安西路2876号(近虹许路)"},{"poiid":"B2094757D16CA4F94493","title":"布卡拉 BUKHARA","lon":"121.384310054","lat":"31.191769793","category":"102","category_name":"印度风味","address":"闵行区虹梅路3729号(近延安西路)"},{"poiid":"B2094757D068A7F4469D","title":"仙霞网球中心","lon":"121.38789","lat":"31.19734","category":"500","category_name":"未知分类","address":"长宁区虹桥路1885号(近虹许路)"},{"poiid":"B2094757D468A4F84593","title":"西郊公馆","lon":"121.3849008","lat":"31.1970511","category":"72","category_name":"广东菜","address":"长宁区虹桥路1950号(近西郊宾馆)"},{"poiid":"B2094655D26EA4FF429A","title":"赤坂亭日式烧肉法式铁板烧","lon":"121.38445","lat":"31.19185","category":"247","category_name":"餐饮美食","address":"闵行区虹梅路3725号森晟世洋国际广场(近延安西路)"},{"poiid":"B2094757D465A3F94998","title":"芙蓉湘菜馆","lon":"121.38720267037","lat":"31.193667926916","category":"77","category_name":"湖南菜","address":"长宁区延安西路2872号(近虹许路)"},{"poiid":"B2094757D06BA2FD429E","title":"席家花园(虹梅路店)","lon":"121.38415","lat":"31.19258","category":"47","category_name":"住宅区","address":"长宁区虹梅路3911号SOHO3911休闲街2号别墅(近虹桥路)"},{"poiid":"B2094654DB64A7F9469F","title":"大渔","lon":"121.38796","lat":"31.19474","category":"95","category_name":"日本料理","address":"虹许路943号(车之家俱乐部旁)"},{"poiid":"B2094654D564A1FD4398","title":"新德里印度料理","lon":"121.38594","lat":"31.19114","category":"102","category_name":"印度风味","address":"闵行区虹梅路3338弄2号虹梅休闲街5号(近延安西路)"},{"poiid":"B2094655D26EA6F84999","title":"印度小厨(虹梅店)","lon":"121.38325","lat":"31.19355","category":"257","category_name":"中餐厅","address":"长宁区虹梅路3911号SOHO3911休闲街8号别墅(近虹桥路)"},{"poiid":"B2094655D26EA2FD439E","title":"和献洋彩","lon":"121.38541","lat":"31.19076","category":"95","category_name":"日本料理","address":"闵行区虹梅路3338弄2号虹梅休闲街32号(近延安西路)"},{"poiid":"B2094757D16BA1F8429D","title":"京城日式烧肉","lon":"121.387496","lat":"31.193566","category":"247","category_name":"餐饮美食","address":"长宁区延安西路2886号(近虹许路)"},{"poiid":"B2094757D064AAFD4098","title":"流晶逸彩","lon":"121.3882979961","lat":"31.1926391942","category":"47","category_name":"住宅区","address":"流晶逸彩位于徐汇虹中路460弄"},{"poiid":"B2094757D465A0FB4792","title":"炉端烧 IRORIYA","lon":"121.38615381693","lat":"31.193089028443","category":"95","category_name":"日本料理","address":"长宁区延安西路2896号(近虹中路)"},{"poiid":"B2094757D56EA0FB4093","title":"琉球和佐美(长宁店)","lon":"121.3883929","lat":"31.1947505","category":"247","category_name":"餐饮美食","address":"闵行区虹许路1151号西郊公寓1楼(近西郊宾馆)"},{"poiid":"B2094757D66BA2F4499F","title":"蓝屋 AIYA","lon":"121.386147054","lat":"31.193512793","category":"95","category_name":"日本料理","address":"长宁区延安西路2892号"},{"poiid":"B2094757D465A1FF4798","title":"鸡锦日式炭烧料理店","lon":"121.388203054","lat":"31.194813793","category":"269","category_name":"烧烤","address":"长宁区延安西路2876号(近虹许路)"},{"poiid":"B2094757D664A3FF4399","title":"慕光日本料理 Hikari","lon":"121.3832673","lat":"31.1937276","category":"95","category_name":"日本料理","address":"闵行区虹梅路3911号SOHO3911休闲街"},{"poiid":"B2094654D564A1FE499D","title":"华菱大厦","lon":"121.38686264585","lat":"31.195373350716","category":"46","category_name":"楼宇","address":"上海市闵行区延安西路3062弄18号"},{"poiid":"B2094751D26FA2FA469F","title":"Mr. Pancake House","lon":"121.3848","lat":"31.19157","category":"94","category_name":"西餐厅","address":"闵行区虹梅路3721弄2号(近延安西路)"},{"poiid":"B2094757D469A7F44898","title":"请请请餐厅","lon":"121.38502464296","lat":"31.191419405761","category":"76","category_name":"上海菜","address":"长宁区虹梅路3338弄虹梅休闲街3-4号(近延安西路)"},{"poiid":"B2094751D36FA6FF419C","title":"城市公牛(虹梅路店)","lon":"121.38823","lat":"31.19226","category":"94","category_name":"西餐厅","address":"闵行区虹梅路3338弄2号虹梅休闲街26号(近延安西路)"},{"poiid":"B2094655D26EA5FA499D","title":"沙华多利 虹梅店 Pasta Fresca Da Salvatore","lon":"121.3846870497","lat":"31.192252632645","category":"98","category_name":"意式菜品餐厅","address":"闵行区虹梅路3896号中洋公寓内(近延安西路)"},{"poiid":"B2094757D06FA3FE4392","title":"小南国(虹梅店)","lon":"121.38531","lat":"31.19075","category":"76","category_name":"上海菜","address":"闵行区虹梅路3337号(近延安西路)"},{"poiid":"B2094757D06FA6F94799","title":"Big Bamboo(虹梅路店)","lon":"121.38749807","lat":"31.191347387","category":"260","category_name":"其他","address":"闵行区虹梅路3338弄2号虹梅休闲街内(近延安西路)"},{"poiid":"B2094757D06FA1FE4492","title":"西郊宾馆","lon":"121.38651","lat":"31.19694","category":"213","category_name":"五星级宾馆","address":"长宁区虹桥路1921号(近虹许路)"},{"poiid":"B2094654D564A1FD479A","title":"虹梅休闲街","lon":"121.38869","lat":"31.19128","category":"116","category_name":"特色商业街","address":""},{"poiid":"B2094757D069A1FC4592","title":"武警总队医院","lon":"121.38895056","lat":"31.192590069","category":"162","category_name":"医院","address":"长宁区虹许路831号(近延安西路)"},{"poiid":"B2094655D26BA5FD409E","title":"小南国汤河源浴场","lon":"121.38522","lat":"31.19076","category":"149","category_name":"洗浴推拿场所","address":"闵行区虹梅路3337号(近延安西路)"},{"poiid":"B2094757D068ABFF469E","title":"德国乡村西餐厅","lon":"121.387665505","lat":"31.1913894383","category":"94","category_name":"西餐厅","address":"闵行区虹梅路3338弄虹梅休闲街22-24号(近延安西路)"},{"poiid":"B2094757D06FA5FB489C","title":"蓝蛙(虹梅店)","lon":"121.3854","lat":"31.19026","category":"260","category_name":"其他","address":"闵行区虹梅路3338弄虹梅休闲街30号(近延安西路)"},{"poiid":"B2094757D06FABFE489D","title":"shanghai brewery","lon":"121.38794295","lat":"31.191516042","category":"260","category_name":"其他","address":"闵行区虹梅路3338弄虹梅路休闲街21C(近延安西路)"},{"poiid":"B2094757D06FAAFC4293","title":"彼德西餐","lon":"121.38339","lat":"31.19292","category":"94","category_name":"西餐厅","address":"长宁区虹梅路3911号SOHO3911休闲街7号别墅(近虹桥路)"},{"poiid":"B2094757D06FA7FB4993","title":"新苑宾馆","lon":"121.38887","lat":"31.19604","category":"217","category_name":"旅馆招待所","address":"长宁区虹桥路1900号(近虹许路)"},{"poiid":"B2094757D06BA3F8439A","title":"晶浦会西郊会所","lon":"121.385306586","lat":"31.1970257818","category":"500","category_name":"未知分类","address":"虹桥路1970号近虹梅路"},{"poiid":"B2094655D26DA2F5499D","title":"希腊餐厅 虹梅路店 Greek Taverna","lon":"121.383009054","lat":"31.193537793","category":"94","category_name":"西餐厅","address":"长宁区虹梅路3911号SOHO3911休闲街1号别墅(近虹桥路)"},{"poiid":"B2094757D068A5F9439F","title":"Las Tapas(虹梅店)","lon":"121.38567","lat":"31.1907","category":"94","category_name":"西餐厅","address":"闵行区虹梅路3338弄虹梅路休闲街33号(近延安西路)"},{"poiid":"B2094757D069A3F84792","title":"大渔铁板烧(虹许店)","lon":"121.38675","lat":"31.19337","category":"95","category_name":"日本料理","address":"长宁区虹许路951号(近延安西路)"},{"poiid":"B2094757D465A1FE499C","title":"名豪鱼翅海鲜酒家 虹桥店","lon":"121.38368575468","lat":"31.192560657425","category":"72","category_name":"广东菜","address":"长宁区虹梅北路3883号(近延安西路)"},{"poiid":"B2094757D069A0F94299","title":"皇家泰厨","lon":"121.38404","lat":"31.19285","category":"99","category_name":"泰国／越南菜品餐厅","address":"长宁区虹梅路3911号SOHO3911休闲街3号别墅(近虹桥路)"},{"poiid":"B2094655D264A2FE429D","title":"MexicoLindo","lon":"121.38935","lat":"31.19165","category":"256","category_name":"外国餐厅","address":""},{"poiid":"B2094757D068A4F4459E","title":"瑠","lon":"121.38827","lat":"31.19751","category":"95","category_name":"日本料理","address":"长宁区虹桥路1848号(近虹许路)"},{"poiid":"B2094654DB69A7FD499F","title":"海之幸(虹桥店)","lon":"121.38731","lat":"31.19345","category":"95","category_name":"日本料理","address":"长宁区延安西路2890号(近虹许路)"},{"poiid":"B2094757D06BA2F9429D","title":"圆石蟹宴","lon":"121.38761797","lat":"31.193659312","category":"257","category_name":"中餐厅","address":"长宁区延安西路2882号(近虹许路)"},{"poiid":"B2094655D26EA0FC409A","title":"天泰餐厅(虹梅店)","lon":"121.386","lat":"31.19104","category":"99","category_name":"泰国／越南菜品餐厅","address":"闵行区虹梅路3338弄老外街28号(近延安西路)"},{"poiid":"B2094757D069A2F44799","title":"锅德港式极品肥牛海鲜火锅(虹梅店)","lon":"121.38441","lat":"31.19239","category":"86","category_name":"火锅店","address":"长宁区虹梅路3901号1楼(近虹桥路)"},{"poiid":"B2094757D068A3F84898","title":"百瑞宠物公园","lon":"121.38815","lat":"31.19457","category":"129","category_name":"宠物用品店","address":"上海长宁区虹许路951号3楼(近延安西路)"},{"poiid":"B2094757D064ABFD459F","title":"凌泷阁","lon":"121.38814","lat":"31.1945","category":"257","category_name":"中餐厅","address":"长宁区虹许路951号2楼(延安西路口)"},{"poiid":"B2094654D56BA6FD469D","title":"晶采轩","lon":"121.38524","lat":"31.19789","category":"72","category_name":"广东菜","address":"长宁区虹桥路1937号(近虹许路)"},{"poiid":"B2094655D36DA0F84199","title":"延安西路虹许路","lon":"121.38747","lat":"31.19413","category":"38","category_name":"公交车站","address":""},{"poiid":"B2094757D16CA6F84399","title":"雞錦日式炭燒料理店","lon":"121.38757858","lat":"31.193951721","category":"247","category_name":"餐饮美食","address":"上海雞錦日式炭燒料理店 延安西路2876号(近虹许路)"},{"poiid":"B2094757D16CA4F94493","title":"布卡拉 BUKHARA","lon":"121.384310054","lat":"31.191769793","category":"102","category_name":"印度风味","address":"闵行区虹梅路3729号(近延安西路)"},{"poiid":"B2094757D068A7F4469D","title":"仙霞网球中心","lon":"121.38789","lat":"31.19734","category":"500","category_name":"未知分类","address":"长宁区虹桥路1885号(近虹许路)"},{"poiid":"B2094757D468A4F84593","title":"西郊公馆","lon":"121.3849008","lat":"31.1970511","category":"72","category_name":"广东菜","address":"长宁区虹桥路1950号(近西郊宾馆)"},{"poiid":"B2094655D26EA4FF429A","title":"赤坂亭日式烧肉法式铁板烧","lon":"121.38445","lat":"31.19185","category":"247","category_name":"餐饮美食","address":"闵行区虹梅路3725号森晟世洋国际广场(近延安西路)"},{"poiid":"B2094757D465A3F94998","title":"芙蓉湘菜馆","lon":"121.38720267037","lat":"31.193667926916","category":"77","category_name":"湖南菜","address":"长宁区延安西路2872号(近虹许路)"},{"poiid":"B2094757D06BA2FD429E","title":"席家花园(虹梅路店)","lon":"121.38415","lat":"31.19258","category":"47","category_name":"住宅区","address":"长宁区虹梅路3911号SOHO3911休闲街2号别墅(近虹桥路)"},{"poiid":"B2094654DB64A7F9469F","title":"大渔","lon":"121.38796","lat":"31.19474","category":"95","category_name":"日本料理","address":"虹许路943号(车之家俱乐部旁)"},{"poiid":"B2094654D564A1FD4398","title":"新德里印度料理","lon":"121.38594","lat":"31.19114","category":"102","category_name":"印度风味","address":"闵行区虹梅路3338弄2号虹梅休闲街5号(近延安西路)"},{"poiid":"B2094655D26EA6F84999","title":"印度小厨(虹梅店)","lon":"121.38325","lat":"31.19355","category":"257","category_name":"中餐厅","address":"长宁区虹梅路3911号SOHO3911休闲街8号别墅(近虹桥路)"},{"poiid":"B2094655D26EA2FD439E","title":"和献洋彩","lon":"121.38541","lat":"31.19076","category":"95","category_name":"日本料理","address":"闵行区虹梅路3338弄2号虹梅休闲街32号(近延安西路)"},{"poiid":"B2094757D16BA1F8429D","title":"京城日式烧肉","lon":"121.387496","lat":"31.193566","category":"247","category_name":"餐饮美食","address":"长宁区延安西路2886号(近虹许路)"},{"poiid":"B2094757D064AAFD4098","title":"流晶逸彩","lon":"121.3882979961","lat":"31.1926391942","category":"47","category_name":"住宅区","address":"流晶逸彩位于徐汇虹中路460弄"},{"poiid":"B2094757D465A0FB4792","title":"炉端烧 IRORIYA","lon":"121.38615381693","lat":"31.193089028443","category":"95","category_name":"日本料理","address":"长宁区延安西路2896号(近虹中路)"},{"poiid":"B2094757D56EA0FB4093","title":"琉球和佐美(长宁店)","lon":"121.3883929","lat":"31.1947505","category":"247","category_name":"餐饮美食","address":"闵行区虹许路1151号西郊公寓1楼(近西郊宾馆)"},{"poiid":"B2094757D66BA2F4499F","title":"蓝屋 AIYA","lon":"121.386147054","lat":"31.193512793","category":"95","category_name":"日本料理","address":"长宁区延安西路2892号"},{"poiid":"B2094757D465A1FF4798","title":"鸡锦日式炭烧料理店","lon":"121.388203054","lat":"31.194813793","category":"269","category_name":"烧烤","address":"长宁区延安西路2876号(近虹许路)"},{"poiid":"B2094757D664A3FF4399","title":"慕光日本料理 Hikari","lon":"121.3832673","lat":"31.1937276","category":"95","category_name":"日本料理","address":"闵行区虹梅路3911号SOHO3911休闲街"},{"poiid":"B2094654D564A1FE499D","title":"华菱大厦","lon":"121.38686264585","lat":"31.195373350716","category":"46","category_name":"楼宇","address":"上海市闵行区延安西路3062弄18号"},{"poiid":"B2094751D26FA2FA469F","title":"Mr. Pancake House","lon":"121.3848","lat":"31.19157","category":"94","category_name":"西餐厅","address":"闵行区虹梅路3721弄2号(近延安西路)"},{"poiid":"B2094757D469A7F44898","title":"请请请餐厅","lon":"121.38502464296","lat":"31.191419405761","category":"76","category_name":"上海菜","address":"长宁区虹梅路3338弄虹梅休闲街3-4号(近延安西路)"},{"poiid":"B2094751D36FA6FF419C","title":"城市公牛(虹梅路店)","lon":"121.38823","lat":"31.19226","category":"94","category_name":"西餐厅","address":"闵行区虹梅路3338弄2号虹梅休闲街26号(近延安西路)"},{"poiid":"B2094655D26EA5FA499D","title":"沙华多利 虹梅店 Pasta Fresca Da Salvatore","lon":"121.3846870497","lat":"31.192252632645","category":"98","category_name":"意式菜品餐厅","address":"闵行区虹梅路3896号中洋公寓内(近延安西路)"}]