[{"poiid":"B2094654DA6BA4FE4593","title":"上海四季百果园","lon":"121.05362","lat":"31.1368","category":"250","category_name":"公园户外","address":"青浦区朱家角镇盛家埭叶荡村369号"},{"poiid":"B2094654DA6BA0FC429C","title":"大千庄园生态世界(大千美食林)","lon":"121.04829","lat":"31.13106","category":"70","category_name":"综合酒楼","address":""},{"poiid":"B2094757D16DA3F8489A","title":"淀山湖归园公墓","lon":"121.065205336","lat":"31.1345381758","category":"620","category_name":"丧葬","address":"上海青浦区朱家角港周路8号"},{"poiid":"B2094655D36CA6F44899","title":"淀山湖大道港周路","lon":"121.06267","lat":"31.12968","category":"38","category_name":"公交车站","address":""},{"poiid":"B2094757D069A4FB449B","title":"大千生态庄园","lon":"121.06317935","lat":"31.134406319","category":"260","category_name":"其他","address":"青浦区朱家角西洋淀1号(近朱家角停车场)"},{"poiid":"B2094655D36CA6F4489E","title":"淀山湖大道横港村","lon":"121.07457","lat":"31.13307","category":"38","category_name":"公交车站","address":""},{"poiid":"B2094757D16BA5FB449D","title":"荷花垛农家乐","lon":"121.0457","lat":"31.13191","category":"87","category_name":"特色／地方风味餐厅","address":"青浦区朱家角镇西洋淀(近泰安)"},{"poiid":"B2094757D66CA1FF419F","title":"朱家角动植物湿地公园","lon":"121.05005254","lat":"31.131942265","category":"196","category_name":"公园","address":"上海青浦区朱家角西洋泾1号"},{"poiid":"B2094757D164A0FB469B","title":"盈港缘汗蒸馆","lon":"121.077961071","lat":"31.143028324","category":"148","category_name":"美容美发店","address":"上海港俞路1143号"},{"poiid":"B2094654DA6BA0F8479B","title":"天桥新苑","lon":"121.07659","lat":"31.15132","category":"47","category_name":"住宅区","address":""},{"poiid":"B2094757D06BA5FC489E","title":"百果园","lon":"121.0521698","lat":"31.127792358","category":"500","category_name":"未知分类","address":"上海朱家角"},{"poiid":"B2094757D168A3FC439D","title":"乌镇西栅","lon":"121.06675113","lat":"31.125894954","category":"500","category_name":"未知分类","address":"北京浙江桐乡市乌镇"}]