[{"poiid":"B2094654DB65A4FE4692","title":"上海新国际博览中心","lon":"121.56658","lat":"31.20897","category":"183","category_name":"展览馆","address":"浦东新区龙阳路2345号(近芳甸路)"},{"poiid":"B2094757D068A4F54298","title":"上海新国际展览中心","lon":"121.56696397","lat":"31.207406526","category":"183","category_name":"展览馆","address":"上海金桥路"},{"poiid":"B2094757D06EAAFB489B","title":"卓美亚喜玛拉雅酒店(Jumeirah Himalayas Hotel Shanghai)","lon":"121.56166815","lat":"31.210156885","category":"76","category_name":"上海菜","address":"浦东新区梅花路1108号(近芳甸路)"},{"poiid":"B2094655D26AA6F9489A","title":"新国际展览中心","lon":"121.5654","lat":"31.21161","category":"247","category_name":"餐饮美食","address":"浦东新区龙阳路2345号(近芳甸路)"},{"poiid":"B2094655D268A5F84499","title":"证大·喜玛拉雅中心(Zendai Himalayas Center)","lon":"121.56179","lat":"31.21017","category":"46","category_name":"楼宇","address":"浦东新区芳甸路1188号(梅花路口)"},{"poiid":"B2094757D064A2F9439A","title":"新旺茶餐厅(嘉里城店)","lon":"121.563320975","lat":"31.2123346421","category":"72","category_name":"广东菜","address":"浦东新区花木路1378号浦东嘉里城1楼L126单元"},{"poiid":"B2094757D06BA6FC489C","title":"上海新国际博览中心W3展馆","lon":"121.56474897","lat":"31.209239569","category":"500","category_name":"未知分类","address":"上海市浦东新区龙阳路2345号"},{"poiid":"B2094752D36DA3F9409D","title":"喜玛拉雅海上国际影城","lon":"121.56213283538818","lat":"31.210507475284675","category":"178","category_name":"电影院","address":"浦东新区芳甸路1188号喜玛拉雅中心7-8楼(近樱花路)"},{"poiid":"B2094757D06FAAFD4499","title":"融合马来西亚餐厅(嘉里城店)","lon":"121.563071975","lat":"31.2119606334","category":"110","category_name":"其他亚洲菜","address":"浦东新区芳甸路1155号嘉里城商场2楼L216A号(近新国际展览中心)"},{"poiid":"B2094757D069A2F84298","title":"上海轨道交通龙阳路基地","lon":"121.56873208","lat":"31.2043952824","category":"260","category_name":"其他","address":"上海市浦东新区龙阳路2520号"},{"poiid":"B2094757DA6EABFB499A","title":"泰谷泰国休闲餐厅","lon":"121.561691000002","lat":"31.2106290000003","category":"99","category_name":"泰国／越南菜品餐厅","address":"浦东新区芳甸路1188号喜玛拉雅中心B2楼151室(近梅花路)"},{"poiid":"B2094757D069A2F4499B","title":"Baker&Spice(嘉里城店)","lon":"121.563149975","lat":"31.2127126509","category":"67","category_name":"甜品店","address":"浦东新区花木路1378号嘉里城(近芳甸路)"},{"poiid":"B2094757D06FA7F9459C","title":"和民居食屋(浦东嘉里城店)","lon":"121.56422097","lat":"31.212740651","category":"95","category_name":"日本料理","address":"上海市浦东新区花木路1378号浦东嘉里城商场地下一层B105b号单元"},{"poiid":"B2094757D06BA0FC439E","title":"Johnny Moo（浦东嘉里城旗舰店）","lon":"121.56301597","lat":"31.212829653","category":"94","category_name":"西餐厅","address":"浦东新区花木路1378号浦东嘉里城2楼(近芳甸路)"},{"poiid":"B2094757D065A6FF479C","title":"逸谷","lon":"121.563296975","lat":"31.2123126416","category":"72","category_name":"广东菜","address":"浦东新区花木路1378号嘉里城2楼219A号(近芳甸路)"},{"poiid":"B2094757D06AA2FD4498","title":"大茴香(嘉里城店)","lon":"121.563372638","lat":"31.2124443102","category":"99","category_name":"泰国／越南菜品餐厅","address":"浦东新区花木路1378号嘉里城商场1楼115室(近芳甸路,新国际展览中心W5展馆对面)"},{"poiid":"B2094757D068A3F8479E","title":"友乐达台北精致面馆(浦东嘉里城店)","lon":"121.56402197","lat":"31.211982633","category":"68","category_name":"快餐厅","address":"浦东新区花木路1378号浦东嘉里城B1楼05A号(近梅花路)"},{"poiid":"B2094757D068A6F84498","title":"食之秘(浦东嘉里城店)","lon":"121.56416617","lat":"31.21139112","category":"67","category_name":"甜品店","address":"浦东新区花木路1378号浦东嘉里城商场B110号铺(近芳甸路)"},{"poiid":"B2094757D064A0FC479E","title":"赤坂亭(浦东嘉里店)","lon":"121.563086975","lat":"31.2127956529","category":"269","category_name":"烧烤","address":"浦东新区花木路1378号浦东嘉里城商场2楼L234单元"},{"poiid":"B2094757D06FA5FE439C","title":"永达国际大厦","lon":"121.57","lat":"31.2114","category":"46","category_name":"楼宇","address":"上海市浦东新区龙阳路2277号"},{"poiid":"B2094757D469A0F8479E","title":"沁泰","lon":"121.56238","lat":"31.2106733","category":"110","category_name":"其他亚洲菜","address":"浦东新区芳甸路1155号嘉里城B1楼"},{"poiid":"B2094757D069A4FE419A","title":"小南国(浦东嘉里城)","lon":"121.563241975","lat":"31.2125196464","category":"500","category_name":"未知分类","address":"上海市浦东新区花木路1378号浦东嘉里城2楼"},{"poiid":"B2094750D364A4F5469D","title":"Le Camelia","lon":"121.562248","lat":"31.208757","category":"67","category_name":"甜品店","address":"浦东新区芳甸路1188弄证大喜玛拉雅中心1-4号B1楼158号(近国际会展中心)"},{"poiid":"B2094752D16EA1F4499C","title":"唐宫海鲜坊","lon":"121.561446","lat":"31.208376","category":"247","category_name":"餐饮美食","address":"樱花路869号证大喜玛拉雅中心5楼103-104房"},{"poiid":"B2094757D06FA4FF4893","title":"The COOK·厨","lon":"121.56314097","lat":"31.212868654","category":"217","category_name":"旅馆招待所","address":"上海浦东新区花木路1388号嘉里大酒店1楼(近芳甸路)"},{"poiid":"B2094757DB6CA7FE419B","title":"地铁2号线龙阳路站","lon":"121.564178","lat":"31.20425","category":"627","category_name":"一般地点标志","address":"地铁2号线龙阳路站"},{"poiid":"B2094757D06AA1FE479E","title":"迪卡侬(龙阳路店)","lon":"121.56047797","lat":"31.204747464","category":"500","category_name":"未知分类","address":"上海龙阳路"},{"poiid":"B2094757D569A1FE4798","title":"喜马拉雅中心写字楼","lon":"121.5632489","lat":"31.20755278","category":"46","category_name":"楼宇","address":"芳甸路1188弄"},{"poiid":"B2094750D76EA3F9459D","title":"Fiorino","lon":"121.562","lat":"31.2103","category":"94","category_name":"西餐厅","address":"浦东新区芳甸路1188弄喜玛拉雅中心B2楼146室(近地铁7号线花木路站3号口)"},{"poiid":"B2094757D06EAAFC4499","title":"花木路地铁站","lon":"121.56275848","lat":"31.211390958","category":"36","category_name":"地铁站","address":"上海轨道交通 七号线 轨交花木路站 7"},{"poiid":"B2094750D26EAAFD4993","title":"极食","lon":"121.5622246","lat":"31.210733","category":"260","category_name":"其他","address":"浦东新区芳甸路1188弄喜玛拉雅中心B1楼152室(近新国际博览中心)"},{"poiid":"B2094757D068ABFF489D","title":"天天渔港(永达店)","lon":"121.563","lat":"31.20427","category":"72","category_name":"广东菜","address":"浦东新区龙阳路2277号(兰花路石楠路)"},{"poiid":"B2094750D26EAAFE4099","title":"健康煮 喜玛拉雅中心店","lon":"121.56232595444","lat":"31.208066616211","category":"86","category_name":"火锅店","address":"浦东新区芳甸路1188弄喜玛拉雅中心B1楼(近芳甸路)"},{"poiid":"B2094757D069A3FA4992","title":"有心","lon":"121.5616098","lat":"31.2134727","category":"75","category_name":"浙江菜","address":"浦东新区花木路1378号嘉里城商场1楼113号(近芳甸路)"},{"poiid":"B2094750D768ABF54498","title":"希腊餐厅(喜玛拉雅店)","lon":"121.562","lat":"31.2107","category":"94","category_name":"西餐厅","address":"浦东新区芳甸路1188弄喜玛拉雅中心1-4号B1楼151-148A(近梅花路)"},{"poiid":"B2094757D06EAAFC4392","title":"太平洋咖啡Pacific Coffee(浦东嘉里城店)","lon":"121.564106638","lat":"31.212344308","category":"260","category_name":"其他","address":"浦东新区花木路1378号浦东嘉里城2楼L205号(近7号线花木路站)"},{"poiid":"B2094654DA6AA0FF4593","title":"聚龙家园","lon":"121.56866","lat":"31.196918","category":"47","category_name":"住宅区","address":"上海浦东新区芳华路916弄"},{"poiid":"B2094757D56DA5FF419E","title":"上海喜马拉雅酒店","lon":"121.5622079372406","lat":"31.21047994715013","category":"251","category_name":"出行住宿","address":"上海 上海市 浦东新区梅花路1108号  靠近芳甸路"},{"poiid":"B2094654DB64A3F84892","title":"地铁万邦广场","lon":"121.564","lat":"31.2096","category":"119","category_name":"商场","address":"龙阳路2000号"},{"poiid":"B2094750D165A6FA4093","title":"憨豆咖啡","lon":"121.562057","lat":"31.210546","category":"247","category_name":"餐饮美食","address":"浦东新区芳甸路1088号喜玛拉雅中心B2楼"},{"poiid":"B2094655D26DA0FF4499","title":"上海新国际博览中心(西门)","lon":"121.56341","lat":"31.20812","category":"183","category_name":"展览馆","address":""},{"poiid":"B2094753D76AA4FF459C","title":"泰迪之家(嘉里城店)","lon":"121.562709","lat":"31.212447","category":"99","category_name":"泰国／越南菜品餐厅","address":"上海市浦东新区花木路1378号嘉里城1楼L225号铺"},{"poiid":"B2094751D56FA7FC499D","title":"喜马拉雅海上影城","lon":"121.562027","lat":"31.208878","category":"500","category_name":"未知分类","address":null},{"poiid":"B2094750D26DA2FA4493","title":"必胜客（喜马拉雅店）","lon":"121.56295407940672","lat":"31.20979516583142","category":"94","category_name":"西餐厅","address":"浦东新区芳甸路1188弄喜玛拉雅中心B2楼(近梅花路)"},{"poiid":"B2094757D56CA6FA4798","title":"芋贵人甜品店 喜玛拉雅店","lon":"121.5622564","lat":"31.2106295","category":"67","category_name":"甜品店","address":"浦东新区芳甸路1188弄喜玛拉雅中心B2楼东京街美食广场17号铺(近新国际博览中心)"},{"poiid":"B2094655D26FA6FD4198","title":"上海新国际博览中心(西二门)","lon":"121.56411","lat":"31.20592","category":"183","category_name":"展览馆","address":""},{"poiid":"B2094757D068A3FF459E","title":"Afternoon Tea(花木路店)","lon":"121.562549975","lat":"31.2125306467","category":"94","category_name":"西餐厅","address":"浦东新区花木路1378号浦东嘉里城L109铺"},{"poiid":"B2094654DB6BABFA449B","title":"上海新国际博览中心(南门)","lon":"121.5652","lat":"31.20455","category":"183","category_name":"展览馆","address":"龙阳路2345"},{"poiid":"B2094655D26AA6F94898","title":"上海车展","lon":"121.5654","lat":"31.21161","category":"247","category_name":"餐饮美食","address":"浦东新区龙阳路2345号新国际博览中心"},{"poiid":"B2094757D16EA5F8479F","title":"斗香园(嘉里店)","lon":"121.563118975","lat":"31.2124096439","category":"68","category_name":"快餐厅","address":"浦东新区花木路1378号嘉里城中心B1楼B103号(近新国际博览中心)"},{"poiid":"B2094654DB65A4FE4692","title":"上海新国际博览中心","lon":"121.56658","lat":"31.20897","category":"183","category_name":"展览馆","address":"浦东新区龙阳路2345号(近芳甸路)"},{"poiid":"B2094757D068A4F54298","title":"上海新国际展览中心","lon":"121.56696397","lat":"31.207406526","category":"183","category_name":"展览馆","address":"上海金桥路"},{"poiid":"B2094757D06EAAFB489B","title":"卓美亚喜玛拉雅酒店(Jumeirah Himalayas Hotel Shanghai)","lon":"121.56166815","lat":"31.210156885","category":"76","category_name":"上海菜","address":"浦东新区梅花路1108号(近芳甸路)"},{"poiid":"B2094655D26AA6F9489A","title":"新国际展览中心","lon":"121.5654","lat":"31.21161","category":"247","category_name":"餐饮美食","address":"浦东新区龙阳路2345号(近芳甸路)"},{"poiid":"B2094655D268A5F84499","title":"证大·喜玛拉雅中心(Zendai Himalayas Center)","lon":"121.56179","lat":"31.21017","category":"46","category_name":"楼宇","address":"浦东新区芳甸路1188号(梅花路口)"},{"poiid":"B2094757D064A2F9439A","title":"新旺茶餐厅(嘉里城店)","lon":"121.563320975","lat":"31.2123346421","category":"72","category_name":"广东菜","address":"浦东新区花木路1378号浦东嘉里城1楼L126单元"},{"poiid":"B2094757D06BA6FC489C","title":"上海新国际博览中心W3展馆","lon":"121.56474897","lat":"31.209239569","category":"500","category_name":"未知分类","address":"上海市浦东新区龙阳路2345号"},{"poiid":"B2094752D36DA3F9409D","title":"喜玛拉雅海上国际影城","lon":"121.56213283538818","lat":"31.210507475284675","category":"178","category_name":"电影院","address":"浦东新区芳甸路1188号喜玛拉雅中心7-8楼(近樱花路)"},{"poiid":"B2094757D06FAAFD4499","title":"融合马来西亚餐厅(嘉里城店)","lon":"121.563071975","lat":"31.2119606334","category":"110","category_name":"其他亚洲菜","address":"浦东新区芳甸路1155号嘉里城商场2楼L216A号(近新国际展览中心)"},{"poiid":"B2094757D069A2F84298","title":"上海轨道交通龙阳路基地","lon":"121.56873208","lat":"31.2043952824","category":"260","category_name":"其他","address":"上海市浦东新区龙阳路2520号"},{"poiid":"B2094757DA6EABFB499A","title":"泰谷泰国休闲餐厅","lon":"121.561691000002","lat":"31.2106290000003","category":"99","category_name":"泰国／越南菜品餐厅","address":"浦东新区芳甸路1188号喜玛拉雅中心B2楼151室(近梅花路)"},{"poiid":"B2094757D069A2F4499B","title":"Baker&Spice(嘉里城店)","lon":"121.563149975","lat":"31.2127126509","category":"67","category_name":"甜品店","address":"浦东新区花木路1378号嘉里城(近芳甸路)"},{"poiid":"B2094757D06FA7F9459C","title":"和民居食屋(浦东嘉里城店)","lon":"121.56422097","lat":"31.212740651","category":"95","category_name":"日本料理","address":"上海市浦东新区花木路1378号浦东嘉里城商场地下一层B105b号单元"},{"poiid":"B2094757D06BA0FC439E","title":"Johnny Moo（浦东嘉里城旗舰店）","lon":"121.56301597","lat":"31.212829653","category":"94","category_name":"西餐厅","address":"浦东新区花木路1378号浦东嘉里城2楼(近芳甸路)"},{"poiid":"B2094757D065A6FF479C","title":"逸谷","lon":"121.563296975","lat":"31.2123126416","category":"72","category_name":"广东菜","address":"浦东新区花木路1378号嘉里城2楼219A号(近芳甸路)"},{"poiid":"B2094757D06AA2FD4498","title":"大茴香(嘉里城店)","lon":"121.563372638","lat":"31.2124443102","category":"99","category_name":"泰国／越南菜品餐厅","address":"浦东新区花木路1378号嘉里城商场1楼115室(近芳甸路,新国际展览中心W5展馆对面)"},{"poiid":"B2094757D068A3F8479E","title":"友乐达台北精致面馆(浦东嘉里城店)","lon":"121.56402197","lat":"31.211982633","category":"68","category_name":"快餐厅","address":"浦东新区花木路1378号浦东嘉里城B1楼05A号(近梅花路)"},{"poiid":"B2094757D068A6F84498","title":"食之秘(浦东嘉里城店)","lon":"121.56416617","lat":"31.21139112","category":"67","category_name":"甜品店","address":"浦东新区花木路1378号浦东嘉里城商场B110号铺(近芳甸路)"},{"poiid":"B2094757D064A0FC479E","title":"赤坂亭(浦东嘉里店)","lon":"121.563086975","lat":"31.2127956529","category":"269","category_name":"烧烤","address":"浦东新区花木路1378号浦东嘉里城商场2楼L234单元"},{"poiid":"B2094757D06FA5FE439C","title":"永达国际大厦","lon":"121.57","lat":"31.2114","category":"46","category_name":"楼宇","address":"上海市浦东新区龙阳路2277号"},{"poiid":"B2094757D469A0F8479E","title":"沁泰","lon":"121.56238","lat":"31.2106733","category":"110","category_name":"其他亚洲菜","address":"浦东新区芳甸路1155号嘉里城B1楼"},{"poiid":"B2094757D069A4FE419A","title":"小南国(浦东嘉里城)","lon":"121.563241975","lat":"31.2125196464","category":"500","category_name":"未知分类","address":"上海市浦东新区花木路1378号浦东嘉里城2楼"},{"poiid":"B2094750D364A4F5469D","title":"Le Camelia","lon":"121.562248","lat":"31.208757","category":"67","category_name":"甜品店","address":"浦东新区芳甸路1188弄证大喜玛拉雅中心1-4号B1楼158号(近国际会展中心)"},{"poiid":"B2094752D16EA1F4499C","title":"唐宫海鲜坊","lon":"121.561446","lat":"31.208376","category":"247","category_name":"餐饮美食","address":"樱花路869号证大喜玛拉雅中心5楼103-104房"},{"poiid":"B2094757D06FA4FF4893","title":"The COOK·厨","lon":"121.56314097","lat":"31.212868654","category":"217","category_name":"旅馆招待所","address":"上海浦东新区花木路1388号嘉里大酒店1楼(近芳甸路)"},{"poiid":"B2094757DB6CA7FE419B","title":"地铁2号线龙阳路站","lon":"121.564178","lat":"31.20425","category":"627","category_name":"一般地点标志","address":"地铁2号线龙阳路站"},{"poiid":"B2094757D06AA1FE479E","title":"迪卡侬(龙阳路店)","lon":"121.56047797","lat":"31.204747464","category":"500","category_name":"未知分类","address":"上海龙阳路"},{"poiid":"B2094757D569A1FE4798","title":"喜马拉雅中心写字楼","lon":"121.5632489","lat":"31.20755278","category":"46","category_name":"楼宇","address":"芳甸路1188弄"},{"poiid":"B2094750D76EA3F9459D","title":"Fiorino","lon":"121.562","lat":"31.2103","category":"94","category_name":"西餐厅","address":"浦东新区芳甸路1188弄喜玛拉雅中心B2楼146室(近地铁7号线花木路站3号口)"},{"poiid":"B2094757D06EAAFC4499","title":"花木路地铁站","lon":"121.56275848","lat":"31.211390958","category":"36","category_name":"地铁站","address":"上海轨道交通 七号线 轨交花木路站 7"},{"poiid":"B2094750D26EAAFD4993","title":"极食","lon":"121.5622246","lat":"31.210733","category":"260","category_name":"其他","address":"浦东新区芳甸路1188弄喜玛拉雅中心B1楼152室(近新国际博览中心)"},{"poiid":"B2094757D068ABFF489D","title":"天天渔港(永达店)","lon":"121.563","lat":"31.20427","category":"72","category_name":"广东菜","address":"浦东新区龙阳路2277号(兰花路石楠路)"},{"poiid":"B2094750D26EAAFE4099","title":"健康煮 喜玛拉雅中心店","lon":"121.56232595444","lat":"31.208066616211","category":"86","category_name":"火锅店","address":"浦东新区芳甸路1188弄喜玛拉雅中心B1楼(近芳甸路)"},{"poiid":"B2094757D069A3FA4992","title":"有心","lon":"121.5616098","lat":"31.2134727","category":"75","category_name":"浙江菜","address":"浦东新区花木路1378号嘉里城商场1楼113号(近芳甸路)"},{"poiid":"B2094750D768ABF54498","title":"希腊餐厅(喜玛拉雅店)","lon":"121.562","lat":"31.2107","category":"94","category_name":"西餐厅","address":"浦东新区芳甸路1188弄喜玛拉雅中心1-4号B1楼151-148A(近梅花路)"},{"poiid":"B2094757D06EAAFC4392","title":"太平洋咖啡Pacific Coffee(浦东嘉里城店)","lon":"121.564106638","lat":"31.212344308","category":"260","category_name":"其他","address":"浦东新区花木路1378号浦东嘉里城2楼L205号(近7号线花木路站)"},{"poiid":"B2094654DA6AA0FF4593","title":"聚龙家园","lon":"121.56866","lat":"31.196918","category":"47","category_name":"住宅区","address":"上海浦东新区芳华路916弄"},{"poiid":"B2094757D56DA5FF419E","title":"上海喜马拉雅酒店","lon":"121.5622079372406","lat":"31.21047994715013","category":"251","category_name":"出行住宿","address":"上海 上海市 浦东新区梅花路1108号  靠近芳甸路"},{"poiid":"B2094654DB64A3F84892","title":"地铁万邦广场","lon":"121.564","lat":"31.2096","category":"119","category_name":"商场","address":"龙阳路2000号"},{"poiid":"B2094750D165A6FA4093","title":"憨豆咖啡","lon":"121.562057","lat":"31.210546","category":"247","category_name":"餐饮美食","address":"浦东新区芳甸路1088号喜玛拉雅中心B2楼"},{"poiid":"B2094655D26DA0FF4499","title":"上海新国际博览中心(西门)","lon":"121.56341","lat":"31.20812","category":"183","category_name":"展览馆","address":""},{"poiid":"B2094753D76AA4FF459C","title":"泰迪之家(嘉里城店)","lon":"121.562709","lat":"31.212447","category":"99","category_name":"泰国／越南菜品餐厅","address":"上海市浦东新区花木路1378号嘉里城1楼L225号铺"},{"poiid":"B2094751D56FA7FC499D","title":"喜马拉雅海上影城","lon":"121.562027","lat":"31.208878","category":"500","category_name":"未知分类","address":null},{"poiid":"B2094750D26DA2FA4493","title":"必胜客（喜马拉雅店）","lon":"121.56295407940672","lat":"31.20979516583142","category":"94","category_name":"西餐厅","address":"浦东新区芳甸路1188弄喜玛拉雅中心B2楼(近梅花路)"},{"poiid":"B2094757D56CA6FA4798","title":"芋贵人甜品店 喜玛拉雅店","lon":"121.5622564","lat":"31.2106295","category":"67","category_name":"甜品店","address":"浦东新区芳甸路1188弄喜玛拉雅中心B2楼东京街美食广场17号铺(近新国际博览中心)"},{"poiid":"B2094655D26FA6FD4198","title":"上海新国际博览中心(西二门)","lon":"121.56411","lat":"31.20592","category":"183","category_name":"展览馆","address":""},{"poiid":"B2094757D068A3FF459E","title":"Afternoon Tea(花木路店)","lon":"121.562549975","lat":"31.2125306467","category":"94","category_name":"西餐厅","address":"浦东新区花木路1378号浦东嘉里城L109铺"},{"poiid":"B2094654DB6BABFA449B","title":"上海新国际博览中心(南门)","lon":"121.5652","lat":"31.20455","category":"183","category_name":"展览馆","address":"龙阳路2345"},{"poiid":"B2094655D26AA6F94898","title":"上海车展","lon":"121.5654","lat":"31.21161","category":"247","category_name":"餐饮美食","address":"浦东新区龙阳路2345号新国际博览中心"},{"poiid":"B2094757D16EA5F8479F","title":"斗香园(嘉里店)","lon":"121.563118975","lat":"31.2124096439","category":"68","category_name":"快餐厅","address":"浦东新区花木路1378号嘉里城中心B1楼B103号(近新国际博览中心)"},{"poiid":"B2094654DB65A4FE4692","title":"上海新国际博览中心","lon":"121.56658","lat":"31.20897","category":"183","category_name":"展览馆","address":"浦东新区龙阳路2345号(近芳甸路)"},{"poiid":"B2094757D068A4F54298","title":"上海新国际展览中心","lon":"121.56696397","lat":"31.207406526","category":"183","category_name":"展览馆","address":"上海金桥路"},{"poiid":"B2094757D06EAAFB489B","title":"卓美亚喜玛拉雅酒店(Jumeirah Himalayas Hotel Shanghai)","lon":"121.56166815","lat":"31.210156885","category":"76","category_name":"上海菜","address":"浦东新区梅花路1108号(近芳甸路)"},{"poiid":"B2094655D26AA6F9489A","title":"新国际展览中心","lon":"121.5654","lat":"31.21161","category":"247","category_name":"餐饮美食","address":"浦东新区龙阳路2345号(近芳甸路)"},{"poiid":"B2094655D268A5F84499","title":"证大·喜玛拉雅中心(Zendai Himalayas Center)","lon":"121.56179","lat":"31.21017","category":"46","category_name":"楼宇","address":"浦东新区芳甸路1188号(梅花路口)"},{"poiid":"B2094757D064A2F9439A","title":"新旺茶餐厅(嘉里城店)","lon":"121.563320975","lat":"31.2123346421","category":"72","category_name":"广东菜","address":"浦东新区花木路1378号浦东嘉里城1楼L126单元"},{"poiid":"B2094757D06BA6FC489C","title":"上海新国际博览中心W3展馆","lon":"121.56474897","lat":"31.209239569","category":"500","category_name":"未知分类","address":"上海市浦东新区龙阳路2345号"},{"poiid":"B2094752D36DA3F9409D","title":"喜玛拉雅海上国际影城","lon":"121.56213283538818","lat":"31.210507475284675","category":"178","category_name":"电影院","address":"浦东新区芳甸路1188号喜玛拉雅中心7-8楼(近樱花路)"},{"poiid":"B2094757D06FAAFD4499","title":"融合马来西亚餐厅(嘉里城店)","lon":"121.563071975","lat":"31.2119606334","category":"110","category_name":"其他亚洲菜","address":"浦东新区芳甸路1155号嘉里城商场2楼L216A号(近新国际展览中心)"},{"poiid":"B2094757D069A2F84298","title":"上海轨道交通龙阳路基地","lon":"121.56873208","lat":"31.2043952824","category":"260","category_name":"其他","address":"上海市浦东新区龙阳路2520号"},{"poiid":"B2094757DA6EABFB499A","title":"泰谷泰国休闲餐厅","lon":"121.561691000002","lat":"31.2106290000003","category":"99","category_name":"泰国／越南菜品餐厅","address":"浦东新区芳甸路1188号喜玛拉雅中心B2楼151室(近梅花路)"},{"poiid":"B2094757D069A2F4499B","title":"Baker&Spice(嘉里城店)","lon":"121.563149975","lat":"31.2127126509","category":"67","category_name":"甜品店","address":"浦东新区花木路1378号嘉里城(近芳甸路)"},{"poiid":"B2094757D06FA7F9459C","title":"和民居食屋(浦东嘉里城店)","lon":"121.56422097","lat":"31.212740651","category":"95","category_name":"日本料理","address":"上海市浦东新区花木路1378号浦东嘉里城商场地下一层B105b号单元"},{"poiid":"B2094757D06BA0FC439E","title":"Johnny Moo（浦东嘉里城旗舰店）","lon":"121.56301597","lat":"31.212829653","category":"94","category_name":"西餐厅","address":"浦东新区花木路1378号浦东嘉里城2楼(近芳甸路)"},{"poiid":"B2094757D065A6FF479C","title":"逸谷","lon":"121.563296975","lat":"31.2123126416","category":"72","category_name":"广东菜","address":"浦东新区花木路1378号嘉里城2楼219A号(近芳甸路)"},{"poiid":"B2094757D06AA2FD4498","title":"大茴香(嘉里城店)","lon":"121.563372638","lat":"31.2124443102","category":"99","category_name":"泰国／越南菜品餐厅","address":"浦东新区花木路1378号嘉里城商场1楼115室(近芳甸路,新国际展览中心W5展馆对面)"},{"poiid":"B2094757D068A3F8479E","title":"友乐达台北精致面馆(浦东嘉里城店)","lon":"121.56402197","lat":"31.211982633","category":"68","category_name":"快餐厅","address":"浦东新区花木路1378号浦东嘉里城B1楼05A号(近梅花路)"},{"poiid":"B2094757D068A6F84498","title":"食之秘(浦东嘉里城店)","lon":"121.56416617","lat":"31.21139112","category":"67","category_name":"甜品店","address":"浦东新区花木路1378号浦东嘉里城商场B110号铺(近芳甸路)"},{"poiid":"B2094757D064A0FC479E","title":"赤坂亭(浦东嘉里店)","lon":"121.563086975","lat":"31.2127956529","category":"269","category_name":"烧烤","address":"浦东新区花木路1378号浦东嘉里城商场2楼L234单元"},{"poiid":"B2094757D06FA5FE439C","title":"永达国际大厦","lon":"121.57","lat":"31.2114","category":"46","category_name":"楼宇","address":"上海市浦东新区龙阳路2277号"},{"poiid":"B2094757D469A0F8479E","title":"沁泰","lon":"121.56238","lat":"31.2106733","category":"110","category_name":"其他亚洲菜","address":"浦东新区芳甸路1155号嘉里城B1楼"},{"poiid":"B2094757D069A4FE419A","title":"小南国(浦东嘉里城)","lon":"121.563241975","lat":"31.2125196464","category":"500","category_name":"未知分类","address":"上海市浦东新区花木路1378号浦东嘉里城2楼"},{"poiid":"B2094750D364A4F5469D","title":"Le Camelia","lon":"121.562248","lat":"31.208757","category":"67","category_name":"甜品店","address":"浦东新区芳甸路1188弄证大喜玛拉雅中心1-4号B1楼158号(近国际会展中心)"},{"poiid":"B2094752D16EA1F4499C","title":"唐宫海鲜坊","lon":"121.561446","lat":"31.208376","category":"247","category_name":"餐饮美食","address":"樱花路869号证大喜玛拉雅中心5楼103-104房"},{"poiid":"B2094757D06FA4FF4893","title":"The COOK·厨","lon":"121.56314097","lat":"31.212868654","category":"217","category_name":"旅馆招待所","address":"上海浦东新区花木路1388号嘉里大酒店1楼(近芳甸路)"},{"poiid":"B2094757DB6CA7FE419B","title":"地铁2号线龙阳路站","lon":"121.564178","lat":"31.20425","category":"627","category_name":"一般地点标志","address":"地铁2号线龙阳路站"},{"poiid":"B2094757D06AA1FE479E","title":"迪卡侬(龙阳路店)","lon":"121.56047797","lat":"31.204747464","category":"500","category_name":"未知分类","address":"上海龙阳路"},{"poiid":"B2094757D569A1FE4798","title":"喜马拉雅中心写字楼","lon":"121.5632489","lat":"31.20755278","category":"46","category_name":"楼宇","address":"芳甸路1188弄"},{"poiid":"B2094750D76EA3F9459D","title":"Fiorino","lon":"121.562","lat":"31.2103","category":"94","category_name":"西餐厅","address":"浦东新区芳甸路1188弄喜玛拉雅中心B2楼146室(近地铁7号线花木路站3号口)"},{"poiid":"B2094757D06EAAFC4499","title":"花木路地铁站","lon":"121.56275848","lat":"31.211390958","category":"36","category_name":"地铁站","address":"上海轨道交通 七号线 轨交花木路站 7"},{"poiid":"B2094750D26EAAFD4993","title":"极食","lon":"121.5622246","lat":"31.210733","category":"260","category_name":"其他","address":"浦东新区芳甸路1188弄喜玛拉雅中心B1楼152室(近新国际博览中心)"},{"poiid":"B2094757D068ABFF489D","title":"天天渔港(永达店)","lon":"121.563","lat":"31.20427","category":"72","category_name":"广东菜","address":"浦东新区龙阳路2277号(兰花路石楠路)"},{"poiid":"B2094750D26EAAFE4099","title":"健康煮 喜玛拉雅中心店","lon":"121.56232595444","lat":"31.208066616211","category":"86","category_name":"火锅店","address":"浦东新区芳甸路1188弄喜玛拉雅中心B1楼(近芳甸路)"},{"poiid":"B2094757D069A3FA4992","title":"有心","lon":"121.5616098","lat":"31.2134727","category":"75","category_name":"浙江菜","address":"浦东新区花木路1378号嘉里城商场1楼113号(近芳甸路)"},{"poiid":"B2094750D768ABF54498","title":"希腊餐厅(喜玛拉雅店)","lon":"121.562","lat":"31.2107","category":"94","category_name":"西餐厅","address":"浦东新区芳甸路1188弄喜玛拉雅中心1-4号B1楼151-148A(近梅花路)"},{"poiid":"B2094757D06EAAFC4392","title":"太平洋咖啡Pacific Coffee(浦东嘉里城店)","lon":"121.564106638","lat":"31.212344308","category":"260","category_name":"其他","address":"浦东新区花木路1378号浦东嘉里城2楼L205号(近7号线花木路站)"},{"poiid":"B2094654DA6AA0FF4593","title":"聚龙家园","lon":"121.56866","lat":"31.196918","category":"47","category_name":"住宅区","address":"上海浦东新区芳华路916弄"},{"poiid":"B2094757D56DA5FF419E","title":"上海喜马拉雅酒店","lon":"121.5622079372406","lat":"31.21047994715013","category":"251","category_name":"出行住宿","address":"上海 上海市 浦东新区梅花路1108号  靠近芳甸路"},{"poiid":"B2094654DB64A3F84892","title":"地铁万邦广场","lon":"121.564","lat":"31.2096","category":"119","category_name":"商场","address":"龙阳路2000号"},{"poiid":"B2094750D165A6FA4093","title":"憨豆咖啡","lon":"121.562057","lat":"31.210546","category":"247","category_name":"餐饮美食","address":"浦东新区芳甸路1088号喜玛拉雅中心B2楼"},{"poiid":"B2094655D26DA0FF4499","title":"上海新国际博览中心(西门)","lon":"121.56341","lat":"31.20812","category":"183","category_name":"展览馆","address":""},{"poiid":"B2094753D76AA4FF459C","title":"泰迪之家(嘉里城店)","lon":"121.562709","lat":"31.212447","category":"99","category_name":"泰国／越南菜品餐厅","address":"上海市浦东新区花木路1378号嘉里城1楼L225号铺"},{"poiid":"B2094751D56FA7FC499D","title":"喜马拉雅海上影城","lon":"121.562027","lat":"31.208878","category":"500","category_name":"未知分类","address":null},{"poiid":"B2094750D26DA2FA4493","title":"必胜客（喜马拉雅店）","lon":"121.56295407940672","lat":"31.20979516583142","category":"94","category_name":"西餐厅","address":"浦东新区芳甸路1188弄喜玛拉雅中心B2楼(近梅花路)"},{"poiid":"B2094757D56CA6FA4798","title":"芋贵人甜品店 喜玛拉雅店","lon":"121.5622564","lat":"31.2106295","category":"67","category_name":"甜品店","address":"浦东新区芳甸路1188弄喜玛拉雅中心B2楼东京街美食广场17号铺(近新国际博览中心)"},{"poiid":"B2094655D26FA6FD4198","title":"上海新国际博览中心(西二门)","lon":"121.56411","lat":"31.20592","category":"183","category_name":"展览馆","address":""},{"poiid":"B2094757D068A3FF459E","title":"Afternoon Tea(花木路店)","lon":"121.562549975","lat":"31.2125306467","category":"94","category_name":"西餐厅","address":"浦东新区花木路1378号浦东嘉里城L109铺"},{"poiid":"B2094654DB6BABFA449B","title":"上海新国际博览中心(南门)","lon":"121.5652","lat":"31.20455","category":"183","category_name":"展览馆","address":"龙阳路2345"},{"poiid":"B2094655D26AA6F94898","title":"上海车展","lon":"121.5654","lat":"31.21161","category":"247","category_name":"餐饮美食","address":"浦东新区龙阳路2345号新国际博览中心"},{"poiid":"B2094757D16EA5F8479F","title":"斗香园(嘉里店)","lon":"121.563118975","lat":"31.2124096439","category":"68","category_name":"快餐厅","address":"浦东新区花木路1378号嘉里城中心B1楼B103号(近新国际博览中心)"},{"poiid":"B2094654DB65A4FE4692","title":"上海新国际博览中心","lon":"121.56658","lat":"31.20897","category":"183","category_name":"展览馆","address":"浦东新区龙阳路2345号(近芳甸路)"},{"poiid":"B2094757D068A4F54298","title":"上海新国际展览中心","lon":"121.56696397","lat":"31.207406526","category":"183","category_name":"展览馆","address":"上海金桥路"},{"poiid":"B2094757D06EAAFB489B","title":"卓美亚喜玛拉雅酒店(Jumeirah Himalayas Hotel Shanghai)","lon":"121.56166815","lat":"31.210156885","category":"76","category_name":"上海菜","address":"浦东新区梅花路1108号(近芳甸路)"},{"poiid":"B2094655D26AA6F9489A","title":"新国际展览中心","lon":"121.5654","lat":"31.21161","category":"247","category_name":"餐饮美食","address":"浦东新区龙阳路2345号(近芳甸路)"},{"poiid":"B2094655D268A5F84499","title":"证大·喜玛拉雅中心(Zendai Himalayas Center)","lon":"121.56179","lat":"31.21017","category":"46","category_name":"楼宇","address":"浦东新区芳甸路1188号(梅花路口)"},{"poiid":"B2094757D064A2F9439A","title":"新旺茶餐厅(嘉里城店)","lon":"121.563320975","lat":"31.2123346421","category":"72","category_name":"广东菜","address":"浦东新区花木路1378号浦东嘉里城1楼L126单元"},{"poiid":"B2094757D06BA6FC489C","title":"上海新国际博览中心W3展馆","lon":"121.56474897","lat":"31.209239569","category":"500","category_name":"未知分类","address":"上海市浦东新区龙阳路2345号"},{"poiid":"B2094752D36DA3F9409D","title":"喜玛拉雅海上国际影城","lon":"121.56213283538818","lat":"31.210507475284675","category":"178","category_name":"电影院","address":"浦东新区芳甸路1188号喜玛拉雅中心7-8楼(近樱花路)"},{"poiid":"B2094757D06FAAFD4499","title":"融合马来西亚餐厅(嘉里城店)","lon":"121.563071975","lat":"31.2119606334","category":"110","category_name":"其他亚洲菜","address":"浦东新区芳甸路1155号嘉里城商场2楼L216A号(近新国际展览中心)"},{"poiid":"B2094757D069A2F84298","title":"上海轨道交通龙阳路基地","lon":"121.56873208","lat":"31.2043952824","category":"260","category_name":"其他","address":"上海市浦东新区龙阳路2520号"},{"poiid":"B2094757DA6EABFB499A","title":"泰谷泰国休闲餐厅","lon":"121.561691000002","lat":"31.2106290000003","category":"99","category_name":"泰国／越南菜品餐厅","address":"浦东新区芳甸路1188号喜玛拉雅中心B2楼151室(近梅花路)"},{"poiid":"B2094757D069A2F4499B","title":"Baker&Spice(嘉里城店)","lon":"121.563149975","lat":"31.2127126509","category":"67","category_name":"甜品店","address":"浦东新区花木路1378号嘉里城(近芳甸路)"},{"poiid":"B2094757D06FA7F9459C","title":"和民居食屋(浦东嘉里城店)","lon":"121.56422097","lat":"31.212740651","category":"95","category_name":"日本料理","address":"上海市浦东新区花木路1378号浦东嘉里城商场地下一层B105b号单元"},{"poiid":"B2094757D06BA0FC439E","title":"Johnny Moo（浦东嘉里城旗舰店）","lon":"121.56301597","lat":"31.212829653","category":"94","category_name":"西餐厅","address":"浦东新区花木路1378号浦东嘉里城2楼(近芳甸路)"},{"poiid":"B2094757D065A6FF479C","title":"逸谷","lon":"121.563296975","lat":"31.2123126416","category":"72","category_name":"广东菜","address":"浦东新区花木路1378号嘉里城2楼219A号(近芳甸路)"},{"poiid":"B2094757D06AA2FD4498","title":"大茴香(嘉里城店)","lon":"121.563372638","lat":"31.2124443102","category":"99","category_name":"泰国／越南菜品餐厅","address":"浦东新区花木路1378号嘉里城商场1楼115室(近芳甸路,新国际展览中心W5展馆对面)"},{"poiid":"B2094757D068A3F8479E","title":"友乐达台北精致面馆(浦东嘉里城店)","lon":"121.56402197","lat":"31.211982633","category":"68","category_name":"快餐厅","address":"浦东新区花木路1378号浦东嘉里城B1楼05A号(近梅花路)"},{"poiid":"B2094757D068A6F84498","title":"食之秘(浦东嘉里城店)","lon":"121.56416617","lat":"31.21139112","category":"67","category_name":"甜品店","address":"浦东新区花木路1378号浦东嘉里城商场B110号铺(近芳甸路)"},{"poiid":"B2094757D064A0FC479E","title":"赤坂亭(浦东嘉里店)","lon":"121.563086975","lat":"31.2127956529","category":"269","category_name":"烧烤","address":"浦东新区花木路1378号浦东嘉里城商场2楼L234单元"},{"poiid":"B2094757D06FA5FE439C","title":"永达国际大厦","lon":"121.57","lat":"31.2114","category":"46","category_name":"楼宇","address":"上海市浦东新区龙阳路2277号"},{"poiid":"B2094757D469A0F8479E","title":"沁泰","lon":"121.56238","lat":"31.2106733","category":"110","category_name":"其他亚洲菜","address":"浦东新区芳甸路1155号嘉里城B1楼"},{"poiid":"B2094757D069A4FE419A","title":"小南国(浦东嘉里城)","lon":"121.563241975","lat":"31.2125196464","category":"500","category_name":"未知分类","address":"上海市浦东新区花木路1378号浦东嘉里城2楼"},{"poiid":"B2094750D364A4F5469D","title":"Le Camelia","lon":"121.562248","lat":"31.208757","category":"67","category_name":"甜品店","address":"浦东新区芳甸路1188弄证大喜玛拉雅中心1-4号B1楼158号(近国际会展中心)"},{"poiid":"B2094752D16EA1F4499C","title":"唐宫海鲜坊","lon":"121.561446","lat":"31.208376","category":"247","category_name":"餐饮美食","address":"樱花路869号证大喜玛拉雅中心5楼103-104房"},{"poiid":"B2094757D06FA4FF4893","title":"The COOK·厨","lon":"121.56314097","lat":"31.212868654","category":"217","category_name":"旅馆招待所","address":"上海浦东新区花木路1388号嘉里大酒店1楼(近芳甸路)"},{"poiid":"B2094757DB6CA7FE419B","title":"地铁2号线龙阳路站","lon":"121.564178","lat":"31.20425","category":"627","category_name":"一般地点标志","address":"地铁2号线龙阳路站"},{"poiid":"B2094757D06AA1FE479E","title":"迪卡侬(龙阳路店)","lon":"121.56047797","lat":"31.204747464","category":"500","category_name":"未知分类","address":"上海龙阳路"},{"poiid":"B2094757D569A1FE4798","title":"喜马拉雅中心写字楼","lon":"121.5632489","lat":"31.20755278","category":"46","category_name":"楼宇","address":"芳甸路1188弄"},{"poiid":"B2094750D76EA3F9459D","title":"Fiorino","lon":"121.562","lat":"31.2103","category":"94","category_name":"西餐厅","address":"浦东新区芳甸路1188弄喜玛拉雅中心B2楼146室(近地铁7号线花木路站3号口)"},{"poiid":"B2094757D06EAAFC4499","title":"花木路地铁站","lon":"121.56275848","lat":"31.211390958","category":"36","category_name":"地铁站","address":"上海轨道交通 七号线 轨交花木路站 7"},{"poiid":"B2094750D26EAAFD4993","title":"极食","lon":"121.5622246","lat":"31.210733","category":"260","category_name":"其他","address":"浦东新区芳甸路1188弄喜玛拉雅中心B1楼152室(近新国际博览中心)"},{"poiid":"B2094757D068ABFF489D","title":"天天渔港(永达店)","lon":"121.563","lat":"31.20427","category":"72","category_name":"广东菜","address":"浦东新区龙阳路2277号(兰花路石楠路)"},{"poiid":"B2094750D26EAAFE4099","title":"健康煮 喜玛拉雅中心店","lon":"121.56232595444","lat":"31.208066616211","category":"86","category_name":"火锅店","address":"浦东新区芳甸路1188弄喜玛拉雅中心B1楼(近芳甸路)"},{"poiid":"B2094757D069A3FA4992","title":"有心","lon":"121.5616098","lat":"31.2134727","category":"75","category_name":"浙江菜","address":"浦东新区花木路1378号嘉里城商场1楼113号(近芳甸路)"},{"poiid":"B2094750D768ABF54498","title":"希腊餐厅(喜玛拉雅店)","lon":"121.562","lat":"31.2107","category":"94","category_name":"西餐厅","address":"浦东新区芳甸路1188弄喜玛拉雅中心1-4号B1楼151-148A(近梅花路)"},{"poiid":"B2094757D06EAAFC4392","title":"太平洋咖啡Pacific Coffee(浦东嘉里城店)","lon":"121.564106638","lat":"31.212344308","category":"260","category_name":"其他","address":"浦东新区花木路1378号浦东嘉里城2楼L205号(近7号线花木路站)"},{"poiid":"B2094654DA6AA0FF4593","title":"聚龙家园","lon":"121.56866","lat":"31.196918","category":"47","category_name":"住宅区","address":"上海浦东新区芳华路916弄"},{"poiid":"B2094757D56DA5FF419E","title":"上海喜马拉雅酒店","lon":"121.5622079372406","lat":"31.21047994715013","category":"251","category_name":"出行住宿","address":"上海 上海市 浦东新区梅花路1108号  靠近芳甸路"},{"poiid":"B2094654DB64A3F84892","title":"地铁万邦广场","lon":"121.564","lat":"31.2096","category":"119","category_name":"商场","address":"龙阳路2000号"},{"poiid":"B2094750D165A6FA4093","title":"憨豆咖啡","lon":"121.562057","lat":"31.210546","category":"247","category_name":"餐饮美食","address":"浦东新区芳甸路1088号喜玛拉雅中心B2楼"},{"poiid":"B2094655D26DA0FF4499","title":"上海新国际博览中心(西门)","lon":"121.56341","lat":"31.20812","category":"183","category_name":"展览馆","address":""},{"poiid":"B2094753D76AA4FF459C","title":"泰迪之家(嘉里城店)","lon":"121.562709","lat":"31.212447","category":"99","category_name":"泰国／越南菜品餐厅","address":"上海市浦东新区花木路1378号嘉里城1楼L225号铺"},{"poiid":"B2094751D56FA7FC499D","title":"喜马拉雅海上影城","lon":"121.562027","lat":"31.208878","category":"500","category_name":"未知分类","address":null},{"poiid":"B2094750D26DA2FA4493","title":"必胜客（喜马拉雅店）","lon":"121.56295407940672","lat":"31.20979516583142","category":"94","category_name":"西餐厅","address":"浦东新区芳甸路1188弄喜玛拉雅中心B2楼(近梅花路)"},{"poiid":"B2094757D56CA6FA4798","title":"芋贵人甜品店 喜玛拉雅店","lon":"121.5622564","lat":"31.2106295","category":"67","category_name":"甜品店","address":"浦东新区芳甸路1188弄喜玛拉雅中心B2楼东京街美食广场17号铺(近新国际博览中心)"},{"poiid":"B2094655D26FA6FD4198","title":"上海新国际博览中心(西二门)","lon":"121.56411","lat":"31.20592","category":"183","category_name":"展览馆","address":""},{"poiid":"B2094757D068A3FF459E","title":"Afternoon Tea(花木路店)","lon":"121.562549975","lat":"31.2125306467","category":"94","category_name":"西餐厅","address":"浦东新区花木路1378号浦东嘉里城L109铺"},{"poiid":"B2094654DB6BABFA449B","title":"上海新国际博览中心(南门)","lon":"121.5652","lat":"31.20455","category":"183","category_name":"展览馆","address":"龙阳路2345"},{"poiid":"B2094655D26AA6F94898","title":"上海车展","lon":"121.5654","lat":"31.21161","category":"247","category_name":"餐饮美食","address":"浦东新区龙阳路2345号新国际博览中心"},{"poiid":"B2094757D16EA5F8479F","title":"斗香园(嘉里店)","lon":"121.563118975","lat":"31.2124096439","category":"68","category_name":"快餐厅","address":"浦东新区花木路1378号嘉里城中心B1楼B103号(近新国际博览中心)"}]