[{"poiid":"B2094654DB69A0FA4998","title":"鹿港小镇(新天地店)","lon":"121.47697","lat":"31.22197","category":"91","category_name":"台湾菜","address":"卢湾区太仓路68号(近嵩山路)"},{"poiid":"B2094654DB6BA4FA4899","title":"好乐迪量贩KTV","lon":"121.47646","lat":"31.22161","category":"170","category_name":"KTV","address":"顺昌路2"},{"poiid":"B2094655D26AA0F84799","title":"上海中医药大学附属曙光医院","lon":"121.47867","lat":"31.22293","category":"162","category_name":"医院","address":"卢湾区普安路185号(近淮海公园)"},{"poiid":"B2094753D76FAAFA449C","title":"上海滩国泰旗舰店","lon":"121.466011","lat":"31.216125","category":"249","category_name":"购物服务","address":"淮海中路868号"},{"poiid":"B209475CD564A7F84292","title":"上海滩新天地店","lon":"121.47463","lat":"31.22164","category":"119","category_name":"商场","address":"\"太仓路181弄新天地北里15号\r\n\""},{"poiid":"B209475CD564A7F8439E","title":"上海滩中信泰富店","lon":"121.45602","lat":"31.22851","category":"119","category_name":"商场","address":"\"南京西路1168号中信泰富广场，店铺号221.\r\n\""},{"poiid":"B209475CD564A7F84392","title":"上海滩浦东香格里拉店","lon":"121.50058","lat":"31.23634","category":"119","category_name":"商场","address":"浦东富成路33号香格里拉酒店内大堂层"},{"poiid":"B2094654DB6BA4FB4499","title":"兰亭餐厅","lon":"121.47562077847","lat":"31.222343552913","category":"76","category_name":"上海菜","address":"卢湾区嵩山路107号(近太仓路)"},{"poiid":"B2094757D06FA3F84399","title":"枣子树(淮海店)","lon":"121.47648","lat":"31.22225","category":"89","category_name":"中式素餐馆","address":"卢湾区嵩山路77号上海皇宫内(近淮海中路)"},{"poiid":"B2094750D26EABF8459A","title":"上海虹桥机场","lon":"121.48","lat":"31.22","category":"21","category_name":"飞机场","address":"上海长宁区虹桥路2550号"},{"poiid":"B2094757D06FAAF4469C","title":"上海安达仕酒店","lon":"121.475939667","lat":"31.2220295725","category":"217","category_name":"旅馆招待所","address":"卢湾区嵩山路88号(近香港广场)"},{"poiid":"B2094654DA6EABF5459F","title":"企业天地","lon":"121.47592","lat":"31.22109","category":"46","category_name":"楼宇","address":"上海市平凉路1398号"},{"poiid":"B2094757D064A1FD449A","title":"地铁8号线大世界站","lon":"121.478748638","lat":"31.2230810477","category":"36","category_name":"地铁站","address":"上海大世界站"},{"poiid":"B2094757D06FA5FF499D","title":"新天地太平桥人工湖","lon":"121.479294","lat":"31.222233","category":"196","category_name":"公园","address":"上海济南路"},{"poiid":"B2094757D16AA5F94593","title":"好乐迪","lon":"121.47968292","lat":"31.220613479","category":"500","category_name":"未知分类","address":"上海卢湾区顺昌路2号"},{"poiid":"B2094757D06FA2FE429B","title":"企业天地1号楼","lon":"121.476076722","lat":"31.2208862618","category":"46","category_name":"楼宇","address":"上海市卢湾区湖滨路222号"},{"poiid":"B2094757D06FA2F44599","title":"蝶园(太仓路店)","lon":"121.47718","lat":"31.22167","category":"76","category_name":"上海菜","address":"卢湾区太仓路70号(近嵩山路)"},{"poiid":"B2094757D66CA4FB499C","title":"好樂迪","lon":"121.477838738","lat":"31.2232501514","category":"500","category_name":"未知分类","address":"上海市黄浦区黄陂南路"},{"poiid":"B2094757D06FA2FA4292","title":"普华永道中心","lon":"121.47667706","lat":"31.2208910235","category":"46","category_name":"楼宇","address":"上海卢湾区湖滨路202号"},{"poiid":"B2094753D768A7FE489D","title":"甜品工房","lon":"121.477027","lat":"31.22192","category":"247","category_name":"餐饮美食","address":"上海市 济南路9号103商铺(近太仓路)"},{"poiid":"B2094654DB6BA4FB4493","title":"天家 太仓路店","lon":"121.47643526081","lat":"31.221847695273","category":"95","category_name":"日本料理","address":"卢湾区太仓路68号(近嵩山路)"},{"poiid":"B2094757D06FA1F84593","title":"Enoterra红酒吧(太仓路店)","lon":"121.477109909","lat":"31.2219337278","category":"260","category_name":"其他","address":"卢湾区太仓路58号(近济南路)"},{"poiid":"B2094757D06FA1F8489D","title":"淮海公园","lon":"121.47755186","lat":"31.222709558","category":"196","category_name":"公园","address":"卢湾区淮海中路177号(近普安路)"},{"poiid":"B2094655D26EA5FE469C","title":"y+瑜伽馆(新天地店)","lon":"121.47625","lat":"31.22076","category":"148","category_name":"美容美发店","address":"黄浦区湖滨路202号企业天地2号2楼(新天地会所)"},{"poiid":"B2094654DA6EAAFC429C","title":"曙光大厦","lon":"121.47886","lat":"31.22255","category":"46","category_name":"楼宇","address":"静安区西康路946号"},{"poiid":"B2094751D469A0FC4093","title":"浦东机场T2","lon":"121.475928","lat":"31.221897","category":"500","category_name":"未知分类","address":null},{"poiid":"B2094757D66BA3F94698","title":"伊莎贝尔 Trattoria Isabelle","lon":"121.479601054","lat":"31.221654793","category":"98","category_name":"意式菜品餐厅","address":"卢湾区吉安路11号(湖滨路崇德路间)"},{"poiid":"B2094753D46AA1FD459D","title":"环球港","lon":"121.480438","lat":"31.22241","category":"500","category_name":"未知分类","address":"上海市 中山北路"},{"poiid":"B2094654DA6EAAFC469E","title":"上海时光整形外科医院","lon":"121.47886","lat":"31.22255","category":"162","category_name":"医院","address":"卢湾区普安路189号曙光大厦2楼(近淮海公园)"},{"poiid":"B2094757D06FA4F44093","title":"富民面馆","lon":"121.47687790213","lat":"31.221657822044","category":"68","category_name":"快餐厅","address":"卢湾区太仓路78号(顺昌路口)"},{"poiid":"B2094757D568A4FA4692","title":"Green Massage新天地店","lon":"121.4773631","lat":"31.22202611","category":"149","category_name":"洗浴推拿场所","address":"太仓路58号"},{"poiid":"B2094757D06BA7F54899","title":"瑞尔齿科(新天地店)","lon":"121.47636","lat":"31.2209","category":"162","category_name":"医院","address":"上海卢湾区湖滨路202号企业天地商业中心2号2楼(近济南路)  "},{"poiid":"B2094654DA6EABFB499B","title":"上海市比乐中学","lon":"121.47971","lat":"31.22154","category":"55","category_name":"中学","address":"卢湾区崇德路43号(近顺昌路)"},{"poiid":"B2094753D76CA2F44598","title":"上海朗庭酒店","lon":"121.479156","lat":"31.22248","category":"500","category_name":"未知分类","address":"上海市 卢湾区马当路"},{"poiid":"B2094654DB65A7F5499E","title":"Y+瑜伽生活馆(新天地店)","lon":"121.4761","lat":"31.22175","category":"220","category_name":"运动场所","address":"卢湾区湖滨路202号企业天地2号楼2楼单元17-20室(近济南路)"},{"poiid":"B2094654DA6EABF5449A","title":"太平桥公园","lon":"121.47679","lat":"31.2197","category":"196","category_name":"公园","address":"淮海中路"},{"poiid":"B2094750D76DAAF94599","title":"Éclair","lon":"121.476","lat":"31.2228","category":"67","category_name":"甜品店","address":"卢湾区嵩山路88号上海安达仕酒店1楼"},{"poiid":"B2094757D66DA0FC409C","title":"舒适堡","lon":"121.476330738","lat":"31.2202470874","category":"500","category_name":"未知分类","address":"卢湾区淮海中路1号(近西藏南路)"},{"poiid":"B2094751D36BA5FF469F","title":"上海南站","lon":"121.48","lat":"31.22","category":"195","category_name":"游乐场","address":"上海徐家汇"},{"poiid":"B2094753DA6AA5F9419C","title":"COVA@K11","lon":"121.478927","lat":"31.223541","category":"500","category_name":"未知分类","address":"上海市 淮海中路300号2楼"},{"poiid":"B2094757D065A7FD4198","title":"韩膳宫无限度店","lon":"121.478038738","lat":"31.2240281679","category":"500","category_name":"未知分类","address":"上海市黄浦区延安东路"},{"poiid":"B2094757D06FAAFB479F","title":"振江川菜馆","lon":"121.4756","lat":"31.2225","category":"71","category_name":"四川菜","address":"卢湾区嵩山路81号2楼(近淮海中路)"},{"poiid":"B2094654DA6DABFA469B","title":"复兴广场","lon":"121.477","lat":"31.2237","category":"248","category_name":"生活娱乐","address":"卢湾区重庆南路208号(近南昌路)"},{"poiid":"B2094757D064ABF5459C","title":"Whittard of Chelsea","lon":"121.47663773","lat":"31.223583158","category":"260","category_name":"其他","address":"卢湾区淮海中路222号力宝广场B1楼101店铺(近嵩山路)"},{"poiid":"B2094753DA6AA3F44599","title":"甜品工房","lon":"121.477249","lat":"31.221738","category":"247","category_name":"餐饮美食","address":"上海市 新天地济南路近太仓路"},{"poiid":"B2094757D16FA1FB469F","title":"太平湖绿地","lon":"121.47711773","lat":"31.219893079","category":"500","category_name":"未知分类","address":"上海ShanghaiLuwanHubin Rd"},{"poiid":"B2094753D768A1F4419C","title":"上海外滩","lon":"121.480438","lat":"31.222406","category":"500","category_name":"未知分类","address":"上海市 外滩"},{"poiid":"B2094654DB69AAF54893","title":"福客桂林米粉","lon":"121.47751","lat":"31.22371","category":"68","category_name":"快餐厅","address":"卢湾区淮海中路177号淮海公园门口(近普安路)"},{"poiid":"B2094753DA68A3FC469F","title":"甜品工坊","lon":"121.477355","lat":"31.221826","category":"500","category_name":"未知分类","address":"上海市 太仓路"},{"poiid":"B2094757D06BA6FD4992","title":"上海中医药大学附属曙光医院名中医诊疗中心","lon":"121.478672","lat":"31.222935","category":"162","category_name":"医院","address":"上海市卢湾区普安路185号(近淮海公园)"},{"poiid":"B2094654DB69A0FA4998","title":"鹿港小镇(新天地店)","lon":"121.47697","lat":"31.22197","category":"91","category_name":"台湾菜","address":"卢湾区太仓路68号(近嵩山路)"},{"poiid":"B2094654DB6BA4FA4899","title":"好乐迪量贩KTV","lon":"121.47646","lat":"31.22161","category":"170","category_name":"KTV","address":"顺昌路2"},{"poiid":"B2094655D26AA0F84799","title":"上海中医药大学附属曙光医院","lon":"121.47867","lat":"31.22293","category":"162","category_name":"医院","address":"卢湾区普安路185号(近淮海公园)"},{"poiid":"B2094753D76FAAFA449C","title":"上海滩国泰旗舰店","lon":"121.466011","lat":"31.216125","category":"249","category_name":"购物服务","address":"淮海中路868号"},{"poiid":"B209475CD564A7F84292","title":"上海滩新天地店","lon":"121.47463","lat":"31.22164","category":"119","category_name":"商场","address":"\"太仓路181弄新天地北里15号\r\n\""},{"poiid":"B209475CD564A7F8439E","title":"上海滩中信泰富店","lon":"121.45602","lat":"31.22851","category":"119","category_name":"商场","address":"\"南京西路1168号中信泰富广场，店铺号221.\r\n\""},{"poiid":"B209475CD564A7F84392","title":"上海滩浦东香格里拉店","lon":"121.50058","lat":"31.23634","category":"119","category_name":"商场","address":"浦东富成路33号香格里拉酒店内大堂层"},{"poiid":"B2094654DB6BA4FB4499","title":"兰亭餐厅","lon":"121.47562077847","lat":"31.222343552913","category":"76","category_name":"上海菜","address":"卢湾区嵩山路107号(近太仓路)"},{"poiid":"B2094757D06FA3F84399","title":"枣子树(淮海店)","lon":"121.47648","lat":"31.22225","category":"89","category_name":"中式素餐馆","address":"卢湾区嵩山路77号上海皇宫内(近淮海中路)"},{"poiid":"B2094750D26EABF8459A","title":"上海虹桥机场","lon":"121.48","lat":"31.22","category":"21","category_name":"飞机场","address":"上海长宁区虹桥路2550号"},{"poiid":"B2094757D06FAAF4469C","title":"上海安达仕酒店","lon":"121.475939667","lat":"31.2220295725","category":"217","category_name":"旅馆招待所","address":"卢湾区嵩山路88号(近香港广场)"},{"poiid":"B2094654DA6EABF5459F","title":"企业天地","lon":"121.47592","lat":"31.22109","category":"46","category_name":"楼宇","address":"上海市平凉路1398号"},{"poiid":"B2094757D064A1FD449A","title":"地铁8号线大世界站","lon":"121.478748638","lat":"31.2230810477","category":"36","category_name":"地铁站","address":"上海大世界站"},{"poiid":"B2094757D06FA5FF499D","title":"新天地太平桥人工湖","lon":"121.479294","lat":"31.222233","category":"196","category_name":"公园","address":"上海济南路"},{"poiid":"B2094757D16AA5F94593","title":"好乐迪","lon":"121.47968292","lat":"31.220613479","category":"500","category_name":"未知分类","address":"上海卢湾区顺昌路2号"},{"poiid":"B2094757D06FA2FE429B","title":"企业天地1号楼","lon":"121.476076722","lat":"31.2208862618","category":"46","category_name":"楼宇","address":"上海市卢湾区湖滨路222号"},{"poiid":"B2094757D06FA2F44599","title":"蝶园(太仓路店)","lon":"121.47718","lat":"31.22167","category":"76","category_name":"上海菜","address":"卢湾区太仓路70号(近嵩山路)"},{"poiid":"B2094757D66CA4FB499C","title":"好樂迪","lon":"121.477838738","lat":"31.2232501514","category":"500","category_name":"未知分类","address":"上海市黄浦区黄陂南路"},{"poiid":"B2094757D06FA2FA4292","title":"普华永道中心","lon":"121.47667706","lat":"31.2208910235","category":"46","category_name":"楼宇","address":"上海卢湾区湖滨路202号"},{"poiid":"B2094753D768A7FE489D","title":"甜品工房","lon":"121.477027","lat":"31.22192","category":"247","category_name":"餐饮美食","address":"上海市 济南路9号103商铺(近太仓路)"},{"poiid":"B2094654DB6BA4FB4493","title":"天家 太仓路店","lon":"121.47643526081","lat":"31.221847695273","category":"95","category_name":"日本料理","address":"卢湾区太仓路68号(近嵩山路)"},{"poiid":"B2094757D06FA1F84593","title":"Enoterra红酒吧(太仓路店)","lon":"121.477109909","lat":"31.2219337278","category":"260","category_name":"其他","address":"卢湾区太仓路58号(近济南路)"},{"poiid":"B2094757D06FA1F8489D","title":"淮海公园","lon":"121.47755186","lat":"31.222709558","category":"196","category_name":"公园","address":"卢湾区淮海中路177号(近普安路)"},{"poiid":"B2094655D26EA5FE469C","title":"y+瑜伽馆(新天地店)","lon":"121.47625","lat":"31.22076","category":"148","category_name":"美容美发店","address":"黄浦区湖滨路202号企业天地2号2楼(新天地会所)"},{"poiid":"B2094654DA6EAAFC429C","title":"曙光大厦","lon":"121.47886","lat":"31.22255","category":"46","category_name":"楼宇","address":"静安区西康路946号"},{"poiid":"B2094751D469A0FC4093","title":"浦东机场T2","lon":"121.475928","lat":"31.221897","category":"500","category_name":"未知分类","address":null},{"poiid":"B2094757D66BA3F94698","title":"伊莎贝尔 Trattoria Isabelle","lon":"121.479601054","lat":"31.221654793","category":"98","category_name":"意式菜品餐厅","address":"卢湾区吉安路11号(湖滨路崇德路间)"},{"poiid":"B2094753D46AA1FD459D","title":"环球港","lon":"121.480438","lat":"31.22241","category":"500","category_name":"未知分类","address":"上海市 中山北路"},{"poiid":"B2094654DA6EAAFC469E","title":"上海时光整形外科医院","lon":"121.47886","lat":"31.22255","category":"162","category_name":"医院","address":"卢湾区普安路189号曙光大厦2楼(近淮海公园)"},{"poiid":"B2094757D06FA4F44093","title":"富民面馆","lon":"121.47687790213","lat":"31.221657822044","category":"68","category_name":"快餐厅","address":"卢湾区太仓路78号(顺昌路口)"},{"poiid":"B2094757D568A4FA4692","title":"Green Massage新天地店","lon":"121.4773631","lat":"31.22202611","category":"149","category_name":"洗浴推拿场所","address":"太仓路58号"},{"poiid":"B2094757D06BA7F54899","title":"瑞尔齿科(新天地店)","lon":"121.47636","lat":"31.2209","category":"162","category_name":"医院","address":"上海卢湾区湖滨路202号企业天地商业中心2号2楼(近济南路)  "},{"poiid":"B2094654DA6EABFB499B","title":"上海市比乐中学","lon":"121.47971","lat":"31.22154","category":"55","category_name":"中学","address":"卢湾区崇德路43号(近顺昌路)"},{"poiid":"B2094753D76CA2F44598","title":"上海朗庭酒店","lon":"121.479156","lat":"31.22248","category":"500","category_name":"未知分类","address":"上海市 卢湾区马当路"},{"poiid":"B2094654DB65A7F5499E","title":"Y+瑜伽生活馆(新天地店)","lon":"121.4761","lat":"31.22175","category":"220","category_name":"运动场所","address":"卢湾区湖滨路202号企业天地2号楼2楼单元17-20室(近济南路)"},{"poiid":"B2094654DA6EABF5449A","title":"太平桥公园","lon":"121.47679","lat":"31.2197","category":"196","category_name":"公园","address":"淮海中路"},{"poiid":"B2094750D76DAAF94599","title":"Éclair","lon":"121.476","lat":"31.2228","category":"67","category_name":"甜品店","address":"卢湾区嵩山路88号上海安达仕酒店1楼"},{"poiid":"B2094757D66DA0FC409C","title":"舒适堡","lon":"121.476330738","lat":"31.2202470874","category":"500","category_name":"未知分类","address":"卢湾区淮海中路1号(近西藏南路)"},{"poiid":"B2094751D36BA5FF469F","title":"上海南站","lon":"121.48","lat":"31.22","category":"195","category_name":"游乐场","address":"上海徐家汇"},{"poiid":"B2094753DA6AA5F9419C","title":"COVA@K11","lon":"121.478927","lat":"31.223541","category":"500","category_name":"未知分类","address":"上海市 淮海中路300号2楼"},{"poiid":"B2094757D065A7FD4198","title":"韩膳宫无限度店","lon":"121.478038738","lat":"31.2240281679","category":"500","category_name":"未知分类","address":"上海市黄浦区延安东路"},{"poiid":"B2094757D06FAAFB479F","title":"振江川菜馆","lon":"121.4756","lat":"31.2225","category":"71","category_name":"四川菜","address":"卢湾区嵩山路81号2楼(近淮海中路)"},{"poiid":"B2094654DA6DABFA469B","title":"复兴广场","lon":"121.477","lat":"31.2237","category":"248","category_name":"生活娱乐","address":"卢湾区重庆南路208号(近南昌路)"},{"poiid":"B2094757D064ABF5459C","title":"Whittard of Chelsea","lon":"121.47663773","lat":"31.223583158","category":"260","category_name":"其他","address":"卢湾区淮海中路222号力宝广场B1楼101店铺(近嵩山路)"},{"poiid":"B2094753DA6AA3F44599","title":"甜品工房","lon":"121.477249","lat":"31.221738","category":"247","category_name":"餐饮美食","address":"上海市 新天地济南路近太仓路"},{"poiid":"B2094757D16FA1FB469F","title":"太平湖绿地","lon":"121.47711773","lat":"31.219893079","category":"500","category_name":"未知分类","address":"上海ShanghaiLuwanHubin Rd"},{"poiid":"B2094753D768A1F4419C","title":"上海外滩","lon":"121.480438","lat":"31.222406","category":"500","category_name":"未知分类","address":"上海市 外滩"},{"poiid":"B2094654DB69AAF54893","title":"福客桂林米粉","lon":"121.47751","lat":"31.22371","category":"68","category_name":"快餐厅","address":"卢湾区淮海中路177号淮海公园门口(近普安路)"},{"poiid":"B2094753DA68A3FC469F","title":"甜品工坊","lon":"121.477355","lat":"31.221826","category":"500","category_name":"未知分类","address":"上海市 太仓路"},{"poiid":"B2094757D06BA6FD4992","title":"上海中医药大学附属曙光医院名中医诊疗中心","lon":"121.478672","lat":"31.222935","category":"162","category_name":"医院","address":"上海市卢湾区普安路185号(近淮海公园)"},{"poiid":"B2094654DB69A0FA4998","title":"鹿港小镇(新天地店)","lon":"121.47697","lat":"31.22197","category":"91","category_name":"台湾菜","address":"卢湾区太仓路68号(近嵩山路)"},{"poiid":"B2094654DB6BA4FA4899","title":"好乐迪量贩KTV","lon":"121.47646","lat":"31.22161","category":"170","category_name":"KTV","address":"顺昌路2"},{"poiid":"B2094655D26AA0F84799","title":"上海中医药大学附属曙光医院","lon":"121.47867","lat":"31.22293","category":"162","category_name":"医院","address":"卢湾区普安路185号(近淮海公园)"},{"poiid":"B2094753D76FAAFA449C","title":"上海滩国泰旗舰店","lon":"121.466011","lat":"31.216125","category":"249","category_name":"购物服务","address":"淮海中路868号"},{"poiid":"B209475CD564A7F84292","title":"上海滩新天地店","lon":"121.47463","lat":"31.22164","category":"119","category_name":"商场","address":"\"太仓路181弄新天地北里15号\r\n\""},{"poiid":"B209475CD564A7F8439E","title":"上海滩中信泰富店","lon":"121.45602","lat":"31.22851","category":"119","category_name":"商场","address":"\"南京西路1168号中信泰富广场，店铺号221.\r\n\""},{"poiid":"B209475CD564A7F84392","title":"上海滩浦东香格里拉店","lon":"121.50058","lat":"31.23634","category":"119","category_name":"商场","address":"浦东富成路33号香格里拉酒店内大堂层"},{"poiid":"B2094654DB6BA4FB4499","title":"兰亭餐厅","lon":"121.47562077847","lat":"31.222343552913","category":"76","category_name":"上海菜","address":"卢湾区嵩山路107号(近太仓路)"},{"poiid":"B2094757D06FA3F84399","title":"枣子树(淮海店)","lon":"121.47648","lat":"31.22225","category":"89","category_name":"中式素餐馆","address":"卢湾区嵩山路77号上海皇宫内(近淮海中路)"},{"poiid":"B2094750D26EABF8459A","title":"上海虹桥机场","lon":"121.48","lat":"31.22","category":"21","category_name":"飞机场","address":"上海长宁区虹桥路2550号"},{"poiid":"B2094757D06FAAF4469C","title":"上海安达仕酒店","lon":"121.475939667","lat":"31.2220295725","category":"217","category_name":"旅馆招待所","address":"卢湾区嵩山路88号(近香港广场)"},{"poiid":"B2094654DA6EABF5459F","title":"企业天地","lon":"121.47592","lat":"31.22109","category":"46","category_name":"楼宇","address":"上海市平凉路1398号"},{"poiid":"B2094757D064A1FD449A","title":"地铁8号线大世界站","lon":"121.478748638","lat":"31.2230810477","category":"36","category_name":"地铁站","address":"上海大世界站"},{"poiid":"B2094757D06FA5FF499D","title":"新天地太平桥人工湖","lon":"121.479294","lat":"31.222233","category":"196","category_name":"公园","address":"上海济南路"},{"poiid":"B2094757D16AA5F94593","title":"好乐迪","lon":"121.47968292","lat":"31.220613479","category":"500","category_name":"未知分类","address":"上海卢湾区顺昌路2号"},{"poiid":"B2094757D06FA2FE429B","title":"企业天地1号楼","lon":"121.476076722","lat":"31.2208862618","category":"46","category_name":"楼宇","address":"上海市卢湾区湖滨路222号"},{"poiid":"B2094757D06FA2F44599","title":"蝶园(太仓路店)","lon":"121.47718","lat":"31.22167","category":"76","category_name":"上海菜","address":"卢湾区太仓路70号(近嵩山路)"},{"poiid":"B2094757D66CA4FB499C","title":"好樂迪","lon":"121.477838738","lat":"31.2232501514","category":"500","category_name":"未知分类","address":"上海市黄浦区黄陂南路"},{"poiid":"B2094757D06FA2FA4292","title":"普华永道中心","lon":"121.47667706","lat":"31.2208910235","category":"46","category_name":"楼宇","address":"上海卢湾区湖滨路202号"},{"poiid":"B2094753D768A7FE489D","title":"甜品工房","lon":"121.477027","lat":"31.22192","category":"247","category_name":"餐饮美食","address":"上海市 济南路9号103商铺(近太仓路)"},{"poiid":"B2094654DB6BA4FB4493","title":"天家 太仓路店","lon":"121.47643526081","lat":"31.221847695273","category":"95","category_name":"日本料理","address":"卢湾区太仓路68号(近嵩山路)"},{"poiid":"B2094757D06FA1F84593","title":"Enoterra红酒吧(太仓路店)","lon":"121.477109909","lat":"31.2219337278","category":"260","category_name":"其他","address":"卢湾区太仓路58号(近济南路)"},{"poiid":"B2094757D06FA1F8489D","title":"淮海公园","lon":"121.47755186","lat":"31.222709558","category":"196","category_name":"公园","address":"卢湾区淮海中路177号(近普安路)"},{"poiid":"B2094655D26EA5FE469C","title":"y+瑜伽馆(新天地店)","lon":"121.47625","lat":"31.22076","category":"148","category_name":"美容美发店","address":"黄浦区湖滨路202号企业天地2号2楼(新天地会所)"},{"poiid":"B2094654DA6EAAFC429C","title":"曙光大厦","lon":"121.47886","lat":"31.22255","category":"46","category_name":"楼宇","address":"静安区西康路946号"},{"poiid":"B2094751D469A0FC4093","title":"浦东机场T2","lon":"121.475928","lat":"31.221897","category":"500","category_name":"未知分类","address":null},{"poiid":"B2094757D66BA3F94698","title":"伊莎贝尔 Trattoria Isabelle","lon":"121.479601054","lat":"31.221654793","category":"98","category_name":"意式菜品餐厅","address":"卢湾区吉安路11号(湖滨路崇德路间)"},{"poiid":"B2094753D46AA1FD459D","title":"环球港","lon":"121.480438","lat":"31.22241","category":"500","category_name":"未知分类","address":"上海市 中山北路"},{"poiid":"B2094654DA6EAAFC469E","title":"上海时光整形外科医院","lon":"121.47886","lat":"31.22255","category":"162","category_name":"医院","address":"卢湾区普安路189号曙光大厦2楼(近淮海公园)"},{"poiid":"B2094757D06FA4F44093","title":"富民面馆","lon":"121.47687790213","lat":"31.221657822044","category":"68","category_name":"快餐厅","address":"卢湾区太仓路78号(顺昌路口)"},{"poiid":"B2094757D568A4FA4692","title":"Green Massage新天地店","lon":"121.4773631","lat":"31.22202611","category":"149","category_name":"洗浴推拿场所","address":"太仓路58号"},{"poiid":"B2094757D06BA7F54899","title":"瑞尔齿科(新天地店)","lon":"121.47636","lat":"31.2209","category":"162","category_name":"医院","address":"上海卢湾区湖滨路202号企业天地商业中心2号2楼(近济南路)  "},{"poiid":"B2094654DA6EABFB499B","title":"上海市比乐中学","lon":"121.47971","lat":"31.22154","category":"55","category_name":"中学","address":"卢湾区崇德路43号(近顺昌路)"},{"poiid":"B2094753D76CA2F44598","title":"上海朗庭酒店","lon":"121.479156","lat":"31.22248","category":"500","category_name":"未知分类","address":"上海市 卢湾区马当路"},{"poiid":"B2094654DB65A7F5499E","title":"Y+瑜伽生活馆(新天地店)","lon":"121.4761","lat":"31.22175","category":"220","category_name":"运动场所","address":"卢湾区湖滨路202号企业天地2号楼2楼单元17-20室(近济南路)"},{"poiid":"B2094654DA6EABF5449A","title":"太平桥公园","lon":"121.47679","lat":"31.2197","category":"196","category_name":"公园","address":"淮海中路"},{"poiid":"B2094750D76DAAF94599","title":"Éclair","lon":"121.476","lat":"31.2228","category":"67","category_name":"甜品店","address":"卢湾区嵩山路88号上海安达仕酒店1楼"},{"poiid":"B2094757D66DA0FC409C","title":"舒适堡","lon":"121.476330738","lat":"31.2202470874","category":"500","category_name":"未知分类","address":"卢湾区淮海中路1号(近西藏南路)"},{"poiid":"B2094751D36BA5FF469F","title":"上海南站","lon":"121.48","lat":"31.22","category":"195","category_name":"游乐场","address":"上海徐家汇"},{"poiid":"B2094753DA6AA5F9419C","title":"COVA@K11","lon":"121.478927","lat":"31.223541","category":"500","category_name":"未知分类","address":"上海市 淮海中路300号2楼"},{"poiid":"B2094757D065A7FD4198","title":"韩膳宫无限度店","lon":"121.478038738","lat":"31.2240281679","category":"500","category_name":"未知分类","address":"上海市黄浦区延安东路"},{"poiid":"B2094757D06FAAFB479F","title":"振江川菜馆","lon":"121.4756","lat":"31.2225","category":"71","category_name":"四川菜","address":"卢湾区嵩山路81号2楼(近淮海中路)"},{"poiid":"B2094654DA6DABFA469B","title":"复兴广场","lon":"121.477","lat":"31.2237","category":"248","category_name":"生活娱乐","address":"卢湾区重庆南路208号(近南昌路)"},{"poiid":"B2094757D064ABF5459C","title":"Whittard of Chelsea","lon":"121.47663773","lat":"31.223583158","category":"260","category_name":"其他","address":"卢湾区淮海中路222号力宝广场B1楼101店铺(近嵩山路)"},{"poiid":"B2094753DA6AA3F44599","title":"甜品工房","lon":"121.477249","lat":"31.221738","category":"247","category_name":"餐饮美食","address":"上海市 新天地济南路近太仓路"},{"poiid":"B2094757D16FA1FB469F","title":"太平湖绿地","lon":"121.47711773","lat":"31.219893079","category":"500","category_name":"未知分类","address":"上海ShanghaiLuwanHubin Rd"},{"poiid":"B2094753D768A1F4419C","title":"上海外滩","lon":"121.480438","lat":"31.222406","category":"500","category_name":"未知分类","address":"上海市 外滩"},{"poiid":"B2094654DB69AAF54893","title":"福客桂林米粉","lon":"121.47751","lat":"31.22371","category":"68","category_name":"快餐厅","address":"卢湾区淮海中路177号淮海公园门口(近普安路)"},{"poiid":"B2094753DA68A3FC469F","title":"甜品工坊","lon":"121.477355","lat":"31.221826","category":"500","category_name":"未知分类","address":"上海市 太仓路"},{"poiid":"B2094757D06BA6FD4992","title":"上海中医药大学附属曙光医院名中医诊疗中心","lon":"121.478672","lat":"31.222935","category":"162","category_name":"医院","address":"上海市卢湾区普安路185号(近淮海公园)"},{"poiid":"B2094654DB69A0FA4998","title":"鹿港小镇(新天地店)","lon":"121.47697","lat":"31.22197","category":"91","category_name":"台湾菜","address":"卢湾区太仓路68号(近嵩山路)"},{"poiid":"B2094654DB6BA4FA4899","title":"好乐迪量贩KTV","lon":"121.47646","lat":"31.22161","category":"170","category_name":"KTV","address":"顺昌路2"},{"poiid":"B2094655D26AA0F84799","title":"上海中医药大学附属曙光医院","lon":"121.47867","lat":"31.22293","category":"162","category_name":"医院","address":"卢湾区普安路185号(近淮海公园)"},{"poiid":"B2094753D76FAAFA449C","title":"上海滩国泰旗舰店","lon":"121.466011","lat":"31.216125","category":"249","category_name":"购物服务","address":"淮海中路868号"},{"poiid":"B209475CD564A7F84292","title":"上海滩新天地店","lon":"121.47463","lat":"31.22164","category":"119","category_name":"商场","address":"\"太仓路181弄新天地北里15号\r\n\""},{"poiid":"B209475CD564A7F8439E","title":"上海滩中信泰富店","lon":"121.45602","lat":"31.22851","category":"119","category_name":"商场","address":"\"南京西路1168号中信泰富广场，店铺号221.\r\n\""},{"poiid":"B209475CD564A7F84392","title":"上海滩浦东香格里拉店","lon":"121.50058","lat":"31.23634","category":"119","category_name":"商场","address":"浦东富成路33号香格里拉酒店内大堂层"},{"poiid":"B2094654DB6BA4FB4499","title":"兰亭餐厅","lon":"121.47562077847","lat":"31.222343552913","category":"76","category_name":"上海菜","address":"卢湾区嵩山路107号(近太仓路)"},{"poiid":"B2094757D06FA3F84399","title":"枣子树(淮海店)","lon":"121.47648","lat":"31.22225","category":"89","category_name":"中式素餐馆","address":"卢湾区嵩山路77号上海皇宫内(近淮海中路)"},{"poiid":"B2094750D26EABF8459A","title":"上海虹桥机场","lon":"121.48","lat":"31.22","category":"21","category_name":"飞机场","address":"上海长宁区虹桥路2550号"},{"poiid":"B2094757D06FAAF4469C","title":"上海安达仕酒店","lon":"121.475939667","lat":"31.2220295725","category":"217","category_name":"旅馆招待所","address":"卢湾区嵩山路88号(近香港广场)"},{"poiid":"B2094654DA6EABF5459F","title":"企业天地","lon":"121.47592","lat":"31.22109","category":"46","category_name":"楼宇","address":"上海市平凉路1398号"},{"poiid":"B2094757D064A1FD449A","title":"地铁8号线大世界站","lon":"121.478748638","lat":"31.2230810477","category":"36","category_name":"地铁站","address":"上海大世界站"},{"poiid":"B2094757D06FA5FF499D","title":"新天地太平桥人工湖","lon":"121.479294","lat":"31.222233","category":"196","category_name":"公园","address":"上海济南路"},{"poiid":"B2094757D16AA5F94593","title":"好乐迪","lon":"121.47968292","lat":"31.220613479","category":"500","category_name":"未知分类","address":"上海卢湾区顺昌路2号"},{"poiid":"B2094757D06FA2FE429B","title":"企业天地1号楼","lon":"121.476076722","lat":"31.2208862618","category":"46","category_name":"楼宇","address":"上海市卢湾区湖滨路222号"},{"poiid":"B2094757D06FA2F44599","title":"蝶园(太仓路店)","lon":"121.47718","lat":"31.22167","category":"76","category_name":"上海菜","address":"卢湾区太仓路70号(近嵩山路)"},{"poiid":"B2094757D66CA4FB499C","title":"好樂迪","lon":"121.477838738","lat":"31.2232501514","category":"500","category_name":"未知分类","address":"上海市黄浦区黄陂南路"},{"poiid":"B2094757D06FA2FA4292","title":"普华永道中心","lon":"121.47667706","lat":"31.2208910235","category":"46","category_name":"楼宇","address":"上海卢湾区湖滨路202号"},{"poiid":"B2094753D768A7FE489D","title":"甜品工房","lon":"121.477027","lat":"31.22192","category":"247","category_name":"餐饮美食","address":"上海市 济南路9号103商铺(近太仓路)"},{"poiid":"B2094654DB6BA4FB4493","title":"天家 太仓路店","lon":"121.47643526081","lat":"31.221847695273","category":"95","category_name":"日本料理","address":"卢湾区太仓路68号(近嵩山路)"},{"poiid":"B2094757D06FA1F84593","title":"Enoterra红酒吧(太仓路店)","lon":"121.477109909","lat":"31.2219337278","category":"260","category_name":"其他","address":"卢湾区太仓路58号(近济南路)"},{"poiid":"B2094757D06FA1F8489D","title":"淮海公园","lon":"121.47755186","lat":"31.222709558","category":"196","category_name":"公园","address":"卢湾区淮海中路177号(近普安路)"},{"poiid":"B2094655D26EA5FE469C","title":"y+瑜伽馆(新天地店)","lon":"121.47625","lat":"31.22076","category":"148","category_name":"美容美发店","address":"黄浦区湖滨路202号企业天地2号2楼(新天地会所)"},{"poiid":"B2094654DA6EAAFC429C","title":"曙光大厦","lon":"121.47886","lat":"31.22255","category":"46","category_name":"楼宇","address":"静安区西康路946号"},{"poiid":"B2094751D469A0FC4093","title":"浦东机场T2","lon":"121.475928","lat":"31.221897","category":"500","category_name":"未知分类","address":null},{"poiid":"B2094757D66BA3F94698","title":"伊莎贝尔 Trattoria Isabelle","lon":"121.479601054","lat":"31.221654793","category":"98","category_name":"意式菜品餐厅","address":"卢湾区吉安路11号(湖滨路崇德路间)"},{"poiid":"B2094753D46AA1FD459D","title":"环球港","lon":"121.480438","lat":"31.22241","category":"500","category_name":"未知分类","address":"上海市 中山北路"},{"poiid":"B2094654DA6EAAFC469E","title":"上海时光整形外科医院","lon":"121.47886","lat":"31.22255","category":"162","category_name":"医院","address":"卢湾区普安路189号曙光大厦2楼(近淮海公园)"},{"poiid":"B2094757D06FA4F44093","title":"富民面馆","lon":"121.47687790213","lat":"31.221657822044","category":"68","category_name":"快餐厅","address":"卢湾区太仓路78号(顺昌路口)"},{"poiid":"B2094757D568A4FA4692","title":"Green Massage新天地店","lon":"121.4773631","lat":"31.22202611","category":"149","category_name":"洗浴推拿场所","address":"太仓路58号"},{"poiid":"B2094757D06BA7F54899","title":"瑞尔齿科(新天地店)","lon":"121.47636","lat":"31.2209","category":"162","category_name":"医院","address":"上海卢湾区湖滨路202号企业天地商业中心2号2楼(近济南路)  "},{"poiid":"B2094654DA6EABFB499B","title":"上海市比乐中学","lon":"121.47971","lat":"31.22154","category":"55","category_name":"中学","address":"卢湾区崇德路43号(近顺昌路)"},{"poiid":"B2094753D76CA2F44598","title":"上海朗庭酒店","lon":"121.479156","lat":"31.22248","category":"500","category_name":"未知分类","address":"上海市 卢湾区马当路"},{"poiid":"B2094654DB65A7F5499E","title":"Y+瑜伽生活馆(新天地店)","lon":"121.4761","lat":"31.22175","category":"220","category_name":"运动场所","address":"卢湾区湖滨路202号企业天地2号楼2楼单元17-20室(近济南路)"},{"poiid":"B2094654DA6EABF5449A","title":"太平桥公园","lon":"121.47679","lat":"31.2197","category":"196","category_name":"公园","address":"淮海中路"},{"poiid":"B2094750D76DAAF94599","title":"Éclair","lon":"121.476","lat":"31.2228","category":"67","category_name":"甜品店","address":"卢湾区嵩山路88号上海安达仕酒店1楼"},{"poiid":"B2094757D66DA0FC409C","title":"舒适堡","lon":"121.476330738","lat":"31.2202470874","category":"500","category_name":"未知分类","address":"卢湾区淮海中路1号(近西藏南路)"},{"poiid":"B2094751D36BA5FF469F","title":"上海南站","lon":"121.48","lat":"31.22","category":"195","category_name":"游乐场","address":"上海徐家汇"},{"poiid":"B2094753DA6AA5F9419C","title":"COVA@K11","lon":"121.478927","lat":"31.223541","category":"500","category_name":"未知分类","address":"上海市 淮海中路300号2楼"},{"poiid":"B2094757D065A7FD4198","title":"韩膳宫无限度店","lon":"121.478038738","lat":"31.2240281679","category":"500","category_name":"未知分类","address":"上海市黄浦区延安东路"},{"poiid":"B2094757D06FAAFB479F","title":"振江川菜馆","lon":"121.4756","lat":"31.2225","category":"71","category_name":"四川菜","address":"卢湾区嵩山路81号2楼(近淮海中路)"},{"poiid":"B2094654DA6DABFA469B","title":"复兴广场","lon":"121.477","lat":"31.2237","category":"248","category_name":"生活娱乐","address":"卢湾区重庆南路208号(近南昌路)"},{"poiid":"B2094757D064ABF5459C","title":"Whittard of Chelsea","lon":"121.47663773","lat":"31.223583158","category":"260","category_name":"其他","address":"卢湾区淮海中路222号力宝广场B1楼101店铺(近嵩山路)"},{"poiid":"B2094753DA6AA3F44599","title":"甜品工房","lon":"121.477249","lat":"31.221738","category":"247","category_name":"餐饮美食","address":"上海市 新天地济南路近太仓路"},{"poiid":"B2094757D16FA1FB469F","title":"太平湖绿地","lon":"121.47711773","lat":"31.219893079","category":"500","category_name":"未知分类","address":"上海ShanghaiLuwanHubin Rd"},{"poiid":"B2094753D768A1F4419C","title":"上海外滩","lon":"121.480438","lat":"31.222406","category":"500","category_name":"未知分类","address":"上海市 外滩"},{"poiid":"B2094654DB69AAF54893","title":"福客桂林米粉","lon":"121.47751","lat":"31.22371","category":"68","category_name":"快餐厅","address":"卢湾区淮海中路177号淮海公园门口(近普安路)"},{"poiid":"B2094753DA68A3FC469F","title":"甜品工坊","lon":"121.477355","lat":"31.221826","category":"500","category_name":"未知分类","address":"上海市 太仓路"},{"poiid":"B2094757D06BA6FD4992","title":"上海中医药大学附属曙光医院名中医诊疗中心","lon":"121.478672","lat":"31.222935","category":"162","category_name":"医院","address":"上海市卢湾区普安路185号(近淮海公园)"},{"poiid":"B2094654DB69A0FA4998","title":"鹿港小镇(新天地店)","lon":"121.47697","lat":"31.22197","category":"91","category_name":"台湾菜","address":"卢湾区太仓路68号(近嵩山路)"},{"poiid":"B2094654DB6BA4FA4899","title":"好乐迪量贩KTV","lon":"121.47646","lat":"31.22161","category":"170","category_name":"KTV","address":"顺昌路2"},{"poiid":"B2094655D26AA0F84799","title":"上海中医药大学附属曙光医院","lon":"121.47867","lat":"31.22293","category":"162","category_name":"医院","address":"卢湾区普安路185号(近淮海公园)"},{"poiid":"B2094753D76FAAFA449C","title":"上海滩国泰旗舰店","lon":"121.466011","lat":"31.216125","category":"249","category_name":"购物服务","address":"淮海中路868号"},{"poiid":"B209475CD564A7F84292","title":"上海滩新天地店","lon":"121.47463","lat":"31.22164","category":"119","category_name":"商场","address":"\"太仓路181弄新天地北里15号\r\n\""},{"poiid":"B209475CD564A7F8439E","title":"上海滩中信泰富店","lon":"121.45602","lat":"31.22851","category":"119","category_name":"商场","address":"\"南京西路1168号中信泰富广场，店铺号221.\r\n\""},{"poiid":"B209475CD564A7F84392","title":"上海滩浦东香格里拉店","lon":"121.50058","lat":"31.23634","category":"119","category_name":"商场","address":"浦东富成路33号香格里拉酒店内大堂层"},{"poiid":"B2094654DB6BA4FB4499","title":"兰亭餐厅","lon":"121.47562077847","lat":"31.222343552913","category":"76","category_name":"上海菜","address":"卢湾区嵩山路107号(近太仓路)"},{"poiid":"B2094757D06FA3F84399","title":"枣子树(淮海店)","lon":"121.47648","lat":"31.22225","category":"89","category_name":"中式素餐馆","address":"卢湾区嵩山路77号上海皇宫内(近淮海中路)"},{"poiid":"B2094750D26EABF8459A","title":"上海虹桥机场","lon":"121.48","lat":"31.22","category":"21","category_name":"飞机场","address":"上海长宁区虹桥路2550号"},{"poiid":"B2094757D06FAAF4469C","title":"上海安达仕酒店","lon":"121.475939667","lat":"31.2220295725","category":"217","category_name":"旅馆招待所","address":"卢湾区嵩山路88号(近香港广场)"},{"poiid":"B2094654DA6EABF5459F","title":"企业天地","lon":"121.47592","lat":"31.22109","category":"46","category_name":"楼宇","address":"上海市平凉路1398号"},{"poiid":"B2094757D064A1FD449A","title":"地铁8号线大世界站","lon":"121.478748638","lat":"31.2230810477","category":"36","category_name":"地铁站","address":"上海大世界站"},{"poiid":"B2094757D06FA5FF499D","title":"新天地太平桥人工湖","lon":"121.479294","lat":"31.222233","category":"196","category_name":"公园","address":"上海济南路"},{"poiid":"B2094757D16AA5F94593","title":"好乐迪","lon":"121.47968292","lat":"31.220613479","category":"500","category_name":"未知分类","address":"上海卢湾区顺昌路2号"},{"poiid":"B2094757D06FA2FE429B","title":"企业天地1号楼","lon":"121.476076722","lat":"31.2208862618","category":"46","category_name":"楼宇","address":"上海市卢湾区湖滨路222号"},{"poiid":"B2094757D06FA2F44599","title":"蝶园(太仓路店)","lon":"121.47718","lat":"31.22167","category":"76","category_name":"上海菜","address":"卢湾区太仓路70号(近嵩山路)"},{"poiid":"B2094757D66CA4FB499C","title":"好樂迪","lon":"121.477838738","lat":"31.2232501514","category":"500","category_name":"未知分类","address":"上海市黄浦区黄陂南路"},{"poiid":"B2094757D06FA2FA4292","title":"普华永道中心","lon":"121.47667706","lat":"31.2208910235","category":"46","category_name":"楼宇","address":"上海卢湾区湖滨路202号"},{"poiid":"B2094753D768A7FE489D","title":"甜品工房","lon":"121.477027","lat":"31.22192","category":"247","category_name":"餐饮美食","address":"上海市 济南路9号103商铺(近太仓路)"},{"poiid":"B2094654DB6BA4FB4493","title":"天家 太仓路店","lon":"121.47643526081","lat":"31.221847695273","category":"95","category_name":"日本料理","address":"卢湾区太仓路68号(近嵩山路)"},{"poiid":"B2094757D06FA1F84593","title":"Enoterra红酒吧(太仓路店)","lon":"121.477109909","lat":"31.2219337278","category":"260","category_name":"其他","address":"卢湾区太仓路58号(近济南路)"},{"poiid":"B2094757D06FA1F8489D","title":"淮海公园","lon":"121.47755186","lat":"31.222709558","category":"196","category_name":"公园","address":"卢湾区淮海中路177号(近普安路)"},{"poiid":"B2094655D26EA5FE469C","title":"y+瑜伽馆(新天地店)","lon":"121.47625","lat":"31.22076","category":"148","category_name":"美容美发店","address":"黄浦区湖滨路202号企业天地2号2楼(新天地会所)"},{"poiid":"B2094654DA6EAAFC429C","title":"曙光大厦","lon":"121.47886","lat":"31.22255","category":"46","category_name":"楼宇","address":"静安区西康路946号"},{"poiid":"B2094751D469A0FC4093","title":"浦东机场T2","lon":"121.475928","lat":"31.221897","category":"500","category_name":"未知分类","address":null},{"poiid":"B2094757D66BA3F94698","title":"伊莎贝尔 Trattoria Isabelle","lon":"121.479601054","lat":"31.221654793","category":"98","category_name":"意式菜品餐厅","address":"卢湾区吉安路11号(湖滨路崇德路间)"},{"poiid":"B2094753D46AA1FD459D","title":"环球港","lon":"121.480438","lat":"31.22241","category":"500","category_name":"未知分类","address":"上海市 中山北路"},{"poiid":"B2094654DA6EAAFC469E","title":"上海时光整形外科医院","lon":"121.47886","lat":"31.22255","category":"162","category_name":"医院","address":"卢湾区普安路189号曙光大厦2楼(近淮海公园)"},{"poiid":"B2094757D06FA4F44093","title":"富民面馆","lon":"121.47687790213","lat":"31.221657822044","category":"68","category_name":"快餐厅","address":"卢湾区太仓路78号(顺昌路口)"},{"poiid":"B2094757D568A4FA4692","title":"Green Massage新天地店","lon":"121.4773631","lat":"31.22202611","category":"149","category_name":"洗浴推拿场所","address":"太仓路58号"},{"poiid":"B2094757D06BA7F54899","title":"瑞尔齿科(新天地店)","lon":"121.47636","lat":"31.2209","category":"162","category_name":"医院","address":"上海卢湾区湖滨路202号企业天地商业中心2号2楼(近济南路)  "},{"poiid":"B2094654DA6EABFB499B","title":"上海市比乐中学","lon":"121.47971","lat":"31.22154","category":"55","category_name":"中学","address":"卢湾区崇德路43号(近顺昌路)"},{"poiid":"B2094753D76CA2F44598","title":"上海朗庭酒店","lon":"121.479156","lat":"31.22248","category":"500","category_name":"未知分类","address":"上海市 卢湾区马当路"},{"poiid":"B2094654DB65A7F5499E","title":"Y+瑜伽生活馆(新天地店)","lon":"121.4761","lat":"31.22175","category":"220","category_name":"运动场所","address":"卢湾区湖滨路202号企业天地2号楼2楼单元17-20室(近济南路)"},{"poiid":"B2094654DA6EABF5449A","title":"太平桥公园","lon":"121.47679","lat":"31.2197","category":"196","category_name":"公园","address":"淮海中路"},{"poiid":"B2094750D76DAAF94599","title":"Éclair","lon":"121.476","lat":"31.2228","category":"67","category_name":"甜品店","address":"卢湾区嵩山路88号上海安达仕酒店1楼"},{"poiid":"B2094757D66DA0FC409C","title":"舒适堡","lon":"121.476330738","lat":"31.2202470874","category":"500","category_name":"未知分类","address":"卢湾区淮海中路1号(近西藏南路)"},{"poiid":"B2094751D36BA5FF469F","title":"上海南站","lon":"121.48","lat":"31.22","category":"195","category_name":"游乐场","address":"上海徐家汇"},{"poiid":"B2094753DA6AA5F9419C","title":"COVA@K11","lon":"121.478927","lat":"31.223541","category":"500","category_name":"未知分类","address":"上海市 淮海中路300号2楼"},{"poiid":"B2094757D065A7FD4198","title":"韩膳宫无限度店","lon":"121.478038738","lat":"31.2240281679","category":"500","category_name":"未知分类","address":"上海市黄浦区延安东路"},{"poiid":"B2094757D06FAAFB479F","title":"振江川菜馆","lon":"121.4756","lat":"31.2225","category":"71","category_name":"四川菜","address":"卢湾区嵩山路81号2楼(近淮海中路)"},{"poiid":"B2094654DA6DABFA469B","title":"复兴广场","lon":"121.477","lat":"31.2237","category":"248","category_name":"生活娱乐","address":"卢湾区重庆南路208号(近南昌路)"},{"poiid":"B2094757D064ABF5459C","title":"Whittard of Chelsea","lon":"121.47663773","lat":"31.223583158","category":"260","category_name":"其他","address":"卢湾区淮海中路222号力宝广场B1楼101店铺(近嵩山路)"},{"poiid":"B2094753DA6AA3F44599","title":"甜品工房","lon":"121.477249","lat":"31.221738","category":"247","category_name":"餐饮美食","address":"上海市 新天地济南路近太仓路"},{"poiid":"B2094757D16FA1FB469F","title":"太平湖绿地","lon":"121.47711773","lat":"31.219893079","category":"500","category_name":"未知分类","address":"上海ShanghaiLuwanHubin Rd"},{"poiid":"B2094753D768A1F4419C","title":"上海外滩","lon":"121.480438","lat":"31.222406","category":"500","category_name":"未知分类","address":"上海市 外滩"},{"poiid":"B2094654DB69AAF54893","title":"福客桂林米粉","lon":"121.47751","lat":"31.22371","category":"68","category_name":"快餐厅","address":"卢湾区淮海中路177号淮海公园门口(近普安路)"},{"poiid":"B2094753DA68A3FC469F","title":"甜品工坊","lon":"121.477355","lat":"31.221826","category":"500","category_name":"未知分类","address":"上海市 太仓路"},{"poiid":"B2094757D06BA6FD4992","title":"上海中医药大学附属曙光医院名中医诊疗中心","lon":"121.478672","lat":"31.222935","category":"162","category_name":"医院","address":"上海市卢湾区普安路185号(近淮海公园)"}]