[{"poiid":"B2094757D06FA1FE409E","title":"宋记香辣蟹(天钥桥路店)","lon":"121.44487","lat":"31.17894","category":"71","category_name":"四川菜","address":"徐汇区天钥桥路898号(近中山南二路)"},{"poiid":"B2094654DA6DA7FE449B","title":"徐汇苑大厦","lon":"121.443064","lat":"31.178863","category":"46","category_name":"楼宇","address":"徐汇区中山南二路1089号"},{"poiid":"B2094655D265A0FA489E","title":"D1国际创意空间","lon":"121.44582","lat":"31.17874","category":"45","category_name":"产业园区","address":"上海徐汇区天钥桥路909号"},{"poiid":"B2094654DB69A5FF439A","title":"莫泰168连锁旅店(天钥桥路店)","lon":"121.44567","lat":"31.1791","category":"216","category_name":"经济型连锁酒店","address":"上海市徐汇区天钥桥路909号（近中山南二路）"},{"poiid":"B2094751DA65A1FF4693","title":"新奢奢侈品护理","lon":"121.446152","lat":"31.17868","category":"249","category_name":"购物服务","address":"天钥桥路909号D1国际创意空间3号楼218室"},{"poiid":"B2094753D569ABFC439D","title":"上海八万人体育场","lon":"121.445259","lat":"31.178665","category":"500","category_name":"未知分类","address":"上海市 上海八万人体育场"},{"poiid":"B2094757D06FA1FE449A","title":"Mvuke Tokyo 布歌东京","lon":"121.443679336","lat":"31.1812833347","category":"67","category_name":"甜品店","address":"徐汇区天钥桥路666号世纪联华超市内"},{"poiid":"B2094750DB6BA1F4479D","title":"宜家家居IKEA","lon":"121.443565","lat":"31.17851","category":"249","category_name":"购物服务","address":"漕溪北路中山西路"},{"poiid":"B2094654DB6BA5FA4398","title":"月亮湾酒家","lon":"121.44524","lat":"31.17872","category":"257","category_name":"中餐厅","address":"徐汇区天钥桥路909号(近中山南二路)"},{"poiid":"B2094750D165A6FC409B","title":"鼎辣 徐家汇店","lon":"121.445602","lat":"31.181066","category":"247","category_name":"餐饮美食","address":"星游城三楼"},{"poiid":"B2094757D16EA5FE4592","title":"内环高架","lon":"121.446675586","lat":"31.182659501","category":"500","category_name":"未知分类","address":"上海市徐汇区零陵路"},{"poiid":"B2094654DA6DA7FF4199","title":"宛南六村","lon":"121.44566","lat":"31.179573","category":"47","category_name":"住宅区","address":"上海天钥桥路905弄"},{"poiid":"B2094750D16BA5F8489B","title":"非洲国际","lon":"121.446037","lat":"31.179267","category":"252","category_name":"楼宇机构","address":null},{"poiid":"B2094757D06FAAF8459F","title":"徐汇苑","lon":"121.44469","lat":"31.176945","category":"47","category_name":"住宅区","address":"上海市徐汇区天钥桥路968号"},{"poiid":"B2094654DA6DA7FE4992","title":"龙华烈士纪念馆(3号门)","lon":"121.44662","lat":"31.17637","category":"680","category_name":"楼宇机构","address":"天钥桥路1155"},{"poiid":"B2094757D068A5F8499E","title":"三夫户外用品(天钥桥路店)","lon":"121.44465","lat":"31.17978","category":"140","category_name":"体育用品店","address":"徐汇区天钥桥路859号北海大厦2楼(近零陵路)"},{"poiid":"B2094757D069A0F44192","title":"上海市公安局徐汇分局","lon":"121.444672","lat":"31.181537","category":"500","category_name":"未知分类","address":"上海徐汇区天钥桥路901号"},{"poiid":"B2094654DA6DA7FF4098","title":"新惠宾馆","lon":"121.44573","lat":"31.17825","category":"250","category_name":"公园户外","address":"徐汇区天钥桥路1001号"},{"poiid":"B2094757D069A1FD439E","title":"姑苏邨","lon":"121.44552307288","lat":"31.176713112403","category":"68","category_name":"快餐厅","address":"徐汇区天钥桥路909号(近中山南二路)"},{"poiid":"B2094757D068A5FF499D","title":"艳阳红涮肉馆","lon":"121.44558","lat":"31.18003","category":"86","category_name":"火锅店","address":"徐汇区中山南二路999号(近天钥桥路)"},{"poiid":"B2094655D26FAAF9419D","title":"上海市宛平中学","lon":"121.44718","lat":"31.17884","category":"55","category_name":"中学","address":"徐汇区宛南六村46号(近天钥桥路)"},{"poiid":"B2094757D16DA6FE4793","title":"宛平医院","lon":"121.449437","lat":"31.180191","category":"162","category_name":"医院","address":"上海双峰路446号"},{"poiid":"B2094654DA6DA7F8479B","title":"枫林街道社区卫生服务中心","lon":"121.4493","lat":"31.18004","category":"162","category_name":"医院","address":"徐汇区双峰路450号(近中山南二路)"},{"poiid":"B2094654DA6DA7FF409C","title":"喜士多便利连锁(天钥桥路)","lon":"121.44519","lat":"31.17903","category":"117","category_name":"便民商店/便利店","address":"徐汇区天钥桥路907号"},{"poiid":"B2094753D569AAFC429D","title":"上海八万人体育馆","lon":"121.446014","lat":"31.179534","category":"500","category_name":"未知分类","address":"上海市 上海市徐汇区"},{"poiid":"B2094654DA6DA7FF419E","title":"永琪美容美发(天钥桥路)","lon":"121.44527","lat":"31.17969","category":"148","category_name":"美容美发店","address":"徐汇区天钥桥路905号"},{"poiid":"B2094655D264AAF84798","title":"徐汇苑酒店式公寓","lon":"121.44482","lat":"31.17756","category":"250","category_name":"公园户外","address":""},{"poiid":"B2094654DA6DA7FF4192","title":"梅园新村","lon":"121.44589","lat":"31.18017","category":"47","category_name":"住宅区","address":"中山南二路1023弄1-20号"},{"poiid":"B2094757D469A0F5449A","title":"程新双峰小吃","lon":"121.44896415472","lat":"31.180590560618","category":"68","category_name":"快餐厅","address":"徐汇区双峰路双峰街市旁"},{"poiid":"B2094757D16CA6F9439E","title":"ceo会所","lon":"121.44702625","lat":"31.178939652","category":"500","category_name":"未知分类","address":"上海八万人体育场"},{"poiid":"B2094654DB65A1FC4998","title":"中国电信南区电信局","lon":"121.44496","lat":"31.17814","category":"263","category_name":"公司","address":"天钥桥路980号"},{"poiid":"B2094752D26FA4F9479E","title":"创意大院2577","lon":"121.446361","lat":"31.179799","category":"263","category_name":"公司","address":"龙华路2577号"},{"poiid":"B2094753D66BA7FF4692","title":"绿地中心正大乐城","lon":"121.447257","lat":"31.180236","category":"500","category_name":"未知分类","address":"上海市 东安路599号"},{"poiid":"B2094752D369A4FE479C","title":"锦江乐园","lon":"121.44651","lat":"31.180184","category":"500","category_name":"未知分类","address":null},{"poiid":"B2094753D56EA2FE4199","title":"龙华寺三尺精舍","lon":"121.448318","lat":"31.179548","category":"244","category_name":"寺庙道观","address":"上海市 上海市徐汇区龙华路2853号"},{"poiid":"B2094757D16DA7FA469B","title":"红辣椒湘菜馆(天钥桥路店)","lon":"121.44784","lat":"31.18208","category":"77","category_name":"湖南菜","address":"徐汇区中山南二路969号(近天钥桥路)"},{"poiid":"B2094655D269AAFB449C","title":"DREAMBOX摄影会所","lon":"121.4453","lat":"31.17861","category":"247","category_name":"餐饮美食","address":"徐汇区天钥桥路909号D1国际创意空间3号楼301室(近中山南二路)"},{"poiid":"B2094757D66DAAFD469F","title":"玫瑰私人莊園","lon":"121.44563053","lat":"31.179051663","category":"500","category_name":"未知分类","address":null},{"poiid":"B2094655D268A7F8479B","title":"龙华新村小区","lon":"121.4463","lat":"31.17778","category":"47","category_name":"住宅区","address":""},{"poiid":"B2094655D26AA7FF4298","title":"云裳室内设计","lon":"121.4453","lat":"31.17861","category":"247","category_name":"餐饮美食","address":"徐汇区天钥桥路909号1号楼2楼(近中山南二路)"},{"poiid":"B2094757D164A4F5409C","title":"复旦大学继续教育学院","lon":"121.445919586","lat":"31.180968468","category":"671","category_name":"高校中心点","address":"上海东安路130号"},{"poiid":"B2094654DA6DA7FE469E","title":"协昌小区","lon":"121.44444","lat":"31.179728","category":"47","category_name":"住宅区","address":"中山南二路1057弄"},{"poiid":"B2094751D564ABF94392","title":"top sports","lon":"121.445649","lat":"31.178898","category":"248","category_name":"生活娱乐","address":"上海天钥桥路666号八万人体育场2号扶梯下"},{"poiid":"B2094750D668AAF8479F","title":"腾飞广场","lon":"121.444862","lat":"31.179262","category":"500","category_name":"未知分类","address":"天钥桥路"},{"poiid":"B2094655D268ABFC439C","title":"宛南六村(西门)","lon":"121.44508","lat":"31.17931","category":"47","category_name":"住宅区","address":"天钥桥路905弄"},{"poiid":"B2094654DA6DA7F8429E","title":"中山苑","lon":"121.44663","lat":"31.181137","category":"47","category_name":"住宅区","address":"中山南二路999弄"},{"poiid":"B2094654DB65A2FC4099","title":"煤科公寓","lon":"121.44532","lat":"31.180462","category":"47","category_name":"住宅区","address":"中山南二路1023弄1-20号"},{"poiid":"B2094654DA6DA7F84299","title":"中信中山大楼","lon":"121.44656","lat":"31.18141","category":"46","category_name":"楼宇","address":"中山南二路999弄1-19号"},{"poiid":"B2094757D169A4FC4299","title":"徐汇苑健身会所","lon":"121.44497","lat":"31.17836","category":"148","category_name":"美容美发店","address":"徐汇区天钥桥路968号"},{"poiid":"B2094752D66EA7FD409F","title":"徐匯苑","lon":"121.444931","lat":"31.178375","category":"47","category_name":"住宅区","address":null},{"poiid":"B2094757D06FA1FE409E","title":"宋记香辣蟹(天钥桥路店)","lon":"121.44487","lat":"31.17894","category":"71","category_name":"四川菜","address":"徐汇区天钥桥路898号(近中山南二路)"},{"poiid":"B2094654DA6DA7FE449B","title":"徐汇苑大厦","lon":"121.443064","lat":"31.178863","category":"46","category_name":"楼宇","address":"徐汇区中山南二路1089号"},{"poiid":"B2094655D265A0FA489E","title":"D1国际创意空间","lon":"121.44582","lat":"31.17874","category":"45","category_name":"产业园区","address":"上海徐汇区天钥桥路909号"},{"poiid":"B2094654DB69A5FF439A","title":"莫泰168连锁旅店(天钥桥路店)","lon":"121.44567","lat":"31.1791","category":"216","category_name":"经济型连锁酒店","address":"上海市徐汇区天钥桥路909号（近中山南二路）"},{"poiid":"B2094751DA65A1FF4693","title":"新奢奢侈品护理","lon":"121.446152","lat":"31.17868","category":"249","category_name":"购物服务","address":"天钥桥路909号D1国际创意空间3号楼218室"},{"poiid":"B2094753D569ABFC439D","title":"上海八万人体育场","lon":"121.445259","lat":"31.178665","category":"500","category_name":"未知分类","address":"上海市 上海八万人体育场"},{"poiid":"B2094757D06FA1FE449A","title":"Mvuke Tokyo 布歌东京","lon":"121.443679336","lat":"31.1812833347","category":"67","category_name":"甜品店","address":"徐汇区天钥桥路666号世纪联华超市内"},{"poiid":"B2094750DB6BA1F4479D","title":"宜家家居IKEA","lon":"121.443565","lat":"31.17851","category":"249","category_name":"购物服务","address":"漕溪北路中山西路"},{"poiid":"B2094654DB6BA5FA4398","title":"月亮湾酒家","lon":"121.44524","lat":"31.17872","category":"257","category_name":"中餐厅","address":"徐汇区天钥桥路909号(近中山南二路)"},{"poiid":"B2094750D165A6FC409B","title":"鼎辣 徐家汇店","lon":"121.445602","lat":"31.181066","category":"247","category_name":"餐饮美食","address":"星游城三楼"},{"poiid":"B2094757D16EA5FE4592","title":"内环高架","lon":"121.446675586","lat":"31.182659501","category":"500","category_name":"未知分类","address":"上海市徐汇区零陵路"},{"poiid":"B2094654DA6DA7FF4199","title":"宛南六村","lon":"121.44566","lat":"31.179573","category":"47","category_name":"住宅区","address":"上海天钥桥路905弄"},{"poiid":"B2094750D16BA5F8489B","title":"非洲国际","lon":"121.446037","lat":"31.179267","category":"252","category_name":"楼宇机构","address":null},{"poiid":"B2094757D06FAAF8459F","title":"徐汇苑","lon":"121.44469","lat":"31.176945","category":"47","category_name":"住宅区","address":"上海市徐汇区天钥桥路968号"},{"poiid":"B2094654DA6DA7FE4992","title":"龙华烈士纪念馆(3号门)","lon":"121.44662","lat":"31.17637","category":"680","category_name":"楼宇机构","address":"天钥桥路1155"},{"poiid":"B2094757D068A5F8499E","title":"三夫户外用品(天钥桥路店)","lon":"121.44465","lat":"31.17978","category":"140","category_name":"体育用品店","address":"徐汇区天钥桥路859号北海大厦2楼(近零陵路)"},{"poiid":"B2094757D069A0F44192","title":"上海市公安局徐汇分局","lon":"121.444672","lat":"31.181537","category":"500","category_name":"未知分类","address":"上海徐汇区天钥桥路901号"},{"poiid":"B2094654DA6DA7FF4098","title":"新惠宾馆","lon":"121.44573","lat":"31.17825","category":"250","category_name":"公园户外","address":"徐汇区天钥桥路1001号"},{"poiid":"B2094757D069A1FD439E","title":"姑苏邨","lon":"121.44552307288","lat":"31.176713112403","category":"68","category_name":"快餐厅","address":"徐汇区天钥桥路909号(近中山南二路)"},{"poiid":"B2094757D068A5FF499D","title":"艳阳红涮肉馆","lon":"121.44558","lat":"31.18003","category":"86","category_name":"火锅店","address":"徐汇区中山南二路999号(近天钥桥路)"},{"poiid":"B2094655D26FAAF9419D","title":"上海市宛平中学","lon":"121.44718","lat":"31.17884","category":"55","category_name":"中学","address":"徐汇区宛南六村46号(近天钥桥路)"},{"poiid":"B2094757D16DA6FE4793","title":"宛平医院","lon":"121.449437","lat":"31.180191","category":"162","category_name":"医院","address":"上海双峰路446号"},{"poiid":"B2094654DA6DA7F8479B","title":"枫林街道社区卫生服务中心","lon":"121.4493","lat":"31.18004","category":"162","category_name":"医院","address":"徐汇区双峰路450号(近中山南二路)"},{"poiid":"B2094654DA6DA7FF409C","title":"喜士多便利连锁(天钥桥路)","lon":"121.44519","lat":"31.17903","category":"117","category_name":"便民商店/便利店","address":"徐汇区天钥桥路907号"},{"poiid":"B2094753D569AAFC429D","title":"上海八万人体育馆","lon":"121.446014","lat":"31.179534","category":"500","category_name":"未知分类","address":"上海市 上海市徐汇区"},{"poiid":"B2094654DA6DA7FF419E","title":"永琪美容美发(天钥桥路)","lon":"121.44527","lat":"31.17969","category":"148","category_name":"美容美发店","address":"徐汇区天钥桥路905号"},{"poiid":"B2094655D264AAF84798","title":"徐汇苑酒店式公寓","lon":"121.44482","lat":"31.17756","category":"250","category_name":"公园户外","address":""},{"poiid":"B2094654DA6DA7FF4192","title":"梅园新村","lon":"121.44589","lat":"31.18017","category":"47","category_name":"住宅区","address":"中山南二路1023弄1-20号"},{"poiid":"B2094757D469A0F5449A","title":"程新双峰小吃","lon":"121.44896415472","lat":"31.180590560618","category":"68","category_name":"快餐厅","address":"徐汇区双峰路双峰街市旁"},{"poiid":"B2094757D16CA6F9439E","title":"ceo会所","lon":"121.44702625","lat":"31.178939652","category":"500","category_name":"未知分类","address":"上海八万人体育场"},{"poiid":"B2094654DB65A1FC4998","title":"中国电信南区电信局","lon":"121.44496","lat":"31.17814","category":"263","category_name":"公司","address":"天钥桥路980号"},{"poiid":"B2094752D26FA4F9479E","title":"创意大院2577","lon":"121.446361","lat":"31.179799","category":"263","category_name":"公司","address":"龙华路2577号"},{"poiid":"B2094753D66BA7FF4692","title":"绿地中心正大乐城","lon":"121.447257","lat":"31.180236","category":"500","category_name":"未知分类","address":"上海市 东安路599号"},{"poiid":"B2094752D369A4FE479C","title":"锦江乐园","lon":"121.44651","lat":"31.180184","category":"500","category_name":"未知分类","address":null},{"poiid":"B2094753D56EA2FE4199","title":"龙华寺三尺精舍","lon":"121.448318","lat":"31.179548","category":"244","category_name":"寺庙道观","address":"上海市 上海市徐汇区龙华路2853号"},{"poiid":"B2094757D16DA7FA469B","title":"红辣椒湘菜馆(天钥桥路店)","lon":"121.44784","lat":"31.18208","category":"77","category_name":"湖南菜","address":"徐汇区中山南二路969号(近天钥桥路)"},{"poiid":"B2094655D269AAFB449C","title":"DREAMBOX摄影会所","lon":"121.4453","lat":"31.17861","category":"247","category_name":"餐饮美食","address":"徐汇区天钥桥路909号D1国际创意空间3号楼301室(近中山南二路)"},{"poiid":"B2094757D66DAAFD469F","title":"玫瑰私人莊園","lon":"121.44563053","lat":"31.179051663","category":"500","category_name":"未知分类","address":null},{"poiid":"B2094655D268A7F8479B","title":"龙华新村小区","lon":"121.4463","lat":"31.17778","category":"47","category_name":"住宅区","address":""},{"poiid":"B2094655D26AA7FF4298","title":"云裳室内设计","lon":"121.4453","lat":"31.17861","category":"247","category_name":"餐饮美食","address":"徐汇区天钥桥路909号1号楼2楼(近中山南二路)"},{"poiid":"B2094757D164A4F5409C","title":"复旦大学继续教育学院","lon":"121.445919586","lat":"31.180968468","category":"671","category_name":"高校中心点","address":"上海东安路130号"},{"poiid":"B2094654DA6DA7FE469E","title":"协昌小区","lon":"121.44444","lat":"31.179728","category":"47","category_name":"住宅区","address":"中山南二路1057弄"},{"poiid":"B2094751D564ABF94392","title":"top sports","lon":"121.445649","lat":"31.178898","category":"248","category_name":"生活娱乐","address":"上海天钥桥路666号八万人体育场2号扶梯下"},{"poiid":"B2094750D668AAF8479F","title":"腾飞广场","lon":"121.444862","lat":"31.179262","category":"500","category_name":"未知分类","address":"天钥桥路"},{"poiid":"B2094655D268ABFC439C","title":"宛南六村(西门)","lon":"121.44508","lat":"31.17931","category":"47","category_name":"住宅区","address":"天钥桥路905弄"},{"poiid":"B2094654DA6DA7F8429E","title":"中山苑","lon":"121.44663","lat":"31.181137","category":"47","category_name":"住宅区","address":"中山南二路999弄"},{"poiid":"B2094654DB65A2FC4099","title":"煤科公寓","lon":"121.44532","lat":"31.180462","category":"47","category_name":"住宅区","address":"中山南二路1023弄1-20号"},{"poiid":"B2094654DA6DA7F84299","title":"中信中山大楼","lon":"121.44656","lat":"31.18141","category":"46","category_name":"楼宇","address":"中山南二路999弄1-19号"},{"poiid":"B2094757D169A4FC4299","title":"徐汇苑健身会所","lon":"121.44497","lat":"31.17836","category":"148","category_name":"美容美发店","address":"徐汇区天钥桥路968号"},{"poiid":"B2094752D66EA7FD409F","title":"徐匯苑","lon":"121.444931","lat":"31.178375","category":"47","category_name":"住宅区","address":null},{"poiid":"B2094757D06FA1FE409E","title":"宋记香辣蟹(天钥桥路店)","lon":"121.44487","lat":"31.17894","category":"71","category_name":"四川菜","address":"徐汇区天钥桥路898号(近中山南二路)"},{"poiid":"B2094654DA6DA7FE449B","title":"徐汇苑大厦","lon":"121.443064","lat":"31.178863","category":"46","category_name":"楼宇","address":"徐汇区中山南二路1089号"},{"poiid":"B2094655D265A0FA489E","title":"D1国际创意空间","lon":"121.44582","lat":"31.17874","category":"45","category_name":"产业园区","address":"上海徐汇区天钥桥路909号"},{"poiid":"B2094654DB69A5FF439A","title":"莫泰168连锁旅店(天钥桥路店)","lon":"121.44567","lat":"31.1791","category":"216","category_name":"经济型连锁酒店","address":"上海市徐汇区天钥桥路909号（近中山南二路）"},{"poiid":"B2094751DA65A1FF4693","title":"新奢奢侈品护理","lon":"121.446152","lat":"31.17868","category":"249","category_name":"购物服务","address":"天钥桥路909号D1国际创意空间3号楼218室"},{"poiid":"B2094753D569ABFC439D","title":"上海八万人体育场","lon":"121.445259","lat":"31.178665","category":"500","category_name":"未知分类","address":"上海市 上海八万人体育场"},{"poiid":"B2094757D06FA1FE449A","title":"Mvuke Tokyo 布歌东京","lon":"121.443679336","lat":"31.1812833347","category":"67","category_name":"甜品店","address":"徐汇区天钥桥路666号世纪联华超市内"},{"poiid":"B2094750DB6BA1F4479D","title":"宜家家居IKEA","lon":"121.443565","lat":"31.17851","category":"249","category_name":"购物服务","address":"漕溪北路中山西路"},{"poiid":"B2094654DB6BA5FA4398","title":"月亮湾酒家","lon":"121.44524","lat":"31.17872","category":"257","category_name":"中餐厅","address":"徐汇区天钥桥路909号(近中山南二路)"},{"poiid":"B2094750D165A6FC409B","title":"鼎辣 徐家汇店","lon":"121.445602","lat":"31.181066","category":"247","category_name":"餐饮美食","address":"星游城三楼"},{"poiid":"B2094757D16EA5FE4592","title":"内环高架","lon":"121.446675586","lat":"31.182659501","category":"500","category_name":"未知分类","address":"上海市徐汇区零陵路"},{"poiid":"B2094654DA6DA7FF4199","title":"宛南六村","lon":"121.44566","lat":"31.179573","category":"47","category_name":"住宅区","address":"上海天钥桥路905弄"},{"poiid":"B2094750D16BA5F8489B","title":"非洲国际","lon":"121.446037","lat":"31.179267","category":"252","category_name":"楼宇机构","address":null},{"poiid":"B2094757D06FAAF8459F","title":"徐汇苑","lon":"121.44469","lat":"31.176945","category":"47","category_name":"住宅区","address":"上海市徐汇区天钥桥路968号"},{"poiid":"B2094654DA6DA7FE4992","title":"龙华烈士纪念馆(3号门)","lon":"121.44662","lat":"31.17637","category":"680","category_name":"楼宇机构","address":"天钥桥路1155"},{"poiid":"B2094757D068A5F8499E","title":"三夫户外用品(天钥桥路店)","lon":"121.44465","lat":"31.17978","category":"140","category_name":"体育用品店","address":"徐汇区天钥桥路859号北海大厦2楼(近零陵路)"},{"poiid":"B2094757D069A0F44192","title":"上海市公安局徐汇分局","lon":"121.444672","lat":"31.181537","category":"500","category_name":"未知分类","address":"上海徐汇区天钥桥路901号"},{"poiid":"B2094654DA6DA7FF4098","title":"新惠宾馆","lon":"121.44573","lat":"31.17825","category":"250","category_name":"公园户外","address":"徐汇区天钥桥路1001号"},{"poiid":"B2094757D069A1FD439E","title":"姑苏邨","lon":"121.44552307288","lat":"31.176713112403","category":"68","category_name":"快餐厅","address":"徐汇区天钥桥路909号(近中山南二路)"},{"poiid":"B2094757D068A5FF499D","title":"艳阳红涮肉馆","lon":"121.44558","lat":"31.18003","category":"86","category_name":"火锅店","address":"徐汇区中山南二路999号(近天钥桥路)"},{"poiid":"B2094655D26FAAF9419D","title":"上海市宛平中学","lon":"121.44718","lat":"31.17884","category":"55","category_name":"中学","address":"徐汇区宛南六村46号(近天钥桥路)"},{"poiid":"B2094757D16DA6FE4793","title":"宛平医院","lon":"121.449437","lat":"31.180191","category":"162","category_name":"医院","address":"上海双峰路446号"},{"poiid":"B2094654DA6DA7F8479B","title":"枫林街道社区卫生服务中心","lon":"121.4493","lat":"31.18004","category":"162","category_name":"医院","address":"徐汇区双峰路450号(近中山南二路)"},{"poiid":"B2094654DA6DA7FF409C","title":"喜士多便利连锁(天钥桥路)","lon":"121.44519","lat":"31.17903","category":"117","category_name":"便民商店/便利店","address":"徐汇区天钥桥路907号"},{"poiid":"B2094753D569AAFC429D","title":"上海八万人体育馆","lon":"121.446014","lat":"31.179534","category":"500","category_name":"未知分类","address":"上海市 上海市徐汇区"},{"poiid":"B2094654DA6DA7FF419E","title":"永琪美容美发(天钥桥路)","lon":"121.44527","lat":"31.17969","category":"148","category_name":"美容美发店","address":"徐汇区天钥桥路905号"},{"poiid":"B2094655D264AAF84798","title":"徐汇苑酒店式公寓","lon":"121.44482","lat":"31.17756","category":"250","category_name":"公园户外","address":""},{"poiid":"B2094654DA6DA7FF4192","title":"梅园新村","lon":"121.44589","lat":"31.18017","category":"47","category_name":"住宅区","address":"中山南二路1023弄1-20号"},{"poiid":"B2094757D469A0F5449A","title":"程新双峰小吃","lon":"121.44896415472","lat":"31.180590560618","category":"68","category_name":"快餐厅","address":"徐汇区双峰路双峰街市旁"},{"poiid":"B2094757D16CA6F9439E","title":"ceo会所","lon":"121.44702625","lat":"31.178939652","category":"500","category_name":"未知分类","address":"上海八万人体育场"},{"poiid":"B2094654DB65A1FC4998","title":"中国电信南区电信局","lon":"121.44496","lat":"31.17814","category":"263","category_name":"公司","address":"天钥桥路980号"},{"poiid":"B2094752D26FA4F9479E","title":"创意大院2577","lon":"121.446361","lat":"31.179799","category":"263","category_name":"公司","address":"龙华路2577号"},{"poiid":"B2094753D66BA7FF4692","title":"绿地中心正大乐城","lon":"121.447257","lat":"31.180236","category":"500","category_name":"未知分类","address":"上海市 东安路599号"},{"poiid":"B2094752D369A4FE479C","title":"锦江乐园","lon":"121.44651","lat":"31.180184","category":"500","category_name":"未知分类","address":null},{"poiid":"B2094753D56EA2FE4199","title":"龙华寺三尺精舍","lon":"121.448318","lat":"31.179548","category":"244","category_name":"寺庙道观","address":"上海市 上海市徐汇区龙华路2853号"},{"poiid":"B2094757D16DA7FA469B","title":"红辣椒湘菜馆(天钥桥路店)","lon":"121.44784","lat":"31.18208","category":"77","category_name":"湖南菜","address":"徐汇区中山南二路969号(近天钥桥路)"},{"poiid":"B2094655D269AAFB449C","title":"DREAMBOX摄影会所","lon":"121.4453","lat":"31.17861","category":"247","category_name":"餐饮美食","address":"徐汇区天钥桥路909号D1国际创意空间3号楼301室(近中山南二路)"},{"poiid":"B2094757D66DAAFD469F","title":"玫瑰私人莊園","lon":"121.44563053","lat":"31.179051663","category":"500","category_name":"未知分类","address":null},{"poiid":"B2094655D268A7F8479B","title":"龙华新村小区","lon":"121.4463","lat":"31.17778","category":"47","category_name":"住宅区","address":""},{"poiid":"B2094655D26AA7FF4298","title":"云裳室内设计","lon":"121.4453","lat":"31.17861","category":"247","category_name":"餐饮美食","address":"徐汇区天钥桥路909号1号楼2楼(近中山南二路)"},{"poiid":"B2094757D164A4F5409C","title":"复旦大学继续教育学院","lon":"121.445919586","lat":"31.180968468","category":"671","category_name":"高校中心点","address":"上海东安路130号"},{"poiid":"B2094654DA6DA7FE469E","title":"协昌小区","lon":"121.44444","lat":"31.179728","category":"47","category_name":"住宅区","address":"中山南二路1057弄"},{"poiid":"B2094751D564ABF94392","title":"top sports","lon":"121.445649","lat":"31.178898","category":"248","category_name":"生活娱乐","address":"上海天钥桥路666号八万人体育场2号扶梯下"},{"poiid":"B2094750D668AAF8479F","title":"腾飞广场","lon":"121.444862","lat":"31.179262","category":"500","category_name":"未知分类","address":"天钥桥路"},{"poiid":"B2094655D268ABFC439C","title":"宛南六村(西门)","lon":"121.44508","lat":"31.17931","category":"47","category_name":"住宅区","address":"天钥桥路905弄"},{"poiid":"B2094654DA6DA7F8429E","title":"中山苑","lon":"121.44663","lat":"31.181137","category":"47","category_name":"住宅区","address":"中山南二路999弄"},{"poiid":"B2094654DB65A2FC4099","title":"煤科公寓","lon":"121.44532","lat":"31.180462","category":"47","category_name":"住宅区","address":"中山南二路1023弄1-20号"},{"poiid":"B2094654DA6DA7F84299","title":"中信中山大楼","lon":"121.44656","lat":"31.18141","category":"46","category_name":"楼宇","address":"中山南二路999弄1-19号"},{"poiid":"B2094757D169A4FC4299","title":"徐汇苑健身会所","lon":"121.44497","lat":"31.17836","category":"148","category_name":"美容美发店","address":"徐汇区天钥桥路968号"},{"poiid":"B2094752D66EA7FD409F","title":"徐匯苑","lon":"121.444931","lat":"31.178375","category":"47","category_name":"住宅区","address":null}]