[{"poiid":"B2094757D06FA1FA4998","title":"顺风大酒店(八佰伴店)","lon":"121.515659538","lat":"31.2273559388","category":"75","category_name":"浙江菜","address":"浦东新区张杨路501号第一八佰伴9楼(近浦东南路)"},{"poiid":"B2094655D26AABF8479C","title":"钱柜(浦东旗舰店)","lon":"121.51532","lat":"31.22747","category":"170","category_name":"KTV","address":"浦东新区浦东南路1118号上海湾B1楼(张杨路口)"},{"poiid":"B2094757D069ABF54993","title":"好乐迪 八百伴店","lon":"121.51498573","lat":"31.226918229","category":"170","category_name":"KTV","address":"上海市浦东新区商城路 八百伴10楼"},{"poiid":"B209475CD564A7F84392","title":"上海滩浦东香格里拉店","lon":"121.50058","lat":"31.23634","category":"119","category_name":"商场","address":"浦东富成路33号香格里拉酒店内大堂层"},{"poiid":"B2094757D168A3F4489A","title":"johnny moo(上海湾店)","lon":"121.51497373","lat":"31.22697823","category":"94","category_name":"西餐厅","address":"浦东新区张杨路333号上海湾休闲广场1楼117室(近浦东南路)"},{"poiid":"B2094757D06AA6FB479E","title":"子羽港式粤菜餐厅","lon":"121.514010738","lat":"31.2268292276","category":"72","category_name":"广东菜","address":"浦东新区浦东南路1138号上海湾广场133号铺(近张扬路)"},{"poiid":"B2094655D265A0F54793","title":"小南国世茂滨江店","lon":"121.51357","lat":"31.22296","category":"247","category_name":"餐饮美食","address":"浦东新区潍坊西路1弄18号世茂滨江内(近浦城路)"},{"poiid":"B2094757D06FABFC4993","title":"蓝堡啤酒屋(浦东南路店)","lon":"121.51626","lat":"31.22744","category":"260","category_name":"其他","address":"浦东新区浦东南路1138号上海湾广场118室(近张杨路)"},{"poiid":"B2094757D06FA1FD4698","title":"星巴克(浦城路店)","lon":"121.512253","lat":"31.227622","category":"260","category_name":"其他","address":"浦东新区浦城路367号(启新路口)"},{"poiid":"B2094757D068A7F5469D","title":"鄂尔多斯国际大厦","lon":"121.515303","lat":"31.227643","category":"46","category_name":"楼宇","address":"上海市平凉路1398号"},{"poiid":"B2094757D06FA6F8449F","title":"上海湾生活时尚中心","lon":"121.51491","lat":"31.22667","category":"119","category_name":"商场","address":"浦东新区浦东南路1138号上海湾广场内(近张杨路)"},{"poiid":"B2094757D064A7FB419C","title":"世贸滨江","lon":"121.51353927","lat":"31.222660133","category":"47","category_name":"住宅区","address":"上海世贸滨江"},{"poiid":"B2094757D06FA4F8459D","title":"一兆韦德(菊园店)","lon":"121.51270768","lat":"31.226597462","category":"148","category_name":"美容美发店","address":"浦东新区浦城路367号(近东昌路地铁站)"},{"poiid":"B2094750DB6BA2FE499E","title":"上海歌城浦东中融店","lon":"121.515861","lat":"31.226753","category":"627","category_name":"一般地点标志","address":"浦东新区浦东南路1068号中融国际商城"},{"poiid":"B2094750DA6BAAFF4493","title":"八佰伴新世纪影城","lon":"121.516845","lat":"31.226518","category":"248","category_name":"生活娱乐","address":null},{"poiid":"B2094757D069A3F5499E","title":"学俊宋记香辣蟹(潍坊西路店)","lon":"121.51451497","lat":"31.223547926","category":"71","category_name":"四川菜","address":"浦东新区潍坊西路73号(近浦城路)"},{"poiid":"B2094757D568A5FE499B","title":"伊藤家上海湾店","lon":"121.5138769","lat":"31.22671306","category":"95","category_name":"日本料理","address":"浦东新区浦城路398号上海湾广场(近张杨路)"},{"poiid":"B2094757D069A3FA4493","title":"纽约客匹萨(上海湾店)","lon":"121.515856744","lat":"31.2273749536","category":"94","category_name":"西餐厅","address":"黄浦区福建南路103号(近金陵东路)"},{"poiid":"B2094757D16EABFE439D","title":"兰馨电影院","lon":"121.514868","lat":"31.226305","category":"178","category_name":"电影院","address":"张杨路400"},{"poiid":"B2094757D069A3F4439F","title":"凯德·江临天下(Summit Panorama)","lon":"121.51181768","lat":"31.2262234648","category":"47","category_name":"住宅区","address":"上海市浦东新区浦明路233弄"},{"poiid":"B2094757D06AA3FE4492","title":"洋泾·菊园实验学校","lon":"121.512277683","lat":"31.2272614634","category":"55","category_name":"中学","address":"上海浦东新区浦城路333号"},{"poiid":"B2094757D06FA4F9459C","title":"酷圣石(上海湾店)","lon":"121.51543","lat":"31.22704","category":"113","category_name":"冷饮店","address":"浦东新区浦东南路1138号上海湾广场P134室(近张杨路)"},{"poiid":"B2094757D06BA2FB449D","title":"张杨路","lon":"121.51377868","lat":"31.225069046","category":"500","category_name":"未知分类","address":"上海张杨路"},{"poiid":"B2094750D76FA4F4489E","title":"億方砂锅粥(浦东八佰伴店)","lon":"121.515","lat":"31.2263","category":"72","category_name":"广东菜","address":"上海市浦东新区张杨路400号,(近上海湾)"},{"poiid":"B2094757D065AAFB469C","title":"新世纪影城七号厅","lon":"121.51478473","lat":"31.227090233","category":"178","category_name":"电影院","address":"上海市浦东新区张杨路501号第一八佰伴10楼"},{"poiid":"B2094655D26DA1F4449F","title":"楚炫堂生态炖鱼馆(上海湾店)","lon":"121.51387","lat":"31.22671","category":"86","category_name":"火锅店","address":"浦东新区浦东南路1138号上海湾休闲广场2楼(八佰伴对面)"},{"poiid":"B2094654DA69A6FF429B","title":"中融·国际商城(浦东南路)","lon":"121.5152","lat":"31.22828","category":"119","category_name":"商场","address":"浦东新区浦东南路1068号中融国际商城内(近张杨路)"},{"poiid":"B2094757D664A4FF469E","title":"老昌盛苏州汤包馆 浦城路店","lon":"121.513877","lat":"31.224829","category":"68","category_name":"快餐厅","address":"浦东新区浦城路531-1号(近张杨路)"},{"poiid":"B2094655D26AA7FB4898","title":"世贸滨江花园热带风情会所","lon":"121.51357","lat":"31.22296","category":"247","category_name":"餐饮美食","address":"浦东新区潍坊西路1弄世茂滨江花园16号(近浦城路)"},{"poiid":"B2094654DA69ABFB409B","title":"今夜星辰KTV","lon":"121.51394","lat":"31.2252","category":"170","category_name":"KTV","address":"浦城路550号3层"},{"poiid":"B2094654DA69A6FE4792","title":"菊园","lon":"121.51377","lat":"31.22844","category":"47","category_name":"住宅区","address":"菊园(汇豪天下)位于浦东浦民路233弄"},{"poiid":"B2094655D265AAF8459D","title":"老北京羊蝎子火锅","lon":"121.514","lat":"31.22512","category":"86","category_name":"火锅店","address":"浦城路550号"},{"poiid":"B2094751DB6CA4FD4493","title":"浦东机场T2航站楼","lon":"121.5129","lat":"31.2273","category":"500","category_name":"未知分类","address":null},{"poiid":"B2094757DB6AA0FD4893","title":"钱柜（上海湾店）","lon":"121.514","lat":"31.2267","category":"172","category_name":"酒吧","address":"浦东新区浦东南路1138号上海湾广场内(近张杨路)"},{"poiid":"B2094654DA69ABFB4098","title":"银广宾馆","lon":"121.51394","lat":"31.2252","category":"250","category_name":"公园户外","address":"浦东新区张杨路550号(近东昌路)"},{"poiid":"B2094654DA69ABFA4893","title":"浦城小区","lon":"121.51483","lat":"31.22507","category":"47","category_name":"住宅区","address":"浦城路580弄1-25号"},{"poiid":"B2094654DA69ABFA499A","title":"浦城小区(西门)","lon":"121.51406","lat":"31.22497","category":"47","category_name":"住宅区","address":"浦城路580弄1-25号"},{"poiid":"B2094655D26DA1FB439C","title":"张杨路370弄小区","lon":"121.51424","lat":"31.22574","category":"47","category_name":"住宅区","address":"张杨路370弄"},{"poiid":"B2094654DA69ABFA499F","title":"兰园小区","lon":"121.51335","lat":"31.225044","category":"47","category_name":"住宅区","address":"张扬路370弄"},{"poiid":"B2094757D16FA5F84898","title":"联华超市(浦城店)","lon":"121.51444273","lat":"31.225149191","category":"118","category_name":"超级市场","address":"上海市浦东新区浦城路550号"},{"poiid":"B2094757D16EABFF469B","title":"NYSP-New York Pizza","lon":"121.514771238","lat":"31.2271942354","category":"500","category_name":"未知分类","address":"浦东南路上海湾"},{"poiid":"B2094757D168A2FD499B","title":"宜芝多","lon":"121.5136549","lat":"31.2255352","category":"500","category_name":"未知分类","address":"上海浦城路"},{"poiid":"B2094655D26EA3FE4092","title":"张杨路370弄小区(北门)","lon":"121.51412","lat":"31.22603","category":"47","category_name":"住宅区","address":"张杨路370弄"},{"poiid":"B209475CD764A2FB459C","title":"星巴克 上海湾店","lon":"121.51367","lat":"31.22661","category":"65","category_name":"咖啡厅","address":"浦东南路1138号上海湾176-182号商铺(近张杨路)"},{"poiid":"B2094655D26DA1F54892","title":"喜扇","lon":"121.516066054","lat":"31.227388793","category":"95","category_name":"日本料理","address":"浦东南路1138号上海湾休闲广场215商铺近张杨路"},{"poiid":"B2094654DA69ABFA4898","title":"汇丰大药房浦城店","lon":"121.51438","lat":"31.22437","category":"162","category_name":"医院","address":"浦城路598"},{"poiid":"B2094757D16BA6F5469D","title":"HOFBRAUHAUS  酒吧","lon":"121.51478873","lat":"31.227116233","category":"172","category_name":"酒吧","address":"上海湾"},{"poiid":"B2094757D66CA4FB459F","title":"老昌盛","lon":"121.513309738","lat":"31.2251861926","category":"500","category_name":"未知分类","address":"上海市浦东新区浦明路"},{"poiid":"B2094757D06BA4FC409E","title":"丽妍雅集(商城路店)","lon":"121.51474012","lat":"31.22553043","category":"149","category_name":"洗浴推拿场所","address":"上海商城路1885号"},{"poiid":"B2094757DB6FA4F44192","title":"明亚思造型沙龙","lon":"121.51517026458737","lat":"31.227109525433445","category":"148","category_name":"美容美发店","address":"浦东新区张杨路333号上海湾广场123号铺(近浦东南路)"},{"poiid":"B2094757D06FA1FA4998","title":"顺风大酒店(八佰伴店)","lon":"121.515659538","lat":"31.2273559388","category":"75","category_name":"浙江菜","address":"浦东新区张杨路501号第一八佰伴9楼(近浦东南路)"},{"poiid":"B2094655D26AABF8479C","title":"钱柜(浦东旗舰店)","lon":"121.51532","lat":"31.22747","category":"170","category_name":"KTV","address":"浦东新区浦东南路1118号上海湾B1楼(张杨路口)"},{"poiid":"B2094757D069ABF54993","title":"好乐迪 八百伴店","lon":"121.51498573","lat":"31.226918229","category":"170","category_name":"KTV","address":"上海市浦东新区商城路 八百伴10楼"},{"poiid":"B209475CD564A7F84392","title":"上海滩浦东香格里拉店","lon":"121.50058","lat":"31.23634","category":"119","category_name":"商场","address":"浦东富成路33号香格里拉酒店内大堂层"},{"poiid":"B2094757D168A3F4489A","title":"johnny moo(上海湾店)","lon":"121.51497373","lat":"31.22697823","category":"94","category_name":"西餐厅","address":"浦东新区张杨路333号上海湾休闲广场1楼117室(近浦东南路)"},{"poiid":"B2094757D06AA6FB479E","title":"子羽港式粤菜餐厅","lon":"121.514010738","lat":"31.2268292276","category":"72","category_name":"广东菜","address":"浦东新区浦东南路1138号上海湾广场133号铺(近张扬路)"},{"poiid":"B2094655D265A0F54793","title":"小南国世茂滨江店","lon":"121.51357","lat":"31.22296","category":"247","category_name":"餐饮美食","address":"浦东新区潍坊西路1弄18号世茂滨江内(近浦城路)"},{"poiid":"B2094757D06FABFC4993","title":"蓝堡啤酒屋(浦东南路店)","lon":"121.51626","lat":"31.22744","category":"260","category_name":"其他","address":"浦东新区浦东南路1138号上海湾广场118室(近张杨路)"},{"poiid":"B2094757D06FA1FD4698","title":"星巴克(浦城路店)","lon":"121.512253","lat":"31.227622","category":"260","category_name":"其他","address":"浦东新区浦城路367号(启新路口)"},{"poiid":"B2094757D068A7F5469D","title":"鄂尔多斯国际大厦","lon":"121.515303","lat":"31.227643","category":"46","category_name":"楼宇","address":"上海市平凉路1398号"},{"poiid":"B2094757D06FA6F8449F","title":"上海湾生活时尚中心","lon":"121.51491","lat":"31.22667","category":"119","category_name":"商场","address":"浦东新区浦东南路1138号上海湾广场内(近张杨路)"},{"poiid":"B2094757D064A7FB419C","title":"世贸滨江","lon":"121.51353927","lat":"31.222660133","category":"47","category_name":"住宅区","address":"上海世贸滨江"},{"poiid":"B2094757D06FA4F8459D","title":"一兆韦德(菊园店)","lon":"121.51270768","lat":"31.226597462","category":"148","category_name":"美容美发店","address":"浦东新区浦城路367号(近东昌路地铁站)"},{"poiid":"B2094750DB6BA2FE499E","title":"上海歌城浦东中融店","lon":"121.515861","lat":"31.226753","category":"627","category_name":"一般地点标志","address":"浦东新区浦东南路1068号中融国际商城"},{"poiid":"B2094750DA6BAAFF4493","title":"八佰伴新世纪影城","lon":"121.516845","lat":"31.226518","category":"248","category_name":"生活娱乐","address":null},{"poiid":"B2094757D069A3F5499E","title":"学俊宋记香辣蟹(潍坊西路店)","lon":"121.51451497","lat":"31.223547926","category":"71","category_name":"四川菜","address":"浦东新区潍坊西路73号(近浦城路)"},{"poiid":"B2094757D568A5FE499B","title":"伊藤家上海湾店","lon":"121.5138769","lat":"31.22671306","category":"95","category_name":"日本料理","address":"浦东新区浦城路398号上海湾广场(近张杨路)"},{"poiid":"B2094757D069A3FA4493","title":"纽约客匹萨(上海湾店)","lon":"121.515856744","lat":"31.2273749536","category":"94","category_name":"西餐厅","address":"黄浦区福建南路103号(近金陵东路)"},{"poiid":"B2094757D16EABFE439D","title":"兰馨电影院","lon":"121.514868","lat":"31.226305","category":"178","category_name":"电影院","address":"张杨路400"},{"poiid":"B2094757D069A3F4439F","title":"凯德·江临天下(Summit Panorama)","lon":"121.51181768","lat":"31.2262234648","category":"47","category_name":"住宅区","address":"上海市浦东新区浦明路233弄"},{"poiid":"B2094757D06AA3FE4492","title":"洋泾·菊园实验学校","lon":"121.512277683","lat":"31.2272614634","category":"55","category_name":"中学","address":"上海浦东新区浦城路333号"},{"poiid":"B2094757D06FA4F9459C","title":"酷圣石(上海湾店)","lon":"121.51543","lat":"31.22704","category":"113","category_name":"冷饮店","address":"浦东新区浦东南路1138号上海湾广场P134室(近张杨路)"},{"poiid":"B2094757D06BA2FB449D","title":"张杨路","lon":"121.51377868","lat":"31.225069046","category":"500","category_name":"未知分类","address":"上海张杨路"},{"poiid":"B2094750D76FA4F4489E","title":"億方砂锅粥(浦东八佰伴店)","lon":"121.515","lat":"31.2263","category":"72","category_name":"广东菜","address":"上海市浦东新区张杨路400号,(近上海湾)"},{"poiid":"B2094757D065AAFB469C","title":"新世纪影城七号厅","lon":"121.51478473","lat":"31.227090233","category":"178","category_name":"电影院","address":"上海市浦东新区张杨路501号第一八佰伴10楼"},{"poiid":"B2094655D26DA1F4449F","title":"楚炫堂生态炖鱼馆(上海湾店)","lon":"121.51387","lat":"31.22671","category":"86","category_name":"火锅店","address":"浦东新区浦东南路1138号上海湾休闲广场2楼(八佰伴对面)"},{"poiid":"B2094654DA69A6FF429B","title":"中融·国际商城(浦东南路)","lon":"121.5152","lat":"31.22828","category":"119","category_name":"商场","address":"浦东新区浦东南路1068号中融国际商城内(近张杨路)"},{"poiid":"B2094757D664A4FF469E","title":"老昌盛苏州汤包馆 浦城路店","lon":"121.513877","lat":"31.224829","category":"68","category_name":"快餐厅","address":"浦东新区浦城路531-1号(近张杨路)"},{"poiid":"B2094655D26AA7FB4898","title":"世贸滨江花园热带风情会所","lon":"121.51357","lat":"31.22296","category":"247","category_name":"餐饮美食","address":"浦东新区潍坊西路1弄世茂滨江花园16号(近浦城路)"},{"poiid":"B2094654DA69ABFB409B","title":"今夜星辰KTV","lon":"121.51394","lat":"31.2252","category":"170","category_name":"KTV","address":"浦城路550号3层"},{"poiid":"B2094654DA69A6FE4792","title":"菊园","lon":"121.51377","lat":"31.22844","category":"47","category_name":"住宅区","address":"菊园(汇豪天下)位于浦东浦民路233弄"},{"poiid":"B2094655D265AAF8459D","title":"老北京羊蝎子火锅","lon":"121.514","lat":"31.22512","category":"86","category_name":"火锅店","address":"浦城路550号"},{"poiid":"B2094751DB6CA4FD4493","title":"浦东机场T2航站楼","lon":"121.5129","lat":"31.2273","category":"500","category_name":"未知分类","address":null},{"poiid":"B2094757DB6AA0FD4893","title":"钱柜（上海湾店）","lon":"121.514","lat":"31.2267","category":"172","category_name":"酒吧","address":"浦东新区浦东南路1138号上海湾广场内(近张杨路)"},{"poiid":"B2094654DA69ABFB4098","title":"银广宾馆","lon":"121.51394","lat":"31.2252","category":"250","category_name":"公园户外","address":"浦东新区张杨路550号(近东昌路)"},{"poiid":"B2094654DA69ABFA4893","title":"浦城小区","lon":"121.51483","lat":"31.22507","category":"47","category_name":"住宅区","address":"浦城路580弄1-25号"},{"poiid":"B2094654DA69ABFA499A","title":"浦城小区(西门)","lon":"121.51406","lat":"31.22497","category":"47","category_name":"住宅区","address":"浦城路580弄1-25号"},{"poiid":"B2094655D26DA1FB439C","title":"张杨路370弄小区","lon":"121.51424","lat":"31.22574","category":"47","category_name":"住宅区","address":"张杨路370弄"},{"poiid":"B2094654DA69ABFA499F","title":"兰园小区","lon":"121.51335","lat":"31.225044","category":"47","category_name":"住宅区","address":"张扬路370弄"},{"poiid":"B2094757D16FA5F84898","title":"联华超市(浦城店)","lon":"121.51444273","lat":"31.225149191","category":"118","category_name":"超级市场","address":"上海市浦东新区浦城路550号"},{"poiid":"B2094757D16EABFF469B","title":"NYSP-New York Pizza","lon":"121.514771238","lat":"31.2271942354","category":"500","category_name":"未知分类","address":"浦东南路上海湾"},{"poiid":"B2094757D168A2FD499B","title":"宜芝多","lon":"121.5136549","lat":"31.2255352","category":"500","category_name":"未知分类","address":"上海浦城路"},{"poiid":"B2094655D26EA3FE4092","title":"张杨路370弄小区(北门)","lon":"121.51412","lat":"31.22603","category":"47","category_name":"住宅区","address":"张杨路370弄"},{"poiid":"B209475CD764A2FB459C","title":"星巴克 上海湾店","lon":"121.51367","lat":"31.22661","category":"65","category_name":"咖啡厅","address":"浦东南路1138号上海湾176-182号商铺(近张杨路)"},{"poiid":"B2094655D26DA1F54892","title":"喜扇","lon":"121.516066054","lat":"31.227388793","category":"95","category_name":"日本料理","address":"浦东南路1138号上海湾休闲广场215商铺近张杨路"},{"poiid":"B2094654DA69ABFA4898","title":"汇丰大药房浦城店","lon":"121.51438","lat":"31.22437","category":"162","category_name":"医院","address":"浦城路598"},{"poiid":"B2094757D16BA6F5469D","title":"HOFBRAUHAUS  酒吧","lon":"121.51478873","lat":"31.227116233","category":"172","category_name":"酒吧","address":"上海湾"},{"poiid":"B2094757D66CA4FB459F","title":"老昌盛","lon":"121.513309738","lat":"31.2251861926","category":"500","category_name":"未知分类","address":"上海市浦东新区浦明路"},{"poiid":"B2094757D06BA4FC409E","title":"丽妍雅集(商城路店)","lon":"121.51474012","lat":"31.22553043","category":"149","category_name":"洗浴推拿场所","address":"上海商城路1885号"},{"poiid":"B2094757DB6FA4F44192","title":"明亚思造型沙龙","lon":"121.51517026458737","lat":"31.227109525433445","category":"148","category_name":"美容美发店","address":"浦东新区张杨路333号上海湾广场123号铺(近浦东南路)"},{"poiid":"B2094757D06FA1FA4998","title":"顺风大酒店(八佰伴店)","lon":"121.515659538","lat":"31.2273559388","category":"75","category_name":"浙江菜","address":"浦东新区张杨路501号第一八佰伴9楼(近浦东南路)"},{"poiid":"B2094655D26AABF8479C","title":"钱柜(浦东旗舰店)","lon":"121.51532","lat":"31.22747","category":"170","category_name":"KTV","address":"浦东新区浦东南路1118号上海湾B1楼(张杨路口)"},{"poiid":"B2094757D069ABF54993","title":"好乐迪 八百伴店","lon":"121.51498573","lat":"31.226918229","category":"170","category_name":"KTV","address":"上海市浦东新区商城路 八百伴10楼"},{"poiid":"B209475CD564A7F84392","title":"上海滩浦东香格里拉店","lon":"121.50058","lat":"31.23634","category":"119","category_name":"商场","address":"浦东富成路33号香格里拉酒店内大堂层"},{"poiid":"B2094757D168A3F4489A","title":"johnny moo(上海湾店)","lon":"121.51497373","lat":"31.22697823","category":"94","category_name":"西餐厅","address":"浦东新区张杨路333号上海湾休闲广场1楼117室(近浦东南路)"},{"poiid":"B2094757D06AA6FB479E","title":"子羽港式粤菜餐厅","lon":"121.514010738","lat":"31.2268292276","category":"72","category_name":"广东菜","address":"浦东新区浦东南路1138号上海湾广场133号铺(近张扬路)"},{"poiid":"B2094655D265A0F54793","title":"小南国世茂滨江店","lon":"121.51357","lat":"31.22296","category":"247","category_name":"餐饮美食","address":"浦东新区潍坊西路1弄18号世茂滨江内(近浦城路)"},{"poiid":"B2094757D06FABFC4993","title":"蓝堡啤酒屋(浦东南路店)","lon":"121.51626","lat":"31.22744","category":"260","category_name":"其他","address":"浦东新区浦东南路1138号上海湾广场118室(近张杨路)"},{"poiid":"B2094757D06FA1FD4698","title":"星巴克(浦城路店)","lon":"121.512253","lat":"31.227622","category":"260","category_name":"其他","address":"浦东新区浦城路367号(启新路口)"},{"poiid":"B2094757D068A7F5469D","title":"鄂尔多斯国际大厦","lon":"121.515303","lat":"31.227643","category":"46","category_name":"楼宇","address":"上海市平凉路1398号"},{"poiid":"B2094757D06FA6F8449F","title":"上海湾生活时尚中心","lon":"121.51491","lat":"31.22667","category":"119","category_name":"商场","address":"浦东新区浦东南路1138号上海湾广场内(近张杨路)"},{"poiid":"B2094757D064A7FB419C","title":"世贸滨江","lon":"121.51353927","lat":"31.222660133","category":"47","category_name":"住宅区","address":"上海世贸滨江"},{"poiid":"B2094757D06FA4F8459D","title":"一兆韦德(菊园店)","lon":"121.51270768","lat":"31.226597462","category":"148","category_name":"美容美发店","address":"浦东新区浦城路367号(近东昌路地铁站)"},{"poiid":"B2094750DB6BA2FE499E","title":"上海歌城浦东中融店","lon":"121.515861","lat":"31.226753","category":"627","category_name":"一般地点标志","address":"浦东新区浦东南路1068号中融国际商城"},{"poiid":"B2094750DA6BAAFF4493","title":"八佰伴新世纪影城","lon":"121.516845","lat":"31.226518","category":"248","category_name":"生活娱乐","address":null},{"poiid":"B2094757D069A3F5499E","title":"学俊宋记香辣蟹(潍坊西路店)","lon":"121.51451497","lat":"31.223547926","category":"71","category_name":"四川菜","address":"浦东新区潍坊西路73号(近浦城路)"},{"poiid":"B2094757D568A5FE499B","title":"伊藤家上海湾店","lon":"121.5138769","lat":"31.22671306","category":"95","category_name":"日本料理","address":"浦东新区浦城路398号上海湾广场(近张杨路)"},{"poiid":"B2094757D069A3FA4493","title":"纽约客匹萨(上海湾店)","lon":"121.515856744","lat":"31.2273749536","category":"94","category_name":"西餐厅","address":"黄浦区福建南路103号(近金陵东路)"},{"poiid":"B2094757D16EABFE439D","title":"兰馨电影院","lon":"121.514868","lat":"31.226305","category":"178","category_name":"电影院","address":"张杨路400"},{"poiid":"B2094757D069A3F4439F","title":"凯德·江临天下(Summit Panorama)","lon":"121.51181768","lat":"31.2262234648","category":"47","category_name":"住宅区","address":"上海市浦东新区浦明路233弄"},{"poiid":"B2094757D06AA3FE4492","title":"洋泾·菊园实验学校","lon":"121.512277683","lat":"31.2272614634","category":"55","category_name":"中学","address":"上海浦东新区浦城路333号"},{"poiid":"B2094757D06FA4F9459C","title":"酷圣石(上海湾店)","lon":"121.51543","lat":"31.22704","category":"113","category_name":"冷饮店","address":"浦东新区浦东南路1138号上海湾广场P134室(近张杨路)"},{"poiid":"B2094757D06BA2FB449D","title":"张杨路","lon":"121.51377868","lat":"31.225069046","category":"500","category_name":"未知分类","address":"上海张杨路"},{"poiid":"B2094750D76FA4F4489E","title":"億方砂锅粥(浦东八佰伴店)","lon":"121.515","lat":"31.2263","category":"72","category_name":"广东菜","address":"上海市浦东新区张杨路400号,(近上海湾)"},{"poiid":"B2094757D065AAFB469C","title":"新世纪影城七号厅","lon":"121.51478473","lat":"31.227090233","category":"178","category_name":"电影院","address":"上海市浦东新区张杨路501号第一八佰伴10楼"},{"poiid":"B2094655D26DA1F4449F","title":"楚炫堂生态炖鱼馆(上海湾店)","lon":"121.51387","lat":"31.22671","category":"86","category_name":"火锅店","address":"浦东新区浦东南路1138号上海湾休闲广场2楼(八佰伴对面)"},{"poiid":"B2094654DA69A6FF429B","title":"中融·国际商城(浦东南路)","lon":"121.5152","lat":"31.22828","category":"119","category_name":"商场","address":"浦东新区浦东南路1068号中融国际商城内(近张杨路)"},{"poiid":"B2094757D664A4FF469E","title":"老昌盛苏州汤包馆 浦城路店","lon":"121.513877","lat":"31.224829","category":"68","category_name":"快餐厅","address":"浦东新区浦城路531-1号(近张杨路)"},{"poiid":"B2094655D26AA7FB4898","title":"世贸滨江花园热带风情会所","lon":"121.51357","lat":"31.22296","category":"247","category_name":"餐饮美食","address":"浦东新区潍坊西路1弄世茂滨江花园16号(近浦城路)"},{"poiid":"B2094654DA69ABFB409B","title":"今夜星辰KTV","lon":"121.51394","lat":"31.2252","category":"170","category_name":"KTV","address":"浦城路550号3层"},{"poiid":"B2094654DA69A6FE4792","title":"菊园","lon":"121.51377","lat":"31.22844","category":"47","category_name":"住宅区","address":"菊园(汇豪天下)位于浦东浦民路233弄"},{"poiid":"B2094655D265AAF8459D","title":"老北京羊蝎子火锅","lon":"121.514","lat":"31.22512","category":"86","category_name":"火锅店","address":"浦城路550号"},{"poiid":"B2094751DB6CA4FD4493","title":"浦东机场T2航站楼","lon":"121.5129","lat":"31.2273","category":"500","category_name":"未知分类","address":null},{"poiid":"B2094757DB6AA0FD4893","title":"钱柜（上海湾店）","lon":"121.514","lat":"31.2267","category":"172","category_name":"酒吧","address":"浦东新区浦东南路1138号上海湾广场内(近张杨路)"},{"poiid":"B2094654DA69ABFB4098","title":"银广宾馆","lon":"121.51394","lat":"31.2252","category":"250","category_name":"公园户外","address":"浦东新区张杨路550号(近东昌路)"},{"poiid":"B2094654DA69ABFA4893","title":"浦城小区","lon":"121.51483","lat":"31.22507","category":"47","category_name":"住宅区","address":"浦城路580弄1-25号"},{"poiid":"B2094654DA69ABFA499A","title":"浦城小区(西门)","lon":"121.51406","lat":"31.22497","category":"47","category_name":"住宅区","address":"浦城路580弄1-25号"},{"poiid":"B2094655D26DA1FB439C","title":"张杨路370弄小区","lon":"121.51424","lat":"31.22574","category":"47","category_name":"住宅区","address":"张杨路370弄"},{"poiid":"B2094654DA69ABFA499F","title":"兰园小区","lon":"121.51335","lat":"31.225044","category":"47","category_name":"住宅区","address":"张扬路370弄"},{"poiid":"B2094757D16FA5F84898","title":"联华超市(浦城店)","lon":"121.51444273","lat":"31.225149191","category":"118","category_name":"超级市场","address":"上海市浦东新区浦城路550号"},{"poiid":"B2094757D16EABFF469B","title":"NYSP-New York Pizza","lon":"121.514771238","lat":"31.2271942354","category":"500","category_name":"未知分类","address":"浦东南路上海湾"},{"poiid":"B2094757D168A2FD499B","title":"宜芝多","lon":"121.5136549","lat":"31.2255352","category":"500","category_name":"未知分类","address":"上海浦城路"},{"poiid":"B2094655D26EA3FE4092","title":"张杨路370弄小区(北门)","lon":"121.51412","lat":"31.22603","category":"47","category_name":"住宅区","address":"张杨路370弄"},{"poiid":"B209475CD764A2FB459C","title":"星巴克 上海湾店","lon":"121.51367","lat":"31.22661","category":"65","category_name":"咖啡厅","address":"浦东南路1138号上海湾176-182号商铺(近张杨路)"},{"poiid":"B2094655D26DA1F54892","title":"喜扇","lon":"121.516066054","lat":"31.227388793","category":"95","category_name":"日本料理","address":"浦东南路1138号上海湾休闲广场215商铺近张杨路"},{"poiid":"B2094654DA69ABFA4898","title":"汇丰大药房浦城店","lon":"121.51438","lat":"31.22437","category":"162","category_name":"医院","address":"浦城路598"},{"poiid":"B2094757D16BA6F5469D","title":"HOFBRAUHAUS  酒吧","lon":"121.51478873","lat":"31.227116233","category":"172","category_name":"酒吧","address":"上海湾"},{"poiid":"B2094757D66CA4FB459F","title":"老昌盛","lon":"121.513309738","lat":"31.2251861926","category":"500","category_name":"未知分类","address":"上海市浦东新区浦明路"},{"poiid":"B2094757D06BA4FC409E","title":"丽妍雅集(商城路店)","lon":"121.51474012","lat":"31.22553043","category":"149","category_name":"洗浴推拿场所","address":"上海商城路1885号"},{"poiid":"B2094757DB6FA4F44192","title":"明亚思造型沙龙","lon":"121.51517026458737","lat":"31.227109525433445","category":"148","category_name":"美容美发店","address":"浦东新区张杨路333号上海湾广场123号铺(近浦东南路)"}]