[{"poiid":"B2094757D06EAAF4439D","title":"上海中医药大学附属曙光医院东院","lon":"121.59271571","lat":"31.187470497","category":"162","category_name":"医院","address":"浦东新区张衡路528号(近科苑路)"},{"poiid":"B2094757D06FA0FE4993","title":"复旦大学张江校区","lon":"121.59877777","lat":"31.189279556","category":"52","category_name":"高等院校","address":"上海浦东新区张衡路825号/华佗路653号"},{"poiid":"B2094655D26DA5F54593","title":"上海中医药大学","lon":"121.59185","lat":"31.19421","category":"671","category_name":"高校中心点","address":"浦东新区蔡伦路1200号中医药大学内(近华佗路)"},{"poiid":"B2094757D06FA7FD489D","title":"张江学生社区","lon":"121.59417724","lat":"31.192771911","category":"253","category_name":"校园生活","address":"上海浦东新区华佗路280弄"},{"poiid":"B2094757D06FA7FF479D","title":"上海电影艺术学院","lon":"121.5907","lat":"31.19326","category":"671","category_name":"高校中心点","address":"上海浦东新区张江高科技园区华佗路  "},{"poiid":"B2094654DA6AA6F84299","title":"上海电影艺术学院海艺剧场","lon":"121.59165","lat":"31.19153","category":"180","category_name":"剧场","address":"上海市浦东新区华陀路280弄内"},{"poiid":"B2094757D069A2F44093","title":"汤臣豪园三期","lon":"121.599478975","lat":"31.1984013163","category":"47","category_name":"住宅区","address":"上海浦东新区晨晖路828弄"},{"poiid":"B2094757D068A2FD449D","title":"张江药谷","lon":"121.606046","lat":"31.193313","category":"500","category_name":"未知分类","address":"上海蔡伦路哈雷路"},{"poiid":"B2094757D068A7F8449D","title":"上海中医药大学图书馆","lon":"121.59929","lat":"31.19239","category":"253","category_name":"校园生活","address":"浦东新区蔡伦路1200号中医药大学内(近华佗路)"},{"poiid":"B2094757D069A2FD4792","title":"上海电影艺术学院女生宿舍","lon":"121.59236297","lat":"31.192380175","category":"253","category_name":"校园生活","address":"上海市浦东新区达尔文路188号上海电影艺术学院内"},{"poiid":"B2094757D165A2FF4592","title":"复旦附属张江疯人院","lon":"121.59092797","lat":"31.191988166","category":"500","category_name":"未知分类","address":"上海浦东新区蔡伦路"},{"poiid":"B2094757D06FA1FD4392","title":"DOW陶氏(中国)有限公司","lon":"121.60351843","lat":"31.188836244","category":"263","category_name":"公司","address":"上海张衡路936号"},{"poiid":"B2094757D068A1FF4199","title":"汉高中国及亚太总部","lon":"121.602801277","lat":"31.1896089931","category":"46","category_name":"楼宇","address":"上海张衡路928号"},{"poiid":"B2094750DB6DA1FB409C","title":"海艺数字影城","lon":"121.591764","lat":"31.191023","category":"178","category_name":"电影院","address":"浦东新区华佗路280弄31号上海电影艺术学院(近中医院大学学生宿舍)"},{"poiid":"B2094757D568ABF9499F","title":"张江科教园区","lon":"121.59095","lat":"31.19291","category":"52","category_name":"高等院校","address":"华佗路280弄"},{"poiid":"B2094757D06AA2F4439B","title":"上海市计量测试技术研究院","lon":"121.606126","lat":"31.190951","category":"500","category_name":"未知分类","address":"上海张衡路1500号"},{"poiid":"B2094753D76BABF54493","title":"金桥国际广场","lon":"121.590606","lat":"31.186851","category":"500","category_name":"未知分类","address":"上海市 张扬北路金桥路"},{"poiid":"B2094757D06AA4FD4093","title":"左右城","lon":"121.59442897","lat":"31.189887117","category":"500","category_name":"未知分类","address":"上海市张衡路500弄"},{"poiid":"B2094757D06AA5FC499E","title":"信安左城酒店","lon":"121.591051","lat":"31.186133","category":"217","category_name":"旅馆招待所","address":"浦东新区高科技园区科苑路1500号"},{"poiid":"B2094757D16BA2FB4793","title":"高科苑","lon":"121.598039675","lat":"31.1916585587","category":"252","category_name":"楼宇机构","address":"上海浦东新区蔡伦路1433号"},{"poiid":"B2094757D06AA7F54098","title":"富海商务苑","lon":"121.592","lat":"31.1905","category":"252","category_name":"楼宇机构","address":"上海市奉贤区新四平公路468弄"},{"poiid":"B2094654DB69A6FC449F","title":"第一上海中心","lon":"121.59203","lat":"31.18533","category":"46","category_name":"楼宇","address":"浦东区丁香路716号"},{"poiid":"B2094654DB65A0FE4099","title":"复旦大学张江校区图书馆","lon":"121.59674","lat":"31.18971","category":"181","category_name":"图书馆","address":"上海浦东新区张衡路825号复旦大学内(近华佗路)"},{"poiid":"B2094655D36DA7FD429D","title":"张衡路科苑路","lon":"121.59187","lat":"31.18755","category":"38","category_name":"公交车站","address":""},{"poiid":"B2094655D36CA1F5429D","title":"科苑路华佗路","lon":"121.58997","lat":"31.19346","category":"38","category_name":"公交车站","address":""},{"poiid":"B2094757D06FA0FB409C","title":"复旦大学张江校区第二教学楼","lon":"121.59850405","lat":"31.1912440936","category":"253","category_name":"校园生活","address":"上海浦东新区张衡路825号(近华陀路)"},{"poiid":"B2094757D16DA5FC459F","title":"上海中医药大学7号楼","lon":"121.596009975","lat":"31.1942432191","category":"500","category_name":"未知分类","address":"上海市浦东新区高科中路"},{"poiid":"B2094757D064A2F44493","title":"上海中医药大学10号楼","lon":"121.598322","lat":"31.192951","category":"500","category_name":"未知分类","address":"上海蔡伦路1200号"},{"poiid":"B2094757D06AA5F94693","title":"帝斯曼中国园区","lon":"121.60405731","lat":"31.194208145","category":"500","category_name":"未知分类","address":"上海李冰路476号"},{"poiid":"B2094757D069A3FF469F","title":"上海中医药大学6号楼","lon":"121.592036975","lat":"31.1954202466","category":"253","category_name":"校园生活","address":"上海蔡伦路1200号"},{"poiid":"B2094757D06AAAFD4192","title":"上海中医药大学食堂","lon":"121.59832","lat":"31.19295","category":"68","category_name":"快餐厅","address":"浦东新区蔡伦路1200号中医药大学内(近华佗路)"},{"poiid":"B2094757D16AA4FC499D","title":"上海中医药大学博物馆","lon":"121.59523","lat":"31.19175","category":"179","category_name":"音乐厅","address":"浦东新区蔡伦路1200号上海中医药大学内(近华佗路)  "},{"poiid":"B2094655D26FA6FA4493","title":"上海中医药大学(南门)","lon":"121.59761","lat":"31.19235","category":"52","category_name":"高等院校","address":"蔡伦路1200号"},{"poiid":"B2094654DA6AA6F84599","title":"上海中医药大学附属曙光医院贵宾楼","lon":"121.59507","lat":"31.18717","category":"162","category_name":"医院","address":""},{"poiid":"B2094757D06FA6FA4393","title":"复旦大学张江校区食堂","lon":"121.59864765","lat":"31.190272633","category":"68","category_name":"快餐厅","address":"上海浦东新区张衡路825号(近华佗路)"},{"poiid":"B2094757D16CA5F5459A","title":"上海中医药大学8号楼","lon":"121.59598695","lat":"31.1952895389","category":"500","category_name":"未知分类","address":"上海华陀路1200号"},{"poiid":"B2094757D065ABFD409C","title":"张江有轨电车(蔡伦路金科路站)","lon":"121.599961","lat":"31.192218","category":"38","category_name":"公交车站","address":"上海蔡伦路(近金科路)"},{"poiid":"B2094757D064A5FE429A","title":"伊清斋餐厅","lon":"121.59476","lat":"31.19228","category":"90","category_name":"清真餐馆","address":"浦东新区华佗路512号(近蔡伦路)"},{"poiid":"B2094654DA6AA5FB409D","title":"上海中医药大学行政中心","lon":"121.59988","lat":"31.19413","category":"52","category_name":"高等院校","address":""},{"poiid":"B2094654DA6AA6F84592","title":"复旦大学张江校区微分析楼","lon":"121.60008","lat":"31.1919","category":"46","category_name":"楼宇","address":"上海浦东新区张衡路826上海复旦大学张江校区"},{"poiid":"B2094757D16FA6F84499","title":"上海中医药大学体育馆","lon":"121.59832","lat":"31.192951202","category":"500","category_name":"未知分类","address":"上海浦东新区蔡伦路1200号"},{"poiid":"B2094654DA6AA6F8419B","title":"上海中医药大学3号实验楼","lon":"121.5983","lat":"31.19525","category":"46","category_name":"楼宇","address":""},{"poiid":"B2094757D66FA0FA429E","title":"上海中医药大学图书馆裙楼四楼","lon":"121.600575975","lat":"31.1931421934","category":"181","category_name":"图书馆","address":"上海蔡伦路1200号"},{"poiid":"B2094655D36CA5FB449F","title":"蔡伦路金科路","lon":"121.59996","lat":"31.19221","category":"38","category_name":"公交车站","address":""},{"poiid":"B2094654DA6AA6F84198","title":"上海中医药大学4号实验楼","lon":"121.59876","lat":"31.19535","category":"46","category_name":"楼宇","address":""},{"poiid":"B2094655D36CA5FB4493","title":"蔡伦路复旦大学张江校区","lon":"121.5948","lat":"31.19086","category":"38","category_name":"公交车站","address":""},{"poiid":"B2094757D16EA6F8449F","title":"上海中医药大学足球场","lon":"121.59859","lat":"31.19268","category":"220","category_name":"运动场所","address":"浦东新区蔡伦路1200号中医药大学内(近华佗路)"},{"poiid":"B2094757D069A1FD419E","title":"复旦大学张江校区校车起点站(张江-邯郸)","lon":"121.59995115","lat":"31.190210643","category":"38","category_name":"公交车站","address":"上海浦东新区张衡路825号复旦大学张江校区内(近微电子楼)"},{"poiid":"B2094757D06BA3FE4893","title":"上海中医药大学8号教学楼","lon":"121.59670895","lat":"31.191755373","category":"500","category_name":"未知分类","address":"上海浦东新区蔡伦路1200号"},{"poiid":"B2094654DA6AA6F8419A","title":"上海中医药大学教学实验中心","lon":"121.59767","lat":"31.19495","category":"52","category_name":"高等院校","address":""},{"poiid":"B2094757D06EAAF4439D","title":"上海中医药大学附属曙光医院东院","lon":"121.59271571","lat":"31.187470497","category":"162","category_name":"医院","address":"浦东新区张衡路528号(近科苑路)"},{"poiid":"B2094757D06FA0FE4993","title":"复旦大学张江校区","lon":"121.59877777","lat":"31.189279556","category":"52","category_name":"高等院校","address":"上海浦东新区张衡路825号/华佗路653号"},{"poiid":"B2094655D26DA5F54593","title":"上海中医药大学","lon":"121.59185","lat":"31.19421","category":"671","category_name":"高校中心点","address":"浦东新区蔡伦路1200号中医药大学内(近华佗路)"},{"poiid":"B2094757D06FA7FD489D","title":"张江学生社区","lon":"121.59417724","lat":"31.192771911","category":"253","category_name":"校园生活","address":"上海浦东新区华佗路280弄"},{"poiid":"B2094757D06FA7FF479D","title":"上海电影艺术学院","lon":"121.5907","lat":"31.19326","category":"671","category_name":"高校中心点","address":"上海浦东新区张江高科技园区华佗路  "},{"poiid":"B2094654DA6AA6F84299","title":"上海电影艺术学院海艺剧场","lon":"121.59165","lat":"31.19153","category":"180","category_name":"剧场","address":"上海市浦东新区华陀路280弄内"},{"poiid":"B2094757D069A2F44093","title":"汤臣豪园三期","lon":"121.599478975","lat":"31.1984013163","category":"47","category_name":"住宅区","address":"上海浦东新区晨晖路828弄"},{"poiid":"B2094757D068A2FD449D","title":"张江药谷","lon":"121.606046","lat":"31.193313","category":"500","category_name":"未知分类","address":"上海蔡伦路哈雷路"},{"poiid":"B2094757D068A7F8449D","title":"上海中医药大学图书馆","lon":"121.59929","lat":"31.19239","category":"253","category_name":"校园生活","address":"浦东新区蔡伦路1200号中医药大学内(近华佗路)"},{"poiid":"B2094757D069A2FD4792","title":"上海电影艺术学院女生宿舍","lon":"121.59236297","lat":"31.192380175","category":"253","category_name":"校园生活","address":"上海市浦东新区达尔文路188号上海电影艺术学院内"},{"poiid":"B2094757D165A2FF4592","title":"复旦附属张江疯人院","lon":"121.59092797","lat":"31.191988166","category":"500","category_name":"未知分类","address":"上海浦东新区蔡伦路"},{"poiid":"B2094757D06FA1FD4392","title":"DOW陶氏(中国)有限公司","lon":"121.60351843","lat":"31.188836244","category":"263","category_name":"公司","address":"上海张衡路936号"},{"poiid":"B2094757D068A1FF4199","title":"汉高中国及亚太总部","lon":"121.602801277","lat":"31.1896089931","category":"46","category_name":"楼宇","address":"上海张衡路928号"},{"poiid":"B2094750DB6DA1FB409C","title":"海艺数字影城","lon":"121.591764","lat":"31.191023","category":"178","category_name":"电影院","address":"浦东新区华佗路280弄31号上海电影艺术学院(近中医院大学学生宿舍)"},{"poiid":"B2094757D568ABF9499F","title":"张江科教园区","lon":"121.59095","lat":"31.19291","category":"52","category_name":"高等院校","address":"华佗路280弄"},{"poiid":"B2094757D06AA2F4439B","title":"上海市计量测试技术研究院","lon":"121.606126","lat":"31.190951","category":"500","category_name":"未知分类","address":"上海张衡路1500号"},{"poiid":"B2094753D76BABF54493","title":"金桥国际广场","lon":"121.590606","lat":"31.186851","category":"500","category_name":"未知分类","address":"上海市 张扬北路金桥路"},{"poiid":"B2094757D06AA4FD4093","title":"左右城","lon":"121.59442897","lat":"31.189887117","category":"500","category_name":"未知分类","address":"上海市张衡路500弄"},{"poiid":"B2094757D06AA5FC499E","title":"信安左城酒店","lon":"121.591051","lat":"31.186133","category":"217","category_name":"旅馆招待所","address":"浦东新区高科技园区科苑路1500号"},{"poiid":"B2094757D16BA2FB4793","title":"高科苑","lon":"121.598039675","lat":"31.1916585587","category":"252","category_name":"楼宇机构","address":"上海浦东新区蔡伦路1433号"},{"poiid":"B2094757D06AA7F54098","title":"富海商务苑","lon":"121.592","lat":"31.1905","category":"252","category_name":"楼宇机构","address":"上海市奉贤区新四平公路468弄"},{"poiid":"B2094654DB69A6FC449F","title":"第一上海中心","lon":"121.59203","lat":"31.18533","category":"46","category_name":"楼宇","address":"浦东区丁香路716号"},{"poiid":"B2094654DB65A0FE4099","title":"复旦大学张江校区图书馆","lon":"121.59674","lat":"31.18971","category":"181","category_name":"图书馆","address":"上海浦东新区张衡路825号复旦大学内(近华佗路)"},{"poiid":"B2094655D36DA7FD429D","title":"张衡路科苑路","lon":"121.59187","lat":"31.18755","category":"38","category_name":"公交车站","address":""},{"poiid":"B2094655D36CA1F5429D","title":"科苑路华佗路","lon":"121.58997","lat":"31.19346","category":"38","category_name":"公交车站","address":""},{"poiid":"B2094757D06FA0FB409C","title":"复旦大学张江校区第二教学楼","lon":"121.59850405","lat":"31.1912440936","category":"253","category_name":"校园生活","address":"上海浦东新区张衡路825号(近华陀路)"},{"poiid":"B2094757D16DA5FC459F","title":"上海中医药大学7号楼","lon":"121.596009975","lat":"31.1942432191","category":"500","category_name":"未知分类","address":"上海市浦东新区高科中路"},{"poiid":"B2094757D064A2F44493","title":"上海中医药大学10号楼","lon":"121.598322","lat":"31.192951","category":"500","category_name":"未知分类","address":"上海蔡伦路1200号"},{"poiid":"B2094757D06AA5F94693","title":"帝斯曼中国园区","lon":"121.60405731","lat":"31.194208145","category":"500","category_name":"未知分类","address":"上海李冰路476号"},{"poiid":"B2094757D069A3FF469F","title":"上海中医药大学6号楼","lon":"121.592036975","lat":"31.1954202466","category":"253","category_name":"校园生活","address":"上海蔡伦路1200号"},{"poiid":"B2094757D06AAAFD4192","title":"上海中医药大学食堂","lon":"121.59832","lat":"31.19295","category":"68","category_name":"快餐厅","address":"浦东新区蔡伦路1200号中医药大学内(近华佗路)"},{"poiid":"B2094757D16AA4FC499D","title":"上海中医药大学博物馆","lon":"121.59523","lat":"31.19175","category":"179","category_name":"音乐厅","address":"浦东新区蔡伦路1200号上海中医药大学内(近华佗路)  "},{"poiid":"B2094655D26FA6FA4493","title":"上海中医药大学(南门)","lon":"121.59761","lat":"31.19235","category":"52","category_name":"高等院校","address":"蔡伦路1200号"},{"poiid":"B2094654DA6AA6F84599","title":"上海中医药大学附属曙光医院贵宾楼","lon":"121.59507","lat":"31.18717","category":"162","category_name":"医院","address":""},{"poiid":"B2094757D06FA6FA4393","title":"复旦大学张江校区食堂","lon":"121.59864765","lat":"31.190272633","category":"68","category_name":"快餐厅","address":"上海浦东新区张衡路825号(近华佗路)"},{"poiid":"B2094757D16CA5F5459A","title":"上海中医药大学8号楼","lon":"121.59598695","lat":"31.1952895389","category":"500","category_name":"未知分类","address":"上海华陀路1200号"},{"poiid":"B2094757D065ABFD409C","title":"张江有轨电车(蔡伦路金科路站)","lon":"121.599961","lat":"31.192218","category":"38","category_name":"公交车站","address":"上海蔡伦路(近金科路)"},{"poiid":"B2094757D064A5FE429A","title":"伊清斋餐厅","lon":"121.59476","lat":"31.19228","category":"90","category_name":"清真餐馆","address":"浦东新区华佗路512号(近蔡伦路)"},{"poiid":"B2094654DA6AA5FB409D","title":"上海中医药大学行政中心","lon":"121.59988","lat":"31.19413","category":"52","category_name":"高等院校","address":""},{"poiid":"B2094654DA6AA6F84592","title":"复旦大学张江校区微分析楼","lon":"121.60008","lat":"31.1919","category":"46","category_name":"楼宇","address":"上海浦东新区张衡路826上海复旦大学张江校区"},{"poiid":"B2094757D16FA6F84499","title":"上海中医药大学体育馆","lon":"121.59832","lat":"31.192951202","category":"500","category_name":"未知分类","address":"上海浦东新区蔡伦路1200号"},{"poiid":"B2094654DA6AA6F8419B","title":"上海中医药大学3号实验楼","lon":"121.5983","lat":"31.19525","category":"46","category_name":"楼宇","address":""},{"poiid":"B2094757D66FA0FA429E","title":"上海中医药大学图书馆裙楼四楼","lon":"121.600575975","lat":"31.1931421934","category":"181","category_name":"图书馆","address":"上海蔡伦路1200号"},{"poiid":"B2094655D36CA5FB449F","title":"蔡伦路金科路","lon":"121.59996","lat":"31.19221","category":"38","category_name":"公交车站","address":""},{"poiid":"B2094654DA6AA6F84198","title":"上海中医药大学4号实验楼","lon":"121.59876","lat":"31.19535","category":"46","category_name":"楼宇","address":""},{"poiid":"B2094655D36CA5FB4493","title":"蔡伦路复旦大学张江校区","lon":"121.5948","lat":"31.19086","category":"38","category_name":"公交车站","address":""},{"poiid":"B2094757D16EA6F8449F","title":"上海中医药大学足球场","lon":"121.59859","lat":"31.19268","category":"220","category_name":"运动场所","address":"浦东新区蔡伦路1200号中医药大学内(近华佗路)"},{"poiid":"B2094757D069A1FD419E","title":"复旦大学张江校区校车起点站(张江-邯郸)","lon":"121.59995115","lat":"31.190210643","category":"38","category_name":"公交车站","address":"上海浦东新区张衡路825号复旦大学张江校区内(近微电子楼)"},{"poiid":"B2094757D06BA3FE4893","title":"上海中医药大学8号教学楼","lon":"121.59670895","lat":"31.191755373","category":"500","category_name":"未知分类","address":"上海浦东新区蔡伦路1200号"},{"poiid":"B2094654DA6AA6F8419A","title":"上海中医药大学教学实验中心","lon":"121.59767","lat":"31.19495","category":"52","category_name":"高等院校","address":""},{"poiid":"B2094757D06EAAF4439D","title":"上海中医药大学附属曙光医院东院","lon":"121.59271571","lat":"31.187470497","category":"162","category_name":"医院","address":"浦东新区张衡路528号(近科苑路)"},{"poiid":"B2094757D06FA0FE4993","title":"复旦大学张江校区","lon":"121.59877777","lat":"31.189279556","category":"52","category_name":"高等院校","address":"上海浦东新区张衡路825号/华佗路653号"},{"poiid":"B2094655D26DA5F54593","title":"上海中医药大学","lon":"121.59185","lat":"31.19421","category":"671","category_name":"高校中心点","address":"浦东新区蔡伦路1200号中医药大学内(近华佗路)"},{"poiid":"B2094757D06FA7FD489D","title":"张江学生社区","lon":"121.59417724","lat":"31.192771911","category":"253","category_name":"校园生活","address":"上海浦东新区华佗路280弄"},{"poiid":"B2094757D06FA7FF479D","title":"上海电影艺术学院","lon":"121.5907","lat":"31.19326","category":"671","category_name":"高校中心点","address":"上海浦东新区张江高科技园区华佗路  "},{"poiid":"B2094654DA6AA6F84299","title":"上海电影艺术学院海艺剧场","lon":"121.59165","lat":"31.19153","category":"180","category_name":"剧场","address":"上海市浦东新区华陀路280弄内"},{"poiid":"B2094757D069A2F44093","title":"汤臣豪园三期","lon":"121.599478975","lat":"31.1984013163","category":"47","category_name":"住宅区","address":"上海浦东新区晨晖路828弄"},{"poiid":"B2094757D068A2FD449D","title":"张江药谷","lon":"121.606046","lat":"31.193313","category":"500","category_name":"未知分类","address":"上海蔡伦路哈雷路"},{"poiid":"B2094757D068A7F8449D","title":"上海中医药大学图书馆","lon":"121.59929","lat":"31.19239","category":"253","category_name":"校园生活","address":"浦东新区蔡伦路1200号中医药大学内(近华佗路)"},{"poiid":"B2094757D069A2FD4792","title":"上海电影艺术学院女生宿舍","lon":"121.59236297","lat":"31.192380175","category":"253","category_name":"校园生活","address":"上海市浦东新区达尔文路188号上海电影艺术学院内"},{"poiid":"B2094757D165A2FF4592","title":"复旦附属张江疯人院","lon":"121.59092797","lat":"31.191988166","category":"500","category_name":"未知分类","address":"上海浦东新区蔡伦路"},{"poiid":"B2094757D06FA1FD4392","title":"DOW陶氏(中国)有限公司","lon":"121.60351843","lat":"31.188836244","category":"263","category_name":"公司","address":"上海张衡路936号"},{"poiid":"B2094757D068A1FF4199","title":"汉高中国及亚太总部","lon":"121.602801277","lat":"31.1896089931","category":"46","category_name":"楼宇","address":"上海张衡路928号"},{"poiid":"B2094750DB6DA1FB409C","title":"海艺数字影城","lon":"121.591764","lat":"31.191023","category":"178","category_name":"电影院","address":"浦东新区华佗路280弄31号上海电影艺术学院(近中医院大学学生宿舍)"},{"poiid":"B2094757D568ABF9499F","title":"张江科教园区","lon":"121.59095","lat":"31.19291","category":"52","category_name":"高等院校","address":"华佗路280弄"},{"poiid":"B2094757D06AA2F4439B","title":"上海市计量测试技术研究院","lon":"121.606126","lat":"31.190951","category":"500","category_name":"未知分类","address":"上海张衡路1500号"},{"poiid":"B2094753D76BABF54493","title":"金桥国际广场","lon":"121.590606","lat":"31.186851","category":"500","category_name":"未知分类","address":"上海市 张扬北路金桥路"},{"poiid":"B2094757D06AA4FD4093","title":"左右城","lon":"121.59442897","lat":"31.189887117","category":"500","category_name":"未知分类","address":"上海市张衡路500弄"},{"poiid":"B2094757D06AA5FC499E","title":"信安左城酒店","lon":"121.591051","lat":"31.186133","category":"217","category_name":"旅馆招待所","address":"浦东新区高科技园区科苑路1500号"},{"poiid":"B2094757D16BA2FB4793","title":"高科苑","lon":"121.598039675","lat":"31.1916585587","category":"252","category_name":"楼宇机构","address":"上海浦东新区蔡伦路1433号"},{"poiid":"B2094757D06AA7F54098","title":"富海商务苑","lon":"121.592","lat":"31.1905","category":"252","category_name":"楼宇机构","address":"上海市奉贤区新四平公路468弄"},{"poiid":"B2094654DB69A6FC449F","title":"第一上海中心","lon":"121.59203","lat":"31.18533","category":"46","category_name":"楼宇","address":"浦东区丁香路716号"},{"poiid":"B2094654DB65A0FE4099","title":"复旦大学张江校区图书馆","lon":"121.59674","lat":"31.18971","category":"181","category_name":"图书馆","address":"上海浦东新区张衡路825号复旦大学内(近华佗路)"},{"poiid":"B2094655D36DA7FD429D","title":"张衡路科苑路","lon":"121.59187","lat":"31.18755","category":"38","category_name":"公交车站","address":""},{"poiid":"B2094655D36CA1F5429D","title":"科苑路华佗路","lon":"121.58997","lat":"31.19346","category":"38","category_name":"公交车站","address":""},{"poiid":"B2094757D06FA0FB409C","title":"复旦大学张江校区第二教学楼","lon":"121.59850405","lat":"31.1912440936","category":"253","category_name":"校园生活","address":"上海浦东新区张衡路825号(近华陀路)"},{"poiid":"B2094757D16DA5FC459F","title":"上海中医药大学7号楼","lon":"121.596009975","lat":"31.1942432191","category":"500","category_name":"未知分类","address":"上海市浦东新区高科中路"},{"poiid":"B2094757D064A2F44493","title":"上海中医药大学10号楼","lon":"121.598322","lat":"31.192951","category":"500","category_name":"未知分类","address":"上海蔡伦路1200号"},{"poiid":"B2094757D06AA5F94693","title":"帝斯曼中国园区","lon":"121.60405731","lat":"31.194208145","category":"500","category_name":"未知分类","address":"上海李冰路476号"},{"poiid":"B2094757D069A3FF469F","title":"上海中医药大学6号楼","lon":"121.592036975","lat":"31.1954202466","category":"253","category_name":"校园生活","address":"上海蔡伦路1200号"},{"poiid":"B2094757D06AAAFD4192","title":"上海中医药大学食堂","lon":"121.59832","lat":"31.19295","category":"68","category_name":"快餐厅","address":"浦东新区蔡伦路1200号中医药大学内(近华佗路)"},{"poiid":"B2094757D16AA4FC499D","title":"上海中医药大学博物馆","lon":"121.59523","lat":"31.19175","category":"179","category_name":"音乐厅","address":"浦东新区蔡伦路1200号上海中医药大学内(近华佗路)  "},{"poiid":"B2094655D26FA6FA4493","title":"上海中医药大学(南门)","lon":"121.59761","lat":"31.19235","category":"52","category_name":"高等院校","address":"蔡伦路1200号"},{"poiid":"B2094654DA6AA6F84599","title":"上海中医药大学附属曙光医院贵宾楼","lon":"121.59507","lat":"31.18717","category":"162","category_name":"医院","address":""},{"poiid":"B2094757D06FA6FA4393","title":"复旦大学张江校区食堂","lon":"121.59864765","lat":"31.190272633","category":"68","category_name":"快餐厅","address":"上海浦东新区张衡路825号(近华佗路)"},{"poiid":"B2094757D16CA5F5459A","title":"上海中医药大学8号楼","lon":"121.59598695","lat":"31.1952895389","category":"500","category_name":"未知分类","address":"上海华陀路1200号"},{"poiid":"B2094757D065ABFD409C","title":"张江有轨电车(蔡伦路金科路站)","lon":"121.599961","lat":"31.192218","category":"38","category_name":"公交车站","address":"上海蔡伦路(近金科路)"},{"poiid":"B2094757D064A5FE429A","title":"伊清斋餐厅","lon":"121.59476","lat":"31.19228","category":"90","category_name":"清真餐馆","address":"浦东新区华佗路512号(近蔡伦路)"},{"poiid":"B2094654DA6AA5FB409D","title":"上海中医药大学行政中心","lon":"121.59988","lat":"31.19413","category":"52","category_name":"高等院校","address":""},{"poiid":"B2094654DA6AA6F84592","title":"复旦大学张江校区微分析楼","lon":"121.60008","lat":"31.1919","category":"46","category_name":"楼宇","address":"上海浦东新区张衡路826上海复旦大学张江校区"},{"poiid":"B2094757D16FA6F84499","title":"上海中医药大学体育馆","lon":"121.59832","lat":"31.192951202","category":"500","category_name":"未知分类","address":"上海浦东新区蔡伦路1200号"},{"poiid":"B2094654DA6AA6F8419B","title":"上海中医药大学3号实验楼","lon":"121.5983","lat":"31.19525","category":"46","category_name":"楼宇","address":""},{"poiid":"B2094757D66FA0FA429E","title":"上海中医药大学图书馆裙楼四楼","lon":"121.600575975","lat":"31.1931421934","category":"181","category_name":"图书馆","address":"上海蔡伦路1200号"},{"poiid":"B2094655D36CA5FB449F","title":"蔡伦路金科路","lon":"121.59996","lat":"31.19221","category":"38","category_name":"公交车站","address":""},{"poiid":"B2094654DA6AA6F84198","title":"上海中医药大学4号实验楼","lon":"121.59876","lat":"31.19535","category":"46","category_name":"楼宇","address":""},{"poiid":"B2094655D36CA5FB4493","title":"蔡伦路复旦大学张江校区","lon":"121.5948","lat":"31.19086","category":"38","category_name":"公交车站","address":""},{"poiid":"B2094757D16EA6F8449F","title":"上海中医药大学足球场","lon":"121.59859","lat":"31.19268","category":"220","category_name":"运动场所","address":"浦东新区蔡伦路1200号中医药大学内(近华佗路)"},{"poiid":"B2094757D069A1FD419E","title":"复旦大学张江校区校车起点站(张江-邯郸)","lon":"121.59995115","lat":"31.190210643","category":"38","category_name":"公交车站","address":"上海浦东新区张衡路825号复旦大学张江校区内(近微电子楼)"},{"poiid":"B2094757D06BA3FE4893","title":"上海中医药大学8号教学楼","lon":"121.59670895","lat":"31.191755373","category":"500","category_name":"未知分类","address":"上海浦东新区蔡伦路1200号"},{"poiid":"B2094654DA6AA6F8419A","title":"上海中医药大学教学实验中心","lon":"121.59767","lat":"31.19495","category":"52","category_name":"高等院校","address":""},{"poiid":"B2094757D06EAAF4439D","title":"上海中医药大学附属曙光医院东院","lon":"121.59271571","lat":"31.187470497","category":"162","category_name":"医院","address":"浦东新区张衡路528号(近科苑路)"},{"poiid":"B2094757D06FA0FE4993","title":"复旦大学张江校区","lon":"121.59877777","lat":"31.189279556","category":"52","category_name":"高等院校","address":"上海浦东新区张衡路825号/华佗路653号"},{"poiid":"B2094655D26DA5F54593","title":"上海中医药大学","lon":"121.59185","lat":"31.19421","category":"671","category_name":"高校中心点","address":"浦东新区蔡伦路1200号中医药大学内(近华佗路)"},{"poiid":"B2094757D06FA7FD489D","title":"张江学生社区","lon":"121.59417724","lat":"31.192771911","category":"253","category_name":"校园生活","address":"上海浦东新区华佗路280弄"},{"poiid":"B2094757D06FA7FF479D","title":"上海电影艺术学院","lon":"121.5907","lat":"31.19326","category":"671","category_name":"高校中心点","address":"上海浦东新区张江高科技园区华佗路  "},{"poiid":"B2094654DA6AA6F84299","title":"上海电影艺术学院海艺剧场","lon":"121.59165","lat":"31.19153","category":"180","category_name":"剧场","address":"上海市浦东新区华陀路280弄内"},{"poiid":"B2094757D069A2F44093","title":"汤臣豪园三期","lon":"121.599478975","lat":"31.1984013163","category":"47","category_name":"住宅区","address":"上海浦东新区晨晖路828弄"},{"poiid":"B2094757D068A2FD449D","title":"张江药谷","lon":"121.606046","lat":"31.193313","category":"500","category_name":"未知分类","address":"上海蔡伦路哈雷路"},{"poiid":"B2094757D068A7F8449D","title":"上海中医药大学图书馆","lon":"121.59929","lat":"31.19239","category":"253","category_name":"校园生活","address":"浦东新区蔡伦路1200号中医药大学内(近华佗路)"},{"poiid":"B2094757D069A2FD4792","title":"上海电影艺术学院女生宿舍","lon":"121.59236297","lat":"31.192380175","category":"253","category_name":"校园生活","address":"上海市浦东新区达尔文路188号上海电影艺术学院内"},{"poiid":"B2094757D165A2FF4592","title":"复旦附属张江疯人院","lon":"121.59092797","lat":"31.191988166","category":"500","category_name":"未知分类","address":"上海浦东新区蔡伦路"},{"poiid":"B2094757D06FA1FD4392","title":"DOW陶氏(中国)有限公司","lon":"121.60351843","lat":"31.188836244","category":"263","category_name":"公司","address":"上海张衡路936号"},{"poiid":"B2094757D068A1FF4199","title":"汉高中国及亚太总部","lon":"121.602801277","lat":"31.1896089931","category":"46","category_name":"楼宇","address":"上海张衡路928号"},{"poiid":"B2094750DB6DA1FB409C","title":"海艺数字影城","lon":"121.591764","lat":"31.191023","category":"178","category_name":"电影院","address":"浦东新区华佗路280弄31号上海电影艺术学院(近中医院大学学生宿舍)"},{"poiid":"B2094757D568ABF9499F","title":"张江科教园区","lon":"121.59095","lat":"31.19291","category":"52","category_name":"高等院校","address":"华佗路280弄"},{"poiid":"B2094757D06AA2F4439B","title":"上海市计量测试技术研究院","lon":"121.606126","lat":"31.190951","category":"500","category_name":"未知分类","address":"上海张衡路1500号"},{"poiid":"B2094753D76BABF54493","title":"金桥国际广场","lon":"121.590606","lat":"31.186851","category":"500","category_name":"未知分类","address":"上海市 张扬北路金桥路"},{"poiid":"B2094757D06AA4FD4093","title":"左右城","lon":"121.59442897","lat":"31.189887117","category":"500","category_name":"未知分类","address":"上海市张衡路500弄"},{"poiid":"B2094757D06AA5FC499E","title":"信安左城酒店","lon":"121.591051","lat":"31.186133","category":"217","category_name":"旅馆招待所","address":"浦东新区高科技园区科苑路1500号"},{"poiid":"B2094757D16BA2FB4793","title":"高科苑","lon":"121.598039675","lat":"31.1916585587","category":"252","category_name":"楼宇机构","address":"上海浦东新区蔡伦路1433号"},{"poiid":"B2094757D06AA7F54098","title":"富海商务苑","lon":"121.592","lat":"31.1905","category":"252","category_name":"楼宇机构","address":"上海市奉贤区新四平公路468弄"},{"poiid":"B2094654DB69A6FC449F","title":"第一上海中心","lon":"121.59203","lat":"31.18533","category":"46","category_name":"楼宇","address":"浦东区丁香路716号"},{"poiid":"B2094654DB65A0FE4099","title":"复旦大学张江校区图书馆","lon":"121.59674","lat":"31.18971","category":"181","category_name":"图书馆","address":"上海浦东新区张衡路825号复旦大学内(近华佗路)"},{"poiid":"B2094655D36DA7FD429D","title":"张衡路科苑路","lon":"121.59187","lat":"31.18755","category":"38","category_name":"公交车站","address":""},{"poiid":"B2094655D36CA1F5429D","title":"科苑路华佗路","lon":"121.58997","lat":"31.19346","category":"38","category_name":"公交车站","address":""},{"poiid":"B2094757D06FA0FB409C","title":"复旦大学张江校区第二教学楼","lon":"121.59850405","lat":"31.1912440936","category":"253","category_name":"校园生活","address":"上海浦东新区张衡路825号(近华陀路)"},{"poiid":"B2094757D16DA5FC459F","title":"上海中医药大学7号楼","lon":"121.596009975","lat":"31.1942432191","category":"500","category_name":"未知分类","address":"上海市浦东新区高科中路"},{"poiid":"B2094757D064A2F44493","title":"上海中医药大学10号楼","lon":"121.598322","lat":"31.192951","category":"500","category_name":"未知分类","address":"上海蔡伦路1200号"},{"poiid":"B2094757D06AA5F94693","title":"帝斯曼中国园区","lon":"121.60405731","lat":"31.194208145","category":"500","category_name":"未知分类","address":"上海李冰路476号"},{"poiid":"B2094757D069A3FF469F","title":"上海中医药大学6号楼","lon":"121.592036975","lat":"31.1954202466","category":"253","category_name":"校园生活","address":"上海蔡伦路1200号"},{"poiid":"B2094757D06AAAFD4192","title":"上海中医药大学食堂","lon":"121.59832","lat":"31.19295","category":"68","category_name":"快餐厅","address":"浦东新区蔡伦路1200号中医药大学内(近华佗路)"},{"poiid":"B2094757D16AA4FC499D","title":"上海中医药大学博物馆","lon":"121.59523","lat":"31.19175","category":"179","category_name":"音乐厅","address":"浦东新区蔡伦路1200号上海中医药大学内(近华佗路)  "},{"poiid":"B2094655D26FA6FA4493","title":"上海中医药大学(南门)","lon":"121.59761","lat":"31.19235","category":"52","category_name":"高等院校","address":"蔡伦路1200号"},{"poiid":"B2094654DA6AA6F84599","title":"上海中医药大学附属曙光医院贵宾楼","lon":"121.59507","lat":"31.18717","category":"162","category_name":"医院","address":""},{"poiid":"B2094757D06FA6FA4393","title":"复旦大学张江校区食堂","lon":"121.59864765","lat":"31.190272633","category":"68","category_name":"快餐厅","address":"上海浦东新区张衡路825号(近华佗路)"},{"poiid":"B2094757D16CA5F5459A","title":"上海中医药大学8号楼","lon":"121.59598695","lat":"31.1952895389","category":"500","category_name":"未知分类","address":"上海华陀路1200号"},{"poiid":"B2094757D065ABFD409C","title":"张江有轨电车(蔡伦路金科路站)","lon":"121.599961","lat":"31.192218","category":"38","category_name":"公交车站","address":"上海蔡伦路(近金科路)"},{"poiid":"B2094757D064A5FE429A","title":"伊清斋餐厅","lon":"121.59476","lat":"31.19228","category":"90","category_name":"清真餐馆","address":"浦东新区华佗路512号(近蔡伦路)"},{"poiid":"B2094654DA6AA5FB409D","title":"上海中医药大学行政中心","lon":"121.59988","lat":"31.19413","category":"52","category_name":"高等院校","address":""},{"poiid":"B2094654DA6AA6F84592","title":"复旦大学张江校区微分析楼","lon":"121.60008","lat":"31.1919","category":"46","category_name":"楼宇","address":"上海浦东新区张衡路826上海复旦大学张江校区"},{"poiid":"B2094757D16FA6F84499","title":"上海中医药大学体育馆","lon":"121.59832","lat":"31.192951202","category":"500","category_name":"未知分类","address":"上海浦东新区蔡伦路1200号"},{"poiid":"B2094654DA6AA6F8419B","title":"上海中医药大学3号实验楼","lon":"121.5983","lat":"31.19525","category":"46","category_name":"楼宇","address":""},{"poiid":"B2094757D66FA0FA429E","title":"上海中医药大学图书馆裙楼四楼","lon":"121.600575975","lat":"31.1931421934","category":"181","category_name":"图书馆","address":"上海蔡伦路1200号"},{"poiid":"B2094655D36CA5FB449F","title":"蔡伦路金科路","lon":"121.59996","lat":"31.19221","category":"38","category_name":"公交车站","address":""},{"poiid":"B2094654DA6AA6F84198","title":"上海中医药大学4号实验楼","lon":"121.59876","lat":"31.19535","category":"46","category_name":"楼宇","address":""},{"poiid":"B2094655D36CA5FB4493","title":"蔡伦路复旦大学张江校区","lon":"121.5948","lat":"31.19086","category":"38","category_name":"公交车站","address":""},{"poiid":"B2094757D16EA6F8449F","title":"上海中医药大学足球场","lon":"121.59859","lat":"31.19268","category":"220","category_name":"运动场所","address":"浦东新区蔡伦路1200号中医药大学内(近华佗路)"},{"poiid":"B2094757D069A1FD419E","title":"复旦大学张江校区校车起点站(张江-邯郸)","lon":"121.59995115","lat":"31.190210643","category":"38","category_name":"公交车站","address":"上海浦东新区张衡路825号复旦大学张江校区内(近微电子楼)"},{"poiid":"B2094757D06BA3FE4893","title":"上海中医药大学8号教学楼","lon":"121.59670895","lat":"31.191755373","category":"500","category_name":"未知分类","address":"上海浦东新区蔡伦路1200号"},{"poiid":"B2094654DA6AA6F8419A","title":"上海中医药大学教学实验中心","lon":"121.59767","lat":"31.19495","category":"52","category_name":"高等院校","address":""}]