[{"poiid":"B2094655D36DA6FF489D","title":"上海梅赛德斯-奔驰文化中心（上海世博文化中心）","lon":"121.49779","lat":"31.1796","category":"248","category_name":"生活娱乐","address":"上海市浦东新区世博大道1200号 （毗邻中国馆与世博轴，西沿上南路，东临高科西路 ）"},{"poiid":"B2094655D26FA2FB479A","title":"麦当劳(齐河路店)","lon":"121.50288","lat":"31.17886","category":"68","category_name":"快餐厅","address":"浦东新区齐河路258号(近云台路)"},{"poiid":"B2094757D06FA3F44399","title":"呷哺呷哺(昌里店)","lon":"121.49681973","lat":"31.174919122","category":"86","category_name":"火锅店","address":"浦东新区上南路1150-1号三钢里2楼B单元(近昌里路)"},{"poiid":"B2094757D06FA6F9469D","title":"陌生人火锅餐厅(昌里路店)","lon":"121.50075","lat":"31.17503","category":"86","category_name":"火锅店","address":"浦东新区昌里路113号(近洪山路)"},{"poiid":"B2094757D06FA1F54398","title":"沃尔玛(上南齐河店)","lon":"121.503158536","lat":"31.1784074908","category":"118","category_name":"超级市场","address":"浦东新区齐河路258号(齐河路云台路)"},{"poiid":"B2094757D068A1FC429A","title":"上南五村","lon":"121.49947","lat":"31.178671","category":"47","category_name":"住宅区","address":"上海浦东南路洪山路"},{"poiid":"B2094454D26EABF9479C","title":"炉鱼","lon":"121.497749","lat":"31.178005","category":"247","category_name":"餐饮美食","address":"上海市 世博源"},{"poiid":"B2094757D06FA4FD4999","title":"蔓趣公园","lon":"121.500140407","lat":"31.1745680506","category":"196","category_name":"公园","address":"上海浦东新区洪山路(近昌里路)"},{"poiid":"B2094757D068A1FC4399","title":"大富贵酒楼(昌里店)","lon":"121.500982","lat":"31.175561","category":"76","category_name":"上海菜","address":"浦东新区昌里路109号"},{"poiid":"B2094757D06FA7F5469A","title":"上南二村","lon":"121.49665","lat":"31.177719","category":"47","category_name":"住宅区","address":"上海浦东新区上南路929弄(近上南路)"},{"poiid":"B2094757D568A4F44398","title":"现代映象-昌里花园","lon":"121.5034481","lat":"31.17818","category":"47","category_name":"住宅区","address":"现代映象―昌里花园位于浦东云台路179号"},{"poiid":"B2094757D06AA1F9479E","title":"阿明苏州汤包馆","lon":"121.498678938","lat":"31.1749335226","category":"247","category_name":"餐饮美食","address":"上海浦东新区昌里路127号(近洪山路)"},{"poiid":"B2094655D36CA5FA419E","title":"昌里路洪山路","lon":"121.50014","lat":"31.17516","category":"38","category_name":"公交车站","address":""},{"poiid":"B2094757D16EA5FD439B","title":"上南一村","lon":"121.4976","lat":"31.178314","category":"252","category_name":"楼宇机构","address":"上海市浦东新上南一村"},{"poiid":"B2094757D465A7FC419F","title":"六角亭饭店","lon":"121.498037","lat":"31.179202","category":"76","category_name":"上海菜","address":"浦东新区浦东南路4959号(近洪山路)"},{"poiid":"B2094757D068A5FE409B","title":"京世造型(齐河路店)","lon":"121.50303073","lat":"31.179385217","category":"148","category_name":"美容美发店","address":"上海浦东新区齐河路258号沃尔玛超市1楼(近云台路)"},{"poiid":"B2094757D068A4FE479D","title":"上南中学","lon":"121.50254","lat":"31.17541","category":"55","category_name":"中学","address":"上海浦东新区昌里路93弄1号  "},{"poiid":"B2094655D26EA5F54993","title":"西门烤鸭","lon":"121.499110054","lat":"31.177414793","category":"68","category_name":"快餐厅","address":"浦东新区洪山路168号(齐河路口)"},{"poiid":"B2094654DA68A0FE459A","title":"王中王(洪山路)","lon":"121.49926","lat":"31.1771","category":"257","category_name":"中餐厅","address":"浦东新区洪山路161号(近齐河路)"},{"poiid":"B2094757D068A0F8419F","title":"避风塘茶楼(昌里店)","lon":"121.50165","lat":"31.17536","category":"260","category_name":"其他","address":"浦东新区昌里路107号(近洪山路)"},{"poiid":"B2094654DB65A6F9429C","title":"避风塘 昌里店","lon":"121.500625054","lat":"31.175711793","category":"111","category_name":"休闲餐饮场所","address":"浦东新区昌里东路294号(近东明路)"},{"poiid":"B209475DDA6AA4F9459A","title":"世博源","lon":"121.498336","lat":"31.176551","category":"249","category_name":"购物服务","address":"上海市 浦东新区世博大道1368号"},{"poiid":"B2094757D16DA2FB4899","title":"洪山医院","lon":"121.498763","lat":"31.17692","category":"162","category_name":"医院","address":"浦东新区洪山路160号(洪山路齐河路)"},{"poiid":"B2094757D06BA4F4469C","title":"85度C(齐河店)","lon":"121.503306929","lat":"31.1791645821","category":"67","category_name":"甜品店","address":"浦东新区齐河路258号沃尔玛超市1楼(近味千拉面)"},{"poiid":"B2094757D16EA2FB439E","title":"浦东南路云台路路口","lon":"121.50020073","lat":"31.181478261","category":"500","category_name":"未知分类","address":"上海市浦东新区浦东南路"},{"poiid":"B2094655D26EA2FC409E","title":"北京馋嘴鸭 洪山路店","lon":"121.49771","lat":"31.1788","category":"68","category_name":"快餐厅","address":"浦东新区洪山路122号(洪山路浦东南路)"},{"poiid":"B2094757D06FA0FF429D","title":"超级鸡车 昌里路店 Super Gcar","lon":"121.49907","lat":"31.17495","category":"68","category_name":"快餐厅","address":"浦东新区昌里路134号(近洪山路)"},{"poiid":"B2094757D069A1FE459C","title":"都可茶饮(昌里店)","lon":"121.499721","lat":"31.174086","category":"113","category_name":"冷饮店","address":"浦东新区昌里路134号(近洪山路)"},{"poiid":"B2094654DB6AA3FD4692","title":"洪山医院肿瘤防治院","lon":"121.49876","lat":"31.17692","category":"162","category_name":"医院","address":"上海市浦东新区洪山路160号"},{"poiid":"B2094757D16DA1FF459F","title":"洪山路烧烤摊","lon":"121.49875","lat":"31.17533","category":"68","category_name":"快餐厅","address":"上海洪山路上齐河路浦东南路之间上南五村对面"},{"poiid":"B2094654DA68A0F9419A","title":"齐河菜市场","lon":"121.50004","lat":"31.17839","category":"117","category_name":"便民商店/便利店","address":"齐河路23"},{"poiid":"B2094757D06AA0FB4298","title":"上南六村","lon":"121.50181","lat":"31.176195","category":"500","category_name":"未知分类","address":"上海浦东齐河路28弄齐河路10弄,洪山路164号"},{"poiid":"B2094757D068A5F4439E","title":"乔家栅(上南路店)","lon":"121.49646","lat":"31.17851","category":"257","category_name":"中餐厅","address":"浦东新区浦东南路5017号(近上南路)"},{"poiid":"B2094757D06AA7F4429D","title":"清流中学","lon":"121.49547","lat":"31.17731","category":"55","category_name":"中学","address":"浦东新区上南路801号(浦东南路上南路)"},{"poiid":"B2094750D66AA5F4419A","title":"菲菲天然水晶-碧玺直销","lon":"121.499755","lat":"31.178193","category":"131","category_name":"珠宝首饰工艺品","address":"浦东新区齐河路18号"},{"poiid":"B2094654DA68A0FE4292","title":"上海市黄浦区肿瘤防治院","lon":"121.49876","lat":"31.17692","category":"162","category_name":"医院","address":"洪山路160号"},{"poiid":"B2094654DA68A0FE4399","title":"可的(洪山路)","lon":"121.49808","lat":"31.17881","category":"117","category_name":"便民商店/便利店","address":"浦东新区洪山路122号(洪山路浦东南路)"},{"poiid":"B2094654DB64A4F5409A","title":"心园8+8咖啡馆","lon":"121.49915","lat":"31.17568","category":"68","category_name":"快餐厅","address":"浦东新区洪山路190号(近昌里路)"},{"poiid":"B2094757D468A4F84498","title":"来亿锅羊蝎子火锅 洪山路店","lon":"121.497333","lat":"31.180673","category":"86","category_name":"火锅店","address":"浦东新区洪山路91号(近浦东南路)"},{"poiid":"B2094757D16EA5FC459A","title":"浦东新区医疗保险事务分中心","lon":"121.499153","lat":"31.177334","category":"500","category_name":"未知分类","address":"上海洪山路168号"},{"poiid":"B2094655D26FABFA499B","title":"上南一村东门(上南一村东)","lon":"121.4982","lat":"31.17841","category":"47","category_name":"住宅区","address":""},{"poiid":"B209475CD66DAAF4419C","title":"虹口足球场","lon":"121.49884","lat":"31.176818","category":"220","category_name":"运动场所","address":"上海市 上海市虹口区"},{"poiid":"B2094757D06AABF8459C","title":"帕瑞仕护肤造型中心","lon":"121.49899173","lat":"31.175388132","category":"148","category_name":"美容美发店","address":"上海市浦东新区昌里路"},{"poiid":"B2094757D56CABFA499E","title":"国际饭店西饼屋 昌里路店","lon":"121.498911","lat":"31.174944","category":"112","category_name":"糕饼店","address":"浦东新区昌里路137号老同盛内(近洪山路)"},{"poiid":"B2094757D66DA4FE4098","title":"扬歌","lon":"121.49819773","lat":"31.175663138","category":"249","category_name":"购物服务","address":"上海昌里路"},{"poiid":"B2094757D068A1F94499","title":"上南四村","lon":"121.502","lat":"31.1786","category":"252","category_name":"楼宇机构","address":"上海上南路1251弄上南四村"},{"poiid":"B2094655D26BA2F5449D","title":"浦东南路洪山路","lon":"121.49867","lat":"31.1802","category":"38","category_name":"公交车站","address":"上海市浦东新区"},{"poiid":"B2094655D36CA7FF489E","title":"洪山路浦东南路","lon":"121.49805","lat":"31.1792","category":"38","category_name":"公交车站","address":""},{"poiid":"B2094757D16DA7FA4799","title":"地铁七号线船厂路站","lon":"121.496757338","lat":"31.1784061965","category":"500","category_name":"未知分类","address":"上海船厂路东安路"},{"poiid":"B2094654DA68A0F94498","title":"上海市上南五村小学","lon":"121.50108","lat":"31.17933","category":"56","category_name":"小学","address":"浦东新区齐河路27弄1号"},{"poiid":"B2094655D36DA6FF489D","title":"上海梅赛德斯-奔驰文化中心（上海世博文化中心）","lon":"121.49779","lat":"31.1796","category":"248","category_name":"生活娱乐","address":"上海市浦东新区世博大道1200号 （毗邻中国馆与世博轴，西沿上南路，东临高科西路 ）"},{"poiid":"B2094655D26FA2FB479A","title":"麦当劳(齐河路店)","lon":"121.50288","lat":"31.17886","category":"68","category_name":"快餐厅","address":"浦东新区齐河路258号(近云台路)"},{"poiid":"B2094757D06FA3F44399","title":"呷哺呷哺(昌里店)","lon":"121.49681973","lat":"31.174919122","category":"86","category_name":"火锅店","address":"浦东新区上南路1150-1号三钢里2楼B单元(近昌里路)"},{"poiid":"B2094757D06FA6F9469D","title":"陌生人火锅餐厅(昌里路店)","lon":"121.50075","lat":"31.17503","category":"86","category_name":"火锅店","address":"浦东新区昌里路113号(近洪山路)"},{"poiid":"B2094757D06FA1F54398","title":"沃尔玛(上南齐河店)","lon":"121.503158536","lat":"31.1784074908","category":"118","category_name":"超级市场","address":"浦东新区齐河路258号(齐河路云台路)"},{"poiid":"B2094757D068A1FC429A","title":"上南五村","lon":"121.49947","lat":"31.178671","category":"47","category_name":"住宅区","address":"上海浦东南路洪山路"},{"poiid":"B2094454D26EABF9479C","title":"炉鱼","lon":"121.497749","lat":"31.178005","category":"247","category_name":"餐饮美食","address":"上海市 世博源"},{"poiid":"B2094757D06FA4FD4999","title":"蔓趣公园","lon":"121.500140407","lat":"31.1745680506","category":"196","category_name":"公园","address":"上海浦东新区洪山路(近昌里路)"},{"poiid":"B2094757D068A1FC4399","title":"大富贵酒楼(昌里店)","lon":"121.500982","lat":"31.175561","category":"76","category_name":"上海菜","address":"浦东新区昌里路109号"},{"poiid":"B2094757D06FA7F5469A","title":"上南二村","lon":"121.49665","lat":"31.177719","category":"47","category_name":"住宅区","address":"上海浦东新区上南路929弄(近上南路)"},{"poiid":"B2094757D568A4F44398","title":"现代映象-昌里花园","lon":"121.5034481","lat":"31.17818","category":"47","category_name":"住宅区","address":"现代映象―昌里花园位于浦东云台路179号"},{"poiid":"B2094757D06AA1F9479E","title":"阿明苏州汤包馆","lon":"121.498678938","lat":"31.1749335226","category":"247","category_name":"餐饮美食","address":"上海浦东新区昌里路127号(近洪山路)"},{"poiid":"B2094655D36CA5FA419E","title":"昌里路洪山路","lon":"121.50014","lat":"31.17516","category":"38","category_name":"公交车站","address":""},{"poiid":"B2094757D16EA5FD439B","title":"上南一村","lon":"121.4976","lat":"31.178314","category":"252","category_name":"楼宇机构","address":"上海市浦东新上南一村"},{"poiid":"B2094757D465A7FC419F","title":"六角亭饭店","lon":"121.498037","lat":"31.179202","category":"76","category_name":"上海菜","address":"浦东新区浦东南路4959号(近洪山路)"},{"poiid":"B2094757D068A5FE409B","title":"京世造型(齐河路店)","lon":"121.50303073","lat":"31.179385217","category":"148","category_name":"美容美发店","address":"上海浦东新区齐河路258号沃尔玛超市1楼(近云台路)"},{"poiid":"B2094757D068A4FE479D","title":"上南中学","lon":"121.50254","lat":"31.17541","category":"55","category_name":"中学","address":"上海浦东新区昌里路93弄1号  "},{"poiid":"B2094655D26EA5F54993","title":"西门烤鸭","lon":"121.499110054","lat":"31.177414793","category":"68","category_name":"快餐厅","address":"浦东新区洪山路168号(齐河路口)"},{"poiid":"B2094654DA68A0FE459A","title":"王中王(洪山路)","lon":"121.49926","lat":"31.1771","category":"257","category_name":"中餐厅","address":"浦东新区洪山路161号(近齐河路)"},{"poiid":"B2094757D068A0F8419F","title":"避风塘茶楼(昌里店)","lon":"121.50165","lat":"31.17536","category":"260","category_name":"其他","address":"浦东新区昌里路107号(近洪山路)"},{"poiid":"B2094654DB65A6F9429C","title":"避风塘 昌里店","lon":"121.500625054","lat":"31.175711793","category":"111","category_name":"休闲餐饮场所","address":"浦东新区昌里东路294号(近东明路)"},{"poiid":"B209475DDA6AA4F9459A","title":"世博源","lon":"121.498336","lat":"31.176551","category":"249","category_name":"购物服务","address":"上海市 浦东新区世博大道1368号"},{"poiid":"B2094757D16DA2FB4899","title":"洪山医院","lon":"121.498763","lat":"31.17692","category":"162","category_name":"医院","address":"浦东新区洪山路160号(洪山路齐河路)"},{"poiid":"B2094757D06BA4F4469C","title":"85度C(齐河店)","lon":"121.503306929","lat":"31.1791645821","category":"67","category_name":"甜品店","address":"浦东新区齐河路258号沃尔玛超市1楼(近味千拉面)"},{"poiid":"B2094757D16EA2FB439E","title":"浦东南路云台路路口","lon":"121.50020073","lat":"31.181478261","category":"500","category_name":"未知分类","address":"上海市浦东新区浦东南路"},{"poiid":"B2094655D26EA2FC409E","title":"北京馋嘴鸭 洪山路店","lon":"121.49771","lat":"31.1788","category":"68","category_name":"快餐厅","address":"浦东新区洪山路122号(洪山路浦东南路)"},{"poiid":"B2094757D06FA0FF429D","title":"超级鸡车 昌里路店 Super Gcar","lon":"121.49907","lat":"31.17495","category":"68","category_name":"快餐厅","address":"浦东新区昌里路134号(近洪山路)"},{"poiid":"B2094757D069A1FE459C","title":"都可茶饮(昌里店)","lon":"121.499721","lat":"31.174086","category":"113","category_name":"冷饮店","address":"浦东新区昌里路134号(近洪山路)"},{"poiid":"B2094654DB6AA3FD4692","title":"洪山医院肿瘤防治院","lon":"121.49876","lat":"31.17692","category":"162","category_name":"医院","address":"上海市浦东新区洪山路160号"},{"poiid":"B2094757D16DA1FF459F","title":"洪山路烧烤摊","lon":"121.49875","lat":"31.17533","category":"68","category_name":"快餐厅","address":"上海洪山路上齐河路浦东南路之间上南五村对面"},{"poiid":"B2094654DA68A0F9419A","title":"齐河菜市场","lon":"121.50004","lat":"31.17839","category":"117","category_name":"便民商店/便利店","address":"齐河路23"},{"poiid":"B2094757D06AA0FB4298","title":"上南六村","lon":"121.50181","lat":"31.176195","category":"500","category_name":"未知分类","address":"上海浦东齐河路28弄齐河路10弄,洪山路164号"},{"poiid":"B2094757D068A5F4439E","title":"乔家栅(上南路店)","lon":"121.49646","lat":"31.17851","category":"257","category_name":"中餐厅","address":"浦东新区浦东南路5017号(近上南路)"},{"poiid":"B2094757D06AA7F4429D","title":"清流中学","lon":"121.49547","lat":"31.17731","category":"55","category_name":"中学","address":"浦东新区上南路801号(浦东南路上南路)"},{"poiid":"B2094750D66AA5F4419A","title":"菲菲天然水晶-碧玺直销","lon":"121.499755","lat":"31.178193","category":"131","category_name":"珠宝首饰工艺品","address":"浦东新区齐河路18号"},{"poiid":"B2094654DA68A0FE4292","title":"上海市黄浦区肿瘤防治院","lon":"121.49876","lat":"31.17692","category":"162","category_name":"医院","address":"洪山路160号"},{"poiid":"B2094654DA68A0FE4399","title":"可的(洪山路)","lon":"121.49808","lat":"31.17881","category":"117","category_name":"便民商店/便利店","address":"浦东新区洪山路122号(洪山路浦东南路)"},{"poiid":"B2094654DB64A4F5409A","title":"心园8+8咖啡馆","lon":"121.49915","lat":"31.17568","category":"68","category_name":"快餐厅","address":"浦东新区洪山路190号(近昌里路)"},{"poiid":"B2094757D468A4F84498","title":"来亿锅羊蝎子火锅 洪山路店","lon":"121.497333","lat":"31.180673","category":"86","category_name":"火锅店","address":"浦东新区洪山路91号(近浦东南路)"},{"poiid":"B2094757D16EA5FC459A","title":"浦东新区医疗保险事务分中心","lon":"121.499153","lat":"31.177334","category":"500","category_name":"未知分类","address":"上海洪山路168号"},{"poiid":"B2094655D26FABFA499B","title":"上南一村东门(上南一村东)","lon":"121.4982","lat":"31.17841","category":"47","category_name":"住宅区","address":""},{"poiid":"B209475CD66DAAF4419C","title":"虹口足球场","lon":"121.49884","lat":"31.176818","category":"220","category_name":"运动场所","address":"上海市 上海市虹口区"},{"poiid":"B2094757D06AABF8459C","title":"帕瑞仕护肤造型中心","lon":"121.49899173","lat":"31.175388132","category":"148","category_name":"美容美发店","address":"上海市浦东新区昌里路"},{"poiid":"B2094757D56CABFA499E","title":"国际饭店西饼屋 昌里路店","lon":"121.498911","lat":"31.174944","category":"112","category_name":"糕饼店","address":"浦东新区昌里路137号老同盛内(近洪山路)"},{"poiid":"B2094757D66DA4FE4098","title":"扬歌","lon":"121.49819773","lat":"31.175663138","category":"249","category_name":"购物服务","address":"上海昌里路"},{"poiid":"B2094757D068A1F94499","title":"上南四村","lon":"121.502","lat":"31.1786","category":"252","category_name":"楼宇机构","address":"上海上南路1251弄上南四村"},{"poiid":"B2094655D26BA2F5449D","title":"浦东南路洪山路","lon":"121.49867","lat":"31.1802","category":"38","category_name":"公交车站","address":"上海市浦东新区"},{"poiid":"B2094655D36CA7FF489E","title":"洪山路浦东南路","lon":"121.49805","lat":"31.1792","category":"38","category_name":"公交车站","address":""},{"poiid":"B2094757D16DA7FA4799","title":"地铁七号线船厂路站","lon":"121.496757338","lat":"31.1784061965","category":"500","category_name":"未知分类","address":"上海船厂路东安路"},{"poiid":"B2094654DA68A0F94498","title":"上海市上南五村小学","lon":"121.50108","lat":"31.17933","category":"56","category_name":"小学","address":"浦东新区齐河路27弄1号"},{"poiid":"B2094655D36DA6FF489D","title":"上海梅赛德斯-奔驰文化中心（上海世博文化中心）","lon":"121.49779","lat":"31.1796","category":"248","category_name":"生活娱乐","address":"上海市浦东新区世博大道1200号 （毗邻中国馆与世博轴，西沿上南路，东临高科西路 ）"},{"poiid":"B2094655D26FA2FB479A","title":"麦当劳(齐河路店)","lon":"121.50288","lat":"31.17886","category":"68","category_name":"快餐厅","address":"浦东新区齐河路258号(近云台路)"},{"poiid":"B2094757D06FA3F44399","title":"呷哺呷哺(昌里店)","lon":"121.49681973","lat":"31.174919122","category":"86","category_name":"火锅店","address":"浦东新区上南路1150-1号三钢里2楼B单元(近昌里路)"},{"poiid":"B2094757D06FA6F9469D","title":"陌生人火锅餐厅(昌里路店)","lon":"121.50075","lat":"31.17503","category":"86","category_name":"火锅店","address":"浦东新区昌里路113号(近洪山路)"},{"poiid":"B2094757D06FA1F54398","title":"沃尔玛(上南齐河店)","lon":"121.503158536","lat":"31.1784074908","category":"118","category_name":"超级市场","address":"浦东新区齐河路258号(齐河路云台路)"},{"poiid":"B2094757D068A1FC429A","title":"上南五村","lon":"121.49947","lat":"31.178671","category":"47","category_name":"住宅区","address":"上海浦东南路洪山路"},{"poiid":"B2094454D26EABF9479C","title":"炉鱼","lon":"121.497749","lat":"31.178005","category":"247","category_name":"餐饮美食","address":"上海市 世博源"},{"poiid":"B2094757D06FA4FD4999","title":"蔓趣公园","lon":"121.500140407","lat":"31.1745680506","category":"196","category_name":"公园","address":"上海浦东新区洪山路(近昌里路)"},{"poiid":"B2094757D068A1FC4399","title":"大富贵酒楼(昌里店)","lon":"121.500982","lat":"31.175561","category":"76","category_name":"上海菜","address":"浦东新区昌里路109号"},{"poiid":"B2094757D06FA7F5469A","title":"上南二村","lon":"121.49665","lat":"31.177719","category":"47","category_name":"住宅区","address":"上海浦东新区上南路929弄(近上南路)"},{"poiid":"B2094757D568A4F44398","title":"现代映象-昌里花园","lon":"121.5034481","lat":"31.17818","category":"47","category_name":"住宅区","address":"现代映象―昌里花园位于浦东云台路179号"},{"poiid":"B2094757D06AA1F9479E","title":"阿明苏州汤包馆","lon":"121.498678938","lat":"31.1749335226","category":"247","category_name":"餐饮美食","address":"上海浦东新区昌里路127号(近洪山路)"},{"poiid":"B2094655D36CA5FA419E","title":"昌里路洪山路","lon":"121.50014","lat":"31.17516","category":"38","category_name":"公交车站","address":""},{"poiid":"B2094757D16EA5FD439B","title":"上南一村","lon":"121.4976","lat":"31.178314","category":"252","category_name":"楼宇机构","address":"上海市浦东新上南一村"},{"poiid":"B2094757D465A7FC419F","title":"六角亭饭店","lon":"121.498037","lat":"31.179202","category":"76","category_name":"上海菜","address":"浦东新区浦东南路4959号(近洪山路)"},{"poiid":"B2094757D068A5FE409B","title":"京世造型(齐河路店)","lon":"121.50303073","lat":"31.179385217","category":"148","category_name":"美容美发店","address":"上海浦东新区齐河路258号沃尔玛超市1楼(近云台路)"},{"poiid":"B2094757D068A4FE479D","title":"上南中学","lon":"121.50254","lat":"31.17541","category":"55","category_name":"中学","address":"上海浦东新区昌里路93弄1号  "},{"poiid":"B2094655D26EA5F54993","title":"西门烤鸭","lon":"121.499110054","lat":"31.177414793","category":"68","category_name":"快餐厅","address":"浦东新区洪山路168号(齐河路口)"},{"poiid":"B2094654DA68A0FE459A","title":"王中王(洪山路)","lon":"121.49926","lat":"31.1771","category":"257","category_name":"中餐厅","address":"浦东新区洪山路161号(近齐河路)"},{"poiid":"B2094757D068A0F8419F","title":"避风塘茶楼(昌里店)","lon":"121.50165","lat":"31.17536","category":"260","category_name":"其他","address":"浦东新区昌里路107号(近洪山路)"},{"poiid":"B2094654DB65A6F9429C","title":"避风塘 昌里店","lon":"121.500625054","lat":"31.175711793","category":"111","category_name":"休闲餐饮场所","address":"浦东新区昌里东路294号(近东明路)"},{"poiid":"B209475DDA6AA4F9459A","title":"世博源","lon":"121.498336","lat":"31.176551","category":"249","category_name":"购物服务","address":"上海市 浦东新区世博大道1368号"},{"poiid":"B2094757D16DA2FB4899","title":"洪山医院","lon":"121.498763","lat":"31.17692","category":"162","category_name":"医院","address":"浦东新区洪山路160号(洪山路齐河路)"},{"poiid":"B2094757D06BA4F4469C","title":"85度C(齐河店)","lon":"121.503306929","lat":"31.1791645821","category":"67","category_name":"甜品店","address":"浦东新区齐河路258号沃尔玛超市1楼(近味千拉面)"},{"poiid":"B2094757D16EA2FB439E","title":"浦东南路云台路路口","lon":"121.50020073","lat":"31.181478261","category":"500","category_name":"未知分类","address":"上海市浦东新区浦东南路"},{"poiid":"B2094655D26EA2FC409E","title":"北京馋嘴鸭 洪山路店","lon":"121.49771","lat":"31.1788","category":"68","category_name":"快餐厅","address":"浦东新区洪山路122号(洪山路浦东南路)"},{"poiid":"B2094757D06FA0FF429D","title":"超级鸡车 昌里路店 Super Gcar","lon":"121.49907","lat":"31.17495","category":"68","category_name":"快餐厅","address":"浦东新区昌里路134号(近洪山路)"},{"poiid":"B2094757D069A1FE459C","title":"都可茶饮(昌里店)","lon":"121.499721","lat":"31.174086","category":"113","category_name":"冷饮店","address":"浦东新区昌里路134号(近洪山路)"},{"poiid":"B2094654DB6AA3FD4692","title":"洪山医院肿瘤防治院","lon":"121.49876","lat":"31.17692","category":"162","category_name":"医院","address":"上海市浦东新区洪山路160号"},{"poiid":"B2094757D16DA1FF459F","title":"洪山路烧烤摊","lon":"121.49875","lat":"31.17533","category":"68","category_name":"快餐厅","address":"上海洪山路上齐河路浦东南路之间上南五村对面"},{"poiid":"B2094654DA68A0F9419A","title":"齐河菜市场","lon":"121.50004","lat":"31.17839","category":"117","category_name":"便民商店/便利店","address":"齐河路23"},{"poiid":"B2094757D06AA0FB4298","title":"上南六村","lon":"121.50181","lat":"31.176195","category":"500","category_name":"未知分类","address":"上海浦东齐河路28弄齐河路10弄,洪山路164号"},{"poiid":"B2094757D068A5F4439E","title":"乔家栅(上南路店)","lon":"121.49646","lat":"31.17851","category":"257","category_name":"中餐厅","address":"浦东新区浦东南路5017号(近上南路)"},{"poiid":"B2094757D06AA7F4429D","title":"清流中学","lon":"121.49547","lat":"31.17731","category":"55","category_name":"中学","address":"浦东新区上南路801号(浦东南路上南路)"},{"poiid":"B2094750D66AA5F4419A","title":"菲菲天然水晶-碧玺直销","lon":"121.499755","lat":"31.178193","category":"131","category_name":"珠宝首饰工艺品","address":"浦东新区齐河路18号"},{"poiid":"B2094654DA68A0FE4292","title":"上海市黄浦区肿瘤防治院","lon":"121.49876","lat":"31.17692","category":"162","category_name":"医院","address":"洪山路160号"},{"poiid":"B2094654DA68A0FE4399","title":"可的(洪山路)","lon":"121.49808","lat":"31.17881","category":"117","category_name":"便民商店/便利店","address":"浦东新区洪山路122号(洪山路浦东南路)"},{"poiid":"B2094654DB64A4F5409A","title":"心园8+8咖啡馆","lon":"121.49915","lat":"31.17568","category":"68","category_name":"快餐厅","address":"浦东新区洪山路190号(近昌里路)"},{"poiid":"B2094757D468A4F84498","title":"来亿锅羊蝎子火锅 洪山路店","lon":"121.497333","lat":"31.180673","category":"86","category_name":"火锅店","address":"浦东新区洪山路91号(近浦东南路)"},{"poiid":"B2094757D16EA5FC459A","title":"浦东新区医疗保险事务分中心","lon":"121.499153","lat":"31.177334","category":"500","category_name":"未知分类","address":"上海洪山路168号"},{"poiid":"B2094655D26FABFA499B","title":"上南一村东门(上南一村东)","lon":"121.4982","lat":"31.17841","category":"47","category_name":"住宅区","address":""},{"poiid":"B209475CD66DAAF4419C","title":"虹口足球场","lon":"121.49884","lat":"31.176818","category":"220","category_name":"运动场所","address":"上海市 上海市虹口区"},{"poiid":"B2094757D06AABF8459C","title":"帕瑞仕护肤造型中心","lon":"121.49899173","lat":"31.175388132","category":"148","category_name":"美容美发店","address":"上海市浦东新区昌里路"},{"poiid":"B2094757D56CABFA499E","title":"国际饭店西饼屋 昌里路店","lon":"121.498911","lat":"31.174944","category":"112","category_name":"糕饼店","address":"浦东新区昌里路137号老同盛内(近洪山路)"},{"poiid":"B2094757D66DA4FE4098","title":"扬歌","lon":"121.49819773","lat":"31.175663138","category":"249","category_name":"购物服务","address":"上海昌里路"},{"poiid":"B2094757D068A1F94499","title":"上南四村","lon":"121.502","lat":"31.1786","category":"252","category_name":"楼宇机构","address":"上海上南路1251弄上南四村"},{"poiid":"B2094655D26BA2F5449D","title":"浦东南路洪山路","lon":"121.49867","lat":"31.1802","category":"38","category_name":"公交车站","address":"上海市浦东新区"},{"poiid":"B2094655D36CA7FF489E","title":"洪山路浦东南路","lon":"121.49805","lat":"31.1792","category":"38","category_name":"公交车站","address":""},{"poiid":"B2094757D16DA7FA4799","title":"地铁七号线船厂路站","lon":"121.496757338","lat":"31.1784061965","category":"500","category_name":"未知分类","address":"上海船厂路东安路"},{"poiid":"B2094654DA68A0F94498","title":"上海市上南五村小学","lon":"121.50108","lat":"31.17933","category":"56","category_name":"小学","address":"浦东新区齐河路27弄1号"},{"poiid":"B2094655D36DA6FF489D","title":"上海梅赛德斯-奔驰文化中心（上海世博文化中心）","lon":"121.49779","lat":"31.1796","category":"248","category_name":"生活娱乐","address":"上海市浦东新区世博大道1200号 （毗邻中国馆与世博轴，西沿上南路，东临高科西路 ）"},{"poiid":"B2094655D26FA2FB479A","title":"麦当劳(齐河路店)","lon":"121.50288","lat":"31.17886","category":"68","category_name":"快餐厅","address":"浦东新区齐河路258号(近云台路)"},{"poiid":"B2094757D06FA3F44399","title":"呷哺呷哺(昌里店)","lon":"121.49681973","lat":"31.174919122","category":"86","category_name":"火锅店","address":"浦东新区上南路1150-1号三钢里2楼B单元(近昌里路)"},{"poiid":"B2094757D06FA6F9469D","title":"陌生人火锅餐厅(昌里路店)","lon":"121.50075","lat":"31.17503","category":"86","category_name":"火锅店","address":"浦东新区昌里路113号(近洪山路)"},{"poiid":"B2094757D06FA1F54398","title":"沃尔玛(上南齐河店)","lon":"121.503158536","lat":"31.1784074908","category":"118","category_name":"超级市场","address":"浦东新区齐河路258号(齐河路云台路)"},{"poiid":"B2094757D068A1FC429A","title":"上南五村","lon":"121.49947","lat":"31.178671","category":"47","category_name":"住宅区","address":"上海浦东南路洪山路"},{"poiid":"B2094454D26EABF9479C","title":"炉鱼","lon":"121.497749","lat":"31.178005","category":"247","category_name":"餐饮美食","address":"上海市 世博源"},{"poiid":"B2094757D06FA4FD4999","title":"蔓趣公园","lon":"121.500140407","lat":"31.1745680506","category":"196","category_name":"公园","address":"上海浦东新区洪山路(近昌里路)"},{"poiid":"B2094757D068A1FC4399","title":"大富贵酒楼(昌里店)","lon":"121.500982","lat":"31.175561","category":"76","category_name":"上海菜","address":"浦东新区昌里路109号"},{"poiid":"B2094757D06FA7F5469A","title":"上南二村","lon":"121.49665","lat":"31.177719","category":"47","category_name":"住宅区","address":"上海浦东新区上南路929弄(近上南路)"},{"poiid":"B2094757D568A4F44398","title":"现代映象-昌里花园","lon":"121.5034481","lat":"31.17818","category":"47","category_name":"住宅区","address":"现代映象―昌里花园位于浦东云台路179号"},{"poiid":"B2094757D06AA1F9479E","title":"阿明苏州汤包馆","lon":"121.498678938","lat":"31.1749335226","category":"247","category_name":"餐饮美食","address":"上海浦东新区昌里路127号(近洪山路)"},{"poiid":"B2094655D36CA5FA419E","title":"昌里路洪山路","lon":"121.50014","lat":"31.17516","category":"38","category_name":"公交车站","address":""},{"poiid":"B2094757D16EA5FD439B","title":"上南一村","lon":"121.4976","lat":"31.178314","category":"252","category_name":"楼宇机构","address":"上海市浦东新上南一村"},{"poiid":"B2094757D465A7FC419F","title":"六角亭饭店","lon":"121.498037","lat":"31.179202","category":"76","category_name":"上海菜","address":"浦东新区浦东南路4959号(近洪山路)"},{"poiid":"B2094757D068A5FE409B","title":"京世造型(齐河路店)","lon":"121.50303073","lat":"31.179385217","category":"148","category_name":"美容美发店","address":"上海浦东新区齐河路258号沃尔玛超市1楼(近云台路)"},{"poiid":"B2094757D068A4FE479D","title":"上南中学","lon":"121.50254","lat":"31.17541","category":"55","category_name":"中学","address":"上海浦东新区昌里路93弄1号  "},{"poiid":"B2094655D26EA5F54993","title":"西门烤鸭","lon":"121.499110054","lat":"31.177414793","category":"68","category_name":"快餐厅","address":"浦东新区洪山路168号(齐河路口)"},{"poiid":"B2094654DA68A0FE459A","title":"王中王(洪山路)","lon":"121.49926","lat":"31.1771","category":"257","category_name":"中餐厅","address":"浦东新区洪山路161号(近齐河路)"},{"poiid":"B2094757D068A0F8419F","title":"避风塘茶楼(昌里店)","lon":"121.50165","lat":"31.17536","category":"260","category_name":"其他","address":"浦东新区昌里路107号(近洪山路)"},{"poiid":"B2094654DB65A6F9429C","title":"避风塘 昌里店","lon":"121.500625054","lat":"31.175711793","category":"111","category_name":"休闲餐饮场所","address":"浦东新区昌里东路294号(近东明路)"},{"poiid":"B209475DDA6AA4F9459A","title":"世博源","lon":"121.498336","lat":"31.176551","category":"249","category_name":"购物服务","address":"上海市 浦东新区世博大道1368号"},{"poiid":"B2094757D16DA2FB4899","title":"洪山医院","lon":"121.498763","lat":"31.17692","category":"162","category_name":"医院","address":"浦东新区洪山路160号(洪山路齐河路)"},{"poiid":"B2094757D06BA4F4469C","title":"85度C(齐河店)","lon":"121.503306929","lat":"31.1791645821","category":"67","category_name":"甜品店","address":"浦东新区齐河路258号沃尔玛超市1楼(近味千拉面)"},{"poiid":"B2094757D16EA2FB439E","title":"浦东南路云台路路口","lon":"121.50020073","lat":"31.181478261","category":"500","category_name":"未知分类","address":"上海市浦东新区浦东南路"},{"poiid":"B2094655D26EA2FC409E","title":"北京馋嘴鸭 洪山路店","lon":"121.49771","lat":"31.1788","category":"68","category_name":"快餐厅","address":"浦东新区洪山路122号(洪山路浦东南路)"},{"poiid":"B2094757D06FA0FF429D","title":"超级鸡车 昌里路店 Super Gcar","lon":"121.49907","lat":"31.17495","category":"68","category_name":"快餐厅","address":"浦东新区昌里路134号(近洪山路)"},{"poiid":"B2094757D069A1FE459C","title":"都可茶饮(昌里店)","lon":"121.499721","lat":"31.174086","category":"113","category_name":"冷饮店","address":"浦东新区昌里路134号(近洪山路)"},{"poiid":"B2094654DB6AA3FD4692","title":"洪山医院肿瘤防治院","lon":"121.49876","lat":"31.17692","category":"162","category_name":"医院","address":"上海市浦东新区洪山路160号"},{"poiid":"B2094757D16DA1FF459F","title":"洪山路烧烤摊","lon":"121.49875","lat":"31.17533","category":"68","category_name":"快餐厅","address":"上海洪山路上齐河路浦东南路之间上南五村对面"},{"poiid":"B2094654DA68A0F9419A","title":"齐河菜市场","lon":"121.50004","lat":"31.17839","category":"117","category_name":"便民商店/便利店","address":"齐河路23"},{"poiid":"B2094757D06AA0FB4298","title":"上南六村","lon":"121.50181","lat":"31.176195","category":"500","category_name":"未知分类","address":"上海浦东齐河路28弄齐河路10弄,洪山路164号"},{"poiid":"B2094757D068A5F4439E","title":"乔家栅(上南路店)","lon":"121.49646","lat":"31.17851","category":"257","category_name":"中餐厅","address":"浦东新区浦东南路5017号(近上南路)"},{"poiid":"B2094757D06AA7F4429D","title":"清流中学","lon":"121.49547","lat":"31.17731","category":"55","category_name":"中学","address":"浦东新区上南路801号(浦东南路上南路)"},{"poiid":"B2094750D66AA5F4419A","title":"菲菲天然水晶-碧玺直销","lon":"121.499755","lat":"31.178193","category":"131","category_name":"珠宝首饰工艺品","address":"浦东新区齐河路18号"},{"poiid":"B2094654DA68A0FE4292","title":"上海市黄浦区肿瘤防治院","lon":"121.49876","lat":"31.17692","category":"162","category_name":"医院","address":"洪山路160号"},{"poiid":"B2094654DA68A0FE4399","title":"可的(洪山路)","lon":"121.49808","lat":"31.17881","category":"117","category_name":"便民商店/便利店","address":"浦东新区洪山路122号(洪山路浦东南路)"},{"poiid":"B2094654DB64A4F5409A","title":"心园8+8咖啡馆","lon":"121.49915","lat":"31.17568","category":"68","category_name":"快餐厅","address":"浦东新区洪山路190号(近昌里路)"},{"poiid":"B2094757D468A4F84498","title":"来亿锅羊蝎子火锅 洪山路店","lon":"121.497333","lat":"31.180673","category":"86","category_name":"火锅店","address":"浦东新区洪山路91号(近浦东南路)"},{"poiid":"B2094757D16EA5FC459A","title":"浦东新区医疗保险事务分中心","lon":"121.499153","lat":"31.177334","category":"500","category_name":"未知分类","address":"上海洪山路168号"},{"poiid":"B2094655D26FABFA499B","title":"上南一村东门(上南一村东)","lon":"121.4982","lat":"31.17841","category":"47","category_name":"住宅区","address":""},{"poiid":"B209475CD66DAAF4419C","title":"虹口足球场","lon":"121.49884","lat":"31.176818","category":"220","category_name":"运动场所","address":"上海市 上海市虹口区"},{"poiid":"B2094757D06AABF8459C","title":"帕瑞仕护肤造型中心","lon":"121.49899173","lat":"31.175388132","category":"148","category_name":"美容美发店","address":"上海市浦东新区昌里路"},{"poiid":"B2094757D56CABFA499E","title":"国际饭店西饼屋 昌里路店","lon":"121.498911","lat":"31.174944","category":"112","category_name":"糕饼店","address":"浦东新区昌里路137号老同盛内(近洪山路)"},{"poiid":"B2094757D66DA4FE4098","title":"扬歌","lon":"121.49819773","lat":"31.175663138","category":"249","category_name":"购物服务","address":"上海昌里路"},{"poiid":"B2094757D068A1F94499","title":"上南四村","lon":"121.502","lat":"31.1786","category":"252","category_name":"楼宇机构","address":"上海上南路1251弄上南四村"},{"poiid":"B2094655D26BA2F5449D","title":"浦东南路洪山路","lon":"121.49867","lat":"31.1802","category":"38","category_name":"公交车站","address":"上海市浦东新区"},{"poiid":"B2094655D36CA7FF489E","title":"洪山路浦东南路","lon":"121.49805","lat":"31.1792","category":"38","category_name":"公交车站","address":""},{"poiid":"B2094757D16DA7FA4799","title":"地铁七号线船厂路站","lon":"121.496757338","lat":"31.1784061965","category":"500","category_name":"未知分类","address":"上海船厂路东安路"},{"poiid":"B2094654DA68A0F94498","title":"上海市上南五村小学","lon":"121.50108","lat":"31.17933","category":"56","category_name":"小学","address":"浦东新区齐河路27弄1号"}]