[{"poiid":"B2094757D16AAAFD4598","title":"上海工會管理學院","lon":"121.41554676","lat":"30.908086069","category":"52","category_name":"高等院校","address":"上海奉贤区南亭公路2080號"},{"poiid":"B2094655D36DA6FF4899","title":"上海工会管理职业学院","lon":"121.40674","lat":"30.90347","category":"671","category_name":"高校中心点","address":"上海市奉贤区南亭公路2080,号"},{"poiid":"B2094757D169A0FC4698","title":"上海交通大学","lon":"121.428832764","lat":"30.9100091098","category":"671","category_name":"高校中心点","address":"上海市闵行区经一路"},{"poiid":"B2094757D06BAAFA4999","title":"上海工会管理职业学院教学南楼","lon":"121.415501","lat":"30.903157","category":"253","category_name":"校园生活","address":"上海市奉贤区南亭公路2080号"},{"poiid":"B2094654DB68A0FA489B","title":"工会学院","lon":"121.41654","lat":"30.90586","category":"52","category_name":"高等院校","address":"奉贤区浦卫公路"},{"poiid":"B2094757D164A2F54699","title":"上海工会管理职业学院2号宿舍楼","lon":"121.415679","lat":"30.904792","category":"52","category_name":"高等院校","address":"上海奉贤区南亭公路2080号"},{"poiid":"B2094757D06BA3FB459A","title":"丰瑞农庄","lon":"121.419613","lat":"30.896939","category":"260","category_name":"其他","address":"近郊奉贤区浦卫公路5166号丰瑞农庄内(G1501高速公路进出口对面)"},{"poiid":"B2094654DB68A7FC469C","title":"上海市工业综合开发区庄行工业园","lon":"121.41579","lat":"30.90936","category":"45","category_name":"产业园区","address":"上海市奉贤区工业综合开发区庄行工业园"},{"poiid":"B2094757D168A3F5499B","title":"工会学院北教学楼","lon":"121.416543","lat":"30.905866","category":"253","category_name":"校园生活","address":"上海工会管理职业学院"},{"poiid":"B2094757D66EA2F84893","title":"工会学院4号楼","lon":"121.41487076","lat":"30.907927065","category":"500","category_name":"未知分类","address":"上海市奉贤区4号楼"},{"poiid":"B2094654DB68A0F94993","title":"上海国际电器城","lon":"121.42083","lat":"30.90649","category":"138","category_name":"家电电子卖场","address":""},{"poiid":"B2094655D36CA6FD4793","title":"工会管理职业学校(招呼站)","lon":"121.41458","lat":"30.90319","category":"38","category_name":"公交车站","address":""},{"poiid":"B2094757D16AA2F5429D","title":"十号楼617","lon":"121.41468186","lat":"30.906596637","category":"500","category_name":"未知分类","address":null},{"poiid":"B2094757D568ABFF439C","title":"易捷便利店","lon":"121.41725749","lat":"30.9028201","category":"117","category_name":"便民商店/便利店","address":"庄行镇"},{"poiid":"B2094757D169A2F84698","title":"麦当劳","lon":"121.41316876","lat":"30.907604059","category":"500","category_name":"未知分类","address":"上海市奉贤区庄行路"},{"poiid":"B2094655D36CA2FD419D","title":"联华超市庄行店","lon":"121.41206","lat":"30.90322","category":"118","category_name":"超级市场","address":"近郊奉贤庄行镇南亭公路1030号"},{"poiid":"B2094757D065A5F9409D","title":"happy lemon 江川店","lon":"121.428956764","lat":"30.9096121014","category":"500","category_name":"未知分类","address":"上海江川路"},{"poiid":"B2094655D26BABFE469D","title":"上海九源汽车销售服务有限公司","lon":"121.42919","lat":"30.90266","category":"159","category_name":"汽车维修","address":"近郊奉贤南亭公路1269号(近五星中心路)"},{"poiid":"B2094654DB68A7FC479B","title":"上海百棵药业有限公司","lon":"121.41761","lat":"30.91465","category":"263","category_name":"公司","address":""},{"poiid":"B2094757D164A6FF439B","title":"上海沪华国际大酒店","lon":"121.42895676","lat":"30.909612101","category":"500","category_name":"未知分类","address":"上海闵行区鹤庆路300号"},{"poiid":"B2094655D36DA1FA4999","title":"五星路","lon":"121.43153","lat":"30.90317","category":"38","category_name":"公交车站","address":""},{"poiid":"B2094655D36CA3FD459F","title":"上海九炫汽车销售服务有限公司","lon":"121.42834","lat":"30.90269","category":"159","category_name":"汽车维修","address":"南亭公路1269号1-2"},{"poiid":"B2094654DB68A0FA409A","title":"五星花园别墅","lon":"121.438","lat":"30.9026","category":"47","category_name":"住宅区","address":"五星花园别墅位于奉贤五星路90号"},{"poiid":"B2094655D265AAF54392","title":"G1501浦卫公路收费站","lon":"121.42272","lat":"30.89567","category":"267","category_name":"收费站","address":""},{"poiid":"B2094654DB68A0FA4899","title":"罗兰·新墅","lon":"121.43505","lat":"30.91323","category":"47","category_name":"住宅区","address":""},{"poiid":"B2094655D26FA1FD4198","title":"第一住宅区","lon":"121.40376","lat":"30.91315","category":"47","category_name":"住宅区","address":""},{"poiid":"B2094655D265A7F4409F","title":"庄行正兴羊肉馆","lon":"121.40078","lat":"30.90057","category":"257","category_name":"中餐厅","address":""},{"poiid":"B2094752D169ABFC4098","title":"浦东国际机场","lon":"121.409368","lat":"30.9198","category":"500","category_name":"未知分类","address":null},{"poiid":"B2094757D66EA2FE4999","title":"江南渔村农家园","lon":"121.425536","lat":"30.893223","category":"500","category_name":"未知分类","address":"上海奉贤区浦卫路"},{"poiid":"B2094750D464A7FD4899","title":"嘉定","lon":"121.436759","lat":"30.913145","category":"500","category_name":"未知分类","address":null},{"poiid":"B2094757D069A3FA499C","title":"二媛の631","lon":"121.40133893","lat":"30.903856633","category":"253","category_name":"校园生活","address":"上海奉贤区南亭公路2080号5号楼"},{"poiid":"B2094654DB6FAAFB4199","title":"菲林格尔木业(上海)有限公司","lon":"121.4351","lat":"30.91831","category":"263","category_name":"公司","address":""},{"poiid":"B2094654DB68A0F9499E","title":"上海德奎久保田模具有限公司","lon":"121.43767","lat":"30.91284","category":"263","category_name":"公司","address":"沪杭公路2104"},{"poiid":"B2094654DB68A7F94093","title":"上海市奉贤设备容器厂","lon":"121.43798","lat":"30.91218","category":"263","category_name":"公司","address":"沪杭公路2108"},{"poiid":"B2094654DB68A7FC429A","title":"上海大众特价店","lon":"121.43901","lat":"30.91005","category":"158","category_name":"汽车销售","address":""},{"poiid":"B2094757D66AA7FE4193","title":"蒙古大草原美食娱乐中心","lon":"121.415996","lat":"30.888179","category":"260","category_name":"其他","address":"近郊奉贤区南庄公路698号(近A30浦卫公路出口)"}]