[{"poiid":"B2094654DA6EA2F4499A","title":"上海中医药大学附属龙华医院","lon":"121.45011","lat":"31.18796","category":"162","category_name":"医院","address":"徐汇区零陵路532号"},{"poiid":"B2094655D36CA1F8439D","title":"龙华医院","lon":"121.44931","lat":"31.18777","category":"162","category_name":"医院","address":""},{"poiid":"B2094757D06FA3FB439A","title":"上海市精神卫生中心","lon":"121.44868469","lat":"31.188173294","category":"162","category_name":"医院","address":"徐汇区宛平南路600号(零陵路宛平南路)"},{"poiid":"B2094655D36DA7F84693","title":"中山南二路宛平南路","lon":"121.44991","lat":"31.18488","category":"38","category_name":"公交车站","address":""},{"poiid":"B2094750DA69ABF94299","title":"宛平剧院","lon":"121.448257","lat":"31.187332","category":"248","category_name":"生活娱乐","address":"徐汇区中山南二路859号(近宛平南路)"},{"poiid":"B2094655D36CA1FE4393","title":"双峰路中山南二路","lon":"121.44847","lat":"31.18264","category":"38","category_name":"公交车站","address":""},{"poiid":"B2094757D568A6F5479B","title":"上海市宛平艺苑","lon":"121.451514","lat":"31.185034","category":"178","category_name":"电影院","address":"中山南二路859号"},{"poiid":"B2094655D268A1F4419F","title":"上海中医药大学学生公寓","lon":"121.44953","lat":"31.18661","category":"47","category_name":"住宅区","address":""},{"poiid":"B2094757D16CA1FF4999","title":"龙华医院急诊","lon":"121.446744536","lat":"31.1877531506","category":"162","category_name":"医院","address":"上海徐汇区宛平南路725号"},{"poiid":"B2094654DB64A5F54198","title":"苏州福东鑫","lon":"121.450175054","lat":"31.186587793","category":"68","category_name":"快餐厅","address":"徐汇区宛平南路735号(近中山南二路)"},{"poiid":"B2094757D068ABF8469E","title":"NIKE","lon":"121.449768586","lat":"31.189207629","category":"196","category_name":"公园","address":"徐汇区漕溪北路1111号东亚体育文化中心1号门(零陵路口)"},{"poiid":"B209475CD16DAAFC449D","title":"小辉哥火锅 正大乐城店","lon":"121.4529021","lat":"31.1861009","category":"86","category_name":"火锅店","address":"中山南二路669号2栋304-305正大乐城"},{"poiid":"B2094757D064A7F54293","title":"夏朵精品烘培","lon":"121.45131266","lat":"31.186186702","category":"67","category_name":"甜品店","address":"上海徐汇区天钥桥路214号哈尼美食广场3楼夏朵内(近南丹东路)"},{"poiid":"B2094655D26CA4FB4799","title":"上海交通大学医学院附属精神卫生中心","lon":"121.44866","lat":"31.18754","category":"52","category_name":"高等院校","address":"宛平南路600"},{"poiid":"B2094654DA6DA1FC4198","title":"天钥新村(中山南二路)","lon":"121.44714","lat":"31.18537","category":"47","category_name":"住宅区","address":"中山南二路918弄1-5号"},{"poiid":"B2094654DA6DA1FC449D","title":"上海市针灸经络研究所门诊部","lon":"121.44977","lat":"31.1865","category":"162","category_name":"医院","address":"徐汇区宛平南路650号"},{"poiid":"B2094757D068A4F5499A","title":"上海针灸研究所","lon":"121.44957295","lat":"31.186136422","category":"260","category_name":"其他","address":"上海宛平南路650号"},{"poiid":"B2094757D06BABFF479B","title":"小阁楼酒家","lon":"121.4504","lat":"31.18523","category":"76","category_name":"上海菜","address":"徐汇区宛平南路750号(近中山南二路)"},{"poiid":"B2094757D065A4FB499B","title":"吴越人家","lon":"121.45047","lat":"31.18522","category":"76","category_name":"上海菜","address":"徐汇区宛平南路740号(近中山南二路)"},{"poiid":"B2094654DA6DA1FC449E","title":"爱中爱华公寓","lon":"121.44948","lat":"31.186041","category":"47","category_name":"住宅区","address":"宛平南路656-658"},{"poiid":"B209475CDB6AA2F9459F","title":"上海体育场","lon":"121.450096","lat":"31.18581","category":"500","category_name":"未知分类","address":"上海市 上海体育场"},{"poiid":"B2094655D26FA6FF409A","title":"东安四村","lon":"121.45087","lat":"31.186504","category":"47","category_name":"住宅区","address":"宛平南路727号"},{"poiid":"B2094757D064ABFA4498","title":"龙华医院远志楼","lon":"121.44994","lat":"31.186949","category":"162","category_name":"医院","address":"上海宛平南路725号"},{"poiid":"B2094757D16FA0FB409E","title":"湖滨人家","lon":"121.45091","lat":"31.18471","category":"257","category_name":"中餐厅","address":"徐汇区宛平南路810号(近中山南二路)"},{"poiid":"B2094654DA6DA1FC4398","title":"申达利宏大楼","lon":"121.44961","lat":"31.185862","category":"47","category_name":"住宅区","address":"宛平南路734号"},{"poiid":"B2094757D068A7F44899","title":"上海中医药大学","lon":"121.449485","lat":"31.188716","category":"671","category_name":"高校中心点","address":"上海市浦东新区蔡伦路1200号"},{"poiid":"B2094654DA6DA1FC4499","title":"罗森(爱中爱华公寓南)","lon":"121.44983","lat":"31.18641","category":"117","category_name":"便民商店/便利店","address":""},{"poiid":"B2094655D26EA1FD4893","title":"上海市精神卫生中心老年期痴呆诊疗中心","lon":"121.44867","lat":"31.18754","category":"162","category_name":"医院","address":"宛平南路600号"},{"poiid":"B2094655D268A1F4419A","title":"上海中医药大学学生公寓(南门)","lon":"121.4496","lat":"31.18649","category":"47","category_name":"住宅区","address":""},{"poiid":"B2094757D464A7FF489E","title":"星期五 しゃぶしゃぶ食放題 Friday","lon":"121.44661382236","lat":"31.187398429974","category":"95","category_name":"日本料理","address":"零陵路627号近双峰北路"},{"poiid":"B2094655D26EA4F94893","title":"克莉丝汀饼屋(宛平南路店)","lon":"121.45087","lat":"31.18561","category":"112","category_name":"糕饼店","address":"徐汇区宛平南路759号-1(近龙华路)"},{"poiid":"B2094654DA6DA7FF429E","title":"中煌大厦","lon":"121.452345","lat":"31.187456","category":"46","category_name":"楼宇","address":"沈河北站路与北京街的交汇处"},{"poiid":"B2094654DA6DA1FC4292","title":"莎蔓莉莎美容院(中山南二路)","lon":"121.44993","lat":"31.1852","category":"148","category_name":"美容美发店","address":"徐汇区中山南二路896号(近宛平南路)"},{"poiid":"B2094757D06AA3FC4793","title":"华富大厦","lon":"121.448","lat":"31.1834","category":"252","category_name":"楼宇机构","address":"北一环与亳州路交叉口(庐阳区政府对面)"},{"poiid":"B2094757D169A0FF4393","title":"天钥新村","lon":"121.446525304","lat":"31.1853354701","category":"252","category_name":"楼宇机构","address":"上海天钥新村66号"},{"poiid":"B2094757D569A0F94898","title":"冰冰便当(宛平南路店)","lon":"121.450831","lat":"31.18478","category":"68","category_name":"快餐厅","address":"徐汇区宛平南路801号"},{"poiid":"B2094654DA6DA2FB499A","title":"海洋石油大厦","lon":"121.44766","lat":"31.18876","category":"46","category_name":"楼宇","address":"北一环与亳州路交叉口(庐阳区政府对面)"},{"poiid":"B2094757D66FA0FF409B","title":"喜士多(宛平南路店)","lon":"121.44981068","lat":"31.185108148","category":"117","category_name":"便民商店/便利店","address":"徐汇区宛平南路727号"},{"poiid":"B2094757D065A6F8469F","title":"大胡子烧烤","lon":"121.45105322","lat":"31.185858786","category":"247","category_name":"餐饮美食","address":"上海零陵路双峰北路"},{"poiid":"B2094654DA6DA1FC439D","title":"点藏休闲保健会所","lon":"121.45","lat":"31.18611","category":"149","category_name":"洗浴推拿场所","address":"徐汇区宛平南路672号(近中山南二路)"},{"poiid":"B2094757D169AAFA479D","title":"金朝好梦商务酒店","lon":"121.450658","lat":"31.185637","category":"217","category_name":"旅馆招待所","address":"上海市徐汇区宛平南路737号(近中山南二路)"},{"poiid":"B2094654DA6EA2F4489B","title":"东安四村(西门)","lon":"121.45026","lat":"31.18636","category":"47","category_name":"住宅区","address":"宛平南路727号"},{"poiid":"B2094655D36DA7F84692","title":"中山南二路宛平路","lon":"121.44929","lat":"31.18444","category":"38","category_name":"公交车站","address":""},{"poiid":"B2094753D669A1F94893","title":"掌上韩品（星游城店）","lon":"121.447349","lat":"31.18342","category":"247","category_name":"餐饮美食","address":"上海市 上海体育场"},{"poiid":"B209475CD26FA5FF4493","title":"镰仓PASTA（星游城店）","lon":"121.449806","lat":"31.186798","category":"500","category_name":"未知分类","address":"上海市 天钥桥路576号"},{"poiid":"B2094654DA6DA0F54293","title":"东亚大厦","lon":"121.44641755121","lat":"31.186094978075","category":"46","category_name":"楼宇","address":"上海中山南二路1500号"},{"poiid":"B2094757D66CA0FD4093","title":"春草堂","lon":"121.4499836","lat":"31.1865153","category":"500","category_name":"未知分类","address":"上海宛平南路"},{"poiid":"B2094757D569A6FB4492","title":"喜士多便利店","lon":"121.45022732","lat":"31.18648763","category":"117","category_name":"便民商店/便利店","address":"零陵路520号"},{"poiid":"B2094757D065AAFC409B","title":"宛平南路申达利宏","lon":"121.45010358","lat":"31.185899564","category":"500","category_name":"未知分类","address":"上海市徐汇区零陵路"},{"poiid":"B2094654DA6DA7F84892","title":"宛南小区","lon":"121.44946","lat":"31.183348","category":"47","category_name":"住宅区","address":"中山南二路925弄"},{"poiid":"B2094654DA6EA2F4499A","title":"上海中医药大学附属龙华医院","lon":"121.45011","lat":"31.18796","category":"162","category_name":"医院","address":"徐汇区零陵路532号"},{"poiid":"B2094655D36CA1F8439D","title":"龙华医院","lon":"121.44931","lat":"31.18777","category":"162","category_name":"医院","address":""},{"poiid":"B2094757D06FA3FB439A","title":"上海市精神卫生中心","lon":"121.44868469","lat":"31.188173294","category":"162","category_name":"医院","address":"徐汇区宛平南路600号(零陵路宛平南路)"},{"poiid":"B2094655D36DA7F84693","title":"中山南二路宛平南路","lon":"121.44991","lat":"31.18488","category":"38","category_name":"公交车站","address":""},{"poiid":"B2094750DA69ABF94299","title":"宛平剧院","lon":"121.448257","lat":"31.187332","category":"248","category_name":"生活娱乐","address":"徐汇区中山南二路859号(近宛平南路)"},{"poiid":"B2094655D36CA1FE4393","title":"双峰路中山南二路","lon":"121.44847","lat":"31.18264","category":"38","category_name":"公交车站","address":""},{"poiid":"B2094757D568A6F5479B","title":"上海市宛平艺苑","lon":"121.451514","lat":"31.185034","category":"178","category_name":"电影院","address":"中山南二路859号"},{"poiid":"B2094655D268A1F4419F","title":"上海中医药大学学生公寓","lon":"121.44953","lat":"31.18661","category":"47","category_name":"住宅区","address":""},{"poiid":"B2094757D16CA1FF4999","title":"龙华医院急诊","lon":"121.446744536","lat":"31.1877531506","category":"162","category_name":"医院","address":"上海徐汇区宛平南路725号"},{"poiid":"B2094654DB64A5F54198","title":"苏州福东鑫","lon":"121.450175054","lat":"31.186587793","category":"68","category_name":"快餐厅","address":"徐汇区宛平南路735号(近中山南二路)"},{"poiid":"B2094757D068ABF8469E","title":"NIKE","lon":"121.449768586","lat":"31.189207629","category":"196","category_name":"公园","address":"徐汇区漕溪北路1111号东亚体育文化中心1号门(零陵路口)"},{"poiid":"B209475CD16DAAFC449D","title":"小辉哥火锅 正大乐城店","lon":"121.4529021","lat":"31.1861009","category":"86","category_name":"火锅店","address":"中山南二路669号2栋304-305正大乐城"},{"poiid":"B2094757D064A7F54293","title":"夏朵精品烘培","lon":"121.45131266","lat":"31.186186702","category":"67","category_name":"甜品店","address":"上海徐汇区天钥桥路214号哈尼美食广场3楼夏朵内(近南丹东路)"},{"poiid":"B2094655D26CA4FB4799","title":"上海交通大学医学院附属精神卫生中心","lon":"121.44866","lat":"31.18754","category":"52","category_name":"高等院校","address":"宛平南路600"},{"poiid":"B2094654DA6DA1FC4198","title":"天钥新村(中山南二路)","lon":"121.44714","lat":"31.18537","category":"47","category_name":"住宅区","address":"中山南二路918弄1-5号"},{"poiid":"B2094654DA6DA1FC449D","title":"上海市针灸经络研究所门诊部","lon":"121.44977","lat":"31.1865","category":"162","category_name":"医院","address":"徐汇区宛平南路650号"},{"poiid":"B2094757D068A4F5499A","title":"上海针灸研究所","lon":"121.44957295","lat":"31.186136422","category":"260","category_name":"其他","address":"上海宛平南路650号"},{"poiid":"B2094757D06BABFF479B","title":"小阁楼酒家","lon":"121.4504","lat":"31.18523","category":"76","category_name":"上海菜","address":"徐汇区宛平南路750号(近中山南二路)"},{"poiid":"B2094757D065A4FB499B","title":"吴越人家","lon":"121.45047","lat":"31.18522","category":"76","category_name":"上海菜","address":"徐汇区宛平南路740号(近中山南二路)"},{"poiid":"B2094654DA6DA1FC449E","title":"爱中爱华公寓","lon":"121.44948","lat":"31.186041","category":"47","category_name":"住宅区","address":"宛平南路656-658"},{"poiid":"B209475CDB6AA2F9459F","title":"上海体育场","lon":"121.450096","lat":"31.18581","category":"500","category_name":"未知分类","address":"上海市 上海体育场"},{"poiid":"B2094655D26FA6FF409A","title":"东安四村","lon":"121.45087","lat":"31.186504","category":"47","category_name":"住宅区","address":"宛平南路727号"},{"poiid":"B2094757D064ABFA4498","title":"龙华医院远志楼","lon":"121.44994","lat":"31.186949","category":"162","category_name":"医院","address":"上海宛平南路725号"},{"poiid":"B2094757D16FA0FB409E","title":"湖滨人家","lon":"121.45091","lat":"31.18471","category":"257","category_name":"中餐厅","address":"徐汇区宛平南路810号(近中山南二路)"},{"poiid":"B2094654DA6DA1FC4398","title":"申达利宏大楼","lon":"121.44961","lat":"31.185862","category":"47","category_name":"住宅区","address":"宛平南路734号"},{"poiid":"B2094757D068A7F44899","title":"上海中医药大学","lon":"121.449485","lat":"31.188716","category":"671","category_name":"高校中心点","address":"上海市浦东新区蔡伦路1200号"},{"poiid":"B2094654DA6DA1FC4499","title":"罗森(爱中爱华公寓南)","lon":"121.44983","lat":"31.18641","category":"117","category_name":"便民商店/便利店","address":""},{"poiid":"B2094655D26EA1FD4893","title":"上海市精神卫生中心老年期痴呆诊疗中心","lon":"121.44867","lat":"31.18754","category":"162","category_name":"医院","address":"宛平南路600号"},{"poiid":"B2094655D268A1F4419A","title":"上海中医药大学学生公寓(南门)","lon":"121.4496","lat":"31.18649","category":"47","category_name":"住宅区","address":""},{"poiid":"B2094757D464A7FF489E","title":"星期五 しゃぶしゃぶ食放題 Friday","lon":"121.44661382236","lat":"31.187398429974","category":"95","category_name":"日本料理","address":"零陵路627号近双峰北路"},{"poiid":"B2094655D26EA4F94893","title":"克莉丝汀饼屋(宛平南路店)","lon":"121.45087","lat":"31.18561","category":"112","category_name":"糕饼店","address":"徐汇区宛平南路759号-1(近龙华路)"},{"poiid":"B2094654DA6DA7FF429E","title":"中煌大厦","lon":"121.452345","lat":"31.187456","category":"46","category_name":"楼宇","address":"沈河北站路与北京街的交汇处"},{"poiid":"B2094654DA6DA1FC4292","title":"莎蔓莉莎美容院(中山南二路)","lon":"121.44993","lat":"31.1852","category":"148","category_name":"美容美发店","address":"徐汇区中山南二路896号(近宛平南路)"},{"poiid":"B2094757D06AA3FC4793","title":"华富大厦","lon":"121.448","lat":"31.1834","category":"252","category_name":"楼宇机构","address":"北一环与亳州路交叉口(庐阳区政府对面)"},{"poiid":"B2094757D169A0FF4393","title":"天钥新村","lon":"121.446525304","lat":"31.1853354701","category":"252","category_name":"楼宇机构","address":"上海天钥新村66号"},{"poiid":"B2094757D569A0F94898","title":"冰冰便当(宛平南路店)","lon":"121.450831","lat":"31.18478","category":"68","category_name":"快餐厅","address":"徐汇区宛平南路801号"},{"poiid":"B2094654DA6DA2FB499A","title":"海洋石油大厦","lon":"121.44766","lat":"31.18876","category":"46","category_name":"楼宇","address":"北一环与亳州路交叉口(庐阳区政府对面)"},{"poiid":"B2094757D66FA0FF409B","title":"喜士多(宛平南路店)","lon":"121.44981068","lat":"31.185108148","category":"117","category_name":"便民商店/便利店","address":"徐汇区宛平南路727号"},{"poiid":"B2094757D065A6F8469F","title":"大胡子烧烤","lon":"121.45105322","lat":"31.185858786","category":"247","category_name":"餐饮美食","address":"上海零陵路双峰北路"},{"poiid":"B2094654DA6DA1FC439D","title":"点藏休闲保健会所","lon":"121.45","lat":"31.18611","category":"149","category_name":"洗浴推拿场所","address":"徐汇区宛平南路672号(近中山南二路)"},{"poiid":"B2094757D169AAFA479D","title":"金朝好梦商务酒店","lon":"121.450658","lat":"31.185637","category":"217","category_name":"旅馆招待所","address":"上海市徐汇区宛平南路737号(近中山南二路)"},{"poiid":"B2094654DA6EA2F4489B","title":"东安四村(西门)","lon":"121.45026","lat":"31.18636","category":"47","category_name":"住宅区","address":"宛平南路727号"},{"poiid":"B2094655D36DA7F84692","title":"中山南二路宛平路","lon":"121.44929","lat":"31.18444","category":"38","category_name":"公交车站","address":""},{"poiid":"B2094753D669A1F94893","title":"掌上韩品（星游城店）","lon":"121.447349","lat":"31.18342","category":"247","category_name":"餐饮美食","address":"上海市 上海体育场"},{"poiid":"B209475CD26FA5FF4493","title":"镰仓PASTA（星游城店）","lon":"121.449806","lat":"31.186798","category":"500","category_name":"未知分类","address":"上海市 天钥桥路576号"},{"poiid":"B2094654DA6DA0F54293","title":"东亚大厦","lon":"121.44641755121","lat":"31.186094978075","category":"46","category_name":"楼宇","address":"上海中山南二路1500号"},{"poiid":"B2094757D66CA0FD4093","title":"春草堂","lon":"121.4499836","lat":"31.1865153","category":"500","category_name":"未知分类","address":"上海宛平南路"},{"poiid":"B2094757D569A6FB4492","title":"喜士多便利店","lon":"121.45022732","lat":"31.18648763","category":"117","category_name":"便民商店/便利店","address":"零陵路520号"},{"poiid":"B2094757D065AAFC409B","title":"宛平南路申达利宏","lon":"121.45010358","lat":"31.185899564","category":"500","category_name":"未知分类","address":"上海市徐汇区零陵路"},{"poiid":"B2094654DA6DA7F84892","title":"宛南小区","lon":"121.44946","lat":"31.183348","category":"47","category_name":"住宅区","address":"中山南二路925弄"},{"poiid":"B2094654DA6EA2F4499A","title":"上海中医药大学附属龙华医院","lon":"121.45011","lat":"31.18796","category":"162","category_name":"医院","address":"徐汇区零陵路532号"},{"poiid":"B2094655D36CA1F8439D","title":"龙华医院","lon":"121.44931","lat":"31.18777","category":"162","category_name":"医院","address":""},{"poiid":"B2094757D06FA3FB439A","title":"上海市精神卫生中心","lon":"121.44868469","lat":"31.188173294","category":"162","category_name":"医院","address":"徐汇区宛平南路600号(零陵路宛平南路)"},{"poiid":"B2094655D36DA7F84693","title":"中山南二路宛平南路","lon":"121.44991","lat":"31.18488","category":"38","category_name":"公交车站","address":""},{"poiid":"B2094750DA69ABF94299","title":"宛平剧院","lon":"121.448257","lat":"31.187332","category":"248","category_name":"生活娱乐","address":"徐汇区中山南二路859号(近宛平南路)"},{"poiid":"B2094655D36CA1FE4393","title":"双峰路中山南二路","lon":"121.44847","lat":"31.18264","category":"38","category_name":"公交车站","address":""},{"poiid":"B2094757D568A6F5479B","title":"上海市宛平艺苑","lon":"121.451514","lat":"31.185034","category":"178","category_name":"电影院","address":"中山南二路859号"},{"poiid":"B2094655D268A1F4419F","title":"上海中医药大学学生公寓","lon":"121.44953","lat":"31.18661","category":"47","category_name":"住宅区","address":""},{"poiid":"B2094757D16CA1FF4999","title":"龙华医院急诊","lon":"121.446744536","lat":"31.1877531506","category":"162","category_name":"医院","address":"上海徐汇区宛平南路725号"},{"poiid":"B2094654DB64A5F54198","title":"苏州福东鑫","lon":"121.450175054","lat":"31.186587793","category":"68","category_name":"快餐厅","address":"徐汇区宛平南路735号(近中山南二路)"},{"poiid":"B2094757D068ABF8469E","title":"NIKE","lon":"121.449768586","lat":"31.189207629","category":"196","category_name":"公园","address":"徐汇区漕溪北路1111号东亚体育文化中心1号门(零陵路口)"},{"poiid":"B209475CD16DAAFC449D","title":"小辉哥火锅 正大乐城店","lon":"121.4529021","lat":"31.1861009","category":"86","category_name":"火锅店","address":"中山南二路669号2栋304-305正大乐城"},{"poiid":"B2094757D064A7F54293","title":"夏朵精品烘培","lon":"121.45131266","lat":"31.186186702","category":"67","category_name":"甜品店","address":"上海徐汇区天钥桥路214号哈尼美食广场3楼夏朵内(近南丹东路)"},{"poiid":"B2094655D26CA4FB4799","title":"上海交通大学医学院附属精神卫生中心","lon":"121.44866","lat":"31.18754","category":"52","category_name":"高等院校","address":"宛平南路600"},{"poiid":"B2094654DA6DA1FC4198","title":"天钥新村(中山南二路)","lon":"121.44714","lat":"31.18537","category":"47","category_name":"住宅区","address":"中山南二路918弄1-5号"},{"poiid":"B2094654DA6DA1FC449D","title":"上海市针灸经络研究所门诊部","lon":"121.44977","lat":"31.1865","category":"162","category_name":"医院","address":"徐汇区宛平南路650号"},{"poiid":"B2094757D068A4F5499A","title":"上海针灸研究所","lon":"121.44957295","lat":"31.186136422","category":"260","category_name":"其他","address":"上海宛平南路650号"},{"poiid":"B2094757D06BABFF479B","title":"小阁楼酒家","lon":"121.4504","lat":"31.18523","category":"76","category_name":"上海菜","address":"徐汇区宛平南路750号(近中山南二路)"},{"poiid":"B2094757D065A4FB499B","title":"吴越人家","lon":"121.45047","lat":"31.18522","category":"76","category_name":"上海菜","address":"徐汇区宛平南路740号(近中山南二路)"},{"poiid":"B2094654DA6DA1FC449E","title":"爱中爱华公寓","lon":"121.44948","lat":"31.186041","category":"47","category_name":"住宅区","address":"宛平南路656-658"},{"poiid":"B209475CDB6AA2F9459F","title":"上海体育场","lon":"121.450096","lat":"31.18581","category":"500","category_name":"未知分类","address":"上海市 上海体育场"},{"poiid":"B2094655D26FA6FF409A","title":"东安四村","lon":"121.45087","lat":"31.186504","category":"47","category_name":"住宅区","address":"宛平南路727号"},{"poiid":"B2094757D064ABFA4498","title":"龙华医院远志楼","lon":"121.44994","lat":"31.186949","category":"162","category_name":"医院","address":"上海宛平南路725号"},{"poiid":"B2094757D16FA0FB409E","title":"湖滨人家","lon":"121.45091","lat":"31.18471","category":"257","category_name":"中餐厅","address":"徐汇区宛平南路810号(近中山南二路)"},{"poiid":"B2094654DA6DA1FC4398","title":"申达利宏大楼","lon":"121.44961","lat":"31.185862","category":"47","category_name":"住宅区","address":"宛平南路734号"},{"poiid":"B2094757D068A7F44899","title":"上海中医药大学","lon":"121.449485","lat":"31.188716","category":"671","category_name":"高校中心点","address":"上海市浦东新区蔡伦路1200号"},{"poiid":"B2094654DA6DA1FC4499","title":"罗森(爱中爱华公寓南)","lon":"121.44983","lat":"31.18641","category":"117","category_name":"便民商店/便利店","address":""},{"poiid":"B2094655D26EA1FD4893","title":"上海市精神卫生中心老年期痴呆诊疗中心","lon":"121.44867","lat":"31.18754","category":"162","category_name":"医院","address":"宛平南路600号"},{"poiid":"B2094655D268A1F4419A","title":"上海中医药大学学生公寓(南门)","lon":"121.4496","lat":"31.18649","category":"47","category_name":"住宅区","address":""},{"poiid":"B2094757D464A7FF489E","title":"星期五 しゃぶしゃぶ食放題 Friday","lon":"121.44661382236","lat":"31.187398429974","category":"95","category_name":"日本料理","address":"零陵路627号近双峰北路"},{"poiid":"B2094655D26EA4F94893","title":"克莉丝汀饼屋(宛平南路店)","lon":"121.45087","lat":"31.18561","category":"112","category_name":"糕饼店","address":"徐汇区宛平南路759号-1(近龙华路)"},{"poiid":"B2094654DA6DA7FF429E","title":"中煌大厦","lon":"121.452345","lat":"31.187456","category":"46","category_name":"楼宇","address":"沈河北站路与北京街的交汇处"},{"poiid":"B2094654DA6DA1FC4292","title":"莎蔓莉莎美容院(中山南二路)","lon":"121.44993","lat":"31.1852","category":"148","category_name":"美容美发店","address":"徐汇区中山南二路896号(近宛平南路)"},{"poiid":"B2094757D06AA3FC4793","title":"华富大厦","lon":"121.448","lat":"31.1834","category":"252","category_name":"楼宇机构","address":"北一环与亳州路交叉口(庐阳区政府对面)"},{"poiid":"B2094757D169A0FF4393","title":"天钥新村","lon":"121.446525304","lat":"31.1853354701","category":"252","category_name":"楼宇机构","address":"上海天钥新村66号"},{"poiid":"B2094757D569A0F94898","title":"冰冰便当(宛平南路店)","lon":"121.450831","lat":"31.18478","category":"68","category_name":"快餐厅","address":"徐汇区宛平南路801号"},{"poiid":"B2094654DA6DA2FB499A","title":"海洋石油大厦","lon":"121.44766","lat":"31.18876","category":"46","category_name":"楼宇","address":"北一环与亳州路交叉口(庐阳区政府对面)"},{"poiid":"B2094757D66FA0FF409B","title":"喜士多(宛平南路店)","lon":"121.44981068","lat":"31.185108148","category":"117","category_name":"便民商店/便利店","address":"徐汇区宛平南路727号"},{"poiid":"B2094757D065A6F8469F","title":"大胡子烧烤","lon":"121.45105322","lat":"31.185858786","category":"247","category_name":"餐饮美食","address":"上海零陵路双峰北路"},{"poiid":"B2094654DA6DA1FC439D","title":"点藏休闲保健会所","lon":"121.45","lat":"31.18611","category":"149","category_name":"洗浴推拿场所","address":"徐汇区宛平南路672号(近中山南二路)"},{"poiid":"B2094757D169AAFA479D","title":"金朝好梦商务酒店","lon":"121.450658","lat":"31.185637","category":"217","category_name":"旅馆招待所","address":"上海市徐汇区宛平南路737号(近中山南二路)"},{"poiid":"B2094654DA6EA2F4489B","title":"东安四村(西门)","lon":"121.45026","lat":"31.18636","category":"47","category_name":"住宅区","address":"宛平南路727号"},{"poiid":"B2094655D36DA7F84692","title":"中山南二路宛平路","lon":"121.44929","lat":"31.18444","category":"38","category_name":"公交车站","address":""},{"poiid":"B2094753D669A1F94893","title":"掌上韩品（星游城店）","lon":"121.447349","lat":"31.18342","category":"247","category_name":"餐饮美食","address":"上海市 上海体育场"},{"poiid":"B209475CD26FA5FF4493","title":"镰仓PASTA（星游城店）","lon":"121.449806","lat":"31.186798","category":"500","category_name":"未知分类","address":"上海市 天钥桥路576号"},{"poiid":"B2094654DA6DA0F54293","title":"东亚大厦","lon":"121.44641755121","lat":"31.186094978075","category":"46","category_name":"楼宇","address":"上海中山南二路1500号"},{"poiid":"B2094757D66CA0FD4093","title":"春草堂","lon":"121.4499836","lat":"31.1865153","category":"500","category_name":"未知分类","address":"上海宛平南路"},{"poiid":"B2094757D569A6FB4492","title":"喜士多便利店","lon":"121.45022732","lat":"31.18648763","category":"117","category_name":"便民商店/便利店","address":"零陵路520号"},{"poiid":"B2094757D065AAFC409B","title":"宛平南路申达利宏","lon":"121.45010358","lat":"31.185899564","category":"500","category_name":"未知分类","address":"上海市徐汇区零陵路"},{"poiid":"B2094654DA6DA7F84892","title":"宛南小区","lon":"121.44946","lat":"31.183348","category":"47","category_name":"住宅区","address":"中山南二路925弄"},{"poiid":"B2094654DA6EA2F4499A","title":"上海中医药大学附属龙华医院","lon":"121.45011","lat":"31.18796","category":"162","category_name":"医院","address":"徐汇区零陵路532号"},{"poiid":"B2094655D36CA1F8439D","title":"龙华医院","lon":"121.44931","lat":"31.18777","category":"162","category_name":"医院","address":""},{"poiid":"B2094757D06FA3FB439A","title":"上海市精神卫生中心","lon":"121.44868469","lat":"31.188173294","category":"162","category_name":"医院","address":"徐汇区宛平南路600号(零陵路宛平南路)"},{"poiid":"B2094655D36DA7F84693","title":"中山南二路宛平南路","lon":"121.44991","lat":"31.18488","category":"38","category_name":"公交车站","address":""},{"poiid":"B2094750DA69ABF94299","title":"宛平剧院","lon":"121.448257","lat":"31.187332","category":"248","category_name":"生活娱乐","address":"徐汇区中山南二路859号(近宛平南路)"},{"poiid":"B2094655D36CA1FE4393","title":"双峰路中山南二路","lon":"121.44847","lat":"31.18264","category":"38","category_name":"公交车站","address":""},{"poiid":"B2094757D568A6F5479B","title":"上海市宛平艺苑","lon":"121.451514","lat":"31.185034","category":"178","category_name":"电影院","address":"中山南二路859号"},{"poiid":"B2094655D268A1F4419F","title":"上海中医药大学学生公寓","lon":"121.44953","lat":"31.18661","category":"47","category_name":"住宅区","address":""},{"poiid":"B2094757D16CA1FF4999","title":"龙华医院急诊","lon":"121.446744536","lat":"31.1877531506","category":"162","category_name":"医院","address":"上海徐汇区宛平南路725号"},{"poiid":"B2094654DB64A5F54198","title":"苏州福东鑫","lon":"121.450175054","lat":"31.186587793","category":"68","category_name":"快餐厅","address":"徐汇区宛平南路735号(近中山南二路)"},{"poiid":"B2094757D068ABF8469E","title":"NIKE","lon":"121.449768586","lat":"31.189207629","category":"196","category_name":"公园","address":"徐汇区漕溪北路1111号东亚体育文化中心1号门(零陵路口)"},{"poiid":"B209475CD16DAAFC449D","title":"小辉哥火锅 正大乐城店","lon":"121.4529021","lat":"31.1861009","category":"86","category_name":"火锅店","address":"中山南二路669号2栋304-305正大乐城"},{"poiid":"B2094757D064A7F54293","title":"夏朵精品烘培","lon":"121.45131266","lat":"31.186186702","category":"67","category_name":"甜品店","address":"上海徐汇区天钥桥路214号哈尼美食广场3楼夏朵内(近南丹东路)"},{"poiid":"B2094655D26CA4FB4799","title":"上海交通大学医学院附属精神卫生中心","lon":"121.44866","lat":"31.18754","category":"52","category_name":"高等院校","address":"宛平南路600"},{"poiid":"B2094654DA6DA1FC4198","title":"天钥新村(中山南二路)","lon":"121.44714","lat":"31.18537","category":"47","category_name":"住宅区","address":"中山南二路918弄1-5号"},{"poiid":"B2094654DA6DA1FC449D","title":"上海市针灸经络研究所门诊部","lon":"121.44977","lat":"31.1865","category":"162","category_name":"医院","address":"徐汇区宛平南路650号"},{"poiid":"B2094757D068A4F5499A","title":"上海针灸研究所","lon":"121.44957295","lat":"31.186136422","category":"260","category_name":"其他","address":"上海宛平南路650号"},{"poiid":"B2094757D06BABFF479B","title":"小阁楼酒家","lon":"121.4504","lat":"31.18523","category":"76","category_name":"上海菜","address":"徐汇区宛平南路750号(近中山南二路)"},{"poiid":"B2094757D065A4FB499B","title":"吴越人家","lon":"121.45047","lat":"31.18522","category":"76","category_name":"上海菜","address":"徐汇区宛平南路740号(近中山南二路)"},{"poiid":"B2094654DA6DA1FC449E","title":"爱中爱华公寓","lon":"121.44948","lat":"31.186041","category":"47","category_name":"住宅区","address":"宛平南路656-658"},{"poiid":"B209475CDB6AA2F9459F","title":"上海体育场","lon":"121.450096","lat":"31.18581","category":"500","category_name":"未知分类","address":"上海市 上海体育场"},{"poiid":"B2094655D26FA6FF409A","title":"东安四村","lon":"121.45087","lat":"31.186504","category":"47","category_name":"住宅区","address":"宛平南路727号"},{"poiid":"B2094757D064ABFA4498","title":"龙华医院远志楼","lon":"121.44994","lat":"31.186949","category":"162","category_name":"医院","address":"上海宛平南路725号"},{"poiid":"B2094757D16FA0FB409E","title":"湖滨人家","lon":"121.45091","lat":"31.18471","category":"257","category_name":"中餐厅","address":"徐汇区宛平南路810号(近中山南二路)"},{"poiid":"B2094654DA6DA1FC4398","title":"申达利宏大楼","lon":"121.44961","lat":"31.185862","category":"47","category_name":"住宅区","address":"宛平南路734号"},{"poiid":"B2094757D068A7F44899","title":"上海中医药大学","lon":"121.449485","lat":"31.188716","category":"671","category_name":"高校中心点","address":"上海市浦东新区蔡伦路1200号"},{"poiid":"B2094654DA6DA1FC4499","title":"罗森(爱中爱华公寓南)","lon":"121.44983","lat":"31.18641","category":"117","category_name":"便民商店/便利店","address":""},{"poiid":"B2094655D26EA1FD4893","title":"上海市精神卫生中心老年期痴呆诊疗中心","lon":"121.44867","lat":"31.18754","category":"162","category_name":"医院","address":"宛平南路600号"},{"poiid":"B2094655D268A1F4419A","title":"上海中医药大学学生公寓(南门)","lon":"121.4496","lat":"31.18649","category":"47","category_name":"住宅区","address":""},{"poiid":"B2094757D464A7FF489E","title":"星期五 しゃぶしゃぶ食放題 Friday","lon":"121.44661382236","lat":"31.187398429974","category":"95","category_name":"日本料理","address":"零陵路627号近双峰北路"},{"poiid":"B2094655D26EA4F94893","title":"克莉丝汀饼屋(宛平南路店)","lon":"121.45087","lat":"31.18561","category":"112","category_name":"糕饼店","address":"徐汇区宛平南路759号-1(近龙华路)"},{"poiid":"B2094654DA6DA7FF429E","title":"中煌大厦","lon":"121.452345","lat":"31.187456","category":"46","category_name":"楼宇","address":"沈河北站路与北京街的交汇处"},{"poiid":"B2094654DA6DA1FC4292","title":"莎蔓莉莎美容院(中山南二路)","lon":"121.44993","lat":"31.1852","category":"148","category_name":"美容美发店","address":"徐汇区中山南二路896号(近宛平南路)"},{"poiid":"B2094757D06AA3FC4793","title":"华富大厦","lon":"121.448","lat":"31.1834","category":"252","category_name":"楼宇机构","address":"北一环与亳州路交叉口(庐阳区政府对面)"},{"poiid":"B2094757D169A0FF4393","title":"天钥新村","lon":"121.446525304","lat":"31.1853354701","category":"252","category_name":"楼宇机构","address":"上海天钥新村66号"},{"poiid":"B2094757D569A0F94898","title":"冰冰便当(宛平南路店)","lon":"121.450831","lat":"31.18478","category":"68","category_name":"快餐厅","address":"徐汇区宛平南路801号"},{"poiid":"B2094654DA6DA2FB499A","title":"海洋石油大厦","lon":"121.44766","lat":"31.18876","category":"46","category_name":"楼宇","address":"北一环与亳州路交叉口(庐阳区政府对面)"},{"poiid":"B2094757D66FA0FF409B","title":"喜士多(宛平南路店)","lon":"121.44981068","lat":"31.185108148","category":"117","category_name":"便民商店/便利店","address":"徐汇区宛平南路727号"},{"poiid":"B2094757D065A6F8469F","title":"大胡子烧烤","lon":"121.45105322","lat":"31.185858786","category":"247","category_name":"餐饮美食","address":"上海零陵路双峰北路"},{"poiid":"B2094654DA6DA1FC439D","title":"点藏休闲保健会所","lon":"121.45","lat":"31.18611","category":"149","category_name":"洗浴推拿场所","address":"徐汇区宛平南路672号(近中山南二路)"},{"poiid":"B2094757D169AAFA479D","title":"金朝好梦商务酒店","lon":"121.450658","lat":"31.185637","category":"217","category_name":"旅馆招待所","address":"上海市徐汇区宛平南路737号(近中山南二路)"},{"poiid":"B2094654DA6EA2F4489B","title":"东安四村(西门)","lon":"121.45026","lat":"31.18636","category":"47","category_name":"住宅区","address":"宛平南路727号"},{"poiid":"B2094655D36DA7F84692","title":"中山南二路宛平路","lon":"121.44929","lat":"31.18444","category":"38","category_name":"公交车站","address":""},{"poiid":"B2094753D669A1F94893","title":"掌上韩品（星游城店）","lon":"121.447349","lat":"31.18342","category":"247","category_name":"餐饮美食","address":"上海市 上海体育场"},{"poiid":"B209475CD26FA5FF4493","title":"镰仓PASTA（星游城店）","lon":"121.449806","lat":"31.186798","category":"500","category_name":"未知分类","address":"上海市 天钥桥路576号"},{"poiid":"B2094654DA6DA0F54293","title":"东亚大厦","lon":"121.44641755121","lat":"31.186094978075","category":"46","category_name":"楼宇","address":"上海中山南二路1500号"},{"poiid":"B2094757D66CA0FD4093","title":"春草堂","lon":"121.4499836","lat":"31.1865153","category":"500","category_name":"未知分类","address":"上海宛平南路"},{"poiid":"B2094757D569A6FB4492","title":"喜士多便利店","lon":"121.45022732","lat":"31.18648763","category":"117","category_name":"便民商店/便利店","address":"零陵路520号"},{"poiid":"B2094757D065AAFC409B","title":"宛平南路申达利宏","lon":"121.45010358","lat":"31.185899564","category":"500","category_name":"未知分类","address":"上海市徐汇区零陵路"},{"poiid":"B2094654DA6DA7F84892","title":"宛南小区","lon":"121.44946","lat":"31.183348","category":"47","category_name":"住宅区","address":"中山南二路925弄"}]