[{"poiid":"B2094655D268A1FC4398","title":"五月花生活广场","lon":"121.45763","lat":"31.25635","category":"47","category_name":"住宅区","address":"闸北区芷江西路、普善路"},{"poiid":"B2094757D568A7F54498","title":"上海滩.大宁城","lon":"121.45499","lat":"31.259834","category":"46","category_name":"楼宇","address":"上海市闸北区中山北路899弄"},{"poiid":"B2094757D069A3FD429A","title":"北美公寓","lon":"121.45554053","lat":"31.258210487","category":"47","category_name":"住宅区","address":"上海市芷江西路521弄"},{"poiid":"B2094757D66CA3F8449E","title":"威尔士健身会所芷江西路店","lon":"121.457819","lat":"31.2568692","category":"500","category_name":"未知分类","address":"闸北区芷江西路488号(近北美公寓)"},{"poiid":"B2094751DA6AABF8459C","title":"上海外滩","lon":"121.454437","lat":"31.256653","category":"500","category_name":"未知分类","address":null},{"poiid":"B2094757D068A4FC419F","title":"和泰花园","lon":"121.45147","lat":"31.257212","category":"47","category_name":"住宅区","address":"上海市闸北区沪太路555弄"},{"poiid":"B2094757D76AA6FE4198","title":"谢记重庆麻辣烫 芷江西路店","lon":"121.456205","lat":"31.256621","category":"68","category_name":"快餐厅","address":"闸北区芷江西路487号(近普善路)"},{"poiid":"B2094757D16BA7FF4498","title":"京世造型","lon":"121.455735103","lat":"31.2563981292","category":"148","category_name":"美容美发店","address":"上海芷江西路549号(普善路口)"},{"poiid":"B2094753D56EA6FD4992","title":"梅赛德斯-奔驰文化中心","lon":"121.455154","lat":"31.256872","category":"500","category_name":"未知分类","address":"上海市 上海市浦东世博大道1200号"},{"poiid":"B2094757D06FAAFE4298","title":"越秀苑","lon":"121.4585","lat":"31.254604","category":"500","category_name":"未知分类","address":"上海市闸北区大统路938弄"},{"poiid":"B2094757D76AA6FE409C","title":"重庆鸡公煲 普善路店","lon":"121.45529","lat":"31.25691","category":"86","category_name":"火锅店","address":"闸北区普善路228号(近芷江西路)"},{"poiid":"B2094654D464A2F94793","title":"华舟大厦","lon":"121.45287","lat":"31.255368","category":"46","category_name":"楼宇","address":"华舟大厦位于闸北沪太路315弄"},{"poiid":"B2094757D068ABFE439B","title":"紫兰苑","lon":"121.45522","lat":"31.255281","category":"47","category_name":"住宅区","address":"上海市闸北区中华新路939弄"},{"poiid":"B2094751DA6DA3F84193","title":"第十人民医院","lon":"121.453423","lat":"31.256281","category":"162","category_name":"医院","address":"延长中路"},{"poiid":"B2094750DB6EA4F44999","title":"锦福公寓","lon":"121.45506","lat":"31.256615","category":"47","category_name":"住宅区","address":"上海市闸北区芷江西路593号"},{"poiid":"B2094757D66AABFE469D","title":"吃饭辰光 普善路店","lon":"121.45503987737","lat":"31.258225696478","category":"76","category_name":"上海菜","address":"闸北区普善路284号(中山北路芷江西路间)"},{"poiid":"B2094654D464A1FE4493","title":"克丽缇娜No.08161","lon":"121.45529","lat":"31.25688","category":"148","category_name":"美容美发店","address":"天目西路"},{"poiid":"B2094757D06FA3F54499","title":"无印良品MUJI(大悦城店)","lon":"121.45269408","lat":"31.253671806","category":"123","category_name":"家具建材市场","address":"上海市闸北区西藏北路166号大悦城3楼(近曲阜路)"},{"poiid":"B2094655D26EA1F94293","title":"浩翔大楼","lon":"121.45477","lat":"31.25749","category":"46","category_name":"楼宇","address":"普善路280"},{"poiid":"B2094654D464A1FE449A","title":"浩翔都市型工业园区","lon":"121.45478","lat":"31.25748","category":"45","category_name":"产业园区","address":"普善路280"},{"poiid":"B2094655D26AA4F94899","title":"满堂春茶叶市场","lon":"121.45469","lat":"31.25788","category":"247","category_name":"餐饮美食","address":"闸北区普善路259-300号(近中山北路)"},{"poiid":"B2094654D464A1FE459C","title":"永琪美容美发(芷江西路)","lon":"121.4552","lat":"31.25658","category":"148","category_name":"美容美发店","address":"闸北区芷江西路571号(近普善路)"},{"poiid":"B2094750D26CA5F44392","title":"57湘","lon":"121.4545438314949","lat":"31.25655088948429","category":"247","category_name":"餐饮美食","address":null},{"poiid":"B2094757D064A2FF439A","title":"华阴路","lon":"121.454837544","lat":"31.2568056377","category":"500","category_name":"未知分类","address":"上海华阴路"},{"poiid":"B2094655D26AA7FC449C","title":"如家快捷酒店火车站店","lon":"121.4591","lat":"31.25807","category":"247","category_name":"餐饮美食","address":"闸北区大统路1128号如家快捷酒店(近一号线中山北路站)"},{"poiid":"B2094752D769AAFB469F","title":"虹桥火车站","lon":"121.454986","lat":"31.257027","category":"248","category_name":"生活娱乐","address":null},{"poiid":"B2094654DB69A7F5479D","title":"U品(紫兰苑二期)","lon":"121.45592","lat":"31.25626","category":"47","category_name":"住宅区","address":"闸北区芷江西路与普善路交界处"},{"poiid":"B2094757D76AA1FE429A","title":"红宝石 芷江西路店","lon":"121.45893","lat":"31.2572","category":"67","category_name":"甜品店","address":"闸北区芷江西路363号(近火车站)"},{"poiid":"B2094750D768ABFF449F","title":"巴黎贝甜(芷江西路店)","lon":"121.458","lat":"31.2567","category":"67","category_name":"甜品店","address":"闸北区芷江西路488号五月花生活广场(近普善路)"},{"poiid":"B2094757D16DA7FC499F","title":"中共上海铁路局委员会党校","lon":"121.45471191","lat":"31.256160736","category":"500","category_name":"未知分类","address":"上海芷江西路629号"},{"poiid":"B2094655D26CA0FE4792","title":"普铁新村芷江西路629弄","lon":"121.45386","lat":"31.25618","category":"47","category_name":"住宅区","address":"芷江西路629弄"},{"poiid":"B2094654D464A1FC449E","title":"台都宾馆","lon":"121.45578","lat":"31.25698","category":"250","category_name":"公园户外","address":"闸北区普善路213号(普善路芷江西路)"},{"poiid":"B2094654D464A2FA409F","title":"昆明大楼","lon":"121.45397","lat":"31.25461","category":"46","category_name":"楼宇","address":"静安区长寿路(万航渡路口)"},{"poiid":"B2094654DB6AA4F44093","title":"锦福公寓(南门)","lon":"121.45477","lat":"31.25646","category":"48","category_name":"楼宇大门","address":"芷江西路593弄"},{"poiid":"B2094655D268A0F5429C","title":"7天连锁酒店上海火车站店","lon":"121.45397","lat":"31.25461","category":"216","category_name":"经济型连锁酒店","address":"闸北区中华新路999号(近沪太路)"},{"poiid":"B2094757D16BA3FC479D","title":"馨佳园","lon":"121.45454415","lat":"31.2565760036","category":"500","category_name":"未知分类","address":"上海市宝山区菊泉街1280弄"},{"poiid":"B2094757D06AABFC409E","title":"重庆谢记麻辣烫","lon":"121.4573381","lat":"31.25691814","category":"247","category_name":"餐饮美食","address":"上海芷江西路487号"},{"poiid":"B2094655D26CA1F5409E","title":"芷江西路453弄","lon":"121.45716","lat":"31.25728","category":"47","category_name":"住宅区","address":"闸北区青云路453号(近宝昌路)"},{"poiid":"B2094751DA6BABF54692","title":"刘记麻辣烫","lon":"121.457","lat":"31.25698","category":"68","category_name":"快餐厅","address":"闸北区芷江西路477号(近普善路)"},{"poiid":"B2094750D26EA2FC4899","title":"闸北区中心医院","lon":"121.4574438310962","lat":"31.25597075338278","category":"162","category_name":"医院","address":null},{"poiid":"B2094654D464A1FF4292","title":"光明乳业浦善配送站(中山北路)","lon":"121.45415","lat":"31.25872","category":"117","category_name":"便民商店/便利店","address":""},{"poiid":"B2094654D464A1FC4793","title":"上海第二工业大学闸北分校","lon":"121.45538","lat":"31.25885","category":"52","category_name":"高等院校","address":"闸北区中山北路900"},{"poiid":"B2094750DB65AAFC499A","title":"石头铁板烧","lon":"121.451667","lat":"31.257375","category":"269","category_name":"烧烤","address":"闸北区芷江西路488号五月花广场2楼(近地铁一号线中山北路站)"},{"poiid":"B2094752D26CA4FF489D","title":"尼积咖啡","lon":"121.45414","lat":"31.25943","category":"247","category_name":"餐饮美食","address":"闸北区恒丰路436号(普济路口)"},{"poiid":"B2094757D16FA0FF439E","title":"共和新路立交桥","lon":"121.4571335","lat":"31.259705198","category":"260","category_name":"其他","address":"上海南北高架路内环高架路互通(中山北路共和新路口)"},{"poiid":"B2094654D464A1FD429E","title":"光明便利No.454","lon":"121.4547","lat":"31.25893","category":"117","category_name":"便民商店/便利店","address":"中山北路916"},{"poiid":"B2094654DB69A6FE4993","title":"兴联公寓","lon":"121.45214","lat":"31.256426","category":"47","category_name":"住宅区","address":"兴联公寓位于闸北沪太路453弄88号"},{"poiid":"B2094757D165A1F8429E","title":"新沃会计师事务所","lon":"121.454889503","lat":"31.2591946877","category":"46","category_name":"楼宇","address":"上海中山北路900号1号楼6A"},{"poiid":"B2094757D16AA1F44793","title":"胖子客家菜","lon":"121.45184595","lat":"31.2558687901","category":"247","category_name":"餐饮美食","address":"静安区安远路222号(陕西北路口)"},{"poiid":"B2094655D26EA4F44999","title":"吉泰连锁酒店(中山北路店)","lon":"121.45133","lat":"31.25809","category":"250","category_name":"公园户外","address":"普陀区中山北路1038号(近沪太路)"},{"poiid":"B2094655D268A1FC4398","title":"五月花生活广场","lon":"121.45763","lat":"31.25635","category":"47","category_name":"住宅区","address":"闸北区芷江西路、普善路"},{"poiid":"B2094757D568A7F54498","title":"上海滩.大宁城","lon":"121.45499","lat":"31.259834","category":"46","category_name":"楼宇","address":"上海市闸北区中山北路899弄"},{"poiid":"B2094757D069A3FD429A","title":"北美公寓","lon":"121.45554053","lat":"31.258210487","category":"47","category_name":"住宅区","address":"上海市芷江西路521弄"},{"poiid":"B2094757D66CA3F8449E","title":"威尔士健身会所芷江西路店","lon":"121.457819","lat":"31.2568692","category":"500","category_name":"未知分类","address":"闸北区芷江西路488号(近北美公寓)"},{"poiid":"B2094751DA6AABF8459C","title":"上海外滩","lon":"121.454437","lat":"31.256653","category":"500","category_name":"未知分类","address":null},{"poiid":"B2094757D068A4FC419F","title":"和泰花园","lon":"121.45147","lat":"31.257212","category":"47","category_name":"住宅区","address":"上海市闸北区沪太路555弄"},{"poiid":"B2094757D76AA6FE4198","title":"谢记重庆麻辣烫 芷江西路店","lon":"121.456205","lat":"31.256621","category":"68","category_name":"快餐厅","address":"闸北区芷江西路487号(近普善路)"},{"poiid":"B2094757D16BA7FF4498","title":"京世造型","lon":"121.455735103","lat":"31.2563981292","category":"148","category_name":"美容美发店","address":"上海芷江西路549号(普善路口)"},{"poiid":"B2094753D56EA6FD4992","title":"梅赛德斯-奔驰文化中心","lon":"121.455154","lat":"31.256872","category":"500","category_name":"未知分类","address":"上海市 上海市浦东世博大道1200号"},{"poiid":"B2094757D06FAAFE4298","title":"越秀苑","lon":"121.4585","lat":"31.254604","category":"500","category_name":"未知分类","address":"上海市闸北区大统路938弄"},{"poiid":"B2094757D76AA6FE409C","title":"重庆鸡公煲 普善路店","lon":"121.45529","lat":"31.25691","category":"86","category_name":"火锅店","address":"闸北区普善路228号(近芷江西路)"},{"poiid":"B2094654D464A2F94793","title":"华舟大厦","lon":"121.45287","lat":"31.255368","category":"46","category_name":"楼宇","address":"华舟大厦位于闸北沪太路315弄"},{"poiid":"B2094757D068ABFE439B","title":"紫兰苑","lon":"121.45522","lat":"31.255281","category":"47","category_name":"住宅区","address":"上海市闸北区中华新路939弄"},{"poiid":"B2094751DA6DA3F84193","title":"第十人民医院","lon":"121.453423","lat":"31.256281","category":"162","category_name":"医院","address":"延长中路"},{"poiid":"B2094750DB6EA4F44999","title":"锦福公寓","lon":"121.45506","lat":"31.256615","category":"47","category_name":"住宅区","address":"上海市闸北区芷江西路593号"},{"poiid":"B2094757D66AABFE469D","title":"吃饭辰光 普善路店","lon":"121.45503987737","lat":"31.258225696478","category":"76","category_name":"上海菜","address":"闸北区普善路284号(中山北路芷江西路间)"},{"poiid":"B2094654D464A1FE4493","title":"克丽缇娜No.08161","lon":"121.45529","lat":"31.25688","category":"148","category_name":"美容美发店","address":"天目西路"},{"poiid":"B2094757D06FA3F54499","title":"无印良品MUJI(大悦城店)","lon":"121.45269408","lat":"31.253671806","category":"123","category_name":"家具建材市场","address":"上海市闸北区西藏北路166号大悦城3楼(近曲阜路)"},{"poiid":"B2094655D26EA1F94293","title":"浩翔大楼","lon":"121.45477","lat":"31.25749","category":"46","category_name":"楼宇","address":"普善路280"},{"poiid":"B2094654D464A1FE449A","title":"浩翔都市型工业园区","lon":"121.45478","lat":"31.25748","category":"45","category_name":"产业园区","address":"普善路280"},{"poiid":"B2094655D26AA4F94899","title":"满堂春茶叶市场","lon":"121.45469","lat":"31.25788","category":"247","category_name":"餐饮美食","address":"闸北区普善路259-300号(近中山北路)"},{"poiid":"B2094654D464A1FE459C","title":"永琪美容美发(芷江西路)","lon":"121.4552","lat":"31.25658","category":"148","category_name":"美容美发店","address":"闸北区芷江西路571号(近普善路)"},{"poiid":"B2094750D26CA5F44392","title":"57湘","lon":"121.4545438314949","lat":"31.25655088948429","category":"247","category_name":"餐饮美食","address":null},{"poiid":"B2094757D064A2FF439A","title":"华阴路","lon":"121.454837544","lat":"31.2568056377","category":"500","category_name":"未知分类","address":"上海华阴路"},{"poiid":"B2094655D26AA7FC449C","title":"如家快捷酒店火车站店","lon":"121.4591","lat":"31.25807","category":"247","category_name":"餐饮美食","address":"闸北区大统路1128号如家快捷酒店(近一号线中山北路站)"},{"poiid":"B2094752D769AAFB469F","title":"虹桥火车站","lon":"121.454986","lat":"31.257027","category":"248","category_name":"生活娱乐","address":null},{"poiid":"B2094654DB69A7F5479D","title":"U品(紫兰苑二期)","lon":"121.45592","lat":"31.25626","category":"47","category_name":"住宅区","address":"闸北区芷江西路与普善路交界处"},{"poiid":"B2094757D76AA1FE429A","title":"红宝石 芷江西路店","lon":"121.45893","lat":"31.2572","category":"67","category_name":"甜品店","address":"闸北区芷江西路363号(近火车站)"},{"poiid":"B2094750D768ABFF449F","title":"巴黎贝甜(芷江西路店)","lon":"121.458","lat":"31.2567","category":"67","category_name":"甜品店","address":"闸北区芷江西路488号五月花生活广场(近普善路)"},{"poiid":"B2094757D16DA7FC499F","title":"中共上海铁路局委员会党校","lon":"121.45471191","lat":"31.256160736","category":"500","category_name":"未知分类","address":"上海芷江西路629号"},{"poiid":"B2094655D26CA0FE4792","title":"普铁新村芷江西路629弄","lon":"121.45386","lat":"31.25618","category":"47","category_name":"住宅区","address":"芷江西路629弄"},{"poiid":"B2094654D464A1FC449E","title":"台都宾馆","lon":"121.45578","lat":"31.25698","category":"250","category_name":"公园户外","address":"闸北区普善路213号(普善路芷江西路)"},{"poiid":"B2094654D464A2FA409F","title":"昆明大楼","lon":"121.45397","lat":"31.25461","category":"46","category_name":"楼宇","address":"静安区长寿路(万航渡路口)"},{"poiid":"B2094654DB6AA4F44093","title":"锦福公寓(南门)","lon":"121.45477","lat":"31.25646","category":"48","category_name":"楼宇大门","address":"芷江西路593弄"},{"poiid":"B2094655D268A0F5429C","title":"7天连锁酒店上海火车站店","lon":"121.45397","lat":"31.25461","category":"216","category_name":"经济型连锁酒店","address":"闸北区中华新路999号(近沪太路)"},{"poiid":"B2094757D16BA3FC479D","title":"馨佳园","lon":"121.45454415","lat":"31.2565760036","category":"500","category_name":"未知分类","address":"上海市宝山区菊泉街1280弄"},{"poiid":"B2094757D06AABFC409E","title":"重庆谢记麻辣烫","lon":"121.4573381","lat":"31.25691814","category":"247","category_name":"餐饮美食","address":"上海芷江西路487号"},{"poiid":"B2094655D26CA1F5409E","title":"芷江西路453弄","lon":"121.45716","lat":"31.25728","category":"47","category_name":"住宅区","address":"闸北区青云路453号(近宝昌路)"},{"poiid":"B2094751DA6BABF54692","title":"刘记麻辣烫","lon":"121.457","lat":"31.25698","category":"68","category_name":"快餐厅","address":"闸北区芷江西路477号(近普善路)"},{"poiid":"B2094750D26EA2FC4899","title":"闸北区中心医院","lon":"121.4574438310962","lat":"31.25597075338278","category":"162","category_name":"医院","address":null},{"poiid":"B2094654D464A1FF4292","title":"光明乳业浦善配送站(中山北路)","lon":"121.45415","lat":"31.25872","category":"117","category_name":"便民商店/便利店","address":""},{"poiid":"B2094654D464A1FC4793","title":"上海第二工业大学闸北分校","lon":"121.45538","lat":"31.25885","category":"52","category_name":"高等院校","address":"闸北区中山北路900"},{"poiid":"B2094750DB65AAFC499A","title":"石头铁板烧","lon":"121.451667","lat":"31.257375","category":"269","category_name":"烧烤","address":"闸北区芷江西路488号五月花广场2楼(近地铁一号线中山北路站)"},{"poiid":"B2094752D26CA4FF489D","title":"尼积咖啡","lon":"121.45414","lat":"31.25943","category":"247","category_name":"餐饮美食","address":"闸北区恒丰路436号(普济路口)"},{"poiid":"B2094757D16FA0FF439E","title":"共和新路立交桥","lon":"121.4571335","lat":"31.259705198","category":"260","category_name":"其他","address":"上海南北高架路内环高架路互通(中山北路共和新路口)"},{"poiid":"B2094654D464A1FD429E","title":"光明便利No.454","lon":"121.4547","lat":"31.25893","category":"117","category_name":"便民商店/便利店","address":"中山北路916"},{"poiid":"B2094654DB69A6FE4993","title":"兴联公寓","lon":"121.45214","lat":"31.256426","category":"47","category_name":"住宅区","address":"兴联公寓位于闸北沪太路453弄88号"},{"poiid":"B2094757D165A1F8429E","title":"新沃会计师事务所","lon":"121.454889503","lat":"31.2591946877","category":"46","category_name":"楼宇","address":"上海中山北路900号1号楼6A"},{"poiid":"B2094757D16AA1F44793","title":"胖子客家菜","lon":"121.45184595","lat":"31.2558687901","category":"247","category_name":"餐饮美食","address":"静安区安远路222号(陕西北路口)"},{"poiid":"B2094655D26EA4F44999","title":"吉泰连锁酒店(中山北路店)","lon":"121.45133","lat":"31.25809","category":"250","category_name":"公园户外","address":"普陀区中山北路1038号(近沪太路)"},{"poiid":"B2094655D268A1FC4398","title":"五月花生活广场","lon":"121.45763","lat":"31.25635","category":"47","category_name":"住宅区","address":"闸北区芷江西路、普善路"},{"poiid":"B2094757D568A7F54498","title":"上海滩.大宁城","lon":"121.45499","lat":"31.259834","category":"46","category_name":"楼宇","address":"上海市闸北区中山北路899弄"},{"poiid":"B2094757D069A3FD429A","title":"北美公寓","lon":"121.45554053","lat":"31.258210487","category":"47","category_name":"住宅区","address":"上海市芷江西路521弄"},{"poiid":"B2094757D66CA3F8449E","title":"威尔士健身会所芷江西路店","lon":"121.457819","lat":"31.2568692","category":"500","category_name":"未知分类","address":"闸北区芷江西路488号(近北美公寓)"},{"poiid":"B2094751DA6AABF8459C","title":"上海外滩","lon":"121.454437","lat":"31.256653","category":"500","category_name":"未知分类","address":null},{"poiid":"B2094757D068A4FC419F","title":"和泰花园","lon":"121.45147","lat":"31.257212","category":"47","category_name":"住宅区","address":"上海市闸北区沪太路555弄"},{"poiid":"B2094757D76AA6FE4198","title":"谢记重庆麻辣烫 芷江西路店","lon":"121.456205","lat":"31.256621","category":"68","category_name":"快餐厅","address":"闸北区芷江西路487号(近普善路)"},{"poiid":"B2094757D16BA7FF4498","title":"京世造型","lon":"121.455735103","lat":"31.2563981292","category":"148","category_name":"美容美发店","address":"上海芷江西路549号(普善路口)"},{"poiid":"B2094753D56EA6FD4992","title":"梅赛德斯-奔驰文化中心","lon":"121.455154","lat":"31.256872","category":"500","category_name":"未知分类","address":"上海市 上海市浦东世博大道1200号"},{"poiid":"B2094757D06FAAFE4298","title":"越秀苑","lon":"121.4585","lat":"31.254604","category":"500","category_name":"未知分类","address":"上海市闸北区大统路938弄"},{"poiid":"B2094757D76AA6FE409C","title":"重庆鸡公煲 普善路店","lon":"121.45529","lat":"31.25691","category":"86","category_name":"火锅店","address":"闸北区普善路228号(近芷江西路)"},{"poiid":"B2094654D464A2F94793","title":"华舟大厦","lon":"121.45287","lat":"31.255368","category":"46","category_name":"楼宇","address":"华舟大厦位于闸北沪太路315弄"},{"poiid":"B2094757D068ABFE439B","title":"紫兰苑","lon":"121.45522","lat":"31.255281","category":"47","category_name":"住宅区","address":"上海市闸北区中华新路939弄"},{"poiid":"B2094751DA6DA3F84193","title":"第十人民医院","lon":"121.453423","lat":"31.256281","category":"162","category_name":"医院","address":"延长中路"},{"poiid":"B2094750DB6EA4F44999","title":"锦福公寓","lon":"121.45506","lat":"31.256615","category":"47","category_name":"住宅区","address":"上海市闸北区芷江西路593号"},{"poiid":"B2094757D66AABFE469D","title":"吃饭辰光 普善路店","lon":"121.45503987737","lat":"31.258225696478","category":"76","category_name":"上海菜","address":"闸北区普善路284号(中山北路芷江西路间)"},{"poiid":"B2094654D464A1FE4493","title":"克丽缇娜No.08161","lon":"121.45529","lat":"31.25688","category":"148","category_name":"美容美发店","address":"天目西路"},{"poiid":"B2094757D06FA3F54499","title":"无印良品MUJI(大悦城店)","lon":"121.45269408","lat":"31.253671806","category":"123","category_name":"家具建材市场","address":"上海市闸北区西藏北路166号大悦城3楼(近曲阜路)"},{"poiid":"B2094655D26EA1F94293","title":"浩翔大楼","lon":"121.45477","lat":"31.25749","category":"46","category_name":"楼宇","address":"普善路280"},{"poiid":"B2094654D464A1FE449A","title":"浩翔都市型工业园区","lon":"121.45478","lat":"31.25748","category":"45","category_name":"产业园区","address":"普善路280"},{"poiid":"B2094655D26AA4F94899","title":"满堂春茶叶市场","lon":"121.45469","lat":"31.25788","category":"247","category_name":"餐饮美食","address":"闸北区普善路259-300号(近中山北路)"},{"poiid":"B2094654D464A1FE459C","title":"永琪美容美发(芷江西路)","lon":"121.4552","lat":"31.25658","category":"148","category_name":"美容美发店","address":"闸北区芷江西路571号(近普善路)"},{"poiid":"B2094750D26CA5F44392","title":"57湘","lon":"121.4545438314949","lat":"31.25655088948429","category":"247","category_name":"餐饮美食","address":null},{"poiid":"B2094757D064A2FF439A","title":"华阴路","lon":"121.454837544","lat":"31.2568056377","category":"500","category_name":"未知分类","address":"上海华阴路"},{"poiid":"B2094655D26AA7FC449C","title":"如家快捷酒店火车站店","lon":"121.4591","lat":"31.25807","category":"247","category_name":"餐饮美食","address":"闸北区大统路1128号如家快捷酒店(近一号线中山北路站)"},{"poiid":"B2094752D769AAFB469F","title":"虹桥火车站","lon":"121.454986","lat":"31.257027","category":"248","category_name":"生活娱乐","address":null},{"poiid":"B2094654DB69A7F5479D","title":"U品(紫兰苑二期)","lon":"121.45592","lat":"31.25626","category":"47","category_name":"住宅区","address":"闸北区芷江西路与普善路交界处"},{"poiid":"B2094757D76AA1FE429A","title":"红宝石 芷江西路店","lon":"121.45893","lat":"31.2572","category":"67","category_name":"甜品店","address":"闸北区芷江西路363号(近火车站)"},{"poiid":"B2094750D768ABFF449F","title":"巴黎贝甜(芷江西路店)","lon":"121.458","lat":"31.2567","category":"67","category_name":"甜品店","address":"闸北区芷江西路488号五月花生活广场(近普善路)"},{"poiid":"B2094757D16DA7FC499F","title":"中共上海铁路局委员会党校","lon":"121.45471191","lat":"31.256160736","category":"500","category_name":"未知分类","address":"上海芷江西路629号"},{"poiid":"B2094655D26CA0FE4792","title":"普铁新村芷江西路629弄","lon":"121.45386","lat":"31.25618","category":"47","category_name":"住宅区","address":"芷江西路629弄"},{"poiid":"B2094654D464A1FC449E","title":"台都宾馆","lon":"121.45578","lat":"31.25698","category":"250","category_name":"公园户外","address":"闸北区普善路213号(普善路芷江西路)"},{"poiid":"B2094654D464A2FA409F","title":"昆明大楼","lon":"121.45397","lat":"31.25461","category":"46","category_name":"楼宇","address":"静安区长寿路(万航渡路口)"},{"poiid":"B2094654DB6AA4F44093","title":"锦福公寓(南门)","lon":"121.45477","lat":"31.25646","category":"48","category_name":"楼宇大门","address":"芷江西路593弄"},{"poiid":"B2094655D268A0F5429C","title":"7天连锁酒店上海火车站店","lon":"121.45397","lat":"31.25461","category":"216","category_name":"经济型连锁酒店","address":"闸北区中华新路999号(近沪太路)"},{"poiid":"B2094757D16BA3FC479D","title":"馨佳园","lon":"121.45454415","lat":"31.2565760036","category":"500","category_name":"未知分类","address":"上海市宝山区菊泉街1280弄"},{"poiid":"B2094757D06AABFC409E","title":"重庆谢记麻辣烫","lon":"121.4573381","lat":"31.25691814","category":"247","category_name":"餐饮美食","address":"上海芷江西路487号"},{"poiid":"B2094655D26CA1F5409E","title":"芷江西路453弄","lon":"121.45716","lat":"31.25728","category":"47","category_name":"住宅区","address":"闸北区青云路453号(近宝昌路)"},{"poiid":"B2094751DA6BABF54692","title":"刘记麻辣烫","lon":"121.457","lat":"31.25698","category":"68","category_name":"快餐厅","address":"闸北区芷江西路477号(近普善路)"},{"poiid":"B2094750D26EA2FC4899","title":"闸北区中心医院","lon":"121.4574438310962","lat":"31.25597075338278","category":"162","category_name":"医院","address":null},{"poiid":"B2094654D464A1FF4292","title":"光明乳业浦善配送站(中山北路)","lon":"121.45415","lat":"31.25872","category":"117","category_name":"便民商店/便利店","address":""},{"poiid":"B2094654D464A1FC4793","title":"上海第二工业大学闸北分校","lon":"121.45538","lat":"31.25885","category":"52","category_name":"高等院校","address":"闸北区中山北路900"},{"poiid":"B2094750DB65AAFC499A","title":"石头铁板烧","lon":"121.451667","lat":"31.257375","category":"269","category_name":"烧烤","address":"闸北区芷江西路488号五月花广场2楼(近地铁一号线中山北路站)"},{"poiid":"B2094752D26CA4FF489D","title":"尼积咖啡","lon":"121.45414","lat":"31.25943","category":"247","category_name":"餐饮美食","address":"闸北区恒丰路436号(普济路口)"},{"poiid":"B2094757D16FA0FF439E","title":"共和新路立交桥","lon":"121.4571335","lat":"31.259705198","category":"260","category_name":"其他","address":"上海南北高架路内环高架路互通(中山北路共和新路口)"},{"poiid":"B2094654D464A1FD429E","title":"光明便利No.454","lon":"121.4547","lat":"31.25893","category":"117","category_name":"便民商店/便利店","address":"中山北路916"},{"poiid":"B2094654DB69A6FE4993","title":"兴联公寓","lon":"121.45214","lat":"31.256426","category":"47","category_name":"住宅区","address":"兴联公寓位于闸北沪太路453弄88号"},{"poiid":"B2094757D165A1F8429E","title":"新沃会计师事务所","lon":"121.454889503","lat":"31.2591946877","category":"46","category_name":"楼宇","address":"上海中山北路900号1号楼6A"},{"poiid":"B2094757D16AA1F44793","title":"胖子客家菜","lon":"121.45184595","lat":"31.2558687901","category":"247","category_name":"餐饮美食","address":"静安区安远路222号(陕西北路口)"},{"poiid":"B2094655D26EA4F44999","title":"吉泰连锁酒店(中山北路店)","lon":"121.45133","lat":"31.25809","category":"250","category_name":"公园户外","address":"普陀区中山北路1038号(近沪太路)"},{"poiid":"B2094655D268A1FC4398","title":"五月花生活广场","lon":"121.45763","lat":"31.25635","category":"47","category_name":"住宅区","address":"闸北区芷江西路、普善路"},{"poiid":"B2094757D568A7F54498","title":"上海滩.大宁城","lon":"121.45499","lat":"31.259834","category":"46","category_name":"楼宇","address":"上海市闸北区中山北路899弄"},{"poiid":"B2094757D069A3FD429A","title":"北美公寓","lon":"121.45554053","lat":"31.258210487","category":"47","category_name":"住宅区","address":"上海市芷江西路521弄"},{"poiid":"B2094757D66CA3F8449E","title":"威尔士健身会所芷江西路店","lon":"121.457819","lat":"31.2568692","category":"500","category_name":"未知分类","address":"闸北区芷江西路488号(近北美公寓)"},{"poiid":"B2094751DA6AABF8459C","title":"上海外滩","lon":"121.454437","lat":"31.256653","category":"500","category_name":"未知分类","address":null},{"poiid":"B2094757D068A4FC419F","title":"和泰花园","lon":"121.45147","lat":"31.257212","category":"47","category_name":"住宅区","address":"上海市闸北区沪太路555弄"},{"poiid":"B2094757D76AA6FE4198","title":"谢记重庆麻辣烫 芷江西路店","lon":"121.456205","lat":"31.256621","category":"68","category_name":"快餐厅","address":"闸北区芷江西路487号(近普善路)"},{"poiid":"B2094757D16BA7FF4498","title":"京世造型","lon":"121.455735103","lat":"31.2563981292","category":"148","category_name":"美容美发店","address":"上海芷江西路549号(普善路口)"},{"poiid":"B2094753D56EA6FD4992","title":"梅赛德斯-奔驰文化中心","lon":"121.455154","lat":"31.256872","category":"500","category_name":"未知分类","address":"上海市 上海市浦东世博大道1200号"},{"poiid":"B2094757D06FAAFE4298","title":"越秀苑","lon":"121.4585","lat":"31.254604","category":"500","category_name":"未知分类","address":"上海市闸北区大统路938弄"},{"poiid":"B2094757D76AA6FE409C","title":"重庆鸡公煲 普善路店","lon":"121.45529","lat":"31.25691","category":"86","category_name":"火锅店","address":"闸北区普善路228号(近芷江西路)"},{"poiid":"B2094654D464A2F94793","title":"华舟大厦","lon":"121.45287","lat":"31.255368","category":"46","category_name":"楼宇","address":"华舟大厦位于闸北沪太路315弄"},{"poiid":"B2094757D068ABFE439B","title":"紫兰苑","lon":"121.45522","lat":"31.255281","category":"47","category_name":"住宅区","address":"上海市闸北区中华新路939弄"},{"poiid":"B2094751DA6DA3F84193","title":"第十人民医院","lon":"121.453423","lat":"31.256281","category":"162","category_name":"医院","address":"延长中路"},{"poiid":"B2094750DB6EA4F44999","title":"锦福公寓","lon":"121.45506","lat":"31.256615","category":"47","category_name":"住宅区","address":"上海市闸北区芷江西路593号"},{"poiid":"B2094757D66AABFE469D","title":"吃饭辰光 普善路店","lon":"121.45503987737","lat":"31.258225696478","category":"76","category_name":"上海菜","address":"闸北区普善路284号(中山北路芷江西路间)"},{"poiid":"B2094654D464A1FE4493","title":"克丽缇娜No.08161","lon":"121.45529","lat":"31.25688","category":"148","category_name":"美容美发店","address":"天目西路"},{"poiid":"B2094757D06FA3F54499","title":"无印良品MUJI(大悦城店)","lon":"121.45269408","lat":"31.253671806","category":"123","category_name":"家具建材市场","address":"上海市闸北区西藏北路166号大悦城3楼(近曲阜路)"},{"poiid":"B2094655D26EA1F94293","title":"浩翔大楼","lon":"121.45477","lat":"31.25749","category":"46","category_name":"楼宇","address":"普善路280"},{"poiid":"B2094654D464A1FE449A","title":"浩翔都市型工业园区","lon":"121.45478","lat":"31.25748","category":"45","category_name":"产业园区","address":"普善路280"},{"poiid":"B2094655D26AA4F94899","title":"满堂春茶叶市场","lon":"121.45469","lat":"31.25788","category":"247","category_name":"餐饮美食","address":"闸北区普善路259-300号(近中山北路)"},{"poiid":"B2094654D464A1FE459C","title":"永琪美容美发(芷江西路)","lon":"121.4552","lat":"31.25658","category":"148","category_name":"美容美发店","address":"闸北区芷江西路571号(近普善路)"},{"poiid":"B2094750D26CA5F44392","title":"57湘","lon":"121.4545438314949","lat":"31.25655088948429","category":"247","category_name":"餐饮美食","address":null},{"poiid":"B2094757D064A2FF439A","title":"华阴路","lon":"121.454837544","lat":"31.2568056377","category":"500","category_name":"未知分类","address":"上海华阴路"},{"poiid":"B2094655D26AA7FC449C","title":"如家快捷酒店火车站店","lon":"121.4591","lat":"31.25807","category":"247","category_name":"餐饮美食","address":"闸北区大统路1128号如家快捷酒店(近一号线中山北路站)"},{"poiid":"B2094752D769AAFB469F","title":"虹桥火车站","lon":"121.454986","lat":"31.257027","category":"248","category_name":"生活娱乐","address":null},{"poiid":"B2094654DB69A7F5479D","title":"U品(紫兰苑二期)","lon":"121.45592","lat":"31.25626","category":"47","category_name":"住宅区","address":"闸北区芷江西路与普善路交界处"},{"poiid":"B2094757D76AA1FE429A","title":"红宝石 芷江西路店","lon":"121.45893","lat":"31.2572","category":"67","category_name":"甜品店","address":"闸北区芷江西路363号(近火车站)"},{"poiid":"B2094750D768ABFF449F","title":"巴黎贝甜(芷江西路店)","lon":"121.458","lat":"31.2567","category":"67","category_name":"甜品店","address":"闸北区芷江西路488号五月花生活广场(近普善路)"},{"poiid":"B2094757D16DA7FC499F","title":"中共上海铁路局委员会党校","lon":"121.45471191","lat":"31.256160736","category":"500","category_name":"未知分类","address":"上海芷江西路629号"},{"poiid":"B2094655D26CA0FE4792","title":"普铁新村芷江西路629弄","lon":"121.45386","lat":"31.25618","category":"47","category_name":"住宅区","address":"芷江西路629弄"},{"poiid":"B2094654D464A1FC449E","title":"台都宾馆","lon":"121.45578","lat":"31.25698","category":"250","category_name":"公园户外","address":"闸北区普善路213号(普善路芷江西路)"},{"poiid":"B2094654D464A2FA409F","title":"昆明大楼","lon":"121.45397","lat":"31.25461","category":"46","category_name":"楼宇","address":"静安区长寿路(万航渡路口)"},{"poiid":"B2094654DB6AA4F44093","title":"锦福公寓(南门)","lon":"121.45477","lat":"31.25646","category":"48","category_name":"楼宇大门","address":"芷江西路593弄"},{"poiid":"B2094655D268A0F5429C","title":"7天连锁酒店上海火车站店","lon":"121.45397","lat":"31.25461","category":"216","category_name":"经济型连锁酒店","address":"闸北区中华新路999号(近沪太路)"},{"poiid":"B2094757D16BA3FC479D","title":"馨佳园","lon":"121.45454415","lat":"31.2565760036","category":"500","category_name":"未知分类","address":"上海市宝山区菊泉街1280弄"},{"poiid":"B2094757D06AABFC409E","title":"重庆谢记麻辣烫","lon":"121.4573381","lat":"31.25691814","category":"247","category_name":"餐饮美食","address":"上海芷江西路487号"},{"poiid":"B2094655D26CA1F5409E","title":"芷江西路453弄","lon":"121.45716","lat":"31.25728","category":"47","category_name":"住宅区","address":"闸北区青云路453号(近宝昌路)"},{"poiid":"B2094751DA6BABF54692","title":"刘记麻辣烫","lon":"121.457","lat":"31.25698","category":"68","category_name":"快餐厅","address":"闸北区芷江西路477号(近普善路)"},{"poiid":"B2094750D26EA2FC4899","title":"闸北区中心医院","lon":"121.4574438310962","lat":"31.25597075338278","category":"162","category_name":"医院","address":null},{"poiid":"B2094654D464A1FF4292","title":"光明乳业浦善配送站(中山北路)","lon":"121.45415","lat":"31.25872","category":"117","category_name":"便民商店/便利店","address":""},{"poiid":"B2094654D464A1FC4793","title":"上海第二工业大学闸北分校","lon":"121.45538","lat":"31.25885","category":"52","category_name":"高等院校","address":"闸北区中山北路900"},{"poiid":"B2094750DB65AAFC499A","title":"石头铁板烧","lon":"121.451667","lat":"31.257375","category":"269","category_name":"烧烤","address":"闸北区芷江西路488号五月花广场2楼(近地铁一号线中山北路站)"},{"poiid":"B2094752D26CA4FF489D","title":"尼积咖啡","lon":"121.45414","lat":"31.25943","category":"247","category_name":"餐饮美食","address":"闸北区恒丰路436号(普济路口)"},{"poiid":"B2094757D16FA0FF439E","title":"共和新路立交桥","lon":"121.4571335","lat":"31.259705198","category":"260","category_name":"其他","address":"上海南北高架路内环高架路互通(中山北路共和新路口)"},{"poiid":"B2094654D464A1FD429E","title":"光明便利No.454","lon":"121.4547","lat":"31.25893","category":"117","category_name":"便民商店/便利店","address":"中山北路916"},{"poiid":"B2094654DB69A6FE4993","title":"兴联公寓","lon":"121.45214","lat":"31.256426","category":"47","category_name":"住宅区","address":"兴联公寓位于闸北沪太路453弄88号"},{"poiid":"B2094757D165A1F8429E","title":"新沃会计师事务所","lon":"121.454889503","lat":"31.2591946877","category":"46","category_name":"楼宇","address":"上海中山北路900号1号楼6A"},{"poiid":"B2094757D16AA1F44793","title":"胖子客家菜","lon":"121.45184595","lat":"31.2558687901","category":"247","category_name":"餐饮美食","address":"静安区安远路222号(陕西北路口)"},{"poiid":"B2094655D26EA4F44999","title":"吉泰连锁酒店(中山北路店)","lon":"121.45133","lat":"31.25809","category":"250","category_name":"公园户外","address":"普陀区中山北路1038号(近沪太路)"}]