[{"poiid":"B2094757D16CA4F5409E","title":"八佰伴","lon":"121.51481173","lat":"31.229458283","category":"119","category_name":"商场","address":"上海浦东新区东昌路"},{"poiid":"B2094655D26AABF8479C","title":"钱柜(浦东旗舰店)","lon":"121.51532","lat":"31.22747","category":"170","category_name":"KTV","address":"浦东新区浦东南路1118号上海湾B1楼(张杨路口)"},{"poiid":"B2094757D06FA7F84593","title":"黔香阁(浦东店)","lon":"121.51129","lat":"31.22987","category":"83","category_name":"云贵菜","address":"浦东新区浦城路171号(近商城路)"},{"poiid":"B209475CD564A7F84392","title":"上海滩浦东香格里拉店","lon":"121.50058","lat":"31.23634","category":"119","category_name":"商场","address":"浦东富成路33号香格里拉酒店内大堂层"},{"poiid":"B2094654DA6EA4F9439D","title":"新源广场","lon":"121.51","lat":"31.2273","category":"46","category_name":"楼宇","address":"中山南路268号"},{"poiid":"B2094757D66EA0FC429D","title":"上海歌城","lon":"121.51483273","lat":"31.229608286","category":"170","category_name":"KTV","address":"上海市浦东新区浦东南路"},{"poiid":"B2094757D069ABF54993","title":"好乐迪 八百伴店","lon":"121.51498573","lat":"31.226918229","category":"170","category_name":"KTV","address":"上海市浦东新区商城路 八百伴10楼"},{"poiid":"B2094757D168A3F4489A","title":"johnny moo(上海湾店)","lon":"121.51497373","lat":"31.22697823","category":"94","category_name":"西餐厅","address":"浦东新区张杨路333号上海湾休闲广场1楼117室(近浦东南路)"},{"poiid":"B2094757D06FA1FD4698","title":"星巴克(浦城路店)","lon":"121.512253","lat":"31.227622","category":"260","category_name":"其他","address":"浦东新区浦城路367号(启新路口)"},{"poiid":"B2094757D06AA6FB479E","title":"子羽港式粤菜餐厅","lon":"121.514010738","lat":"31.2268292276","category":"72","category_name":"广东菜","address":"浦东新区浦东南路1138号上海湾广场133号铺(近张扬路)"},{"poiid":"B2094757D068A7F5469D","title":"鄂尔多斯国际大厦","lon":"121.515303","lat":"31.227643","category":"46","category_name":"楼宇","address":"上海市平凉路1398号"},{"poiid":"B2094757D068A5F8439A","title":"商城路","lon":"121.51235199","lat":"31.2294406891","category":"260","category_name":"其他","address":"上海商城路"},{"poiid":"B2094757D06FA5FA459B","title":"上海新东方学校(陆家嘴校区)","lon":"121.51188","lat":"31.22923","category":"253","category_name":"校园生活","address":"浦东新区浦城路190号(商城路路口)"},{"poiid":"B2094757D06FA6F8449F","title":"上海湾生活时尚中心","lon":"121.51491","lat":"31.22667","category":"119","category_name":"商场","address":"浦东新区浦东南路1138号上海湾广场内(近张杨路)"},{"poiid":"B2094757D06FA4F8459D","title":"一兆韦德(菊园店)","lon":"121.51270768","lat":"31.226597462","category":"148","category_name":"美容美发店","address":"浦东新区浦城路367号(近东昌路地铁站)"},{"poiid":"B2094757D169ABFD429A","title":"i.t ifc国金","lon":"121.513942538","lat":"31.2300293958","category":"500","category_name":"未知分类","address":"上海市浦东新区陆家嘴"},{"poiid":"B2094757D06AA3FE4492","title":"洋泾·菊园实验学校","lon":"121.512277683","lat":"31.2272614634","category":"55","category_name":"中学","address":"上海浦东新区浦城路333号"},{"poiid":"B2094654DA69A6FE4792","title":"菊园","lon":"121.51377","lat":"31.22844","category":"47","category_name":"住宅区","address":"菊园(汇豪天下)位于浦东浦民路233弄"},{"poiid":"B2094757D068A2FD449A","title":"卡玛生活瑜伽会馆","lon":"121.51181","lat":"31.22961","category":"148","category_name":"美容美发店","address":"浦东新区浦城路172号3-4楼(近商城路)"},{"poiid":"B2094751DB6CA4FD4493","title":"浦东机场T2航站楼","lon":"121.5129","lat":"31.2273","category":"500","category_name":"未知分类","address":null},{"poiid":"B2094757D568A5FE499B","title":"伊藤家上海湾店","lon":"121.5138769","lat":"31.22671306","category":"95","category_name":"日本料理","address":"浦东新区浦城路398号上海湾广场(近张杨路)"},{"poiid":"B2094751D56FA7FE449C","title":"Ashley Steak","lon":"121.512278","lat":"31.230046","category":"247","category_name":"餐饮美食","address":"上海八佰伴9F"},{"poiid":"B2094654DA69A6FF429B","title":"中融·国际商城(浦东南路)","lon":"121.5152","lat":"31.22828","category":"119","category_name":"商场","address":"浦东新区浦东南路1068号中融国际商城内(近张杨路)"},{"poiid":"B2094757D069A3F4439F","title":"凯德·江临天下(Summit Panorama)","lon":"121.51181768","lat":"31.2262234648","category":"47","category_name":"住宅区","address":"上海市浦东新区浦明路233弄"},{"poiid":"B2094654DB69A5FF429F","title":"莫泰168连锁旅店(商城路店)","lon":"121.51207","lat":"31.22941","category":"216","category_name":"经济型连锁酒店","address":"上海市浦东新区商城路365号（近浦东南路）"},{"poiid":"B2094757D065AAFB469C","title":"新世纪影城七号厅","lon":"121.51478473","lat":"31.227090233","category":"178","category_name":"电影院","address":"上海市浦东新区张杨路501号第一八佰伴10楼"},{"poiid":"B2094757D168A7F54592","title":"大唐盲人按摩中心","lon":"121.51137","lat":"31.22904","category":"149","category_name":"洗浴推拿场所","address":"上海浦东新区商城路339号(近浦城路)  "},{"poiid":"B2094655D26DA1F4449F","title":"楚炫堂生态炖鱼馆(上海湾店)","lon":"121.51387","lat":"31.22671","category":"86","category_name":"火锅店","address":"浦东新区浦东南路1138号上海湾休闲广场2楼(八佰伴对面)"},{"poiid":"B2094757D06BA6FA469D","title":"巴黎贝甜(商城路店)","lon":"121.511","lat":"31.22885","category":"67","category_name":"甜品店","address":"浦东新区商城路297号申金大厦1楼商铺C区(近浦城路)"},{"poiid":"B2094753D76AA2FE499E","title":"太平洋咖啡(浦城店)","lon":"121.512253","lat":"31.227622","category":"65","category_name":"咖啡厅","address":"上海市浦东新区浦城路367号1F-A号铺(近启新路)"},{"poiid":"B2094654DB6AA3F94792","title":"STARBUCKSCOFFEE浦城路店","lon":"121.51245","lat":"31.22729","category":"256","category_name":"外国餐厅","address":"浦东新区浦城路367号"},{"poiid":"B2094654DB6AA3FE409C","title":"卡西巴 浦城店 La Casbah","lon":"121.51176645063","lat":"31.230116732362","category":"247","category_name":"餐饮美食","address":"浦东新区浦城路172号(近商城路)"},{"poiid":"B2094654DA69A6FE4693","title":"任任家宴","lon":"121.51214323423","lat":"31.229210096035","category":"76","category_name":"上海菜","address":"浦东新区商城路369号(浦城路商城路)"},{"poiid":"B2094757D069A5F4459F","title":"东捷集团","lon":"121.511516","lat":"31.22885","category":"46","category_name":"楼宇","address":"上海商城路358号"},{"poiid":"B2094757DB6AA0FD4893","title":"钱柜（上海湾店）","lon":"121.514","lat":"31.2267","category":"172","category_name":"酒吧","address":"浦东新区浦东南路1138号上海湾广场内(近张杨路)"},{"poiid":"B2094757D068A1F84898","title":"凯德·菊园","lon":"121.51352913","lat":"31.227838618","category":"47","category_name":"住宅区","address":"上海浦东新区浦城路366弄"},{"poiid":"B2094750DA6BA4F84399","title":"太平洋咖啡","lon":"121.51225","lat":"31.22762","category":"260","category_name":"其他","address":"浦东新区浦城路367号1F-A号铺(近启新路)"},{"poiid":"B2094757D66CA1FE4799","title":"意方砂锅粥","lon":"121.51480273","lat":"31.227619244","category":"247","category_name":"餐饮美食","address":"上海浦东张扬路400号"},{"poiid":"B2094654DB6BAAF5429E","title":"陆家嘴图书馆","lon":"121.5111","lat":"31.23073","category":"181","category_name":"图书馆","address":"浦东新区浦城路150号(浦城路商城路)"},{"poiid":"B2094757D064AAF9469A","title":"浦城路","lon":"121.512456","lat":"31.227294","category":"500","category_name":"未知分类","address":"上海浦城路"},{"poiid":"B2094757D065AAFC4793","title":"陆家嘴派出所","lon":"121.51159668","lat":"31.2293395996","category":"609","category_name":"警察局","address":"上海商城路357号"},{"poiid":"B2094757D16EABFF469B","title":"NYSP-New York Pizza","lon":"121.514771238","lat":"31.2271942354","category":"500","category_name":"未知分类","address":"浦东南路上海湾"},{"poiid":"B2094757D16CAAFA4699","title":"好粥到","lon":"121.513969054","lat":"31.229688793","category":"68","category_name":"快餐厅","address":"浦东新区商城路423号(近浦东南路)"},{"poiid":"B2094757D46DABFB4199","title":"唐恩都乐 浦东南路店 Dunkin Donuts","lon":"121.515092","lat":"31.228073","category":"67","category_name":"甜品店","address":"浦东新区浦东南路1118号鄂尔多斯大厦1楼(近张杨路)"},{"poiid":"B2094757D069A1F54199","title":"浦东新区陆家嘴图书馆(第二分部)","lon":"121.51166","lat":"31.22988","category":"181","category_name":"图书馆","address":"上海浦东新区浦城路150号"},{"poiid":"B2094752DA6AA4FE4993","title":"100哆啦A梦秘密道具博览","lon":"121.513411229161","lat":"31.22739659386533","category":"500","category_name":"未知分类","address":"上海市 上海黄浦区马当路245号新天地时尚购物中心"},{"poiid":"B2094757DA65A7FA4699","title":"The Westin bind center Shanghai","lon":"121.5106414414889","lat":"31.22919482826353","category":"247","category_name":"餐饮美食","address":"上海市河南中路88号"},{"poiid":"B2094757D16BA6F5469D","title":"HOFBRAUHAUS  酒吧","lon":"121.51478873","lat":"31.227116233","category":"172","category_name":"酒吧","address":"上海湾"},{"poiid":"B2094757D168A2F54898","title":"冰厂田幼儿园小班部","lon":"121.512351","lat":"31.22944","category":"253","category_name":"校园生活","address":"上海商城路"},{"poiid":"B209475CD764A2FB459C","title":"星巴克 上海湾店","lon":"121.51367","lat":"31.22661","category":"65","category_name":"咖啡厅","address":"浦东南路1138号上海湾176-182号商铺(近张杨路)"},{"poiid":"B2094757D16CA4F5409E","title":"八佰伴","lon":"121.51481173","lat":"31.229458283","category":"119","category_name":"商场","address":"上海浦东新区东昌路"},{"poiid":"B2094655D26AABF8479C","title":"钱柜(浦东旗舰店)","lon":"121.51532","lat":"31.22747","category":"170","category_name":"KTV","address":"浦东新区浦东南路1118号上海湾B1楼(张杨路口)"},{"poiid":"B2094757D06FA7F84593","title":"黔香阁(浦东店)","lon":"121.51129","lat":"31.22987","category":"83","category_name":"云贵菜","address":"浦东新区浦城路171号(近商城路)"},{"poiid":"B209475CD564A7F84392","title":"上海滩浦东香格里拉店","lon":"121.50058","lat":"31.23634","category":"119","category_name":"商场","address":"浦东富成路33号香格里拉酒店内大堂层"},{"poiid":"B2094654DA6EA4F9439D","title":"新源广场","lon":"121.51","lat":"31.2273","category":"46","category_name":"楼宇","address":"中山南路268号"},{"poiid":"B2094757D66EA0FC429D","title":"上海歌城","lon":"121.51483273","lat":"31.229608286","category":"170","category_name":"KTV","address":"上海市浦东新区浦东南路"},{"poiid":"B2094757D069ABF54993","title":"好乐迪 八百伴店","lon":"121.51498573","lat":"31.226918229","category":"170","category_name":"KTV","address":"上海市浦东新区商城路 八百伴10楼"},{"poiid":"B2094757D168A3F4489A","title":"johnny moo(上海湾店)","lon":"121.51497373","lat":"31.22697823","category":"94","category_name":"西餐厅","address":"浦东新区张杨路333号上海湾休闲广场1楼117室(近浦东南路)"},{"poiid":"B2094757D06FA1FD4698","title":"星巴克(浦城路店)","lon":"121.512253","lat":"31.227622","category":"260","category_name":"其他","address":"浦东新区浦城路367号(启新路口)"},{"poiid":"B2094757D06AA6FB479E","title":"子羽港式粤菜餐厅","lon":"121.514010738","lat":"31.2268292276","category":"72","category_name":"广东菜","address":"浦东新区浦东南路1138号上海湾广场133号铺(近张扬路)"},{"poiid":"B2094757D068A7F5469D","title":"鄂尔多斯国际大厦","lon":"121.515303","lat":"31.227643","category":"46","category_name":"楼宇","address":"上海市平凉路1398号"},{"poiid":"B2094757D068A5F8439A","title":"商城路","lon":"121.51235199","lat":"31.2294406891","category":"260","category_name":"其他","address":"上海商城路"},{"poiid":"B2094757D06FA5FA459B","title":"上海新东方学校(陆家嘴校区)","lon":"121.51188","lat":"31.22923","category":"253","category_name":"校园生活","address":"浦东新区浦城路190号(商城路路口)"},{"poiid":"B2094757D06FA6F8449F","title":"上海湾生活时尚中心","lon":"121.51491","lat":"31.22667","category":"119","category_name":"商场","address":"浦东新区浦东南路1138号上海湾广场内(近张杨路)"},{"poiid":"B2094757D06FA4F8459D","title":"一兆韦德(菊园店)","lon":"121.51270768","lat":"31.226597462","category":"148","category_name":"美容美发店","address":"浦东新区浦城路367号(近东昌路地铁站)"},{"poiid":"B2094757D169ABFD429A","title":"i.t ifc国金","lon":"121.513942538","lat":"31.2300293958","category":"500","category_name":"未知分类","address":"上海市浦东新区陆家嘴"},{"poiid":"B2094757D06AA3FE4492","title":"洋泾·菊园实验学校","lon":"121.512277683","lat":"31.2272614634","category":"55","category_name":"中学","address":"上海浦东新区浦城路333号"},{"poiid":"B2094654DA69A6FE4792","title":"菊园","lon":"121.51377","lat":"31.22844","category":"47","category_name":"住宅区","address":"菊园(汇豪天下)位于浦东浦民路233弄"},{"poiid":"B2094757D068A2FD449A","title":"卡玛生活瑜伽会馆","lon":"121.51181","lat":"31.22961","category":"148","category_name":"美容美发店","address":"浦东新区浦城路172号3-4楼(近商城路)"},{"poiid":"B2094751DB6CA4FD4493","title":"浦东机场T2航站楼","lon":"121.5129","lat":"31.2273","category":"500","category_name":"未知分类","address":null},{"poiid":"B2094757D568A5FE499B","title":"伊藤家上海湾店","lon":"121.5138769","lat":"31.22671306","category":"95","category_name":"日本料理","address":"浦东新区浦城路398号上海湾广场(近张杨路)"},{"poiid":"B2094751D56FA7FE449C","title":"Ashley Steak","lon":"121.512278","lat":"31.230046","category":"247","category_name":"餐饮美食","address":"上海八佰伴9F"},{"poiid":"B2094654DA69A6FF429B","title":"中融·国际商城(浦东南路)","lon":"121.5152","lat":"31.22828","category":"119","category_name":"商场","address":"浦东新区浦东南路1068号中融国际商城内(近张杨路)"},{"poiid":"B2094757D069A3F4439F","title":"凯德·江临天下(Summit Panorama)","lon":"121.51181768","lat":"31.2262234648","category":"47","category_name":"住宅区","address":"上海市浦东新区浦明路233弄"},{"poiid":"B2094654DB69A5FF429F","title":"莫泰168连锁旅店(商城路店)","lon":"121.51207","lat":"31.22941","category":"216","category_name":"经济型连锁酒店","address":"上海市浦东新区商城路365号（近浦东南路）"},{"poiid":"B2094757D065AAFB469C","title":"新世纪影城七号厅","lon":"121.51478473","lat":"31.227090233","category":"178","category_name":"电影院","address":"上海市浦东新区张杨路501号第一八佰伴10楼"},{"poiid":"B2094757D168A7F54592","title":"大唐盲人按摩中心","lon":"121.51137","lat":"31.22904","category":"149","category_name":"洗浴推拿场所","address":"上海浦东新区商城路339号(近浦城路)  "},{"poiid":"B2094655D26DA1F4449F","title":"楚炫堂生态炖鱼馆(上海湾店)","lon":"121.51387","lat":"31.22671","category":"86","category_name":"火锅店","address":"浦东新区浦东南路1138号上海湾休闲广场2楼(八佰伴对面)"},{"poiid":"B2094757D06BA6FA469D","title":"巴黎贝甜(商城路店)","lon":"121.511","lat":"31.22885","category":"67","category_name":"甜品店","address":"浦东新区商城路297号申金大厦1楼商铺C区(近浦城路)"},{"poiid":"B2094753D76AA2FE499E","title":"太平洋咖啡(浦城店)","lon":"121.512253","lat":"31.227622","category":"65","category_name":"咖啡厅","address":"上海市浦东新区浦城路367号1F-A号铺(近启新路)"},{"poiid":"B2094654DB6AA3F94792","title":"STARBUCKSCOFFEE浦城路店","lon":"121.51245","lat":"31.22729","category":"256","category_name":"外国餐厅","address":"浦东新区浦城路367号"},{"poiid":"B2094654DB6AA3FE409C","title":"卡西巴 浦城店 La Casbah","lon":"121.51176645063","lat":"31.230116732362","category":"247","category_name":"餐饮美食","address":"浦东新区浦城路172号(近商城路)"},{"poiid":"B2094654DA69A6FE4693","title":"任任家宴","lon":"121.51214323423","lat":"31.229210096035","category":"76","category_name":"上海菜","address":"浦东新区商城路369号(浦城路商城路)"},{"poiid":"B2094757D069A5F4459F","title":"东捷集团","lon":"121.511516","lat":"31.22885","category":"46","category_name":"楼宇","address":"上海商城路358号"},{"poiid":"B2094757DB6AA0FD4893","title":"钱柜（上海湾店）","lon":"121.514","lat":"31.2267","category":"172","category_name":"酒吧","address":"浦东新区浦东南路1138号上海湾广场内(近张杨路)"},{"poiid":"B2094757D068A1F84898","title":"凯德·菊园","lon":"121.51352913","lat":"31.227838618","category":"47","category_name":"住宅区","address":"上海浦东新区浦城路366弄"},{"poiid":"B2094750DA6BA4F84399","title":"太平洋咖啡","lon":"121.51225","lat":"31.22762","category":"260","category_name":"其他","address":"浦东新区浦城路367号1F-A号铺(近启新路)"},{"poiid":"B2094757D66CA1FE4799","title":"意方砂锅粥","lon":"121.51480273","lat":"31.227619244","category":"247","category_name":"餐饮美食","address":"上海浦东张扬路400号"},{"poiid":"B2094654DB6BAAF5429E","title":"陆家嘴图书馆","lon":"121.5111","lat":"31.23073","category":"181","category_name":"图书馆","address":"浦东新区浦城路150号(浦城路商城路)"},{"poiid":"B2094757D064AAF9469A","title":"浦城路","lon":"121.512456","lat":"31.227294","category":"500","category_name":"未知分类","address":"上海浦城路"},{"poiid":"B2094757D065AAFC4793","title":"陆家嘴派出所","lon":"121.51159668","lat":"31.2293395996","category":"609","category_name":"警察局","address":"上海商城路357号"},{"poiid":"B2094757D16EABFF469B","title":"NYSP-New York Pizza","lon":"121.514771238","lat":"31.2271942354","category":"500","category_name":"未知分类","address":"浦东南路上海湾"},{"poiid":"B2094757D16CAAFA4699","title":"好粥到","lon":"121.513969054","lat":"31.229688793","category":"68","category_name":"快餐厅","address":"浦东新区商城路423号(近浦东南路)"},{"poiid":"B2094757D46DABFB4199","title":"唐恩都乐 浦东南路店 Dunkin Donuts","lon":"121.515092","lat":"31.228073","category":"67","category_name":"甜品店","address":"浦东新区浦东南路1118号鄂尔多斯大厦1楼(近张杨路)"},{"poiid":"B2094757D069A1F54199","title":"浦东新区陆家嘴图书馆(第二分部)","lon":"121.51166","lat":"31.22988","category":"181","category_name":"图书馆","address":"上海浦东新区浦城路150号"},{"poiid":"B2094752DA6AA4FE4993","title":"100哆啦A梦秘密道具博览","lon":"121.513411229161","lat":"31.22739659386533","category":"500","category_name":"未知分类","address":"上海市 上海黄浦区马当路245号新天地时尚购物中心"},{"poiid":"B2094757DA65A7FA4699","title":"The Westin bind center Shanghai","lon":"121.5106414414889","lat":"31.22919482826353","category":"247","category_name":"餐饮美食","address":"上海市河南中路88号"},{"poiid":"B2094757D16BA6F5469D","title":"HOFBRAUHAUS  酒吧","lon":"121.51478873","lat":"31.227116233","category":"172","category_name":"酒吧","address":"上海湾"},{"poiid":"B2094757D168A2F54898","title":"冰厂田幼儿园小班部","lon":"121.512351","lat":"31.22944","category":"253","category_name":"校园生活","address":"上海商城路"},{"poiid":"B209475CD764A2FB459C","title":"星巴克 上海湾店","lon":"121.51367","lat":"31.22661","category":"65","category_name":"咖啡厅","address":"浦东南路1138号上海湾176-182号商铺(近张杨路)"},{"poiid":"B2094757D16CA4F5409E","title":"八佰伴","lon":"121.51481173","lat":"31.229458283","category":"119","category_name":"商场","address":"上海浦东新区东昌路"},{"poiid":"B2094655D26AABF8479C","title":"钱柜(浦东旗舰店)","lon":"121.51532","lat":"31.22747","category":"170","category_name":"KTV","address":"浦东新区浦东南路1118号上海湾B1楼(张杨路口)"},{"poiid":"B2094757D06FA7F84593","title":"黔香阁(浦东店)","lon":"121.51129","lat":"31.22987","category":"83","category_name":"云贵菜","address":"浦东新区浦城路171号(近商城路)"},{"poiid":"B209475CD564A7F84392","title":"上海滩浦东香格里拉店","lon":"121.50058","lat":"31.23634","category":"119","category_name":"商场","address":"浦东富成路33号香格里拉酒店内大堂层"},{"poiid":"B2094654DA6EA4F9439D","title":"新源广场","lon":"121.51","lat":"31.2273","category":"46","category_name":"楼宇","address":"中山南路268号"},{"poiid":"B2094757D66EA0FC429D","title":"上海歌城","lon":"121.51483273","lat":"31.229608286","category":"170","category_name":"KTV","address":"上海市浦东新区浦东南路"},{"poiid":"B2094757D069ABF54993","title":"好乐迪 八百伴店","lon":"121.51498573","lat":"31.226918229","category":"170","category_name":"KTV","address":"上海市浦东新区商城路 八百伴10楼"},{"poiid":"B2094757D168A3F4489A","title":"johnny moo(上海湾店)","lon":"121.51497373","lat":"31.22697823","category":"94","category_name":"西餐厅","address":"浦东新区张杨路333号上海湾休闲广场1楼117室(近浦东南路)"},{"poiid":"B2094757D06FA1FD4698","title":"星巴克(浦城路店)","lon":"121.512253","lat":"31.227622","category":"260","category_name":"其他","address":"浦东新区浦城路367号(启新路口)"},{"poiid":"B2094757D06AA6FB479E","title":"子羽港式粤菜餐厅","lon":"121.514010738","lat":"31.2268292276","category":"72","category_name":"广东菜","address":"浦东新区浦东南路1138号上海湾广场133号铺(近张扬路)"},{"poiid":"B2094757D068A7F5469D","title":"鄂尔多斯国际大厦","lon":"121.515303","lat":"31.227643","category":"46","category_name":"楼宇","address":"上海市平凉路1398号"},{"poiid":"B2094757D068A5F8439A","title":"商城路","lon":"121.51235199","lat":"31.2294406891","category":"260","category_name":"其他","address":"上海商城路"},{"poiid":"B2094757D06FA5FA459B","title":"上海新东方学校(陆家嘴校区)","lon":"121.51188","lat":"31.22923","category":"253","category_name":"校园生活","address":"浦东新区浦城路190号(商城路路口)"},{"poiid":"B2094757D06FA6F8449F","title":"上海湾生活时尚中心","lon":"121.51491","lat":"31.22667","category":"119","category_name":"商场","address":"浦东新区浦东南路1138号上海湾广场内(近张杨路)"},{"poiid":"B2094757D06FA4F8459D","title":"一兆韦德(菊园店)","lon":"121.51270768","lat":"31.226597462","category":"148","category_name":"美容美发店","address":"浦东新区浦城路367号(近东昌路地铁站)"},{"poiid":"B2094757D169ABFD429A","title":"i.t ifc国金","lon":"121.513942538","lat":"31.2300293958","category":"500","category_name":"未知分类","address":"上海市浦东新区陆家嘴"},{"poiid":"B2094757D06AA3FE4492","title":"洋泾·菊园实验学校","lon":"121.512277683","lat":"31.2272614634","category":"55","category_name":"中学","address":"上海浦东新区浦城路333号"},{"poiid":"B2094654DA69A6FE4792","title":"菊园","lon":"121.51377","lat":"31.22844","category":"47","category_name":"住宅区","address":"菊园(汇豪天下)位于浦东浦民路233弄"},{"poiid":"B2094757D068A2FD449A","title":"卡玛生活瑜伽会馆","lon":"121.51181","lat":"31.22961","category":"148","category_name":"美容美发店","address":"浦东新区浦城路172号3-4楼(近商城路)"},{"poiid":"B2094751DB6CA4FD4493","title":"浦东机场T2航站楼","lon":"121.5129","lat":"31.2273","category":"500","category_name":"未知分类","address":null},{"poiid":"B2094757D568A5FE499B","title":"伊藤家上海湾店","lon":"121.5138769","lat":"31.22671306","category":"95","category_name":"日本料理","address":"浦东新区浦城路398号上海湾广场(近张杨路)"},{"poiid":"B2094751D56FA7FE449C","title":"Ashley Steak","lon":"121.512278","lat":"31.230046","category":"247","category_name":"餐饮美食","address":"上海八佰伴9F"},{"poiid":"B2094654DA69A6FF429B","title":"中融·国际商城(浦东南路)","lon":"121.5152","lat":"31.22828","category":"119","category_name":"商场","address":"浦东新区浦东南路1068号中融国际商城内(近张杨路)"},{"poiid":"B2094757D069A3F4439F","title":"凯德·江临天下(Summit Panorama)","lon":"121.51181768","lat":"31.2262234648","category":"47","category_name":"住宅区","address":"上海市浦东新区浦明路233弄"},{"poiid":"B2094654DB69A5FF429F","title":"莫泰168连锁旅店(商城路店)","lon":"121.51207","lat":"31.22941","category":"216","category_name":"经济型连锁酒店","address":"上海市浦东新区商城路365号（近浦东南路）"},{"poiid":"B2094757D065AAFB469C","title":"新世纪影城七号厅","lon":"121.51478473","lat":"31.227090233","category":"178","category_name":"电影院","address":"上海市浦东新区张杨路501号第一八佰伴10楼"},{"poiid":"B2094757D168A7F54592","title":"大唐盲人按摩中心","lon":"121.51137","lat":"31.22904","category":"149","category_name":"洗浴推拿场所","address":"上海浦东新区商城路339号(近浦城路)  "},{"poiid":"B2094655D26DA1F4449F","title":"楚炫堂生态炖鱼馆(上海湾店)","lon":"121.51387","lat":"31.22671","category":"86","category_name":"火锅店","address":"浦东新区浦东南路1138号上海湾休闲广场2楼(八佰伴对面)"},{"poiid":"B2094757D06BA6FA469D","title":"巴黎贝甜(商城路店)","lon":"121.511","lat":"31.22885","category":"67","category_name":"甜品店","address":"浦东新区商城路297号申金大厦1楼商铺C区(近浦城路)"},{"poiid":"B2094753D76AA2FE499E","title":"太平洋咖啡(浦城店)","lon":"121.512253","lat":"31.227622","category":"65","category_name":"咖啡厅","address":"上海市浦东新区浦城路367号1F-A号铺(近启新路)"},{"poiid":"B2094654DB6AA3F94792","title":"STARBUCKSCOFFEE浦城路店","lon":"121.51245","lat":"31.22729","category":"256","category_name":"外国餐厅","address":"浦东新区浦城路367号"},{"poiid":"B2094654DB6AA3FE409C","title":"卡西巴 浦城店 La Casbah","lon":"121.51176645063","lat":"31.230116732362","category":"247","category_name":"餐饮美食","address":"浦东新区浦城路172号(近商城路)"},{"poiid":"B2094654DA69A6FE4693","title":"任任家宴","lon":"121.51214323423","lat":"31.229210096035","category":"76","category_name":"上海菜","address":"浦东新区商城路369号(浦城路商城路)"},{"poiid":"B2094757D069A5F4459F","title":"东捷集团","lon":"121.511516","lat":"31.22885","category":"46","category_name":"楼宇","address":"上海商城路358号"},{"poiid":"B2094757DB6AA0FD4893","title":"钱柜（上海湾店）","lon":"121.514","lat":"31.2267","category":"172","category_name":"酒吧","address":"浦东新区浦东南路1138号上海湾广场内(近张杨路)"},{"poiid":"B2094757D068A1F84898","title":"凯德·菊园","lon":"121.51352913","lat":"31.227838618","category":"47","category_name":"住宅区","address":"上海浦东新区浦城路366弄"},{"poiid":"B2094750DA6BA4F84399","title":"太平洋咖啡","lon":"121.51225","lat":"31.22762","category":"260","category_name":"其他","address":"浦东新区浦城路367号1F-A号铺(近启新路)"},{"poiid":"B2094757D66CA1FE4799","title":"意方砂锅粥","lon":"121.51480273","lat":"31.227619244","category":"247","category_name":"餐饮美食","address":"上海浦东张扬路400号"},{"poiid":"B2094654DB6BAAF5429E","title":"陆家嘴图书馆","lon":"121.5111","lat":"31.23073","category":"181","category_name":"图书馆","address":"浦东新区浦城路150号(浦城路商城路)"},{"poiid":"B2094757D064AAF9469A","title":"浦城路","lon":"121.512456","lat":"31.227294","category":"500","category_name":"未知分类","address":"上海浦城路"},{"poiid":"B2094757D065AAFC4793","title":"陆家嘴派出所","lon":"121.51159668","lat":"31.2293395996","category":"609","category_name":"警察局","address":"上海商城路357号"},{"poiid":"B2094757D16EABFF469B","title":"NYSP-New York Pizza","lon":"121.514771238","lat":"31.2271942354","category":"500","category_name":"未知分类","address":"浦东南路上海湾"},{"poiid":"B2094757D16CAAFA4699","title":"好粥到","lon":"121.513969054","lat":"31.229688793","category":"68","category_name":"快餐厅","address":"浦东新区商城路423号(近浦东南路)"},{"poiid":"B2094757D46DABFB4199","title":"唐恩都乐 浦东南路店 Dunkin Donuts","lon":"121.515092","lat":"31.228073","category":"67","category_name":"甜品店","address":"浦东新区浦东南路1118号鄂尔多斯大厦1楼(近张杨路)"},{"poiid":"B2094757D069A1F54199","title":"浦东新区陆家嘴图书馆(第二分部)","lon":"121.51166","lat":"31.22988","category":"181","category_name":"图书馆","address":"上海浦东新区浦城路150号"},{"poiid":"B2094752DA6AA4FE4993","title":"100哆啦A梦秘密道具博览","lon":"121.513411229161","lat":"31.22739659386533","category":"500","category_name":"未知分类","address":"上海市 上海黄浦区马当路245号新天地时尚购物中心"},{"poiid":"B2094757DA65A7FA4699","title":"The Westin bind center Shanghai","lon":"121.5106414414889","lat":"31.22919482826353","category":"247","category_name":"餐饮美食","address":"上海市河南中路88号"},{"poiid":"B2094757D16BA6F5469D","title":"HOFBRAUHAUS  酒吧","lon":"121.51478873","lat":"31.227116233","category":"172","category_name":"酒吧","address":"上海湾"},{"poiid":"B2094757D168A2F54898","title":"冰厂田幼儿园小班部","lon":"121.512351","lat":"31.22944","category":"253","category_name":"校园生活","address":"上海商城路"},{"poiid":"B209475CD764A2FB459C","title":"星巴克 上海湾店","lon":"121.51367","lat":"31.22661","category":"65","category_name":"咖啡厅","address":"浦东南路1138号上海湾176-182号商铺(近张杨路)"},{"poiid":"B2094757D16CA4F5409E","title":"八佰伴","lon":"121.51481173","lat":"31.229458283","category":"119","category_name":"商场","address":"上海浦东新区东昌路"},{"poiid":"B2094655D26AABF8479C","title":"钱柜(浦东旗舰店)","lon":"121.51532","lat":"31.22747","category":"170","category_name":"KTV","address":"浦东新区浦东南路1118号上海湾B1楼(张杨路口)"},{"poiid":"B2094757D06FA7F84593","title":"黔香阁(浦东店)","lon":"121.51129","lat":"31.22987","category":"83","category_name":"云贵菜","address":"浦东新区浦城路171号(近商城路)"},{"poiid":"B209475CD564A7F84392","title":"上海滩浦东香格里拉店","lon":"121.50058","lat":"31.23634","category":"119","category_name":"商场","address":"浦东富成路33号香格里拉酒店内大堂层"},{"poiid":"B2094654DA6EA4F9439D","title":"新源广场","lon":"121.51","lat":"31.2273","category":"46","category_name":"楼宇","address":"中山南路268号"},{"poiid":"B2094757D66EA0FC429D","title":"上海歌城","lon":"121.51483273","lat":"31.229608286","category":"170","category_name":"KTV","address":"上海市浦东新区浦东南路"},{"poiid":"B2094757D069ABF54993","title":"好乐迪 八百伴店","lon":"121.51498573","lat":"31.226918229","category":"170","category_name":"KTV","address":"上海市浦东新区商城路 八百伴10楼"},{"poiid":"B2094757D168A3F4489A","title":"johnny moo(上海湾店)","lon":"121.51497373","lat":"31.22697823","category":"94","category_name":"西餐厅","address":"浦东新区张杨路333号上海湾休闲广场1楼117室(近浦东南路)"},{"poiid":"B2094757D06FA1FD4698","title":"星巴克(浦城路店)","lon":"121.512253","lat":"31.227622","category":"260","category_name":"其他","address":"浦东新区浦城路367号(启新路口)"},{"poiid":"B2094757D06AA6FB479E","title":"子羽港式粤菜餐厅","lon":"121.514010738","lat":"31.2268292276","category":"72","category_name":"广东菜","address":"浦东新区浦东南路1138号上海湾广场133号铺(近张扬路)"},{"poiid":"B2094757D068A7F5469D","title":"鄂尔多斯国际大厦","lon":"121.515303","lat":"31.227643","category":"46","category_name":"楼宇","address":"上海市平凉路1398号"},{"poiid":"B2094757D068A5F8439A","title":"商城路","lon":"121.51235199","lat":"31.2294406891","category":"260","category_name":"其他","address":"上海商城路"},{"poiid":"B2094757D06FA5FA459B","title":"上海新东方学校(陆家嘴校区)","lon":"121.51188","lat":"31.22923","category":"253","category_name":"校园生活","address":"浦东新区浦城路190号(商城路路口)"},{"poiid":"B2094757D06FA6F8449F","title":"上海湾生活时尚中心","lon":"121.51491","lat":"31.22667","category":"119","category_name":"商场","address":"浦东新区浦东南路1138号上海湾广场内(近张杨路)"},{"poiid":"B2094757D06FA4F8459D","title":"一兆韦德(菊园店)","lon":"121.51270768","lat":"31.226597462","category":"148","category_name":"美容美发店","address":"浦东新区浦城路367号(近东昌路地铁站)"},{"poiid":"B2094757D169ABFD429A","title":"i.t ifc国金","lon":"121.513942538","lat":"31.2300293958","category":"500","category_name":"未知分类","address":"上海市浦东新区陆家嘴"},{"poiid":"B2094757D06AA3FE4492","title":"洋泾·菊园实验学校","lon":"121.512277683","lat":"31.2272614634","category":"55","category_name":"中学","address":"上海浦东新区浦城路333号"},{"poiid":"B2094654DA69A6FE4792","title":"菊园","lon":"121.51377","lat":"31.22844","category":"47","category_name":"住宅区","address":"菊园(汇豪天下)位于浦东浦民路233弄"},{"poiid":"B2094757D068A2FD449A","title":"卡玛生活瑜伽会馆","lon":"121.51181","lat":"31.22961","category":"148","category_name":"美容美发店","address":"浦东新区浦城路172号3-4楼(近商城路)"},{"poiid":"B2094751DB6CA4FD4493","title":"浦东机场T2航站楼","lon":"121.5129","lat":"31.2273","category":"500","category_name":"未知分类","address":null},{"poiid":"B2094757D568A5FE499B","title":"伊藤家上海湾店","lon":"121.5138769","lat":"31.22671306","category":"95","category_name":"日本料理","address":"浦东新区浦城路398号上海湾广场(近张杨路)"},{"poiid":"B2094751D56FA7FE449C","title":"Ashley Steak","lon":"121.512278","lat":"31.230046","category":"247","category_name":"餐饮美食","address":"上海八佰伴9F"},{"poiid":"B2094654DA69A6FF429B","title":"中融·国际商城(浦东南路)","lon":"121.5152","lat":"31.22828","category":"119","category_name":"商场","address":"浦东新区浦东南路1068号中融国际商城内(近张杨路)"},{"poiid":"B2094757D069A3F4439F","title":"凯德·江临天下(Summit Panorama)","lon":"121.51181768","lat":"31.2262234648","category":"47","category_name":"住宅区","address":"上海市浦东新区浦明路233弄"},{"poiid":"B2094654DB69A5FF429F","title":"莫泰168连锁旅店(商城路店)","lon":"121.51207","lat":"31.22941","category":"216","category_name":"经济型连锁酒店","address":"上海市浦东新区商城路365号（近浦东南路）"},{"poiid":"B2094757D065AAFB469C","title":"新世纪影城七号厅","lon":"121.51478473","lat":"31.227090233","category":"178","category_name":"电影院","address":"上海市浦东新区张杨路501号第一八佰伴10楼"},{"poiid":"B2094757D168A7F54592","title":"大唐盲人按摩中心","lon":"121.51137","lat":"31.22904","category":"149","category_name":"洗浴推拿场所","address":"上海浦东新区商城路339号(近浦城路)  "},{"poiid":"B2094655D26DA1F4449F","title":"楚炫堂生态炖鱼馆(上海湾店)","lon":"121.51387","lat":"31.22671","category":"86","category_name":"火锅店","address":"浦东新区浦东南路1138号上海湾休闲广场2楼(八佰伴对面)"},{"poiid":"B2094757D06BA6FA469D","title":"巴黎贝甜(商城路店)","lon":"121.511","lat":"31.22885","category":"67","category_name":"甜品店","address":"浦东新区商城路297号申金大厦1楼商铺C区(近浦城路)"},{"poiid":"B2094753D76AA2FE499E","title":"太平洋咖啡(浦城店)","lon":"121.512253","lat":"31.227622","category":"65","category_name":"咖啡厅","address":"上海市浦东新区浦城路367号1F-A号铺(近启新路)"},{"poiid":"B2094654DB6AA3F94792","title":"STARBUCKSCOFFEE浦城路店","lon":"121.51245","lat":"31.22729","category":"256","category_name":"外国餐厅","address":"浦东新区浦城路367号"},{"poiid":"B2094654DB6AA3FE409C","title":"卡西巴 浦城店 La Casbah","lon":"121.51176645063","lat":"31.230116732362","category":"247","category_name":"餐饮美食","address":"浦东新区浦城路172号(近商城路)"},{"poiid":"B2094654DA69A6FE4693","title":"任任家宴","lon":"121.51214323423","lat":"31.229210096035","category":"76","category_name":"上海菜","address":"浦东新区商城路369号(浦城路商城路)"},{"poiid":"B2094757D069A5F4459F","title":"东捷集团","lon":"121.511516","lat":"31.22885","category":"46","category_name":"楼宇","address":"上海商城路358号"},{"poiid":"B2094757DB6AA0FD4893","title":"钱柜（上海湾店）","lon":"121.514","lat":"31.2267","category":"172","category_name":"酒吧","address":"浦东新区浦东南路1138号上海湾广场内(近张杨路)"},{"poiid":"B2094757D068A1F84898","title":"凯德·菊园","lon":"121.51352913","lat":"31.227838618","category":"47","category_name":"住宅区","address":"上海浦东新区浦城路366弄"},{"poiid":"B2094750DA6BA4F84399","title":"太平洋咖啡","lon":"121.51225","lat":"31.22762","category":"260","category_name":"其他","address":"浦东新区浦城路367号1F-A号铺(近启新路)"},{"poiid":"B2094757D66CA1FE4799","title":"意方砂锅粥","lon":"121.51480273","lat":"31.227619244","category":"247","category_name":"餐饮美食","address":"上海浦东张扬路400号"},{"poiid":"B2094654DB6BAAF5429E","title":"陆家嘴图书馆","lon":"121.5111","lat":"31.23073","category":"181","category_name":"图书馆","address":"浦东新区浦城路150号(浦城路商城路)"},{"poiid":"B2094757D064AAF9469A","title":"浦城路","lon":"121.512456","lat":"31.227294","category":"500","category_name":"未知分类","address":"上海浦城路"},{"poiid":"B2094757D065AAFC4793","title":"陆家嘴派出所","lon":"121.51159668","lat":"31.2293395996","category":"609","category_name":"警察局","address":"上海商城路357号"},{"poiid":"B2094757D16EABFF469B","title":"NYSP-New York Pizza","lon":"121.514771238","lat":"31.2271942354","category":"500","category_name":"未知分类","address":"浦东南路上海湾"},{"poiid":"B2094757D16CAAFA4699","title":"好粥到","lon":"121.513969054","lat":"31.229688793","category":"68","category_name":"快餐厅","address":"浦东新区商城路423号(近浦东南路)"},{"poiid":"B2094757D46DABFB4199","title":"唐恩都乐 浦东南路店 Dunkin Donuts","lon":"121.515092","lat":"31.228073","category":"67","category_name":"甜品店","address":"浦东新区浦东南路1118号鄂尔多斯大厦1楼(近张杨路)"},{"poiid":"B2094757D069A1F54199","title":"浦东新区陆家嘴图书馆(第二分部)","lon":"121.51166","lat":"31.22988","category":"181","category_name":"图书馆","address":"上海浦东新区浦城路150号"},{"poiid":"B2094752DA6AA4FE4993","title":"100哆啦A梦秘密道具博览","lon":"121.513411229161","lat":"31.22739659386533","category":"500","category_name":"未知分类","address":"上海市 上海黄浦区马当路245号新天地时尚购物中心"},{"poiid":"B2094757DA65A7FA4699","title":"The Westin bind center Shanghai","lon":"121.5106414414889","lat":"31.22919482826353","category":"247","category_name":"餐饮美食","address":"上海市河南中路88号"},{"poiid":"B2094757D16BA6F5469D","title":"HOFBRAUHAUS  酒吧","lon":"121.51478873","lat":"31.227116233","category":"172","category_name":"酒吧","address":"上海湾"},{"poiid":"B2094757D168A2F54898","title":"冰厂田幼儿园小班部","lon":"121.512351","lat":"31.22944","category":"253","category_name":"校园生活","address":"上海商城路"},{"poiid":"B209475CD764A2FB459C","title":"星巴克 上海湾店","lon":"121.51367","lat":"31.22661","category":"65","category_name":"咖啡厅","address":"浦东南路1138号上海湾176-182号商铺(近张杨路)"}]