[{"poiid":"B2094655D36CA7FD419F","title":"华东师大","lon":"121.41048","lat":"31.22808","category":"38","category_name":"公交车站","address":""},{"poiid":"B2094757D06FA2FC429D","title":"哈根达斯(长宁龙之梦店)","lon":"121.41237158","lat":"31.224131311","category":"113","category_name":"冷饮店","address":"长宁区长宁路1018号龙之梦购物中心1楼(近凯旋路)"},{"poiid":"B2094655D26FA2FB459E","title":"华东师范大学(东门)","lon":"121.40985","lat":"31.22805","category":"52","category_name":"高等院校","address":"普陀区中山北路3663号"},{"poiid":"B2094757D06FA1FF409A","title":"华东师范大学文附楼","lon":"121.40841082","lat":"31.226570761","category":"253","category_name":"校园生活","address":"上海中山北路3663号/金沙江路145号/枣阳路460号"},{"poiid":"B2094655D26CAAFD409F","title":"华东师大体育馆(东门)","lon":"121.40975","lat":"31.22749","category":"224","category_name":"综合体育馆","address":""},{"poiid":"B2094757DB68A3FF489C","title":"龙之梦","lon":"121.409145","lat":"31.219005","category":"500","category_name":"未知分类","address":"长宁路"},{"poiid":"B2094655D26DAAF44999","title":"华东师范大学逸夫楼","lon":"121.40685","lat":"31.22623","category":"52","category_name":"高等院校","address":"上海闵行区中山北路3663号华东师范大学中山北路校区"},{"poiid":"B2094757D068A4FB4393","title":"海鑫公寓","lon":"121.41007","lat":"31.223534","category":"47","category_name":"住宅区","address":"上海普陀区中山北路3751号"},{"poiid":"B2094757D06FA2FC449C","title":"i.t(龙之梦店)","lon":"121.41329058","lat":"31.223194293","category":"141","category_name":"服装鞋帽皮具店","address":"长宁区长宁路1018号龙之梦购物中心2楼2201号铺(近凯旋路)"},{"poiid":"B2094757D164AAFB4492","title":"万航渡路","lon":"121.408267586","lat":"31.2199143293","category":"500","category_name":"未知分类","address":"上海万航渡路"},{"poiid":"B2094757D064A4FE489E","title":"麦当劳","lon":"121.41087858","lat":"31.219638223","category":"500","category_name":"未知分类","address":"上海市中山公园地铁"},{"poiid":"B2094654D56BA0FF439C","title":"虹桥国际大厦","lon":"121.414","lat":"31.2228","category":"46","category_name":"楼宇","address":"上海市长宁区长宁路1551号"},{"poiid":"B2094757D069A7FC459F","title":"村夫烤鱼龙虾王(华师大店)","lon":"121.41084","lat":"31.2279","category":"68","category_name":"快餐厅","address":"普陀区中山北路3700号"},{"poiid":"B2094654DB6BA6F9499E","title":"大家源新城","lon":"121.41244","lat":"31.22144","category":"47","category_name":"住宅区","address":"大家源新城位于长宁长宁路1306号"},{"poiid":"B2094655D26DA2FC429E","title":"DOHO","lon":"121.40579871717932","lat":"31.220632293765263","category":"45","category_name":"产业园区","address":"上海市长宁区万航渡路2452号"},{"poiid":"B2094757DB68ABF54192","title":"星巴克","lon":"121.410249","lat":"31.224198","category":"500","category_name":"未知分类","address":"长宁区龙之梦"},{"poiid":"B2094752D264A0F9449E","title":"鹿港小镇","lon":"121.409491","lat":"31.226715","category":"247","category_name":"餐饮美食","address":"龙之梦七楼黄中庭"},{"poiid":"B2094757D16CABFE4398","title":"华东师范大学 科学会堂","lon":"121.406528586","lat":"31.2266953619","category":"500","category_name":"未知分类","address":"上海市普陀区枣阳路"},{"poiid":"B2094654D56BA4FA4899","title":"黎金苑","lon":"121.40803","lat":"31.22338","category":"47","category_name":"住宅区","address":"光复西路2077弄1-89号"},{"poiid":"B2094654DB6BA7FF4093","title":"华东师大一村(东门)","lon":"121.41061","lat":"31.22621","category":"47","category_name":"住宅区","address":"中山北路3671弄"},{"poiid":"B2094752D465A3FF4898","title":"摩休敦纳韩国年糕料理","lon":"121.41281","lat":"31.221359","category":"247","category_name":"餐饮美食","address":"中山公园龙之梦"},{"poiid":"B2094750D76DABFC489A","title":"家味螺蛳粉(华师大店)","lon":"121.411","lat":"31.2273","category":"68","category_name":"快餐厅","address":"普陀区中山北路3736号(华师大对面)"},{"poiid":"B2094757D065A4FC439F","title":"薇拉之谷","lon":"121.40611","lat":"31.23033","category":"47","category_name":"住宅区","address":"普陀区中山北路3676号(近金沙江路)"},{"poiid":"B2094655D26DAAF9479C","title":"华东师范大学出版社","lon":"121.40782","lat":"31.2261","category":"63","category_name":"出版社","address":"上海普陀区中山北路3663号华东师范大学中山北路校区"},{"poiid":"B2094757D06BABFF449A","title":"小厨房碳烤鱼","lon":"121.41213","lat":"31.22688","category":"71","category_name":"四川菜","address":"普陀区凯旋北路1764号(盘湾里对面)"},{"poiid":"B2094757D66BA3F44999","title":"苏河湾","lon":"121.406163","lat":"31.2205512","category":"94","category_name":"西餐厅","address":"长宁区万航渡路2452号DOHO创意园区3楼屋顶花园(近娄山关路)"},{"poiid":"B2094757D06AA3FA4992","title":"华东师范大学大礼堂","lon":"121.41011553","lat":"31.22816887","category":"253","category_name":"校园生活","address":"上海华东师范大学大礼堂"},{"poiid":"B2094654D56BA4FA479A","title":"华东师范大学理工学院住宿楼","lon":"121.41054","lat":"31.22438","category":"47","category_name":"住宅区","address":"中山北路3751弄10-17号"},{"poiid":"B2094757D468A0F94793","title":"重庆鸡公煲 华师大店","lon":"121.410546054","lat":"31.226495793","category":"86","category_name":"火锅店","address":"普陀区中山北路2139弄秋月枫舍步行街68号(近新粤洲大酒店)"},{"poiid":"B2094757D464AAF4449D","title":"国兴拉面","lon":"121.408533054","lat":"31.222825793","category":"247","category_name":"餐饮美食","address":"静安区万航渡路759弄10号"},{"poiid":"B2094757D568A0F54692","title":"书香名第四期","lon":"121.4081492","lat":"31.22294194","category":"47","category_name":"住宅区","address":"书香名第四期位于普陀光复西路2077弄"},{"poiid":"B2094654D56BA4FA479B","title":"海鑫公寓(东门)","lon":"121.41065","lat":"31.22439","category":"47","category_name":"住宅区","address":"中山北路3751弄10-17号"},{"poiid":"B2094757D66AA4FB4098","title":"利兴餐厅","lon":"121.410622054","lat":"31.225273793","category":"76","category_name":"上海菜","address":"普陀区中山北路3671弄172号华师大一村(中山桥下面)"},{"poiid":"B2094757D168A0FB449C","title":"上海人家(龙之梦)","lon":"121.41261869","lat":"31.223795475","category":"247","category_name":"餐饮美食","address":"上海长宁路"},{"poiid":"B2094757D16DA4FF499E","title":"华东师范大学附属幼儿园","lon":"121.40958728","lat":"31.224392316","category":"253","category_name":"校园生活","address":"普陀区中山北路3671弄150号(近金沙江路)"},{"poiid":"B2094654D56BA4FA4392","title":"华东师范大学体育馆(东门)","lon":"121.40983","lat":"31.22804","category":"224","category_name":"综合体育馆","address":"中山北路3663"},{"poiid":"B2094757D464A0F8419C","title":"好客楼家常菜","lon":"121.413490054","lat":"31.223454793","category":"76","category_name":"上海菜","address":"普陀区凯旋北路1600号(近宁夏路)"},{"poiid":"B2094655D26DA4FC459F","title":"黎金苑(南一门)","lon":"121.4081","lat":"31.2225","category":"656","category_name":"大门","address":"光复西路2077弄1-89号"},{"poiid":"B2094757D46BA4FF4299","title":"胖阿姨正宗朝鲜冷面 中山北路店","lon":"121.4101553","lat":"31.2280922","category":"96","category_name":"韩国料理","address":"普陀区中山北路3636-6号(近华师大正门)"},{"poiid":"B2094752DB69A5FC4492","title":"家有好面","lon":"121.412865","lat":"31.221933","category":"247","category_name":"餐饮美食","address":"上海市 长宁龙之梦7楼"},{"poiid":"B2094753DB6CA3FB439B","title":"赵小姐不等位","lon":"121.409011","lat":"31.224508","category":"500","category_name":"未知分类","address":"上海市 上海市长乐路628号"},{"poiid":"B2094752DA6AA3FB4999","title":"俏江南","lon":"121.412553","lat":"31.221006","category":"500","category_name":"未知分类","address":"上海市 龙之梦购物中心8F"},{"poiid":"B2094757DB6CA7FC479D","title":"花丸乌冬面","lon":"121.413013","lat":"31.22005","category":"247","category_name":"餐饮美食","address":"长宁区长宁路1018号龙之梦购物中心B1楼蓝中庭(近凯旋路)"},{"poiid":"B2094654D56BA4F4489E","title":"清宁小区","lon":"121.40678","lat":"31.219639","category":"47","category_name":"住宅区","address":"万航渡路2505弄21-46"},{"poiid":"B2094757D068A5FD409D","title":"德笼馆(华师大店)","lon":"121.41094207","lat":"31.227296829","category":"68","category_name":"快餐厅","address":"普陀区中山北路3736号(华师大对面)"},{"poiid":"B2094757D068A4F54998","title":"凯旋路桥","lon":"121.412033081","lat":"31.2223129272","category":"250","category_name":"公园户外","address":"上海凯旋路万航渡路"},{"poiid":"B2094757D06AA3FF489A","title":"弘基创邑河","lon":"121.40962982","lat":"31.221445083","category":"500","category_name":"未知分类","address":"上海万航渡路2170号"},{"poiid":"B2094757D66DABF54193","title":"卡卡@home","lon":"121.41057558","lat":"31.224029309","category":"500","category_name":"未知分类","address":null},{"poiid":"B2094655D264A6F9419F","title":"快客师大店","lon":"121.40896","lat":"31.22573","category":"117","category_name":"便民商店/便利店","address":"长风新村"},{"poiid":"B2094757D06BA3F4499E","title":"全家便利(上大路站店)","lon":"121.40991985","lat":"31.225739133","category":"117","category_name":"便民商店/便利店","address":"上海宝山区地铁七号线上大路站内"},{"poiid":"B2094655D36CA7FD419F","title":"华东师大","lon":"121.41048","lat":"31.22808","category":"38","category_name":"公交车站","address":""},{"poiid":"B2094757D06FA2FC429D","title":"哈根达斯(长宁龙之梦店)","lon":"121.41237158","lat":"31.224131311","category":"113","category_name":"冷饮店","address":"长宁区长宁路1018号龙之梦购物中心1楼(近凯旋路)"},{"poiid":"B2094655D26FA2FB459E","title":"华东师范大学(东门)","lon":"121.40985","lat":"31.22805","category":"52","category_name":"高等院校","address":"普陀区中山北路3663号"},{"poiid":"B2094757D06FA1FF409A","title":"华东师范大学文附楼","lon":"121.40841082","lat":"31.226570761","category":"253","category_name":"校园生活","address":"上海中山北路3663号/金沙江路145号/枣阳路460号"},{"poiid":"B2094655D26CAAFD409F","title":"华东师大体育馆(东门)","lon":"121.40975","lat":"31.22749","category":"224","category_name":"综合体育馆","address":""},{"poiid":"B2094757DB68A3FF489C","title":"龙之梦","lon":"121.409145","lat":"31.219005","category":"500","category_name":"未知分类","address":"长宁路"},{"poiid":"B2094655D26DAAF44999","title":"华东师范大学逸夫楼","lon":"121.40685","lat":"31.22623","category":"52","category_name":"高等院校","address":"上海闵行区中山北路3663号华东师范大学中山北路校区"},{"poiid":"B2094757D068A4FB4393","title":"海鑫公寓","lon":"121.41007","lat":"31.223534","category":"47","category_name":"住宅区","address":"上海普陀区中山北路3751号"},{"poiid":"B2094757D06FA2FC449C","title":"i.t(龙之梦店)","lon":"121.41329058","lat":"31.223194293","category":"141","category_name":"服装鞋帽皮具店","address":"长宁区长宁路1018号龙之梦购物中心2楼2201号铺(近凯旋路)"},{"poiid":"B2094757D164AAFB4492","title":"万航渡路","lon":"121.408267586","lat":"31.2199143293","category":"500","category_name":"未知分类","address":"上海万航渡路"},{"poiid":"B2094757D064A4FE489E","title":"麦当劳","lon":"121.41087858","lat":"31.219638223","category":"500","category_name":"未知分类","address":"上海市中山公园地铁"},{"poiid":"B2094654D56BA0FF439C","title":"虹桥国际大厦","lon":"121.414","lat":"31.2228","category":"46","category_name":"楼宇","address":"上海市长宁区长宁路1551号"},{"poiid":"B2094757D069A7FC459F","title":"村夫烤鱼龙虾王(华师大店)","lon":"121.41084","lat":"31.2279","category":"68","category_name":"快餐厅","address":"普陀区中山北路3700号"},{"poiid":"B2094654DB6BA6F9499E","title":"大家源新城","lon":"121.41244","lat":"31.22144","category":"47","category_name":"住宅区","address":"大家源新城位于长宁长宁路1306号"},{"poiid":"B2094655D26DA2FC429E","title":"DOHO","lon":"121.40579871717932","lat":"31.220632293765263","category":"45","category_name":"产业园区","address":"上海市长宁区万航渡路2452号"},{"poiid":"B2094757DB68ABF54192","title":"星巴克","lon":"121.410249","lat":"31.224198","category":"500","category_name":"未知分类","address":"长宁区龙之梦"},{"poiid":"B2094752D264A0F9449E","title":"鹿港小镇","lon":"121.409491","lat":"31.226715","category":"247","category_name":"餐饮美食","address":"龙之梦七楼黄中庭"},{"poiid":"B2094757D16CABFE4398","title":"华东师范大学 科学会堂","lon":"121.406528586","lat":"31.2266953619","category":"500","category_name":"未知分类","address":"上海市普陀区枣阳路"},{"poiid":"B2094654D56BA4FA4899","title":"黎金苑","lon":"121.40803","lat":"31.22338","category":"47","category_name":"住宅区","address":"光复西路2077弄1-89号"},{"poiid":"B2094654DB6BA7FF4093","title":"华东师大一村(东门)","lon":"121.41061","lat":"31.22621","category":"47","category_name":"住宅区","address":"中山北路3671弄"},{"poiid":"B2094752D465A3FF4898","title":"摩休敦纳韩国年糕料理","lon":"121.41281","lat":"31.221359","category":"247","category_name":"餐饮美食","address":"中山公园龙之梦"},{"poiid":"B2094750D76DABFC489A","title":"家味螺蛳粉(华师大店)","lon":"121.411","lat":"31.2273","category":"68","category_name":"快餐厅","address":"普陀区中山北路3736号(华师大对面)"},{"poiid":"B2094757D065A4FC439F","title":"薇拉之谷","lon":"121.40611","lat":"31.23033","category":"47","category_name":"住宅区","address":"普陀区中山北路3676号(近金沙江路)"},{"poiid":"B2094655D26DAAF9479C","title":"华东师范大学出版社","lon":"121.40782","lat":"31.2261","category":"63","category_name":"出版社","address":"上海普陀区中山北路3663号华东师范大学中山北路校区"},{"poiid":"B2094757D06BABFF449A","title":"小厨房碳烤鱼","lon":"121.41213","lat":"31.22688","category":"71","category_name":"四川菜","address":"普陀区凯旋北路1764号(盘湾里对面)"},{"poiid":"B2094757D66BA3F44999","title":"苏河湾","lon":"121.406163","lat":"31.2205512","category":"94","category_name":"西餐厅","address":"长宁区万航渡路2452号DOHO创意园区3楼屋顶花园(近娄山关路)"},{"poiid":"B2094757D06AA3FA4992","title":"华东师范大学大礼堂","lon":"121.41011553","lat":"31.22816887","category":"253","category_name":"校园生活","address":"上海华东师范大学大礼堂"},{"poiid":"B2094654D56BA4FA479A","title":"华东师范大学理工学院住宿楼","lon":"121.41054","lat":"31.22438","category":"47","category_name":"住宅区","address":"中山北路3751弄10-17号"},{"poiid":"B2094757D468A0F94793","title":"重庆鸡公煲 华师大店","lon":"121.410546054","lat":"31.226495793","category":"86","category_name":"火锅店","address":"普陀区中山北路2139弄秋月枫舍步行街68号(近新粤洲大酒店)"},{"poiid":"B2094757D464AAF4449D","title":"国兴拉面","lon":"121.408533054","lat":"31.222825793","category":"247","category_name":"餐饮美食","address":"静安区万航渡路759弄10号"},{"poiid":"B2094757D568A0F54692","title":"书香名第四期","lon":"121.4081492","lat":"31.22294194","category":"47","category_name":"住宅区","address":"书香名第四期位于普陀光复西路2077弄"},{"poiid":"B2094654D56BA4FA479B","title":"海鑫公寓(东门)","lon":"121.41065","lat":"31.22439","category":"47","category_name":"住宅区","address":"中山北路3751弄10-17号"},{"poiid":"B2094757D66AA4FB4098","title":"利兴餐厅","lon":"121.410622054","lat":"31.225273793","category":"76","category_name":"上海菜","address":"普陀区中山北路3671弄172号华师大一村(中山桥下面)"},{"poiid":"B2094757D168A0FB449C","title":"上海人家(龙之梦)","lon":"121.41261869","lat":"31.223795475","category":"247","category_name":"餐饮美食","address":"上海长宁路"},{"poiid":"B2094757D16DA4FF499E","title":"华东师范大学附属幼儿园","lon":"121.40958728","lat":"31.224392316","category":"253","category_name":"校园生活","address":"普陀区中山北路3671弄150号(近金沙江路)"},{"poiid":"B2094654D56BA4FA4392","title":"华东师范大学体育馆(东门)","lon":"121.40983","lat":"31.22804","category":"224","category_name":"综合体育馆","address":"中山北路3663"},{"poiid":"B2094757D464A0F8419C","title":"好客楼家常菜","lon":"121.413490054","lat":"31.223454793","category":"76","category_name":"上海菜","address":"普陀区凯旋北路1600号(近宁夏路)"},{"poiid":"B2094655D26DA4FC459F","title":"黎金苑(南一门)","lon":"121.4081","lat":"31.2225","category":"656","category_name":"大门","address":"光复西路2077弄1-89号"},{"poiid":"B2094757D46BA4FF4299","title":"胖阿姨正宗朝鲜冷面 中山北路店","lon":"121.4101553","lat":"31.2280922","category":"96","category_name":"韩国料理","address":"普陀区中山北路3636-6号(近华师大正门)"},{"poiid":"B2094752DB69A5FC4492","title":"家有好面","lon":"121.412865","lat":"31.221933","category":"247","category_name":"餐饮美食","address":"上海市 长宁龙之梦7楼"},{"poiid":"B2094753DB6CA3FB439B","title":"赵小姐不等位","lon":"121.409011","lat":"31.224508","category":"500","category_name":"未知分类","address":"上海市 上海市长乐路628号"},{"poiid":"B2094752DA6AA3FB4999","title":"俏江南","lon":"121.412553","lat":"31.221006","category":"500","category_name":"未知分类","address":"上海市 龙之梦购物中心8F"},{"poiid":"B2094757DB6CA7FC479D","title":"花丸乌冬面","lon":"121.413013","lat":"31.22005","category":"247","category_name":"餐饮美食","address":"长宁区长宁路1018号龙之梦购物中心B1楼蓝中庭(近凯旋路)"},{"poiid":"B2094654D56BA4F4489E","title":"清宁小区","lon":"121.40678","lat":"31.219639","category":"47","category_name":"住宅区","address":"万航渡路2505弄21-46"},{"poiid":"B2094757D068A5FD409D","title":"德笼馆(华师大店)","lon":"121.41094207","lat":"31.227296829","category":"68","category_name":"快餐厅","address":"普陀区中山北路3736号(华师大对面)"},{"poiid":"B2094757D068A4F54998","title":"凯旋路桥","lon":"121.412033081","lat":"31.2223129272","category":"250","category_name":"公园户外","address":"上海凯旋路万航渡路"},{"poiid":"B2094757D06AA3FF489A","title":"弘基创邑河","lon":"121.40962982","lat":"31.221445083","category":"500","category_name":"未知分类","address":"上海万航渡路2170号"},{"poiid":"B2094757D66DABF54193","title":"卡卡@home","lon":"121.41057558","lat":"31.224029309","category":"500","category_name":"未知分类","address":null},{"poiid":"B2094655D264A6F9419F","title":"快客师大店","lon":"121.40896","lat":"31.22573","category":"117","category_name":"便民商店/便利店","address":"长风新村"},{"poiid":"B2094757D06BA3F4499E","title":"全家便利(上大路站店)","lon":"121.40991985","lat":"31.225739133","category":"117","category_name":"便民商店/便利店","address":"上海宝山区地铁七号线上大路站内"},{"poiid":"B2094655D36CA7FD419F","title":"华东师大","lon":"121.41048","lat":"31.22808","category":"38","category_name":"公交车站","address":""},{"poiid":"B2094757D06FA2FC429D","title":"哈根达斯(长宁龙之梦店)","lon":"121.41237158","lat":"31.224131311","category":"113","category_name":"冷饮店","address":"长宁区长宁路1018号龙之梦购物中心1楼(近凯旋路)"},{"poiid":"B2094655D26FA2FB459E","title":"华东师范大学(东门)","lon":"121.40985","lat":"31.22805","category":"52","category_name":"高等院校","address":"普陀区中山北路3663号"},{"poiid":"B2094757D06FA1FF409A","title":"华东师范大学文附楼","lon":"121.40841082","lat":"31.226570761","category":"253","category_name":"校园生活","address":"上海中山北路3663号/金沙江路145号/枣阳路460号"},{"poiid":"B2094655D26CAAFD409F","title":"华东师大体育馆(东门)","lon":"121.40975","lat":"31.22749","category":"224","category_name":"综合体育馆","address":""},{"poiid":"B2094757DB68A3FF489C","title":"龙之梦","lon":"121.409145","lat":"31.219005","category":"500","category_name":"未知分类","address":"长宁路"},{"poiid":"B2094655D26DAAF44999","title":"华东师范大学逸夫楼","lon":"121.40685","lat":"31.22623","category":"52","category_name":"高等院校","address":"上海闵行区中山北路3663号华东师范大学中山北路校区"},{"poiid":"B2094757D068A4FB4393","title":"海鑫公寓","lon":"121.41007","lat":"31.223534","category":"47","category_name":"住宅区","address":"上海普陀区中山北路3751号"},{"poiid":"B2094757D06FA2FC449C","title":"i.t(龙之梦店)","lon":"121.41329058","lat":"31.223194293","category":"141","category_name":"服装鞋帽皮具店","address":"长宁区长宁路1018号龙之梦购物中心2楼2201号铺(近凯旋路)"},{"poiid":"B2094757D164AAFB4492","title":"万航渡路","lon":"121.408267586","lat":"31.2199143293","category":"500","category_name":"未知分类","address":"上海万航渡路"},{"poiid":"B2094757D064A4FE489E","title":"麦当劳","lon":"121.41087858","lat":"31.219638223","category":"500","category_name":"未知分类","address":"上海市中山公园地铁"},{"poiid":"B2094654D56BA0FF439C","title":"虹桥国际大厦","lon":"121.414","lat":"31.2228","category":"46","category_name":"楼宇","address":"上海市长宁区长宁路1551号"},{"poiid":"B2094757D069A7FC459F","title":"村夫烤鱼龙虾王(华师大店)","lon":"121.41084","lat":"31.2279","category":"68","category_name":"快餐厅","address":"普陀区中山北路3700号"},{"poiid":"B2094654DB6BA6F9499E","title":"大家源新城","lon":"121.41244","lat":"31.22144","category":"47","category_name":"住宅区","address":"大家源新城位于长宁长宁路1306号"},{"poiid":"B2094655D26DA2FC429E","title":"DOHO","lon":"121.40579871717932","lat":"31.220632293765263","category":"45","category_name":"产业园区","address":"上海市长宁区万航渡路2452号"},{"poiid":"B2094757DB68ABF54192","title":"星巴克","lon":"121.410249","lat":"31.224198","category":"500","category_name":"未知分类","address":"长宁区龙之梦"},{"poiid":"B2094752D264A0F9449E","title":"鹿港小镇","lon":"121.409491","lat":"31.226715","category":"247","category_name":"餐饮美食","address":"龙之梦七楼黄中庭"},{"poiid":"B2094757D16CABFE4398","title":"华东师范大学 科学会堂","lon":"121.406528586","lat":"31.2266953619","category":"500","category_name":"未知分类","address":"上海市普陀区枣阳路"},{"poiid":"B2094654D56BA4FA4899","title":"黎金苑","lon":"121.40803","lat":"31.22338","category":"47","category_name":"住宅区","address":"光复西路2077弄1-89号"},{"poiid":"B2094654DB6BA7FF4093","title":"华东师大一村(东门)","lon":"121.41061","lat":"31.22621","category":"47","category_name":"住宅区","address":"中山北路3671弄"},{"poiid":"B2094752D465A3FF4898","title":"摩休敦纳韩国年糕料理","lon":"121.41281","lat":"31.221359","category":"247","category_name":"餐饮美食","address":"中山公园龙之梦"},{"poiid":"B2094750D76DABFC489A","title":"家味螺蛳粉(华师大店)","lon":"121.411","lat":"31.2273","category":"68","category_name":"快餐厅","address":"普陀区中山北路3736号(华师大对面)"},{"poiid":"B2094757D065A4FC439F","title":"薇拉之谷","lon":"121.40611","lat":"31.23033","category":"47","category_name":"住宅区","address":"普陀区中山北路3676号(近金沙江路)"},{"poiid":"B2094655D26DAAF9479C","title":"华东师范大学出版社","lon":"121.40782","lat":"31.2261","category":"63","category_name":"出版社","address":"上海普陀区中山北路3663号华东师范大学中山北路校区"},{"poiid":"B2094757D06BABFF449A","title":"小厨房碳烤鱼","lon":"121.41213","lat":"31.22688","category":"71","category_name":"四川菜","address":"普陀区凯旋北路1764号(盘湾里对面)"},{"poiid":"B2094757D66BA3F44999","title":"苏河湾","lon":"121.406163","lat":"31.2205512","category":"94","category_name":"西餐厅","address":"长宁区万航渡路2452号DOHO创意园区3楼屋顶花园(近娄山关路)"},{"poiid":"B2094757D06AA3FA4992","title":"华东师范大学大礼堂","lon":"121.41011553","lat":"31.22816887","category":"253","category_name":"校园生活","address":"上海华东师范大学大礼堂"},{"poiid":"B2094654D56BA4FA479A","title":"华东师范大学理工学院住宿楼","lon":"121.41054","lat":"31.22438","category":"47","category_name":"住宅区","address":"中山北路3751弄10-17号"},{"poiid":"B2094757D468A0F94793","title":"重庆鸡公煲 华师大店","lon":"121.410546054","lat":"31.226495793","category":"86","category_name":"火锅店","address":"普陀区中山北路2139弄秋月枫舍步行街68号(近新粤洲大酒店)"},{"poiid":"B2094757D464AAF4449D","title":"国兴拉面","lon":"121.408533054","lat":"31.222825793","category":"247","category_name":"餐饮美食","address":"静安区万航渡路759弄10号"},{"poiid":"B2094757D568A0F54692","title":"书香名第四期","lon":"121.4081492","lat":"31.22294194","category":"47","category_name":"住宅区","address":"书香名第四期位于普陀光复西路2077弄"},{"poiid":"B2094654D56BA4FA479B","title":"海鑫公寓(东门)","lon":"121.41065","lat":"31.22439","category":"47","category_name":"住宅区","address":"中山北路3751弄10-17号"},{"poiid":"B2094757D66AA4FB4098","title":"利兴餐厅","lon":"121.410622054","lat":"31.225273793","category":"76","category_name":"上海菜","address":"普陀区中山北路3671弄172号华师大一村(中山桥下面)"},{"poiid":"B2094757D168A0FB449C","title":"上海人家(龙之梦)","lon":"121.41261869","lat":"31.223795475","category":"247","category_name":"餐饮美食","address":"上海长宁路"},{"poiid":"B2094757D16DA4FF499E","title":"华东师范大学附属幼儿园","lon":"121.40958728","lat":"31.224392316","category":"253","category_name":"校园生活","address":"普陀区中山北路3671弄150号(近金沙江路)"},{"poiid":"B2094654D56BA4FA4392","title":"华东师范大学体育馆(东门)","lon":"121.40983","lat":"31.22804","category":"224","category_name":"综合体育馆","address":"中山北路3663"},{"poiid":"B2094757D464A0F8419C","title":"好客楼家常菜","lon":"121.413490054","lat":"31.223454793","category":"76","category_name":"上海菜","address":"普陀区凯旋北路1600号(近宁夏路)"},{"poiid":"B2094655D26DA4FC459F","title":"黎金苑(南一门)","lon":"121.4081","lat":"31.2225","category":"656","category_name":"大门","address":"光复西路2077弄1-89号"},{"poiid":"B2094757D46BA4FF4299","title":"胖阿姨正宗朝鲜冷面 中山北路店","lon":"121.4101553","lat":"31.2280922","category":"96","category_name":"韩国料理","address":"普陀区中山北路3636-6号(近华师大正门)"},{"poiid":"B2094752DB69A5FC4492","title":"家有好面","lon":"121.412865","lat":"31.221933","category":"247","category_name":"餐饮美食","address":"上海市 长宁龙之梦7楼"},{"poiid":"B2094753DB6CA3FB439B","title":"赵小姐不等位","lon":"121.409011","lat":"31.224508","category":"500","category_name":"未知分类","address":"上海市 上海市长乐路628号"},{"poiid":"B2094752DA6AA3FB4999","title":"俏江南","lon":"121.412553","lat":"31.221006","category":"500","category_name":"未知分类","address":"上海市 龙之梦购物中心8F"},{"poiid":"B2094757DB6CA7FC479D","title":"花丸乌冬面","lon":"121.413013","lat":"31.22005","category":"247","category_name":"餐饮美食","address":"长宁区长宁路1018号龙之梦购物中心B1楼蓝中庭(近凯旋路)"},{"poiid":"B2094654D56BA4F4489E","title":"清宁小区","lon":"121.40678","lat":"31.219639","category":"47","category_name":"住宅区","address":"万航渡路2505弄21-46"},{"poiid":"B2094757D068A5FD409D","title":"德笼馆(华师大店)","lon":"121.41094207","lat":"31.227296829","category":"68","category_name":"快餐厅","address":"普陀区中山北路3736号(华师大对面)"},{"poiid":"B2094757D068A4F54998","title":"凯旋路桥","lon":"121.412033081","lat":"31.2223129272","category":"250","category_name":"公园户外","address":"上海凯旋路万航渡路"},{"poiid":"B2094757D06AA3FF489A","title":"弘基创邑河","lon":"121.40962982","lat":"31.221445083","category":"500","category_name":"未知分类","address":"上海万航渡路2170号"},{"poiid":"B2094757D66DABF54193","title":"卡卡@home","lon":"121.41057558","lat":"31.224029309","category":"500","category_name":"未知分类","address":null},{"poiid":"B2094655D264A6F9419F","title":"快客师大店","lon":"121.40896","lat":"31.22573","category":"117","category_name":"便民商店/便利店","address":"长风新村"},{"poiid":"B2094757D06BA3F4499E","title":"全家便利(上大路站店)","lon":"121.40991985","lat":"31.225739133","category":"117","category_name":"便民商店/便利店","address":"上海宝山区地铁七号线上大路站内"},{"poiid":"B2094655D36CA7FD419F","title":"华东师大","lon":"121.41048","lat":"31.22808","category":"38","category_name":"公交车站","address":""},{"poiid":"B2094757D06FA2FC429D","title":"哈根达斯(长宁龙之梦店)","lon":"121.41237158","lat":"31.224131311","category":"113","category_name":"冷饮店","address":"长宁区长宁路1018号龙之梦购物中心1楼(近凯旋路)"},{"poiid":"B2094655D26FA2FB459E","title":"华东师范大学(东门)","lon":"121.40985","lat":"31.22805","category":"52","category_name":"高等院校","address":"普陀区中山北路3663号"},{"poiid":"B2094757D06FA1FF409A","title":"华东师范大学文附楼","lon":"121.40841082","lat":"31.226570761","category":"253","category_name":"校园生活","address":"上海中山北路3663号/金沙江路145号/枣阳路460号"},{"poiid":"B2094655D26CAAFD409F","title":"华东师大体育馆(东门)","lon":"121.40975","lat":"31.22749","category":"224","category_name":"综合体育馆","address":""},{"poiid":"B2094757DB68A3FF489C","title":"龙之梦","lon":"121.409145","lat":"31.219005","category":"500","category_name":"未知分类","address":"长宁路"},{"poiid":"B2094655D26DAAF44999","title":"华东师范大学逸夫楼","lon":"121.40685","lat":"31.22623","category":"52","category_name":"高等院校","address":"上海闵行区中山北路3663号华东师范大学中山北路校区"},{"poiid":"B2094757D068A4FB4393","title":"海鑫公寓","lon":"121.41007","lat":"31.223534","category":"47","category_name":"住宅区","address":"上海普陀区中山北路3751号"},{"poiid":"B2094757D06FA2FC449C","title":"i.t(龙之梦店)","lon":"121.41329058","lat":"31.223194293","category":"141","category_name":"服装鞋帽皮具店","address":"长宁区长宁路1018号龙之梦购物中心2楼2201号铺(近凯旋路)"},{"poiid":"B2094757D164AAFB4492","title":"万航渡路","lon":"121.408267586","lat":"31.2199143293","category":"500","category_name":"未知分类","address":"上海万航渡路"},{"poiid":"B2094757D064A4FE489E","title":"麦当劳","lon":"121.41087858","lat":"31.219638223","category":"500","category_name":"未知分类","address":"上海市中山公园地铁"},{"poiid":"B2094654D56BA0FF439C","title":"虹桥国际大厦","lon":"121.414","lat":"31.2228","category":"46","category_name":"楼宇","address":"上海市长宁区长宁路1551号"},{"poiid":"B2094757D069A7FC459F","title":"村夫烤鱼龙虾王(华师大店)","lon":"121.41084","lat":"31.2279","category":"68","category_name":"快餐厅","address":"普陀区中山北路3700号"},{"poiid":"B2094654DB6BA6F9499E","title":"大家源新城","lon":"121.41244","lat":"31.22144","category":"47","category_name":"住宅区","address":"大家源新城位于长宁长宁路1306号"},{"poiid":"B2094655D26DA2FC429E","title":"DOHO","lon":"121.40579871717932","lat":"31.220632293765263","category":"45","category_name":"产业园区","address":"上海市长宁区万航渡路2452号"},{"poiid":"B2094757DB68ABF54192","title":"星巴克","lon":"121.410249","lat":"31.224198","category":"500","category_name":"未知分类","address":"长宁区龙之梦"},{"poiid":"B2094752D264A0F9449E","title":"鹿港小镇","lon":"121.409491","lat":"31.226715","category":"247","category_name":"餐饮美食","address":"龙之梦七楼黄中庭"},{"poiid":"B2094757D16CABFE4398","title":"华东师范大学 科学会堂","lon":"121.406528586","lat":"31.2266953619","category":"500","category_name":"未知分类","address":"上海市普陀区枣阳路"},{"poiid":"B2094654D56BA4FA4899","title":"黎金苑","lon":"121.40803","lat":"31.22338","category":"47","category_name":"住宅区","address":"光复西路2077弄1-89号"},{"poiid":"B2094654DB6BA7FF4093","title":"华东师大一村(东门)","lon":"121.41061","lat":"31.22621","category":"47","category_name":"住宅区","address":"中山北路3671弄"},{"poiid":"B2094752D465A3FF4898","title":"摩休敦纳韩国年糕料理","lon":"121.41281","lat":"31.221359","category":"247","category_name":"餐饮美食","address":"中山公园龙之梦"},{"poiid":"B2094750D76DABFC489A","title":"家味螺蛳粉(华师大店)","lon":"121.411","lat":"31.2273","category":"68","category_name":"快餐厅","address":"普陀区中山北路3736号(华师大对面)"},{"poiid":"B2094757D065A4FC439F","title":"薇拉之谷","lon":"121.40611","lat":"31.23033","category":"47","category_name":"住宅区","address":"普陀区中山北路3676号(近金沙江路)"},{"poiid":"B2094655D26DAAF9479C","title":"华东师范大学出版社","lon":"121.40782","lat":"31.2261","category":"63","category_name":"出版社","address":"上海普陀区中山北路3663号华东师范大学中山北路校区"},{"poiid":"B2094757D06BABFF449A","title":"小厨房碳烤鱼","lon":"121.41213","lat":"31.22688","category":"71","category_name":"四川菜","address":"普陀区凯旋北路1764号(盘湾里对面)"},{"poiid":"B2094757D66BA3F44999","title":"苏河湾","lon":"121.406163","lat":"31.2205512","category":"94","category_name":"西餐厅","address":"长宁区万航渡路2452号DOHO创意园区3楼屋顶花园(近娄山关路)"},{"poiid":"B2094757D06AA3FA4992","title":"华东师范大学大礼堂","lon":"121.41011553","lat":"31.22816887","category":"253","category_name":"校园生活","address":"上海华东师范大学大礼堂"},{"poiid":"B2094654D56BA4FA479A","title":"华东师范大学理工学院住宿楼","lon":"121.41054","lat":"31.22438","category":"47","category_name":"住宅区","address":"中山北路3751弄10-17号"},{"poiid":"B2094757D468A0F94793","title":"重庆鸡公煲 华师大店","lon":"121.410546054","lat":"31.226495793","category":"86","category_name":"火锅店","address":"普陀区中山北路2139弄秋月枫舍步行街68号(近新粤洲大酒店)"},{"poiid":"B2094757D464AAF4449D","title":"国兴拉面","lon":"121.408533054","lat":"31.222825793","category":"247","category_name":"餐饮美食","address":"静安区万航渡路759弄10号"},{"poiid":"B2094757D568A0F54692","title":"书香名第四期","lon":"121.4081492","lat":"31.22294194","category":"47","category_name":"住宅区","address":"书香名第四期位于普陀光复西路2077弄"},{"poiid":"B2094654D56BA4FA479B","title":"海鑫公寓(东门)","lon":"121.41065","lat":"31.22439","category":"47","category_name":"住宅区","address":"中山北路3751弄10-17号"},{"poiid":"B2094757D66AA4FB4098","title":"利兴餐厅","lon":"121.410622054","lat":"31.225273793","category":"76","category_name":"上海菜","address":"普陀区中山北路3671弄172号华师大一村(中山桥下面)"},{"poiid":"B2094757D168A0FB449C","title":"上海人家(龙之梦)","lon":"121.41261869","lat":"31.223795475","category":"247","category_name":"餐饮美食","address":"上海长宁路"},{"poiid":"B2094757D16DA4FF499E","title":"华东师范大学附属幼儿园","lon":"121.40958728","lat":"31.224392316","category":"253","category_name":"校园生活","address":"普陀区中山北路3671弄150号(近金沙江路)"},{"poiid":"B2094654D56BA4FA4392","title":"华东师范大学体育馆(东门)","lon":"121.40983","lat":"31.22804","category":"224","category_name":"综合体育馆","address":"中山北路3663"},{"poiid":"B2094757D464A0F8419C","title":"好客楼家常菜","lon":"121.413490054","lat":"31.223454793","category":"76","category_name":"上海菜","address":"普陀区凯旋北路1600号(近宁夏路)"},{"poiid":"B2094655D26DA4FC459F","title":"黎金苑(南一门)","lon":"121.4081","lat":"31.2225","category":"656","category_name":"大门","address":"光复西路2077弄1-89号"},{"poiid":"B2094757D46BA4FF4299","title":"胖阿姨正宗朝鲜冷面 中山北路店","lon":"121.4101553","lat":"31.2280922","category":"96","category_name":"韩国料理","address":"普陀区中山北路3636-6号(近华师大正门)"},{"poiid":"B2094752DB69A5FC4492","title":"家有好面","lon":"121.412865","lat":"31.221933","category":"247","category_name":"餐饮美食","address":"上海市 长宁龙之梦7楼"},{"poiid":"B2094753DB6CA3FB439B","title":"赵小姐不等位","lon":"121.409011","lat":"31.224508","category":"500","category_name":"未知分类","address":"上海市 上海市长乐路628号"},{"poiid":"B2094752DA6AA3FB4999","title":"俏江南","lon":"121.412553","lat":"31.221006","category":"500","category_name":"未知分类","address":"上海市 龙之梦购物中心8F"},{"poiid":"B2094757DB6CA7FC479D","title":"花丸乌冬面","lon":"121.413013","lat":"31.22005","category":"247","category_name":"餐饮美食","address":"长宁区长宁路1018号龙之梦购物中心B1楼蓝中庭(近凯旋路)"},{"poiid":"B2094654D56BA4F4489E","title":"清宁小区","lon":"121.40678","lat":"31.219639","category":"47","category_name":"住宅区","address":"万航渡路2505弄21-46"},{"poiid":"B2094757D068A5FD409D","title":"德笼馆(华师大店)","lon":"121.41094207","lat":"31.227296829","category":"68","category_name":"快餐厅","address":"普陀区中山北路3736号(华师大对面)"},{"poiid":"B2094757D068A4F54998","title":"凯旋路桥","lon":"121.412033081","lat":"31.2223129272","category":"250","category_name":"公园户外","address":"上海凯旋路万航渡路"},{"poiid":"B2094757D06AA3FF489A","title":"弘基创邑河","lon":"121.40962982","lat":"31.221445083","category":"500","category_name":"未知分类","address":"上海万航渡路2170号"},{"poiid":"B2094757D66DABF54193","title":"卡卡@home","lon":"121.41057558","lat":"31.224029309","category":"500","category_name":"未知分类","address":null},{"poiid":"B2094655D264A6F9419F","title":"快客师大店","lon":"121.40896","lat":"31.22573","category":"117","category_name":"便民商店/便利店","address":"长风新村"},{"poiid":"B2094757D06BA3F4499E","title":"全家便利(上大路站店)","lon":"121.40991985","lat":"31.225739133","category":"117","category_name":"便民商店/便利店","address":"上海宝山区地铁七号线上大路站内"}]