[{"poiid":"B2094655D26BA2F8409A","title":"亭林","lon":"121.31366","lat":"30.88952","category":"38","category_name":"公交车站","address":""},{"poiid":"B2094757D16FA1FE469F","title":"亭林医院","lon":"121.314447","lat":"30.883985","category":"162","category_name":"医院","address":"金山区寺平北路80号"},{"poiid":"B2094655D26FA5F9419B","title":"碧丽宫大酒店","lon":"121.32373","lat":"30.88154","category":"250","category_name":"公园户外","address":"近郊金山区亭林镇南亭公路6289号"},{"poiid":"B2094757D068A6FE4993","title":"亭林汽车站","lon":"121.313331","lat":"30.888461","category":"35","category_name":"长途汽车站","address":"上海金山区亭林镇寺平北路"},{"poiid":"B2094655D26BABFB4192","title":"亭升苑","lon":"121.32214","lat":"30.883062","category":"47","category_name":"住宅区","address":"上海市金山区亭林镇亭升路88弄"},{"poiid":"B2094757D069A2FE459D","title":"G15高速","lon":"121.33863973","lat":"30.875191045","category":"260","category_name":"其他","address":"上海市金山区Ｇ１５０１上海绕城高速入口"},{"poiid":"B2094655D26BA5F9449E","title":"碧丽宫千岛湖淳鲜馆","lon":"121.32309","lat":"30.88128","category":"88","category_name":"海鲜酒楼","address":"近郊金山区亭林镇南亭公路6289号"},{"poiid":"B2094757D16AAAFA4392","title":"亭林镇 寺平新村","lon":"121.31572263","lat":"30.888740451","category":"252","category_name":"楼宇机构","address":"上海市金山区亭林镇"},{"poiid":"B2094654DB68A0FF489B","title":"上海亨并联接件有限公司","lon":"121.32801","lat":"30.88556","category":"263","category_name":"公司","address":""},{"poiid":"B2094654DB68A0F8449C","title":"现代华亭","lon":"121.31674","lat":"30.88671","category":"248","category_name":"生活娱乐","address":"金山区亭林镇大慈路590号"},{"poiid":"B2094654DB68A0FE489C","title":"金山区亭林小学","lon":"121.32093","lat":"30.88883","category":"56","category_name":"小学","address":"上海市金山区亭林镇大慈路398号"},{"poiid":"B2094757D165ABFF409A","title":"上海金山亭林工商所","lon":"121.330183","lat":"30.882176","category":"500","category_name":"未知分类","address":"上海亭林工业园区"},{"poiid":"B2094654DB68A0FF4692","title":"上海市亭新中学","lon":"121.31942","lat":"30.88245","category":"55","category_name":"中学","address":"上海市金山区亭林镇复兴东路48"},{"poiid":"B2094654DB68A0FE489F","title":"金亭花苑","lon":"121.31767","lat":"30.88866","category":"47","category_name":"住宅区","address":"上海市金山区亭林镇寺平北路140弄"},{"poiid":"B2094655D26BA2F8409B","title":"亭林东街","lon":"121.32194","lat":"30.89194","category":"38","category_name":"公交车站","address":""},{"poiid":"B2094654DB68A0FF489D","title":"上海金山大津毛纺织有限公司","lon":"121.33373","lat":"30.88509","category":"263","category_name":"公司","address":""},{"poiid":"B2094757D168A4F94098","title":"金山区亭林镇社区文化活动中心","lon":"121.335686538","lat":"30.8867151054","category":"500","category_name":"未知分类","address":"上海金山区亭林镇亭升路550弄33号"},{"poiid":"B2094655D36CA7FF439D","title":"红阳村","lon":"121.32488","lat":"30.89566","category":"38","category_name":"公交车站","address":""},{"poiid":"B2094654DB68A0FE439E","title":"桃园新村(桃园路)","lon":"121.32031","lat":"30.88181","category":"47","category_name":"住宅区","address":""},{"poiid":"B2094757D66DA1F5439D","title":"隆亭家园","lon":"121.31375","lat":"30.875811","category":"500","category_name":"未知分类","address":"上海市金山区亭林镇南亭公路6985弄"},{"poiid":"B2094757D66DA4FB489D","title":"丰乐轩","lon":"121.316667738","lat":"30.8867353059","category":"247","category_name":"餐饮美食","address":"上海金山亭林镇大慈路573号"},{"poiid":"B2094654DB68A0FF439F","title":"新奇士菜馆","lon":"121.33879","lat":"30.88436","category":"257","category_name":"中餐厅","address":""},{"poiid":"B2094655D36CA7F94299","title":"横塘桥","lon":"121.33812","lat":"30.89253","category":"38","category_name":"公交车站","address":""},{"poiid":"B2094757D16EA2FF479D","title":"中山街233弄","lon":"121.321423238","lat":"30.8918998226","category":"252","category_name":"楼宇机构","address":"上海金山区亭林镇"},{"poiid":"B2094757D16DA6FE419C","title":"农工商（亭林店）","lon":"121.31555938","lat":"30.885215759","category":"500","category_name":"未知分类","address":"上海金山区亭林镇寺平北路92号"},{"poiid":"B2094654DB68A0FE4392","title":"新建新村","lon":"121.31169","lat":"30.884211","category":"47","category_name":"住宅区","address":"华亭路50弄"},{"poiid":"B2094757D16BA2F44299","title":"第十二税务所","lon":"121.31658673","lat":"30.887098314","category":"500","category_name":"未知分类","address":"上海金山区寺平北路239-243号"},{"poiid":"B2094654DB68A0FE4393","title":"医工新村","lon":"121.31521","lat":"30.88525","category":"47","category_name":"住宅区","address":""},{"poiid":"B2094654DB68A0FF439C","title":"亭东村老年活动中心(亭虹路)","lon":"121.33837","lat":"30.88418","category":"208","category_name":"休闲场所","address":""},{"poiid":"B2094654DB64A6FF479F","title":"中国移动亭林营业厅","lon":"121.31393","lat":"30.88531","category":"151","category_name":"电讯营业厅","address":"松江区寺平北路87号"},{"poiid":"B2094654DB68A0FE479A","title":"上海市地方税务局金山区分局第十二税务所","lon":"121.31304","lat":"30.88871","category":"250","category_name":"公园户外","address":"寺平北路239-243号"},{"poiid":"B2094654DB68A0FE469B","title":"新华书店(寺平北路)","lon":"121.31388","lat":"30.8849","category":"125","category_name":"书店","address":""},{"poiid":"B2094757D66FA3FE4593","title":"吉利酒家","lon":"121.314025038","lat":"30.8878547312","category":"247","category_name":"餐饮美食","address":"上海金山区亭林镇寺平北路110号"},{"poiid":"B2094655D36DA1FA479C","title":"上海亭林影剧院","lon":"121.31304","lat":"30.88247","category":"178","category_name":"电影院","address":"近郊金山华亭路56弄2号"},{"poiid":"B2094654DB69A6FF419E","title":"中国联通上海公司亭林营业厅","lon":"121.31374","lat":"30.88727","category":"151","category_name":"电讯营业厅","address":"金山区亭林镇寺平北路168-170号"},{"poiid":"B2094655D26FA3FE4092","title":"百味林(亭林镇店)","lon":"121.3137","lat":"30.88789","category":"257","category_name":"中餐厅","address":"金山区亭林镇寺平北路183号"},{"poiid":"B2094757D16AA7F44192","title":"惠多生活广场","lon":"121.314201355","lat":"30.8866443634","category":"500","category_name":"未知分类","address":"普陀区寺平北路165弄寺平新村旁"},{"poiid":"B2094654DB68A0FE4699","title":"金山区国家税务局(寺平北路)","lon":"121.31305","lat":"30.88871","category":"250","category_name":"公园户外","address":"寺平北路239-243号"},{"poiid":"B2094654DB68A0FF469D","title":"中国农业银行金山区亭林支行","lon":"121.31371","lat":"30.8831","category":"150","category_name":"银行","address":"亭林镇"},{"poiid":"B2094654DB69A7F9429C","title":"中国建设银行亭林支行","lon":"121.31376","lat":"30.88367","category":"150","category_name":"银行","address":"金山区亭林镇寺平北路65号"},{"poiid":"B2094654DB69A6F8409A","title":"金山亭林税务所","lon":"121.31289","lat":"30.88174","category":"250","category_name":"公园户外","address":"金山区亭林镇寺平南路24号"},{"poiid":"B2094655D265AAF5439D","title":"G1501亭林收费站","lon":"121.33742","lat":"30.87332","category":"267","category_name":"收费站","address":""},{"poiid":"B2094757D66DA1FD4098","title":"金秀苑海鲜酒家","lon":"121.311288938","lat":"30.8811583799","category":"247","category_name":"餐饮美食","address":"上海金山区亭林镇华亭路115号"},{"poiid":"B2094654DB68A0FF4999","title":"茂英电子(上海)有限公司","lon":"121.3418","lat":"30.88298","category":"263","category_name":"公司","address":""},{"poiid":"B2094654DB69A6F84393","title":"邮政储蓄亭林支所","lon":"121.31388","lat":"30.88116","category":"150","category_name":"银行","address":"浦东新区亭林镇寺平南路20号(亭林大通路中山街)"},{"poiid":"B2094654DB68A0FF469E","title":"中国电信亭林营业室","lon":"121.31053","lat":"30.88226","category":"151","category_name":"电讯营业厅","address":"亭林镇华亭路125号"},{"poiid":"B2094654DB68A0FE449E","title":"亭林邮政局","lon":"121.31399","lat":"30.88117","category":"248","category_name":"生活娱乐","address":"上海市金山区寺平南路中心街317号"},{"poiid":"B2094757D06BAAFF449E","title":"新建居委会","lon":"121.311594638","lat":"30.8832048261","category":"500","category_name":"未知分类","address":"上海市金山区亭林镇新建新村29号"},{"poiid":"B2094655D36DA3FA499E","title":"亭林西桥","lon":"121.31806","lat":"30.87291","category":"250","category_name":"公园户外","address":""},{"poiid":"B2094654DB68A0FE4399","title":"华亭一村","lon":"121.31046","lat":"30.881474","category":"47","category_name":"住宅区","address":"松金公路"},{"poiid":"B2094655D26BA2F8409A","title":"亭林","lon":"121.31366","lat":"30.88952","category":"38","category_name":"公交车站","address":""},{"poiid":"B2094757D16FA1FE469F","title":"亭林医院","lon":"121.314447","lat":"30.883985","category":"162","category_name":"医院","address":"金山区寺平北路80号"},{"poiid":"B2094655D26FA5F9419B","title":"碧丽宫大酒店","lon":"121.32373","lat":"30.88154","category":"250","category_name":"公园户外","address":"近郊金山区亭林镇南亭公路6289号"},{"poiid":"B2094757D068A6FE4993","title":"亭林汽车站","lon":"121.313331","lat":"30.888461","category":"35","category_name":"长途汽车站","address":"上海金山区亭林镇寺平北路"},{"poiid":"B2094655D26BABFB4192","title":"亭升苑","lon":"121.32214","lat":"30.883062","category":"47","category_name":"住宅区","address":"上海市金山区亭林镇亭升路88弄"},{"poiid":"B2094757D069A2FE459D","title":"G15高速","lon":"121.33863973","lat":"30.875191045","category":"260","category_name":"其他","address":"上海市金山区Ｇ１５０１上海绕城高速入口"},{"poiid":"B2094655D26BA5F9449E","title":"碧丽宫千岛湖淳鲜馆","lon":"121.32309","lat":"30.88128","category":"88","category_name":"海鲜酒楼","address":"近郊金山区亭林镇南亭公路6289号"},{"poiid":"B2094757D16AAAFA4392","title":"亭林镇 寺平新村","lon":"121.31572263","lat":"30.888740451","category":"252","category_name":"楼宇机构","address":"上海市金山区亭林镇"},{"poiid":"B2094654DB68A0FF489B","title":"上海亨并联接件有限公司","lon":"121.32801","lat":"30.88556","category":"263","category_name":"公司","address":""},{"poiid":"B2094654DB68A0F8449C","title":"现代华亭","lon":"121.31674","lat":"30.88671","category":"248","category_name":"生活娱乐","address":"金山区亭林镇大慈路590号"},{"poiid":"B2094654DB68A0FE489C","title":"金山区亭林小学","lon":"121.32093","lat":"30.88883","category":"56","category_name":"小学","address":"上海市金山区亭林镇大慈路398号"},{"poiid":"B2094757D165ABFF409A","title":"上海金山亭林工商所","lon":"121.330183","lat":"30.882176","category":"500","category_name":"未知分类","address":"上海亭林工业园区"},{"poiid":"B2094654DB68A0FF4692","title":"上海市亭新中学","lon":"121.31942","lat":"30.88245","category":"55","category_name":"中学","address":"上海市金山区亭林镇复兴东路48"},{"poiid":"B2094654DB68A0FE489F","title":"金亭花苑","lon":"121.31767","lat":"30.88866","category":"47","category_name":"住宅区","address":"上海市金山区亭林镇寺平北路140弄"},{"poiid":"B2094655D26BA2F8409B","title":"亭林东街","lon":"121.32194","lat":"30.89194","category":"38","category_name":"公交车站","address":""},{"poiid":"B2094654DB68A0FF489D","title":"上海金山大津毛纺织有限公司","lon":"121.33373","lat":"30.88509","category":"263","category_name":"公司","address":""},{"poiid":"B2094757D168A4F94098","title":"金山区亭林镇社区文化活动中心","lon":"121.335686538","lat":"30.8867151054","category":"500","category_name":"未知分类","address":"上海金山区亭林镇亭升路550弄33号"},{"poiid":"B2094655D36CA7FF439D","title":"红阳村","lon":"121.32488","lat":"30.89566","category":"38","category_name":"公交车站","address":""},{"poiid":"B2094654DB68A0FE439E","title":"桃园新村(桃园路)","lon":"121.32031","lat":"30.88181","category":"47","category_name":"住宅区","address":""},{"poiid":"B2094757D66DA1F5439D","title":"隆亭家园","lon":"121.31375","lat":"30.875811","category":"500","category_name":"未知分类","address":"上海市金山区亭林镇南亭公路6985弄"},{"poiid":"B2094757D66DA4FB489D","title":"丰乐轩","lon":"121.316667738","lat":"30.8867353059","category":"247","category_name":"餐饮美食","address":"上海金山亭林镇大慈路573号"},{"poiid":"B2094654DB68A0FF439F","title":"新奇士菜馆","lon":"121.33879","lat":"30.88436","category":"257","category_name":"中餐厅","address":""},{"poiid":"B2094655D36CA7F94299","title":"横塘桥","lon":"121.33812","lat":"30.89253","category":"38","category_name":"公交车站","address":""},{"poiid":"B2094757D16EA2FF479D","title":"中山街233弄","lon":"121.321423238","lat":"30.8918998226","category":"252","category_name":"楼宇机构","address":"上海金山区亭林镇"},{"poiid":"B2094757D16DA6FE419C","title":"农工商（亭林店）","lon":"121.31555938","lat":"30.885215759","category":"500","category_name":"未知分类","address":"上海金山区亭林镇寺平北路92号"},{"poiid":"B2094654DB68A0FE4392","title":"新建新村","lon":"121.31169","lat":"30.884211","category":"47","category_name":"住宅区","address":"华亭路50弄"},{"poiid":"B2094757D16BA2F44299","title":"第十二税务所","lon":"121.31658673","lat":"30.887098314","category":"500","category_name":"未知分类","address":"上海金山区寺平北路239-243号"},{"poiid":"B2094654DB68A0FE4393","title":"医工新村","lon":"121.31521","lat":"30.88525","category":"47","category_name":"住宅区","address":""},{"poiid":"B2094654DB68A0FF439C","title":"亭东村老年活动中心(亭虹路)","lon":"121.33837","lat":"30.88418","category":"208","category_name":"休闲场所","address":""},{"poiid":"B2094654DB64A6FF479F","title":"中国移动亭林营业厅","lon":"121.31393","lat":"30.88531","category":"151","category_name":"电讯营业厅","address":"松江区寺平北路87号"},{"poiid":"B2094654DB68A0FE479A","title":"上海市地方税务局金山区分局第十二税务所","lon":"121.31304","lat":"30.88871","category":"250","category_name":"公园户外","address":"寺平北路239-243号"},{"poiid":"B2094654DB68A0FE469B","title":"新华书店(寺平北路)","lon":"121.31388","lat":"30.8849","category":"125","category_name":"书店","address":""},{"poiid":"B2094757D66FA3FE4593","title":"吉利酒家","lon":"121.314025038","lat":"30.8878547312","category":"247","category_name":"餐饮美食","address":"上海金山区亭林镇寺平北路110号"},{"poiid":"B2094655D36DA1FA479C","title":"上海亭林影剧院","lon":"121.31304","lat":"30.88247","category":"178","category_name":"电影院","address":"近郊金山华亭路56弄2号"},{"poiid":"B2094654DB69A6FF419E","title":"中国联通上海公司亭林营业厅","lon":"121.31374","lat":"30.88727","category":"151","category_name":"电讯营业厅","address":"金山区亭林镇寺平北路168-170号"},{"poiid":"B2094655D26FA3FE4092","title":"百味林(亭林镇店)","lon":"121.3137","lat":"30.88789","category":"257","category_name":"中餐厅","address":"金山区亭林镇寺平北路183号"},{"poiid":"B2094757D16AA7F44192","title":"惠多生活广场","lon":"121.314201355","lat":"30.8866443634","category":"500","category_name":"未知分类","address":"普陀区寺平北路165弄寺平新村旁"},{"poiid":"B2094654DB68A0FE4699","title":"金山区国家税务局(寺平北路)","lon":"121.31305","lat":"30.88871","category":"250","category_name":"公园户外","address":"寺平北路239-243号"},{"poiid":"B2094654DB68A0FF469D","title":"中国农业银行金山区亭林支行","lon":"121.31371","lat":"30.8831","category":"150","category_name":"银行","address":"亭林镇"},{"poiid":"B2094654DB69A7F9429C","title":"中国建设银行亭林支行","lon":"121.31376","lat":"30.88367","category":"150","category_name":"银行","address":"金山区亭林镇寺平北路65号"},{"poiid":"B2094654DB69A6F8409A","title":"金山亭林税务所","lon":"121.31289","lat":"30.88174","category":"250","category_name":"公园户外","address":"金山区亭林镇寺平南路24号"},{"poiid":"B2094655D265AAF5439D","title":"G1501亭林收费站","lon":"121.33742","lat":"30.87332","category":"267","category_name":"收费站","address":""},{"poiid":"B2094757D66DA1FD4098","title":"金秀苑海鲜酒家","lon":"121.311288938","lat":"30.8811583799","category":"247","category_name":"餐饮美食","address":"上海金山区亭林镇华亭路115号"},{"poiid":"B2094654DB68A0FF4999","title":"茂英电子(上海)有限公司","lon":"121.3418","lat":"30.88298","category":"263","category_name":"公司","address":""},{"poiid":"B2094654DB69A6F84393","title":"邮政储蓄亭林支所","lon":"121.31388","lat":"30.88116","category":"150","category_name":"银行","address":"浦东新区亭林镇寺平南路20号(亭林大通路中山街)"},{"poiid":"B2094654DB68A0FF469E","title":"中国电信亭林营业室","lon":"121.31053","lat":"30.88226","category":"151","category_name":"电讯营业厅","address":"亭林镇华亭路125号"},{"poiid":"B2094654DB68A0FE449E","title":"亭林邮政局","lon":"121.31399","lat":"30.88117","category":"248","category_name":"生活娱乐","address":"上海市金山区寺平南路中心街317号"},{"poiid":"B2094757D06BAAFF449E","title":"新建居委会","lon":"121.311594638","lat":"30.8832048261","category":"500","category_name":"未知分类","address":"上海市金山区亭林镇新建新村29号"},{"poiid":"B2094655D36DA3FA499E","title":"亭林西桥","lon":"121.31806","lat":"30.87291","category":"250","category_name":"公园户外","address":""},{"poiid":"B2094654DB68A0FE4399","title":"华亭一村","lon":"121.31046","lat":"30.881474","category":"47","category_name":"住宅区","address":"松金公路"}]