[{"poiid":"B2094655D36CA7FD419F","title":"华东师大","lon":"121.41048","lat":"31.22808","category":"38","category_name":"公交车站","address":""},{"poiid":"B2094757D06EAAFF419E","title":"金沙江路地铁站","lon":"121.413113","lat":"31.231701","category":"36","category_name":"地铁站","address":"上海轨道交通 三号线 四号线 轨交金沙江路站 轻轨 3 4"},{"poiid":"B2094655D26FA2FB459E","title":"华东师范大学(东门)","lon":"121.40985","lat":"31.22805","category":"52","category_name":"高等院校","address":"普陀区中山北路3663号"},{"poiid":"B2094757D06FA7FF4398","title":"大华清水湾","lon":"121.413771564","lat":"31.2280468271","category":"47","category_name":"住宅区","address":"上海市普陀区凯旋北路1555弄"},{"poiid":"B2094753D46AA7F8439B","title":"环球港 global harbor","lon":"121.411529","lat":"31.231267","category":"500","category_name":"未知分类","address":"上海市 宁夏路中山北路"},{"poiid":"B2094655D26CAAFD409F","title":"华东师大体育馆(东门)","lon":"121.40975","lat":"31.22749","category":"224","category_name":"综合体育馆","address":""},{"poiid":"B2094655D36DA7F8429A","title":"中山北路华东师大","lon":"121.41023","lat":"31.22893","category":"38","category_name":"公交车站","address":""},{"poiid":"B2094757D06AA6FA4993","title":"一米香潮汕砂锅粥（凯旋店）","lon":"121.411997586","lat":"31.2286764006","category":"72","category_name":"广东菜","address":"长宁区凯旋北路1600号"},{"poiid":"B2094757D06FA4FD479B","title":"伸大厦","lon":"121.41031458","lat":"31.229270412","category":"46","category_name":"楼宇","address":"上海中山北路3553号"},{"poiid":"B2094757D068A5FD479E","title":"盘湾方舟","lon":"121.41329","lat":"31.23001","category":"76","category_name":"上海菜","address":"普陀区凯旋北路1555弄5号(近宁夏路)"},{"poiid":"B2094757D068ABF5439E","title":"九香牛蛙店(凯旋北路店)","lon":"121.41244","lat":"31.22907","category":"71","category_name":"四川菜","address":"普陀区凯旋北路1600号(清水湾对面)"},{"poiid":"B2094757D069A7FC459F","title":"村夫烤鱼龙虾王(华师大店)","lon":"121.41084","lat":"31.2279","category":"68","category_name":"快餐厅","address":"普陀区中山北路3700号"},{"poiid":"B2094757D06FA4F4419D","title":"华东师范大学 大学生活动中心","lon":"121.41018676","lat":"31.228923797","category":"249","category_name":"购物服务","address":"上海闵行区中山北路3663号华东师范大学中山北路校区"},{"poiid":"B2094654DB69A4FD489D","title":"锦江之星(华师大店)","lon":"121.41065","lat":"31.23022","category":"216","category_name":"经济型连锁酒店","address":"上海普陀区中山北路3500号5幢(近宁夏路)"},{"poiid":"B2094757D069A3FD419E","title":"吴记老锅底麻辣火锅(凯旋店)","lon":"121.41347","lat":"31.2306","category":"86","category_name":"火锅店","address":"普陀区凯旋北路1600号(近金沙江路)"},{"poiid":"B2094655D26CABFC419A","title":"华东政法大学(北门)","lon":"121.41654","lat":"31.22983","category":"656","category_name":"大门","address":"顺义路2号"},{"poiid":"B2094655D26AA0F9419A","title":"地铁金沙江路站","lon":"121.41309","lat":"31.23171","category":"36","category_name":"地铁站","address":""},{"poiid":"B2094757D06BABFF449A","title":"小厨房碳烤鱼","lon":"121.41213","lat":"31.22688","category":"71","category_name":"四川菜","address":"普陀区凯旋北路1764号(盘湾里对面)"},{"poiid":"B2094753D46AA3FE409B","title":"环球港","lon":"121.412246","lat":"31.228364","category":"500","category_name":"未知分类","address":"上海市 普陀区金沙江路地铁站6号口"},{"poiid":"B2094757D065A4FC439F","title":"薇拉之谷","lon":"121.40611","lat":"31.23033","category":"47","category_name":"住宅区","address":"普陀区中山北路3676号(近金沙江路)"},{"poiid":"B2094750D76FA5FB459D","title":"品羴居","lon":"121.412","lat":"31.2282","category":"86","category_name":"火锅店","address":"普陀区凯旋北路1616号(近清水湾大酒店)"},{"poiid":"B2094750D76DABFC489A","title":"家味螺蛳粉(华师大店)","lon":"121.411","lat":"31.2273","category":"68","category_name":"快餐厅","address":"普陀区中山北路3736号(华师大对面)"},{"poiid":"B2094757D068A0FF439B","title":"枫寿司","lon":"121.412795","lat":"31.230002","category":"95","category_name":"日本料理","address":"普陀区凯旋北路1311号(清水湾大酒店旁)"},{"poiid":"B2094757D06AA5FF419C","title":"康泰公寓","lon":"121.41457","lat":"31.229763","category":"252","category_name":"楼宇机构","address":"上海市普陀区石湾路7弄"},{"poiid":"B2094757D06AA4FE409A","title":"胖阿姨朝鲜冷面","lon":"121.41027358","lat":"31.229402414","category":"247","category_name":"餐饮美食","address":"上海市普陀区中山北路3636号"},{"poiid":"B2094751D56BABFC4798","title":"依桑泰国厨房","lon":"121.412385","lat":"31.229113","category":"247","category_name":"餐饮美食","address":"凯旋北路1758号"},{"poiid":"B2094757D06AA0FF449D","title":"百度体验中心","lon":"121.41272206","lat":"31.228403625","category":"500","category_name":"未知分类","address":"上海龙之梦15楼"},{"poiid":"B209475CD564AAF5479B","title":"月星环球港","lon":"121.41011","lat":"31.229398","category":"500","category_name":"未知分类","address":"上海市 中山北路3567号"},{"poiid":"B2094753D469AAFC439B","title":"环球港","lon":"121.411834","lat":"31.23167","category":"500","category_name":"未知分类","address":"上海市 普陀区中山北路3300电"},{"poiid":"B2094757D06FA4F44498","title":"华东师范大学羽毛球馆","lon":"121.41402977","lat":"31.229451572","category":"253","category_name":"校园生活","address":"上海普陀区中山北路3663号华东师范大学正门(近金沙江路)"},{"poiid":"B2094655D26EAAF5439B","title":"烧肉牛家(普陀店)","lon":"121.41203","lat":"31.22869","category":"269","category_name":"烧烤","address":"普陀区凯旋北路1600号(近宁夏路)"},{"poiid":"B2094757D068A3F9459E","title":"清水湾大酒店","lon":"121.41295","lat":"31.22963","category":"217","category_name":"旅馆招待所","address":"普陀区凯旋北路1305号(近宁夏路)"},{"poiid":"B2094757D06AA3FA4992","title":"华东师范大学大礼堂","lon":"121.41011553","lat":"31.22816887","category":"253","category_name":"校园生活","address":"上海华东师范大学大礼堂"},{"poiid":"B2094757D069AAF9429D","title":"朋朋烘焙体验馆(中山公园店)","lon":"121.412634","lat":"31.229265","category":"67","category_name":"甜品店","address":"长宁区长宁路988号花园大厦10楼D座(近中山公园)"},{"poiid":"B2094753DA68A2F8429E","title":"环球港宝珠奶酪","lon":"121.410911","lat":"31.231159","category":"500","category_name":"未知分类","address":"上海市 上海市普陀区中山北路3222"},{"poiid":"B2094757D46BA4FF4299","title":"胖阿姨正宗朝鲜冷面 中山北路店","lon":"121.4101553","lat":"31.2280922","category":"96","category_name":"韩国料理","address":"普陀区中山北路3636-6号(近华师大正门)"},{"poiid":"B2094757D16EABF5479C","title":"金水保健按摩","lon":"121.41267","lat":"31.22799","category":"149","category_name":"洗浴推拿场所","address":"上海长宁区凯旋北路1599号(近金沙江路轻轨站)  "},{"poiid":"B2094654DB6BA7FF4093","title":"华东师大一村(东门)","lon":"121.41061","lat":"31.22621","category":"47","category_name":"住宅区","address":"中山北路3671弄"},{"poiid":"B2094757D068A5FD409D","title":"德笼馆(华师大店)","lon":"121.41094207","lat":"31.227296829","category":"68","category_name":"快餐厅","address":"普陀区中山北路3736号(华师大对面)"},{"poiid":"B2094654D56BA4FA4392","title":"华东师范大学体育馆(东门)","lon":"121.40983","lat":"31.22804","category":"224","category_name":"综合体育馆","address":"中山北路3663"},{"poiid":"B2094654D565A3FB499F","title":"永琪美容美发(凯旋北路)","lon":"121.41237","lat":"31.22777","category":"148","category_name":"美容美发店","address":"凯旋北路1633-1635"},{"poiid":"B2094655D26DA4FD419F","title":"好德便利No.438","lon":"121.4124","lat":"31.22815","category":"117","category_name":"便民商店/便利店","address":"凯旋北路1607-1609号"},{"poiid":"B2094654D565A3F4409C","title":"小洋房酒家","lon":"121.41275","lat":"31.23018","category":"76","category_name":"上海菜","address":"普陀区凯旋北路1305号清水湾大酒店2楼(近宁夏路)"},{"poiid":"B2094655D26EA2F84892","title":"上海财通坤田汽车销售服务","lon":"121.41171","lat":"31.23074","category":"158","category_name":"汽车销售","address":"普陀区宁夏路777号(凯旋北路宁夏路)"},{"poiid":"B209475CD16EA4F54093","title":"awfully chocolate","lon":"121.412048","lat":"31.231857","category":"500","category_name":"未知分类","address":"上海市 月星环球港"},{"poiid":"B2094757D469A7FB419C","title":"依桑厨房 ISAN CUISINE","lon":"121.41187","lat":"31.22726","category":"99","category_name":"泰国／越南菜品餐厅","address":"闵行区吴中路682号C座10楼"},{"poiid":"B2094654D565A3F4409D","title":"清河苑","lon":"121.411887054","lat":"31.228572793","category":"76","category_name":"上海菜","address":"普陀区凯旋北路1305号清水湾大酒店3楼(近宁夏路)"},{"poiid":"B2094757D664A3F8439C","title":"湘君府 凯旋北路店","lon":"121.411881","lat":"31.227024","category":"77","category_name":"湖南菜","address":"普陀区凯旋北路1776号(近中环大厦)"},{"poiid":"B2094757D468A0F94793","title":"重庆鸡公煲 华师大店","lon":"121.410546054","lat":"31.226495793","category":"86","category_name":"火锅店","address":"普陀区中山北路2139弄秋月枫舍步行街68号(近新粤洲大酒店)"},{"poiid":"B2094757D16AA4F4459E","title":"华师大MBA中心","lon":"121.41131158","lat":"31.227858384","category":"500","category_name":"未知分类","address":"上海中山北路3663号"},{"poiid":"B2094655D36CA7FD419F","title":"华东师大","lon":"121.41048","lat":"31.22808","category":"38","category_name":"公交车站","address":""},{"poiid":"B2094757D06EAAFF419E","title":"金沙江路地铁站","lon":"121.413113","lat":"31.231701","category":"36","category_name":"地铁站","address":"上海轨道交通 三号线 四号线 轨交金沙江路站 轻轨 3 4"},{"poiid":"B2094655D26FA2FB459E","title":"华东师范大学(东门)","lon":"121.40985","lat":"31.22805","category":"52","category_name":"高等院校","address":"普陀区中山北路3663号"},{"poiid":"B2094757D06FA7FF4398","title":"大华清水湾","lon":"121.413771564","lat":"31.2280468271","category":"47","category_name":"住宅区","address":"上海市普陀区凯旋北路1555弄"},{"poiid":"B2094753D46AA7F8439B","title":"环球港 global harbor","lon":"121.411529","lat":"31.231267","category":"500","category_name":"未知分类","address":"上海市 宁夏路中山北路"},{"poiid":"B2094655D26CAAFD409F","title":"华东师大体育馆(东门)","lon":"121.40975","lat":"31.22749","category":"224","category_name":"综合体育馆","address":""},{"poiid":"B2094655D36DA7F8429A","title":"中山北路华东师大","lon":"121.41023","lat":"31.22893","category":"38","category_name":"公交车站","address":""},{"poiid":"B2094757D06AA6FA4993","title":"一米香潮汕砂锅粥（凯旋店）","lon":"121.411997586","lat":"31.2286764006","category":"72","category_name":"广东菜","address":"长宁区凯旋北路1600号"},{"poiid":"B2094757D06FA4FD479B","title":"伸大厦","lon":"121.41031458","lat":"31.229270412","category":"46","category_name":"楼宇","address":"上海中山北路3553号"},{"poiid":"B2094757D068A5FD479E","title":"盘湾方舟","lon":"121.41329","lat":"31.23001","category":"76","category_name":"上海菜","address":"普陀区凯旋北路1555弄5号(近宁夏路)"},{"poiid":"B2094757D068ABF5439E","title":"九香牛蛙店(凯旋北路店)","lon":"121.41244","lat":"31.22907","category":"71","category_name":"四川菜","address":"普陀区凯旋北路1600号(清水湾对面)"},{"poiid":"B2094757D069A7FC459F","title":"村夫烤鱼龙虾王(华师大店)","lon":"121.41084","lat":"31.2279","category":"68","category_name":"快餐厅","address":"普陀区中山北路3700号"},{"poiid":"B2094757D06FA4F4419D","title":"华东师范大学 大学生活动中心","lon":"121.41018676","lat":"31.228923797","category":"249","category_name":"购物服务","address":"上海闵行区中山北路3663号华东师范大学中山北路校区"},{"poiid":"B2094654DB69A4FD489D","title":"锦江之星(华师大店)","lon":"121.41065","lat":"31.23022","category":"216","category_name":"经济型连锁酒店","address":"上海普陀区中山北路3500号5幢(近宁夏路)"},{"poiid":"B2094757D069A3FD419E","title":"吴记老锅底麻辣火锅(凯旋店)","lon":"121.41347","lat":"31.2306","category":"86","category_name":"火锅店","address":"普陀区凯旋北路1600号(近金沙江路)"},{"poiid":"B2094655D26CABFC419A","title":"华东政法大学(北门)","lon":"121.41654","lat":"31.22983","category":"656","category_name":"大门","address":"顺义路2号"},{"poiid":"B2094655D26AA0F9419A","title":"地铁金沙江路站","lon":"121.41309","lat":"31.23171","category":"36","category_name":"地铁站","address":""},{"poiid":"B2094757D06BABFF449A","title":"小厨房碳烤鱼","lon":"121.41213","lat":"31.22688","category":"71","category_name":"四川菜","address":"普陀区凯旋北路1764号(盘湾里对面)"},{"poiid":"B2094753D46AA3FE409B","title":"环球港","lon":"121.412246","lat":"31.228364","category":"500","category_name":"未知分类","address":"上海市 普陀区金沙江路地铁站6号口"},{"poiid":"B2094757D065A4FC439F","title":"薇拉之谷","lon":"121.40611","lat":"31.23033","category":"47","category_name":"住宅区","address":"普陀区中山北路3676号(近金沙江路)"},{"poiid":"B2094750D76FA5FB459D","title":"品羴居","lon":"121.412","lat":"31.2282","category":"86","category_name":"火锅店","address":"普陀区凯旋北路1616号(近清水湾大酒店)"},{"poiid":"B2094750D76DABFC489A","title":"家味螺蛳粉(华师大店)","lon":"121.411","lat":"31.2273","category":"68","category_name":"快餐厅","address":"普陀区中山北路3736号(华师大对面)"},{"poiid":"B2094757D068A0FF439B","title":"枫寿司","lon":"121.412795","lat":"31.230002","category":"95","category_name":"日本料理","address":"普陀区凯旋北路1311号(清水湾大酒店旁)"},{"poiid":"B2094757D06AA5FF419C","title":"康泰公寓","lon":"121.41457","lat":"31.229763","category":"252","category_name":"楼宇机构","address":"上海市普陀区石湾路7弄"},{"poiid":"B2094757D06AA4FE409A","title":"胖阿姨朝鲜冷面","lon":"121.41027358","lat":"31.229402414","category":"247","category_name":"餐饮美食","address":"上海市普陀区中山北路3636号"},{"poiid":"B2094751D56BABFC4798","title":"依桑泰国厨房","lon":"121.412385","lat":"31.229113","category":"247","category_name":"餐饮美食","address":"凯旋北路1758号"},{"poiid":"B2094757D06AA0FF449D","title":"百度体验中心","lon":"121.41272206","lat":"31.228403625","category":"500","category_name":"未知分类","address":"上海龙之梦15楼"},{"poiid":"B209475CD564AAF5479B","title":"月星环球港","lon":"121.41011","lat":"31.229398","category":"500","category_name":"未知分类","address":"上海市 中山北路3567号"},{"poiid":"B2094753D469AAFC439B","title":"环球港","lon":"121.411834","lat":"31.23167","category":"500","category_name":"未知分类","address":"上海市 普陀区中山北路3300电"},{"poiid":"B2094757D06FA4F44498","title":"华东师范大学羽毛球馆","lon":"121.41402977","lat":"31.229451572","category":"253","category_name":"校园生活","address":"上海普陀区中山北路3663号华东师范大学正门(近金沙江路)"},{"poiid":"B2094655D26EAAF5439B","title":"烧肉牛家(普陀店)","lon":"121.41203","lat":"31.22869","category":"269","category_name":"烧烤","address":"普陀区凯旋北路1600号(近宁夏路)"},{"poiid":"B2094757D068A3F9459E","title":"清水湾大酒店","lon":"121.41295","lat":"31.22963","category":"217","category_name":"旅馆招待所","address":"普陀区凯旋北路1305号(近宁夏路)"},{"poiid":"B2094757D06AA3FA4992","title":"华东师范大学大礼堂","lon":"121.41011553","lat":"31.22816887","category":"253","category_name":"校园生活","address":"上海华东师范大学大礼堂"},{"poiid":"B2094757D069AAF9429D","title":"朋朋烘焙体验馆(中山公园店)","lon":"121.412634","lat":"31.229265","category":"67","category_name":"甜品店","address":"长宁区长宁路988号花园大厦10楼D座(近中山公园)"},{"poiid":"B2094753DA68A2F8429E","title":"环球港宝珠奶酪","lon":"121.410911","lat":"31.231159","category":"500","category_name":"未知分类","address":"上海市 上海市普陀区中山北路3222"},{"poiid":"B2094757D46BA4FF4299","title":"胖阿姨正宗朝鲜冷面 中山北路店","lon":"121.4101553","lat":"31.2280922","category":"96","category_name":"韩国料理","address":"普陀区中山北路3636-6号(近华师大正门)"},{"poiid":"B2094757D16EABF5479C","title":"金水保健按摩","lon":"121.41267","lat":"31.22799","category":"149","category_name":"洗浴推拿场所","address":"上海长宁区凯旋北路1599号(近金沙江路轻轨站)  "},{"poiid":"B2094654DB6BA7FF4093","title":"华东师大一村(东门)","lon":"121.41061","lat":"31.22621","category":"47","category_name":"住宅区","address":"中山北路3671弄"},{"poiid":"B2094757D068A5FD409D","title":"德笼馆(华师大店)","lon":"121.41094207","lat":"31.227296829","category":"68","category_name":"快餐厅","address":"普陀区中山北路3736号(华师大对面)"},{"poiid":"B2094654D56BA4FA4392","title":"华东师范大学体育馆(东门)","lon":"121.40983","lat":"31.22804","category":"224","category_name":"综合体育馆","address":"中山北路3663"},{"poiid":"B2094654D565A3FB499F","title":"永琪美容美发(凯旋北路)","lon":"121.41237","lat":"31.22777","category":"148","category_name":"美容美发店","address":"凯旋北路1633-1635"},{"poiid":"B2094655D26DA4FD419F","title":"好德便利No.438","lon":"121.4124","lat":"31.22815","category":"117","category_name":"便民商店/便利店","address":"凯旋北路1607-1609号"},{"poiid":"B2094654D565A3F4409C","title":"小洋房酒家","lon":"121.41275","lat":"31.23018","category":"76","category_name":"上海菜","address":"普陀区凯旋北路1305号清水湾大酒店2楼(近宁夏路)"},{"poiid":"B2094655D26EA2F84892","title":"上海财通坤田汽车销售服务","lon":"121.41171","lat":"31.23074","category":"158","category_name":"汽车销售","address":"普陀区宁夏路777号(凯旋北路宁夏路)"},{"poiid":"B209475CD16EA4F54093","title":"awfully chocolate","lon":"121.412048","lat":"31.231857","category":"500","category_name":"未知分类","address":"上海市 月星环球港"},{"poiid":"B2094757D469A7FB419C","title":"依桑厨房 ISAN CUISINE","lon":"121.41187","lat":"31.22726","category":"99","category_name":"泰国／越南菜品餐厅","address":"闵行区吴中路682号C座10楼"},{"poiid":"B2094654D565A3F4409D","title":"清河苑","lon":"121.411887054","lat":"31.228572793","category":"76","category_name":"上海菜","address":"普陀区凯旋北路1305号清水湾大酒店3楼(近宁夏路)"},{"poiid":"B2094757D664A3F8439C","title":"湘君府 凯旋北路店","lon":"121.411881","lat":"31.227024","category":"77","category_name":"湖南菜","address":"普陀区凯旋北路1776号(近中环大厦)"},{"poiid":"B2094757D468A0F94793","title":"重庆鸡公煲 华师大店","lon":"121.410546054","lat":"31.226495793","category":"86","category_name":"火锅店","address":"普陀区中山北路2139弄秋月枫舍步行街68号(近新粤洲大酒店)"},{"poiid":"B2094757D16AA4F4459E","title":"华师大MBA中心","lon":"121.41131158","lat":"31.227858384","category":"500","category_name":"未知分类","address":"上海中山北路3663号"},{"poiid":"B2094655D36CA7FD419F","title":"华东师大","lon":"121.41048","lat":"31.22808","category":"38","category_name":"公交车站","address":""},{"poiid":"B2094757D06EAAFF419E","title":"金沙江路地铁站","lon":"121.413113","lat":"31.231701","category":"36","category_name":"地铁站","address":"上海轨道交通 三号线 四号线 轨交金沙江路站 轻轨 3 4"},{"poiid":"B2094655D26FA2FB459E","title":"华东师范大学(东门)","lon":"121.40985","lat":"31.22805","category":"52","category_name":"高等院校","address":"普陀区中山北路3663号"},{"poiid":"B2094757D06FA7FF4398","title":"大华清水湾","lon":"121.413771564","lat":"31.2280468271","category":"47","category_name":"住宅区","address":"上海市普陀区凯旋北路1555弄"},{"poiid":"B2094753D46AA7F8439B","title":"环球港 global harbor","lon":"121.411529","lat":"31.231267","category":"500","category_name":"未知分类","address":"上海市 宁夏路中山北路"},{"poiid":"B2094655D26CAAFD409F","title":"华东师大体育馆(东门)","lon":"121.40975","lat":"31.22749","category":"224","category_name":"综合体育馆","address":""},{"poiid":"B2094655D36DA7F8429A","title":"中山北路华东师大","lon":"121.41023","lat":"31.22893","category":"38","category_name":"公交车站","address":""},{"poiid":"B2094757D06AA6FA4993","title":"一米香潮汕砂锅粥（凯旋店）","lon":"121.411997586","lat":"31.2286764006","category":"72","category_name":"广东菜","address":"长宁区凯旋北路1600号"},{"poiid":"B2094757D06FA4FD479B","title":"伸大厦","lon":"121.41031458","lat":"31.229270412","category":"46","category_name":"楼宇","address":"上海中山北路3553号"},{"poiid":"B2094757D068A5FD479E","title":"盘湾方舟","lon":"121.41329","lat":"31.23001","category":"76","category_name":"上海菜","address":"普陀区凯旋北路1555弄5号(近宁夏路)"},{"poiid":"B2094757D068ABF5439E","title":"九香牛蛙店(凯旋北路店)","lon":"121.41244","lat":"31.22907","category":"71","category_name":"四川菜","address":"普陀区凯旋北路1600号(清水湾对面)"},{"poiid":"B2094757D069A7FC459F","title":"村夫烤鱼龙虾王(华师大店)","lon":"121.41084","lat":"31.2279","category":"68","category_name":"快餐厅","address":"普陀区中山北路3700号"},{"poiid":"B2094757D06FA4F4419D","title":"华东师范大学 大学生活动中心","lon":"121.41018676","lat":"31.228923797","category":"249","category_name":"购物服务","address":"上海闵行区中山北路3663号华东师范大学中山北路校区"},{"poiid":"B2094654DB69A4FD489D","title":"锦江之星(华师大店)","lon":"121.41065","lat":"31.23022","category":"216","category_name":"经济型连锁酒店","address":"上海普陀区中山北路3500号5幢(近宁夏路)"},{"poiid":"B2094757D069A3FD419E","title":"吴记老锅底麻辣火锅(凯旋店)","lon":"121.41347","lat":"31.2306","category":"86","category_name":"火锅店","address":"普陀区凯旋北路1600号(近金沙江路)"},{"poiid":"B2094655D26CABFC419A","title":"华东政法大学(北门)","lon":"121.41654","lat":"31.22983","category":"656","category_name":"大门","address":"顺义路2号"},{"poiid":"B2094655D26AA0F9419A","title":"地铁金沙江路站","lon":"121.41309","lat":"31.23171","category":"36","category_name":"地铁站","address":""},{"poiid":"B2094757D06BABFF449A","title":"小厨房碳烤鱼","lon":"121.41213","lat":"31.22688","category":"71","category_name":"四川菜","address":"普陀区凯旋北路1764号(盘湾里对面)"},{"poiid":"B2094753D46AA3FE409B","title":"环球港","lon":"121.412246","lat":"31.228364","category":"500","category_name":"未知分类","address":"上海市 普陀区金沙江路地铁站6号口"},{"poiid":"B2094757D065A4FC439F","title":"薇拉之谷","lon":"121.40611","lat":"31.23033","category":"47","category_name":"住宅区","address":"普陀区中山北路3676号(近金沙江路)"},{"poiid":"B2094750D76FA5FB459D","title":"品羴居","lon":"121.412","lat":"31.2282","category":"86","category_name":"火锅店","address":"普陀区凯旋北路1616号(近清水湾大酒店)"},{"poiid":"B2094750D76DABFC489A","title":"家味螺蛳粉(华师大店)","lon":"121.411","lat":"31.2273","category":"68","category_name":"快餐厅","address":"普陀区中山北路3736号(华师大对面)"},{"poiid":"B2094757D068A0FF439B","title":"枫寿司","lon":"121.412795","lat":"31.230002","category":"95","category_name":"日本料理","address":"普陀区凯旋北路1311号(清水湾大酒店旁)"},{"poiid":"B2094757D06AA5FF419C","title":"康泰公寓","lon":"121.41457","lat":"31.229763","category":"252","category_name":"楼宇机构","address":"上海市普陀区石湾路7弄"},{"poiid":"B2094757D06AA4FE409A","title":"胖阿姨朝鲜冷面","lon":"121.41027358","lat":"31.229402414","category":"247","category_name":"餐饮美食","address":"上海市普陀区中山北路3636号"},{"poiid":"B2094751D56BABFC4798","title":"依桑泰国厨房","lon":"121.412385","lat":"31.229113","category":"247","category_name":"餐饮美食","address":"凯旋北路1758号"},{"poiid":"B2094757D06AA0FF449D","title":"百度体验中心","lon":"121.41272206","lat":"31.228403625","category":"500","category_name":"未知分类","address":"上海龙之梦15楼"},{"poiid":"B209475CD564AAF5479B","title":"月星环球港","lon":"121.41011","lat":"31.229398","category":"500","category_name":"未知分类","address":"上海市 中山北路3567号"},{"poiid":"B2094753D469AAFC439B","title":"环球港","lon":"121.411834","lat":"31.23167","category":"500","category_name":"未知分类","address":"上海市 普陀区中山北路3300电"},{"poiid":"B2094757D06FA4F44498","title":"华东师范大学羽毛球馆","lon":"121.41402977","lat":"31.229451572","category":"253","category_name":"校园生活","address":"上海普陀区中山北路3663号华东师范大学正门(近金沙江路)"},{"poiid":"B2094655D26EAAF5439B","title":"烧肉牛家(普陀店)","lon":"121.41203","lat":"31.22869","category":"269","category_name":"烧烤","address":"普陀区凯旋北路1600号(近宁夏路)"},{"poiid":"B2094757D068A3F9459E","title":"清水湾大酒店","lon":"121.41295","lat":"31.22963","category":"217","category_name":"旅馆招待所","address":"普陀区凯旋北路1305号(近宁夏路)"},{"poiid":"B2094757D06AA3FA4992","title":"华东师范大学大礼堂","lon":"121.41011553","lat":"31.22816887","category":"253","category_name":"校园生活","address":"上海华东师范大学大礼堂"},{"poiid":"B2094757D069AAF9429D","title":"朋朋烘焙体验馆(中山公园店)","lon":"121.412634","lat":"31.229265","category":"67","category_name":"甜品店","address":"长宁区长宁路988号花园大厦10楼D座(近中山公园)"},{"poiid":"B2094753DA68A2F8429E","title":"环球港宝珠奶酪","lon":"121.410911","lat":"31.231159","category":"500","category_name":"未知分类","address":"上海市 上海市普陀区中山北路3222"},{"poiid":"B2094757D46BA4FF4299","title":"胖阿姨正宗朝鲜冷面 中山北路店","lon":"121.4101553","lat":"31.2280922","category":"96","category_name":"韩国料理","address":"普陀区中山北路3636-6号(近华师大正门)"},{"poiid":"B2094757D16EABF5479C","title":"金水保健按摩","lon":"121.41267","lat":"31.22799","category":"149","category_name":"洗浴推拿场所","address":"上海长宁区凯旋北路1599号(近金沙江路轻轨站)  "},{"poiid":"B2094654DB6BA7FF4093","title":"华东师大一村(东门)","lon":"121.41061","lat":"31.22621","category":"47","category_name":"住宅区","address":"中山北路3671弄"},{"poiid":"B2094757D068A5FD409D","title":"德笼馆(华师大店)","lon":"121.41094207","lat":"31.227296829","category":"68","category_name":"快餐厅","address":"普陀区中山北路3736号(华师大对面)"},{"poiid":"B2094654D56BA4FA4392","title":"华东师范大学体育馆(东门)","lon":"121.40983","lat":"31.22804","category":"224","category_name":"综合体育馆","address":"中山北路3663"},{"poiid":"B2094654D565A3FB499F","title":"永琪美容美发(凯旋北路)","lon":"121.41237","lat":"31.22777","category":"148","category_name":"美容美发店","address":"凯旋北路1633-1635"},{"poiid":"B2094655D26DA4FD419F","title":"好德便利No.438","lon":"121.4124","lat":"31.22815","category":"117","category_name":"便民商店/便利店","address":"凯旋北路1607-1609号"},{"poiid":"B2094654D565A3F4409C","title":"小洋房酒家","lon":"121.41275","lat":"31.23018","category":"76","category_name":"上海菜","address":"普陀区凯旋北路1305号清水湾大酒店2楼(近宁夏路)"},{"poiid":"B2094655D26EA2F84892","title":"上海财通坤田汽车销售服务","lon":"121.41171","lat":"31.23074","category":"158","category_name":"汽车销售","address":"普陀区宁夏路777号(凯旋北路宁夏路)"},{"poiid":"B209475CD16EA4F54093","title":"awfully chocolate","lon":"121.412048","lat":"31.231857","category":"500","category_name":"未知分类","address":"上海市 月星环球港"},{"poiid":"B2094757D469A7FB419C","title":"依桑厨房 ISAN CUISINE","lon":"121.41187","lat":"31.22726","category":"99","category_name":"泰国／越南菜品餐厅","address":"闵行区吴中路682号C座10楼"},{"poiid":"B2094654D565A3F4409D","title":"清河苑","lon":"121.411887054","lat":"31.228572793","category":"76","category_name":"上海菜","address":"普陀区凯旋北路1305号清水湾大酒店3楼(近宁夏路)"},{"poiid":"B2094757D664A3F8439C","title":"湘君府 凯旋北路店","lon":"121.411881","lat":"31.227024","category":"77","category_name":"湖南菜","address":"普陀区凯旋北路1776号(近中环大厦)"},{"poiid":"B2094757D468A0F94793","title":"重庆鸡公煲 华师大店","lon":"121.410546054","lat":"31.226495793","category":"86","category_name":"火锅店","address":"普陀区中山北路2139弄秋月枫舍步行街68号(近新粤洲大酒店)"},{"poiid":"B2094757D16AA4F4459E","title":"华师大MBA中心","lon":"121.41131158","lat":"31.227858384","category":"500","category_name":"未知分类","address":"上海中山北路3663号"},{"poiid":"B2094655D36CA7FD419F","title":"华东师大","lon":"121.41048","lat":"31.22808","category":"38","category_name":"公交车站","address":""},{"poiid":"B2094757D06EAAFF419E","title":"金沙江路地铁站","lon":"121.413113","lat":"31.231701","category":"36","category_name":"地铁站","address":"上海轨道交通 三号线 四号线 轨交金沙江路站 轻轨 3 4"},{"poiid":"B2094655D26FA2FB459E","title":"华东师范大学(东门)","lon":"121.40985","lat":"31.22805","category":"52","category_name":"高等院校","address":"普陀区中山北路3663号"},{"poiid":"B2094757D06FA7FF4398","title":"大华清水湾","lon":"121.413771564","lat":"31.2280468271","category":"47","category_name":"住宅区","address":"上海市普陀区凯旋北路1555弄"},{"poiid":"B2094753D46AA7F8439B","title":"环球港 global harbor","lon":"121.411529","lat":"31.231267","category":"500","category_name":"未知分类","address":"上海市 宁夏路中山北路"},{"poiid":"B2094655D26CAAFD409F","title":"华东师大体育馆(东门)","lon":"121.40975","lat":"31.22749","category":"224","category_name":"综合体育馆","address":""},{"poiid":"B2094655D36DA7F8429A","title":"中山北路华东师大","lon":"121.41023","lat":"31.22893","category":"38","category_name":"公交车站","address":""},{"poiid":"B2094757D06AA6FA4993","title":"一米香潮汕砂锅粥（凯旋店）","lon":"121.411997586","lat":"31.2286764006","category":"72","category_name":"广东菜","address":"长宁区凯旋北路1600号"},{"poiid":"B2094757D06FA4FD479B","title":"伸大厦","lon":"121.41031458","lat":"31.229270412","category":"46","category_name":"楼宇","address":"上海中山北路3553号"},{"poiid":"B2094757D068A5FD479E","title":"盘湾方舟","lon":"121.41329","lat":"31.23001","category":"76","category_name":"上海菜","address":"普陀区凯旋北路1555弄5号(近宁夏路)"},{"poiid":"B2094757D068ABF5439E","title":"九香牛蛙店(凯旋北路店)","lon":"121.41244","lat":"31.22907","category":"71","category_name":"四川菜","address":"普陀区凯旋北路1600号(清水湾对面)"},{"poiid":"B2094757D069A7FC459F","title":"村夫烤鱼龙虾王(华师大店)","lon":"121.41084","lat":"31.2279","category":"68","category_name":"快餐厅","address":"普陀区中山北路3700号"},{"poiid":"B2094757D06FA4F4419D","title":"华东师范大学 大学生活动中心","lon":"121.41018676","lat":"31.228923797","category":"249","category_name":"购物服务","address":"上海闵行区中山北路3663号华东师范大学中山北路校区"},{"poiid":"B2094654DB69A4FD489D","title":"锦江之星(华师大店)","lon":"121.41065","lat":"31.23022","category":"216","category_name":"经济型连锁酒店","address":"上海普陀区中山北路3500号5幢(近宁夏路)"},{"poiid":"B2094757D069A3FD419E","title":"吴记老锅底麻辣火锅(凯旋店)","lon":"121.41347","lat":"31.2306","category":"86","category_name":"火锅店","address":"普陀区凯旋北路1600号(近金沙江路)"},{"poiid":"B2094655D26CABFC419A","title":"华东政法大学(北门)","lon":"121.41654","lat":"31.22983","category":"656","category_name":"大门","address":"顺义路2号"},{"poiid":"B2094655D26AA0F9419A","title":"地铁金沙江路站","lon":"121.41309","lat":"31.23171","category":"36","category_name":"地铁站","address":""},{"poiid":"B2094757D06BABFF449A","title":"小厨房碳烤鱼","lon":"121.41213","lat":"31.22688","category":"71","category_name":"四川菜","address":"普陀区凯旋北路1764号(盘湾里对面)"},{"poiid":"B2094753D46AA3FE409B","title":"环球港","lon":"121.412246","lat":"31.228364","category":"500","category_name":"未知分类","address":"上海市 普陀区金沙江路地铁站6号口"},{"poiid":"B2094757D065A4FC439F","title":"薇拉之谷","lon":"121.40611","lat":"31.23033","category":"47","category_name":"住宅区","address":"普陀区中山北路3676号(近金沙江路)"},{"poiid":"B2094750D76FA5FB459D","title":"品羴居","lon":"121.412","lat":"31.2282","category":"86","category_name":"火锅店","address":"普陀区凯旋北路1616号(近清水湾大酒店)"},{"poiid":"B2094750D76DABFC489A","title":"家味螺蛳粉(华师大店)","lon":"121.411","lat":"31.2273","category":"68","category_name":"快餐厅","address":"普陀区中山北路3736号(华师大对面)"},{"poiid":"B2094757D068A0FF439B","title":"枫寿司","lon":"121.412795","lat":"31.230002","category":"95","category_name":"日本料理","address":"普陀区凯旋北路1311号(清水湾大酒店旁)"},{"poiid":"B2094757D06AA5FF419C","title":"康泰公寓","lon":"121.41457","lat":"31.229763","category":"252","category_name":"楼宇机构","address":"上海市普陀区石湾路7弄"},{"poiid":"B2094757D06AA4FE409A","title":"胖阿姨朝鲜冷面","lon":"121.41027358","lat":"31.229402414","category":"247","category_name":"餐饮美食","address":"上海市普陀区中山北路3636号"},{"poiid":"B2094751D56BABFC4798","title":"依桑泰国厨房","lon":"121.412385","lat":"31.229113","category":"247","category_name":"餐饮美食","address":"凯旋北路1758号"},{"poiid":"B2094757D06AA0FF449D","title":"百度体验中心","lon":"121.41272206","lat":"31.228403625","category":"500","category_name":"未知分类","address":"上海龙之梦15楼"},{"poiid":"B209475CD564AAF5479B","title":"月星环球港","lon":"121.41011","lat":"31.229398","category":"500","category_name":"未知分类","address":"上海市 中山北路3567号"},{"poiid":"B2094753D469AAFC439B","title":"环球港","lon":"121.411834","lat":"31.23167","category":"500","category_name":"未知分类","address":"上海市 普陀区中山北路3300电"},{"poiid":"B2094757D06FA4F44498","title":"华东师范大学羽毛球馆","lon":"121.41402977","lat":"31.229451572","category":"253","category_name":"校园生活","address":"上海普陀区中山北路3663号华东师范大学正门(近金沙江路)"},{"poiid":"B2094655D26EAAF5439B","title":"烧肉牛家(普陀店)","lon":"121.41203","lat":"31.22869","category":"269","category_name":"烧烤","address":"普陀区凯旋北路1600号(近宁夏路)"},{"poiid":"B2094757D068A3F9459E","title":"清水湾大酒店","lon":"121.41295","lat":"31.22963","category":"217","category_name":"旅馆招待所","address":"普陀区凯旋北路1305号(近宁夏路)"},{"poiid":"B2094757D06AA3FA4992","title":"华东师范大学大礼堂","lon":"121.41011553","lat":"31.22816887","category":"253","category_name":"校园生活","address":"上海华东师范大学大礼堂"},{"poiid":"B2094757D069AAF9429D","title":"朋朋烘焙体验馆(中山公园店)","lon":"121.412634","lat":"31.229265","category":"67","category_name":"甜品店","address":"长宁区长宁路988号花园大厦10楼D座(近中山公园)"},{"poiid":"B2094753DA68A2F8429E","title":"环球港宝珠奶酪","lon":"121.410911","lat":"31.231159","category":"500","category_name":"未知分类","address":"上海市 上海市普陀区中山北路3222"},{"poiid":"B2094757D46BA4FF4299","title":"胖阿姨正宗朝鲜冷面 中山北路店","lon":"121.4101553","lat":"31.2280922","category":"96","category_name":"韩国料理","address":"普陀区中山北路3636-6号(近华师大正门)"},{"poiid":"B2094757D16EABF5479C","title":"金水保健按摩","lon":"121.41267","lat":"31.22799","category":"149","category_name":"洗浴推拿场所","address":"上海长宁区凯旋北路1599号(近金沙江路轻轨站)  "},{"poiid":"B2094654DB6BA7FF4093","title":"华东师大一村(东门)","lon":"121.41061","lat":"31.22621","category":"47","category_name":"住宅区","address":"中山北路3671弄"},{"poiid":"B2094757D068A5FD409D","title":"德笼馆(华师大店)","lon":"121.41094207","lat":"31.227296829","category":"68","category_name":"快餐厅","address":"普陀区中山北路3736号(华师大对面)"},{"poiid":"B2094654D56BA4FA4392","title":"华东师范大学体育馆(东门)","lon":"121.40983","lat":"31.22804","category":"224","category_name":"综合体育馆","address":"中山北路3663"},{"poiid":"B2094654D565A3FB499F","title":"永琪美容美发(凯旋北路)","lon":"121.41237","lat":"31.22777","category":"148","category_name":"美容美发店","address":"凯旋北路1633-1635"},{"poiid":"B2094655D26DA4FD419F","title":"好德便利No.438","lon":"121.4124","lat":"31.22815","category":"117","category_name":"便民商店/便利店","address":"凯旋北路1607-1609号"},{"poiid":"B2094654D565A3F4409C","title":"小洋房酒家","lon":"121.41275","lat":"31.23018","category":"76","category_name":"上海菜","address":"普陀区凯旋北路1305号清水湾大酒店2楼(近宁夏路)"},{"poiid":"B2094655D26EA2F84892","title":"上海财通坤田汽车销售服务","lon":"121.41171","lat":"31.23074","category":"158","category_name":"汽车销售","address":"普陀区宁夏路777号(凯旋北路宁夏路)"},{"poiid":"B209475CD16EA4F54093","title":"awfully chocolate","lon":"121.412048","lat":"31.231857","category":"500","category_name":"未知分类","address":"上海市 月星环球港"},{"poiid":"B2094757D469A7FB419C","title":"依桑厨房 ISAN CUISINE","lon":"121.41187","lat":"31.22726","category":"99","category_name":"泰国／越南菜品餐厅","address":"闵行区吴中路682号C座10楼"},{"poiid":"B2094654D565A3F4409D","title":"清河苑","lon":"121.411887054","lat":"31.228572793","category":"76","category_name":"上海菜","address":"普陀区凯旋北路1305号清水湾大酒店3楼(近宁夏路)"},{"poiid":"B2094757D664A3F8439C","title":"湘君府 凯旋北路店","lon":"121.411881","lat":"31.227024","category":"77","category_name":"湖南菜","address":"普陀区凯旋北路1776号(近中环大厦)"},{"poiid":"B2094757D468A0F94793","title":"重庆鸡公煲 华师大店","lon":"121.410546054","lat":"31.226495793","category":"86","category_name":"火锅店","address":"普陀区中山北路2139弄秋月枫舍步行街68号(近新粤洲大酒店)"},{"poiid":"B2094757D16AA4F4459E","title":"华师大MBA中心","lon":"121.41131158","lat":"31.227858384","category":"500","category_name":"未知分类","address":"上海中山北路3663号"}]