[{"poiid":"B2094654DB65A4FE4692","title":"上海新国际博览中心","lon":"121.56658","lat":"31.20897","category":"183","category_name":"展览馆","address":"浦东新区龙阳路2345号(近芳甸路)"},{"poiid":"B2094757D068A4F54298","title":"上海新国际展览中心","lon":"121.56696397","lat":"31.207406526","category":"183","category_name":"展览馆","address":"上海金桥路"},{"poiid":"B2094655D26AA6F9489A","title":"新国际展览中心","lon":"121.5654","lat":"31.21161","category":"247","category_name":"餐饮美食","address":"浦东新区龙阳路2345号(近芳甸路)"},{"poiid":"B2094757D06BA6FC489C","title":"上海新国际博览中心W3展馆","lon":"121.56474897","lat":"31.209239569","category":"500","category_name":"未知分类","address":"上海市浦东新区龙阳路2345号"},{"poiid":"B2094757D069A2F84298","title":"上海轨道交通龙阳路基地","lon":"121.56873208","lat":"31.2043952824","category":"260","category_name":"其他","address":"上海市浦东新区龙阳路2520号"},{"poiid":"B2094757D06FA5FE439C","title":"永达国际大厦","lon":"121.57","lat":"31.2114","category":"46","category_name":"楼宇","address":"上海市浦东新区龙阳路2277号"},{"poiid":"B2094654DA6AA6FC4093","title":"中国美术学院上海设计学院","lon":"121.58013","lat":"31.20628","category":"671","category_name":"高校中心点","address":"张江高科园区"},{"poiid":"B2094757D068A6F84498","title":"食之秘(浦东嘉里城店)","lon":"121.56416617","lat":"31.21139112","category":"67","category_name":"甜品店","address":"浦东新区花木路1378号浦东嘉里城商场B110号铺(近芳甸路)"},{"poiid":"B2094757D06FA5F9439D","title":"张江大厦","lon":"121.58323621","lat":"31.205565996","category":"46","category_name":"楼宇","address":"上海松涛路560号"},{"poiid":"B2094757DB6CA7FE419B","title":"地铁2号线龙阳路站","lon":"121.564178","lat":"31.20425","category":"627","category_name":"一般地点标志","address":"地铁2号线龙阳路站"},{"poiid":"B2094757D569A1FE4798","title":"喜马拉雅中心写字楼","lon":"121.5632489","lat":"31.20755278","category":"46","category_name":"楼宇","address":"芳甸路1188弄"},{"poiid":"B2094655D268ABF94193","title":"张江立交桥","lon":"121.57411","lat":"31.20889","category":"250","category_name":"公园户外","address":""},{"poiid":"B2094757D069AAF4459B","title":"喜月小厨","lon":"121.581248567","lat":"31.2063803798","category":"76","category_name":"上海菜","address":"浦东新区碧波路635号圆环传奇美食广场内(近张江地铁站)"},{"poiid":"B2094757D068ABFF489D","title":"天天渔港(永达店)","lon":"121.563","lat":"31.20427","category":"72","category_name":"广东菜","address":"浦东新区龙阳路2277号(兰花路石楠路)"},{"poiid":"B2094654DA6AA0FD4492","title":"上海电影艺术学院北校区","lon":"121.57931","lat":"31.20878","category":"52","category_name":"高等院校","address":"浦东新区松涛路11临"},{"poiid":"B2094757D06BA7FB4993","title":"上海新国际博览中心W1展馆","lon":"121.569630975","lat":"31.2042854539","category":"500","category_name":"未知分类","address":"上海市浦东新区龙阳路2345号"},{"poiid":"B2094757D06AA4F84699","title":"高科中路罗山路","lon":"121.577929817","lat":"31.2063349018","category":"500","category_name":"未知分类","address":"上海高科路罗山路"},{"poiid":"B2094654DB64A3F84892","title":"地铁万邦广场","lon":"121.564","lat":"31.2096","category":"119","category_name":"商场","address":"龙阳路2000号"},{"poiid":"B2094654DB69A7FE479D","title":"陆家嘴世纪酒店","lon":"121.56978","lat":"31.20714","category":"215","category_name":"三星级宾馆","address":"浦东新区龙阳路2551号"},{"poiid":"B2094654DA6AA6FC419E","title":"上海市张江高科技园区(碧波路)","lon":"121.58106","lat":"31.20162","category":"45","category_name":"产业园区","address":"碧波路572弄115号-24幢"},{"poiid":"B2094655D26DA0FF4499","title":"上海新国际博览中心(西门)","lon":"121.56341","lat":"31.20812","category":"183","category_name":"展览馆","address":""},{"poiid":"B2094757D16EA4F94299","title":"汤臣高尔夫别墅大会所餐厅","lon":"121.57764","lat":"31.20953","category":"95","category_name":"日本料理","address":"上海浦东新区龙东大道1号汤臣高尔夫球场2楼  "},{"poiid":"B2094757D164AAFD469A","title":"上海处男集散中心","lon":"121.57037727","lat":"31.200664069","category":"500","category_name":"未知分类","address":"上海lallaa"},{"poiid":"B2094757D068ABFA4598","title":"张江体育休闲中心","lon":"121.57973","lat":"31.20426","category":"76","category_name":"上海菜","address":"浦东新区张江高科技园区春晓路81号(近景明路)"},{"poiid":"B2094654DB6BABFA449B","title":"上海新国际博览中心(南门)","lon":"121.5652","lat":"31.20455","category":"183","category_name":"展览馆","address":"龙阳路2345"},{"poiid":"B2094655D26AA6F94898","title":"上海车展","lon":"121.5654","lat":"31.21161","category":"247","category_name":"餐饮美食","address":"浦东新区龙阳路2345号新国际博览中心"},{"poiid":"B2094655D26FA6FD4198","title":"上海新国际博览中心(西二门)","lon":"121.56411","lat":"31.20592","category":"183","category_name":"展览馆","address":""},{"poiid":"B209475CD468A2F44792","title":"糖纸","lon":"121.568077","lat":"31.209997","category":"500","category_name":"未知分类","address":"上海市 浦东嘉里城"},{"poiid":"B2094654DA6AA0FF4392","title":"龙沟新苑","lon":"121.56876","lat":"31.197325","category":"47","category_name":"住宅区","address":"芳华路933弄1-86号"},{"poiid":"B2094654DA6AA0FF4193","title":"惠德新邨","lon":"121.569","lat":"31.2027","category":"47","category_name":"住宅区","address":"芳华路573弄1-35号"},{"poiid":"B2094655D265A5F4499A","title":"磁悬浮指挥部综合办公楼","lon":"121.56677","lat":"31.20495","category":"46","category_name":"楼宇","address":"龙阳路2502号"},{"poiid":"B2094750D469A6F54692","title":"上海浦东新国际展览中心","lon":"121.568428","lat":"31.207855","category":"252","category_name":"楼宇机构","address":"E2馆"},{"poiid":"B2094757D069A5F44393","title":"交通银行太平洋信用卡中心","lon":"121.577638325","lat":"31.1993366082","category":"500","category_name":"未知分类","address":"上海市浦东新区松涛路80号"},{"poiid":"B2094655D26BA4F4429D","title":"小湘亭","lon":"121.57847","lat":"31.20968","category":"77","category_name":"湖南菜","address":"浦东新区景明路潘桥7号"},{"poiid":"B2094757D16DABF8459C","title":"上海磁浮交通发展有限公司","lon":"121.56680811","lat":"31.204243245","category":"46","category_name":"楼宇","address":"上海市浦东新区龙阳路2520号"},{"poiid":"B2094654DA6AA1F9429A","title":"汤臣高尔夫公寓汤臣豪园","lon":"121.57637","lat":"31.21114","category":"47","category_name":"住宅区","address":"龙东大道1号"},{"poiid":"B2094757D06BA1FA469F","title":"浦东国际展览馆","lon":"121.56442197","lat":"31.209242569","category":"500","category_name":"未知分类","address":"上海龙阳路"},{"poiid":"B2094757D66CA5FB429E","title":"中兴通讯食堂(一期)","lon":"121.57814197","lat":"31.207016517","category":"500","category_name":"未知分类","address":"上海市浦东新区碧波路889号"},{"poiid":"B209475CD26DA5FB419F","title":"澈思叔叔烘焙工房","lon":"121.567863","lat":"31.210296","category":"247","category_name":"餐饮美食","address":"上海市 浦东嘉里城B1层"},{"poiid":"B2094655D26BA5F8409E","title":"长沙米粉湘菜馆","lon":"121.57915","lat":"31.20258","category":"77","category_name":"湖南菜","address":"浦东新区张江高科技园区景明路(近春晓路)"},{"poiid":"B2094751D26EA2F5419C","title":"Mr.Bean Coffee","lon":"121.566192","lat":"31.208404","category":"247","category_name":"餐饮美食","address":"花木路"},{"poiid":"B2094757D064A0F9489D","title":"全家便利(博览中心店)","lon":"121.56652","lat":"31.20605","category":"117","category_name":"便民商店/便利店","address":"上海浦东新区龙阳路2345号新国际博览中心内(近芳甸路)"},{"poiid":"B2094757D16AA7FF4298","title":"龙阳路2520号","lon":"121.567319","lat":"31.204475","category":"500","category_name":"未知分类","address":"上海龙阳路2520号"},{"poiid":"B2094751D569A1FF409F","title":"龍美术馆","lon":"121.573639","lat":"31.215622","category":"248","category_name":"生活娱乐","address":"罗山路2255号"},{"poiid":"B2094757D068A6FF469F","title":"培花小区","lon":"121.56798767714","lat":"31.201315129402","category":"500","category_name":"未知分类","address":"上海白杨路芳草路"},{"poiid":"B2094757DA6AA5F44493","title":"pptv","lon":"121.5775148","lat":"31.2016526","category":"170","category_name":"KTV","address":"碧波路690号"},{"poiid":"B2094757D164A0F54499","title":"兄弟饭庄","lon":"121.57953","lat":"31.20375","category":"247","category_name":"餐饮美食","address":"上海浦东新区春晓路(景明路口)  "},{"poiid":"B2094655D26FA5F8449C","title":"全家便利店(国览店)","lon":"121.56549","lat":"31.2054","category":"117","category_name":"便民商店/便利店","address":"上海市浦东新区龙阳路2345号"},{"poiid":"B2094757D16FA7FE479F","title":"中国(上海)国际乐器展览会","lon":"121.56663894","lat":"31.206438378","category":"500","category_name":"未知分类","address":"上海龙阳路"},{"poiid":"B2094655D26BA3F4449A","title":"汤臣集团健身中心","lon":"121.57638","lat":"31.21114","category":"221","category_name":"健身中心","address":"浦东新区龙东大道1号"},{"poiid":"B2094654DB65A4FE4692","title":"上海新国际博览中心","lon":"121.56658","lat":"31.20897","category":"183","category_name":"展览馆","address":"浦东新区龙阳路2345号(近芳甸路)"},{"poiid":"B2094757D068A4F54298","title":"上海新国际展览中心","lon":"121.56696397","lat":"31.207406526","category":"183","category_name":"展览馆","address":"上海金桥路"},{"poiid":"B2094655D26AA6F9489A","title":"新国际展览中心","lon":"121.5654","lat":"31.21161","category":"247","category_name":"餐饮美食","address":"浦东新区龙阳路2345号(近芳甸路)"},{"poiid":"B2094757D06BA6FC489C","title":"上海新国际博览中心W3展馆","lon":"121.56474897","lat":"31.209239569","category":"500","category_name":"未知分类","address":"上海市浦东新区龙阳路2345号"},{"poiid":"B2094757D069A2F84298","title":"上海轨道交通龙阳路基地","lon":"121.56873208","lat":"31.2043952824","category":"260","category_name":"其他","address":"上海市浦东新区龙阳路2520号"},{"poiid":"B2094757D06FA5FE439C","title":"永达国际大厦","lon":"121.57","lat":"31.2114","category":"46","category_name":"楼宇","address":"上海市浦东新区龙阳路2277号"},{"poiid":"B2094654DA6AA6FC4093","title":"中国美术学院上海设计学院","lon":"121.58013","lat":"31.20628","category":"671","category_name":"高校中心点","address":"张江高科园区"},{"poiid":"B2094757D068A6F84498","title":"食之秘(浦东嘉里城店)","lon":"121.56416617","lat":"31.21139112","category":"67","category_name":"甜品店","address":"浦东新区花木路1378号浦东嘉里城商场B110号铺(近芳甸路)"},{"poiid":"B2094757D06FA5F9439D","title":"张江大厦","lon":"121.58323621","lat":"31.205565996","category":"46","category_name":"楼宇","address":"上海松涛路560号"},{"poiid":"B2094757DB6CA7FE419B","title":"地铁2号线龙阳路站","lon":"121.564178","lat":"31.20425","category":"627","category_name":"一般地点标志","address":"地铁2号线龙阳路站"},{"poiid":"B2094757D569A1FE4798","title":"喜马拉雅中心写字楼","lon":"121.5632489","lat":"31.20755278","category":"46","category_name":"楼宇","address":"芳甸路1188弄"},{"poiid":"B2094655D268ABF94193","title":"张江立交桥","lon":"121.57411","lat":"31.20889","category":"250","category_name":"公园户外","address":""},{"poiid":"B2094757D069AAF4459B","title":"喜月小厨","lon":"121.581248567","lat":"31.2063803798","category":"76","category_name":"上海菜","address":"浦东新区碧波路635号圆环传奇美食广场内(近张江地铁站)"},{"poiid":"B2094757D068ABFF489D","title":"天天渔港(永达店)","lon":"121.563","lat":"31.20427","category":"72","category_name":"广东菜","address":"浦东新区龙阳路2277号(兰花路石楠路)"},{"poiid":"B2094654DA6AA0FD4492","title":"上海电影艺术学院北校区","lon":"121.57931","lat":"31.20878","category":"52","category_name":"高等院校","address":"浦东新区松涛路11临"},{"poiid":"B2094757D06BA7FB4993","title":"上海新国际博览中心W1展馆","lon":"121.569630975","lat":"31.2042854539","category":"500","category_name":"未知分类","address":"上海市浦东新区龙阳路2345号"},{"poiid":"B2094757D06AA4F84699","title":"高科中路罗山路","lon":"121.577929817","lat":"31.2063349018","category":"500","category_name":"未知分类","address":"上海高科路罗山路"},{"poiid":"B2094654DB64A3F84892","title":"地铁万邦广场","lon":"121.564","lat":"31.2096","category":"119","category_name":"商场","address":"龙阳路2000号"},{"poiid":"B2094654DB69A7FE479D","title":"陆家嘴世纪酒店","lon":"121.56978","lat":"31.20714","category":"215","category_name":"三星级宾馆","address":"浦东新区龙阳路2551号"},{"poiid":"B2094654DA6AA6FC419E","title":"上海市张江高科技园区(碧波路)","lon":"121.58106","lat":"31.20162","category":"45","category_name":"产业园区","address":"碧波路572弄115号-24幢"},{"poiid":"B2094655D26DA0FF4499","title":"上海新国际博览中心(西门)","lon":"121.56341","lat":"31.20812","category":"183","category_name":"展览馆","address":""},{"poiid":"B2094757D16EA4F94299","title":"汤臣高尔夫别墅大会所餐厅","lon":"121.57764","lat":"31.20953","category":"95","category_name":"日本料理","address":"上海浦东新区龙东大道1号汤臣高尔夫球场2楼  "},{"poiid":"B2094757D164AAFD469A","title":"上海处男集散中心","lon":"121.57037727","lat":"31.200664069","category":"500","category_name":"未知分类","address":"上海lallaa"},{"poiid":"B2094757D068ABFA4598","title":"张江体育休闲中心","lon":"121.57973","lat":"31.20426","category":"76","category_name":"上海菜","address":"浦东新区张江高科技园区春晓路81号(近景明路)"},{"poiid":"B2094654DB6BABFA449B","title":"上海新国际博览中心(南门)","lon":"121.5652","lat":"31.20455","category":"183","category_name":"展览馆","address":"龙阳路2345"},{"poiid":"B2094655D26AA6F94898","title":"上海车展","lon":"121.5654","lat":"31.21161","category":"247","category_name":"餐饮美食","address":"浦东新区龙阳路2345号新国际博览中心"},{"poiid":"B2094655D26FA6FD4198","title":"上海新国际博览中心(西二门)","lon":"121.56411","lat":"31.20592","category":"183","category_name":"展览馆","address":""},{"poiid":"B209475CD468A2F44792","title":"糖纸","lon":"121.568077","lat":"31.209997","category":"500","category_name":"未知分类","address":"上海市 浦东嘉里城"},{"poiid":"B2094654DA6AA0FF4392","title":"龙沟新苑","lon":"121.56876","lat":"31.197325","category":"47","category_name":"住宅区","address":"芳华路933弄1-86号"},{"poiid":"B2094654DA6AA0FF4193","title":"惠德新邨","lon":"121.569","lat":"31.2027","category":"47","category_name":"住宅区","address":"芳华路573弄1-35号"},{"poiid":"B2094655D265A5F4499A","title":"磁悬浮指挥部综合办公楼","lon":"121.56677","lat":"31.20495","category":"46","category_name":"楼宇","address":"龙阳路2502号"},{"poiid":"B2094750D469A6F54692","title":"上海浦东新国际展览中心","lon":"121.568428","lat":"31.207855","category":"252","category_name":"楼宇机构","address":"E2馆"},{"poiid":"B2094757D069A5F44393","title":"交通银行太平洋信用卡中心","lon":"121.577638325","lat":"31.1993366082","category":"500","category_name":"未知分类","address":"上海市浦东新区松涛路80号"},{"poiid":"B2094655D26BA4F4429D","title":"小湘亭","lon":"121.57847","lat":"31.20968","category":"77","category_name":"湖南菜","address":"浦东新区景明路潘桥7号"},{"poiid":"B2094757D16DABF8459C","title":"上海磁浮交通发展有限公司","lon":"121.56680811","lat":"31.204243245","category":"46","category_name":"楼宇","address":"上海市浦东新区龙阳路2520号"},{"poiid":"B2094654DA6AA1F9429A","title":"汤臣高尔夫公寓汤臣豪园","lon":"121.57637","lat":"31.21114","category":"47","category_name":"住宅区","address":"龙东大道1号"},{"poiid":"B2094757D06BA1FA469F","title":"浦东国际展览馆","lon":"121.56442197","lat":"31.209242569","category":"500","category_name":"未知分类","address":"上海龙阳路"},{"poiid":"B2094757D66CA5FB429E","title":"中兴通讯食堂(一期)","lon":"121.57814197","lat":"31.207016517","category":"500","category_name":"未知分类","address":"上海市浦东新区碧波路889号"},{"poiid":"B209475CD26DA5FB419F","title":"澈思叔叔烘焙工房","lon":"121.567863","lat":"31.210296","category":"247","category_name":"餐饮美食","address":"上海市 浦东嘉里城B1层"},{"poiid":"B2094655D26BA5F8409E","title":"长沙米粉湘菜馆","lon":"121.57915","lat":"31.20258","category":"77","category_name":"湖南菜","address":"浦东新区张江高科技园区景明路(近春晓路)"},{"poiid":"B2094751D26EA2F5419C","title":"Mr.Bean Coffee","lon":"121.566192","lat":"31.208404","category":"247","category_name":"餐饮美食","address":"花木路"},{"poiid":"B2094757D064A0F9489D","title":"全家便利(博览中心店)","lon":"121.56652","lat":"31.20605","category":"117","category_name":"便民商店/便利店","address":"上海浦东新区龙阳路2345号新国际博览中心内(近芳甸路)"},{"poiid":"B2094757D16AA7FF4298","title":"龙阳路2520号","lon":"121.567319","lat":"31.204475","category":"500","category_name":"未知分类","address":"上海龙阳路2520号"},{"poiid":"B2094751D569A1FF409F","title":"龍美术馆","lon":"121.573639","lat":"31.215622","category":"248","category_name":"生活娱乐","address":"罗山路2255号"},{"poiid":"B2094757D068A6FF469F","title":"培花小区","lon":"121.56798767714","lat":"31.201315129402","category":"500","category_name":"未知分类","address":"上海白杨路芳草路"},{"poiid":"B2094757DA6AA5F44493","title":"pptv","lon":"121.5775148","lat":"31.2016526","category":"170","category_name":"KTV","address":"碧波路690号"},{"poiid":"B2094757D164A0F54499","title":"兄弟饭庄","lon":"121.57953","lat":"31.20375","category":"247","category_name":"餐饮美食","address":"上海浦东新区春晓路(景明路口)  "},{"poiid":"B2094655D26FA5F8449C","title":"全家便利店(国览店)","lon":"121.56549","lat":"31.2054","category":"117","category_name":"便民商店/便利店","address":"上海市浦东新区龙阳路2345号"},{"poiid":"B2094757D16FA7FE479F","title":"中国(上海)国际乐器展览会","lon":"121.56663894","lat":"31.206438378","category":"500","category_name":"未知分类","address":"上海龙阳路"},{"poiid":"B2094655D26BA3F4449A","title":"汤臣集团健身中心","lon":"121.57638","lat":"31.21114","category":"221","category_name":"健身中心","address":"浦东新区龙东大道1号"},{"poiid":"B2094654DB65A4FE4692","title":"上海新国际博览中心","lon":"121.56658","lat":"31.20897","category":"183","category_name":"展览馆","address":"浦东新区龙阳路2345号(近芳甸路)"},{"poiid":"B2094757D068A4F54298","title":"上海新国际展览中心","lon":"121.56696397","lat":"31.207406526","category":"183","category_name":"展览馆","address":"上海金桥路"},{"poiid":"B2094655D26AA6F9489A","title":"新国际展览中心","lon":"121.5654","lat":"31.21161","category":"247","category_name":"餐饮美食","address":"浦东新区龙阳路2345号(近芳甸路)"},{"poiid":"B2094757D06BA6FC489C","title":"上海新国际博览中心W3展馆","lon":"121.56474897","lat":"31.209239569","category":"500","category_name":"未知分类","address":"上海市浦东新区龙阳路2345号"},{"poiid":"B2094757D069A2F84298","title":"上海轨道交通龙阳路基地","lon":"121.56873208","lat":"31.2043952824","category":"260","category_name":"其他","address":"上海市浦东新区龙阳路2520号"},{"poiid":"B2094757D06FA5FE439C","title":"永达国际大厦","lon":"121.57","lat":"31.2114","category":"46","category_name":"楼宇","address":"上海市浦东新区龙阳路2277号"},{"poiid":"B2094654DA6AA6FC4093","title":"中国美术学院上海设计学院","lon":"121.58013","lat":"31.20628","category":"671","category_name":"高校中心点","address":"张江高科园区"},{"poiid":"B2094757D068A6F84498","title":"食之秘(浦东嘉里城店)","lon":"121.56416617","lat":"31.21139112","category":"67","category_name":"甜品店","address":"浦东新区花木路1378号浦东嘉里城商场B110号铺(近芳甸路)"},{"poiid":"B2094757D06FA5F9439D","title":"张江大厦","lon":"121.58323621","lat":"31.205565996","category":"46","category_name":"楼宇","address":"上海松涛路560号"},{"poiid":"B2094757DB6CA7FE419B","title":"地铁2号线龙阳路站","lon":"121.564178","lat":"31.20425","category":"627","category_name":"一般地点标志","address":"地铁2号线龙阳路站"},{"poiid":"B2094757D569A1FE4798","title":"喜马拉雅中心写字楼","lon":"121.5632489","lat":"31.20755278","category":"46","category_name":"楼宇","address":"芳甸路1188弄"},{"poiid":"B2094655D268ABF94193","title":"张江立交桥","lon":"121.57411","lat":"31.20889","category":"250","category_name":"公园户外","address":""},{"poiid":"B2094757D069AAF4459B","title":"喜月小厨","lon":"121.581248567","lat":"31.2063803798","category":"76","category_name":"上海菜","address":"浦东新区碧波路635号圆环传奇美食广场内(近张江地铁站)"},{"poiid":"B2094757D068ABFF489D","title":"天天渔港(永达店)","lon":"121.563","lat":"31.20427","category":"72","category_name":"广东菜","address":"浦东新区龙阳路2277号(兰花路石楠路)"},{"poiid":"B2094654DA6AA0FD4492","title":"上海电影艺术学院北校区","lon":"121.57931","lat":"31.20878","category":"52","category_name":"高等院校","address":"浦东新区松涛路11临"},{"poiid":"B2094757D06BA7FB4993","title":"上海新国际博览中心W1展馆","lon":"121.569630975","lat":"31.2042854539","category":"500","category_name":"未知分类","address":"上海市浦东新区龙阳路2345号"},{"poiid":"B2094757D06AA4F84699","title":"高科中路罗山路","lon":"121.577929817","lat":"31.2063349018","category":"500","category_name":"未知分类","address":"上海高科路罗山路"},{"poiid":"B2094654DB64A3F84892","title":"地铁万邦广场","lon":"121.564","lat":"31.2096","category":"119","category_name":"商场","address":"龙阳路2000号"},{"poiid":"B2094654DB69A7FE479D","title":"陆家嘴世纪酒店","lon":"121.56978","lat":"31.20714","category":"215","category_name":"三星级宾馆","address":"浦东新区龙阳路2551号"},{"poiid":"B2094654DA6AA6FC419E","title":"上海市张江高科技园区(碧波路)","lon":"121.58106","lat":"31.20162","category":"45","category_name":"产业园区","address":"碧波路572弄115号-24幢"},{"poiid":"B2094655D26DA0FF4499","title":"上海新国际博览中心(西门)","lon":"121.56341","lat":"31.20812","category":"183","category_name":"展览馆","address":""},{"poiid":"B2094757D16EA4F94299","title":"汤臣高尔夫别墅大会所餐厅","lon":"121.57764","lat":"31.20953","category":"95","category_name":"日本料理","address":"上海浦东新区龙东大道1号汤臣高尔夫球场2楼  "},{"poiid":"B2094757D164AAFD469A","title":"上海处男集散中心","lon":"121.57037727","lat":"31.200664069","category":"500","category_name":"未知分类","address":"上海lallaa"},{"poiid":"B2094757D068ABFA4598","title":"张江体育休闲中心","lon":"121.57973","lat":"31.20426","category":"76","category_name":"上海菜","address":"浦东新区张江高科技园区春晓路81号(近景明路)"},{"poiid":"B2094654DB6BABFA449B","title":"上海新国际博览中心(南门)","lon":"121.5652","lat":"31.20455","category":"183","category_name":"展览馆","address":"龙阳路2345"},{"poiid":"B2094655D26AA6F94898","title":"上海车展","lon":"121.5654","lat":"31.21161","category":"247","category_name":"餐饮美食","address":"浦东新区龙阳路2345号新国际博览中心"},{"poiid":"B2094655D26FA6FD4198","title":"上海新国际博览中心(西二门)","lon":"121.56411","lat":"31.20592","category":"183","category_name":"展览馆","address":""},{"poiid":"B209475CD468A2F44792","title":"糖纸","lon":"121.568077","lat":"31.209997","category":"500","category_name":"未知分类","address":"上海市 浦东嘉里城"},{"poiid":"B2094654DA6AA0FF4392","title":"龙沟新苑","lon":"121.56876","lat":"31.197325","category":"47","category_name":"住宅区","address":"芳华路933弄1-86号"},{"poiid":"B2094654DA6AA0FF4193","title":"惠德新邨","lon":"121.569","lat":"31.2027","category":"47","category_name":"住宅区","address":"芳华路573弄1-35号"},{"poiid":"B2094655D265A5F4499A","title":"磁悬浮指挥部综合办公楼","lon":"121.56677","lat":"31.20495","category":"46","category_name":"楼宇","address":"龙阳路2502号"},{"poiid":"B2094750D469A6F54692","title":"上海浦东新国际展览中心","lon":"121.568428","lat":"31.207855","category":"252","category_name":"楼宇机构","address":"E2馆"},{"poiid":"B2094757D069A5F44393","title":"交通银行太平洋信用卡中心","lon":"121.577638325","lat":"31.1993366082","category":"500","category_name":"未知分类","address":"上海市浦东新区松涛路80号"},{"poiid":"B2094655D26BA4F4429D","title":"小湘亭","lon":"121.57847","lat":"31.20968","category":"77","category_name":"湖南菜","address":"浦东新区景明路潘桥7号"},{"poiid":"B2094757D16DABF8459C","title":"上海磁浮交通发展有限公司","lon":"121.56680811","lat":"31.204243245","category":"46","category_name":"楼宇","address":"上海市浦东新区龙阳路2520号"},{"poiid":"B2094654DA6AA1F9429A","title":"汤臣高尔夫公寓汤臣豪园","lon":"121.57637","lat":"31.21114","category":"47","category_name":"住宅区","address":"龙东大道1号"},{"poiid":"B2094757D06BA1FA469F","title":"浦东国际展览馆","lon":"121.56442197","lat":"31.209242569","category":"500","category_name":"未知分类","address":"上海龙阳路"},{"poiid":"B2094757D66CA5FB429E","title":"中兴通讯食堂(一期)","lon":"121.57814197","lat":"31.207016517","category":"500","category_name":"未知分类","address":"上海市浦东新区碧波路889号"},{"poiid":"B209475CD26DA5FB419F","title":"澈思叔叔烘焙工房","lon":"121.567863","lat":"31.210296","category":"247","category_name":"餐饮美食","address":"上海市 浦东嘉里城B1层"},{"poiid":"B2094655D26BA5F8409E","title":"长沙米粉湘菜馆","lon":"121.57915","lat":"31.20258","category":"77","category_name":"湖南菜","address":"浦东新区张江高科技园区景明路(近春晓路)"},{"poiid":"B2094751D26EA2F5419C","title":"Mr.Bean Coffee","lon":"121.566192","lat":"31.208404","category":"247","category_name":"餐饮美食","address":"花木路"},{"poiid":"B2094757D064A0F9489D","title":"全家便利(博览中心店)","lon":"121.56652","lat":"31.20605","category":"117","category_name":"便民商店/便利店","address":"上海浦东新区龙阳路2345号新国际博览中心内(近芳甸路)"},{"poiid":"B2094757D16AA7FF4298","title":"龙阳路2520号","lon":"121.567319","lat":"31.204475","category":"500","category_name":"未知分类","address":"上海龙阳路2520号"},{"poiid":"B2094751D569A1FF409F","title":"龍美术馆","lon":"121.573639","lat":"31.215622","category":"248","category_name":"生活娱乐","address":"罗山路2255号"},{"poiid":"B2094757D068A6FF469F","title":"培花小区","lon":"121.56798767714","lat":"31.201315129402","category":"500","category_name":"未知分类","address":"上海白杨路芳草路"},{"poiid":"B2094757DA6AA5F44493","title":"pptv","lon":"121.5775148","lat":"31.2016526","category":"170","category_name":"KTV","address":"碧波路690号"},{"poiid":"B2094757D164A0F54499","title":"兄弟饭庄","lon":"121.57953","lat":"31.20375","category":"247","category_name":"餐饮美食","address":"上海浦东新区春晓路(景明路口)  "},{"poiid":"B2094655D26FA5F8449C","title":"全家便利店(国览店)","lon":"121.56549","lat":"31.2054","category":"117","category_name":"便民商店/便利店","address":"上海市浦东新区龙阳路2345号"},{"poiid":"B2094757D16FA7FE479F","title":"中国(上海)国际乐器展览会","lon":"121.56663894","lat":"31.206438378","category":"500","category_name":"未知分类","address":"上海龙阳路"},{"poiid":"B2094655D26BA3F4449A","title":"汤臣集团健身中心","lon":"121.57638","lat":"31.21114","category":"221","category_name":"健身中心","address":"浦东新区龙东大道1号"}]