[{"poiid":"B2094757D06FA6FD429D","title":"小南门","lon":"121.49795973","lat":"31.215458885","category":"500","category_name":"未知分类","address":"上海市黄浦区蔑竹路"},{"poiid":"B2094757D06FA7FA409A","title":"蓬莱公园","lon":"121.49898812655","lat":"31.212548793444","category":"196","category_name":"公园","address":"黄浦区南车站路380号(近瞿溪路)"},{"poiid":"B2094757D06FA2F54399","title":"陆家浜路海潮路","lon":"121.499351","lat":"31.211211","category":"500","category_name":"未知分类","address":"上海陆家浜路海潮路"},{"poiid":"B209475CD564A7F84292","title":"上海滩新天地店","lon":"121.47463","lat":"31.22164","category":"119","category_name":"商场","address":"\"太仓路181弄新天地北里15号\r\n\""},{"poiid":"B209475CD564A7F84392","title":"上海滩浦东香格里拉店","lon":"121.50058","lat":"31.23634","category":"119","category_name":"商场","address":"浦东富成路33号香格里拉酒店内大堂层"},{"poiid":"B2094654DA68A1FA4992","title":"上海市第八中学","lon":"121.49598","lat":"31.21282","category":"55","category_name":"中学","address":"黄浦区陆家浜路650号(近南浦大桥)"},{"poiid":"B2094757D06FA0FD499F","title":"玛格萝妮比萨屋 陆家浜店 Magaroni Pizza Studio","lon":"121.49843555489","lat":"31.211402097888","category":"94","category_name":"西餐厅","address":"黄浦区陆家浜路458号(近海潮路)"},{"poiid":"B2094655D26BA1FB499B","title":"陆家浜路跨龙路","lon":"121.49529","lat":"31.21297","category":"38","category_name":"公交车站","address":""},{"poiid":"B2094757D064A5FC4492","title":"鼎中鼎澳门豆捞","lon":"121.499069738","lat":"31.2114468999","category":"86","category_name":"火锅店","address":"黄浦区陆家浜路428号(海潮路口)"},{"poiid":"B2094757D068A3FB469B","title":"明日星城","lon":"121.49450701","lat":"31.214300838","category":"500","category_name":"未知分类","address":"河南南路1009弄3-11号"},{"poiid":"B2094757D06FA0FD439A","title":"阳光翠竹苑","lon":"121.4983","lat":"31.213047","category":"47","category_name":"住宅区","address":"上海市黄浦区陆家浜路521弄"},{"poiid":"B2094757D06AA3F9469D","title":"中福花苑青年汇酒店式公寓","lon":"121.49864","lat":"31.21044","category":"217","category_name":"旅馆招待所","address":"上海黄浦区海潮路93弄(近陆家浜路)  "},{"poiid":"B2094757D06FA4FE459B","title":"肯德基 KFC (海潮店)","lon":"121.498396","lat":"31.211151","category":"68","category_name":"快餐厅","address":"黄浦区陆家浜路436号(近大兴街)"},{"poiid":"B2094757D069A2F9459C","title":"清心堂","lon":"121.49566","lat":"31.21326","category":"245","category_name":"教堂","address":"黄浦区陆家浜路675号(近跨龙路)"},{"poiid":"B2094757D06FA4FE479A","title":"沃尔玛(陆家浜路店)","lon":"121.498621598","lat":"31.2110543569","category":"118","category_name":"超级市场","address":"黄浦区陆家浜路436号(近海潮路)"},{"poiid":"B2094757D06AA5FA439C","title":"市南中学","lon":"121.4972","lat":"31.21298","category":"55","category_name":"中学","address":"黄浦区陆家浜路597号(近南浦大桥)"},{"poiid":"B2094757D069A5FA449D","title":"九号线 打浦桥站","lon":"121.497526738","lat":"31.2138421509","category":"500","category_name":"未知分类","address":"上海九号线 打浦桥站"},{"poiid":"B2094655D26EABF9499F","title":"新世界假日汇晶酒店","lon":"121.4978","lat":"31.21245","category":"250","category_name":"公园户外","address":"上海黄浦区陆家浜路525号(海潮路)"},{"poiid":"B2094655D26EAAFF4198","title":"凯司令西点房 中华店","lon":"121.495491054","lat":"31.215382793","category":"67","category_name":"甜品店","address":"黄浦区光启南路407号(中华路口)"},{"poiid":"B2094757D06AA5FF489A","title":"长峰馨园","lon":"121.49963","lat":"31.212877","category":"500","category_name":"未知分类","address":"上海市黄浦区柳市路1弄"},{"poiid":"B2094655D26FABF5429E","title":"明日星城一期","lon":"121.49416","lat":"31.2136","category":"47","category_name":"住宅区","address":"上海市黄浦区河南南路1号"},{"poiid":"B2094757D064A4FF409D","title":"馨园健身会所","lon":"121.49962988","lat":"31.212714478","category":"148","category_name":"美容美发店","address":"黄浦区南仓街118号"},{"poiid":"B2094757D069A3F9419E","title":"雅趣茶道(陆家浜店)","lon":"121.49487","lat":"31.21281","category":"260","category_name":"其他","address":"黄浦区陆家浜路693号(近跨龙路)"},{"poiid":"B2094757D464A6F9409D","title":"重庆鸡公煲 中华路店","lon":"121.497722054","lat":"31.215300793","category":"71","category_name":"四川菜","address":"黄浦区中华路629号(近小南门)"},{"poiid":"B2094757D069A1FD429F","title":"百花公寓","lon":"121.49553709864","lat":"31.213515823342","category":"47","category_name":"住宅区","address":"上海市黄浦区斜土东路158号"},{"poiid":"B2094655D26CAAFD4292","title":"金日世家","lon":"121.49523","lat":"31.211901","category":"47","category_name":"住宅区","address":"陆家浜路688弄1-10号"},{"poiid":"B2094757D065A7FC4992","title":"草堂鸡(中华路店)","lon":"121.4981","lat":"31.21488","category":"76","category_name":"上海菜","address":"黄浦区中华路624号(近董家渡路)"},{"poiid":"B2094654DA6FA3F9479E","title":"老程家酒楼","lon":"121.498988054","lat":"31.213633793","category":"76","category_name":"上海菜","address":"黄浦区东江阴街108号(近柳市路)"},{"poiid":"B2094655D26FA6F8489A","title":"浩城华苑","lon":"121.49599","lat":"31.21537","category":"47","category_name":"住宅区","address":"上海市黄浦区黄家路88弄"},{"poiid":"B2094654DB65A0FF439F","title":"莫泰168上海陆家浜路店","lon":"121.49789","lat":"31.21236","category":"216","category_name":"经济型连锁酒店","address":"黄浦区陆家浜路523号(近桑园街)"},{"poiid":"B2094757D068A3F5429F","title":"董家渡轻纺市场","lon":"121.49964141","lat":"31.21169281","category":"249","category_name":"购物服务","address":"上海陆家浜路399号"},{"poiid":"B2094757D068A1FD439C","title":"台湾一品茶 陆家浜路店","lon":"121.496242","lat":"31.21293","category":"113","category_name":"冷饮店","address":"黄浦区陆家浜路670号(近跨龙路)"},{"poiid":"B2094654DA6EA7FC4799","title":"上海市基督教清心堂","lon":"121.49523","lat":"31.21315","category":"245","category_name":"教堂","address":"大昌街30"},{"poiid":"B2094757D06AABFB489D","title":"明日星城二期","lon":"121.49499","lat":"31.214718","category":"500","category_name":"未知分类","address":"上海市黄浦区中华路868弄"},{"poiid":"B2094757D06FA0F94393","title":"普佰台球俱乐部","lon":"121.49830317","lat":"31.213041352","category":"171","category_name":"台球厅","address":"黄浦区陆家浜路521弄阳光翠竹苑5号楼B1(近南浦大桥)"},{"poiid":"B2094757D464A0FA4692","title":"乡家常菜","lon":"121.49823538886","lat":"31.211772994517","category":"71","category_name":"四川菜","address":"黄浦区陆家浜路458号(近海潮路)"},{"poiid":"B2094757D665A0F94592","title":"宏玉坊锅帖专卖","lon":"121.49578","lat":"31.21386","category":"68","category_name":"快餐厅","address":"黄浦区跨龙路65号(近陆家浜路)"},{"poiid":"B2094757D068A3FF4592","title":"久斯台球俱乐部(陆家浜路店)","lon":"121.49819","lat":"31.21099","category":"171","category_name":"台球厅","address":"黄浦区陆家浜路456号4楼(近海潮路)"},{"poiid":"B2094655D264A5FA4192","title":"赛元大厦","lon":"121.49786","lat":"31.21112","category":"46","category_name":"楼宇","address":"朝阳华威桥东北角"},{"poiid":"B2094757D16FA0FE439C","title":"黄浦区委党校","lon":"121.497523738","lat":"31.2116999053","category":"500","category_name":"未知分类","address":"上海市黄浦区陆家浜路500号"},{"poiid":"B209475CD76DA1F54198","title":"中华艺术宫","lon":"121.497512","lat":"31.212667","category":"500","category_name":"未知分类","address":"上海市 上南路"},{"poiid":"B2094654DB64A5FC499E","title":"味之都 浦江店 Wish Doing","lon":"121.49855001199","lat":"31.21131326048","category":"68","category_name":"快餐厅","address":"黄浦区陆家浜路436号(近海潮路)"},{"poiid":"B2094655D26BA6FB4693","title":"薡茶陆家浜路店","lon":"121.49547","lat":"31.21292","category":"113","category_name":"冷饮店","address":"黄浦区陆家浜路672号(近跨龙路)"},{"poiid":"B2094757D06BA0FB499C","title":"阳光翠竹苑二号楼","lon":"121.497284138","lat":"31.2127890285","category":"500","category_name":"未知分类","address":"上海市黄浦区陆家浜路521弄2号"},{"poiid":"B2094757D66DA2F9419C","title":"鼎茶","lon":"121.49753373","lat":"31.214567966","category":"247","category_name":"餐饮美食","address":"上海陆家浜路672号"},{"poiid":"B2094654DA6FA3F9449F","title":"上海市育辛进修学院","lon":"121.49603","lat":"31.21374","category":"54","category_name":"职业技术学校","address":"跨龙路81"},{"poiid":"B2094655D265A7FE449E","title":"喜士多便利小东门店","lon":"121.49786","lat":"31.21238","category":"117","category_name":"便民商店/便利店","address":"陆家浜路523号101室"},{"poiid":"B2094654DA6FA3F9479C","title":"超越千和形象设计沙龙","lon":"121.4985","lat":"31.21353","category":"148","category_name":"美容美发店","address":""},{"poiid":"B2094654DB65A1FA499F","title":"上海市民办东远高级中学","lon":"121.49609","lat":"31.2135","category":"55","category_name":"中学","address":""},{"poiid":"B2094655D265A4FA409D","title":"喜士多小东门门市","lon":"121.49798","lat":"31.21232","category":"117","category_name":"便民商店/便利店","address":"陆家浜路523-2"},{"poiid":"B2094757D06FA6FD429D","title":"小南门","lon":"121.49795973","lat":"31.215458885","category":"500","category_name":"未知分类","address":"上海市黄浦区蔑竹路"},{"poiid":"B2094757D06FA7FA409A","title":"蓬莱公园","lon":"121.49898812655","lat":"31.212548793444","category":"196","category_name":"公园","address":"黄浦区南车站路380号(近瞿溪路)"},{"poiid":"B2094757D06FA2F54399","title":"陆家浜路海潮路","lon":"121.499351","lat":"31.211211","category":"500","category_name":"未知分类","address":"上海陆家浜路海潮路"},{"poiid":"B209475CD564A7F84292","title":"上海滩新天地店","lon":"121.47463","lat":"31.22164","category":"119","category_name":"商场","address":"\"太仓路181弄新天地北里15号\r\n\""},{"poiid":"B209475CD564A7F84392","title":"上海滩浦东香格里拉店","lon":"121.50058","lat":"31.23634","category":"119","category_name":"商场","address":"浦东富成路33号香格里拉酒店内大堂层"},{"poiid":"B2094654DA68A1FA4992","title":"上海市第八中学","lon":"121.49598","lat":"31.21282","category":"55","category_name":"中学","address":"黄浦区陆家浜路650号(近南浦大桥)"},{"poiid":"B2094757D06FA0FD499F","title":"玛格萝妮比萨屋 陆家浜店 Magaroni Pizza Studio","lon":"121.49843555489","lat":"31.211402097888","category":"94","category_name":"西餐厅","address":"黄浦区陆家浜路458号(近海潮路)"},{"poiid":"B2094655D26BA1FB499B","title":"陆家浜路跨龙路","lon":"121.49529","lat":"31.21297","category":"38","category_name":"公交车站","address":""},{"poiid":"B2094757D064A5FC4492","title":"鼎中鼎澳门豆捞","lon":"121.499069738","lat":"31.2114468999","category":"86","category_name":"火锅店","address":"黄浦区陆家浜路428号(海潮路口)"},{"poiid":"B2094757D068A3FB469B","title":"明日星城","lon":"121.49450701","lat":"31.214300838","category":"500","category_name":"未知分类","address":"河南南路1009弄3-11号"},{"poiid":"B2094757D06FA0FD439A","title":"阳光翠竹苑","lon":"121.4983","lat":"31.213047","category":"47","category_name":"住宅区","address":"上海市黄浦区陆家浜路521弄"},{"poiid":"B2094757D06AA3F9469D","title":"中福花苑青年汇酒店式公寓","lon":"121.49864","lat":"31.21044","category":"217","category_name":"旅馆招待所","address":"上海黄浦区海潮路93弄(近陆家浜路)  "},{"poiid":"B2094757D06FA4FE459B","title":"肯德基 KFC (海潮店)","lon":"121.498396","lat":"31.211151","category":"68","category_name":"快餐厅","address":"黄浦区陆家浜路436号(近大兴街)"},{"poiid":"B2094757D069A2F9459C","title":"清心堂","lon":"121.49566","lat":"31.21326","category":"245","category_name":"教堂","address":"黄浦区陆家浜路675号(近跨龙路)"},{"poiid":"B2094757D06FA4FE479A","title":"沃尔玛(陆家浜路店)","lon":"121.498621598","lat":"31.2110543569","category":"118","category_name":"超级市场","address":"黄浦区陆家浜路436号(近海潮路)"},{"poiid":"B2094757D06AA5FA439C","title":"市南中学","lon":"121.4972","lat":"31.21298","category":"55","category_name":"中学","address":"黄浦区陆家浜路597号(近南浦大桥)"},{"poiid":"B2094757D069A5FA449D","title":"九号线 打浦桥站","lon":"121.497526738","lat":"31.2138421509","category":"500","category_name":"未知分类","address":"上海九号线 打浦桥站"},{"poiid":"B2094655D26EABF9499F","title":"新世界假日汇晶酒店","lon":"121.4978","lat":"31.21245","category":"250","category_name":"公园户外","address":"上海黄浦区陆家浜路525号(海潮路)"},{"poiid":"B2094655D26EAAFF4198","title":"凯司令西点房 中华店","lon":"121.495491054","lat":"31.215382793","category":"67","category_name":"甜品店","address":"黄浦区光启南路407号(中华路口)"},{"poiid":"B2094757D06AA5FF489A","title":"长峰馨园","lon":"121.49963","lat":"31.212877","category":"500","category_name":"未知分类","address":"上海市黄浦区柳市路1弄"},{"poiid":"B2094655D26FABF5429E","title":"明日星城一期","lon":"121.49416","lat":"31.2136","category":"47","category_name":"住宅区","address":"上海市黄浦区河南南路1号"},{"poiid":"B2094757D064A4FF409D","title":"馨园健身会所","lon":"121.49962988","lat":"31.212714478","category":"148","category_name":"美容美发店","address":"黄浦区南仓街118号"},{"poiid":"B2094757D069A3F9419E","title":"雅趣茶道(陆家浜店)","lon":"121.49487","lat":"31.21281","category":"260","category_name":"其他","address":"黄浦区陆家浜路693号(近跨龙路)"},{"poiid":"B2094757D464A6F9409D","title":"重庆鸡公煲 中华路店","lon":"121.497722054","lat":"31.215300793","category":"71","category_name":"四川菜","address":"黄浦区中华路629号(近小南门)"},{"poiid":"B2094757D069A1FD429F","title":"百花公寓","lon":"121.49553709864","lat":"31.213515823342","category":"47","category_name":"住宅区","address":"上海市黄浦区斜土东路158号"},{"poiid":"B2094655D26CAAFD4292","title":"金日世家","lon":"121.49523","lat":"31.211901","category":"47","category_name":"住宅区","address":"陆家浜路688弄1-10号"},{"poiid":"B2094757D065A7FC4992","title":"草堂鸡(中华路店)","lon":"121.4981","lat":"31.21488","category":"76","category_name":"上海菜","address":"黄浦区中华路624号(近董家渡路)"},{"poiid":"B2094654DA6FA3F9479E","title":"老程家酒楼","lon":"121.498988054","lat":"31.213633793","category":"76","category_name":"上海菜","address":"黄浦区东江阴街108号(近柳市路)"},{"poiid":"B2094655D26FA6F8489A","title":"浩城华苑","lon":"121.49599","lat":"31.21537","category":"47","category_name":"住宅区","address":"上海市黄浦区黄家路88弄"},{"poiid":"B2094654DB65A0FF439F","title":"莫泰168上海陆家浜路店","lon":"121.49789","lat":"31.21236","category":"216","category_name":"经济型连锁酒店","address":"黄浦区陆家浜路523号(近桑园街)"},{"poiid":"B2094757D068A3F5429F","title":"董家渡轻纺市场","lon":"121.49964141","lat":"31.21169281","category":"249","category_name":"购物服务","address":"上海陆家浜路399号"},{"poiid":"B2094757D068A1FD439C","title":"台湾一品茶 陆家浜路店","lon":"121.496242","lat":"31.21293","category":"113","category_name":"冷饮店","address":"黄浦区陆家浜路670号(近跨龙路)"},{"poiid":"B2094654DA6EA7FC4799","title":"上海市基督教清心堂","lon":"121.49523","lat":"31.21315","category":"245","category_name":"教堂","address":"大昌街30"},{"poiid":"B2094757D06AABFB489D","title":"明日星城二期","lon":"121.49499","lat":"31.214718","category":"500","category_name":"未知分类","address":"上海市黄浦区中华路868弄"},{"poiid":"B2094757D06FA0F94393","title":"普佰台球俱乐部","lon":"121.49830317","lat":"31.213041352","category":"171","category_name":"台球厅","address":"黄浦区陆家浜路521弄阳光翠竹苑5号楼B1(近南浦大桥)"},{"poiid":"B2094757D464A0FA4692","title":"乡家常菜","lon":"121.49823538886","lat":"31.211772994517","category":"71","category_name":"四川菜","address":"黄浦区陆家浜路458号(近海潮路)"},{"poiid":"B2094757D665A0F94592","title":"宏玉坊锅帖专卖","lon":"121.49578","lat":"31.21386","category":"68","category_name":"快餐厅","address":"黄浦区跨龙路65号(近陆家浜路)"},{"poiid":"B2094757D068A3FF4592","title":"久斯台球俱乐部(陆家浜路店)","lon":"121.49819","lat":"31.21099","category":"171","category_name":"台球厅","address":"黄浦区陆家浜路456号4楼(近海潮路)"},{"poiid":"B2094655D264A5FA4192","title":"赛元大厦","lon":"121.49786","lat":"31.21112","category":"46","category_name":"楼宇","address":"朝阳华威桥东北角"},{"poiid":"B2094757D16FA0FE439C","title":"黄浦区委党校","lon":"121.497523738","lat":"31.2116999053","category":"500","category_name":"未知分类","address":"上海市黄浦区陆家浜路500号"},{"poiid":"B209475CD76DA1F54198","title":"中华艺术宫","lon":"121.497512","lat":"31.212667","category":"500","category_name":"未知分类","address":"上海市 上南路"},{"poiid":"B2094654DB64A5FC499E","title":"味之都 浦江店 Wish Doing","lon":"121.49855001199","lat":"31.21131326048","category":"68","category_name":"快餐厅","address":"黄浦区陆家浜路436号(近海潮路)"},{"poiid":"B2094655D26BA6FB4693","title":"薡茶陆家浜路店","lon":"121.49547","lat":"31.21292","category":"113","category_name":"冷饮店","address":"黄浦区陆家浜路672号(近跨龙路)"},{"poiid":"B2094757D06BA0FB499C","title":"阳光翠竹苑二号楼","lon":"121.497284138","lat":"31.2127890285","category":"500","category_name":"未知分类","address":"上海市黄浦区陆家浜路521弄2号"},{"poiid":"B2094757D66DA2F9419C","title":"鼎茶","lon":"121.49753373","lat":"31.214567966","category":"247","category_name":"餐饮美食","address":"上海陆家浜路672号"},{"poiid":"B2094654DA6FA3F9449F","title":"上海市育辛进修学院","lon":"121.49603","lat":"31.21374","category":"54","category_name":"职业技术学校","address":"跨龙路81"},{"poiid":"B2094655D265A7FE449E","title":"喜士多便利小东门店","lon":"121.49786","lat":"31.21238","category":"117","category_name":"便民商店/便利店","address":"陆家浜路523号101室"},{"poiid":"B2094654DA6FA3F9479C","title":"超越千和形象设计沙龙","lon":"121.4985","lat":"31.21353","category":"148","category_name":"美容美发店","address":""},{"poiid":"B2094654DB65A1FA499F","title":"上海市民办东远高级中学","lon":"121.49609","lat":"31.2135","category":"55","category_name":"中学","address":""},{"poiid":"B2094655D265A4FA409D","title":"喜士多小东门门市","lon":"121.49798","lat":"31.21232","category":"117","category_name":"便民商店/便利店","address":"陆家浜路523-2"},{"poiid":"B2094757D06FA6FD429D","title":"小南门","lon":"121.49795973","lat":"31.215458885","category":"500","category_name":"未知分类","address":"上海市黄浦区蔑竹路"},{"poiid":"B2094757D06FA7FA409A","title":"蓬莱公园","lon":"121.49898812655","lat":"31.212548793444","category":"196","category_name":"公园","address":"黄浦区南车站路380号(近瞿溪路)"},{"poiid":"B2094757D06FA2F54399","title":"陆家浜路海潮路","lon":"121.499351","lat":"31.211211","category":"500","category_name":"未知分类","address":"上海陆家浜路海潮路"},{"poiid":"B209475CD564A7F84292","title":"上海滩新天地店","lon":"121.47463","lat":"31.22164","category":"119","category_name":"商场","address":"\"太仓路181弄新天地北里15号\r\n\""},{"poiid":"B209475CD564A7F84392","title":"上海滩浦东香格里拉店","lon":"121.50058","lat":"31.23634","category":"119","category_name":"商场","address":"浦东富成路33号香格里拉酒店内大堂层"},{"poiid":"B2094654DA68A1FA4992","title":"上海市第八中学","lon":"121.49598","lat":"31.21282","category":"55","category_name":"中学","address":"黄浦区陆家浜路650号(近南浦大桥)"},{"poiid":"B2094757D06FA0FD499F","title":"玛格萝妮比萨屋 陆家浜店 Magaroni Pizza Studio","lon":"121.49843555489","lat":"31.211402097888","category":"94","category_name":"西餐厅","address":"黄浦区陆家浜路458号(近海潮路)"},{"poiid":"B2094655D26BA1FB499B","title":"陆家浜路跨龙路","lon":"121.49529","lat":"31.21297","category":"38","category_name":"公交车站","address":""},{"poiid":"B2094757D064A5FC4492","title":"鼎中鼎澳门豆捞","lon":"121.499069738","lat":"31.2114468999","category":"86","category_name":"火锅店","address":"黄浦区陆家浜路428号(海潮路口)"},{"poiid":"B2094757D068A3FB469B","title":"明日星城","lon":"121.49450701","lat":"31.214300838","category":"500","category_name":"未知分类","address":"河南南路1009弄3-11号"},{"poiid":"B2094757D06FA0FD439A","title":"阳光翠竹苑","lon":"121.4983","lat":"31.213047","category":"47","category_name":"住宅区","address":"上海市黄浦区陆家浜路521弄"},{"poiid":"B2094757D06AA3F9469D","title":"中福花苑青年汇酒店式公寓","lon":"121.49864","lat":"31.21044","category":"217","category_name":"旅馆招待所","address":"上海黄浦区海潮路93弄(近陆家浜路)  "},{"poiid":"B2094757D06FA4FE459B","title":"肯德基 KFC (海潮店)","lon":"121.498396","lat":"31.211151","category":"68","category_name":"快餐厅","address":"黄浦区陆家浜路436号(近大兴街)"},{"poiid":"B2094757D069A2F9459C","title":"清心堂","lon":"121.49566","lat":"31.21326","category":"245","category_name":"教堂","address":"黄浦区陆家浜路675号(近跨龙路)"},{"poiid":"B2094757D06FA4FE479A","title":"沃尔玛(陆家浜路店)","lon":"121.498621598","lat":"31.2110543569","category":"118","category_name":"超级市场","address":"黄浦区陆家浜路436号(近海潮路)"},{"poiid":"B2094757D06AA5FA439C","title":"市南中学","lon":"121.4972","lat":"31.21298","category":"55","category_name":"中学","address":"黄浦区陆家浜路597号(近南浦大桥)"},{"poiid":"B2094757D069A5FA449D","title":"九号线 打浦桥站","lon":"121.497526738","lat":"31.2138421509","category":"500","category_name":"未知分类","address":"上海九号线 打浦桥站"},{"poiid":"B2094655D26EABF9499F","title":"新世界假日汇晶酒店","lon":"121.4978","lat":"31.21245","category":"250","category_name":"公园户外","address":"上海黄浦区陆家浜路525号(海潮路)"},{"poiid":"B2094655D26EAAFF4198","title":"凯司令西点房 中华店","lon":"121.495491054","lat":"31.215382793","category":"67","category_name":"甜品店","address":"黄浦区光启南路407号(中华路口)"},{"poiid":"B2094757D06AA5FF489A","title":"长峰馨园","lon":"121.49963","lat":"31.212877","category":"500","category_name":"未知分类","address":"上海市黄浦区柳市路1弄"},{"poiid":"B2094655D26FABF5429E","title":"明日星城一期","lon":"121.49416","lat":"31.2136","category":"47","category_name":"住宅区","address":"上海市黄浦区河南南路1号"},{"poiid":"B2094757D064A4FF409D","title":"馨园健身会所","lon":"121.49962988","lat":"31.212714478","category":"148","category_name":"美容美发店","address":"黄浦区南仓街118号"},{"poiid":"B2094757D069A3F9419E","title":"雅趣茶道(陆家浜店)","lon":"121.49487","lat":"31.21281","category":"260","category_name":"其他","address":"黄浦区陆家浜路693号(近跨龙路)"},{"poiid":"B2094757D464A6F9409D","title":"重庆鸡公煲 中华路店","lon":"121.497722054","lat":"31.215300793","category":"71","category_name":"四川菜","address":"黄浦区中华路629号(近小南门)"},{"poiid":"B2094757D069A1FD429F","title":"百花公寓","lon":"121.49553709864","lat":"31.213515823342","category":"47","category_name":"住宅区","address":"上海市黄浦区斜土东路158号"},{"poiid":"B2094655D26CAAFD4292","title":"金日世家","lon":"121.49523","lat":"31.211901","category":"47","category_name":"住宅区","address":"陆家浜路688弄1-10号"},{"poiid":"B2094757D065A7FC4992","title":"草堂鸡(中华路店)","lon":"121.4981","lat":"31.21488","category":"76","category_name":"上海菜","address":"黄浦区中华路624号(近董家渡路)"},{"poiid":"B2094654DA6FA3F9479E","title":"老程家酒楼","lon":"121.498988054","lat":"31.213633793","category":"76","category_name":"上海菜","address":"黄浦区东江阴街108号(近柳市路)"},{"poiid":"B2094655D26FA6F8489A","title":"浩城华苑","lon":"121.49599","lat":"31.21537","category":"47","category_name":"住宅区","address":"上海市黄浦区黄家路88弄"},{"poiid":"B2094654DB65A0FF439F","title":"莫泰168上海陆家浜路店","lon":"121.49789","lat":"31.21236","category":"216","category_name":"经济型连锁酒店","address":"黄浦区陆家浜路523号(近桑园街)"},{"poiid":"B2094757D068A3F5429F","title":"董家渡轻纺市场","lon":"121.49964141","lat":"31.21169281","category":"249","category_name":"购物服务","address":"上海陆家浜路399号"},{"poiid":"B2094757D068A1FD439C","title":"台湾一品茶 陆家浜路店","lon":"121.496242","lat":"31.21293","category":"113","category_name":"冷饮店","address":"黄浦区陆家浜路670号(近跨龙路)"},{"poiid":"B2094654DA6EA7FC4799","title":"上海市基督教清心堂","lon":"121.49523","lat":"31.21315","category":"245","category_name":"教堂","address":"大昌街30"},{"poiid":"B2094757D06AABFB489D","title":"明日星城二期","lon":"121.49499","lat":"31.214718","category":"500","category_name":"未知分类","address":"上海市黄浦区中华路868弄"},{"poiid":"B2094757D06FA0F94393","title":"普佰台球俱乐部","lon":"121.49830317","lat":"31.213041352","category":"171","category_name":"台球厅","address":"黄浦区陆家浜路521弄阳光翠竹苑5号楼B1(近南浦大桥)"},{"poiid":"B2094757D464A0FA4692","title":"乡家常菜","lon":"121.49823538886","lat":"31.211772994517","category":"71","category_name":"四川菜","address":"黄浦区陆家浜路458号(近海潮路)"},{"poiid":"B2094757D665A0F94592","title":"宏玉坊锅帖专卖","lon":"121.49578","lat":"31.21386","category":"68","category_name":"快餐厅","address":"黄浦区跨龙路65号(近陆家浜路)"},{"poiid":"B2094757D068A3FF4592","title":"久斯台球俱乐部(陆家浜路店)","lon":"121.49819","lat":"31.21099","category":"171","category_name":"台球厅","address":"黄浦区陆家浜路456号4楼(近海潮路)"},{"poiid":"B2094655D264A5FA4192","title":"赛元大厦","lon":"121.49786","lat":"31.21112","category":"46","category_name":"楼宇","address":"朝阳华威桥东北角"},{"poiid":"B2094757D16FA0FE439C","title":"黄浦区委党校","lon":"121.497523738","lat":"31.2116999053","category":"500","category_name":"未知分类","address":"上海市黄浦区陆家浜路500号"},{"poiid":"B209475CD76DA1F54198","title":"中华艺术宫","lon":"121.497512","lat":"31.212667","category":"500","category_name":"未知分类","address":"上海市 上南路"},{"poiid":"B2094654DB64A5FC499E","title":"味之都 浦江店 Wish Doing","lon":"121.49855001199","lat":"31.21131326048","category":"68","category_name":"快餐厅","address":"黄浦区陆家浜路436号(近海潮路)"},{"poiid":"B2094655D26BA6FB4693","title":"薡茶陆家浜路店","lon":"121.49547","lat":"31.21292","category":"113","category_name":"冷饮店","address":"黄浦区陆家浜路672号(近跨龙路)"},{"poiid":"B2094757D06BA0FB499C","title":"阳光翠竹苑二号楼","lon":"121.497284138","lat":"31.2127890285","category":"500","category_name":"未知分类","address":"上海市黄浦区陆家浜路521弄2号"},{"poiid":"B2094757D66DA2F9419C","title":"鼎茶","lon":"121.49753373","lat":"31.214567966","category":"247","category_name":"餐饮美食","address":"上海陆家浜路672号"},{"poiid":"B2094654DA6FA3F9449F","title":"上海市育辛进修学院","lon":"121.49603","lat":"31.21374","category":"54","category_name":"职业技术学校","address":"跨龙路81"},{"poiid":"B2094655D265A7FE449E","title":"喜士多便利小东门店","lon":"121.49786","lat":"31.21238","category":"117","category_name":"便民商店/便利店","address":"陆家浜路523号101室"},{"poiid":"B2094654DA6FA3F9479C","title":"超越千和形象设计沙龙","lon":"121.4985","lat":"31.21353","category":"148","category_name":"美容美发店","address":""},{"poiid":"B2094654DB65A1FA499F","title":"上海市民办东远高级中学","lon":"121.49609","lat":"31.2135","category":"55","category_name":"中学","address":""},{"poiid":"B2094655D265A4FA409D","title":"喜士多小东门门市","lon":"121.49798","lat":"31.21232","category":"117","category_name":"便民商店/便利店","address":"陆家浜路523-2"},{"poiid":"B2094757D06FA6FD429D","title":"小南门","lon":"121.49795973","lat":"31.215458885","category":"500","category_name":"未知分类","address":"上海市黄浦区蔑竹路"},{"poiid":"B2094757D06FA7FA409A","title":"蓬莱公园","lon":"121.49898812655","lat":"31.212548793444","category":"196","category_name":"公园","address":"黄浦区南车站路380号(近瞿溪路)"},{"poiid":"B2094757D06FA2F54399","title":"陆家浜路海潮路","lon":"121.499351","lat":"31.211211","category":"500","category_name":"未知分类","address":"上海陆家浜路海潮路"},{"poiid":"B209475CD564A7F84292","title":"上海滩新天地店","lon":"121.47463","lat":"31.22164","category":"119","category_name":"商场","address":"\"太仓路181弄新天地北里15号\r\n\""},{"poiid":"B209475CD564A7F84392","title":"上海滩浦东香格里拉店","lon":"121.50058","lat":"31.23634","category":"119","category_name":"商场","address":"浦东富成路33号香格里拉酒店内大堂层"},{"poiid":"B2094654DA68A1FA4992","title":"上海市第八中学","lon":"121.49598","lat":"31.21282","category":"55","category_name":"中学","address":"黄浦区陆家浜路650号(近南浦大桥)"},{"poiid":"B2094757D06FA0FD499F","title":"玛格萝妮比萨屋 陆家浜店 Magaroni Pizza Studio","lon":"121.49843555489","lat":"31.211402097888","category":"94","category_name":"西餐厅","address":"黄浦区陆家浜路458号(近海潮路)"},{"poiid":"B2094655D26BA1FB499B","title":"陆家浜路跨龙路","lon":"121.49529","lat":"31.21297","category":"38","category_name":"公交车站","address":""},{"poiid":"B2094757D064A5FC4492","title":"鼎中鼎澳门豆捞","lon":"121.499069738","lat":"31.2114468999","category":"86","category_name":"火锅店","address":"黄浦区陆家浜路428号(海潮路口)"},{"poiid":"B2094757D068A3FB469B","title":"明日星城","lon":"121.49450701","lat":"31.214300838","category":"500","category_name":"未知分类","address":"河南南路1009弄3-11号"},{"poiid":"B2094757D06FA0FD439A","title":"阳光翠竹苑","lon":"121.4983","lat":"31.213047","category":"47","category_name":"住宅区","address":"上海市黄浦区陆家浜路521弄"},{"poiid":"B2094757D06AA3F9469D","title":"中福花苑青年汇酒店式公寓","lon":"121.49864","lat":"31.21044","category":"217","category_name":"旅馆招待所","address":"上海黄浦区海潮路93弄(近陆家浜路)  "},{"poiid":"B2094757D06FA4FE459B","title":"肯德基 KFC (海潮店)","lon":"121.498396","lat":"31.211151","category":"68","category_name":"快餐厅","address":"黄浦区陆家浜路436号(近大兴街)"},{"poiid":"B2094757D069A2F9459C","title":"清心堂","lon":"121.49566","lat":"31.21326","category":"245","category_name":"教堂","address":"黄浦区陆家浜路675号(近跨龙路)"},{"poiid":"B2094757D06FA4FE479A","title":"沃尔玛(陆家浜路店)","lon":"121.498621598","lat":"31.2110543569","category":"118","category_name":"超级市场","address":"黄浦区陆家浜路436号(近海潮路)"},{"poiid":"B2094757D06AA5FA439C","title":"市南中学","lon":"121.4972","lat":"31.21298","category":"55","category_name":"中学","address":"黄浦区陆家浜路597号(近南浦大桥)"},{"poiid":"B2094757D069A5FA449D","title":"九号线 打浦桥站","lon":"121.497526738","lat":"31.2138421509","category":"500","category_name":"未知分类","address":"上海九号线 打浦桥站"},{"poiid":"B2094655D26EABF9499F","title":"新世界假日汇晶酒店","lon":"121.4978","lat":"31.21245","category":"250","category_name":"公园户外","address":"上海黄浦区陆家浜路525号(海潮路)"},{"poiid":"B2094655D26EAAFF4198","title":"凯司令西点房 中华店","lon":"121.495491054","lat":"31.215382793","category":"67","category_name":"甜品店","address":"黄浦区光启南路407号(中华路口)"},{"poiid":"B2094757D06AA5FF489A","title":"长峰馨园","lon":"121.49963","lat":"31.212877","category":"500","category_name":"未知分类","address":"上海市黄浦区柳市路1弄"},{"poiid":"B2094655D26FABF5429E","title":"明日星城一期","lon":"121.49416","lat":"31.2136","category":"47","category_name":"住宅区","address":"上海市黄浦区河南南路1号"},{"poiid":"B2094757D064A4FF409D","title":"馨园健身会所","lon":"121.49962988","lat":"31.212714478","category":"148","category_name":"美容美发店","address":"黄浦区南仓街118号"},{"poiid":"B2094757D069A3F9419E","title":"雅趣茶道(陆家浜店)","lon":"121.49487","lat":"31.21281","category":"260","category_name":"其他","address":"黄浦区陆家浜路693号(近跨龙路)"},{"poiid":"B2094757D464A6F9409D","title":"重庆鸡公煲 中华路店","lon":"121.497722054","lat":"31.215300793","category":"71","category_name":"四川菜","address":"黄浦区中华路629号(近小南门)"},{"poiid":"B2094757D069A1FD429F","title":"百花公寓","lon":"121.49553709864","lat":"31.213515823342","category":"47","category_name":"住宅区","address":"上海市黄浦区斜土东路158号"},{"poiid":"B2094655D26CAAFD4292","title":"金日世家","lon":"121.49523","lat":"31.211901","category":"47","category_name":"住宅区","address":"陆家浜路688弄1-10号"},{"poiid":"B2094757D065A7FC4992","title":"草堂鸡(中华路店)","lon":"121.4981","lat":"31.21488","category":"76","category_name":"上海菜","address":"黄浦区中华路624号(近董家渡路)"},{"poiid":"B2094654DA6FA3F9479E","title":"老程家酒楼","lon":"121.498988054","lat":"31.213633793","category":"76","category_name":"上海菜","address":"黄浦区东江阴街108号(近柳市路)"},{"poiid":"B2094655D26FA6F8489A","title":"浩城华苑","lon":"121.49599","lat":"31.21537","category":"47","category_name":"住宅区","address":"上海市黄浦区黄家路88弄"},{"poiid":"B2094654DB65A0FF439F","title":"莫泰168上海陆家浜路店","lon":"121.49789","lat":"31.21236","category":"216","category_name":"经济型连锁酒店","address":"黄浦区陆家浜路523号(近桑园街)"},{"poiid":"B2094757D068A3F5429F","title":"董家渡轻纺市场","lon":"121.49964141","lat":"31.21169281","category":"249","category_name":"购物服务","address":"上海陆家浜路399号"},{"poiid":"B2094757D068A1FD439C","title":"台湾一品茶 陆家浜路店","lon":"121.496242","lat":"31.21293","category":"113","category_name":"冷饮店","address":"黄浦区陆家浜路670号(近跨龙路)"},{"poiid":"B2094654DA6EA7FC4799","title":"上海市基督教清心堂","lon":"121.49523","lat":"31.21315","category":"245","category_name":"教堂","address":"大昌街30"},{"poiid":"B2094757D06AABFB489D","title":"明日星城二期","lon":"121.49499","lat":"31.214718","category":"500","category_name":"未知分类","address":"上海市黄浦区中华路868弄"},{"poiid":"B2094757D06FA0F94393","title":"普佰台球俱乐部","lon":"121.49830317","lat":"31.213041352","category":"171","category_name":"台球厅","address":"黄浦区陆家浜路521弄阳光翠竹苑5号楼B1(近南浦大桥)"},{"poiid":"B2094757D464A0FA4692","title":"乡家常菜","lon":"121.49823538886","lat":"31.211772994517","category":"71","category_name":"四川菜","address":"黄浦区陆家浜路458号(近海潮路)"},{"poiid":"B2094757D665A0F94592","title":"宏玉坊锅帖专卖","lon":"121.49578","lat":"31.21386","category":"68","category_name":"快餐厅","address":"黄浦区跨龙路65号(近陆家浜路)"},{"poiid":"B2094757D068A3FF4592","title":"久斯台球俱乐部(陆家浜路店)","lon":"121.49819","lat":"31.21099","category":"171","category_name":"台球厅","address":"黄浦区陆家浜路456号4楼(近海潮路)"},{"poiid":"B2094655D264A5FA4192","title":"赛元大厦","lon":"121.49786","lat":"31.21112","category":"46","category_name":"楼宇","address":"朝阳华威桥东北角"},{"poiid":"B2094757D16FA0FE439C","title":"黄浦区委党校","lon":"121.497523738","lat":"31.2116999053","category":"500","category_name":"未知分类","address":"上海市黄浦区陆家浜路500号"},{"poiid":"B209475CD76DA1F54198","title":"中华艺术宫","lon":"121.497512","lat":"31.212667","category":"500","category_name":"未知分类","address":"上海市 上南路"},{"poiid":"B2094654DB64A5FC499E","title":"味之都 浦江店 Wish Doing","lon":"121.49855001199","lat":"31.21131326048","category":"68","category_name":"快餐厅","address":"黄浦区陆家浜路436号(近海潮路)"},{"poiid":"B2094655D26BA6FB4693","title":"薡茶陆家浜路店","lon":"121.49547","lat":"31.21292","category":"113","category_name":"冷饮店","address":"黄浦区陆家浜路672号(近跨龙路)"},{"poiid":"B2094757D06BA0FB499C","title":"阳光翠竹苑二号楼","lon":"121.497284138","lat":"31.2127890285","category":"500","category_name":"未知分类","address":"上海市黄浦区陆家浜路521弄2号"},{"poiid":"B2094757D66DA2F9419C","title":"鼎茶","lon":"121.49753373","lat":"31.214567966","category":"247","category_name":"餐饮美食","address":"上海陆家浜路672号"},{"poiid":"B2094654DA6FA3F9449F","title":"上海市育辛进修学院","lon":"121.49603","lat":"31.21374","category":"54","category_name":"职业技术学校","address":"跨龙路81"},{"poiid":"B2094655D265A7FE449E","title":"喜士多便利小东门店","lon":"121.49786","lat":"31.21238","category":"117","category_name":"便民商店/便利店","address":"陆家浜路523号101室"},{"poiid":"B2094654DA6FA3F9479C","title":"超越千和形象设计沙龙","lon":"121.4985","lat":"31.21353","category":"148","category_name":"美容美发店","address":""},{"poiid":"B2094654DB65A1FA499F","title":"上海市民办东远高级中学","lon":"121.49609","lat":"31.2135","category":"55","category_name":"中学","address":""},{"poiid":"B2094655D265A4FA409D","title":"喜士多小东门门市","lon":"121.49798","lat":"31.21232","category":"117","category_name":"便民商店/便利店","address":"陆家浜路523-2"}]