[{"poiid":"B2094757DA6FA3F8429B","title":"老吉士酒家","lon":"121.437904","lat":"31.2031100000001","category":"76","category_name":"上海菜","address":"徐汇区天平路41号(近淮海中路)"},{"poiid":"B2094757D068AAF84199","title":"上海交通大学钱学森图书馆","lon":"121.435496989","lat":"31.2013391905","category":"181","category_name":"图书馆","address":"徐汇区华山路1800号"},{"poiid":"B2094757D06FA1F8449C","title":"Miao乌咖啡屋","lon":"121.43849358","lat":"31.201338866","category":"65","category_name":"咖啡厅","address":"徐汇区天平路91弄34号(近康平路)"},{"poiid":"B2094757D06EAAF4469F","title":"交通大学地铁站","lon":"121.434637","lat":"31.201981","category":"36","category_name":"地铁站","address":"上海轨道交通 十号线 轨交交通大学站 10"},{"poiid":"B2094757D068A2F44192","title":"宋庆龄故居","lon":"121.43891","lat":"31.20425","category":"260","category_name":"其他","address":"徐汇区淮海中路1843号(淮海中路余庆路)"},{"poiid":"B2094757D06FAAF4429B","title":"中村发型设计中心(华山路店)","lon":"121.43522","lat":"31.20261","category":"260","category_name":"其他","address":"上海徐汇区华山路1591号(淮海西路口)  "},{"poiid":"B2094757DA6EAAFC4198","title":"Aroom","lon":"121.435461000002","lat":"31.2060190000001","category":"260","category_name":"其他","address":"徐汇区泰安路120弄卫乐园15号(近华山路)"},{"poiid":"B2094654DB6BA7F5469A","title":"逸谷餐厅","lon":"121.43748","lat":"31.20458","category":"70","category_name":"综合酒楼","address":"徐汇区兴国路380号(近淮海中路)"},{"poiid":"B2094757D06FA5F84892","title":"中村发型设计中心(淮海中路店)","lon":"121.43946","lat":"31.20461","category":"148","category_name":"美容美发店","address":"徐汇区淮海中路1808号(近宋庆龄故居)"},{"poiid":"B2094654D564A6FC409F","title":"复旦中学","lon":"121.43437","lat":"31.20306","category":"55","category_name":"中学","address":"徐汇区华山路1626号(近淮海西路)"},{"poiid":"B2094757D469A3F9469E","title":"素人素食","lon":"121.434384","lat":"31.203704","category":"89","category_name":"中式素餐馆","address":"徐汇区华山路1585号(泰安路淮海西路)"},{"poiid":"B2094757D06AAAF5409D","title":"酷芝PIZZA COOLZEY","lon":"121.43455421439","lat":"31.20311280591","category":"94","category_name":"西餐厅","address":"徐汇区华山路1589号3号(近淮海中路)"},{"poiid":"B2094757D169ABF54599","title":"泰安路兴国路","lon":"121.43685808","lat":"31.205923289","category":"46","category_name":"楼宇","address":"上海泰安路兴国路"},{"poiid":"B2094757D068ABFE489F","title":"武康大楼(Normandie Apartments)","lon":"121.43832667","lat":"31.204479872","category":"47","category_name":"住宅区","address":"上海徐汇区淮海中路1836-1858号(武康路口)"},{"poiid":"B2094757D068A1FB499F","title":"圆苑酒家(兴国路店)","lon":"121.43766","lat":"31.20577","category":"76","category_name":"上海菜","address":"徐汇区兴国路201号(近泰安路)"},{"poiid":"B2094654DB6BA5F54193","title":"南洋模范中学","lon":"121.43667","lat":"31.20099","category":"55","category_name":"中学","address":"天平路200"},{"poiid":"B2094750D76EA2FF4799","title":"尊萃508公馆","lon":"121.436","lat":"31.2018","category":"76","category_name":"上海菜","address":"徐汇区华山路1731号(近淮海西路)"},{"poiid":"B2094750D665AAFC439A","title":"上海早晨","lon":"121.439","lat":"31.2021","category":"68","category_name":"快餐厅","address":"徐汇区余庆路80号"},{"poiid":"B2094757D464A7FD4699","title":"MARDI GRAS","lon":"121.436810054","lat":"31.205342793","category":"94","category_name":"西餐厅","address":"徐汇区兴国路372弄1号(近泰安路)"},{"poiid":"B2094654DA6DA3FF4292","title":"上海西华酒店公寓","lon":"121.43513","lat":"31.2018","category":"214","category_name":"四星级宾馆","address":"上海市徐汇区淮海西路1号(华山路口)"},{"poiid":"B2094750D26AABFC499B","title":"澄园","lon":"121.434806","lat":"31.204935","category":"260","category_name":"其他","address":"徐汇区泰安路115弄1号楼101室(近华山路)"},{"poiid":"B2094753D669A3F94093","title":"星巴克(武康路店)","lon":"121.437815","lat":"31.204325","category":"500","category_name":"未知分类","address":"上海市 上海市徐汇区武康路420号1F"},{"poiid":"B2094757D06FA0FD4693","title":"Shanghai Studio","lon":"121.4377","lat":"31.20369","category":"260","category_name":"其他","address":"徐汇区淮海中路1950弄4号(近天平路)"},{"poiid":"B2094757D06AA2FC409F","title":"复旦中学羽毛球馆","lon":"121.433770759","lat":"31.2032934808","category":"253","category_name":"校园生活","address":"上海徐汇区华山路1626号复旦中学体育馆内(近淮海西路)"},{"poiid":"B2094757D065A6F4489D","title":"1号线人民广场站","lon":"121.433984586","lat":"31.2019978789","category":"500","category_name":"未知分类","address":"上海人民广场"},{"poiid":"B2094655D26FA5FB4598","title":"缇咖园","lon":"121.436985054","lat":"31.205757793","category":"94","category_name":"西餐厅","address":"徐汇区泰安路50号(兴国路口)"},{"poiid":"B2094654DB6BA7F54593","title":"新亚大包 兴国路店","lon":"121.43739739493","lat":"31.204392216969","category":"68","category_name":"快餐厅","address":"徐汇区兴国路408号(近淮海中路武康路)"},{"poiid":"B2094757D069ABFC419B","title":"长颈鹿美语","lon":"121.436288","lat":"31.201712","category":"260","category_name":"其他","address":"徐汇区华山路1751号海斯大厦3楼(近淮海西路)"},{"poiid":"B2094757D169A2FE4492","title":"FC Styling House","lon":"121.437851586","lat":"31.2033589056","category":"500","category_name":"未知分类","address":"上海天平路30号(近淮海中路)"},{"poiid":"B2094654DA6DABF84093","title":"上海沪剧院(东门)","lon":"121.4375","lat":"31.20307","category":"180","category_name":"剧场","address":"天平路38号甲"},{"poiid":"B2094655D36CA0F5419B","title":"淮海中路武康路","lon":"121.4387","lat":"31.20445","category":"38","category_name":"公交车站","address":""},{"poiid":"B2094757D169A5F84593","title":"fox town","lon":"121.436858586","lat":"31.2034359071","category":"500","category_name":"未知分类","address":"上海零陵路"},{"poiid":"B2094654D564A4FE409E","title":"淮海别墅","lon":"121.4367","lat":"31.203913","category":"47","category_name":"住宅区","address":"淮海中路1984弄1-37号"},{"poiid":"B2094757D069AAFF4299","title":"华山花苑","lon":"121.4355","lat":"31.203335","category":"252","category_name":"楼宇机构","address":"上海华山路1615号"},{"poiid":"B2094655D26EA1FF469D","title":"金凤凰酒家","lon":"121.43513","lat":"31.2018","category":"247","category_name":"餐饮美食","address":"长宁区淮海西路1号西华酒店公寓4-5楼(华山路口)"},{"poiid":"B2094757D06AA5F54292","title":"蒲记","lon":"121.43498","lat":"31.20357","category":"72","category_name":"广东菜","address":"徐汇区华山路1597号(近淮海中路)"},{"poiid":"B2094654DA6DA3FA489B","title":"南洋大楼","lon":"121.436","lat":"31.2052","category":"46","category_name":"楼宇","address":"徐汇区番禺路667号"},{"poiid":"B2094655D26BA2F8499B","title":"天平路淮海中路","lon":"121.43785","lat":"31.20321","category":"38","category_name":"公交车站","address":""},{"poiid":"B2094655D26BA0FE439B","title":"恒力艺术馆","lon":"121.43598","lat":"31.20286","category":"183","category_name":"展览馆","address":"淮海中路2038-2临"},{"poiid":"B2094751D368A1FC409B","title":"Daga Cafe","lon":"121.4376","lat":"31.206","category":"247","category_name":"餐饮美食","address":"徐汇区泰安路36号(近兴国路)"},{"poiid":"B2094655D268A3FB449B","title":"Eddys Bar","lon":"121.43775","lat":"31.20345","category":"172","category_name":"酒吧","address":""},{"poiid":"B2094655D268A7F9419B","title":"华山花苑(南门)","lon":"121.43657","lat":"31.20321","category":"656","category_name":"大门","address":"淮海中路2006弄6-16号"},{"poiid":"B2094757D064ABFD489E","title":"岳阳路","lon":"121.438097819","lat":"31.2038700822","category":"500","category_name":"未知分类","address":"上海岳阳路"},{"poiid":"B2094655D268A3FB4392","title":"杜重远寓所","lon":"121.43664","lat":"31.20273","category":"243","category_name":"纪念馆","address":"徐汇区淮海中路1897号"},{"poiid":"B2094757D568A4FE4493","title":"一介书屋","lon":"121.4366433","lat":"31.20307889","category":"125","category_name":"书店","address":"卢湾区淮海中路2016号(华山路淮海西路)"},{"poiid":"B2094757D168AAF8409A","title":"永和豆浆","lon":"121.434330586","lat":"31.2038849158","category":"68","category_name":"快餐厅","address":"徐汇区华山路1603号(华山路淮海西路)"},{"poiid":"B2094655D26EA5FF429A","title":"浦江之星(上海徐家汇店)","lon":"121.43475","lat":"31.20329","category":"250","category_name":"公园户外","address":"徐汇区华山路1621号(近淮海西路)"},{"poiid":"B2094757D16CA3FB4293","title":"淮海西路","lon":"121.434335","lat":"31.204117","category":"500","category_name":"未知分类","address":"上海淮海西路"},{"poiid":"B2094757D06FAAFE439A","title":"喜客咖啡(武康店)","lon":"121.43839","lat":"31.20458","category":"260","category_name":"其他","address":"徐汇区武康路420号(近兴国路)"},{"poiid":"B2094757D069A2FB409C","title":"莎拂利(天平店)","lon":"121.43762","lat":"31.20045","category":"94","category_name":"西餐厅","address":"徐汇区天平路220号(近康平路)"},{"poiid":"B2094757DA6FA3F8429B","title":"老吉士酒家","lon":"121.437904","lat":"31.2031100000001","category":"76","category_name":"上海菜","address":"徐汇区天平路41号(近淮海中路)"},{"poiid":"B2094757D068AAF84199","title":"上海交通大学钱学森图书馆","lon":"121.435496989","lat":"31.2013391905","category":"181","category_name":"图书馆","address":"徐汇区华山路1800号"},{"poiid":"B2094757D06FA1F8449C","title":"Miao乌咖啡屋","lon":"121.43849358","lat":"31.201338866","category":"65","category_name":"咖啡厅","address":"徐汇区天平路91弄34号(近康平路)"},{"poiid":"B2094757D06EAAF4469F","title":"交通大学地铁站","lon":"121.434637","lat":"31.201981","category":"36","category_name":"地铁站","address":"上海轨道交通 十号线 轨交交通大学站 10"},{"poiid":"B2094757D068A2F44192","title":"宋庆龄故居","lon":"121.43891","lat":"31.20425","category":"260","category_name":"其他","address":"徐汇区淮海中路1843号(淮海中路余庆路)"},{"poiid":"B2094757D06FAAF4429B","title":"中村发型设计中心(华山路店)","lon":"121.43522","lat":"31.20261","category":"260","category_name":"其他","address":"上海徐汇区华山路1591号(淮海西路口)  "},{"poiid":"B2094757DA6EAAFC4198","title":"Aroom","lon":"121.435461000002","lat":"31.2060190000001","category":"260","category_name":"其他","address":"徐汇区泰安路120弄卫乐园15号(近华山路)"},{"poiid":"B2094654DB6BA7F5469A","title":"逸谷餐厅","lon":"121.43748","lat":"31.20458","category":"70","category_name":"综合酒楼","address":"徐汇区兴国路380号(近淮海中路)"},{"poiid":"B2094757D06FA5F84892","title":"中村发型设计中心(淮海中路店)","lon":"121.43946","lat":"31.20461","category":"148","category_name":"美容美发店","address":"徐汇区淮海中路1808号(近宋庆龄故居)"},{"poiid":"B2094654D564A6FC409F","title":"复旦中学","lon":"121.43437","lat":"31.20306","category":"55","category_name":"中学","address":"徐汇区华山路1626号(近淮海西路)"},{"poiid":"B2094757D469A3F9469E","title":"素人素食","lon":"121.434384","lat":"31.203704","category":"89","category_name":"中式素餐馆","address":"徐汇区华山路1585号(泰安路淮海西路)"},{"poiid":"B2094757D06AAAF5409D","title":"酷芝PIZZA COOLZEY","lon":"121.43455421439","lat":"31.20311280591","category":"94","category_name":"西餐厅","address":"徐汇区华山路1589号3号(近淮海中路)"},{"poiid":"B2094757D169ABF54599","title":"泰安路兴国路","lon":"121.43685808","lat":"31.205923289","category":"46","category_name":"楼宇","address":"上海泰安路兴国路"},{"poiid":"B2094757D068ABFE489F","title":"武康大楼(Normandie Apartments)","lon":"121.43832667","lat":"31.204479872","category":"47","category_name":"住宅区","address":"上海徐汇区淮海中路1836-1858号(武康路口)"},{"poiid":"B2094757D068A1FB499F","title":"圆苑酒家(兴国路店)","lon":"121.43766","lat":"31.20577","category":"76","category_name":"上海菜","address":"徐汇区兴国路201号(近泰安路)"},{"poiid":"B2094654DB6BA5F54193","title":"南洋模范中学","lon":"121.43667","lat":"31.20099","category":"55","category_name":"中学","address":"天平路200"},{"poiid":"B2094750D76EA2FF4799","title":"尊萃508公馆","lon":"121.436","lat":"31.2018","category":"76","category_name":"上海菜","address":"徐汇区华山路1731号(近淮海西路)"},{"poiid":"B2094750D665AAFC439A","title":"上海早晨","lon":"121.439","lat":"31.2021","category":"68","category_name":"快餐厅","address":"徐汇区余庆路80号"},{"poiid":"B2094757D464A7FD4699","title":"MARDI GRAS","lon":"121.436810054","lat":"31.205342793","category":"94","category_name":"西餐厅","address":"徐汇区兴国路372弄1号(近泰安路)"},{"poiid":"B2094654DA6DA3FF4292","title":"上海西华酒店公寓","lon":"121.43513","lat":"31.2018","category":"214","category_name":"四星级宾馆","address":"上海市徐汇区淮海西路1号(华山路口)"},{"poiid":"B2094750D26AABFC499B","title":"澄园","lon":"121.434806","lat":"31.204935","category":"260","category_name":"其他","address":"徐汇区泰安路115弄1号楼101室(近华山路)"},{"poiid":"B2094753D669A3F94093","title":"星巴克(武康路店)","lon":"121.437815","lat":"31.204325","category":"500","category_name":"未知分类","address":"上海市 上海市徐汇区武康路420号1F"},{"poiid":"B2094757D06FA0FD4693","title":"Shanghai Studio","lon":"121.4377","lat":"31.20369","category":"260","category_name":"其他","address":"徐汇区淮海中路1950弄4号(近天平路)"},{"poiid":"B2094757D06AA2FC409F","title":"复旦中学羽毛球馆","lon":"121.433770759","lat":"31.2032934808","category":"253","category_name":"校园生活","address":"上海徐汇区华山路1626号复旦中学体育馆内(近淮海西路)"},{"poiid":"B2094757D065A6F4489D","title":"1号线人民广场站","lon":"121.433984586","lat":"31.2019978789","category":"500","category_name":"未知分类","address":"上海人民广场"},{"poiid":"B2094655D26FA5FB4598","title":"缇咖园","lon":"121.436985054","lat":"31.205757793","category":"94","category_name":"西餐厅","address":"徐汇区泰安路50号(兴国路口)"},{"poiid":"B2094654DB6BA7F54593","title":"新亚大包 兴国路店","lon":"121.43739739493","lat":"31.204392216969","category":"68","category_name":"快餐厅","address":"徐汇区兴国路408号(近淮海中路武康路)"},{"poiid":"B2094757D069ABFC419B","title":"长颈鹿美语","lon":"121.436288","lat":"31.201712","category":"260","category_name":"其他","address":"徐汇区华山路1751号海斯大厦3楼(近淮海西路)"},{"poiid":"B2094757D169A2FE4492","title":"FC Styling House","lon":"121.437851586","lat":"31.2033589056","category":"500","category_name":"未知分类","address":"上海天平路30号(近淮海中路)"},{"poiid":"B2094654DA6DABF84093","title":"上海沪剧院(东门)","lon":"121.4375","lat":"31.20307","category":"180","category_name":"剧场","address":"天平路38号甲"},{"poiid":"B2094655D36CA0F5419B","title":"淮海中路武康路","lon":"121.4387","lat":"31.20445","category":"38","category_name":"公交车站","address":""},{"poiid":"B2094757D169A5F84593","title":"fox town","lon":"121.436858586","lat":"31.2034359071","category":"500","category_name":"未知分类","address":"上海零陵路"},{"poiid":"B2094654D564A4FE409E","title":"淮海别墅","lon":"121.4367","lat":"31.203913","category":"47","category_name":"住宅区","address":"淮海中路1984弄1-37号"},{"poiid":"B2094757D069AAFF4299","title":"华山花苑","lon":"121.4355","lat":"31.203335","category":"252","category_name":"楼宇机构","address":"上海华山路1615号"},{"poiid":"B2094655D26EA1FF469D","title":"金凤凰酒家","lon":"121.43513","lat":"31.2018","category":"247","category_name":"餐饮美食","address":"长宁区淮海西路1号西华酒店公寓4-5楼(华山路口)"},{"poiid":"B2094757D06AA5F54292","title":"蒲记","lon":"121.43498","lat":"31.20357","category":"72","category_name":"广东菜","address":"徐汇区华山路1597号(近淮海中路)"},{"poiid":"B2094654DA6DA3FA489B","title":"南洋大楼","lon":"121.436","lat":"31.2052","category":"46","category_name":"楼宇","address":"徐汇区番禺路667号"},{"poiid":"B2094655D26BA2F8499B","title":"天平路淮海中路","lon":"121.43785","lat":"31.20321","category":"38","category_name":"公交车站","address":""},{"poiid":"B2094655D26BA0FE439B","title":"恒力艺术馆","lon":"121.43598","lat":"31.20286","category":"183","category_name":"展览馆","address":"淮海中路2038-2临"},{"poiid":"B2094751D368A1FC409B","title":"Daga Cafe","lon":"121.4376","lat":"31.206","category":"247","category_name":"餐饮美食","address":"徐汇区泰安路36号(近兴国路)"},{"poiid":"B2094655D268A3FB449B","title":"Eddys Bar","lon":"121.43775","lat":"31.20345","category":"172","category_name":"酒吧","address":""},{"poiid":"B2094655D268A7F9419B","title":"华山花苑(南门)","lon":"121.43657","lat":"31.20321","category":"656","category_name":"大门","address":"淮海中路2006弄6-16号"},{"poiid":"B2094757D064ABFD489E","title":"岳阳路","lon":"121.438097819","lat":"31.2038700822","category":"500","category_name":"未知分类","address":"上海岳阳路"},{"poiid":"B2094655D268A3FB4392","title":"杜重远寓所","lon":"121.43664","lat":"31.20273","category":"243","category_name":"纪念馆","address":"徐汇区淮海中路1897号"},{"poiid":"B2094757D568A4FE4493","title":"一介书屋","lon":"121.4366433","lat":"31.20307889","category":"125","category_name":"书店","address":"卢湾区淮海中路2016号(华山路淮海西路)"},{"poiid":"B2094757D168AAF8409A","title":"永和豆浆","lon":"121.434330586","lat":"31.2038849158","category":"68","category_name":"快餐厅","address":"徐汇区华山路1603号(华山路淮海西路)"},{"poiid":"B2094655D26EA5FF429A","title":"浦江之星(上海徐家汇店)","lon":"121.43475","lat":"31.20329","category":"250","category_name":"公园户外","address":"徐汇区华山路1621号(近淮海西路)"},{"poiid":"B2094757D16CA3FB4293","title":"淮海西路","lon":"121.434335","lat":"31.204117","category":"500","category_name":"未知分类","address":"上海淮海西路"},{"poiid":"B2094757D06FAAFE439A","title":"喜客咖啡(武康店)","lon":"121.43839","lat":"31.20458","category":"260","category_name":"其他","address":"徐汇区武康路420号(近兴国路)"},{"poiid":"B2094757D069A2FB409C","title":"莎拂利(天平店)","lon":"121.43762","lat":"31.20045","category":"94","category_name":"西餐厅","address":"徐汇区天平路220号(近康平路)"},{"poiid":"B2094757DA6FA3F8429B","title":"老吉士酒家","lon":"121.437904","lat":"31.2031100000001","category":"76","category_name":"上海菜","address":"徐汇区天平路41号(近淮海中路)"},{"poiid":"B2094757D068AAF84199","title":"上海交通大学钱学森图书馆","lon":"121.435496989","lat":"31.2013391905","category":"181","category_name":"图书馆","address":"徐汇区华山路1800号"},{"poiid":"B2094757D06FA1F8449C","title":"Miao乌咖啡屋","lon":"121.43849358","lat":"31.201338866","category":"65","category_name":"咖啡厅","address":"徐汇区天平路91弄34号(近康平路)"},{"poiid":"B2094757D06EAAF4469F","title":"交通大学地铁站","lon":"121.434637","lat":"31.201981","category":"36","category_name":"地铁站","address":"上海轨道交通 十号线 轨交交通大学站 10"},{"poiid":"B2094757D068A2F44192","title":"宋庆龄故居","lon":"121.43891","lat":"31.20425","category":"260","category_name":"其他","address":"徐汇区淮海中路1843号(淮海中路余庆路)"},{"poiid":"B2094757D06FAAF4429B","title":"中村发型设计中心(华山路店)","lon":"121.43522","lat":"31.20261","category":"260","category_name":"其他","address":"上海徐汇区华山路1591号(淮海西路口)  "},{"poiid":"B2094757DA6EAAFC4198","title":"Aroom","lon":"121.435461000002","lat":"31.2060190000001","category":"260","category_name":"其他","address":"徐汇区泰安路120弄卫乐园15号(近华山路)"},{"poiid":"B2094654DB6BA7F5469A","title":"逸谷餐厅","lon":"121.43748","lat":"31.20458","category":"70","category_name":"综合酒楼","address":"徐汇区兴国路380号(近淮海中路)"},{"poiid":"B2094757D06FA5F84892","title":"中村发型设计中心(淮海中路店)","lon":"121.43946","lat":"31.20461","category":"148","category_name":"美容美发店","address":"徐汇区淮海中路1808号(近宋庆龄故居)"},{"poiid":"B2094654D564A6FC409F","title":"复旦中学","lon":"121.43437","lat":"31.20306","category":"55","category_name":"中学","address":"徐汇区华山路1626号(近淮海西路)"},{"poiid":"B2094757D469A3F9469E","title":"素人素食","lon":"121.434384","lat":"31.203704","category":"89","category_name":"中式素餐馆","address":"徐汇区华山路1585号(泰安路淮海西路)"},{"poiid":"B2094757D06AAAF5409D","title":"酷芝PIZZA COOLZEY","lon":"121.43455421439","lat":"31.20311280591","category":"94","category_name":"西餐厅","address":"徐汇区华山路1589号3号(近淮海中路)"},{"poiid":"B2094757D169ABF54599","title":"泰安路兴国路","lon":"121.43685808","lat":"31.205923289","category":"46","category_name":"楼宇","address":"上海泰安路兴国路"},{"poiid":"B2094757D068ABFE489F","title":"武康大楼(Normandie Apartments)","lon":"121.43832667","lat":"31.204479872","category":"47","category_name":"住宅区","address":"上海徐汇区淮海中路1836-1858号(武康路口)"},{"poiid":"B2094757D068A1FB499F","title":"圆苑酒家(兴国路店)","lon":"121.43766","lat":"31.20577","category":"76","category_name":"上海菜","address":"徐汇区兴国路201号(近泰安路)"},{"poiid":"B2094654DB6BA5F54193","title":"南洋模范中学","lon":"121.43667","lat":"31.20099","category":"55","category_name":"中学","address":"天平路200"},{"poiid":"B2094750D76EA2FF4799","title":"尊萃508公馆","lon":"121.436","lat":"31.2018","category":"76","category_name":"上海菜","address":"徐汇区华山路1731号(近淮海西路)"},{"poiid":"B2094750D665AAFC439A","title":"上海早晨","lon":"121.439","lat":"31.2021","category":"68","category_name":"快餐厅","address":"徐汇区余庆路80号"},{"poiid":"B2094757D464A7FD4699","title":"MARDI GRAS","lon":"121.436810054","lat":"31.205342793","category":"94","category_name":"西餐厅","address":"徐汇区兴国路372弄1号(近泰安路)"},{"poiid":"B2094654DA6DA3FF4292","title":"上海西华酒店公寓","lon":"121.43513","lat":"31.2018","category":"214","category_name":"四星级宾馆","address":"上海市徐汇区淮海西路1号(华山路口)"},{"poiid":"B2094750D26AABFC499B","title":"澄园","lon":"121.434806","lat":"31.204935","category":"260","category_name":"其他","address":"徐汇区泰安路115弄1号楼101室(近华山路)"},{"poiid":"B2094753D669A3F94093","title":"星巴克(武康路店)","lon":"121.437815","lat":"31.204325","category":"500","category_name":"未知分类","address":"上海市 上海市徐汇区武康路420号1F"},{"poiid":"B2094757D06FA0FD4693","title":"Shanghai Studio","lon":"121.4377","lat":"31.20369","category":"260","category_name":"其他","address":"徐汇区淮海中路1950弄4号(近天平路)"},{"poiid":"B2094757D06AA2FC409F","title":"复旦中学羽毛球馆","lon":"121.433770759","lat":"31.2032934808","category":"253","category_name":"校园生活","address":"上海徐汇区华山路1626号复旦中学体育馆内(近淮海西路)"},{"poiid":"B2094757D065A6F4489D","title":"1号线人民广场站","lon":"121.433984586","lat":"31.2019978789","category":"500","category_name":"未知分类","address":"上海人民广场"},{"poiid":"B2094655D26FA5FB4598","title":"缇咖园","lon":"121.436985054","lat":"31.205757793","category":"94","category_name":"西餐厅","address":"徐汇区泰安路50号(兴国路口)"},{"poiid":"B2094654DB6BA7F54593","title":"新亚大包 兴国路店","lon":"121.43739739493","lat":"31.204392216969","category":"68","category_name":"快餐厅","address":"徐汇区兴国路408号(近淮海中路武康路)"},{"poiid":"B2094757D069ABFC419B","title":"长颈鹿美语","lon":"121.436288","lat":"31.201712","category":"260","category_name":"其他","address":"徐汇区华山路1751号海斯大厦3楼(近淮海西路)"},{"poiid":"B2094757D169A2FE4492","title":"FC Styling House","lon":"121.437851586","lat":"31.2033589056","category":"500","category_name":"未知分类","address":"上海天平路30号(近淮海中路)"},{"poiid":"B2094654DA6DABF84093","title":"上海沪剧院(东门)","lon":"121.4375","lat":"31.20307","category":"180","category_name":"剧场","address":"天平路38号甲"},{"poiid":"B2094655D36CA0F5419B","title":"淮海中路武康路","lon":"121.4387","lat":"31.20445","category":"38","category_name":"公交车站","address":""},{"poiid":"B2094757D169A5F84593","title":"fox town","lon":"121.436858586","lat":"31.2034359071","category":"500","category_name":"未知分类","address":"上海零陵路"},{"poiid":"B2094654D564A4FE409E","title":"淮海别墅","lon":"121.4367","lat":"31.203913","category":"47","category_name":"住宅区","address":"淮海中路1984弄1-37号"},{"poiid":"B2094757D069AAFF4299","title":"华山花苑","lon":"121.4355","lat":"31.203335","category":"252","category_name":"楼宇机构","address":"上海华山路1615号"},{"poiid":"B2094655D26EA1FF469D","title":"金凤凰酒家","lon":"121.43513","lat":"31.2018","category":"247","category_name":"餐饮美食","address":"长宁区淮海西路1号西华酒店公寓4-5楼(华山路口)"},{"poiid":"B2094757D06AA5F54292","title":"蒲记","lon":"121.43498","lat":"31.20357","category":"72","category_name":"广东菜","address":"徐汇区华山路1597号(近淮海中路)"},{"poiid":"B2094654DA6DA3FA489B","title":"南洋大楼","lon":"121.436","lat":"31.2052","category":"46","category_name":"楼宇","address":"徐汇区番禺路667号"},{"poiid":"B2094655D26BA2F8499B","title":"天平路淮海中路","lon":"121.43785","lat":"31.20321","category":"38","category_name":"公交车站","address":""},{"poiid":"B2094655D26BA0FE439B","title":"恒力艺术馆","lon":"121.43598","lat":"31.20286","category":"183","category_name":"展览馆","address":"淮海中路2038-2临"},{"poiid":"B2094751D368A1FC409B","title":"Daga Cafe","lon":"121.4376","lat":"31.206","category":"247","category_name":"餐饮美食","address":"徐汇区泰安路36号(近兴国路)"},{"poiid":"B2094655D268A3FB449B","title":"Eddys Bar","lon":"121.43775","lat":"31.20345","category":"172","category_name":"酒吧","address":""},{"poiid":"B2094655D268A7F9419B","title":"华山花苑(南门)","lon":"121.43657","lat":"31.20321","category":"656","category_name":"大门","address":"淮海中路2006弄6-16号"},{"poiid":"B2094757D064ABFD489E","title":"岳阳路","lon":"121.438097819","lat":"31.2038700822","category":"500","category_name":"未知分类","address":"上海岳阳路"},{"poiid":"B2094655D268A3FB4392","title":"杜重远寓所","lon":"121.43664","lat":"31.20273","category":"243","category_name":"纪念馆","address":"徐汇区淮海中路1897号"},{"poiid":"B2094757D568A4FE4493","title":"一介书屋","lon":"121.4366433","lat":"31.20307889","category":"125","category_name":"书店","address":"卢湾区淮海中路2016号(华山路淮海西路)"},{"poiid":"B2094757D168AAF8409A","title":"永和豆浆","lon":"121.434330586","lat":"31.2038849158","category":"68","category_name":"快餐厅","address":"徐汇区华山路1603号(华山路淮海西路)"},{"poiid":"B2094655D26EA5FF429A","title":"浦江之星(上海徐家汇店)","lon":"121.43475","lat":"31.20329","category":"250","category_name":"公园户外","address":"徐汇区华山路1621号(近淮海西路)"},{"poiid":"B2094757D16CA3FB4293","title":"淮海西路","lon":"121.434335","lat":"31.204117","category":"500","category_name":"未知分类","address":"上海淮海西路"},{"poiid":"B2094757D06FAAFE439A","title":"喜客咖啡(武康店)","lon":"121.43839","lat":"31.20458","category":"260","category_name":"其他","address":"徐汇区武康路420号(近兴国路)"},{"poiid":"B2094757D069A2FB409C","title":"莎拂利(天平店)","lon":"121.43762","lat":"31.20045","category":"94","category_name":"西餐厅","address":"徐汇区天平路220号(近康平路)"},{"poiid":"B2094757DA6FA3F8429B","title":"老吉士酒家","lon":"121.437904","lat":"31.2031100000001","category":"76","category_name":"上海菜","address":"徐汇区天平路41号(近淮海中路)"},{"poiid":"B2094757D068AAF84199","title":"上海交通大学钱学森图书馆","lon":"121.435496989","lat":"31.2013391905","category":"181","category_name":"图书馆","address":"徐汇区华山路1800号"},{"poiid":"B2094757D06FA1F8449C","title":"Miao乌咖啡屋","lon":"121.43849358","lat":"31.201338866","category":"65","category_name":"咖啡厅","address":"徐汇区天平路91弄34号(近康平路)"},{"poiid":"B2094757D06EAAF4469F","title":"交通大学地铁站","lon":"121.434637","lat":"31.201981","category":"36","category_name":"地铁站","address":"上海轨道交通 十号线 轨交交通大学站 10"},{"poiid":"B2094757D068A2F44192","title":"宋庆龄故居","lon":"121.43891","lat":"31.20425","category":"260","category_name":"其他","address":"徐汇区淮海中路1843号(淮海中路余庆路)"},{"poiid":"B2094757D06FAAF4429B","title":"中村发型设计中心(华山路店)","lon":"121.43522","lat":"31.20261","category":"260","category_name":"其他","address":"上海徐汇区华山路1591号(淮海西路口)  "},{"poiid":"B2094757DA6EAAFC4198","title":"Aroom","lon":"121.435461000002","lat":"31.2060190000001","category":"260","category_name":"其他","address":"徐汇区泰安路120弄卫乐园15号(近华山路)"},{"poiid":"B2094654DB6BA7F5469A","title":"逸谷餐厅","lon":"121.43748","lat":"31.20458","category":"70","category_name":"综合酒楼","address":"徐汇区兴国路380号(近淮海中路)"},{"poiid":"B2094757D06FA5F84892","title":"中村发型设计中心(淮海中路店)","lon":"121.43946","lat":"31.20461","category":"148","category_name":"美容美发店","address":"徐汇区淮海中路1808号(近宋庆龄故居)"},{"poiid":"B2094654D564A6FC409F","title":"复旦中学","lon":"121.43437","lat":"31.20306","category":"55","category_name":"中学","address":"徐汇区华山路1626号(近淮海西路)"},{"poiid":"B2094757D469A3F9469E","title":"素人素食","lon":"121.434384","lat":"31.203704","category":"89","category_name":"中式素餐馆","address":"徐汇区华山路1585号(泰安路淮海西路)"},{"poiid":"B2094757D06AAAF5409D","title":"酷芝PIZZA COOLZEY","lon":"121.43455421439","lat":"31.20311280591","category":"94","category_name":"西餐厅","address":"徐汇区华山路1589号3号(近淮海中路)"},{"poiid":"B2094757D169ABF54599","title":"泰安路兴国路","lon":"121.43685808","lat":"31.205923289","category":"46","category_name":"楼宇","address":"上海泰安路兴国路"},{"poiid":"B2094757D068ABFE489F","title":"武康大楼(Normandie Apartments)","lon":"121.43832667","lat":"31.204479872","category":"47","category_name":"住宅区","address":"上海徐汇区淮海中路1836-1858号(武康路口)"},{"poiid":"B2094757D068A1FB499F","title":"圆苑酒家(兴国路店)","lon":"121.43766","lat":"31.20577","category":"76","category_name":"上海菜","address":"徐汇区兴国路201号(近泰安路)"},{"poiid":"B2094654DB6BA5F54193","title":"南洋模范中学","lon":"121.43667","lat":"31.20099","category":"55","category_name":"中学","address":"天平路200"},{"poiid":"B2094750D76EA2FF4799","title":"尊萃508公馆","lon":"121.436","lat":"31.2018","category":"76","category_name":"上海菜","address":"徐汇区华山路1731号(近淮海西路)"},{"poiid":"B2094750D665AAFC439A","title":"上海早晨","lon":"121.439","lat":"31.2021","category":"68","category_name":"快餐厅","address":"徐汇区余庆路80号"},{"poiid":"B2094757D464A7FD4699","title":"MARDI GRAS","lon":"121.436810054","lat":"31.205342793","category":"94","category_name":"西餐厅","address":"徐汇区兴国路372弄1号(近泰安路)"},{"poiid":"B2094654DA6DA3FF4292","title":"上海西华酒店公寓","lon":"121.43513","lat":"31.2018","category":"214","category_name":"四星级宾馆","address":"上海市徐汇区淮海西路1号(华山路口)"},{"poiid":"B2094750D26AABFC499B","title":"澄园","lon":"121.434806","lat":"31.204935","category":"260","category_name":"其他","address":"徐汇区泰安路115弄1号楼101室(近华山路)"},{"poiid":"B2094753D669A3F94093","title":"星巴克(武康路店)","lon":"121.437815","lat":"31.204325","category":"500","category_name":"未知分类","address":"上海市 上海市徐汇区武康路420号1F"},{"poiid":"B2094757D06FA0FD4693","title":"Shanghai Studio","lon":"121.4377","lat":"31.20369","category":"260","category_name":"其他","address":"徐汇区淮海中路1950弄4号(近天平路)"},{"poiid":"B2094757D06AA2FC409F","title":"复旦中学羽毛球馆","lon":"121.433770759","lat":"31.2032934808","category":"253","category_name":"校园生活","address":"上海徐汇区华山路1626号复旦中学体育馆内(近淮海西路)"},{"poiid":"B2094757D065A6F4489D","title":"1号线人民广场站","lon":"121.433984586","lat":"31.2019978789","category":"500","category_name":"未知分类","address":"上海人民广场"},{"poiid":"B2094655D26FA5FB4598","title":"缇咖园","lon":"121.436985054","lat":"31.205757793","category":"94","category_name":"西餐厅","address":"徐汇区泰安路50号(兴国路口)"},{"poiid":"B2094654DB6BA7F54593","title":"新亚大包 兴国路店","lon":"121.43739739493","lat":"31.204392216969","category":"68","category_name":"快餐厅","address":"徐汇区兴国路408号(近淮海中路武康路)"},{"poiid":"B2094757D069ABFC419B","title":"长颈鹿美语","lon":"121.436288","lat":"31.201712","category":"260","category_name":"其他","address":"徐汇区华山路1751号海斯大厦3楼(近淮海西路)"},{"poiid":"B2094757D169A2FE4492","title":"FC Styling House","lon":"121.437851586","lat":"31.2033589056","category":"500","category_name":"未知分类","address":"上海天平路30号(近淮海中路)"},{"poiid":"B2094654DA6DABF84093","title":"上海沪剧院(东门)","lon":"121.4375","lat":"31.20307","category":"180","category_name":"剧场","address":"天平路38号甲"},{"poiid":"B2094655D36CA0F5419B","title":"淮海中路武康路","lon":"121.4387","lat":"31.20445","category":"38","category_name":"公交车站","address":""},{"poiid":"B2094757D169A5F84593","title":"fox town","lon":"121.436858586","lat":"31.2034359071","category":"500","category_name":"未知分类","address":"上海零陵路"},{"poiid":"B2094654D564A4FE409E","title":"淮海别墅","lon":"121.4367","lat":"31.203913","category":"47","category_name":"住宅区","address":"淮海中路1984弄1-37号"},{"poiid":"B2094757D069AAFF4299","title":"华山花苑","lon":"121.4355","lat":"31.203335","category":"252","category_name":"楼宇机构","address":"上海华山路1615号"},{"poiid":"B2094655D26EA1FF469D","title":"金凤凰酒家","lon":"121.43513","lat":"31.2018","category":"247","category_name":"餐饮美食","address":"长宁区淮海西路1号西华酒店公寓4-5楼(华山路口)"},{"poiid":"B2094757D06AA5F54292","title":"蒲记","lon":"121.43498","lat":"31.20357","category":"72","category_name":"广东菜","address":"徐汇区华山路1597号(近淮海中路)"},{"poiid":"B2094654DA6DA3FA489B","title":"南洋大楼","lon":"121.436","lat":"31.2052","category":"46","category_name":"楼宇","address":"徐汇区番禺路667号"},{"poiid":"B2094655D26BA2F8499B","title":"天平路淮海中路","lon":"121.43785","lat":"31.20321","category":"38","category_name":"公交车站","address":""},{"poiid":"B2094655D26BA0FE439B","title":"恒力艺术馆","lon":"121.43598","lat":"31.20286","category":"183","category_name":"展览馆","address":"淮海中路2038-2临"},{"poiid":"B2094751D368A1FC409B","title":"Daga Cafe","lon":"121.4376","lat":"31.206","category":"247","category_name":"餐饮美食","address":"徐汇区泰安路36号(近兴国路)"},{"poiid":"B2094655D268A3FB449B","title":"Eddys Bar","lon":"121.43775","lat":"31.20345","category":"172","category_name":"酒吧","address":""},{"poiid":"B2094655D268A7F9419B","title":"华山花苑(南门)","lon":"121.43657","lat":"31.20321","category":"656","category_name":"大门","address":"淮海中路2006弄6-16号"},{"poiid":"B2094757D064ABFD489E","title":"岳阳路","lon":"121.438097819","lat":"31.2038700822","category":"500","category_name":"未知分类","address":"上海岳阳路"},{"poiid":"B2094655D268A3FB4392","title":"杜重远寓所","lon":"121.43664","lat":"31.20273","category":"243","category_name":"纪念馆","address":"徐汇区淮海中路1897号"},{"poiid":"B2094757D568A4FE4493","title":"一介书屋","lon":"121.4366433","lat":"31.20307889","category":"125","category_name":"书店","address":"卢湾区淮海中路2016号(华山路淮海西路)"},{"poiid":"B2094757D168AAF8409A","title":"永和豆浆","lon":"121.434330586","lat":"31.2038849158","category":"68","category_name":"快餐厅","address":"徐汇区华山路1603号(华山路淮海西路)"},{"poiid":"B2094655D26EA5FF429A","title":"浦江之星(上海徐家汇店)","lon":"121.43475","lat":"31.20329","category":"250","category_name":"公园户外","address":"徐汇区华山路1621号(近淮海西路)"},{"poiid":"B2094757D16CA3FB4293","title":"淮海西路","lon":"121.434335","lat":"31.204117","category":"500","category_name":"未知分类","address":"上海淮海西路"},{"poiid":"B2094757D06FAAFE439A","title":"喜客咖啡(武康店)","lon":"121.43839","lat":"31.20458","category":"260","category_name":"其他","address":"徐汇区武康路420号(近兴国路)"},{"poiid":"B2094757D069A2FB409C","title":"莎拂利(天平店)","lon":"121.43762","lat":"31.20045","category":"94","category_name":"西餐厅","address":"徐汇区天平路220号(近康平路)"}]