[{"poiid":"B2094757D06FA7F4409B","title":"金桥路浦东大道","lon":"121.570783","lat":"31.2663931","category":"260","category_name":"其他","address":"上海浦东新区金桥路浦东大道"},{"poiid":"B2094757D068A6FA4798","title":"沪东中华造船(集团)有限公司","lon":"121.574978","lat":"31.271862","category":"263","category_name":"公司","address":"上海浦东大道2851号"},{"poiid":"B2094655D26BA2F4459B","title":"栖山路金桥路","lon":"121.57318","lat":"31.26157","category":"38","category_name":"公交车站","address":""},{"poiid":"B2094757D16FAAF9489E","title":"出出汗羽毛球馆","lon":"121.57750033","lat":"31.259098006","category":"500","category_name":"未知分类","address":"浦东新区金桥路799号(博山东路口)"},{"poiid":"B2094757D06AA7F54999","title":"沪东医院","lon":"121.58101","lat":"31.27017","category":"162","category_name":"医院","address":"浦东新区沪东路238号(莱阳路蓝城路间)"},{"poiid":"B2094655D26BA5F5469F","title":"中环滨江大厦","lon":"121.57168","lat":"31.26648","category":"47","category_name":"住宅区","address":"上海浦东新区浦东大道2742号(近金桥路)"},{"poiid":"B2094757D66BA1FC4999","title":"阿拉对面碳烤鱼 博兴路店","lon":"121.583062","lat":"31.265911","category":"71","category_name":"四川菜","address":"浦东新区博兴路486号(近柳埠路)"},{"poiid":"B2094757D068A3FD479F","title":"肯德基 KFC (金桥店)","lon":"121.577796","lat":"31.258478","category":"68","category_name":"快餐厅","address":"浦东新区张杨路3611号金桥国际商业广场1座1楼--2楼(金桥路张杨路)"},{"poiid":"B2094655D26FA0FE4193","title":"陈家宅小区","lon":"121.57315","lat":"31.26672","category":"47","category_name":"住宅区","address":"金桥路301弄1-32号"},{"poiid":"B2094757D069A4FC4293","title":"浦东大道金桥路","lon":"121.569491","lat":"31.265606","category":"500","category_name":"未知分类","address":"上海浦东消防支队"},{"poiid":"B2094654DB6BA1FD469B","title":"锦江之星(金桥路店)","lon":"121.57164","lat":"31.26161","category":"216","category_name":"经济型连锁酒店","address":"浦东新区栖山路1875号(栖山路团林路)"},{"poiid":"B2094655D26CA5FC4799","title":"蝶恋园","lon":"121.57263","lat":"31.26247","category":"47","category_name":"住宅区","address":"上海市浦东新区金桥路338号"},{"poiid":"B2094655D265A2FA479A","title":"巴黎贝甜 金桥店 Paris Baguette","lon":"121.580948054","lat":"31.256730793","category":"112","category_name":"糕饼店","address":"浦东新区张杨路3611号金桥国际商业广场1座1楼(金桥路博山东路)"},{"poiid":"B2094757D068A6F8459E","title":"博兴路长岛路","lon":"121.58047485","lat":"31.268390655","category":"500","category_name":"未知分类","address":"上海博兴路长岛路"},{"poiid":"B2094655D36CA0FE499C","title":"金桥路博山东路","lon":"121.57728","lat":"31.25884","category":"38","category_name":"公交车站","address":""},{"poiid":"B2094655D26FA0FA4192","title":"东方知音苑","lon":"121.57529","lat":"31.257813","category":"47","category_name":"住宅区","address":"博山东路811弄1-100号"},{"poiid":"B2094757D16DABFF4598","title":"竹园小学(沪东校区)","lon":"121.578426","lat":"31.26551","category":"56","category_name":"小学","address":"浦东新区长岛路281号(近兰城路)"},{"poiid":"B2094752D564A7F54293","title":"金桥国际商业广场","lon":"121.574496","lat":"31.265524","category":"247","category_name":"餐饮美食","address":null},{"poiid":"B2094654DB6BA1FD4698","title":"上海海事大学东校区北门(浦东大道)","lon":"121.56855","lat":"31.26329","category":"52","category_name":"高等院校","address":"浦东大道2600"},{"poiid":"B2094757D069A5FC4498","title":"中星长岛苑","lon":"121.57972","lat":"31.266523","category":"47","category_name":"住宅区","address":"中星长岛苑位于浦东浦东蓝城路115弄"},{"poiid":"B2094757D069A5FF459A","title":"上房金丰苑","lon":"121.569","lat":"31.266","category":"47","category_name":"住宅区","address":"上海市浦东新区浦东大道2567号"},{"poiid":"B2094757D069A1FD429E","title":"建平实验中学","lon":"121.57119","lat":"31.25922","category":"55","category_name":"中学","address":"浦东新区枣庄路111号(近栖山路)"},{"poiid":"B2094655D264A1FB4198","title":"建平实验小学","lon":"121.57215","lat":"31.25812","category":"56","category_name":"小学","address":"浦东新区枣庄路199号(近博山东路)"},{"poiid":"B2094654D568A5F54699","title":"中国极地研究中心","lon":"121.57431","lat":"31.26365","category":"191","category_name":"科研机构","address":"金桥路451号"},{"poiid":"B2094655D269AAF44598","title":"莫泰168金桥路店","lon":"121.57185","lat":"31.26483","category":"247","category_name":"餐饮美食","address":"浦东新区金桥路298号"},{"poiid":"B2094655D26CA5FF469E","title":"沪南小区博兴路","lon":"121.57997","lat":"31.26856","category":"47","category_name":"住宅区","address":"博兴路250弄1-44号"},{"poiid":"B2094757D664A7FF449A","title":"一品粥坊","lon":"121.57187","lat":"31.26483","category":"68","category_name":"快餐厅","address":"浦东新区金桥路298号(近浦东大道)"},{"poiid":"B2094753D765A7FD4992","title":"和平影都","lon":"121.576545","lat":"31.26478","category":"178","category_name":"电影院","address":"上海市 西藏中路290号"},{"poiid":"B2094655D26FA0F8499C","title":"船舶小区长岛路","lon":"121.57675","lat":"31.26731","category":"47","category_name":"住宅区","address":"长岛路99"},{"poiid":"B2094654D568A5F5469C","title":"上海杉达学院沪东工学院","lon":"121.57604","lat":"31.26144","category":"52","category_name":"高等院校","address":"金桥路545、555"},{"poiid":"B2094654D568A5F44898","title":"东华科技大厦","lon":"121.57269","lat":"31.26868","category":"46","category_name":"楼宇","address":"浦东大道2789号"},{"poiid":"B2094654DB69AAF5459E","title":"江东医院","lon":"121.57192","lat":"31.26478","category":"162","category_name":"医院","address":"浦东新区金桥路300号(近浦东大道)"},{"poiid":"B2094655D26FA5F5459F","title":"陈家宅小区(东门)","lon":"121.57267","lat":"31.26476","category":"47","category_name":"住宅区","address":""},{"poiid":"B2094750DB65AAFF489E","title":"仙芋传奇  浦东金桥店","lon":"121.5773","lat":"31.26388","category":"67","category_name":"甜品店","address":"浦东新区柳埠路212-1号(博兴路口)"},{"poiid":"B2094753D76CA1FB4298","title":"上海外滩","lon":"121.576118","lat":"31.263971","category":"500","category_name":"未知分类","address":"上海市 上海外滩"},{"poiid":"B2094655D26BA5FD469F","title":"济川国际广场","lon":"121.569","lat":"31.2652","category":"47","category_name":"住宅区","address":"上海市浦东新区浦东大道2954弄"},{"poiid":"B2094757D068A6F9469C","title":"博兴路博三小区","lon":"121.582985","lat":"31.265775","category":"500","category_name":"未知分类","address":"上海博兴路462弄"},{"poiid":"B2094654D568A5F4489B","title":"沛尔之星旅馆","lon":"121.57411","lat":"31.26874","category":"217","category_name":"旅馆招待所","address":"浦东新区浦东大道2752号(近八号桥)"},{"poiid":"B2094655D26DA4FE4098","title":"南极苑金桥路","lon":"121.57337","lat":"31.26382","category":"47","category_name":"住宅区","address":"金桥路421弄1-10号"},{"poiid":"B2094757D06AA2FE489D","title":"长岛中学羽毛球馆","lon":"121.581708223","lat":"31.261428713","category":"253","category_name":"校园生活","address":"上海浦东新区长岛路555号(近柳埠路)"},{"poiid":"B2094757D06BA2FF4099","title":"阿拉对面炭烤鱼","lon":"121.58306133","lat":"31.265312149","category":"247","category_name":"餐饮美食","address":"上海博兴路486号"},{"poiid":"B2094654D568A5F5469D","title":"上海海事大学海华高等技术学院","lon":"121.57604","lat":"31.26144","category":"52","category_name":"高等院校","address":"浦东新区金桥路545、555"},{"poiid":"B2094655D268A7F4459E","title":"沪南船舶小区(北门)","lon":"121.5777","lat":"31.26869","category":"47","category_name":"住宅区","address":"长岛路85弄1-89号"},{"poiid":"B2094655D36CA4FD4492","title":"八号桥","lon":"121.57389","lat":"31.26904","category":"38","category_name":"公交车站","address":""},{"poiid":"B2094654D568A5F44792","title":"浦建大厦","lon":"121.57442","lat":"31.26886","category":"46","category_name":"楼宇","address":"浦东大道2752-2758"},{"poiid":"B2094757D06AABF5419D","title":"上海未来","lon":"121.57870210897","lat":"31.261129309274","category":"500","category_name":"未知分类","address":"云山路835、839弄"},{"poiid":"B2094655D26FA6F5489B","title":"金钥匙幼儿园","lon":"121.57163","lat":"31.26629","category":"57","category_name":"幼儿园","address":"金桥路351弄36号"},{"poiid":"B2094757D568ABFC499D","title":"庆宁寺社区卫生服务站","lon":"121.571388","lat":"31.265243","category":"162","category_name":"医院","address":"金桥路260"},{"poiid":"B2094655D26BA5F4429A","title":"阿玛尼烫染造型广场","lon":"121.56878","lat":"31.26497","category":"148","category_name":"美容美发店","address":""},{"poiid":"B2094757D06BA0F44899","title":"高庙","lon":"121.571746826","lat":"31.2650794983","category":"500","category_name":"未知分类","address":"上海浦东大道 金桥路"},{"poiid":"B2094757D06FA7F4409B","title":"金桥路浦东大道","lon":"121.570783","lat":"31.2663931","category":"260","category_name":"其他","address":"上海浦东新区金桥路浦东大道"},{"poiid":"B2094757D068A6FA4798","title":"沪东中华造船(集团)有限公司","lon":"121.574978","lat":"31.271862","category":"263","category_name":"公司","address":"上海浦东大道2851号"},{"poiid":"B2094655D26BA2F4459B","title":"栖山路金桥路","lon":"121.57318","lat":"31.26157","category":"38","category_name":"公交车站","address":""},{"poiid":"B2094757D16FAAF9489E","title":"出出汗羽毛球馆","lon":"121.57750033","lat":"31.259098006","category":"500","category_name":"未知分类","address":"浦东新区金桥路799号(博山东路口)"},{"poiid":"B2094757D06AA7F54999","title":"沪东医院","lon":"121.58101","lat":"31.27017","category":"162","category_name":"医院","address":"浦东新区沪东路238号(莱阳路蓝城路间)"},{"poiid":"B2094655D26BA5F5469F","title":"中环滨江大厦","lon":"121.57168","lat":"31.26648","category":"47","category_name":"住宅区","address":"上海浦东新区浦东大道2742号(近金桥路)"},{"poiid":"B2094757D66BA1FC4999","title":"阿拉对面碳烤鱼 博兴路店","lon":"121.583062","lat":"31.265911","category":"71","category_name":"四川菜","address":"浦东新区博兴路486号(近柳埠路)"},{"poiid":"B2094757D068A3FD479F","title":"肯德基 KFC (金桥店)","lon":"121.577796","lat":"31.258478","category":"68","category_name":"快餐厅","address":"浦东新区张杨路3611号金桥国际商业广场1座1楼--2楼(金桥路张杨路)"},{"poiid":"B2094655D26FA0FE4193","title":"陈家宅小区","lon":"121.57315","lat":"31.26672","category":"47","category_name":"住宅区","address":"金桥路301弄1-32号"},{"poiid":"B2094757D069A4FC4293","title":"浦东大道金桥路","lon":"121.569491","lat":"31.265606","category":"500","category_name":"未知分类","address":"上海浦东消防支队"},{"poiid":"B2094654DB6BA1FD469B","title":"锦江之星(金桥路店)","lon":"121.57164","lat":"31.26161","category":"216","category_name":"经济型连锁酒店","address":"浦东新区栖山路1875号(栖山路团林路)"},{"poiid":"B2094655D26CA5FC4799","title":"蝶恋园","lon":"121.57263","lat":"31.26247","category":"47","category_name":"住宅区","address":"上海市浦东新区金桥路338号"},{"poiid":"B2094655D265A2FA479A","title":"巴黎贝甜 金桥店 Paris Baguette","lon":"121.580948054","lat":"31.256730793","category":"112","category_name":"糕饼店","address":"浦东新区张杨路3611号金桥国际商业广场1座1楼(金桥路博山东路)"},{"poiid":"B2094757D068A6F8459E","title":"博兴路长岛路","lon":"121.58047485","lat":"31.268390655","category":"500","category_name":"未知分类","address":"上海博兴路长岛路"},{"poiid":"B2094655D36CA0FE499C","title":"金桥路博山东路","lon":"121.57728","lat":"31.25884","category":"38","category_name":"公交车站","address":""},{"poiid":"B2094655D26FA0FA4192","title":"东方知音苑","lon":"121.57529","lat":"31.257813","category":"47","category_name":"住宅区","address":"博山东路811弄1-100号"},{"poiid":"B2094757D16DABFF4598","title":"竹园小学(沪东校区)","lon":"121.578426","lat":"31.26551","category":"56","category_name":"小学","address":"浦东新区长岛路281号(近兰城路)"},{"poiid":"B2094752D564A7F54293","title":"金桥国际商业广场","lon":"121.574496","lat":"31.265524","category":"247","category_name":"餐饮美食","address":null},{"poiid":"B2094654DB6BA1FD4698","title":"上海海事大学东校区北门(浦东大道)","lon":"121.56855","lat":"31.26329","category":"52","category_name":"高等院校","address":"浦东大道2600"},{"poiid":"B2094757D069A5FC4498","title":"中星长岛苑","lon":"121.57972","lat":"31.266523","category":"47","category_name":"住宅区","address":"中星长岛苑位于浦东浦东蓝城路115弄"},{"poiid":"B2094757D069A5FF459A","title":"上房金丰苑","lon":"121.569","lat":"31.266","category":"47","category_name":"住宅区","address":"上海市浦东新区浦东大道2567号"},{"poiid":"B2094757D069A1FD429E","title":"建平实验中学","lon":"121.57119","lat":"31.25922","category":"55","category_name":"中学","address":"浦东新区枣庄路111号(近栖山路)"},{"poiid":"B2094655D264A1FB4198","title":"建平实验小学","lon":"121.57215","lat":"31.25812","category":"56","category_name":"小学","address":"浦东新区枣庄路199号(近博山东路)"},{"poiid":"B2094654D568A5F54699","title":"中国极地研究中心","lon":"121.57431","lat":"31.26365","category":"191","category_name":"科研机构","address":"金桥路451号"},{"poiid":"B2094655D269AAF44598","title":"莫泰168金桥路店","lon":"121.57185","lat":"31.26483","category":"247","category_name":"餐饮美食","address":"浦东新区金桥路298号"},{"poiid":"B2094655D26CA5FF469E","title":"沪南小区博兴路","lon":"121.57997","lat":"31.26856","category":"47","category_name":"住宅区","address":"博兴路250弄1-44号"},{"poiid":"B2094757D664A7FF449A","title":"一品粥坊","lon":"121.57187","lat":"31.26483","category":"68","category_name":"快餐厅","address":"浦东新区金桥路298号(近浦东大道)"},{"poiid":"B2094753D765A7FD4992","title":"和平影都","lon":"121.576545","lat":"31.26478","category":"178","category_name":"电影院","address":"上海市 西藏中路290号"},{"poiid":"B2094655D26FA0F8499C","title":"船舶小区长岛路","lon":"121.57675","lat":"31.26731","category":"47","category_name":"住宅区","address":"长岛路99"},{"poiid":"B2094654D568A5F5469C","title":"上海杉达学院沪东工学院","lon":"121.57604","lat":"31.26144","category":"52","category_name":"高等院校","address":"金桥路545、555"},{"poiid":"B2094654D568A5F44898","title":"东华科技大厦","lon":"121.57269","lat":"31.26868","category":"46","category_name":"楼宇","address":"浦东大道2789号"},{"poiid":"B2094654DB69AAF5459E","title":"江东医院","lon":"121.57192","lat":"31.26478","category":"162","category_name":"医院","address":"浦东新区金桥路300号(近浦东大道)"},{"poiid":"B2094655D26FA5F5459F","title":"陈家宅小区(东门)","lon":"121.57267","lat":"31.26476","category":"47","category_name":"住宅区","address":""},{"poiid":"B2094750DB65AAFF489E","title":"仙芋传奇  浦东金桥店","lon":"121.5773","lat":"31.26388","category":"67","category_name":"甜品店","address":"浦东新区柳埠路212-1号(博兴路口)"},{"poiid":"B2094753D76CA1FB4298","title":"上海外滩","lon":"121.576118","lat":"31.263971","category":"500","category_name":"未知分类","address":"上海市 上海外滩"},{"poiid":"B2094655D26BA5FD469F","title":"济川国际广场","lon":"121.569","lat":"31.2652","category":"47","category_name":"住宅区","address":"上海市浦东新区浦东大道2954弄"},{"poiid":"B2094757D068A6F9469C","title":"博兴路博三小区","lon":"121.582985","lat":"31.265775","category":"500","category_name":"未知分类","address":"上海博兴路462弄"},{"poiid":"B2094654D568A5F4489B","title":"沛尔之星旅馆","lon":"121.57411","lat":"31.26874","category":"217","category_name":"旅馆招待所","address":"浦东新区浦东大道2752号(近八号桥)"},{"poiid":"B2094655D26DA4FE4098","title":"南极苑金桥路","lon":"121.57337","lat":"31.26382","category":"47","category_name":"住宅区","address":"金桥路421弄1-10号"},{"poiid":"B2094757D06AA2FE489D","title":"长岛中学羽毛球馆","lon":"121.581708223","lat":"31.261428713","category":"253","category_name":"校园生活","address":"上海浦东新区长岛路555号(近柳埠路)"},{"poiid":"B2094757D06BA2FF4099","title":"阿拉对面炭烤鱼","lon":"121.58306133","lat":"31.265312149","category":"247","category_name":"餐饮美食","address":"上海博兴路486号"},{"poiid":"B2094654D568A5F5469D","title":"上海海事大学海华高等技术学院","lon":"121.57604","lat":"31.26144","category":"52","category_name":"高等院校","address":"浦东新区金桥路545、555"},{"poiid":"B2094655D268A7F4459E","title":"沪南船舶小区(北门)","lon":"121.5777","lat":"31.26869","category":"47","category_name":"住宅区","address":"长岛路85弄1-89号"},{"poiid":"B2094655D36CA4FD4492","title":"八号桥","lon":"121.57389","lat":"31.26904","category":"38","category_name":"公交车站","address":""},{"poiid":"B2094654D568A5F44792","title":"浦建大厦","lon":"121.57442","lat":"31.26886","category":"46","category_name":"楼宇","address":"浦东大道2752-2758"},{"poiid":"B2094757D06AABF5419D","title":"上海未来","lon":"121.57870210897","lat":"31.261129309274","category":"500","category_name":"未知分类","address":"云山路835、839弄"},{"poiid":"B2094655D26FA6F5489B","title":"金钥匙幼儿园","lon":"121.57163","lat":"31.26629","category":"57","category_name":"幼儿园","address":"金桥路351弄36号"},{"poiid":"B2094757D568ABFC499D","title":"庆宁寺社区卫生服务站","lon":"121.571388","lat":"31.265243","category":"162","category_name":"医院","address":"金桥路260"},{"poiid":"B2094655D26BA5F4429A","title":"阿玛尼烫染造型广场","lon":"121.56878","lat":"31.26497","category":"148","category_name":"美容美发店","address":""},{"poiid":"B2094757D06BA0F44899","title":"高庙","lon":"121.571746826","lat":"31.2650794983","category":"500","category_name":"未知分类","address":"上海浦东大道 金桥路"},{"poiid":"B2094757D06FA7F4409B","title":"金桥路浦东大道","lon":"121.570783","lat":"31.2663931","category":"260","category_name":"其他","address":"上海浦东新区金桥路浦东大道"},{"poiid":"B2094757D068A6FA4798","title":"沪东中华造船(集团)有限公司","lon":"121.574978","lat":"31.271862","category":"263","category_name":"公司","address":"上海浦东大道2851号"},{"poiid":"B2094655D26BA2F4459B","title":"栖山路金桥路","lon":"121.57318","lat":"31.26157","category":"38","category_name":"公交车站","address":""},{"poiid":"B2094757D16FAAF9489E","title":"出出汗羽毛球馆","lon":"121.57750033","lat":"31.259098006","category":"500","category_name":"未知分类","address":"浦东新区金桥路799号(博山东路口)"},{"poiid":"B2094757D06AA7F54999","title":"沪东医院","lon":"121.58101","lat":"31.27017","category":"162","category_name":"医院","address":"浦东新区沪东路238号(莱阳路蓝城路间)"},{"poiid":"B2094655D26BA5F5469F","title":"中环滨江大厦","lon":"121.57168","lat":"31.26648","category":"47","category_name":"住宅区","address":"上海浦东新区浦东大道2742号(近金桥路)"},{"poiid":"B2094757D66BA1FC4999","title":"阿拉对面碳烤鱼 博兴路店","lon":"121.583062","lat":"31.265911","category":"71","category_name":"四川菜","address":"浦东新区博兴路486号(近柳埠路)"},{"poiid":"B2094757D068A3FD479F","title":"肯德基 KFC (金桥店)","lon":"121.577796","lat":"31.258478","category":"68","category_name":"快餐厅","address":"浦东新区张杨路3611号金桥国际商业广场1座1楼--2楼(金桥路张杨路)"},{"poiid":"B2094655D26FA0FE4193","title":"陈家宅小区","lon":"121.57315","lat":"31.26672","category":"47","category_name":"住宅区","address":"金桥路301弄1-32号"},{"poiid":"B2094757D069A4FC4293","title":"浦东大道金桥路","lon":"121.569491","lat":"31.265606","category":"500","category_name":"未知分类","address":"上海浦东消防支队"},{"poiid":"B2094654DB6BA1FD469B","title":"锦江之星(金桥路店)","lon":"121.57164","lat":"31.26161","category":"216","category_name":"经济型连锁酒店","address":"浦东新区栖山路1875号(栖山路团林路)"},{"poiid":"B2094655D26CA5FC4799","title":"蝶恋园","lon":"121.57263","lat":"31.26247","category":"47","category_name":"住宅区","address":"上海市浦东新区金桥路338号"},{"poiid":"B2094655D265A2FA479A","title":"巴黎贝甜 金桥店 Paris Baguette","lon":"121.580948054","lat":"31.256730793","category":"112","category_name":"糕饼店","address":"浦东新区张杨路3611号金桥国际商业广场1座1楼(金桥路博山东路)"},{"poiid":"B2094757D068A6F8459E","title":"博兴路长岛路","lon":"121.58047485","lat":"31.268390655","category":"500","category_name":"未知分类","address":"上海博兴路长岛路"},{"poiid":"B2094655D36CA0FE499C","title":"金桥路博山东路","lon":"121.57728","lat":"31.25884","category":"38","category_name":"公交车站","address":""},{"poiid":"B2094655D26FA0FA4192","title":"东方知音苑","lon":"121.57529","lat":"31.257813","category":"47","category_name":"住宅区","address":"博山东路811弄1-100号"},{"poiid":"B2094757D16DABFF4598","title":"竹园小学(沪东校区)","lon":"121.578426","lat":"31.26551","category":"56","category_name":"小学","address":"浦东新区长岛路281号(近兰城路)"},{"poiid":"B2094752D564A7F54293","title":"金桥国际商业广场","lon":"121.574496","lat":"31.265524","category":"247","category_name":"餐饮美食","address":null},{"poiid":"B2094654DB6BA1FD4698","title":"上海海事大学东校区北门(浦东大道)","lon":"121.56855","lat":"31.26329","category":"52","category_name":"高等院校","address":"浦东大道2600"},{"poiid":"B2094757D069A5FC4498","title":"中星长岛苑","lon":"121.57972","lat":"31.266523","category":"47","category_name":"住宅区","address":"中星长岛苑位于浦东浦东蓝城路115弄"},{"poiid":"B2094757D069A5FF459A","title":"上房金丰苑","lon":"121.569","lat":"31.266","category":"47","category_name":"住宅区","address":"上海市浦东新区浦东大道2567号"},{"poiid":"B2094757D069A1FD429E","title":"建平实验中学","lon":"121.57119","lat":"31.25922","category":"55","category_name":"中学","address":"浦东新区枣庄路111号(近栖山路)"},{"poiid":"B2094655D264A1FB4198","title":"建平实验小学","lon":"121.57215","lat":"31.25812","category":"56","category_name":"小学","address":"浦东新区枣庄路199号(近博山东路)"},{"poiid":"B2094654D568A5F54699","title":"中国极地研究中心","lon":"121.57431","lat":"31.26365","category":"191","category_name":"科研机构","address":"金桥路451号"},{"poiid":"B2094655D269AAF44598","title":"莫泰168金桥路店","lon":"121.57185","lat":"31.26483","category":"247","category_name":"餐饮美食","address":"浦东新区金桥路298号"},{"poiid":"B2094655D26CA5FF469E","title":"沪南小区博兴路","lon":"121.57997","lat":"31.26856","category":"47","category_name":"住宅区","address":"博兴路250弄1-44号"},{"poiid":"B2094757D664A7FF449A","title":"一品粥坊","lon":"121.57187","lat":"31.26483","category":"68","category_name":"快餐厅","address":"浦东新区金桥路298号(近浦东大道)"},{"poiid":"B2094753D765A7FD4992","title":"和平影都","lon":"121.576545","lat":"31.26478","category":"178","category_name":"电影院","address":"上海市 西藏中路290号"},{"poiid":"B2094655D26FA0F8499C","title":"船舶小区长岛路","lon":"121.57675","lat":"31.26731","category":"47","category_name":"住宅区","address":"长岛路99"},{"poiid":"B2094654D568A5F5469C","title":"上海杉达学院沪东工学院","lon":"121.57604","lat":"31.26144","category":"52","category_name":"高等院校","address":"金桥路545、555"},{"poiid":"B2094654D568A5F44898","title":"东华科技大厦","lon":"121.57269","lat":"31.26868","category":"46","category_name":"楼宇","address":"浦东大道2789号"},{"poiid":"B2094654DB69AAF5459E","title":"江东医院","lon":"121.57192","lat":"31.26478","category":"162","category_name":"医院","address":"浦东新区金桥路300号(近浦东大道)"},{"poiid":"B2094655D26FA5F5459F","title":"陈家宅小区(东门)","lon":"121.57267","lat":"31.26476","category":"47","category_name":"住宅区","address":""},{"poiid":"B2094750DB65AAFF489E","title":"仙芋传奇  浦东金桥店","lon":"121.5773","lat":"31.26388","category":"67","category_name":"甜品店","address":"浦东新区柳埠路212-1号(博兴路口)"},{"poiid":"B2094753D76CA1FB4298","title":"上海外滩","lon":"121.576118","lat":"31.263971","category":"500","category_name":"未知分类","address":"上海市 上海外滩"},{"poiid":"B2094655D26BA5FD469F","title":"济川国际广场","lon":"121.569","lat":"31.2652","category":"47","category_name":"住宅区","address":"上海市浦东新区浦东大道2954弄"},{"poiid":"B2094757D068A6F9469C","title":"博兴路博三小区","lon":"121.582985","lat":"31.265775","category":"500","category_name":"未知分类","address":"上海博兴路462弄"},{"poiid":"B2094654D568A5F4489B","title":"沛尔之星旅馆","lon":"121.57411","lat":"31.26874","category":"217","category_name":"旅馆招待所","address":"浦东新区浦东大道2752号(近八号桥)"},{"poiid":"B2094655D26DA4FE4098","title":"南极苑金桥路","lon":"121.57337","lat":"31.26382","category":"47","category_name":"住宅区","address":"金桥路421弄1-10号"},{"poiid":"B2094757D06AA2FE489D","title":"长岛中学羽毛球馆","lon":"121.581708223","lat":"31.261428713","category":"253","category_name":"校园生活","address":"上海浦东新区长岛路555号(近柳埠路)"},{"poiid":"B2094757D06BA2FF4099","title":"阿拉对面炭烤鱼","lon":"121.58306133","lat":"31.265312149","category":"247","category_name":"餐饮美食","address":"上海博兴路486号"},{"poiid":"B2094654D568A5F5469D","title":"上海海事大学海华高等技术学院","lon":"121.57604","lat":"31.26144","category":"52","category_name":"高等院校","address":"浦东新区金桥路545、555"},{"poiid":"B2094655D268A7F4459E","title":"沪南船舶小区(北门)","lon":"121.5777","lat":"31.26869","category":"47","category_name":"住宅区","address":"长岛路85弄1-89号"},{"poiid":"B2094655D36CA4FD4492","title":"八号桥","lon":"121.57389","lat":"31.26904","category":"38","category_name":"公交车站","address":""},{"poiid":"B2094654D568A5F44792","title":"浦建大厦","lon":"121.57442","lat":"31.26886","category":"46","category_name":"楼宇","address":"浦东大道2752-2758"},{"poiid":"B2094757D06AABF5419D","title":"上海未来","lon":"121.57870210897","lat":"31.261129309274","category":"500","category_name":"未知分类","address":"云山路835、839弄"},{"poiid":"B2094655D26FA6F5489B","title":"金钥匙幼儿园","lon":"121.57163","lat":"31.26629","category":"57","category_name":"幼儿园","address":"金桥路351弄36号"},{"poiid":"B2094757D568ABFC499D","title":"庆宁寺社区卫生服务站","lon":"121.571388","lat":"31.265243","category":"162","category_name":"医院","address":"金桥路260"},{"poiid":"B2094655D26BA5F4429A","title":"阿玛尼烫染造型广场","lon":"121.56878","lat":"31.26497","category":"148","category_name":"美容美发店","address":""},{"poiid":"B2094757D06BA0F44899","title":"高庙","lon":"121.571746826","lat":"31.2650794983","category":"500","category_name":"未知分类","address":"上海浦东大道 金桥路"},{"poiid":"B2094757D06FA7F4409B","title":"金桥路浦东大道","lon":"121.570783","lat":"31.2663931","category":"260","category_name":"其他","address":"上海浦东新区金桥路浦东大道"},{"poiid":"B2094757D068A6FA4798","title":"沪东中华造船(集团)有限公司","lon":"121.574978","lat":"31.271862","category":"263","category_name":"公司","address":"上海浦东大道2851号"},{"poiid":"B2094655D26BA2F4459B","title":"栖山路金桥路","lon":"121.57318","lat":"31.26157","category":"38","category_name":"公交车站","address":""},{"poiid":"B2094757D16FAAF9489E","title":"出出汗羽毛球馆","lon":"121.57750033","lat":"31.259098006","category":"500","category_name":"未知分类","address":"浦东新区金桥路799号(博山东路口)"},{"poiid":"B2094757D06AA7F54999","title":"沪东医院","lon":"121.58101","lat":"31.27017","category":"162","category_name":"医院","address":"浦东新区沪东路238号(莱阳路蓝城路间)"},{"poiid":"B2094655D26BA5F5469F","title":"中环滨江大厦","lon":"121.57168","lat":"31.26648","category":"47","category_name":"住宅区","address":"上海浦东新区浦东大道2742号(近金桥路)"},{"poiid":"B2094757D66BA1FC4999","title":"阿拉对面碳烤鱼 博兴路店","lon":"121.583062","lat":"31.265911","category":"71","category_name":"四川菜","address":"浦东新区博兴路486号(近柳埠路)"},{"poiid":"B2094757D068A3FD479F","title":"肯德基 KFC (金桥店)","lon":"121.577796","lat":"31.258478","category":"68","category_name":"快餐厅","address":"浦东新区张杨路3611号金桥国际商业广场1座1楼--2楼(金桥路张杨路)"},{"poiid":"B2094655D26FA0FE4193","title":"陈家宅小区","lon":"121.57315","lat":"31.26672","category":"47","category_name":"住宅区","address":"金桥路301弄1-32号"},{"poiid":"B2094757D069A4FC4293","title":"浦东大道金桥路","lon":"121.569491","lat":"31.265606","category":"500","category_name":"未知分类","address":"上海浦东消防支队"},{"poiid":"B2094654DB6BA1FD469B","title":"锦江之星(金桥路店)","lon":"121.57164","lat":"31.26161","category":"216","category_name":"经济型连锁酒店","address":"浦东新区栖山路1875号(栖山路团林路)"},{"poiid":"B2094655D26CA5FC4799","title":"蝶恋园","lon":"121.57263","lat":"31.26247","category":"47","category_name":"住宅区","address":"上海市浦东新区金桥路338号"},{"poiid":"B2094655D265A2FA479A","title":"巴黎贝甜 金桥店 Paris Baguette","lon":"121.580948054","lat":"31.256730793","category":"112","category_name":"糕饼店","address":"浦东新区张杨路3611号金桥国际商业广场1座1楼(金桥路博山东路)"},{"poiid":"B2094757D068A6F8459E","title":"博兴路长岛路","lon":"121.58047485","lat":"31.268390655","category":"500","category_name":"未知分类","address":"上海博兴路长岛路"},{"poiid":"B2094655D36CA0FE499C","title":"金桥路博山东路","lon":"121.57728","lat":"31.25884","category":"38","category_name":"公交车站","address":""},{"poiid":"B2094655D26FA0FA4192","title":"东方知音苑","lon":"121.57529","lat":"31.257813","category":"47","category_name":"住宅区","address":"博山东路811弄1-100号"},{"poiid":"B2094757D16DABFF4598","title":"竹园小学(沪东校区)","lon":"121.578426","lat":"31.26551","category":"56","category_name":"小学","address":"浦东新区长岛路281号(近兰城路)"},{"poiid":"B2094752D564A7F54293","title":"金桥国际商业广场","lon":"121.574496","lat":"31.265524","category":"247","category_name":"餐饮美食","address":null},{"poiid":"B2094654DB6BA1FD4698","title":"上海海事大学东校区北门(浦东大道)","lon":"121.56855","lat":"31.26329","category":"52","category_name":"高等院校","address":"浦东大道2600"},{"poiid":"B2094757D069A5FC4498","title":"中星长岛苑","lon":"121.57972","lat":"31.266523","category":"47","category_name":"住宅区","address":"中星长岛苑位于浦东浦东蓝城路115弄"},{"poiid":"B2094757D069A5FF459A","title":"上房金丰苑","lon":"121.569","lat":"31.266","category":"47","category_name":"住宅区","address":"上海市浦东新区浦东大道2567号"},{"poiid":"B2094757D069A1FD429E","title":"建平实验中学","lon":"121.57119","lat":"31.25922","category":"55","category_name":"中学","address":"浦东新区枣庄路111号(近栖山路)"},{"poiid":"B2094655D264A1FB4198","title":"建平实验小学","lon":"121.57215","lat":"31.25812","category":"56","category_name":"小学","address":"浦东新区枣庄路199号(近博山东路)"},{"poiid":"B2094654D568A5F54699","title":"中国极地研究中心","lon":"121.57431","lat":"31.26365","category":"191","category_name":"科研机构","address":"金桥路451号"},{"poiid":"B2094655D269AAF44598","title":"莫泰168金桥路店","lon":"121.57185","lat":"31.26483","category":"247","category_name":"餐饮美食","address":"浦东新区金桥路298号"},{"poiid":"B2094655D26CA5FF469E","title":"沪南小区博兴路","lon":"121.57997","lat":"31.26856","category":"47","category_name":"住宅区","address":"博兴路250弄1-44号"},{"poiid":"B2094757D664A7FF449A","title":"一品粥坊","lon":"121.57187","lat":"31.26483","category":"68","category_name":"快餐厅","address":"浦东新区金桥路298号(近浦东大道)"},{"poiid":"B2094753D765A7FD4992","title":"和平影都","lon":"121.576545","lat":"31.26478","category":"178","category_name":"电影院","address":"上海市 西藏中路290号"},{"poiid":"B2094655D26FA0F8499C","title":"船舶小区长岛路","lon":"121.57675","lat":"31.26731","category":"47","category_name":"住宅区","address":"长岛路99"},{"poiid":"B2094654D568A5F5469C","title":"上海杉达学院沪东工学院","lon":"121.57604","lat":"31.26144","category":"52","category_name":"高等院校","address":"金桥路545、555"},{"poiid":"B2094654D568A5F44898","title":"东华科技大厦","lon":"121.57269","lat":"31.26868","category":"46","category_name":"楼宇","address":"浦东大道2789号"},{"poiid":"B2094654DB69AAF5459E","title":"江东医院","lon":"121.57192","lat":"31.26478","category":"162","category_name":"医院","address":"浦东新区金桥路300号(近浦东大道)"},{"poiid":"B2094655D26FA5F5459F","title":"陈家宅小区(东门)","lon":"121.57267","lat":"31.26476","category":"47","category_name":"住宅区","address":""},{"poiid":"B2094750DB65AAFF489E","title":"仙芋传奇  浦东金桥店","lon":"121.5773","lat":"31.26388","category":"67","category_name":"甜品店","address":"浦东新区柳埠路212-1号(博兴路口)"},{"poiid":"B2094753D76CA1FB4298","title":"上海外滩","lon":"121.576118","lat":"31.263971","category":"500","category_name":"未知分类","address":"上海市 上海外滩"},{"poiid":"B2094655D26BA5FD469F","title":"济川国际广场","lon":"121.569","lat":"31.2652","category":"47","category_name":"住宅区","address":"上海市浦东新区浦东大道2954弄"},{"poiid":"B2094757D068A6F9469C","title":"博兴路博三小区","lon":"121.582985","lat":"31.265775","category":"500","category_name":"未知分类","address":"上海博兴路462弄"},{"poiid":"B2094654D568A5F4489B","title":"沛尔之星旅馆","lon":"121.57411","lat":"31.26874","category":"217","category_name":"旅馆招待所","address":"浦东新区浦东大道2752号(近八号桥)"},{"poiid":"B2094655D26DA4FE4098","title":"南极苑金桥路","lon":"121.57337","lat":"31.26382","category":"47","category_name":"住宅区","address":"金桥路421弄1-10号"},{"poiid":"B2094757D06AA2FE489D","title":"长岛中学羽毛球馆","lon":"121.581708223","lat":"31.261428713","category":"253","category_name":"校园生活","address":"上海浦东新区长岛路555号(近柳埠路)"},{"poiid":"B2094757D06BA2FF4099","title":"阿拉对面炭烤鱼","lon":"121.58306133","lat":"31.265312149","category":"247","category_name":"餐饮美食","address":"上海博兴路486号"},{"poiid":"B2094654D568A5F5469D","title":"上海海事大学海华高等技术学院","lon":"121.57604","lat":"31.26144","category":"52","category_name":"高等院校","address":"浦东新区金桥路545、555"},{"poiid":"B2094655D268A7F4459E","title":"沪南船舶小区(北门)","lon":"121.5777","lat":"31.26869","category":"47","category_name":"住宅区","address":"长岛路85弄1-89号"},{"poiid":"B2094655D36CA4FD4492","title":"八号桥","lon":"121.57389","lat":"31.26904","category":"38","category_name":"公交车站","address":""},{"poiid":"B2094654D568A5F44792","title":"浦建大厦","lon":"121.57442","lat":"31.26886","category":"46","category_name":"楼宇","address":"浦东大道2752-2758"},{"poiid":"B2094757D06AABF5419D","title":"上海未来","lon":"121.57870210897","lat":"31.261129309274","category":"500","category_name":"未知分类","address":"云山路835、839弄"},{"poiid":"B2094655D26FA6F5489B","title":"金钥匙幼儿园","lon":"121.57163","lat":"31.26629","category":"57","category_name":"幼儿园","address":"金桥路351弄36号"},{"poiid":"B2094757D568ABFC499D","title":"庆宁寺社区卫生服务站","lon":"121.571388","lat":"31.265243","category":"162","category_name":"医院","address":"金桥路260"},{"poiid":"B2094655D26BA5F4429A","title":"阿玛尼烫染造型广场","lon":"121.56878","lat":"31.26497","category":"148","category_name":"美容美发店","address":""},{"poiid":"B2094757D06BA0F44899","title":"高庙","lon":"121.571746826","lat":"31.2650794983","category":"500","category_name":"未知分类","address":"上海浦东大道 金桥路"}]