[{"poiid":"B2094757D568A6FB489B","title":"中冶祥腾城市广场","lon":"121.327364","lat":"31.302838","category":"47","category_name":"住宅区","address":"嘉定区真南路4500号(11号线南翔站对面)"},{"poiid":"B2094757D06EAAFE419C","title":"南翔地铁站","lon":"121.32427277","lat":"31.297083592","category":"36","category_name":"地铁站","address":"上海轨道交通 十一号线 轨交南翔站 11"},{"poiid":"B2094757D06FA2FC479B","title":"金地格林世界","lon":"121.32311061","lat":"31.298570324","category":"47","category_name":"住宅区","address":"嘉定区南翔镇瑞林路68号(沪嘉高速丰翔路路口)"},{"poiid":"B2094757D06FA2F8499E","title":"南翔镇","lon":"121.32083892","lat":"31.293945312","category":"260","category_name":"其他","address":"上海嘉定区南翔镇"},{"poiid":"B2094757D06AABF8479F","title":"南翔绿谷别墅","lon":"121.329919","lat":"31.296186","category":"47","category_name":"住宅区","address":"上海市嘉定区南翔镇虹光路111号"},{"poiid":"B2094654DB69A6FE489F","title":"古漪园","lon":"121.31603","lat":"31.29213","category":"196","category_name":"公园","address":"上海市嘉定区沪宜公路218号"},{"poiid":"B2094751DA6EA7F5479C","title":"星巴克南翔祥腾广场店","lon":"121.3228","lat":"31.296463","category":"247","category_name":"餐饮美食","address":"嘉定区佳通路31弄3号中冶翔腾城市广场2楼(近11号线南翔站)"},{"poiid":"B2094757D06BA7FB479B","title":"中央公园","lon":"121.31244292","lat":"31.311302609","category":"196","category_name":"公园","address":"上海市嘉定区宝翔路芳菊路"},{"poiid":"B2094655D264A7FD4599","title":"路劲逸隽园","lon":"121.31567","lat":"31.315073","category":"47","category_name":"住宅区","address":"上海市嘉定区宝翔路998弄"},{"poiid":"B2094757D064A5FA439A","title":"金地格林世界圣琼斯湾","lon":"121.32882015978","lat":"31.308314978731","category":"500","category_name":"未知分类","address":"上海金地格林世界圣琼斯湾"},{"poiid":"B2094757D06FA3FD4799","title":"S5沪嘉高速南翔收费站","lon":"121.325303892","lat":"31.2968820244","category":"267","category_name":"收费站","address":"上海S5沪嘉高速南翔收费站(近丰翔路)"},{"poiid":"B2094757D068A1FC4692","title":"家乐福(南翔店)","lon":"121.33281769559676","lat":"31.304198465976114","category":"118","category_name":"超级市场","address":"上海嘉定区丰翔路3168号"},{"poiid":"B2094757D168A6F94593","title":"华润中央公园","lon":"121.32380691054","lat":"31.318206536149","category":"196","category_name":"公园","address":"上海市嘉定区沪宜公路"},{"poiid":"B2094757D16DA1FB4692","title":"南翔文广中心","lon":"121.31328892","lat":"31.299913373","category":"500","category_name":"未知分类","address":"嘉定区古猗园路737号"},{"poiid":"B2094757D169A7FF4592","title":"新城公馆","lon":"121.32548362","lat":"31.308091542","category":"47","category_name":"住宅区","address":"上海嘉定區南翔禛寶翔路191弄2號新城公館接待中心"},{"poiid":"B2094757D068ABFF449A","title":"南翔金地格林","lon":"121.32389068","lat":"31.300073623","category":"47","category_name":"住宅区","address":"上海嘉定南翔镇芳林路"},{"poiid":"B2094757D469A0FC4299","title":"神犸音乐餐厅","lon":"121.316122","lat":"31.3040865","category":"260","category_name":"其他","address":"嘉定区南翔镇芳林路333弄96号(近家乐福)"},{"poiid":"B2094753DA6EA6FD459A","title":"金地格林世界安布瓦湖","lon":"121.323","lat":"31.3113","category":"47","category_name":"住宅区","address":"芳林路398弄"},{"poiid":"B2094751D468AAF8479B","title":"金地格林世界布鲁斯郡","lon":"121.323","lat":"31.31","category":"500","category_name":"未知分类","address":"芳林路669弄"},{"poiid":"B2094752D56DA4FD469B","title":"荷泰东南亚风味餐厅","lon":"121.317225","lat":"31.297102","category":"247","category_name":"餐饮美食","address":"中冶祥腾广场"},{"poiid":"B2094654DB6AA4F8409F","title":"阳光苑","lon":"121.32336","lat":"31.315659","category":"47","category_name":"住宅区","address":"民同路10弄"},{"poiid":"B2094757D06AAAFF439F","title":"嘉定二中","lon":"121.31111145","lat":"31.2952690125","category":"55","category_name":"中学","address":"嘉定区德华路388号"},{"poiid":"B2094654D46BA6F44898","title":"南翔工业区","lon":"121.329","lat":"31.31223","category":"45","category_name":"产业园区","address":""},{"poiid":"B2094757D064ABF44093","title":"机施一分公司","lon":"121.32130133","lat":"31.314134427","category":"263","category_name":"公司","address":"上海顺达路615号"},{"poiid":"B2094757D16AA5FE489C","title":"沙县小吃","lon":"121.323660925","lat":"31.3152746915","category":"247","category_name":"餐饮美食","address":"上海嘉定区南翔镇静塘路近浏翔公路"},{"poiid":"B2094654D46BA5FE4793","title":"浏翔花苑","lon":"121.31902","lat":"31.320253","category":"47","category_name":"住宅区","address":"浏翔路146弄"},{"poiid":"B2094757D16BA0F8429F","title":"乐在四季青少儿培训中心","lon":"121.31812592","lat":"31.308336547","category":"500","category_name":"未知分类","address":"上海古美路300号"},{"poiid":"B2094757D56EA6FD4498","title":"达芙妮-南翔家乐福店","lon":"121.3209147","lat":"31.3075883","category":"249","category_name":"购物服务","address":"嘉定区丰翔路3618号家乐福1楼(近宝翔路)"},{"poiid":"B2094757D169A2FF429F","title":"朗诗绿色街区","lon":"121.32426802944","lat":"31.318638724159","category":"500","category_name":"未知分类","address":"上海嘉定南翔陈翔路"},{"poiid":"B2094655D36DA7F5429A","title":"浏翔公路薀北路","lon":"121.32185","lat":"31.32367","category":"38","category_name":"公交车站","address":""},{"poiid":"B2094757D66BA5FC4699","title":"肯德基 丰翔路店 KFC","lon":"121.316944054","lat":"31.299572793","category":"68","category_name":"快餐厅","address":"嘉定区丰翔路3168号家乐福超市1楼(丰翔路浏翔公路)"},{"poiid":"B2094757D064AAF5499E","title":"味千拉面","lon":"121.32508392","lat":"31.298980353","category":"247","category_name":"餐饮美食","address":"上海近郊嘉定区丰翔路3168号家乐福超市1楼(近宝翔路)  "},{"poiid":"B2094751D568A2F5429A","title":"新翔家园","lon":"121.312249","lat":"31.305007","category":"47","category_name":"住宅区","address":"真南路4889弄"},{"poiid":"B2094757D568AAFB4099","title":"南翔镇南华路、民主街解放街","lon":"121.31572","lat":"31.29648","category":"47","category_name":"住宅区","address":"上海市嘉定区南翔镇民主街224号"},{"poiid":"B2094751DA6CA1FF4293","title":"小杨生煎","lon":"121.319843","lat":"31.299452","category":"247","category_name":"餐饮美食","address":"南翔地铁站"},{"poiid":"B2094654DB69A6FE439C","title":"金地格林春晓","lon":"121.32337","lat":"31.29254","category":"47","category_name":"住宅区","address":"上海市嘉定区真南路4233号"},{"poiid":"B2094751D469A1F4449B","title":"中建溪岸瀾庭","lon":"121.3197414910034","lat":"31.3018726523716","category":"47","category_name":"住宅区","address":"滬宜公路 嘉美路"},{"poiid":"B2094750D56BA5F84598","title":"路劲翡丽湾","lon":"121.324803","lat":"31.32249","category":"47","category_name":"住宅区","address":"嘉定雅翔路288弄1号(近宝翔路芳菊路)"},{"poiid":"B2094757DB69A6FA419A","title":"布鲁斯郡","lon":"121.3111538493724","lat":"31.30591123681436","category":"47","category_name":"住宅区","address":"芳林路669弄"},{"poiid":"B2094757DB68A0F8459F","title":"金地格林世界格林公馆","lon":"121.3040475199999","lat":"31.30840306999999","category":"500","category_name":"未知分类","address":"嘉定区芳林路951弄"},{"poiid":"B2094750DB65A3F8489B","title":"白金院邸","lon":"121.315139","lat":"31.303794","category":"252","category_name":"楼宇机构","address":"芳林路819弄"},{"poiid":"B2094655D264A7FD449F","title":"金地格林世界(北门)","lon":"121.32317","lat":"31.30172","category":"48","category_name":"楼宇大门","address":"芳林路333弄"},{"poiid":"B2094752D464A1FE459B","title":"满记甜品上海南翔中治翔腾广场店","lon":"121.318072","lat":"31.297161","category":"247","category_name":"餐饮美食","address":null},{"poiid":"B2094751D264A2F5489F","title":"金地格林世界-森林公馆","lon":"121.3109479","lat":"31.3114992","category":"627","category_name":"一般地点标志","address":"栖林路425弄"},{"poiid":"B2094757D06AABF44692","title":"凯旋宫酒楼(南翔店)","lon":"121.32478942","lat":"31.298657497","category":"76","category_name":"上海菜","address":"嘉定区丰翔路3168号(近真南路)"},{"poiid":"B2094752D368A1FF409F","title":"捞王猪肚鸡","lon":"121.322586","lat":"31.294815","category":"247","category_name":"餐饮美食","address":"上海市嘉定区南翔镇中冶翔腾城市广场二楼"},{"poiid":"B2094655D264A7F94193","title":"绿洲古猗新苑","lon":"121.32","lat":"31.2989","category":"47","category_name":"住宅区","address":"上海市嘉定区古猗园路155弄"},{"poiid":"B2094655D36DA7F54193","title":"浏翔公路丰翔路","lon":"121.33131","lat":"31.30474","category":"38","category_name":"公交车站","address":""},{"poiid":"B2094654DB69A5F54493","title":"格林豪泰酒店(南翔店)","lon":"121.32161","lat":"31.29403","category":"216","category_name":"经济型连锁酒店","address":"普陀区众仁路与真南路交叉口(南翔镇政府斜对面)"},{"poiid":"B2094757D16DA2FE4098","title":"贝贝大酒店","lon":"121.336992054","lat":"31.303102793","category":"76","category_name":"上海菜","address":"宝山区丰翔路2158号(丰翔路园泰路)"},{"poiid":"B2094757D568A6FB489B","title":"中冶祥腾城市广场","lon":"121.327364","lat":"31.302838","category":"47","category_name":"住宅区","address":"嘉定区真南路4500号(11号线南翔站对面)"},{"poiid":"B2094757D06EAAFE419C","title":"南翔地铁站","lon":"121.32427277","lat":"31.297083592","category":"36","category_name":"地铁站","address":"上海轨道交通 十一号线 轨交南翔站 11"},{"poiid":"B2094757D06FA2FC479B","title":"金地格林世界","lon":"121.32311061","lat":"31.298570324","category":"47","category_name":"住宅区","address":"嘉定区南翔镇瑞林路68号(沪嘉高速丰翔路路口)"},{"poiid":"B2094757D06FA2F8499E","title":"南翔镇","lon":"121.32083892","lat":"31.293945312","category":"260","category_name":"其他","address":"上海嘉定区南翔镇"},{"poiid":"B2094757D06AABF8479F","title":"南翔绿谷别墅","lon":"121.329919","lat":"31.296186","category":"47","category_name":"住宅区","address":"上海市嘉定区南翔镇虹光路111号"},{"poiid":"B2094654DB69A6FE489F","title":"古漪园","lon":"121.31603","lat":"31.29213","category":"196","category_name":"公园","address":"上海市嘉定区沪宜公路218号"},{"poiid":"B2094751DA6EA7F5479C","title":"星巴克南翔祥腾广场店","lon":"121.3228","lat":"31.296463","category":"247","category_name":"餐饮美食","address":"嘉定区佳通路31弄3号中冶翔腾城市广场2楼(近11号线南翔站)"},{"poiid":"B2094757D06BA7FB479B","title":"中央公园","lon":"121.31244292","lat":"31.311302609","category":"196","category_name":"公园","address":"上海市嘉定区宝翔路芳菊路"},{"poiid":"B2094655D264A7FD4599","title":"路劲逸隽园","lon":"121.31567","lat":"31.315073","category":"47","category_name":"住宅区","address":"上海市嘉定区宝翔路998弄"},{"poiid":"B2094757D064A5FA439A","title":"金地格林世界圣琼斯湾","lon":"121.32882015978","lat":"31.308314978731","category":"500","category_name":"未知分类","address":"上海金地格林世界圣琼斯湾"},{"poiid":"B2094757D06FA3FD4799","title":"S5沪嘉高速南翔收费站","lon":"121.325303892","lat":"31.2968820244","category":"267","category_name":"收费站","address":"上海S5沪嘉高速南翔收费站(近丰翔路)"},{"poiid":"B2094757D068A1FC4692","title":"家乐福(南翔店)","lon":"121.33281769559676","lat":"31.304198465976114","category":"118","category_name":"超级市场","address":"上海嘉定区丰翔路3168号"},{"poiid":"B2094757D168A6F94593","title":"华润中央公园","lon":"121.32380691054","lat":"31.318206536149","category":"196","category_name":"公园","address":"上海市嘉定区沪宜公路"},{"poiid":"B2094757D16DA1FB4692","title":"南翔文广中心","lon":"121.31328892","lat":"31.299913373","category":"500","category_name":"未知分类","address":"嘉定区古猗园路737号"},{"poiid":"B2094757D169A7FF4592","title":"新城公馆","lon":"121.32548362","lat":"31.308091542","category":"47","category_name":"住宅区","address":"上海嘉定區南翔禛寶翔路191弄2號新城公館接待中心"},{"poiid":"B2094757D068ABFF449A","title":"南翔金地格林","lon":"121.32389068","lat":"31.300073623","category":"47","category_name":"住宅区","address":"上海嘉定南翔镇芳林路"},{"poiid":"B2094757D469A0FC4299","title":"神犸音乐餐厅","lon":"121.316122","lat":"31.3040865","category":"260","category_name":"其他","address":"嘉定区南翔镇芳林路333弄96号(近家乐福)"},{"poiid":"B2094753DA6EA6FD459A","title":"金地格林世界安布瓦湖","lon":"121.323","lat":"31.3113","category":"47","category_name":"住宅区","address":"芳林路398弄"},{"poiid":"B2094751D468AAF8479B","title":"金地格林世界布鲁斯郡","lon":"121.323","lat":"31.31","category":"500","category_name":"未知分类","address":"芳林路669弄"},{"poiid":"B2094752D56DA4FD469B","title":"荷泰东南亚风味餐厅","lon":"121.317225","lat":"31.297102","category":"247","category_name":"餐饮美食","address":"中冶祥腾广场"},{"poiid":"B2094654DB6AA4F8409F","title":"阳光苑","lon":"121.32336","lat":"31.315659","category":"47","category_name":"住宅区","address":"民同路10弄"},{"poiid":"B2094757D06AAAFF439F","title":"嘉定二中","lon":"121.31111145","lat":"31.2952690125","category":"55","category_name":"中学","address":"嘉定区德华路388号"},{"poiid":"B2094654D46BA6F44898","title":"南翔工业区","lon":"121.329","lat":"31.31223","category":"45","category_name":"产业园区","address":""},{"poiid":"B2094757D064ABF44093","title":"机施一分公司","lon":"121.32130133","lat":"31.314134427","category":"263","category_name":"公司","address":"上海顺达路615号"},{"poiid":"B2094757D16AA5FE489C","title":"沙县小吃","lon":"121.323660925","lat":"31.3152746915","category":"247","category_name":"餐饮美食","address":"上海嘉定区南翔镇静塘路近浏翔公路"},{"poiid":"B2094654D46BA5FE4793","title":"浏翔花苑","lon":"121.31902","lat":"31.320253","category":"47","category_name":"住宅区","address":"浏翔路146弄"},{"poiid":"B2094757D16BA0F8429F","title":"乐在四季青少儿培训中心","lon":"121.31812592","lat":"31.308336547","category":"500","category_name":"未知分类","address":"上海古美路300号"},{"poiid":"B2094757D56EA6FD4498","title":"达芙妮-南翔家乐福店","lon":"121.3209147","lat":"31.3075883","category":"249","category_name":"购物服务","address":"嘉定区丰翔路3618号家乐福1楼(近宝翔路)"},{"poiid":"B2094757D169A2FF429F","title":"朗诗绿色街区","lon":"121.32426802944","lat":"31.318638724159","category":"500","category_name":"未知分类","address":"上海嘉定南翔陈翔路"},{"poiid":"B2094655D36DA7F5429A","title":"浏翔公路薀北路","lon":"121.32185","lat":"31.32367","category":"38","category_name":"公交车站","address":""},{"poiid":"B2094757D66BA5FC4699","title":"肯德基 丰翔路店 KFC","lon":"121.316944054","lat":"31.299572793","category":"68","category_name":"快餐厅","address":"嘉定区丰翔路3168号家乐福超市1楼(丰翔路浏翔公路)"},{"poiid":"B2094757D064AAF5499E","title":"味千拉面","lon":"121.32508392","lat":"31.298980353","category":"247","category_name":"餐饮美食","address":"上海近郊嘉定区丰翔路3168号家乐福超市1楼(近宝翔路)  "},{"poiid":"B2094751D568A2F5429A","title":"新翔家园","lon":"121.312249","lat":"31.305007","category":"47","category_name":"住宅区","address":"真南路4889弄"},{"poiid":"B2094757D568AAFB4099","title":"南翔镇南华路、民主街解放街","lon":"121.31572","lat":"31.29648","category":"47","category_name":"住宅区","address":"上海市嘉定区南翔镇民主街224号"},{"poiid":"B2094751DA6CA1FF4293","title":"小杨生煎","lon":"121.319843","lat":"31.299452","category":"247","category_name":"餐饮美食","address":"南翔地铁站"},{"poiid":"B2094654DB69A6FE439C","title":"金地格林春晓","lon":"121.32337","lat":"31.29254","category":"47","category_name":"住宅区","address":"上海市嘉定区真南路4233号"},{"poiid":"B2094751D469A1F4449B","title":"中建溪岸瀾庭","lon":"121.3197414910034","lat":"31.3018726523716","category":"47","category_name":"住宅区","address":"滬宜公路 嘉美路"},{"poiid":"B2094750D56BA5F84598","title":"路劲翡丽湾","lon":"121.324803","lat":"31.32249","category":"47","category_name":"住宅区","address":"嘉定雅翔路288弄1号(近宝翔路芳菊路)"},{"poiid":"B2094757DB69A6FA419A","title":"布鲁斯郡","lon":"121.3111538493724","lat":"31.30591123681436","category":"47","category_name":"住宅区","address":"芳林路669弄"},{"poiid":"B2094757DB68A0F8459F","title":"金地格林世界格林公馆","lon":"121.3040475199999","lat":"31.30840306999999","category":"500","category_name":"未知分类","address":"嘉定区芳林路951弄"},{"poiid":"B2094750DB65A3F8489B","title":"白金院邸","lon":"121.315139","lat":"31.303794","category":"252","category_name":"楼宇机构","address":"芳林路819弄"},{"poiid":"B2094655D264A7FD449F","title":"金地格林世界(北门)","lon":"121.32317","lat":"31.30172","category":"48","category_name":"楼宇大门","address":"芳林路333弄"},{"poiid":"B2094752D464A1FE459B","title":"满记甜品上海南翔中治翔腾广场店","lon":"121.318072","lat":"31.297161","category":"247","category_name":"餐饮美食","address":null},{"poiid":"B2094751D264A2F5489F","title":"金地格林世界-森林公馆","lon":"121.3109479","lat":"31.3114992","category":"627","category_name":"一般地点标志","address":"栖林路425弄"},{"poiid":"B2094757D06AABF44692","title":"凯旋宫酒楼(南翔店)","lon":"121.32478942","lat":"31.298657497","category":"76","category_name":"上海菜","address":"嘉定区丰翔路3168号(近真南路)"},{"poiid":"B2094752D368A1FF409F","title":"捞王猪肚鸡","lon":"121.322586","lat":"31.294815","category":"247","category_name":"餐饮美食","address":"上海市嘉定区南翔镇中冶翔腾城市广场二楼"},{"poiid":"B2094655D264A7F94193","title":"绿洲古猗新苑","lon":"121.32","lat":"31.2989","category":"47","category_name":"住宅区","address":"上海市嘉定区古猗园路155弄"},{"poiid":"B2094655D36DA7F54193","title":"浏翔公路丰翔路","lon":"121.33131","lat":"31.30474","category":"38","category_name":"公交车站","address":""},{"poiid":"B2094654DB69A5F54493","title":"格林豪泰酒店(南翔店)","lon":"121.32161","lat":"31.29403","category":"216","category_name":"经济型连锁酒店","address":"普陀区众仁路与真南路交叉口(南翔镇政府斜对面)"},{"poiid":"B2094757D16DA2FE4098","title":"贝贝大酒店","lon":"121.336992054","lat":"31.303102793","category":"76","category_name":"上海菜","address":"宝山区丰翔路2158号(丰翔路园泰路)"},{"poiid":"B2094757D568A6FB489B","title":"中冶祥腾城市广场","lon":"121.327364","lat":"31.302838","category":"47","category_name":"住宅区","address":"嘉定区真南路4500号(11号线南翔站对面)"},{"poiid":"B2094757D06EAAFE419C","title":"南翔地铁站","lon":"121.32427277","lat":"31.297083592","category":"36","category_name":"地铁站","address":"上海轨道交通 十一号线 轨交南翔站 11"},{"poiid":"B2094757D06FA2FC479B","title":"金地格林世界","lon":"121.32311061","lat":"31.298570324","category":"47","category_name":"住宅区","address":"嘉定区南翔镇瑞林路68号(沪嘉高速丰翔路路口)"},{"poiid":"B2094757D06FA2F8499E","title":"南翔镇","lon":"121.32083892","lat":"31.293945312","category":"260","category_name":"其他","address":"上海嘉定区南翔镇"},{"poiid":"B2094757D06AABF8479F","title":"南翔绿谷别墅","lon":"121.329919","lat":"31.296186","category":"47","category_name":"住宅区","address":"上海市嘉定区南翔镇虹光路111号"},{"poiid":"B2094654DB69A6FE489F","title":"古漪园","lon":"121.31603","lat":"31.29213","category":"196","category_name":"公园","address":"上海市嘉定区沪宜公路218号"},{"poiid":"B2094751DA6EA7F5479C","title":"星巴克南翔祥腾广场店","lon":"121.3228","lat":"31.296463","category":"247","category_name":"餐饮美食","address":"嘉定区佳通路31弄3号中冶翔腾城市广场2楼(近11号线南翔站)"},{"poiid":"B2094757D06BA7FB479B","title":"中央公园","lon":"121.31244292","lat":"31.311302609","category":"196","category_name":"公园","address":"上海市嘉定区宝翔路芳菊路"},{"poiid":"B2094655D264A7FD4599","title":"路劲逸隽园","lon":"121.31567","lat":"31.315073","category":"47","category_name":"住宅区","address":"上海市嘉定区宝翔路998弄"},{"poiid":"B2094757D064A5FA439A","title":"金地格林世界圣琼斯湾","lon":"121.32882015978","lat":"31.308314978731","category":"500","category_name":"未知分类","address":"上海金地格林世界圣琼斯湾"},{"poiid":"B2094757D06FA3FD4799","title":"S5沪嘉高速南翔收费站","lon":"121.325303892","lat":"31.2968820244","category":"267","category_name":"收费站","address":"上海S5沪嘉高速南翔收费站(近丰翔路)"},{"poiid":"B2094757D068A1FC4692","title":"家乐福(南翔店)","lon":"121.33281769559676","lat":"31.304198465976114","category":"118","category_name":"超级市场","address":"上海嘉定区丰翔路3168号"},{"poiid":"B2094757D168A6F94593","title":"华润中央公园","lon":"121.32380691054","lat":"31.318206536149","category":"196","category_name":"公园","address":"上海市嘉定区沪宜公路"},{"poiid":"B2094757D16DA1FB4692","title":"南翔文广中心","lon":"121.31328892","lat":"31.299913373","category":"500","category_name":"未知分类","address":"嘉定区古猗园路737号"},{"poiid":"B2094757D169A7FF4592","title":"新城公馆","lon":"121.32548362","lat":"31.308091542","category":"47","category_name":"住宅区","address":"上海嘉定區南翔禛寶翔路191弄2號新城公館接待中心"},{"poiid":"B2094757D068ABFF449A","title":"南翔金地格林","lon":"121.32389068","lat":"31.300073623","category":"47","category_name":"住宅区","address":"上海嘉定南翔镇芳林路"},{"poiid":"B2094757D469A0FC4299","title":"神犸音乐餐厅","lon":"121.316122","lat":"31.3040865","category":"260","category_name":"其他","address":"嘉定区南翔镇芳林路333弄96号(近家乐福)"},{"poiid":"B2094753DA6EA6FD459A","title":"金地格林世界安布瓦湖","lon":"121.323","lat":"31.3113","category":"47","category_name":"住宅区","address":"芳林路398弄"},{"poiid":"B2094751D468AAF8479B","title":"金地格林世界布鲁斯郡","lon":"121.323","lat":"31.31","category":"500","category_name":"未知分类","address":"芳林路669弄"},{"poiid":"B2094752D56DA4FD469B","title":"荷泰东南亚风味餐厅","lon":"121.317225","lat":"31.297102","category":"247","category_name":"餐饮美食","address":"中冶祥腾广场"},{"poiid":"B2094654DB6AA4F8409F","title":"阳光苑","lon":"121.32336","lat":"31.315659","category":"47","category_name":"住宅区","address":"民同路10弄"},{"poiid":"B2094757D06AAAFF439F","title":"嘉定二中","lon":"121.31111145","lat":"31.2952690125","category":"55","category_name":"中学","address":"嘉定区德华路388号"},{"poiid":"B2094654D46BA6F44898","title":"南翔工业区","lon":"121.329","lat":"31.31223","category":"45","category_name":"产业园区","address":""},{"poiid":"B2094757D064ABF44093","title":"机施一分公司","lon":"121.32130133","lat":"31.314134427","category":"263","category_name":"公司","address":"上海顺达路615号"},{"poiid":"B2094757D16AA5FE489C","title":"沙县小吃","lon":"121.323660925","lat":"31.3152746915","category":"247","category_name":"餐饮美食","address":"上海嘉定区南翔镇静塘路近浏翔公路"},{"poiid":"B2094654D46BA5FE4793","title":"浏翔花苑","lon":"121.31902","lat":"31.320253","category":"47","category_name":"住宅区","address":"浏翔路146弄"},{"poiid":"B2094757D16BA0F8429F","title":"乐在四季青少儿培训中心","lon":"121.31812592","lat":"31.308336547","category":"500","category_name":"未知分类","address":"上海古美路300号"},{"poiid":"B2094757D56EA6FD4498","title":"达芙妮-南翔家乐福店","lon":"121.3209147","lat":"31.3075883","category":"249","category_name":"购物服务","address":"嘉定区丰翔路3618号家乐福1楼(近宝翔路)"},{"poiid":"B2094757D169A2FF429F","title":"朗诗绿色街区","lon":"121.32426802944","lat":"31.318638724159","category":"500","category_name":"未知分类","address":"上海嘉定南翔陈翔路"},{"poiid":"B2094655D36DA7F5429A","title":"浏翔公路薀北路","lon":"121.32185","lat":"31.32367","category":"38","category_name":"公交车站","address":""},{"poiid":"B2094757D66BA5FC4699","title":"肯德基 丰翔路店 KFC","lon":"121.316944054","lat":"31.299572793","category":"68","category_name":"快餐厅","address":"嘉定区丰翔路3168号家乐福超市1楼(丰翔路浏翔公路)"},{"poiid":"B2094757D064AAF5499E","title":"味千拉面","lon":"121.32508392","lat":"31.298980353","category":"247","category_name":"餐饮美食","address":"上海近郊嘉定区丰翔路3168号家乐福超市1楼(近宝翔路)  "},{"poiid":"B2094751D568A2F5429A","title":"新翔家园","lon":"121.312249","lat":"31.305007","category":"47","category_name":"住宅区","address":"真南路4889弄"},{"poiid":"B2094757D568AAFB4099","title":"南翔镇南华路、民主街解放街","lon":"121.31572","lat":"31.29648","category":"47","category_name":"住宅区","address":"上海市嘉定区南翔镇民主街224号"},{"poiid":"B2094751DA6CA1FF4293","title":"小杨生煎","lon":"121.319843","lat":"31.299452","category":"247","category_name":"餐饮美食","address":"南翔地铁站"},{"poiid":"B2094654DB69A6FE439C","title":"金地格林春晓","lon":"121.32337","lat":"31.29254","category":"47","category_name":"住宅区","address":"上海市嘉定区真南路4233号"},{"poiid":"B2094751D469A1F4449B","title":"中建溪岸瀾庭","lon":"121.3197414910034","lat":"31.3018726523716","category":"47","category_name":"住宅区","address":"滬宜公路 嘉美路"},{"poiid":"B2094750D56BA5F84598","title":"路劲翡丽湾","lon":"121.324803","lat":"31.32249","category":"47","category_name":"住宅区","address":"嘉定雅翔路288弄1号(近宝翔路芳菊路)"},{"poiid":"B2094757DB69A6FA419A","title":"布鲁斯郡","lon":"121.3111538493724","lat":"31.30591123681436","category":"47","category_name":"住宅区","address":"芳林路669弄"},{"poiid":"B2094757DB68A0F8459F","title":"金地格林世界格林公馆","lon":"121.3040475199999","lat":"31.30840306999999","category":"500","category_name":"未知分类","address":"嘉定区芳林路951弄"},{"poiid":"B2094750DB65A3F8489B","title":"白金院邸","lon":"121.315139","lat":"31.303794","category":"252","category_name":"楼宇机构","address":"芳林路819弄"},{"poiid":"B2094655D264A7FD449F","title":"金地格林世界(北门)","lon":"121.32317","lat":"31.30172","category":"48","category_name":"楼宇大门","address":"芳林路333弄"},{"poiid":"B2094752D464A1FE459B","title":"满记甜品上海南翔中治翔腾广场店","lon":"121.318072","lat":"31.297161","category":"247","category_name":"餐饮美食","address":null},{"poiid":"B2094751D264A2F5489F","title":"金地格林世界-森林公馆","lon":"121.3109479","lat":"31.3114992","category":"627","category_name":"一般地点标志","address":"栖林路425弄"},{"poiid":"B2094757D06AABF44692","title":"凯旋宫酒楼(南翔店)","lon":"121.32478942","lat":"31.298657497","category":"76","category_name":"上海菜","address":"嘉定区丰翔路3168号(近真南路)"},{"poiid":"B2094752D368A1FF409F","title":"捞王猪肚鸡","lon":"121.322586","lat":"31.294815","category":"247","category_name":"餐饮美食","address":"上海市嘉定区南翔镇中冶翔腾城市广场二楼"},{"poiid":"B2094655D264A7F94193","title":"绿洲古猗新苑","lon":"121.32","lat":"31.2989","category":"47","category_name":"住宅区","address":"上海市嘉定区古猗园路155弄"},{"poiid":"B2094655D36DA7F54193","title":"浏翔公路丰翔路","lon":"121.33131","lat":"31.30474","category":"38","category_name":"公交车站","address":""},{"poiid":"B2094654DB69A5F54493","title":"格林豪泰酒店(南翔店)","lon":"121.32161","lat":"31.29403","category":"216","category_name":"经济型连锁酒店","address":"普陀区众仁路与真南路交叉口(南翔镇政府斜对面)"},{"poiid":"B2094757D16DA2FE4098","title":"贝贝大酒店","lon":"121.336992054","lat":"31.303102793","category":"76","category_name":"上海菜","address":"宝山区丰翔路2158号(丰翔路园泰路)"},{"poiid":"B2094757D568A6FB489B","title":"中冶祥腾城市广场","lon":"121.327364","lat":"31.302838","category":"47","category_name":"住宅区","address":"嘉定区真南路4500号(11号线南翔站对面)"},{"poiid":"B2094757D06EAAFE419C","title":"南翔地铁站","lon":"121.32427277","lat":"31.297083592","category":"36","category_name":"地铁站","address":"上海轨道交通 十一号线 轨交南翔站 11"},{"poiid":"B2094757D06FA2FC479B","title":"金地格林世界","lon":"121.32311061","lat":"31.298570324","category":"47","category_name":"住宅区","address":"嘉定区南翔镇瑞林路68号(沪嘉高速丰翔路路口)"},{"poiid":"B2094757D06FA2F8499E","title":"南翔镇","lon":"121.32083892","lat":"31.293945312","category":"260","category_name":"其他","address":"上海嘉定区南翔镇"},{"poiid":"B2094757D06AABF8479F","title":"南翔绿谷别墅","lon":"121.329919","lat":"31.296186","category":"47","category_name":"住宅区","address":"上海市嘉定区南翔镇虹光路111号"},{"poiid":"B2094654DB69A6FE489F","title":"古漪园","lon":"121.31603","lat":"31.29213","category":"196","category_name":"公园","address":"上海市嘉定区沪宜公路218号"},{"poiid":"B2094751DA6EA7F5479C","title":"星巴克南翔祥腾广场店","lon":"121.3228","lat":"31.296463","category":"247","category_name":"餐饮美食","address":"嘉定区佳通路31弄3号中冶翔腾城市广场2楼(近11号线南翔站)"},{"poiid":"B2094757D06BA7FB479B","title":"中央公园","lon":"121.31244292","lat":"31.311302609","category":"196","category_name":"公园","address":"上海市嘉定区宝翔路芳菊路"},{"poiid":"B2094655D264A7FD4599","title":"路劲逸隽园","lon":"121.31567","lat":"31.315073","category":"47","category_name":"住宅区","address":"上海市嘉定区宝翔路998弄"},{"poiid":"B2094757D064A5FA439A","title":"金地格林世界圣琼斯湾","lon":"121.32882015978","lat":"31.308314978731","category":"500","category_name":"未知分类","address":"上海金地格林世界圣琼斯湾"},{"poiid":"B2094757D06FA3FD4799","title":"S5沪嘉高速南翔收费站","lon":"121.325303892","lat":"31.2968820244","category":"267","category_name":"收费站","address":"上海S5沪嘉高速南翔收费站(近丰翔路)"},{"poiid":"B2094757D068A1FC4692","title":"家乐福(南翔店)","lon":"121.33281769559676","lat":"31.304198465976114","category":"118","category_name":"超级市场","address":"上海嘉定区丰翔路3168号"},{"poiid":"B2094757D168A6F94593","title":"华润中央公园","lon":"121.32380691054","lat":"31.318206536149","category":"196","category_name":"公园","address":"上海市嘉定区沪宜公路"},{"poiid":"B2094757D16DA1FB4692","title":"南翔文广中心","lon":"121.31328892","lat":"31.299913373","category":"500","category_name":"未知分类","address":"嘉定区古猗园路737号"},{"poiid":"B2094757D169A7FF4592","title":"新城公馆","lon":"121.32548362","lat":"31.308091542","category":"47","category_name":"住宅区","address":"上海嘉定區南翔禛寶翔路191弄2號新城公館接待中心"},{"poiid":"B2094757D068ABFF449A","title":"南翔金地格林","lon":"121.32389068","lat":"31.300073623","category":"47","category_name":"住宅区","address":"上海嘉定南翔镇芳林路"},{"poiid":"B2094757D469A0FC4299","title":"神犸音乐餐厅","lon":"121.316122","lat":"31.3040865","category":"260","category_name":"其他","address":"嘉定区南翔镇芳林路333弄96号(近家乐福)"},{"poiid":"B2094753DA6EA6FD459A","title":"金地格林世界安布瓦湖","lon":"121.323","lat":"31.3113","category":"47","category_name":"住宅区","address":"芳林路398弄"},{"poiid":"B2094751D468AAF8479B","title":"金地格林世界布鲁斯郡","lon":"121.323","lat":"31.31","category":"500","category_name":"未知分类","address":"芳林路669弄"},{"poiid":"B2094752D56DA4FD469B","title":"荷泰东南亚风味餐厅","lon":"121.317225","lat":"31.297102","category":"247","category_name":"餐饮美食","address":"中冶祥腾广场"},{"poiid":"B2094654DB6AA4F8409F","title":"阳光苑","lon":"121.32336","lat":"31.315659","category":"47","category_name":"住宅区","address":"民同路10弄"},{"poiid":"B2094757D06AAAFF439F","title":"嘉定二中","lon":"121.31111145","lat":"31.2952690125","category":"55","category_name":"中学","address":"嘉定区德华路388号"},{"poiid":"B2094654D46BA6F44898","title":"南翔工业区","lon":"121.329","lat":"31.31223","category":"45","category_name":"产业园区","address":""},{"poiid":"B2094757D064ABF44093","title":"机施一分公司","lon":"121.32130133","lat":"31.314134427","category":"263","category_name":"公司","address":"上海顺达路615号"},{"poiid":"B2094757D16AA5FE489C","title":"沙县小吃","lon":"121.323660925","lat":"31.3152746915","category":"247","category_name":"餐饮美食","address":"上海嘉定区南翔镇静塘路近浏翔公路"},{"poiid":"B2094654D46BA5FE4793","title":"浏翔花苑","lon":"121.31902","lat":"31.320253","category":"47","category_name":"住宅区","address":"浏翔路146弄"},{"poiid":"B2094757D16BA0F8429F","title":"乐在四季青少儿培训中心","lon":"121.31812592","lat":"31.308336547","category":"500","category_name":"未知分类","address":"上海古美路300号"},{"poiid":"B2094757D56EA6FD4498","title":"达芙妮-南翔家乐福店","lon":"121.3209147","lat":"31.3075883","category":"249","category_name":"购物服务","address":"嘉定区丰翔路3618号家乐福1楼(近宝翔路)"},{"poiid":"B2094757D169A2FF429F","title":"朗诗绿色街区","lon":"121.32426802944","lat":"31.318638724159","category":"500","category_name":"未知分类","address":"上海嘉定南翔陈翔路"},{"poiid":"B2094655D36DA7F5429A","title":"浏翔公路薀北路","lon":"121.32185","lat":"31.32367","category":"38","category_name":"公交车站","address":""},{"poiid":"B2094757D66BA5FC4699","title":"肯德基 丰翔路店 KFC","lon":"121.316944054","lat":"31.299572793","category":"68","category_name":"快餐厅","address":"嘉定区丰翔路3168号家乐福超市1楼(丰翔路浏翔公路)"},{"poiid":"B2094757D064AAF5499E","title":"味千拉面","lon":"121.32508392","lat":"31.298980353","category":"247","category_name":"餐饮美食","address":"上海近郊嘉定区丰翔路3168号家乐福超市1楼(近宝翔路)  "},{"poiid":"B2094751D568A2F5429A","title":"新翔家园","lon":"121.312249","lat":"31.305007","category":"47","category_name":"住宅区","address":"真南路4889弄"},{"poiid":"B2094757D568AAFB4099","title":"南翔镇南华路、民主街解放街","lon":"121.31572","lat":"31.29648","category":"47","category_name":"住宅区","address":"上海市嘉定区南翔镇民主街224号"},{"poiid":"B2094751DA6CA1FF4293","title":"小杨生煎","lon":"121.319843","lat":"31.299452","category":"247","category_name":"餐饮美食","address":"南翔地铁站"},{"poiid":"B2094654DB69A6FE439C","title":"金地格林春晓","lon":"121.32337","lat":"31.29254","category":"47","category_name":"住宅区","address":"上海市嘉定区真南路4233号"},{"poiid":"B2094751D469A1F4449B","title":"中建溪岸瀾庭","lon":"121.3197414910034","lat":"31.3018726523716","category":"47","category_name":"住宅区","address":"滬宜公路 嘉美路"},{"poiid":"B2094750D56BA5F84598","title":"路劲翡丽湾","lon":"121.324803","lat":"31.32249","category":"47","category_name":"住宅区","address":"嘉定雅翔路288弄1号(近宝翔路芳菊路)"},{"poiid":"B2094757DB69A6FA419A","title":"布鲁斯郡","lon":"121.3111538493724","lat":"31.30591123681436","category":"47","category_name":"住宅区","address":"芳林路669弄"},{"poiid":"B2094757DB68A0F8459F","title":"金地格林世界格林公馆","lon":"121.3040475199999","lat":"31.30840306999999","category":"500","category_name":"未知分类","address":"嘉定区芳林路951弄"},{"poiid":"B2094750DB65A3F8489B","title":"白金院邸","lon":"121.315139","lat":"31.303794","category":"252","category_name":"楼宇机构","address":"芳林路819弄"},{"poiid":"B2094655D264A7FD449F","title":"金地格林世界(北门)","lon":"121.32317","lat":"31.30172","category":"48","category_name":"楼宇大门","address":"芳林路333弄"},{"poiid":"B2094752D464A1FE459B","title":"满记甜品上海南翔中治翔腾广场店","lon":"121.318072","lat":"31.297161","category":"247","category_name":"餐饮美食","address":null},{"poiid":"B2094751D264A2F5489F","title":"金地格林世界-森林公馆","lon":"121.3109479","lat":"31.3114992","category":"627","category_name":"一般地点标志","address":"栖林路425弄"},{"poiid":"B2094757D06AABF44692","title":"凯旋宫酒楼(南翔店)","lon":"121.32478942","lat":"31.298657497","category":"76","category_name":"上海菜","address":"嘉定区丰翔路3168号(近真南路)"},{"poiid":"B2094752D368A1FF409F","title":"捞王猪肚鸡","lon":"121.322586","lat":"31.294815","category":"247","category_name":"餐饮美食","address":"上海市嘉定区南翔镇中冶翔腾城市广场二楼"},{"poiid":"B2094655D264A7F94193","title":"绿洲古猗新苑","lon":"121.32","lat":"31.2989","category":"47","category_name":"住宅区","address":"上海市嘉定区古猗园路155弄"},{"poiid":"B2094655D36DA7F54193","title":"浏翔公路丰翔路","lon":"121.33131","lat":"31.30474","category":"38","category_name":"公交车站","address":""},{"poiid":"B2094654DB69A5F54493","title":"格林豪泰酒店(南翔店)","lon":"121.32161","lat":"31.29403","category":"216","category_name":"经济型连锁酒店","address":"普陀区众仁路与真南路交叉口(南翔镇政府斜对面)"},{"poiid":"B2094757D16DA2FE4098","title":"贝贝大酒店","lon":"121.336992054","lat":"31.303102793","category":"76","category_name":"上海菜","address":"宝山区丰翔路2158号(丰翔路园泰路)"}]