[{"poiid":"B2094655D26FA5FF469B","title":"上海交通大学徐汇校区","lon":"121.43258","lat":"31.19881","category":"52","category_name":"高等院校","address":"徐汇区华山路1954号上海交通大学内(近广元西路)"},{"poiid":"B2094655D26AABF8489C","title":"小小花园 LE PETIT JARDIN","lon":"121.43694071246","lat":"31.200279747478","category":"260","category_name":"其他","address":"徐汇区康平路220号(天平路华山路之间)"},{"poiid":"B2094757D068AAF84199","title":"上海交通大学钱学森图书馆","lon":"121.435496989","lat":"31.2013391905","category":"181","category_name":"图书馆","address":"徐汇区华山路1800号"},{"poiid":"B2094654DA6DA3FE419E","title":"上海交通大学徐汇校区(南门)","lon":"121.43528","lat":"31.19744","category":"52","category_name":"高等院校","address":"广元西路55"},{"poiid":"B2094654DA6EA0FC4099","title":"上海交通大学徐汇校区(东门)","lon":"121.43654","lat":"31.19868","category":"52","category_name":"高等院校","address":"华山路1954"},{"poiid":"B2094757D06EAAF4469F","title":"交通大学地铁站","lon":"121.434637","lat":"31.201981","category":"36","category_name":"地铁站","address":"上海轨道交通 十号线 轨交交通大学站 10"},{"poiid":"B2094757D068AAFB439A","title":"上海交通大学工程馆","lon":"121.43378196","lat":"31.2005447742","category":"253","category_name":"校园生活","address":"上海市徐汇区华山路1954号"},{"poiid":"B2094757D06AA5F5469C","title":"交通大学大草坪","lon":"121.43466381","lat":"31.199059858","category":"500","category_name":"未知分类","address":"上海交大华山路校区"},{"poiid":"B2094757D06FAAF4429B","title":"中村发型设计中心(华山路店)","lon":"121.43522","lat":"31.20261","category":"260","category_name":"其他","address":"上海徐汇区华山路1591号(淮海西路口)  "},{"poiid":"B2094654D564A6FC409F","title":"复旦中学","lon":"121.43437","lat":"31.20306","category":"55","category_name":"中学","address":"徐汇区华山路1626号(近淮海西路)"},{"poiid":"B2094654DB6BA5F54193","title":"南洋模范中学","lon":"121.43667","lat":"31.20099","category":"55","category_name":"中学","address":"天平路200"},{"poiid":"B2094757D06AAAF5409D","title":"酷芝PIZZA COOLZEY","lon":"121.43455421439","lat":"31.20311280591","category":"94","category_name":"西餐厅","address":"徐汇区华山路1589号3号(近淮海中路)"},{"poiid":"B2094757D068A3FB499B","title":"上海交通大学新上院","lon":"121.43655","lat":"31.198691","category":"52","category_name":"高等院校","address":"上海市华山路1954号"},{"poiid":"B2094654DB64A4FF449A","title":"味千拉面博家楼店","lon":"121.43709","lat":"31.19857","category":"95","category_name":"日本料理","address":"徐汇区华山路1859号1楼(近广元西路)"},{"poiid":"B2094750D76EA2FF4799","title":"尊萃508公馆","lon":"121.436","lat":"31.2018","category":"76","category_name":"上海菜","address":"徐汇区华山路1731号(近淮海西路)"},{"poiid":"B2094757D66EA4FE439A","title":"上海影城6号放映厅","lon":"121.432505786","lat":"31.1995091303","category":"178","category_name":"电影院","address":"长宁区新华路160号上海影城内(近番愚路)"},{"poiid":"B2094752D06EA3FF4298","title":"小辉哥火锅","lon":"121.4343095487457","lat":"31.20029722177148","category":"247","category_name":"餐饮美食","address":"港汇恒隆广场5F538室"},{"poiid":"B2094654DA6DA3FF4292","title":"上海西华酒店公寓","lon":"121.43513","lat":"31.2018","category":"214","category_name":"四星级宾馆","address":"上海市徐汇区淮海西路1号(华山路口)"},{"poiid":"B2094757D065A6F4489D","title":"1号线人民广场站","lon":"121.433984586","lat":"31.2019978789","category":"500","category_name":"未知分类","address":"上海人民广场"},{"poiid":"B2094757D16EA1FC4993","title":"上海交大徐汇校区大操场","lon":"121.43473535","lat":"31.198292789","category":"500","category_name":"未知分类","address":"上海交通大学徐汇校区"},{"poiid":"B2094751D564A3F9429B","title":"华山医院","lon":"121.434353","lat":"31.201086","category":"162","category_name":"医院","address":null},{"poiid":"B2094757DB6FA7FD409A","title":"港汇","lon":"121.43431061","lat":"31.20004205999999","category":"500","category_name":"未知分类","address":"港汇"},{"poiid":"B2094752D36FA5FA479D","title":"70后饭吧","lon":"121.43639","lat":"31.19789","category":"247","category_name":"餐饮美食","address":"上海市肇嘉浜路汇金百货7楼"},{"poiid":"B2094757D069ABFC419B","title":"长颈鹿美语","lon":"121.436288","lat":"31.201712","category":"260","category_name":"其他","address":"徐汇区华山路1751号海斯大厦3楼(近淮海西路)"},{"poiid":"B2094655D26EA1FF469D","title":"金凤凰酒家","lon":"121.43513","lat":"31.2018","category":"247","category_name":"餐饮美食","address":"长宁区淮海西路1号西华酒店公寓4-5楼(华山路口)"},{"poiid":"B2094752DB6AAAF54998","title":"永华影城","lon":"121.434199","lat":"31.200102","category":"178","category_name":"电影院","address":"上海市 港汇广场6F"},{"poiid":"B2094757D06AA2FC409F","title":"复旦中学羽毛球馆","lon":"121.433770759","lat":"31.2032934808","category":"253","category_name":"校园生活","address":"上海徐汇区华山路1626号复旦中学体育馆内(近淮海西路)"},{"poiid":"B2094757D464A7FD419E","title":"牧羊餐厅","lon":"121.43730728468","lat":"31.199917951653","category":"76","category_name":"上海菜","address":"徐汇区天平路208弄车间1号(近康平路)"},{"poiid":"B2094752D164A6F44792","title":"上海歌城（华汇店）","lon":"121.434311","lat":"31.2003","category":"170","category_name":"KTV","address":"华山路2000号汇银广场6楼"},{"poiid":"B2094654DA6DA3F8419D","title":"上海交通大学徐汇校区(北门)","lon":"121.43278","lat":"31.20102","category":"52","category_name":"高等院校","address":""},{"poiid":"B2094757DB6CA7FB409E","title":"9号线徐家汇站","lon":"121.4348694","lat":"31.198131","category":"500","category_name":"未知分类","address":"9号线徐家汇站"},{"poiid":"B2094750D56FA4FA499A","title":"台北纯k","lon":"121.434432","lat":"31.200477","category":"500","category_name":"未知分类","address":null},{"poiid":"B2094752D269A1F4499D","title":"小小花园","lon":"121.433487","lat":"31.200678","category":"247","category_name":"餐饮美食","address":"康平路220号"},{"poiid":"B2094757D069A2FB409C","title":"莎拂利(天平店)","lon":"121.43762","lat":"31.20045","category":"94","category_name":"西餐厅","address":"徐汇区天平路220号(近康平路)"},{"poiid":"B2094751D56AA1FD4398","title":"永華電影院","lon":"121.434245","lat":"31.199738","category":"178","category_name":"电影院","address":"華山路"},{"poiid":"B2094757D06BAAFF479D","title":"香奈造型(上海影城店)","lon":"121.43309858","lat":"31.202635891","category":"148","category_name":"美容美发店","address":"上海市长宁区法华镇路59号近淮海西路华山路(预约电话"},{"poiid":"B2094751D464A7FF4693","title":"钱学森图书馆","lon":"121.435346","lat":"31.201","category":"253","category_name":"校园生活","address":"上海徐汇区上海交通大学"},{"poiid":"B2094654DA6DA3FF429C","title":"交大游泳池","lon":"121.43591","lat":"31.20094","category":"231","category_name":"游泳馆","address":"华山路1794"},{"poiid":"B2094752DA69A4FC429E","title":"70后饭吧","lon":"121.434402","lat":"31.199227","category":"247","category_name":"餐饮美食","address":"上海市 徐家汇汇金"},{"poiid":"B2094654DB6AA7FD429B","title":"醉美官府菜","lon":"121.43513","lat":"31.2018","category":"247","category_name":"餐饮美食","address":"长宁区淮海西路1号西华酒店公寓2楼(近华山路)"},{"poiid":"B2094655D26AA1FF4798","title":"聚贤阁食府","lon":"121.436293054","lat":"31.199037793","category":"268","category_name":"自助","address":"徐汇区华山路1888号交大宾馆内(近康平路)"},{"poiid":"B2094654DB64A4F94493","title":"上海西华商旅大厦","lon":"121.43512","lat":"31.2018","category":"46","category_name":"楼宇","address":"淮海西路1号"},{"poiid":"B2094654DA6DA3F84198","title":"名古屋大学上海联络处驻上海交通大学","lon":"121.43441","lat":"31.20136","category":"52","category_name":"高等院校","address":"淮海西路55号申通信息广场27D"},{"poiid":"B2094655D264A6FA499D","title":"上海交通大学学生艺术团","lon":"121.43532","lat":"31.20066","category":"189","category_name":"文艺团体","address":""},{"poiid":"B2094655D36CA0F84499","title":"交通大学(华山路康平路)","lon":"121.43632","lat":"31.20029","category":"38","category_name":"公交车站","address":""},{"poiid":"B2094654DA6DA3F8409C","title":"徐汇区民办福隆体口腔门诊部","lon":"121.43441","lat":"31.20136","category":"162","category_name":"医院","address":"淮海西路55号申通信息广场23KL"},{"poiid":"B2094654DA6DA3FE4498","title":"上海交通大学海外教育学院(广元西路)","lon":"121.43495","lat":"31.19798","category":"52","category_name":"高等院校","address":"广元西路55号浩然高科技大厦17层02-06"},{"poiid":"B2094752DB6CA4F5419E","title":"新衡山电影院","lon":"121.435811","lat":"31.199448","category":"178","category_name":"电影院","address":"上海市 衡山路838号"},{"poiid":"B2094654DB65A1FD4698","title":"交通大学(华山路)","lon":"121.43258","lat":"31.19881","category":"52","category_name":"高等院校","address":"华山路1954"},{"poiid":"B2094757D065A2F44592","title":"张小K私房菜","lon":"121.435678","lat":"31.201412","category":"247","category_name":"餐饮美食","address":"上海徐汇区秀山路16弄2号401室"},{"poiid":"B2094655D26FA5FF469B","title":"上海交通大学徐汇校区","lon":"121.43258","lat":"31.19881","category":"52","category_name":"高等院校","address":"徐汇区华山路1954号上海交通大学内(近广元西路)"},{"poiid":"B2094655D26AABF8489C","title":"小小花园 LE PETIT JARDIN","lon":"121.43694071246","lat":"31.200279747478","category":"260","category_name":"其他","address":"徐汇区康平路220号(天平路华山路之间)"},{"poiid":"B2094757D068AAF84199","title":"上海交通大学钱学森图书馆","lon":"121.435496989","lat":"31.2013391905","category":"181","category_name":"图书馆","address":"徐汇区华山路1800号"},{"poiid":"B2094654DA6DA3FE419E","title":"上海交通大学徐汇校区(南门)","lon":"121.43528","lat":"31.19744","category":"52","category_name":"高等院校","address":"广元西路55"},{"poiid":"B2094654DA6EA0FC4099","title":"上海交通大学徐汇校区(东门)","lon":"121.43654","lat":"31.19868","category":"52","category_name":"高等院校","address":"华山路1954"},{"poiid":"B2094757D06EAAF4469F","title":"交通大学地铁站","lon":"121.434637","lat":"31.201981","category":"36","category_name":"地铁站","address":"上海轨道交通 十号线 轨交交通大学站 10"},{"poiid":"B2094757D068AAFB439A","title":"上海交通大学工程馆","lon":"121.43378196","lat":"31.2005447742","category":"253","category_name":"校园生活","address":"上海市徐汇区华山路1954号"},{"poiid":"B2094757D06AA5F5469C","title":"交通大学大草坪","lon":"121.43466381","lat":"31.199059858","category":"500","category_name":"未知分类","address":"上海交大华山路校区"},{"poiid":"B2094757D06FAAF4429B","title":"中村发型设计中心(华山路店)","lon":"121.43522","lat":"31.20261","category":"260","category_name":"其他","address":"上海徐汇区华山路1591号(淮海西路口)  "},{"poiid":"B2094654D564A6FC409F","title":"复旦中学","lon":"121.43437","lat":"31.20306","category":"55","category_name":"中学","address":"徐汇区华山路1626号(近淮海西路)"},{"poiid":"B2094654DB6BA5F54193","title":"南洋模范中学","lon":"121.43667","lat":"31.20099","category":"55","category_name":"中学","address":"天平路200"},{"poiid":"B2094757D06AAAF5409D","title":"酷芝PIZZA COOLZEY","lon":"121.43455421439","lat":"31.20311280591","category":"94","category_name":"西餐厅","address":"徐汇区华山路1589号3号(近淮海中路)"},{"poiid":"B2094757D068A3FB499B","title":"上海交通大学新上院","lon":"121.43655","lat":"31.198691","category":"52","category_name":"高等院校","address":"上海市华山路1954号"},{"poiid":"B2094654DB64A4FF449A","title":"味千拉面博家楼店","lon":"121.43709","lat":"31.19857","category":"95","category_name":"日本料理","address":"徐汇区华山路1859号1楼(近广元西路)"},{"poiid":"B2094750D76EA2FF4799","title":"尊萃508公馆","lon":"121.436","lat":"31.2018","category":"76","category_name":"上海菜","address":"徐汇区华山路1731号(近淮海西路)"},{"poiid":"B2094757D66EA4FE439A","title":"上海影城6号放映厅","lon":"121.432505786","lat":"31.1995091303","category":"178","category_name":"电影院","address":"长宁区新华路160号上海影城内(近番愚路)"},{"poiid":"B2094752D06EA3FF4298","title":"小辉哥火锅","lon":"121.4343095487457","lat":"31.20029722177148","category":"247","category_name":"餐饮美食","address":"港汇恒隆广场5F538室"},{"poiid":"B2094654DA6DA3FF4292","title":"上海西华酒店公寓","lon":"121.43513","lat":"31.2018","category":"214","category_name":"四星级宾馆","address":"上海市徐汇区淮海西路1号(华山路口)"},{"poiid":"B2094757D065A6F4489D","title":"1号线人民广场站","lon":"121.433984586","lat":"31.2019978789","category":"500","category_name":"未知分类","address":"上海人民广场"},{"poiid":"B2094757D16EA1FC4993","title":"上海交大徐汇校区大操场","lon":"121.43473535","lat":"31.198292789","category":"500","category_name":"未知分类","address":"上海交通大学徐汇校区"},{"poiid":"B2094751D564A3F9429B","title":"华山医院","lon":"121.434353","lat":"31.201086","category":"162","category_name":"医院","address":null},{"poiid":"B2094757DB6FA7FD409A","title":"港汇","lon":"121.43431061","lat":"31.20004205999999","category":"500","category_name":"未知分类","address":"港汇"},{"poiid":"B2094752D36FA5FA479D","title":"70后饭吧","lon":"121.43639","lat":"31.19789","category":"247","category_name":"餐饮美食","address":"上海市肇嘉浜路汇金百货7楼"},{"poiid":"B2094757D069ABFC419B","title":"长颈鹿美语","lon":"121.436288","lat":"31.201712","category":"260","category_name":"其他","address":"徐汇区华山路1751号海斯大厦3楼(近淮海西路)"},{"poiid":"B2094655D26EA1FF469D","title":"金凤凰酒家","lon":"121.43513","lat":"31.2018","category":"247","category_name":"餐饮美食","address":"长宁区淮海西路1号西华酒店公寓4-5楼(华山路口)"},{"poiid":"B2094752DB6AAAF54998","title":"永华影城","lon":"121.434199","lat":"31.200102","category":"178","category_name":"电影院","address":"上海市 港汇广场6F"},{"poiid":"B2094757D06AA2FC409F","title":"复旦中学羽毛球馆","lon":"121.433770759","lat":"31.2032934808","category":"253","category_name":"校园生活","address":"上海徐汇区华山路1626号复旦中学体育馆内(近淮海西路)"},{"poiid":"B2094757D464A7FD419E","title":"牧羊餐厅","lon":"121.43730728468","lat":"31.199917951653","category":"76","category_name":"上海菜","address":"徐汇区天平路208弄车间1号(近康平路)"},{"poiid":"B2094752D164A6F44792","title":"上海歌城（华汇店）","lon":"121.434311","lat":"31.2003","category":"170","category_name":"KTV","address":"华山路2000号汇银广场6楼"},{"poiid":"B2094654DA6DA3F8419D","title":"上海交通大学徐汇校区(北门)","lon":"121.43278","lat":"31.20102","category":"52","category_name":"高等院校","address":""},{"poiid":"B2094757DB6CA7FB409E","title":"9号线徐家汇站","lon":"121.4348694","lat":"31.198131","category":"500","category_name":"未知分类","address":"9号线徐家汇站"},{"poiid":"B2094750D56FA4FA499A","title":"台北纯k","lon":"121.434432","lat":"31.200477","category":"500","category_name":"未知分类","address":null},{"poiid":"B2094752D269A1F4499D","title":"小小花园","lon":"121.433487","lat":"31.200678","category":"247","category_name":"餐饮美食","address":"康平路220号"},{"poiid":"B2094757D069A2FB409C","title":"莎拂利(天平店)","lon":"121.43762","lat":"31.20045","category":"94","category_name":"西餐厅","address":"徐汇区天平路220号(近康平路)"},{"poiid":"B2094751D56AA1FD4398","title":"永華電影院","lon":"121.434245","lat":"31.199738","category":"178","category_name":"电影院","address":"華山路"},{"poiid":"B2094757D06BAAFF479D","title":"香奈造型(上海影城店)","lon":"121.43309858","lat":"31.202635891","category":"148","category_name":"美容美发店","address":"上海市长宁区法华镇路59号近淮海西路华山路(预约电话"},{"poiid":"B2094751D464A7FF4693","title":"钱学森图书馆","lon":"121.435346","lat":"31.201","category":"253","category_name":"校园生活","address":"上海徐汇区上海交通大学"},{"poiid":"B2094654DA6DA3FF429C","title":"交大游泳池","lon":"121.43591","lat":"31.20094","category":"231","category_name":"游泳馆","address":"华山路1794"},{"poiid":"B2094752DA69A4FC429E","title":"70后饭吧","lon":"121.434402","lat":"31.199227","category":"247","category_name":"餐饮美食","address":"上海市 徐家汇汇金"},{"poiid":"B2094654DB6AA7FD429B","title":"醉美官府菜","lon":"121.43513","lat":"31.2018","category":"247","category_name":"餐饮美食","address":"长宁区淮海西路1号西华酒店公寓2楼(近华山路)"},{"poiid":"B2094655D26AA1FF4798","title":"聚贤阁食府","lon":"121.436293054","lat":"31.199037793","category":"268","category_name":"自助","address":"徐汇区华山路1888号交大宾馆内(近康平路)"},{"poiid":"B2094654DB64A4F94493","title":"上海西华商旅大厦","lon":"121.43512","lat":"31.2018","category":"46","category_name":"楼宇","address":"淮海西路1号"},{"poiid":"B2094654DA6DA3F84198","title":"名古屋大学上海联络处驻上海交通大学","lon":"121.43441","lat":"31.20136","category":"52","category_name":"高等院校","address":"淮海西路55号申通信息广场27D"},{"poiid":"B2094655D264A6FA499D","title":"上海交通大学学生艺术团","lon":"121.43532","lat":"31.20066","category":"189","category_name":"文艺团体","address":""},{"poiid":"B2094655D36CA0F84499","title":"交通大学(华山路康平路)","lon":"121.43632","lat":"31.20029","category":"38","category_name":"公交车站","address":""},{"poiid":"B2094654DA6DA3F8409C","title":"徐汇区民办福隆体口腔门诊部","lon":"121.43441","lat":"31.20136","category":"162","category_name":"医院","address":"淮海西路55号申通信息广场23KL"},{"poiid":"B2094654DA6DA3FE4498","title":"上海交通大学海外教育学院(广元西路)","lon":"121.43495","lat":"31.19798","category":"52","category_name":"高等院校","address":"广元西路55号浩然高科技大厦17层02-06"},{"poiid":"B2094752DB6CA4F5419E","title":"新衡山电影院","lon":"121.435811","lat":"31.199448","category":"178","category_name":"电影院","address":"上海市 衡山路838号"},{"poiid":"B2094654DB65A1FD4698","title":"交通大学(华山路)","lon":"121.43258","lat":"31.19881","category":"52","category_name":"高等院校","address":"华山路1954"},{"poiid":"B2094757D065A2F44592","title":"张小K私房菜","lon":"121.435678","lat":"31.201412","category":"247","category_name":"餐饮美食","address":"上海徐汇区秀山路16弄2号401室"},{"poiid":"B2094655D26FA5FF469B","title":"上海交通大学徐汇校区","lon":"121.43258","lat":"31.19881","category":"52","category_name":"高等院校","address":"徐汇区华山路1954号上海交通大学内(近广元西路)"},{"poiid":"B2094655D26AABF8489C","title":"小小花园 LE PETIT JARDIN","lon":"121.43694071246","lat":"31.200279747478","category":"260","category_name":"其他","address":"徐汇区康平路220号(天平路华山路之间)"},{"poiid":"B2094757D068AAF84199","title":"上海交通大学钱学森图书馆","lon":"121.435496989","lat":"31.2013391905","category":"181","category_name":"图书馆","address":"徐汇区华山路1800号"},{"poiid":"B2094654DA6DA3FE419E","title":"上海交通大学徐汇校区(南门)","lon":"121.43528","lat":"31.19744","category":"52","category_name":"高等院校","address":"广元西路55"},{"poiid":"B2094654DA6EA0FC4099","title":"上海交通大学徐汇校区(东门)","lon":"121.43654","lat":"31.19868","category":"52","category_name":"高等院校","address":"华山路1954"},{"poiid":"B2094757D06EAAF4469F","title":"交通大学地铁站","lon":"121.434637","lat":"31.201981","category":"36","category_name":"地铁站","address":"上海轨道交通 十号线 轨交交通大学站 10"},{"poiid":"B2094757D068AAFB439A","title":"上海交通大学工程馆","lon":"121.43378196","lat":"31.2005447742","category":"253","category_name":"校园生活","address":"上海市徐汇区华山路1954号"},{"poiid":"B2094757D06AA5F5469C","title":"交通大学大草坪","lon":"121.43466381","lat":"31.199059858","category":"500","category_name":"未知分类","address":"上海交大华山路校区"},{"poiid":"B2094757D06FAAF4429B","title":"中村发型设计中心(华山路店)","lon":"121.43522","lat":"31.20261","category":"260","category_name":"其他","address":"上海徐汇区华山路1591号(淮海西路口)  "},{"poiid":"B2094654D564A6FC409F","title":"复旦中学","lon":"121.43437","lat":"31.20306","category":"55","category_name":"中学","address":"徐汇区华山路1626号(近淮海西路)"},{"poiid":"B2094654DB6BA5F54193","title":"南洋模范中学","lon":"121.43667","lat":"31.20099","category":"55","category_name":"中学","address":"天平路200"},{"poiid":"B2094757D06AAAF5409D","title":"酷芝PIZZA COOLZEY","lon":"121.43455421439","lat":"31.20311280591","category":"94","category_name":"西餐厅","address":"徐汇区华山路1589号3号(近淮海中路)"},{"poiid":"B2094757D068A3FB499B","title":"上海交通大学新上院","lon":"121.43655","lat":"31.198691","category":"52","category_name":"高等院校","address":"上海市华山路1954号"},{"poiid":"B2094654DB64A4FF449A","title":"味千拉面博家楼店","lon":"121.43709","lat":"31.19857","category":"95","category_name":"日本料理","address":"徐汇区华山路1859号1楼(近广元西路)"},{"poiid":"B2094750D76EA2FF4799","title":"尊萃508公馆","lon":"121.436","lat":"31.2018","category":"76","category_name":"上海菜","address":"徐汇区华山路1731号(近淮海西路)"},{"poiid":"B2094757D66EA4FE439A","title":"上海影城6号放映厅","lon":"121.432505786","lat":"31.1995091303","category":"178","category_name":"电影院","address":"长宁区新华路160号上海影城内(近番愚路)"},{"poiid":"B2094752D06EA3FF4298","title":"小辉哥火锅","lon":"121.4343095487457","lat":"31.20029722177148","category":"247","category_name":"餐饮美食","address":"港汇恒隆广场5F538室"},{"poiid":"B2094654DA6DA3FF4292","title":"上海西华酒店公寓","lon":"121.43513","lat":"31.2018","category":"214","category_name":"四星级宾馆","address":"上海市徐汇区淮海西路1号(华山路口)"},{"poiid":"B2094757D065A6F4489D","title":"1号线人民广场站","lon":"121.433984586","lat":"31.2019978789","category":"500","category_name":"未知分类","address":"上海人民广场"},{"poiid":"B2094757D16EA1FC4993","title":"上海交大徐汇校区大操场","lon":"121.43473535","lat":"31.198292789","category":"500","category_name":"未知分类","address":"上海交通大学徐汇校区"},{"poiid":"B2094751D564A3F9429B","title":"华山医院","lon":"121.434353","lat":"31.201086","category":"162","category_name":"医院","address":null},{"poiid":"B2094757DB6FA7FD409A","title":"港汇","lon":"121.43431061","lat":"31.20004205999999","category":"500","category_name":"未知分类","address":"港汇"},{"poiid":"B2094752D36FA5FA479D","title":"70后饭吧","lon":"121.43639","lat":"31.19789","category":"247","category_name":"餐饮美食","address":"上海市肇嘉浜路汇金百货7楼"},{"poiid":"B2094757D069ABFC419B","title":"长颈鹿美语","lon":"121.436288","lat":"31.201712","category":"260","category_name":"其他","address":"徐汇区华山路1751号海斯大厦3楼(近淮海西路)"},{"poiid":"B2094655D26EA1FF469D","title":"金凤凰酒家","lon":"121.43513","lat":"31.2018","category":"247","category_name":"餐饮美食","address":"长宁区淮海西路1号西华酒店公寓4-5楼(华山路口)"},{"poiid":"B2094752DB6AAAF54998","title":"永华影城","lon":"121.434199","lat":"31.200102","category":"178","category_name":"电影院","address":"上海市 港汇广场6F"},{"poiid":"B2094757D06AA2FC409F","title":"复旦中学羽毛球馆","lon":"121.433770759","lat":"31.2032934808","category":"253","category_name":"校园生活","address":"上海徐汇区华山路1626号复旦中学体育馆内(近淮海西路)"},{"poiid":"B2094757D464A7FD419E","title":"牧羊餐厅","lon":"121.43730728468","lat":"31.199917951653","category":"76","category_name":"上海菜","address":"徐汇区天平路208弄车间1号(近康平路)"},{"poiid":"B2094752D164A6F44792","title":"上海歌城（华汇店）","lon":"121.434311","lat":"31.2003","category":"170","category_name":"KTV","address":"华山路2000号汇银广场6楼"},{"poiid":"B2094654DA6DA3F8419D","title":"上海交通大学徐汇校区(北门)","lon":"121.43278","lat":"31.20102","category":"52","category_name":"高等院校","address":""},{"poiid":"B2094757DB6CA7FB409E","title":"9号线徐家汇站","lon":"121.4348694","lat":"31.198131","category":"500","category_name":"未知分类","address":"9号线徐家汇站"},{"poiid":"B2094750D56FA4FA499A","title":"台北纯k","lon":"121.434432","lat":"31.200477","category":"500","category_name":"未知分类","address":null},{"poiid":"B2094752D269A1F4499D","title":"小小花园","lon":"121.433487","lat":"31.200678","category":"247","category_name":"餐饮美食","address":"康平路220号"},{"poiid":"B2094757D069A2FB409C","title":"莎拂利(天平店)","lon":"121.43762","lat":"31.20045","category":"94","category_name":"西餐厅","address":"徐汇区天平路220号(近康平路)"},{"poiid":"B2094751D56AA1FD4398","title":"永華電影院","lon":"121.434245","lat":"31.199738","category":"178","category_name":"电影院","address":"華山路"},{"poiid":"B2094757D06BAAFF479D","title":"香奈造型(上海影城店)","lon":"121.43309858","lat":"31.202635891","category":"148","category_name":"美容美发店","address":"上海市长宁区法华镇路59号近淮海西路华山路(预约电话"},{"poiid":"B2094751D464A7FF4693","title":"钱学森图书馆","lon":"121.435346","lat":"31.201","category":"253","category_name":"校园生活","address":"上海徐汇区上海交通大学"},{"poiid":"B2094654DA6DA3FF429C","title":"交大游泳池","lon":"121.43591","lat":"31.20094","category":"231","category_name":"游泳馆","address":"华山路1794"},{"poiid":"B2094752DA69A4FC429E","title":"70后饭吧","lon":"121.434402","lat":"31.199227","category":"247","category_name":"餐饮美食","address":"上海市 徐家汇汇金"},{"poiid":"B2094654DB6AA7FD429B","title":"醉美官府菜","lon":"121.43513","lat":"31.2018","category":"247","category_name":"餐饮美食","address":"长宁区淮海西路1号西华酒店公寓2楼(近华山路)"},{"poiid":"B2094655D26AA1FF4798","title":"聚贤阁食府","lon":"121.436293054","lat":"31.199037793","category":"268","category_name":"自助","address":"徐汇区华山路1888号交大宾馆内(近康平路)"},{"poiid":"B2094654DB64A4F94493","title":"上海西华商旅大厦","lon":"121.43512","lat":"31.2018","category":"46","category_name":"楼宇","address":"淮海西路1号"},{"poiid":"B2094654DA6DA3F84198","title":"名古屋大学上海联络处驻上海交通大学","lon":"121.43441","lat":"31.20136","category":"52","category_name":"高等院校","address":"淮海西路55号申通信息广场27D"},{"poiid":"B2094655D264A6FA499D","title":"上海交通大学学生艺术团","lon":"121.43532","lat":"31.20066","category":"189","category_name":"文艺团体","address":""},{"poiid":"B2094655D36CA0F84499","title":"交通大学(华山路康平路)","lon":"121.43632","lat":"31.20029","category":"38","category_name":"公交车站","address":""},{"poiid":"B2094654DA6DA3F8409C","title":"徐汇区民办福隆体口腔门诊部","lon":"121.43441","lat":"31.20136","category":"162","category_name":"医院","address":"淮海西路55号申通信息广场23KL"},{"poiid":"B2094654DA6DA3FE4498","title":"上海交通大学海外教育学院(广元西路)","lon":"121.43495","lat":"31.19798","category":"52","category_name":"高等院校","address":"广元西路55号浩然高科技大厦17层02-06"},{"poiid":"B2094752DB6CA4F5419E","title":"新衡山电影院","lon":"121.435811","lat":"31.199448","category":"178","category_name":"电影院","address":"上海市 衡山路838号"},{"poiid":"B2094654DB65A1FD4698","title":"交通大学(华山路)","lon":"121.43258","lat":"31.19881","category":"52","category_name":"高等院校","address":"华山路1954"},{"poiid":"B2094757D065A2F44592","title":"张小K私房菜","lon":"121.435678","lat":"31.201412","category":"247","category_name":"餐饮美食","address":"上海徐汇区秀山路16弄2号401室"},{"poiid":"B2094655D26FA5FF469B","title":"上海交通大学徐汇校区","lon":"121.43258","lat":"31.19881","category":"52","category_name":"高等院校","address":"徐汇区华山路1954号上海交通大学内(近广元西路)"},{"poiid":"B2094655D26AABF8489C","title":"小小花园 LE PETIT JARDIN","lon":"121.43694071246","lat":"31.200279747478","category":"260","category_name":"其他","address":"徐汇区康平路220号(天平路华山路之间)"},{"poiid":"B2094757D068AAF84199","title":"上海交通大学钱学森图书馆","lon":"121.435496989","lat":"31.2013391905","category":"181","category_name":"图书馆","address":"徐汇区华山路1800号"},{"poiid":"B2094654DA6DA3FE419E","title":"上海交通大学徐汇校区(南门)","lon":"121.43528","lat":"31.19744","category":"52","category_name":"高等院校","address":"广元西路55"},{"poiid":"B2094654DA6EA0FC4099","title":"上海交通大学徐汇校区(东门)","lon":"121.43654","lat":"31.19868","category":"52","category_name":"高等院校","address":"华山路1954"},{"poiid":"B2094757D06EAAF4469F","title":"交通大学地铁站","lon":"121.434637","lat":"31.201981","category":"36","category_name":"地铁站","address":"上海轨道交通 十号线 轨交交通大学站 10"},{"poiid":"B2094757D068AAFB439A","title":"上海交通大学工程馆","lon":"121.43378196","lat":"31.2005447742","category":"253","category_name":"校园生活","address":"上海市徐汇区华山路1954号"},{"poiid":"B2094757D06AA5F5469C","title":"交通大学大草坪","lon":"121.43466381","lat":"31.199059858","category":"500","category_name":"未知分类","address":"上海交大华山路校区"},{"poiid":"B2094757D06FAAF4429B","title":"中村发型设计中心(华山路店)","lon":"121.43522","lat":"31.20261","category":"260","category_name":"其他","address":"上海徐汇区华山路1591号(淮海西路口)  "},{"poiid":"B2094654D564A6FC409F","title":"复旦中学","lon":"121.43437","lat":"31.20306","category":"55","category_name":"中学","address":"徐汇区华山路1626号(近淮海西路)"},{"poiid":"B2094654DB6BA5F54193","title":"南洋模范中学","lon":"121.43667","lat":"31.20099","category":"55","category_name":"中学","address":"天平路200"},{"poiid":"B2094757D06AAAF5409D","title":"酷芝PIZZA COOLZEY","lon":"121.43455421439","lat":"31.20311280591","category":"94","category_name":"西餐厅","address":"徐汇区华山路1589号3号(近淮海中路)"},{"poiid":"B2094757D068A3FB499B","title":"上海交通大学新上院","lon":"121.43655","lat":"31.198691","category":"52","category_name":"高等院校","address":"上海市华山路1954号"},{"poiid":"B2094654DB64A4FF449A","title":"味千拉面博家楼店","lon":"121.43709","lat":"31.19857","category":"95","category_name":"日本料理","address":"徐汇区华山路1859号1楼(近广元西路)"},{"poiid":"B2094750D76EA2FF4799","title":"尊萃508公馆","lon":"121.436","lat":"31.2018","category":"76","category_name":"上海菜","address":"徐汇区华山路1731号(近淮海西路)"},{"poiid":"B2094757D66EA4FE439A","title":"上海影城6号放映厅","lon":"121.432505786","lat":"31.1995091303","category":"178","category_name":"电影院","address":"长宁区新华路160号上海影城内(近番愚路)"},{"poiid":"B2094752D06EA3FF4298","title":"小辉哥火锅","lon":"121.4343095487457","lat":"31.20029722177148","category":"247","category_name":"餐饮美食","address":"港汇恒隆广场5F538室"},{"poiid":"B2094654DA6DA3FF4292","title":"上海西华酒店公寓","lon":"121.43513","lat":"31.2018","category":"214","category_name":"四星级宾馆","address":"上海市徐汇区淮海西路1号(华山路口)"},{"poiid":"B2094757D065A6F4489D","title":"1号线人民广场站","lon":"121.433984586","lat":"31.2019978789","category":"500","category_name":"未知分类","address":"上海人民广场"},{"poiid":"B2094757D16EA1FC4993","title":"上海交大徐汇校区大操场","lon":"121.43473535","lat":"31.198292789","category":"500","category_name":"未知分类","address":"上海交通大学徐汇校区"},{"poiid":"B2094751D564A3F9429B","title":"华山医院","lon":"121.434353","lat":"31.201086","category":"162","category_name":"医院","address":null},{"poiid":"B2094757DB6FA7FD409A","title":"港汇","lon":"121.43431061","lat":"31.20004205999999","category":"500","category_name":"未知分类","address":"港汇"},{"poiid":"B2094752D36FA5FA479D","title":"70后饭吧","lon":"121.43639","lat":"31.19789","category":"247","category_name":"餐饮美食","address":"上海市肇嘉浜路汇金百货7楼"},{"poiid":"B2094757D069ABFC419B","title":"长颈鹿美语","lon":"121.436288","lat":"31.201712","category":"260","category_name":"其他","address":"徐汇区华山路1751号海斯大厦3楼(近淮海西路)"},{"poiid":"B2094655D26EA1FF469D","title":"金凤凰酒家","lon":"121.43513","lat":"31.2018","category":"247","category_name":"餐饮美食","address":"长宁区淮海西路1号西华酒店公寓4-5楼(华山路口)"},{"poiid":"B2094752DB6AAAF54998","title":"永华影城","lon":"121.434199","lat":"31.200102","category":"178","category_name":"电影院","address":"上海市 港汇广场6F"},{"poiid":"B2094757D06AA2FC409F","title":"复旦中学羽毛球馆","lon":"121.433770759","lat":"31.2032934808","category":"253","category_name":"校园生活","address":"上海徐汇区华山路1626号复旦中学体育馆内(近淮海西路)"},{"poiid":"B2094757D464A7FD419E","title":"牧羊餐厅","lon":"121.43730728468","lat":"31.199917951653","category":"76","category_name":"上海菜","address":"徐汇区天平路208弄车间1号(近康平路)"},{"poiid":"B2094752D164A6F44792","title":"上海歌城（华汇店）","lon":"121.434311","lat":"31.2003","category":"170","category_name":"KTV","address":"华山路2000号汇银广场6楼"},{"poiid":"B2094654DA6DA3F8419D","title":"上海交通大学徐汇校区(北门)","lon":"121.43278","lat":"31.20102","category":"52","category_name":"高等院校","address":""},{"poiid":"B2094757DB6CA7FB409E","title":"9号线徐家汇站","lon":"121.4348694","lat":"31.198131","category":"500","category_name":"未知分类","address":"9号线徐家汇站"},{"poiid":"B2094750D56FA4FA499A","title":"台北纯k","lon":"121.434432","lat":"31.200477","category":"500","category_name":"未知分类","address":null},{"poiid":"B2094752D269A1F4499D","title":"小小花园","lon":"121.433487","lat":"31.200678","category":"247","category_name":"餐饮美食","address":"康平路220号"},{"poiid":"B2094757D069A2FB409C","title":"莎拂利(天平店)","lon":"121.43762","lat":"31.20045","category":"94","category_name":"西餐厅","address":"徐汇区天平路220号(近康平路)"},{"poiid":"B2094751D56AA1FD4398","title":"永華電影院","lon":"121.434245","lat":"31.199738","category":"178","category_name":"电影院","address":"華山路"},{"poiid":"B2094757D06BAAFF479D","title":"香奈造型(上海影城店)","lon":"121.43309858","lat":"31.202635891","category":"148","category_name":"美容美发店","address":"上海市长宁区法华镇路59号近淮海西路华山路(预约电话"},{"poiid":"B2094751D464A7FF4693","title":"钱学森图书馆","lon":"121.435346","lat":"31.201","category":"253","category_name":"校园生活","address":"上海徐汇区上海交通大学"},{"poiid":"B2094654DA6DA3FF429C","title":"交大游泳池","lon":"121.43591","lat":"31.20094","category":"231","category_name":"游泳馆","address":"华山路1794"},{"poiid":"B2094752DA69A4FC429E","title":"70后饭吧","lon":"121.434402","lat":"31.199227","category":"247","category_name":"餐饮美食","address":"上海市 徐家汇汇金"},{"poiid":"B2094654DB6AA7FD429B","title":"醉美官府菜","lon":"121.43513","lat":"31.2018","category":"247","category_name":"餐饮美食","address":"长宁区淮海西路1号西华酒店公寓2楼(近华山路)"},{"poiid":"B2094655D26AA1FF4798","title":"聚贤阁食府","lon":"121.436293054","lat":"31.199037793","category":"268","category_name":"自助","address":"徐汇区华山路1888号交大宾馆内(近康平路)"},{"poiid":"B2094654DB64A4F94493","title":"上海西华商旅大厦","lon":"121.43512","lat":"31.2018","category":"46","category_name":"楼宇","address":"淮海西路1号"},{"poiid":"B2094654DA6DA3F84198","title":"名古屋大学上海联络处驻上海交通大学","lon":"121.43441","lat":"31.20136","category":"52","category_name":"高等院校","address":"淮海西路55号申通信息广场27D"},{"poiid":"B2094655D264A6FA499D","title":"上海交通大学学生艺术团","lon":"121.43532","lat":"31.20066","category":"189","category_name":"文艺团体","address":""},{"poiid":"B2094655D36CA0F84499","title":"交通大学(华山路康平路)","lon":"121.43632","lat":"31.20029","category":"38","category_name":"公交车站","address":""},{"poiid":"B2094654DA6DA3F8409C","title":"徐汇区民办福隆体口腔门诊部","lon":"121.43441","lat":"31.20136","category":"162","category_name":"医院","address":"淮海西路55号申通信息广场23KL"},{"poiid":"B2094654DA6DA3FE4498","title":"上海交通大学海外教育学院(广元西路)","lon":"121.43495","lat":"31.19798","category":"52","category_name":"高等院校","address":"广元西路55号浩然高科技大厦17层02-06"},{"poiid":"B2094752DB6CA4F5419E","title":"新衡山电影院","lon":"121.435811","lat":"31.199448","category":"178","category_name":"电影院","address":"上海市 衡山路838号"},{"poiid":"B2094654DB65A1FD4698","title":"交通大学(华山路)","lon":"121.43258","lat":"31.19881","category":"52","category_name":"高等院校","address":"华山路1954"},{"poiid":"B2094757D065A2F44592","title":"张小K私房菜","lon":"121.435678","lat":"31.201412","category":"247","category_name":"餐饮美食","address":"上海徐汇区秀山路16弄2号401室"}]