[{"poiid":"B2094655D268A0F94693","title":"荣日本料理(兴义店)","lon":"121.40379","lat":"31.20455","category":"95","category_name":"日本料理","address":"长宁区兴义路48号新世纪广场A2座3楼(近娄山关路)"},{"poiid":"B2094757D06AABFD4792","title":"韩国年糕料理","lon":"121.403399586","lat":"31.2057529524","category":"247","category_name":"餐饮美食","address":"上海娄山关路161号"},{"poiid":"B2094757DB68A4F84592","title":"摩休敦纳韩国年糕料理 仙霞路店","lon":"121.403512","lat":"31.20604","category":"96","category_name":"韩国料理","address":"长宁区仙霞路161号(近娄山关路)"},{"poiid":"B2094654D56BA5F9469A","title":"万都中心","lon":"121.40519","lat":"31.20484","category":"46","category_name":"楼宇","address":"长宁区兴义路8号"},{"poiid":"B2094757D06FA3FB4498","title":"兰桂坊酒家","lon":"121.40624","lat":"31.20426","category":"76","category_name":"上海菜","address":"长宁区娄山关路417号(近仙霞路)"},{"poiid":"B2094757D06FA1FE419B","title":"柴田西点","lon":"121.40468","lat":"31.20677","category":"67","category_name":"甜品店","address":"长宁区紫云西路24号(近遵义路)"},{"poiid":"B2094757D06FAAF54893","title":"上海新国际展览中心","lon":"121.40366038","lat":"31.203774813","category":"500","category_name":"未知分类","address":"上海娄山关路88号"},{"poiid":"B2094757D068A6FC449B","title":"韩国领事馆","lon":"121.401656","lat":"31.204408","category":"500","category_name":"未知分类","address":"上海万山路60号"},{"poiid":"B2094757D064A5FA499D","title":"满记甜品(天山百盛店)","lon":"121.40289","lat":"31.21089","category":"67","category_name":"甜品店","address":"长宁区天山路789-889号百盛购物中心B1楼(近娄山关路)"},{"poiid":"B2094757D068A3FE4898","title":"味藏 仙霞店 AJIKURA","lon":"121.40325643065","lat":"31.206329906014","category":"247","category_name":"餐饮美食","address":"长宁区仙霞路163号(近娄山关路)"},{"poiid":"B2094757D06FA3FB429E","title":"星巴克(远东国际店)","lon":"121.4012526","lat":"31.2060433","category":"65","category_name":"咖啡厅","address":"长宁区仙霞路319号远东国际广场内(近古北路)"},{"poiid":"B2094757D06FA6FA429E","title":"来天华(万都店)","lon":"121.40542","lat":"31.204","category":"76","category_name":"上海菜","address":"上海长宁区兴义路8号万都中心大厦4楼(近遵义路)  "},{"poiid":"B2094654DB69A7FD499C","title":"白木屋","lon":"121.40345","lat":"31.2045","category":"95","category_name":"日本料理","address":"长宁区兴义路48号新世纪广场(近娄山关路)"},{"poiid":"B2094757D06FA5FB479A","title":"新加坡共和国驻上海总领事馆‎","lon":"121.401626587","lat":"31.205165863","category":"260","category_name":"其他","address":"上海万山路89号"},{"poiid":"B2094757D06FA7F94493","title":"Wagas沃歌斯(虹桥店)","lon":"121.40526058","lat":"31.204698931","category":"94","category_name":"西餐厅","address":"长宁区兴义路8号万都中心大厦108-109号(近遵义路)"},{"poiid":"B2094757D06FA3F94799","title":"星巴克(万都店)","lon":"121.405183","lat":"31.204434","category":"260","category_name":"其他","address":"长宁区兴义路8号万都中心大厦1楼S102、S106商铺(近遵义路)"},{"poiid":"B2094757D068A3FF459C","title":"荣烧肉","lon":"121.40406","lat":"31.20428","category":"269","category_name":"烧烤","address":"长宁区兴义路48号新世纪广场A座3楼(近娄山关路)"},{"poiid":"B2094757D06FA5F44692","title":"丸山","lon":"121.40541","lat":"31.20434","category":"95","category_name":"日本料理","address":"长宁区兴义路8号万都中心大厦2楼(近遵义路)"},{"poiid":"B2094655D26DA7FE499C","title":"远东国际广场B栋","lon":"121.40151","lat":"31.20644","category":"46","category_name":"楼宇","address":"仙霞路317"},{"poiid":"B2094757D16CA7FD479F","title":"COSTA","lon":"121.402974586","lat":"31.2036019103","category":"500","category_name":"未知分类","address":"长宁区娄山关路75号吉盛伟邦1楼110商铺(近兴义路)"},{"poiid":"B2094757D06FA1FD409C","title":"松屋(仙霞路店)","lon":"121.40192","lat":"31.20596","category":"95","category_name":"日本料理","address":"长宁区仙霞路299号远东国际广场B栋1楼(近古北路)"},{"poiid":"B2094751D26DA0F84898","title":"神田烧肉(遵义南路店)","lon":"121.40104","lat":"31.20542","category":"269","category_name":"烧烤","address":"长宁区遵义南路88号3楼(近仙霞路)"},{"poiid":"B2094757D06FAAF94592","title":"伊藤家(万都店)","lon":"121.40491","lat":"31.20354","category":"95","category_name":"日本料理","address":"长宁区兴义路8号万都中心大厦3楼(近遵义路)"},{"poiid":"B2094757D66BA2F5459A","title":"银平","lon":"121.404031054","lat":"31.205890793","category":"95","category_name":"日本料理","address":"长宁区仙霞路137号盛高国际大厦1楼(娄山关路与遵义路之间)"},{"poiid":"B2094654D56BA5F94798","title":"韩国馆","lon":"121.40543","lat":"31.20491","category":"96","category_name":"韩国料理","address":"长宁区兴义路8号万都中心大厦2楼(近遵义路)"},{"poiid":"B2094757D06BABFC4898","title":"世贸展馆","lon":"121.40266","lat":"31.20296","category":"179","category_name":"音乐厅","address":"长宁区兴义路99号(娄山关路兴义路)"},{"poiid":"B2094757D069A3FE469D","title":"鸭王(虹桥店)","lon":"121.40277691","lat":"31.2054591188","category":"260","category_name":"其他","address":"长宁区娄山关路85号1楼(仙霞路口)"},{"poiid":"B2094750DA6EA1F8419B","title":"青原Aobara","lon":"121.402153","lat":"31.206956","category":"95","category_name":"日本料理","address":"长宁区古北路555弄555展览文化中心内(近仙霞路)"},{"poiid":"B2094757D069A5FA459F","title":"田野 TAYA","lon":"121.400507054","lat":"31.206150793","category":"95","category_name":"日本料理","address":"长宁区仙霞路319号远东国际广场B栋1楼02-05(近古北路)"},{"poiid":"B2094757D16DAAF84598","title":"荣料理","lon":"121.403425686","lat":"31.2053528945","category":"247","category_name":"餐饮美食","address":"上海遵义路"},{"poiid":"B2094655D36CA1FF4599","title":"娄山关路仙霞路","lon":"121.40321","lat":"31.20616","category":"38","category_name":"公交车站","address":""},{"poiid":"B2094654D56BA7FE4192","title":"花吉 娄山关路店","lon":"121.40291613617","lat":"31.206606561123","category":"95","category_name":"日本料理","address":"长宁区娄山关路423号(近仙霞路)"},{"poiid":"B209475CD06FA7FA4298","title":"简单生活 尚嘉中心店","lon":"121.4057392","lat":"31.2053249","category":"94","category_name":"西餐厅","address":"仙霞路99号尚嘉中心3楼316-317单元(近遵义路)"},{"poiid":"B2094750D36FA1F5439B","title":"中山公园龙之梦雅仕大厦","lon":"121.403518","lat":"31.20597","category":"263","category_name":"公司","address":"长宁区凯旋路369号"},{"poiid":"B2094750DB6EAAF8469B","title":"东银中心","lon":"121.405","lat":"31.2038","category":"46","category_name":"楼宇","address":"上海市长宁区红宝石路500号"},{"poiid":"B2094655D26DABF54792","title":"欧风意酒家","lon":"121.40231","lat":"31.20534","category":"260","category_name":"其他","address":"长宁区娄山关路85号东方国际大厦1楼C座(近仙霞路)"},{"poiid":"B2094751D36CA1FE469D","title":"龚记馄饨","lon":"121.40254","lat":"31.20616","category":"68","category_name":"快餐厅","address":"长宁区仙霞路207号"},{"poiid":"B2094750D76EA0F4469D","title":"小城故乡台湾私房牛肉面(仙霞路店)","lon":"121.403","lat":"31.2062","category":"91","category_name":"台湾菜","address":"长宁区娄山关路390号(近仙霞路)"},{"poiid":"B2094757D068A5FC4393","title":"COCO都可茶饮(娄山关路店)","lon":"121.40526049","lat":"31.205494397","category":"113","category_name":"冷饮店","address":"长宁区娄山关路436号(近仙霞路)"},{"poiid":"B2094757D068A3FD4099","title":"中国工商银行(虹桥开发区支行)","lon":"121.40316","lat":"31.20419","category":"150","category_name":"银行","address":"长宁区娄山关路83号近仙霞路(娄山关路万山路)"},{"poiid":"B2094654D56BA5FF449B","title":"大韩民国总领事馆","lon":"121.40165","lat":"31.20441","category":"252","category_name":"楼宇机构","address":"万山路60"},{"poiid":"B2094757D069A2F44398","title":"上海市商务委员会","lon":"121.402679","lat":"31.202929","category":"260","category_name":"其他","address":"上海娄山关路55号11楼"},{"poiid":"B2094757D469A0FD4893","title":"吉范尼斯意大利餐厅 Giovanni's","lon":"121.405629054","lat":"31.204849793","category":"98","category_name":"意式菜品餐厅","address":"长宁区遵义南路5号虹桥喜来登上海太平洋大饭店27楼(兴义路口)"},{"poiid":"B2094757D069AAFC459C","title":"万都商城","lon":"121.40556491","lat":"31.204932236","category":"119","category_name":"商场","address":"长宁区兴义路8号万都中心大厦内(近遵义路)"},{"poiid":"B2094757D465A1F8489A","title":"和泉","lon":"121.403111054","lat":"31.205559793","category":"95","category_name":"日本料理","address":"长宁区娄山关路393号(近仙霞路)"},{"poiid":"B2094757D16AA0F5409F","title":"Mukshidonna韩国料理","lon":"121.403460986","lat":"31.2057686527","category":"247","category_name":"餐饮美食","address":"上海长宁区仙霞路390号"},{"poiid":"B2094751DA6BA0F5429E","title":"有喜屋","lon":"121.403342","lat":"31.205238","category":"247","category_name":"餐饮美食","address":"长宁区延安西路2073号M101室(近仙霞路)"},{"poiid":"B2094757D069A7FC4699","title":"吉盛伟邦(长宁店)","lon":"121.40265096","lat":"31.203771911","category":"123","category_name":"家具建材市场","address":"长宁区娄山关路75号(近延安西路)"},{"poiid":"B2094757D764A5FA429C","title":"韩一拌饭馆","lon":"121.402782","lat":"31.204258","category":"96","category_name":"韩国料理","address":"长宁区娄山关路(近古北路口)"},{"poiid":"B2094655D36DA1F44598","title":"仙霞路","lon":"121.40342","lat":"31.20698","category":"38","category_name":"公交车站","address":""},{"poiid":"B2094655D268A0F94693","title":"荣日本料理(兴义店)","lon":"121.40379","lat":"31.20455","category":"95","category_name":"日本料理","address":"长宁区兴义路48号新世纪广场A2座3楼(近娄山关路)"},{"poiid":"B2094757D06AABFD4792","title":"韩国年糕料理","lon":"121.403399586","lat":"31.2057529524","category":"247","category_name":"餐饮美食","address":"上海娄山关路161号"},{"poiid":"B2094757DB68A4F84592","title":"摩休敦纳韩国年糕料理 仙霞路店","lon":"121.403512","lat":"31.20604","category":"96","category_name":"韩国料理","address":"长宁区仙霞路161号(近娄山关路)"},{"poiid":"B2094654D56BA5F9469A","title":"万都中心","lon":"121.40519","lat":"31.20484","category":"46","category_name":"楼宇","address":"长宁区兴义路8号"},{"poiid":"B2094757D06FA3FB4498","title":"兰桂坊酒家","lon":"121.40624","lat":"31.20426","category":"76","category_name":"上海菜","address":"长宁区娄山关路417号(近仙霞路)"},{"poiid":"B2094757D06FA1FE419B","title":"柴田西点","lon":"121.40468","lat":"31.20677","category":"67","category_name":"甜品店","address":"长宁区紫云西路24号(近遵义路)"},{"poiid":"B2094757D06FAAF54893","title":"上海新国际展览中心","lon":"121.40366038","lat":"31.203774813","category":"500","category_name":"未知分类","address":"上海娄山关路88号"},{"poiid":"B2094757D068A6FC449B","title":"韩国领事馆","lon":"121.401656","lat":"31.204408","category":"500","category_name":"未知分类","address":"上海万山路60号"},{"poiid":"B2094757D064A5FA499D","title":"满记甜品(天山百盛店)","lon":"121.40289","lat":"31.21089","category":"67","category_name":"甜品店","address":"长宁区天山路789-889号百盛购物中心B1楼(近娄山关路)"},{"poiid":"B2094757D068A3FE4898","title":"味藏 仙霞店 AJIKURA","lon":"121.40325643065","lat":"31.206329906014","category":"247","category_name":"餐饮美食","address":"长宁区仙霞路163号(近娄山关路)"},{"poiid":"B2094757D06FA3FB429E","title":"星巴克(远东国际店)","lon":"121.4012526","lat":"31.2060433","category":"65","category_name":"咖啡厅","address":"长宁区仙霞路319号远东国际广场内(近古北路)"},{"poiid":"B2094757D06FA6FA429E","title":"来天华(万都店)","lon":"121.40542","lat":"31.204","category":"76","category_name":"上海菜","address":"上海长宁区兴义路8号万都中心大厦4楼(近遵义路)  "},{"poiid":"B2094654DB69A7FD499C","title":"白木屋","lon":"121.40345","lat":"31.2045","category":"95","category_name":"日本料理","address":"长宁区兴义路48号新世纪广场(近娄山关路)"},{"poiid":"B2094757D06FA5FB479A","title":"新加坡共和国驻上海总领事馆‎","lon":"121.401626587","lat":"31.205165863","category":"260","category_name":"其他","address":"上海万山路89号"},{"poiid":"B2094757D06FA7F94493","title":"Wagas沃歌斯(虹桥店)","lon":"121.40526058","lat":"31.204698931","category":"94","category_name":"西餐厅","address":"长宁区兴义路8号万都中心大厦108-109号(近遵义路)"},{"poiid":"B2094757D06FA3F94799","title":"星巴克(万都店)","lon":"121.405183","lat":"31.204434","category":"260","category_name":"其他","address":"长宁区兴义路8号万都中心大厦1楼S102、S106商铺(近遵义路)"},{"poiid":"B2094757D068A3FF459C","title":"荣烧肉","lon":"121.40406","lat":"31.20428","category":"269","category_name":"烧烤","address":"长宁区兴义路48号新世纪广场A座3楼(近娄山关路)"},{"poiid":"B2094757D06FA5F44692","title":"丸山","lon":"121.40541","lat":"31.20434","category":"95","category_name":"日本料理","address":"长宁区兴义路8号万都中心大厦2楼(近遵义路)"},{"poiid":"B2094655D26DA7FE499C","title":"远东国际广场B栋","lon":"121.40151","lat":"31.20644","category":"46","category_name":"楼宇","address":"仙霞路317"},{"poiid":"B2094757D16CA7FD479F","title":"COSTA","lon":"121.402974586","lat":"31.2036019103","category":"500","category_name":"未知分类","address":"长宁区娄山关路75号吉盛伟邦1楼110商铺(近兴义路)"},{"poiid":"B2094757D06FA1FD409C","title":"松屋(仙霞路店)","lon":"121.40192","lat":"31.20596","category":"95","category_name":"日本料理","address":"长宁区仙霞路299号远东国际广场B栋1楼(近古北路)"},{"poiid":"B2094751D26DA0F84898","title":"神田烧肉(遵义南路店)","lon":"121.40104","lat":"31.20542","category":"269","category_name":"烧烤","address":"长宁区遵义南路88号3楼(近仙霞路)"},{"poiid":"B2094757D06FAAF94592","title":"伊藤家(万都店)","lon":"121.40491","lat":"31.20354","category":"95","category_name":"日本料理","address":"长宁区兴义路8号万都中心大厦3楼(近遵义路)"},{"poiid":"B2094757D66BA2F5459A","title":"银平","lon":"121.404031054","lat":"31.205890793","category":"95","category_name":"日本料理","address":"长宁区仙霞路137号盛高国际大厦1楼(娄山关路与遵义路之间)"},{"poiid":"B2094654D56BA5F94798","title":"韩国馆","lon":"121.40543","lat":"31.20491","category":"96","category_name":"韩国料理","address":"长宁区兴义路8号万都中心大厦2楼(近遵义路)"},{"poiid":"B2094757D06BABFC4898","title":"世贸展馆","lon":"121.40266","lat":"31.20296","category":"179","category_name":"音乐厅","address":"长宁区兴义路99号(娄山关路兴义路)"},{"poiid":"B2094757D069A3FE469D","title":"鸭王(虹桥店)","lon":"121.40277691","lat":"31.2054591188","category":"260","category_name":"其他","address":"长宁区娄山关路85号1楼(仙霞路口)"},{"poiid":"B2094750DA6EA1F8419B","title":"青原Aobara","lon":"121.402153","lat":"31.206956","category":"95","category_name":"日本料理","address":"长宁区古北路555弄555展览文化中心内(近仙霞路)"},{"poiid":"B2094757D069A5FA459F","title":"田野 TAYA","lon":"121.400507054","lat":"31.206150793","category":"95","category_name":"日本料理","address":"长宁区仙霞路319号远东国际广场B栋1楼02-05(近古北路)"},{"poiid":"B2094757D16DAAF84598","title":"荣料理","lon":"121.403425686","lat":"31.2053528945","category":"247","category_name":"餐饮美食","address":"上海遵义路"},{"poiid":"B2094655D36CA1FF4599","title":"娄山关路仙霞路","lon":"121.40321","lat":"31.20616","category":"38","category_name":"公交车站","address":""},{"poiid":"B2094654D56BA7FE4192","title":"花吉 娄山关路店","lon":"121.40291613617","lat":"31.206606561123","category":"95","category_name":"日本料理","address":"长宁区娄山关路423号(近仙霞路)"},{"poiid":"B209475CD06FA7FA4298","title":"简单生活 尚嘉中心店","lon":"121.4057392","lat":"31.2053249","category":"94","category_name":"西餐厅","address":"仙霞路99号尚嘉中心3楼316-317单元(近遵义路)"},{"poiid":"B2094750D36FA1F5439B","title":"中山公园龙之梦雅仕大厦","lon":"121.403518","lat":"31.20597","category":"263","category_name":"公司","address":"长宁区凯旋路369号"},{"poiid":"B2094750DB6EAAF8469B","title":"东银中心","lon":"121.405","lat":"31.2038","category":"46","category_name":"楼宇","address":"上海市长宁区红宝石路500号"},{"poiid":"B2094655D26DABF54792","title":"欧风意酒家","lon":"121.40231","lat":"31.20534","category":"260","category_name":"其他","address":"长宁区娄山关路85号东方国际大厦1楼C座(近仙霞路)"},{"poiid":"B2094751D36CA1FE469D","title":"龚记馄饨","lon":"121.40254","lat":"31.20616","category":"68","category_name":"快餐厅","address":"长宁区仙霞路207号"},{"poiid":"B2094750D76EA0F4469D","title":"小城故乡台湾私房牛肉面(仙霞路店)","lon":"121.403","lat":"31.2062","category":"91","category_name":"台湾菜","address":"长宁区娄山关路390号(近仙霞路)"},{"poiid":"B2094757D068A5FC4393","title":"COCO都可茶饮(娄山关路店)","lon":"121.40526049","lat":"31.205494397","category":"113","category_name":"冷饮店","address":"长宁区娄山关路436号(近仙霞路)"},{"poiid":"B2094757D068A3FD4099","title":"中国工商银行(虹桥开发区支行)","lon":"121.40316","lat":"31.20419","category":"150","category_name":"银行","address":"长宁区娄山关路83号近仙霞路(娄山关路万山路)"},{"poiid":"B2094654D56BA5FF449B","title":"大韩民国总领事馆","lon":"121.40165","lat":"31.20441","category":"252","category_name":"楼宇机构","address":"万山路60"},{"poiid":"B2094757D069A2F44398","title":"上海市商务委员会","lon":"121.402679","lat":"31.202929","category":"260","category_name":"其他","address":"上海娄山关路55号11楼"},{"poiid":"B2094757D469A0FD4893","title":"吉范尼斯意大利餐厅 Giovanni's","lon":"121.405629054","lat":"31.204849793","category":"98","category_name":"意式菜品餐厅","address":"长宁区遵义南路5号虹桥喜来登上海太平洋大饭店27楼(兴义路口)"},{"poiid":"B2094757D069AAFC459C","title":"万都商城","lon":"121.40556491","lat":"31.204932236","category":"119","category_name":"商场","address":"长宁区兴义路8号万都中心大厦内(近遵义路)"},{"poiid":"B2094757D465A1F8489A","title":"和泉","lon":"121.403111054","lat":"31.205559793","category":"95","category_name":"日本料理","address":"长宁区娄山关路393号(近仙霞路)"},{"poiid":"B2094757D16AA0F5409F","title":"Mukshidonna韩国料理","lon":"121.403460986","lat":"31.2057686527","category":"247","category_name":"餐饮美食","address":"上海长宁区仙霞路390号"},{"poiid":"B2094751DA6BA0F5429E","title":"有喜屋","lon":"121.403342","lat":"31.205238","category":"247","category_name":"餐饮美食","address":"长宁区延安西路2073号M101室(近仙霞路)"},{"poiid":"B2094757D069A7FC4699","title":"吉盛伟邦(长宁店)","lon":"121.40265096","lat":"31.203771911","category":"123","category_name":"家具建材市场","address":"长宁区娄山关路75号(近延安西路)"},{"poiid":"B2094757D764A5FA429C","title":"韩一拌饭馆","lon":"121.402782","lat":"31.204258","category":"96","category_name":"韩国料理","address":"长宁区娄山关路(近古北路口)"},{"poiid":"B2094655D36DA1F44598","title":"仙霞路","lon":"121.40342","lat":"31.20698","category":"38","category_name":"公交车站","address":""},{"poiid":"B2094655D268A0F94693","title":"荣日本料理(兴义店)","lon":"121.40379","lat":"31.20455","category":"95","category_name":"日本料理","address":"长宁区兴义路48号新世纪广场A2座3楼(近娄山关路)"},{"poiid":"B2094757D06AABFD4792","title":"韩国年糕料理","lon":"121.403399586","lat":"31.2057529524","category":"247","category_name":"餐饮美食","address":"上海娄山关路161号"},{"poiid":"B2094757DB68A4F84592","title":"摩休敦纳韩国年糕料理 仙霞路店","lon":"121.403512","lat":"31.20604","category":"96","category_name":"韩国料理","address":"长宁区仙霞路161号(近娄山关路)"},{"poiid":"B2094654D56BA5F9469A","title":"万都中心","lon":"121.40519","lat":"31.20484","category":"46","category_name":"楼宇","address":"长宁区兴义路8号"},{"poiid":"B2094757D06FA3FB4498","title":"兰桂坊酒家","lon":"121.40624","lat":"31.20426","category":"76","category_name":"上海菜","address":"长宁区娄山关路417号(近仙霞路)"},{"poiid":"B2094757D06FA1FE419B","title":"柴田西点","lon":"121.40468","lat":"31.20677","category":"67","category_name":"甜品店","address":"长宁区紫云西路24号(近遵义路)"},{"poiid":"B2094757D06FAAF54893","title":"上海新国际展览中心","lon":"121.40366038","lat":"31.203774813","category":"500","category_name":"未知分类","address":"上海娄山关路88号"},{"poiid":"B2094757D068A6FC449B","title":"韩国领事馆","lon":"121.401656","lat":"31.204408","category":"500","category_name":"未知分类","address":"上海万山路60号"},{"poiid":"B2094757D064A5FA499D","title":"满记甜品(天山百盛店)","lon":"121.40289","lat":"31.21089","category":"67","category_name":"甜品店","address":"长宁区天山路789-889号百盛购物中心B1楼(近娄山关路)"},{"poiid":"B2094757D068A3FE4898","title":"味藏 仙霞店 AJIKURA","lon":"121.40325643065","lat":"31.206329906014","category":"247","category_name":"餐饮美食","address":"长宁区仙霞路163号(近娄山关路)"},{"poiid":"B2094757D06FA3FB429E","title":"星巴克(远东国际店)","lon":"121.4012526","lat":"31.2060433","category":"65","category_name":"咖啡厅","address":"长宁区仙霞路319号远东国际广场内(近古北路)"},{"poiid":"B2094757D06FA6FA429E","title":"来天华(万都店)","lon":"121.40542","lat":"31.204","category":"76","category_name":"上海菜","address":"上海长宁区兴义路8号万都中心大厦4楼(近遵义路)  "},{"poiid":"B2094654DB69A7FD499C","title":"白木屋","lon":"121.40345","lat":"31.2045","category":"95","category_name":"日本料理","address":"长宁区兴义路48号新世纪广场(近娄山关路)"},{"poiid":"B2094757D06FA5FB479A","title":"新加坡共和国驻上海总领事馆‎","lon":"121.401626587","lat":"31.205165863","category":"260","category_name":"其他","address":"上海万山路89号"},{"poiid":"B2094757D06FA7F94493","title":"Wagas沃歌斯(虹桥店)","lon":"121.40526058","lat":"31.204698931","category":"94","category_name":"西餐厅","address":"长宁区兴义路8号万都中心大厦108-109号(近遵义路)"},{"poiid":"B2094757D06FA3F94799","title":"星巴克(万都店)","lon":"121.405183","lat":"31.204434","category":"260","category_name":"其他","address":"长宁区兴义路8号万都中心大厦1楼S102、S106商铺(近遵义路)"},{"poiid":"B2094757D068A3FF459C","title":"荣烧肉","lon":"121.40406","lat":"31.20428","category":"269","category_name":"烧烤","address":"长宁区兴义路48号新世纪广场A座3楼(近娄山关路)"},{"poiid":"B2094757D06FA5F44692","title":"丸山","lon":"121.40541","lat":"31.20434","category":"95","category_name":"日本料理","address":"长宁区兴义路8号万都中心大厦2楼(近遵义路)"},{"poiid":"B2094655D26DA7FE499C","title":"远东国际广场B栋","lon":"121.40151","lat":"31.20644","category":"46","category_name":"楼宇","address":"仙霞路317"},{"poiid":"B2094757D16CA7FD479F","title":"COSTA","lon":"121.402974586","lat":"31.2036019103","category":"500","category_name":"未知分类","address":"长宁区娄山关路75号吉盛伟邦1楼110商铺(近兴义路)"},{"poiid":"B2094757D06FA1FD409C","title":"松屋(仙霞路店)","lon":"121.40192","lat":"31.20596","category":"95","category_name":"日本料理","address":"长宁区仙霞路299号远东国际广场B栋1楼(近古北路)"},{"poiid":"B2094751D26DA0F84898","title":"神田烧肉(遵义南路店)","lon":"121.40104","lat":"31.20542","category":"269","category_name":"烧烤","address":"长宁区遵义南路88号3楼(近仙霞路)"},{"poiid":"B2094757D06FAAF94592","title":"伊藤家(万都店)","lon":"121.40491","lat":"31.20354","category":"95","category_name":"日本料理","address":"长宁区兴义路8号万都中心大厦3楼(近遵义路)"},{"poiid":"B2094757D66BA2F5459A","title":"银平","lon":"121.404031054","lat":"31.205890793","category":"95","category_name":"日本料理","address":"长宁区仙霞路137号盛高国际大厦1楼(娄山关路与遵义路之间)"},{"poiid":"B2094654D56BA5F94798","title":"韩国馆","lon":"121.40543","lat":"31.20491","category":"96","category_name":"韩国料理","address":"长宁区兴义路8号万都中心大厦2楼(近遵义路)"},{"poiid":"B2094757D06BABFC4898","title":"世贸展馆","lon":"121.40266","lat":"31.20296","category":"179","category_name":"音乐厅","address":"长宁区兴义路99号(娄山关路兴义路)"},{"poiid":"B2094757D069A3FE469D","title":"鸭王(虹桥店)","lon":"121.40277691","lat":"31.2054591188","category":"260","category_name":"其他","address":"长宁区娄山关路85号1楼(仙霞路口)"},{"poiid":"B2094750DA6EA1F8419B","title":"青原Aobara","lon":"121.402153","lat":"31.206956","category":"95","category_name":"日本料理","address":"长宁区古北路555弄555展览文化中心内(近仙霞路)"},{"poiid":"B2094757D069A5FA459F","title":"田野 TAYA","lon":"121.400507054","lat":"31.206150793","category":"95","category_name":"日本料理","address":"长宁区仙霞路319号远东国际广场B栋1楼02-05(近古北路)"},{"poiid":"B2094757D16DAAF84598","title":"荣料理","lon":"121.403425686","lat":"31.2053528945","category":"247","category_name":"餐饮美食","address":"上海遵义路"},{"poiid":"B2094655D36CA1FF4599","title":"娄山关路仙霞路","lon":"121.40321","lat":"31.20616","category":"38","category_name":"公交车站","address":""},{"poiid":"B2094654D56BA7FE4192","title":"花吉 娄山关路店","lon":"121.40291613617","lat":"31.206606561123","category":"95","category_name":"日本料理","address":"长宁区娄山关路423号(近仙霞路)"},{"poiid":"B209475CD06FA7FA4298","title":"简单生活 尚嘉中心店","lon":"121.4057392","lat":"31.2053249","category":"94","category_name":"西餐厅","address":"仙霞路99号尚嘉中心3楼316-317单元(近遵义路)"},{"poiid":"B2094750D36FA1F5439B","title":"中山公园龙之梦雅仕大厦","lon":"121.403518","lat":"31.20597","category":"263","category_name":"公司","address":"长宁区凯旋路369号"},{"poiid":"B2094750DB6EAAF8469B","title":"东银中心","lon":"121.405","lat":"31.2038","category":"46","category_name":"楼宇","address":"上海市长宁区红宝石路500号"},{"poiid":"B2094655D26DABF54792","title":"欧风意酒家","lon":"121.40231","lat":"31.20534","category":"260","category_name":"其他","address":"长宁区娄山关路85号东方国际大厦1楼C座(近仙霞路)"},{"poiid":"B2094751D36CA1FE469D","title":"龚记馄饨","lon":"121.40254","lat":"31.20616","category":"68","category_name":"快餐厅","address":"长宁区仙霞路207号"},{"poiid":"B2094750D76EA0F4469D","title":"小城故乡台湾私房牛肉面(仙霞路店)","lon":"121.403","lat":"31.2062","category":"91","category_name":"台湾菜","address":"长宁区娄山关路390号(近仙霞路)"},{"poiid":"B2094757D068A5FC4393","title":"COCO都可茶饮(娄山关路店)","lon":"121.40526049","lat":"31.205494397","category":"113","category_name":"冷饮店","address":"长宁区娄山关路436号(近仙霞路)"},{"poiid":"B2094757D068A3FD4099","title":"中国工商银行(虹桥开发区支行)","lon":"121.40316","lat":"31.20419","category":"150","category_name":"银行","address":"长宁区娄山关路83号近仙霞路(娄山关路万山路)"},{"poiid":"B2094654D56BA5FF449B","title":"大韩民国总领事馆","lon":"121.40165","lat":"31.20441","category":"252","category_name":"楼宇机构","address":"万山路60"},{"poiid":"B2094757D069A2F44398","title":"上海市商务委员会","lon":"121.402679","lat":"31.202929","category":"260","category_name":"其他","address":"上海娄山关路55号11楼"},{"poiid":"B2094757D469A0FD4893","title":"吉范尼斯意大利餐厅 Giovanni's","lon":"121.405629054","lat":"31.204849793","category":"98","category_name":"意式菜品餐厅","address":"长宁区遵义南路5号虹桥喜来登上海太平洋大饭店27楼(兴义路口)"},{"poiid":"B2094757D069AAFC459C","title":"万都商城","lon":"121.40556491","lat":"31.204932236","category":"119","category_name":"商场","address":"长宁区兴义路8号万都中心大厦内(近遵义路)"},{"poiid":"B2094757D465A1F8489A","title":"和泉","lon":"121.403111054","lat":"31.205559793","category":"95","category_name":"日本料理","address":"长宁区娄山关路393号(近仙霞路)"},{"poiid":"B2094757D16AA0F5409F","title":"Mukshidonna韩国料理","lon":"121.403460986","lat":"31.2057686527","category":"247","category_name":"餐饮美食","address":"上海长宁区仙霞路390号"},{"poiid":"B2094751DA6BA0F5429E","title":"有喜屋","lon":"121.403342","lat":"31.205238","category":"247","category_name":"餐饮美食","address":"长宁区延安西路2073号M101室(近仙霞路)"},{"poiid":"B2094757D069A7FC4699","title":"吉盛伟邦(长宁店)","lon":"121.40265096","lat":"31.203771911","category":"123","category_name":"家具建材市场","address":"长宁区娄山关路75号(近延安西路)"},{"poiid":"B2094757D764A5FA429C","title":"韩一拌饭馆","lon":"121.402782","lat":"31.204258","category":"96","category_name":"韩国料理","address":"长宁区娄山关路(近古北路口)"},{"poiid":"B2094655D36DA1F44598","title":"仙霞路","lon":"121.40342","lat":"31.20698","category":"38","category_name":"公交车站","address":""},{"poiid":"B2094655D268A0F94693","title":"荣日本料理(兴义店)","lon":"121.40379","lat":"31.20455","category":"95","category_name":"日本料理","address":"长宁区兴义路48号新世纪广场A2座3楼(近娄山关路)"},{"poiid":"B2094757D06AABFD4792","title":"韩国年糕料理","lon":"121.403399586","lat":"31.2057529524","category":"247","category_name":"餐饮美食","address":"上海娄山关路161号"},{"poiid":"B2094757DB68A4F84592","title":"摩休敦纳韩国年糕料理 仙霞路店","lon":"121.403512","lat":"31.20604","category":"96","category_name":"韩国料理","address":"长宁区仙霞路161号(近娄山关路)"},{"poiid":"B2094654D56BA5F9469A","title":"万都中心","lon":"121.40519","lat":"31.20484","category":"46","category_name":"楼宇","address":"长宁区兴义路8号"},{"poiid":"B2094757D06FA3FB4498","title":"兰桂坊酒家","lon":"121.40624","lat":"31.20426","category":"76","category_name":"上海菜","address":"长宁区娄山关路417号(近仙霞路)"},{"poiid":"B2094757D06FA1FE419B","title":"柴田西点","lon":"121.40468","lat":"31.20677","category":"67","category_name":"甜品店","address":"长宁区紫云西路24号(近遵义路)"},{"poiid":"B2094757D06FAAF54893","title":"上海新国际展览中心","lon":"121.40366038","lat":"31.203774813","category":"500","category_name":"未知分类","address":"上海娄山关路88号"},{"poiid":"B2094757D068A6FC449B","title":"韩国领事馆","lon":"121.401656","lat":"31.204408","category":"500","category_name":"未知分类","address":"上海万山路60号"},{"poiid":"B2094757D064A5FA499D","title":"满记甜品(天山百盛店)","lon":"121.40289","lat":"31.21089","category":"67","category_name":"甜品店","address":"长宁区天山路789-889号百盛购物中心B1楼(近娄山关路)"},{"poiid":"B2094757D068A3FE4898","title":"味藏 仙霞店 AJIKURA","lon":"121.40325643065","lat":"31.206329906014","category":"247","category_name":"餐饮美食","address":"长宁区仙霞路163号(近娄山关路)"},{"poiid":"B2094757D06FA3FB429E","title":"星巴克(远东国际店)","lon":"121.4012526","lat":"31.2060433","category":"65","category_name":"咖啡厅","address":"长宁区仙霞路319号远东国际广场内(近古北路)"},{"poiid":"B2094757D06FA6FA429E","title":"来天华(万都店)","lon":"121.40542","lat":"31.204","category":"76","category_name":"上海菜","address":"上海长宁区兴义路8号万都中心大厦4楼(近遵义路)  "},{"poiid":"B2094654DB69A7FD499C","title":"白木屋","lon":"121.40345","lat":"31.2045","category":"95","category_name":"日本料理","address":"长宁区兴义路48号新世纪广场(近娄山关路)"},{"poiid":"B2094757D06FA5FB479A","title":"新加坡共和国驻上海总领事馆‎","lon":"121.401626587","lat":"31.205165863","category":"260","category_name":"其他","address":"上海万山路89号"},{"poiid":"B2094757D06FA7F94493","title":"Wagas沃歌斯(虹桥店)","lon":"121.40526058","lat":"31.204698931","category":"94","category_name":"西餐厅","address":"长宁区兴义路8号万都中心大厦108-109号(近遵义路)"},{"poiid":"B2094757D06FA3F94799","title":"星巴克(万都店)","lon":"121.405183","lat":"31.204434","category":"260","category_name":"其他","address":"长宁区兴义路8号万都中心大厦1楼S102、S106商铺(近遵义路)"},{"poiid":"B2094757D068A3FF459C","title":"荣烧肉","lon":"121.40406","lat":"31.20428","category":"269","category_name":"烧烤","address":"长宁区兴义路48号新世纪广场A座3楼(近娄山关路)"},{"poiid":"B2094757D06FA5F44692","title":"丸山","lon":"121.40541","lat":"31.20434","category":"95","category_name":"日本料理","address":"长宁区兴义路8号万都中心大厦2楼(近遵义路)"},{"poiid":"B2094655D26DA7FE499C","title":"远东国际广场B栋","lon":"121.40151","lat":"31.20644","category":"46","category_name":"楼宇","address":"仙霞路317"},{"poiid":"B2094757D16CA7FD479F","title":"COSTA","lon":"121.402974586","lat":"31.2036019103","category":"500","category_name":"未知分类","address":"长宁区娄山关路75号吉盛伟邦1楼110商铺(近兴义路)"},{"poiid":"B2094757D06FA1FD409C","title":"松屋(仙霞路店)","lon":"121.40192","lat":"31.20596","category":"95","category_name":"日本料理","address":"长宁区仙霞路299号远东国际广场B栋1楼(近古北路)"},{"poiid":"B2094751D26DA0F84898","title":"神田烧肉(遵义南路店)","lon":"121.40104","lat":"31.20542","category":"269","category_name":"烧烤","address":"长宁区遵义南路88号3楼(近仙霞路)"},{"poiid":"B2094757D06FAAF94592","title":"伊藤家(万都店)","lon":"121.40491","lat":"31.20354","category":"95","category_name":"日本料理","address":"长宁区兴义路8号万都中心大厦3楼(近遵义路)"},{"poiid":"B2094757D66BA2F5459A","title":"银平","lon":"121.404031054","lat":"31.205890793","category":"95","category_name":"日本料理","address":"长宁区仙霞路137号盛高国际大厦1楼(娄山关路与遵义路之间)"},{"poiid":"B2094654D56BA5F94798","title":"韩国馆","lon":"121.40543","lat":"31.20491","category":"96","category_name":"韩国料理","address":"长宁区兴义路8号万都中心大厦2楼(近遵义路)"},{"poiid":"B2094757D06BABFC4898","title":"世贸展馆","lon":"121.40266","lat":"31.20296","category":"179","category_name":"音乐厅","address":"长宁区兴义路99号(娄山关路兴义路)"},{"poiid":"B2094757D069A3FE469D","title":"鸭王(虹桥店)","lon":"121.40277691","lat":"31.2054591188","category":"260","category_name":"其他","address":"长宁区娄山关路85号1楼(仙霞路口)"},{"poiid":"B2094750DA6EA1F8419B","title":"青原Aobara","lon":"121.402153","lat":"31.206956","category":"95","category_name":"日本料理","address":"长宁区古北路555弄555展览文化中心内(近仙霞路)"},{"poiid":"B2094757D069A5FA459F","title":"田野 TAYA","lon":"121.400507054","lat":"31.206150793","category":"95","category_name":"日本料理","address":"长宁区仙霞路319号远东国际广场B栋1楼02-05(近古北路)"},{"poiid":"B2094757D16DAAF84598","title":"荣料理","lon":"121.403425686","lat":"31.2053528945","category":"247","category_name":"餐饮美食","address":"上海遵义路"},{"poiid":"B2094655D36CA1FF4599","title":"娄山关路仙霞路","lon":"121.40321","lat":"31.20616","category":"38","category_name":"公交车站","address":""},{"poiid":"B2094654D56BA7FE4192","title":"花吉 娄山关路店","lon":"121.40291613617","lat":"31.206606561123","category":"95","category_name":"日本料理","address":"长宁区娄山关路423号(近仙霞路)"},{"poiid":"B209475CD06FA7FA4298","title":"简单生活 尚嘉中心店","lon":"121.4057392","lat":"31.2053249","category":"94","category_name":"西餐厅","address":"仙霞路99号尚嘉中心3楼316-317单元(近遵义路)"},{"poiid":"B2094750D36FA1F5439B","title":"中山公园龙之梦雅仕大厦","lon":"121.403518","lat":"31.20597","category":"263","category_name":"公司","address":"长宁区凯旋路369号"},{"poiid":"B2094750DB6EAAF8469B","title":"东银中心","lon":"121.405","lat":"31.2038","category":"46","category_name":"楼宇","address":"上海市长宁区红宝石路500号"},{"poiid":"B2094655D26DABF54792","title":"欧风意酒家","lon":"121.40231","lat":"31.20534","category":"260","category_name":"其他","address":"长宁区娄山关路85号东方国际大厦1楼C座(近仙霞路)"},{"poiid":"B2094751D36CA1FE469D","title":"龚记馄饨","lon":"121.40254","lat":"31.20616","category":"68","category_name":"快餐厅","address":"长宁区仙霞路207号"},{"poiid":"B2094750D76EA0F4469D","title":"小城故乡台湾私房牛肉面(仙霞路店)","lon":"121.403","lat":"31.2062","category":"91","category_name":"台湾菜","address":"长宁区娄山关路390号(近仙霞路)"},{"poiid":"B2094757D068A5FC4393","title":"COCO都可茶饮(娄山关路店)","lon":"121.40526049","lat":"31.205494397","category":"113","category_name":"冷饮店","address":"长宁区娄山关路436号(近仙霞路)"},{"poiid":"B2094757D068A3FD4099","title":"中国工商银行(虹桥开发区支行)","lon":"121.40316","lat":"31.20419","category":"150","category_name":"银行","address":"长宁区娄山关路83号近仙霞路(娄山关路万山路)"},{"poiid":"B2094654D56BA5FF449B","title":"大韩民国总领事馆","lon":"121.40165","lat":"31.20441","category":"252","category_name":"楼宇机构","address":"万山路60"},{"poiid":"B2094757D069A2F44398","title":"上海市商务委员会","lon":"121.402679","lat":"31.202929","category":"260","category_name":"其他","address":"上海娄山关路55号11楼"},{"poiid":"B2094757D469A0FD4893","title":"吉范尼斯意大利餐厅 Giovanni's","lon":"121.405629054","lat":"31.204849793","category":"98","category_name":"意式菜品餐厅","address":"长宁区遵义南路5号虹桥喜来登上海太平洋大饭店27楼(兴义路口)"},{"poiid":"B2094757D069AAFC459C","title":"万都商城","lon":"121.40556491","lat":"31.204932236","category":"119","category_name":"商场","address":"长宁区兴义路8号万都中心大厦内(近遵义路)"},{"poiid":"B2094757D465A1F8489A","title":"和泉","lon":"121.403111054","lat":"31.205559793","category":"95","category_name":"日本料理","address":"长宁区娄山关路393号(近仙霞路)"},{"poiid":"B2094757D16AA0F5409F","title":"Mukshidonna韩国料理","lon":"121.403460986","lat":"31.2057686527","category":"247","category_name":"餐饮美食","address":"上海长宁区仙霞路390号"},{"poiid":"B2094751DA6BA0F5429E","title":"有喜屋","lon":"121.403342","lat":"31.205238","category":"247","category_name":"餐饮美食","address":"长宁区延安西路2073号M101室(近仙霞路)"},{"poiid":"B2094757D069A7FC4699","title":"吉盛伟邦(长宁店)","lon":"121.40265096","lat":"31.203771911","category":"123","category_name":"家具建材市场","address":"长宁区娄山关路75号(近延安西路)"},{"poiid":"B2094757D764A5FA429C","title":"韩一拌饭馆","lon":"121.402782","lat":"31.204258","category":"96","category_name":"韩国料理","address":"长宁区娄山关路(近古北路口)"},{"poiid":"B2094655D36DA1F44598","title":"仙霞路","lon":"121.40342","lat":"31.20698","category":"38","category_name":"公交车站","address":""}]