[{"poiid":"B2094655D26AA6FB449B","title":"星巴克(丽园路店)","lon":"121.47781","lat":"31.205943","category":"260","category_name":"其他","address":"卢湾区蒙自路169号智造局内(近丽园路)"},{"poiid":"B2094757D66FA6FA479A","title":"马当路地铁站","lon":"121.4764454","lat":"31.209112977","category":"36","category_name":"地铁站","address":"上海轨道交通 九号线 轨交马当路站 9"},{"poiid":"B2094753D76FAAFA449C","title":"上海滩国泰旗舰店","lon":"121.466011","lat":"31.216125","category":"249","category_name":"购物服务","address":"淮海中路868号"},{"poiid":"B209475CD564A7F84292","title":"上海滩新天地店","lon":"121.47463","lat":"31.22164","category":"119","category_name":"商场","address":"\"太仓路181弄新天地北里15号\r\n\""},{"poiid":"B2094757D06FA5F44099","title":"Top Chef","lon":"121.47742498","lat":"31.2059198691","category":"94","category_name":"西餐厅","address":"卢湾区蒙自路169号智造局4-105室(近丽园路)"},{"poiid":"B2094757D06AA4FD439B","title":"COSTA COFFEE(徐家汇路店)","lon":"121.477546","lat":"31.209448","category":"65","category_name":"咖啡厅","address":"卢湾区徐家汇路203号(近马当路地铁3号出口)"},{"poiid":"B2094757D06FA1FF4992","title":"鱼林王(打浦店)","lon":"121.47867","lat":"31.20636","category":"86","category_name":"火锅店","address":"卢湾区丽园路708号(近局门路)"},{"poiid":"B2094757D06FAAFC439B","title":"金锚传菜(丽园路店)","lon":"121.47857773","lat":"31.206662798","category":"76","category_name":"上海菜","address":"卢湾区丽园路718号(近蒙自路)"},{"poiid":"B2094753D26EA7F84798","title":"香港龙凤楼","lon":"121.477286","lat":"31.207407","category":"247","category_name":"餐饮美食","address":"上海市 蒙自东路75号(丽园路)"},{"poiid":"B2094757D06FA0FE4093","title":"智造局 Park Space 产业园","lon":"121.47754669","lat":"31.206863403","category":"46","category_name":"楼宇","address":"上海蒙自路169号近丽园路"},{"poiid":"B2094757D06FA0FC489C","title":"丽园公园","lon":"121.478843794","lat":"31.2073611728","category":"196","category_name":"公园","address":"上海卢湾区丽园路(近局门路)  "},{"poiid":"B2094757D06FABFF4198","title":"卢湾区妇幼保健院","lon":"121.47897","lat":"31.20653","category":"902","category_name":"楼宇机构","address":"上海卢湾区丽园路712号(近局门路)  "},{"poiid":"B2094757D169A1FA4399","title":"徐家汇路","lon":"121.47504773","lat":"31.2067918","category":"500","category_name":"未知分类","address":"上海市卢湾区"},{"poiid":"B2094757DB6AA3FE499F","title":"台北纯k party 日月光店","lon":"121.4770580388095","lat":"31.20919920601938","category":"248","category_name":"生活娱乐","address":"打浦桥"},{"poiid":"B2094757D06FA1F84392","title":"友乐达台北精致面馆(卢湾店)","lon":"121.47766","lat":"31.20624","category":"68","category_name":"快餐厅","address":"卢湾区蒙自路169号智造局4号楼101室(近丽园路)"},{"poiid":"B2094750D56EA1F4429D","title":"狐咖","lon":"121.477615","lat":"31.20746","category":"247","category_name":"餐饮美食","address":"卢湾区蒙自东路65号(近智造局产业园)"},{"poiid":"B2094655D26AA0FF4398","title":"卢湾区工人俱乐部","lon":"121.47475","lat":"31.20917","category":"173","category_name":"游戏厅","address":"卢湾区徐家汇路358号卢湾区工人俱乐部3楼(近马当路)"},{"poiid":"B2094757D068A2F94892","title":"渝香情","lon":"121.47845573","lat":"31.206635797","category":"71","category_name":"四川菜","address":"卢湾区丽园路718号(近蒙自路)"},{"poiid":"B2094654DB6BABF9449F","title":"汇龙新城","lon":"121.47519","lat":"31.208281","category":"47","category_name":"住宅区","address":"卢湾区徐家汇路515号(马当路徐家汇路)"},{"poiid":"B2094757D06FA5F5459D","title":"金仕堡健身会所(卢湾店)","lon":"121.476024","lat":"31.209723","category":"221","category_name":"健身中心","address":"卢湾区马当路616号3-4楼(近徐家汇路)"},{"poiid":"B2094654DA6EA3FE4099","title":"致远大厦","lon":"121.478","lat":"31.2078","category":"46","category_name":"楼宇","address":"上海斜土路768号"},{"poiid":"B2094757D06FA5F5499E","title":"肯德基 KFC (永业店)","lon":"121.47676864","lat":"31.208722686","category":"68","category_name":"快餐厅","address":"上海市蒙自路25--27号1层及29-31号部分商铺"},{"poiid":"B2094757D16EA1FE4698","title":"马当路","lon":"121.47786373","lat":"31.209810865","category":"500","category_name":"未知分类","address":"上海市卢湾区"},{"poiid":"B2094757D168A5FD489B","title":"丽园路蒙自路","lon":"121.4771682","lat":"31.2070718655","category":"500","category_name":"未知分类","address":"上海丽园路蒙自路"},{"poiid":"B2094757D069AAFF409D","title":"华越楼(打浦店)","lon":"121.47752593","lat":"31.206280889","category":"110","category_name":"其他亚洲菜","address":"卢湾区蒙自路29号(近肯德基)"},{"poiid":"B2094654DA68A7FA489B","title":"永业公寓","lon":"121.47814","lat":"31.208323","category":"47","category_name":"住宅区","address":"卢湾区徐家汇路135号"},{"poiid":"B2094757D06BA7FB469B","title":"ZEN PALACE MASSAGE","lon":"121.47790073","lat":"31.207373813","category":"500","category_name":"未知分类","address":"上海市卢湾区蒙自东卢湾区41号"},{"poiid":"B2094750D36BA2F5489B","title":"Scarpetta","lon":"121.476409","lat":"31.208549","category":"94","category_name":"西餐厅","address":"卢湾区蒙自路33号(近地铁9号线马当路站)"},{"poiid":"B2094757D068A2F4499E","title":"艺林盲人按摩院(卢湾店)","lon":"121.47425","lat":"31.2081","category":"149","category_name":"洗浴推拿场所","address":"卢湾区徐家汇路521号(近鲁班路)"},{"poiid":"B2094757DB64A2FA4599","title":"翠华餐厅","lon":"121.477081","lat":"31.207841","category":"500","category_name":"未知分类","address":"日月光"},{"poiid":"B2094655D26EA6F5449E","title":"锦江大厨(卢湾店)","lon":"121.47694","lat":"31.2071","category":"76","category_name":"上海菜","address":"卢湾区蒙自路118号(近丽园路)"},{"poiid":"B2094654DB69A4FD499B","title":"锦江之星(卢湾丽园店)","lon":"121.47693","lat":"31.20724","category":"216","category_name":"经济型连锁酒店","address":"上海市黄浦区斜土路456号(近徐家汇路)"},{"poiid":"B2094753D36CA2FE4298","title":"香港龙凤楼","lon":"121.478298","lat":"31.208093","category":"71","category_name":"四川菜","address":"蒙自东路75号"},{"poiid":"B2094752DA69A1F44098","title":"香港龙凤楼","lon":"121.476228","lat":"31.207401","category":"247","category_name":"餐饮美食","address":"上海市 蒙自东路"},{"poiid":"B2094757D46AA1FD489E","title":"咖世家咖啡 蒙自路店 COSTA COFFEE","lon":"121.476903","lat":"31.209101","category":"67","category_name":"甜品店","address":"卢湾区蒙自路(近徐家汇路)"},{"poiid":"B2094757D06AA1FC429D","title":"静安面包房 蒙自店 JING AN BAKERY","lon":"121.47707","lat":"31.20798","category":"67","category_name":"甜品店","address":"卢湾区蒙自路49号1楼(蒙自西路口)"},{"poiid":"B2094757D16AA2F5479B","title":"翔鹰龙虾","lon":"121.47532573","lat":"31.206978804","category":"68","category_name":"快餐厅","address":"黄浦区大兴街3号(近黄家厥路)"},{"poiid":"B2094757D06AA6FD479E","title":"bistro caffe","lon":"121.477636","lat":"31.207699","category":"94","category_name":"西餐厅","address":"卢湾区蒙自东路67号(近丽园路)"},{"poiid":"B2094757D06FA5F5479C","title":"7-ELEVEN(永业店)","lon":"121.477047804","lat":"31.2081244755","category":"117","category_name":"便民商店/便利店","address":"卢湾区蒙自路45-47号(蒙自路蒙自西路)"},{"poiid":"B2094654DB69A4F5439A","title":"可颂坊 蒙自店 Croissants de France","lon":"121.476530054","lat":"31.207481793","category":"112","category_name":"糕饼店","address":"卢湾区蒙自路116号(近丽园路)"},{"poiid":"B2094757D064A5F8429F","title":"香港丽源餐厅","lon":"121.477602938","lat":"31.206801801","category":"72","category_name":"广东菜","address":"卢湾区丽园路718号105座(近蒙自路)"},{"poiid":"B2094654DB64A6FD4292","title":"上海新锦江假日酒店","lon":"121.47693","lat":"31.2071","category":"250","category_name":"公园户外","address":"蒙自路118号"},{"poiid":"B2094757D065ABFD469D","title":"永业二期公寓","lon":"121.47694592","lat":"31.208018226","category":"252","category_name":"楼宇机构","address":"上海徐家汇路135弄"},{"poiid":"B2094750D06CA3F8449F","title":"黃浦區婦幼保健院","lon":"121.476226","lat":"31.207365","category":"162","category_name":"医院","address":"麗園路712號"},{"poiid":"B2094750D56DABF84799","title":"达美乐披萨（蒙自路店）","lon":"121.477851","lat":"31.206092","category":"247","category_name":"餐饮美食","address":"蒙自路169号智造局"},{"poiid":"B2094654DA6EA3FA4692","title":"海丽花园","lon":"121.477","lat":"31.2095","category":"47","category_name":"住宅区","address":"打浦路80弄1-3"},{"poiid":"B2094753D66AA6FB4193","title":"香港龙凤楼","lon":"121.477027","lat":"31.207515","category":"247","category_name":"餐饮美食","address":"上海市 蒙自东路75号"},{"poiid":"B2094654DA68A6F8459A","title":"光明乳业乳品专卖","lon":"121.47676","lat":"31.20756","category":"117","category_name":"便民商店/便利店","address":""},{"poiid":"B209475CD368A7F5469C","title":"粒子咖啡馆","lon":"121.47817","lat":"31.20787","category":"65","category_name":"咖啡厅","address":"蒙自东路63号(近马当路地铁站3号口)"},{"poiid":"B2094655D26AA6FB449B","title":"星巴克(丽园路店)","lon":"121.47781","lat":"31.205943","category":"260","category_name":"其他","address":"卢湾区蒙自路169号智造局内(近丽园路)"},{"poiid":"B2094757D66FA6FA479A","title":"马当路地铁站","lon":"121.4764454","lat":"31.209112977","category":"36","category_name":"地铁站","address":"上海轨道交通 九号线 轨交马当路站 9"},{"poiid":"B2094753D76FAAFA449C","title":"上海滩国泰旗舰店","lon":"121.466011","lat":"31.216125","category":"249","category_name":"购物服务","address":"淮海中路868号"},{"poiid":"B209475CD564A7F84292","title":"上海滩新天地店","lon":"121.47463","lat":"31.22164","category":"119","category_name":"商场","address":"\"太仓路181弄新天地北里15号\r\n\""},{"poiid":"B2094757D06FA5F44099","title":"Top Chef","lon":"121.47742498","lat":"31.2059198691","category":"94","category_name":"西餐厅","address":"卢湾区蒙自路169号智造局4-105室(近丽园路)"},{"poiid":"B2094757D06AA4FD439B","title":"COSTA COFFEE(徐家汇路店)","lon":"121.477546","lat":"31.209448","category":"65","category_name":"咖啡厅","address":"卢湾区徐家汇路203号(近马当路地铁3号出口)"},{"poiid":"B2094757D06FA1FF4992","title":"鱼林王(打浦店)","lon":"121.47867","lat":"31.20636","category":"86","category_name":"火锅店","address":"卢湾区丽园路708号(近局门路)"},{"poiid":"B2094757D06FAAFC439B","title":"金锚传菜(丽园路店)","lon":"121.47857773","lat":"31.206662798","category":"76","category_name":"上海菜","address":"卢湾区丽园路718号(近蒙自路)"},{"poiid":"B2094753D26EA7F84798","title":"香港龙凤楼","lon":"121.477286","lat":"31.207407","category":"247","category_name":"餐饮美食","address":"上海市 蒙自东路75号(丽园路)"},{"poiid":"B2094757D06FA0FE4093","title":"智造局 Park Space 产业园","lon":"121.47754669","lat":"31.206863403","category":"46","category_name":"楼宇","address":"上海蒙自路169号近丽园路"},{"poiid":"B2094757D06FA0FC489C","title":"丽园公园","lon":"121.478843794","lat":"31.2073611728","category":"196","category_name":"公园","address":"上海卢湾区丽园路(近局门路)  "},{"poiid":"B2094757D06FABFF4198","title":"卢湾区妇幼保健院","lon":"121.47897","lat":"31.20653","category":"902","category_name":"楼宇机构","address":"上海卢湾区丽园路712号(近局门路)  "},{"poiid":"B2094757D169A1FA4399","title":"徐家汇路","lon":"121.47504773","lat":"31.2067918","category":"500","category_name":"未知分类","address":"上海市卢湾区"},{"poiid":"B2094757DB6AA3FE499F","title":"台北纯k party 日月光店","lon":"121.4770580388095","lat":"31.20919920601938","category":"248","category_name":"生活娱乐","address":"打浦桥"},{"poiid":"B2094757D06FA1F84392","title":"友乐达台北精致面馆(卢湾店)","lon":"121.47766","lat":"31.20624","category":"68","category_name":"快餐厅","address":"卢湾区蒙自路169号智造局4号楼101室(近丽园路)"},{"poiid":"B2094750D56EA1F4429D","title":"狐咖","lon":"121.477615","lat":"31.20746","category":"247","category_name":"餐饮美食","address":"卢湾区蒙自东路65号(近智造局产业园)"},{"poiid":"B2094655D26AA0FF4398","title":"卢湾区工人俱乐部","lon":"121.47475","lat":"31.20917","category":"173","category_name":"游戏厅","address":"卢湾区徐家汇路358号卢湾区工人俱乐部3楼(近马当路)"},{"poiid":"B2094757D068A2F94892","title":"渝香情","lon":"121.47845573","lat":"31.206635797","category":"71","category_name":"四川菜","address":"卢湾区丽园路718号(近蒙自路)"},{"poiid":"B2094654DB6BABF9449F","title":"汇龙新城","lon":"121.47519","lat":"31.208281","category":"47","category_name":"住宅区","address":"卢湾区徐家汇路515号(马当路徐家汇路)"},{"poiid":"B2094757D06FA5F5459D","title":"金仕堡健身会所(卢湾店)","lon":"121.476024","lat":"31.209723","category":"221","category_name":"健身中心","address":"卢湾区马当路616号3-4楼(近徐家汇路)"},{"poiid":"B2094654DA6EA3FE4099","title":"致远大厦","lon":"121.478","lat":"31.2078","category":"46","category_name":"楼宇","address":"上海斜土路768号"},{"poiid":"B2094757D06FA5F5499E","title":"肯德基 KFC (永业店)","lon":"121.47676864","lat":"31.208722686","category":"68","category_name":"快餐厅","address":"上海市蒙自路25--27号1层及29-31号部分商铺"},{"poiid":"B2094757D16EA1FE4698","title":"马当路","lon":"121.47786373","lat":"31.209810865","category":"500","category_name":"未知分类","address":"上海市卢湾区"},{"poiid":"B2094757D168A5FD489B","title":"丽园路蒙自路","lon":"121.4771682","lat":"31.2070718655","category":"500","category_name":"未知分类","address":"上海丽园路蒙自路"},{"poiid":"B2094757D069AAFF409D","title":"华越楼(打浦店)","lon":"121.47752593","lat":"31.206280889","category":"110","category_name":"其他亚洲菜","address":"卢湾区蒙自路29号(近肯德基)"},{"poiid":"B2094654DA68A7FA489B","title":"永业公寓","lon":"121.47814","lat":"31.208323","category":"47","category_name":"住宅区","address":"卢湾区徐家汇路135号"},{"poiid":"B2094757D06BA7FB469B","title":"ZEN PALACE MASSAGE","lon":"121.47790073","lat":"31.207373813","category":"500","category_name":"未知分类","address":"上海市卢湾区蒙自东卢湾区41号"},{"poiid":"B2094750D36BA2F5489B","title":"Scarpetta","lon":"121.476409","lat":"31.208549","category":"94","category_name":"西餐厅","address":"卢湾区蒙自路33号(近地铁9号线马当路站)"},{"poiid":"B2094757D068A2F4499E","title":"艺林盲人按摩院(卢湾店)","lon":"121.47425","lat":"31.2081","category":"149","category_name":"洗浴推拿场所","address":"卢湾区徐家汇路521号(近鲁班路)"},{"poiid":"B2094757DB64A2FA4599","title":"翠华餐厅","lon":"121.477081","lat":"31.207841","category":"500","category_name":"未知分类","address":"日月光"},{"poiid":"B2094655D26EA6F5449E","title":"锦江大厨(卢湾店)","lon":"121.47694","lat":"31.2071","category":"76","category_name":"上海菜","address":"卢湾区蒙自路118号(近丽园路)"},{"poiid":"B2094654DB69A4FD499B","title":"锦江之星(卢湾丽园店)","lon":"121.47693","lat":"31.20724","category":"216","category_name":"经济型连锁酒店","address":"上海市黄浦区斜土路456号(近徐家汇路)"},{"poiid":"B2094753D36CA2FE4298","title":"香港龙凤楼","lon":"121.478298","lat":"31.208093","category":"71","category_name":"四川菜","address":"蒙自东路75号"},{"poiid":"B2094752DA69A1F44098","title":"香港龙凤楼","lon":"121.476228","lat":"31.207401","category":"247","category_name":"餐饮美食","address":"上海市 蒙自东路"},{"poiid":"B2094757D46AA1FD489E","title":"咖世家咖啡 蒙自路店 COSTA COFFEE","lon":"121.476903","lat":"31.209101","category":"67","category_name":"甜品店","address":"卢湾区蒙自路(近徐家汇路)"},{"poiid":"B2094757D06AA1FC429D","title":"静安面包房 蒙自店 JING AN BAKERY","lon":"121.47707","lat":"31.20798","category":"67","category_name":"甜品店","address":"卢湾区蒙自路49号1楼(蒙自西路口)"},{"poiid":"B2094757D16AA2F5479B","title":"翔鹰龙虾","lon":"121.47532573","lat":"31.206978804","category":"68","category_name":"快餐厅","address":"黄浦区大兴街3号(近黄家厥路)"},{"poiid":"B2094757D06AA6FD479E","title":"bistro caffe","lon":"121.477636","lat":"31.207699","category":"94","category_name":"西餐厅","address":"卢湾区蒙自东路67号(近丽园路)"},{"poiid":"B2094757D06FA5F5479C","title":"7-ELEVEN(永业店)","lon":"121.477047804","lat":"31.2081244755","category":"117","category_name":"便民商店/便利店","address":"卢湾区蒙自路45-47号(蒙自路蒙自西路)"},{"poiid":"B2094654DB69A4F5439A","title":"可颂坊 蒙自店 Croissants de France","lon":"121.476530054","lat":"31.207481793","category":"112","category_name":"糕饼店","address":"卢湾区蒙自路116号(近丽园路)"},{"poiid":"B2094757D064A5F8429F","title":"香港丽源餐厅","lon":"121.477602938","lat":"31.206801801","category":"72","category_name":"广东菜","address":"卢湾区丽园路718号105座(近蒙自路)"},{"poiid":"B2094654DB64A6FD4292","title":"上海新锦江假日酒店","lon":"121.47693","lat":"31.2071","category":"250","category_name":"公园户外","address":"蒙自路118号"},{"poiid":"B2094757D065ABFD469D","title":"永业二期公寓","lon":"121.47694592","lat":"31.208018226","category":"252","category_name":"楼宇机构","address":"上海徐家汇路135弄"},{"poiid":"B2094750D06CA3F8449F","title":"黃浦區婦幼保健院","lon":"121.476226","lat":"31.207365","category":"162","category_name":"医院","address":"麗園路712號"},{"poiid":"B2094750D56DABF84799","title":"达美乐披萨（蒙自路店）","lon":"121.477851","lat":"31.206092","category":"247","category_name":"餐饮美食","address":"蒙自路169号智造局"},{"poiid":"B2094654DA6EA3FA4692","title":"海丽花园","lon":"121.477","lat":"31.2095","category":"47","category_name":"住宅区","address":"打浦路80弄1-3"},{"poiid":"B2094753D66AA6FB4193","title":"香港龙凤楼","lon":"121.477027","lat":"31.207515","category":"247","category_name":"餐饮美食","address":"上海市 蒙自东路75号"},{"poiid":"B2094654DA68A6F8459A","title":"光明乳业乳品专卖","lon":"121.47676","lat":"31.20756","category":"117","category_name":"便民商店/便利店","address":""},{"poiid":"B209475CD368A7F5469C","title":"粒子咖啡馆","lon":"121.47817","lat":"31.20787","category":"65","category_name":"咖啡厅","address":"蒙自东路63号(近马当路地铁站3号口)"},{"poiid":"B2094655D26AA6FB449B","title":"星巴克(丽园路店)","lon":"121.47781","lat":"31.205943","category":"260","category_name":"其他","address":"卢湾区蒙自路169号智造局内(近丽园路)"},{"poiid":"B2094757D66FA6FA479A","title":"马当路地铁站","lon":"121.4764454","lat":"31.209112977","category":"36","category_name":"地铁站","address":"上海轨道交通 九号线 轨交马当路站 9"},{"poiid":"B2094753D76FAAFA449C","title":"上海滩国泰旗舰店","lon":"121.466011","lat":"31.216125","category":"249","category_name":"购物服务","address":"淮海中路868号"},{"poiid":"B209475CD564A7F84292","title":"上海滩新天地店","lon":"121.47463","lat":"31.22164","category":"119","category_name":"商场","address":"\"太仓路181弄新天地北里15号\r\n\""},{"poiid":"B2094757D06FA5F44099","title":"Top Chef","lon":"121.47742498","lat":"31.2059198691","category":"94","category_name":"西餐厅","address":"卢湾区蒙自路169号智造局4-105室(近丽园路)"},{"poiid":"B2094757D06AA4FD439B","title":"COSTA COFFEE(徐家汇路店)","lon":"121.477546","lat":"31.209448","category":"65","category_name":"咖啡厅","address":"卢湾区徐家汇路203号(近马当路地铁3号出口)"},{"poiid":"B2094757D06FA1FF4992","title":"鱼林王(打浦店)","lon":"121.47867","lat":"31.20636","category":"86","category_name":"火锅店","address":"卢湾区丽园路708号(近局门路)"},{"poiid":"B2094757D06FAAFC439B","title":"金锚传菜(丽园路店)","lon":"121.47857773","lat":"31.206662798","category":"76","category_name":"上海菜","address":"卢湾区丽园路718号(近蒙自路)"},{"poiid":"B2094753D26EA7F84798","title":"香港龙凤楼","lon":"121.477286","lat":"31.207407","category":"247","category_name":"餐饮美食","address":"上海市 蒙自东路75号(丽园路)"},{"poiid":"B2094757D06FA0FE4093","title":"智造局 Park Space 产业园","lon":"121.47754669","lat":"31.206863403","category":"46","category_name":"楼宇","address":"上海蒙自路169号近丽园路"},{"poiid":"B2094757D06FA0FC489C","title":"丽园公园","lon":"121.478843794","lat":"31.2073611728","category":"196","category_name":"公园","address":"上海卢湾区丽园路(近局门路)  "},{"poiid":"B2094757D06FABFF4198","title":"卢湾区妇幼保健院","lon":"121.47897","lat":"31.20653","category":"902","category_name":"楼宇机构","address":"上海卢湾区丽园路712号(近局门路)  "},{"poiid":"B2094757D169A1FA4399","title":"徐家汇路","lon":"121.47504773","lat":"31.2067918","category":"500","category_name":"未知分类","address":"上海市卢湾区"},{"poiid":"B2094757DB6AA3FE499F","title":"台北纯k party 日月光店","lon":"121.4770580388095","lat":"31.20919920601938","category":"248","category_name":"生活娱乐","address":"打浦桥"},{"poiid":"B2094757D06FA1F84392","title":"友乐达台北精致面馆(卢湾店)","lon":"121.47766","lat":"31.20624","category":"68","category_name":"快餐厅","address":"卢湾区蒙自路169号智造局4号楼101室(近丽园路)"},{"poiid":"B2094750D56EA1F4429D","title":"狐咖","lon":"121.477615","lat":"31.20746","category":"247","category_name":"餐饮美食","address":"卢湾区蒙自东路65号(近智造局产业园)"},{"poiid":"B2094655D26AA0FF4398","title":"卢湾区工人俱乐部","lon":"121.47475","lat":"31.20917","category":"173","category_name":"游戏厅","address":"卢湾区徐家汇路358号卢湾区工人俱乐部3楼(近马当路)"},{"poiid":"B2094757D068A2F94892","title":"渝香情","lon":"121.47845573","lat":"31.206635797","category":"71","category_name":"四川菜","address":"卢湾区丽园路718号(近蒙自路)"},{"poiid":"B2094654DB6BABF9449F","title":"汇龙新城","lon":"121.47519","lat":"31.208281","category":"47","category_name":"住宅区","address":"卢湾区徐家汇路515号(马当路徐家汇路)"},{"poiid":"B2094757D06FA5F5459D","title":"金仕堡健身会所(卢湾店)","lon":"121.476024","lat":"31.209723","category":"221","category_name":"健身中心","address":"卢湾区马当路616号3-4楼(近徐家汇路)"},{"poiid":"B2094654DA6EA3FE4099","title":"致远大厦","lon":"121.478","lat":"31.2078","category":"46","category_name":"楼宇","address":"上海斜土路768号"},{"poiid":"B2094757D06FA5F5499E","title":"肯德基 KFC (永业店)","lon":"121.47676864","lat":"31.208722686","category":"68","category_name":"快餐厅","address":"上海市蒙自路25--27号1层及29-31号部分商铺"},{"poiid":"B2094757D16EA1FE4698","title":"马当路","lon":"121.47786373","lat":"31.209810865","category":"500","category_name":"未知分类","address":"上海市卢湾区"},{"poiid":"B2094757D168A5FD489B","title":"丽园路蒙自路","lon":"121.4771682","lat":"31.2070718655","category":"500","category_name":"未知分类","address":"上海丽园路蒙自路"},{"poiid":"B2094757D069AAFF409D","title":"华越楼(打浦店)","lon":"121.47752593","lat":"31.206280889","category":"110","category_name":"其他亚洲菜","address":"卢湾区蒙自路29号(近肯德基)"},{"poiid":"B2094654DA68A7FA489B","title":"永业公寓","lon":"121.47814","lat":"31.208323","category":"47","category_name":"住宅区","address":"卢湾区徐家汇路135号"},{"poiid":"B2094757D06BA7FB469B","title":"ZEN PALACE MASSAGE","lon":"121.47790073","lat":"31.207373813","category":"500","category_name":"未知分类","address":"上海市卢湾区蒙自东卢湾区41号"},{"poiid":"B2094750D36BA2F5489B","title":"Scarpetta","lon":"121.476409","lat":"31.208549","category":"94","category_name":"西餐厅","address":"卢湾区蒙自路33号(近地铁9号线马当路站)"},{"poiid":"B2094757D068A2F4499E","title":"艺林盲人按摩院(卢湾店)","lon":"121.47425","lat":"31.2081","category":"149","category_name":"洗浴推拿场所","address":"卢湾区徐家汇路521号(近鲁班路)"},{"poiid":"B2094757DB64A2FA4599","title":"翠华餐厅","lon":"121.477081","lat":"31.207841","category":"500","category_name":"未知分类","address":"日月光"},{"poiid":"B2094655D26EA6F5449E","title":"锦江大厨(卢湾店)","lon":"121.47694","lat":"31.2071","category":"76","category_name":"上海菜","address":"卢湾区蒙自路118号(近丽园路)"},{"poiid":"B2094654DB69A4FD499B","title":"锦江之星(卢湾丽园店)","lon":"121.47693","lat":"31.20724","category":"216","category_name":"经济型连锁酒店","address":"上海市黄浦区斜土路456号(近徐家汇路)"},{"poiid":"B2094753D36CA2FE4298","title":"香港龙凤楼","lon":"121.478298","lat":"31.208093","category":"71","category_name":"四川菜","address":"蒙自东路75号"},{"poiid":"B2094752DA69A1F44098","title":"香港龙凤楼","lon":"121.476228","lat":"31.207401","category":"247","category_name":"餐饮美食","address":"上海市 蒙自东路"},{"poiid":"B2094757D46AA1FD489E","title":"咖世家咖啡 蒙自路店 COSTA COFFEE","lon":"121.476903","lat":"31.209101","category":"67","category_name":"甜品店","address":"卢湾区蒙自路(近徐家汇路)"},{"poiid":"B2094757D06AA1FC429D","title":"静安面包房 蒙自店 JING AN BAKERY","lon":"121.47707","lat":"31.20798","category":"67","category_name":"甜品店","address":"卢湾区蒙自路49号1楼(蒙自西路口)"},{"poiid":"B2094757D16AA2F5479B","title":"翔鹰龙虾","lon":"121.47532573","lat":"31.206978804","category":"68","category_name":"快餐厅","address":"黄浦区大兴街3号(近黄家厥路)"},{"poiid":"B2094757D06AA6FD479E","title":"bistro caffe","lon":"121.477636","lat":"31.207699","category":"94","category_name":"西餐厅","address":"卢湾区蒙自东路67号(近丽园路)"},{"poiid":"B2094757D06FA5F5479C","title":"7-ELEVEN(永业店)","lon":"121.477047804","lat":"31.2081244755","category":"117","category_name":"便民商店/便利店","address":"卢湾区蒙自路45-47号(蒙自路蒙自西路)"},{"poiid":"B2094654DB69A4F5439A","title":"可颂坊 蒙自店 Croissants de France","lon":"121.476530054","lat":"31.207481793","category":"112","category_name":"糕饼店","address":"卢湾区蒙自路116号(近丽园路)"},{"poiid":"B2094757D064A5F8429F","title":"香港丽源餐厅","lon":"121.477602938","lat":"31.206801801","category":"72","category_name":"广东菜","address":"卢湾区丽园路718号105座(近蒙自路)"},{"poiid":"B2094654DB64A6FD4292","title":"上海新锦江假日酒店","lon":"121.47693","lat":"31.2071","category":"250","category_name":"公园户外","address":"蒙自路118号"},{"poiid":"B2094757D065ABFD469D","title":"永业二期公寓","lon":"121.47694592","lat":"31.208018226","category":"252","category_name":"楼宇机构","address":"上海徐家汇路135弄"},{"poiid":"B2094750D06CA3F8449F","title":"黃浦區婦幼保健院","lon":"121.476226","lat":"31.207365","category":"162","category_name":"医院","address":"麗園路712號"},{"poiid":"B2094750D56DABF84799","title":"达美乐披萨（蒙自路店）","lon":"121.477851","lat":"31.206092","category":"247","category_name":"餐饮美食","address":"蒙自路169号智造局"},{"poiid":"B2094654DA6EA3FA4692","title":"海丽花园","lon":"121.477","lat":"31.2095","category":"47","category_name":"住宅区","address":"打浦路80弄1-3"},{"poiid":"B2094753D66AA6FB4193","title":"香港龙凤楼","lon":"121.477027","lat":"31.207515","category":"247","category_name":"餐饮美食","address":"上海市 蒙自东路75号"},{"poiid":"B2094654DA68A6F8459A","title":"光明乳业乳品专卖","lon":"121.47676","lat":"31.20756","category":"117","category_name":"便民商店/便利店","address":""},{"poiid":"B209475CD368A7F5469C","title":"粒子咖啡馆","lon":"121.47817","lat":"31.20787","category":"65","category_name":"咖啡厅","address":"蒙自东路63号(近马当路地铁站3号口)"},{"poiid":"B2094655D26AA6FB449B","title":"星巴克(丽园路店)","lon":"121.47781","lat":"31.205943","category":"260","category_name":"其他","address":"卢湾区蒙自路169号智造局内(近丽园路)"},{"poiid":"B2094757D66FA6FA479A","title":"马当路地铁站","lon":"121.4764454","lat":"31.209112977","category":"36","category_name":"地铁站","address":"上海轨道交通 九号线 轨交马当路站 9"},{"poiid":"B2094753D76FAAFA449C","title":"上海滩国泰旗舰店","lon":"121.466011","lat":"31.216125","category":"249","category_name":"购物服务","address":"淮海中路868号"},{"poiid":"B209475CD564A7F84292","title":"上海滩新天地店","lon":"121.47463","lat":"31.22164","category":"119","category_name":"商场","address":"\"太仓路181弄新天地北里15号\r\n\""},{"poiid":"B2094757D06FA5F44099","title":"Top Chef","lon":"121.47742498","lat":"31.2059198691","category":"94","category_name":"西餐厅","address":"卢湾区蒙自路169号智造局4-105室(近丽园路)"},{"poiid":"B2094757D06AA4FD439B","title":"COSTA COFFEE(徐家汇路店)","lon":"121.477546","lat":"31.209448","category":"65","category_name":"咖啡厅","address":"卢湾区徐家汇路203号(近马当路地铁3号出口)"},{"poiid":"B2094757D06FA1FF4992","title":"鱼林王(打浦店)","lon":"121.47867","lat":"31.20636","category":"86","category_name":"火锅店","address":"卢湾区丽园路708号(近局门路)"},{"poiid":"B2094757D06FAAFC439B","title":"金锚传菜(丽园路店)","lon":"121.47857773","lat":"31.206662798","category":"76","category_name":"上海菜","address":"卢湾区丽园路718号(近蒙自路)"},{"poiid":"B2094753D26EA7F84798","title":"香港龙凤楼","lon":"121.477286","lat":"31.207407","category":"247","category_name":"餐饮美食","address":"上海市 蒙自东路75号(丽园路)"},{"poiid":"B2094757D06FA0FE4093","title":"智造局 Park Space 产业园","lon":"121.47754669","lat":"31.206863403","category":"46","category_name":"楼宇","address":"上海蒙自路169号近丽园路"},{"poiid":"B2094757D06FA0FC489C","title":"丽园公园","lon":"121.478843794","lat":"31.2073611728","category":"196","category_name":"公园","address":"上海卢湾区丽园路(近局门路)  "},{"poiid":"B2094757D06FABFF4198","title":"卢湾区妇幼保健院","lon":"121.47897","lat":"31.20653","category":"902","category_name":"楼宇机构","address":"上海卢湾区丽园路712号(近局门路)  "},{"poiid":"B2094757D169A1FA4399","title":"徐家汇路","lon":"121.47504773","lat":"31.2067918","category":"500","category_name":"未知分类","address":"上海市卢湾区"},{"poiid":"B2094757DB6AA3FE499F","title":"台北纯k party 日月光店","lon":"121.4770580388095","lat":"31.20919920601938","category":"248","category_name":"生活娱乐","address":"打浦桥"},{"poiid":"B2094757D06FA1F84392","title":"友乐达台北精致面馆(卢湾店)","lon":"121.47766","lat":"31.20624","category":"68","category_name":"快餐厅","address":"卢湾区蒙自路169号智造局4号楼101室(近丽园路)"},{"poiid":"B2094750D56EA1F4429D","title":"狐咖","lon":"121.477615","lat":"31.20746","category":"247","category_name":"餐饮美食","address":"卢湾区蒙自东路65号(近智造局产业园)"},{"poiid":"B2094655D26AA0FF4398","title":"卢湾区工人俱乐部","lon":"121.47475","lat":"31.20917","category":"173","category_name":"游戏厅","address":"卢湾区徐家汇路358号卢湾区工人俱乐部3楼(近马当路)"},{"poiid":"B2094757D068A2F94892","title":"渝香情","lon":"121.47845573","lat":"31.206635797","category":"71","category_name":"四川菜","address":"卢湾区丽园路718号(近蒙自路)"},{"poiid":"B2094654DB6BABF9449F","title":"汇龙新城","lon":"121.47519","lat":"31.208281","category":"47","category_name":"住宅区","address":"卢湾区徐家汇路515号(马当路徐家汇路)"},{"poiid":"B2094757D06FA5F5459D","title":"金仕堡健身会所(卢湾店)","lon":"121.476024","lat":"31.209723","category":"221","category_name":"健身中心","address":"卢湾区马当路616号3-4楼(近徐家汇路)"},{"poiid":"B2094654DA6EA3FE4099","title":"致远大厦","lon":"121.478","lat":"31.2078","category":"46","category_name":"楼宇","address":"上海斜土路768号"},{"poiid":"B2094757D06FA5F5499E","title":"肯德基 KFC (永业店)","lon":"121.47676864","lat":"31.208722686","category":"68","category_name":"快餐厅","address":"上海市蒙自路25--27号1层及29-31号部分商铺"},{"poiid":"B2094757D16EA1FE4698","title":"马当路","lon":"121.47786373","lat":"31.209810865","category":"500","category_name":"未知分类","address":"上海市卢湾区"},{"poiid":"B2094757D168A5FD489B","title":"丽园路蒙自路","lon":"121.4771682","lat":"31.2070718655","category":"500","category_name":"未知分类","address":"上海丽园路蒙自路"},{"poiid":"B2094757D069AAFF409D","title":"华越楼(打浦店)","lon":"121.47752593","lat":"31.206280889","category":"110","category_name":"其他亚洲菜","address":"卢湾区蒙自路29号(近肯德基)"},{"poiid":"B2094654DA68A7FA489B","title":"永业公寓","lon":"121.47814","lat":"31.208323","category":"47","category_name":"住宅区","address":"卢湾区徐家汇路135号"},{"poiid":"B2094757D06BA7FB469B","title":"ZEN PALACE MASSAGE","lon":"121.47790073","lat":"31.207373813","category":"500","category_name":"未知分类","address":"上海市卢湾区蒙自东卢湾区41号"},{"poiid":"B2094750D36BA2F5489B","title":"Scarpetta","lon":"121.476409","lat":"31.208549","category":"94","category_name":"西餐厅","address":"卢湾区蒙自路33号(近地铁9号线马当路站)"},{"poiid":"B2094757D068A2F4499E","title":"艺林盲人按摩院(卢湾店)","lon":"121.47425","lat":"31.2081","category":"149","category_name":"洗浴推拿场所","address":"卢湾区徐家汇路521号(近鲁班路)"},{"poiid":"B2094757DB64A2FA4599","title":"翠华餐厅","lon":"121.477081","lat":"31.207841","category":"500","category_name":"未知分类","address":"日月光"},{"poiid":"B2094655D26EA6F5449E","title":"锦江大厨(卢湾店)","lon":"121.47694","lat":"31.2071","category":"76","category_name":"上海菜","address":"卢湾区蒙自路118号(近丽园路)"},{"poiid":"B2094654DB69A4FD499B","title":"锦江之星(卢湾丽园店)","lon":"121.47693","lat":"31.20724","category":"216","category_name":"经济型连锁酒店","address":"上海市黄浦区斜土路456号(近徐家汇路)"},{"poiid":"B2094753D36CA2FE4298","title":"香港龙凤楼","lon":"121.478298","lat":"31.208093","category":"71","category_name":"四川菜","address":"蒙自东路75号"},{"poiid":"B2094752DA69A1F44098","title":"香港龙凤楼","lon":"121.476228","lat":"31.207401","category":"247","category_name":"餐饮美食","address":"上海市 蒙自东路"},{"poiid":"B2094757D46AA1FD489E","title":"咖世家咖啡 蒙自路店 COSTA COFFEE","lon":"121.476903","lat":"31.209101","category":"67","category_name":"甜品店","address":"卢湾区蒙自路(近徐家汇路)"},{"poiid":"B2094757D06AA1FC429D","title":"静安面包房 蒙自店 JING AN BAKERY","lon":"121.47707","lat":"31.20798","category":"67","category_name":"甜品店","address":"卢湾区蒙自路49号1楼(蒙自西路口)"},{"poiid":"B2094757D16AA2F5479B","title":"翔鹰龙虾","lon":"121.47532573","lat":"31.206978804","category":"68","category_name":"快餐厅","address":"黄浦区大兴街3号(近黄家厥路)"},{"poiid":"B2094757D06AA6FD479E","title":"bistro caffe","lon":"121.477636","lat":"31.207699","category":"94","category_name":"西餐厅","address":"卢湾区蒙自东路67号(近丽园路)"},{"poiid":"B2094757D06FA5F5479C","title":"7-ELEVEN(永业店)","lon":"121.477047804","lat":"31.2081244755","category":"117","category_name":"便民商店/便利店","address":"卢湾区蒙自路45-47号(蒙自路蒙自西路)"},{"poiid":"B2094654DB69A4F5439A","title":"可颂坊 蒙自店 Croissants de France","lon":"121.476530054","lat":"31.207481793","category":"112","category_name":"糕饼店","address":"卢湾区蒙自路116号(近丽园路)"},{"poiid":"B2094757D064A5F8429F","title":"香港丽源餐厅","lon":"121.477602938","lat":"31.206801801","category":"72","category_name":"广东菜","address":"卢湾区丽园路718号105座(近蒙自路)"},{"poiid":"B2094654DB64A6FD4292","title":"上海新锦江假日酒店","lon":"121.47693","lat":"31.2071","category":"250","category_name":"公园户外","address":"蒙自路118号"},{"poiid":"B2094757D065ABFD469D","title":"永业二期公寓","lon":"121.47694592","lat":"31.208018226","category":"252","category_name":"楼宇机构","address":"上海徐家汇路135弄"},{"poiid":"B2094750D06CA3F8449F","title":"黃浦區婦幼保健院","lon":"121.476226","lat":"31.207365","category":"162","category_name":"医院","address":"麗園路712號"},{"poiid":"B2094750D56DABF84799","title":"达美乐披萨（蒙自路店）","lon":"121.477851","lat":"31.206092","category":"247","category_name":"餐饮美食","address":"蒙自路169号智造局"},{"poiid":"B2094654DA6EA3FA4692","title":"海丽花园","lon":"121.477","lat":"31.2095","category":"47","category_name":"住宅区","address":"打浦路80弄1-3"},{"poiid":"B2094753D66AA6FB4193","title":"香港龙凤楼","lon":"121.477027","lat":"31.207515","category":"247","category_name":"餐饮美食","address":"上海市 蒙自东路75号"},{"poiid":"B2094654DA68A6F8459A","title":"光明乳业乳品专卖","lon":"121.47676","lat":"31.20756","category":"117","category_name":"便民商店/便利店","address":""},{"poiid":"B209475CD368A7F5469C","title":"粒子咖啡馆","lon":"121.47817","lat":"31.20787","category":"65","category_name":"咖啡厅","address":"蒙自东路63号(近马当路地铁站3号口)"}]