[{"poiid":"B2094757D06FA2F9489E","title":"嘉定新城地铁站","lon":"121.25468554","lat":"31.329586409","category":"36","category_name":"地铁站","address":"上海轨道交通 十一号线 轨交嘉定新城站 11"},{"poiid":"B2094751D269AAF8409A","title":"瑞金医院嘉定北院","lon":"121.259979","lat":"31.335048","category":"252","category_name":"楼宇机构","address":"瑞金北院位于嘉定区嘉定新城中心区（马陆镇）希望路999号。东至永盛路、南至双丁路、西至合作路、北至希望路。"},{"poiid":"B2094655D26BA1FA4898","title":"马陆镇","lon":"121.28238","lat":"31.33073","category":"38","category_name":"公交车站","address":""},{"poiid":"B2094655D36DA6FD469B","title":"嘉定新城","lon":"121.25464","lat":"31.32956","category":"47","category_name":"住宅区","address":""},{"poiid":"B2094757DB69A1FB439F","title":"雍记大酒店 嘉定店","lon":"121.2657311","lat":"31.3363438","category":"72","category_name":"广东菜","address":"嘉定区德富路1288号嘉定国资金融大厦2-3楼(近塔秀路)"},{"poiid":"B2094753D768A7FB499A","title":"嘉定新城图书馆","lon":"121.264015","lat":"31.350297","category":"500","category_name":"未知分类","address":"上海市 嘉定区裕民南路1288号"},{"poiid":"B2094757D064A7F44998","title":"沃尔玛超市(马陆店)","lon":"121.27826936301312","lat":"31.34308659784451","category":"118","category_name":"超级市场","address":"嘉定区沪宜公路2618号天林商业广场2-3楼"},{"poiid":"B2094757D16CA6F5459E","title":"保利湖畔阳光","lon":"121.265576925","lat":"31.3404722141","category":"500","category_name":"未知分类","address":"上海市嘉定区裕民南路333号"},{"poiid":"B2094655D36DA0F5469A","title":"育英街","lon":"121.27755","lat":"31.32914","category":"38","category_name":"公交车站","address":""},{"poiid":"B2094757D06BA0FF489E","title":"保利家园","lon":"121.25768","lat":"31.355701","category":"47","category_name":"住宅区","address":"上海嘉定区嘉定新城洪德路333弄"},{"poiid":"B2094750DA6AA3FF409B","title":"嘉定出入境管理局","lon":"121.259078","lat":"31.342535","category":"617","category_name":"政府机构","address":"嘉定区永盛路1190号"},{"poiid":"B2094655D265A1F5489C","title":"永盛公寓","lon":"121.26462","lat":"31.33279","category":"47","category_name":"住宅区","address":"马陆镇"},{"poiid":"B2094757D064A7FF4698","title":"肯德基 KFC (马陆弘基店)","lon":"121.28358992","lat":"31.337003142","category":"500","category_name":"未知分类","address":"嘉定区沪宜公路2400号(封周路沪宜公路)"},{"poiid":"B2094757DA6EABFD409B","title":"远香舫","lon":"121.281","lat":"31.3395","category":"252","category_name":"楼宇机构","address":"嘉定区裕民南路裕民南路1777弄(近洪德路)"},{"poiid":"B2094654D469A7FC489F","title":"福星工业","lon":"121.26792","lat":"31.34196","category":"45","category_name":"产业园区","address":""},{"poiid":"B2094757D065AAFC449E","title":"轨道交通11号线(嘉定新城)","lon":"121.266037225","lat":"31.3364427305","category":"500","category_name":"未知分类","address":"上海嘉定区胜辛路(近双丁路、双单路)"},{"poiid":"B2094757D66EA0FB4493","title":"中信泰富又一城","lon":"121.264","lat":"31.3363","category":"47","category_name":"住宅区","address":"轨交11号线嘉定新城站(嘉定云屏路388弄)"},{"poiid":"B2094654D469A7FC4892","title":"福兴工业(上海)有限公司","lon":"121.26814","lat":"31.34424","category":"263","category_name":"公司","address":""},{"poiid":"B2094655D36CA4FD4098","title":"白银路阿克苏路","lon":"121.25992","lat":"31.35259","category":"38","category_name":"公交车站","address":""},{"poiid":"B2094654D469A0FF4992","title":"爱茉莉化妆品(上海)有限公司","lon":"121.27026","lat":"31.34129","category":"263","category_name":"公司","address":"裕民路383号"},{"poiid":"B2094757D165AAF5409D","title":"金珂花园酒店","lon":"121.279787054","lat":"31.341881793","category":"76","category_name":"上海菜","address":"嘉定区马陆镇沪宜公路2416-2418号(近弘基广场5号楼)"},{"poiid":"B2094757D568A6FA439D","title":"大卫国际大厦","lon":"121.26272","lat":"31.347561","category":"46","category_name":"楼宇","address":"嘉定区阿克苏路1187号"},{"poiid":"B2094654D469A7FD4193","title":"上海市工业区国家级高新技术区马陆园区","lon":"121.27435","lat":"31.34537","category":"45","category_name":"产业园区","address":""},{"poiid":"B2094757D168A2FD4598","title":"嘉宝紫提湾","lon":"121.284141955","lat":"31.3350993726","category":"500","category_name":"未知分类","address":"上海沪宜公路"},{"poiid":"B2094654D469A0FF499F","title":"乔山健康技术(上海)有限公司","lon":"121.26574","lat":"31.34032","category":"263","category_name":"公司","address":"希望路535号"},{"poiid":"B2094750D564A6FC469D","title":"风景里","lon":"121.26838042631","lat":"31.350996630104","category":"47","category_name":"住宅区","address":"嘉定新城宝塔路399弄永盛路口"},{"poiid":"B2094757D16CA4FA4492","title":"上海希望经济城发展有限公司","lon":"121.26693192","lat":"31.329515986","category":"46","category_name":"楼宇","address":"上海市嘉定区封周路655号"},{"poiid":"B2094757D66AA7FD4193","title":"金池塘私房菜","lon":"121.28116","lat":"31.33833","category":"76","category_name":"上海菜","address":"嘉定区沪宜公路2370弄马陆弘基诚建广场8号(近宝安公路)"},{"poiid":"B2094750D56AA0FE4798","title":"保利湖畔阳光苑","lon":"121.27604","lat":"31.334841","category":"47","category_name":"住宅区","address":"嘉定裕民南路333号(双单路与封周路路口处)"},{"poiid":"B2094757D165A3F54693","title":"沥苑小区","lon":"121.285250625","lat":"31.3398354009","category":"47","category_name":"住宅区","address":"上海马陆"},{"poiid":"B2094757D569A7F5469E","title":"天林商业广场","lon":"121.2785389","lat":"31.34321278","category":"46","category_name":"楼宇","address":"沪宜公路2500-2506号等"},{"poiid":"B2094757D165AAFA419D","title":"嘉定新城规划馆","lon":"121.25833692","lat":"31.339457193","category":"500","category_name":"未知分类","address":"上海市嘉定区伊宁路"},{"poiid":"B2094757DA6BA6F9429E","title":"世嘉双塔","lon":"121.263142","lat":"31.338317","category":"252","category_name":"楼宇机构","address":"新区科技城太湖大道与龙山路交汇处，西北方位"},{"poiid":"B2094655D26BA1FA4892","title":"马陆","lon":"121.28317","lat":"31.33275","category":"38","category_name":"公交车站","address":""},{"poiid":"B2094654D469A0F8409B","title":"上海希望城(希望路)","lon":"121.27436","lat":"31.34537","category":"248","category_name":"生活娱乐","address":""},{"poiid":"B2094752D26BA2FA4793","title":"嘉定新城雍记大酒店","lon":"121.258453","lat":"31.349838","category":"247","category_name":"餐饮美食","address":"嘉定新城德富路1288号"},{"poiid":"B2094757D06BA4F94799","title":"伟创力电子科技(上海)有限公司","lon":"121.264833","lat":"31.328963","category":"46","category_name":"楼宇","address":"上海市嘉定区马陆镇永盛路77号"},{"poiid":"B2094750D26EA0FC449E","title":"瑞金医院北院","lon":"121.262123","lat":"31.333534","category":"252","category_name":"楼宇机构","address":"双丁路888号"},{"poiid":"B2094757D165ABFC429E","title":"公交嘉定新城站","lon":"121.274462","lat":"31.339514","category":"500","category_name":"未知分类","address":"上海双丁路"},{"poiid":"B2094757DB69A2FA439B","title":"麦德龙(宝安公路店)","lon":"121.26497054498293","lat":"31.325341670266745","category":"118","category_name":"超级市场","address":"嘉定区宝安公路3718号"},{"poiid":"B2094654D469A5FC449E","title":"九洲公寓","lon":"121.27066","lat":"31.351662","category":"47","category_name":"住宅区","address":"沪宜公路2758号"},{"poiid":"B2094753DB69A4F4499B","title":"美亚影城","lon":"121.268226","lat":"31.325668","category":"178","category_name":"电影院","address":"上海市 宝安公路麦德龙4楼"},{"poiid":"B2094457D36BABF4499B","title":"上海保利大剧院","lon":"121.263635","lat":"31.354132","category":"180","category_name":"剧场","address":"上海市嘉定区白银路159号"},{"poiid":"B2094655D36DA0F4439F","title":"永盛路白银路","lon":"121.25342","lat":"31.34923","category":"38","category_name":"公交车站","address":""},{"poiid":"B2094654D469A6FB439F","title":"飞利浦灯具(上海)有限公司","lon":"121.27312","lat":"31.34911","category":"263","category_name":"公司","address":"沪宜公路2688"},{"poiid":"B2094654D469A6FD4392","title":"丰登门诊部","lon":"121.27652","lat":"31.35082","category":"162","category_name":"医院","address":"丰登路"},{"poiid":"B2094654D469A5F9439D","title":"彭封路南区","lon":"121.28104","lat":"31.344938","category":"47","category_name":"住宅区","address":"彭封公路161弄"},{"poiid":"B2094750DB6EA7F9489A","title":"上海市嘉定区人民法院","lon":"121.256591","lat":"31.351579","category":"608","category_name":"法院","address":"德富路1221号"},{"poiid":"B2094655D264A2FC419E","title":"永年桥","lon":"121.2592","lat":"31.33974","category":"250","category_name":"公园户外","address":""},{"poiid":"B2094757D064A2FB479E","title":"上海亚明灯泡厂有限公司","lon":"121.28126774","lat":"31.35180442","category":"46","category_name":"楼宇","address":"上海市嘉定区嘉新公路1001号"},{"poiid":"B2094757D06FA2F9489E","title":"嘉定新城地铁站","lon":"121.25468554","lat":"31.329586409","category":"36","category_name":"地铁站","address":"上海轨道交通 十一号线 轨交嘉定新城站 11"},{"poiid":"B2094751D269AAF8409A","title":"瑞金医院嘉定北院","lon":"121.259979","lat":"31.335048","category":"252","category_name":"楼宇机构","address":"瑞金北院位于嘉定区嘉定新城中心区（马陆镇）希望路999号。东至永盛路、南至双丁路、西至合作路、北至希望路。"},{"poiid":"B2094655D26BA1FA4898","title":"马陆镇","lon":"121.28238","lat":"31.33073","category":"38","category_name":"公交车站","address":""},{"poiid":"B2094655D36DA6FD469B","title":"嘉定新城","lon":"121.25464","lat":"31.32956","category":"47","category_name":"住宅区","address":""},{"poiid":"B2094757DB69A1FB439F","title":"雍记大酒店 嘉定店","lon":"121.2657311","lat":"31.3363438","category":"72","category_name":"广东菜","address":"嘉定区德富路1288号嘉定国资金融大厦2-3楼(近塔秀路)"},{"poiid":"B2094753D768A7FB499A","title":"嘉定新城图书馆","lon":"121.264015","lat":"31.350297","category":"500","category_name":"未知分类","address":"上海市 嘉定区裕民南路1288号"},{"poiid":"B2094757D064A7F44998","title":"沃尔玛超市(马陆店)","lon":"121.27826936301312","lat":"31.34308659784451","category":"118","category_name":"超级市场","address":"嘉定区沪宜公路2618号天林商业广场2-3楼"},{"poiid":"B2094757D16CA6F5459E","title":"保利湖畔阳光","lon":"121.265576925","lat":"31.3404722141","category":"500","category_name":"未知分类","address":"上海市嘉定区裕民南路333号"},{"poiid":"B2094655D36DA0F5469A","title":"育英街","lon":"121.27755","lat":"31.32914","category":"38","category_name":"公交车站","address":""},{"poiid":"B2094757D06BA0FF489E","title":"保利家园","lon":"121.25768","lat":"31.355701","category":"47","category_name":"住宅区","address":"上海嘉定区嘉定新城洪德路333弄"},{"poiid":"B2094750DA6AA3FF409B","title":"嘉定出入境管理局","lon":"121.259078","lat":"31.342535","category":"617","category_name":"政府机构","address":"嘉定区永盛路1190号"},{"poiid":"B2094655D265A1F5489C","title":"永盛公寓","lon":"121.26462","lat":"31.33279","category":"47","category_name":"住宅区","address":"马陆镇"},{"poiid":"B2094757D064A7FF4698","title":"肯德基 KFC (马陆弘基店)","lon":"121.28358992","lat":"31.337003142","category":"500","category_name":"未知分类","address":"嘉定区沪宜公路2400号(封周路沪宜公路)"},{"poiid":"B2094757DA6EABFD409B","title":"远香舫","lon":"121.281","lat":"31.3395","category":"252","category_name":"楼宇机构","address":"嘉定区裕民南路裕民南路1777弄(近洪德路)"},{"poiid":"B2094654D469A7FC489F","title":"福星工业","lon":"121.26792","lat":"31.34196","category":"45","category_name":"产业园区","address":""},{"poiid":"B2094757D065AAFC449E","title":"轨道交通11号线(嘉定新城)","lon":"121.266037225","lat":"31.3364427305","category":"500","category_name":"未知分类","address":"上海嘉定区胜辛路(近双丁路、双单路)"},{"poiid":"B2094757D66EA0FB4493","title":"中信泰富又一城","lon":"121.264","lat":"31.3363","category":"47","category_name":"住宅区","address":"轨交11号线嘉定新城站(嘉定云屏路388弄)"},{"poiid":"B2094654D469A7FC4892","title":"福兴工业(上海)有限公司","lon":"121.26814","lat":"31.34424","category":"263","category_name":"公司","address":""},{"poiid":"B2094655D36CA4FD4098","title":"白银路阿克苏路","lon":"121.25992","lat":"31.35259","category":"38","category_name":"公交车站","address":""},{"poiid":"B2094654D469A0FF4992","title":"爱茉莉化妆品(上海)有限公司","lon":"121.27026","lat":"31.34129","category":"263","category_name":"公司","address":"裕民路383号"},{"poiid":"B2094757D165AAF5409D","title":"金珂花园酒店","lon":"121.279787054","lat":"31.341881793","category":"76","category_name":"上海菜","address":"嘉定区马陆镇沪宜公路2416-2418号(近弘基广场5号楼)"},{"poiid":"B2094757D568A6FA439D","title":"大卫国际大厦","lon":"121.26272","lat":"31.347561","category":"46","category_name":"楼宇","address":"嘉定区阿克苏路1187号"},{"poiid":"B2094654D469A7FD4193","title":"上海市工业区国家级高新技术区马陆园区","lon":"121.27435","lat":"31.34537","category":"45","category_name":"产业园区","address":""},{"poiid":"B2094757D168A2FD4598","title":"嘉宝紫提湾","lon":"121.284141955","lat":"31.3350993726","category":"500","category_name":"未知分类","address":"上海沪宜公路"},{"poiid":"B2094654D469A0FF499F","title":"乔山健康技术(上海)有限公司","lon":"121.26574","lat":"31.34032","category":"263","category_name":"公司","address":"希望路535号"},{"poiid":"B2094750D564A6FC469D","title":"风景里","lon":"121.26838042631","lat":"31.350996630104","category":"47","category_name":"住宅区","address":"嘉定新城宝塔路399弄永盛路口"},{"poiid":"B2094757D16CA4FA4492","title":"上海希望经济城发展有限公司","lon":"121.26693192","lat":"31.329515986","category":"46","category_name":"楼宇","address":"上海市嘉定区封周路655号"},{"poiid":"B2094757D66AA7FD4193","title":"金池塘私房菜","lon":"121.28116","lat":"31.33833","category":"76","category_name":"上海菜","address":"嘉定区沪宜公路2370弄马陆弘基诚建广场8号(近宝安公路)"},{"poiid":"B2094750D56AA0FE4798","title":"保利湖畔阳光苑","lon":"121.27604","lat":"31.334841","category":"47","category_name":"住宅区","address":"嘉定裕民南路333号(双单路与封周路路口处)"},{"poiid":"B2094757D165A3F54693","title":"沥苑小区","lon":"121.285250625","lat":"31.3398354009","category":"47","category_name":"住宅区","address":"上海马陆"},{"poiid":"B2094757D569A7F5469E","title":"天林商业广场","lon":"121.2785389","lat":"31.34321278","category":"46","category_name":"楼宇","address":"沪宜公路2500-2506号等"},{"poiid":"B2094757D165AAFA419D","title":"嘉定新城规划馆","lon":"121.25833692","lat":"31.339457193","category":"500","category_name":"未知分类","address":"上海市嘉定区伊宁路"},{"poiid":"B2094757DA6BA6F9429E","title":"世嘉双塔","lon":"121.263142","lat":"31.338317","category":"252","category_name":"楼宇机构","address":"新区科技城太湖大道与龙山路交汇处，西北方位"},{"poiid":"B2094655D26BA1FA4892","title":"马陆","lon":"121.28317","lat":"31.33275","category":"38","category_name":"公交车站","address":""},{"poiid":"B2094654D469A0F8409B","title":"上海希望城(希望路)","lon":"121.27436","lat":"31.34537","category":"248","category_name":"生活娱乐","address":""},{"poiid":"B2094752D26BA2FA4793","title":"嘉定新城雍记大酒店","lon":"121.258453","lat":"31.349838","category":"247","category_name":"餐饮美食","address":"嘉定新城德富路1288号"},{"poiid":"B2094757D06BA4F94799","title":"伟创力电子科技(上海)有限公司","lon":"121.264833","lat":"31.328963","category":"46","category_name":"楼宇","address":"上海市嘉定区马陆镇永盛路77号"},{"poiid":"B2094750D26EA0FC449E","title":"瑞金医院北院","lon":"121.262123","lat":"31.333534","category":"252","category_name":"楼宇机构","address":"双丁路888号"},{"poiid":"B2094757D165ABFC429E","title":"公交嘉定新城站","lon":"121.274462","lat":"31.339514","category":"500","category_name":"未知分类","address":"上海双丁路"},{"poiid":"B2094757DB69A2FA439B","title":"麦德龙(宝安公路店)","lon":"121.26497054498293","lat":"31.325341670266745","category":"118","category_name":"超级市场","address":"嘉定区宝安公路3718号"},{"poiid":"B2094654D469A5FC449E","title":"九洲公寓","lon":"121.27066","lat":"31.351662","category":"47","category_name":"住宅区","address":"沪宜公路2758号"},{"poiid":"B2094753DB69A4F4499B","title":"美亚影城","lon":"121.268226","lat":"31.325668","category":"178","category_name":"电影院","address":"上海市 宝安公路麦德龙4楼"},{"poiid":"B2094457D36BABF4499B","title":"上海保利大剧院","lon":"121.263635","lat":"31.354132","category":"180","category_name":"剧场","address":"上海市嘉定区白银路159号"},{"poiid":"B2094655D36DA0F4439F","title":"永盛路白银路","lon":"121.25342","lat":"31.34923","category":"38","category_name":"公交车站","address":""},{"poiid":"B2094654D469A6FB439F","title":"飞利浦灯具(上海)有限公司","lon":"121.27312","lat":"31.34911","category":"263","category_name":"公司","address":"沪宜公路2688"},{"poiid":"B2094654D469A6FD4392","title":"丰登门诊部","lon":"121.27652","lat":"31.35082","category":"162","category_name":"医院","address":"丰登路"},{"poiid":"B2094654D469A5F9439D","title":"彭封路南区","lon":"121.28104","lat":"31.344938","category":"47","category_name":"住宅区","address":"彭封公路161弄"},{"poiid":"B2094750DB6EA7F9489A","title":"上海市嘉定区人民法院","lon":"121.256591","lat":"31.351579","category":"608","category_name":"法院","address":"德富路1221号"},{"poiid":"B2094655D264A2FC419E","title":"永年桥","lon":"121.2592","lat":"31.33974","category":"250","category_name":"公园户外","address":""},{"poiid":"B2094757D064A2FB479E","title":"上海亚明灯泡厂有限公司","lon":"121.28126774","lat":"31.35180442","category":"46","category_name":"楼宇","address":"上海市嘉定区嘉新公路1001号"},{"poiid":"B2094757D06FA2F9489E","title":"嘉定新城地铁站","lon":"121.25468554","lat":"31.329586409","category":"36","category_name":"地铁站","address":"上海轨道交通 十一号线 轨交嘉定新城站 11"},{"poiid":"B2094751D269AAF8409A","title":"瑞金医院嘉定北院","lon":"121.259979","lat":"31.335048","category":"252","category_name":"楼宇机构","address":"瑞金北院位于嘉定区嘉定新城中心区（马陆镇）希望路999号。东至永盛路、南至双丁路、西至合作路、北至希望路。"},{"poiid":"B2094655D26BA1FA4898","title":"马陆镇","lon":"121.28238","lat":"31.33073","category":"38","category_name":"公交车站","address":""},{"poiid":"B2094655D36DA6FD469B","title":"嘉定新城","lon":"121.25464","lat":"31.32956","category":"47","category_name":"住宅区","address":""},{"poiid":"B2094757DB69A1FB439F","title":"雍记大酒店 嘉定店","lon":"121.2657311","lat":"31.3363438","category":"72","category_name":"广东菜","address":"嘉定区德富路1288号嘉定国资金融大厦2-3楼(近塔秀路)"},{"poiid":"B2094753D768A7FB499A","title":"嘉定新城图书馆","lon":"121.264015","lat":"31.350297","category":"500","category_name":"未知分类","address":"上海市 嘉定区裕民南路1288号"},{"poiid":"B2094757D064A7F44998","title":"沃尔玛超市(马陆店)","lon":"121.27826936301312","lat":"31.34308659784451","category":"118","category_name":"超级市场","address":"嘉定区沪宜公路2618号天林商业广场2-3楼"},{"poiid":"B2094757D16CA6F5459E","title":"保利湖畔阳光","lon":"121.265576925","lat":"31.3404722141","category":"500","category_name":"未知分类","address":"上海市嘉定区裕民南路333号"},{"poiid":"B2094655D36DA0F5469A","title":"育英街","lon":"121.27755","lat":"31.32914","category":"38","category_name":"公交车站","address":""},{"poiid":"B2094757D06BA0FF489E","title":"保利家园","lon":"121.25768","lat":"31.355701","category":"47","category_name":"住宅区","address":"上海嘉定区嘉定新城洪德路333弄"},{"poiid":"B2094750DA6AA3FF409B","title":"嘉定出入境管理局","lon":"121.259078","lat":"31.342535","category":"617","category_name":"政府机构","address":"嘉定区永盛路1190号"},{"poiid":"B2094655D265A1F5489C","title":"永盛公寓","lon":"121.26462","lat":"31.33279","category":"47","category_name":"住宅区","address":"马陆镇"},{"poiid":"B2094757D064A7FF4698","title":"肯德基 KFC (马陆弘基店)","lon":"121.28358992","lat":"31.337003142","category":"500","category_name":"未知分类","address":"嘉定区沪宜公路2400号(封周路沪宜公路)"},{"poiid":"B2094757DA6EABFD409B","title":"远香舫","lon":"121.281","lat":"31.3395","category":"252","category_name":"楼宇机构","address":"嘉定区裕民南路裕民南路1777弄(近洪德路)"},{"poiid":"B2094654D469A7FC489F","title":"福星工业","lon":"121.26792","lat":"31.34196","category":"45","category_name":"产业园区","address":""},{"poiid":"B2094757D065AAFC449E","title":"轨道交通11号线(嘉定新城)","lon":"121.266037225","lat":"31.3364427305","category":"500","category_name":"未知分类","address":"上海嘉定区胜辛路(近双丁路、双单路)"},{"poiid":"B2094757D66EA0FB4493","title":"中信泰富又一城","lon":"121.264","lat":"31.3363","category":"47","category_name":"住宅区","address":"轨交11号线嘉定新城站(嘉定云屏路388弄)"},{"poiid":"B2094654D469A7FC4892","title":"福兴工业(上海)有限公司","lon":"121.26814","lat":"31.34424","category":"263","category_name":"公司","address":""},{"poiid":"B2094655D36CA4FD4098","title":"白银路阿克苏路","lon":"121.25992","lat":"31.35259","category":"38","category_name":"公交车站","address":""},{"poiid":"B2094654D469A0FF4992","title":"爱茉莉化妆品(上海)有限公司","lon":"121.27026","lat":"31.34129","category":"263","category_name":"公司","address":"裕民路383号"},{"poiid":"B2094757D165AAF5409D","title":"金珂花园酒店","lon":"121.279787054","lat":"31.341881793","category":"76","category_name":"上海菜","address":"嘉定区马陆镇沪宜公路2416-2418号(近弘基广场5号楼)"},{"poiid":"B2094757D568A6FA439D","title":"大卫国际大厦","lon":"121.26272","lat":"31.347561","category":"46","category_name":"楼宇","address":"嘉定区阿克苏路1187号"},{"poiid":"B2094654D469A7FD4193","title":"上海市工业区国家级高新技术区马陆园区","lon":"121.27435","lat":"31.34537","category":"45","category_name":"产业园区","address":""},{"poiid":"B2094757D168A2FD4598","title":"嘉宝紫提湾","lon":"121.284141955","lat":"31.3350993726","category":"500","category_name":"未知分类","address":"上海沪宜公路"},{"poiid":"B2094654D469A0FF499F","title":"乔山健康技术(上海)有限公司","lon":"121.26574","lat":"31.34032","category":"263","category_name":"公司","address":"希望路535号"},{"poiid":"B2094750D564A6FC469D","title":"风景里","lon":"121.26838042631","lat":"31.350996630104","category":"47","category_name":"住宅区","address":"嘉定新城宝塔路399弄永盛路口"},{"poiid":"B2094757D16CA4FA4492","title":"上海希望经济城发展有限公司","lon":"121.26693192","lat":"31.329515986","category":"46","category_name":"楼宇","address":"上海市嘉定区封周路655号"},{"poiid":"B2094757D66AA7FD4193","title":"金池塘私房菜","lon":"121.28116","lat":"31.33833","category":"76","category_name":"上海菜","address":"嘉定区沪宜公路2370弄马陆弘基诚建广场8号(近宝安公路)"},{"poiid":"B2094750D56AA0FE4798","title":"保利湖畔阳光苑","lon":"121.27604","lat":"31.334841","category":"47","category_name":"住宅区","address":"嘉定裕民南路333号(双单路与封周路路口处)"},{"poiid":"B2094757D165A3F54693","title":"沥苑小区","lon":"121.285250625","lat":"31.3398354009","category":"47","category_name":"住宅区","address":"上海马陆"},{"poiid":"B2094757D569A7F5469E","title":"天林商业广场","lon":"121.2785389","lat":"31.34321278","category":"46","category_name":"楼宇","address":"沪宜公路2500-2506号等"},{"poiid":"B2094757D165AAFA419D","title":"嘉定新城规划馆","lon":"121.25833692","lat":"31.339457193","category":"500","category_name":"未知分类","address":"上海市嘉定区伊宁路"},{"poiid":"B2094757DA6BA6F9429E","title":"世嘉双塔","lon":"121.263142","lat":"31.338317","category":"252","category_name":"楼宇机构","address":"新区科技城太湖大道与龙山路交汇处，西北方位"},{"poiid":"B2094655D26BA1FA4892","title":"马陆","lon":"121.28317","lat":"31.33275","category":"38","category_name":"公交车站","address":""},{"poiid":"B2094654D469A0F8409B","title":"上海希望城(希望路)","lon":"121.27436","lat":"31.34537","category":"248","category_name":"生活娱乐","address":""},{"poiid":"B2094752D26BA2FA4793","title":"嘉定新城雍记大酒店","lon":"121.258453","lat":"31.349838","category":"247","category_name":"餐饮美食","address":"嘉定新城德富路1288号"},{"poiid":"B2094757D06BA4F94799","title":"伟创力电子科技(上海)有限公司","lon":"121.264833","lat":"31.328963","category":"46","category_name":"楼宇","address":"上海市嘉定区马陆镇永盛路77号"},{"poiid":"B2094750D26EA0FC449E","title":"瑞金医院北院","lon":"121.262123","lat":"31.333534","category":"252","category_name":"楼宇机构","address":"双丁路888号"},{"poiid":"B2094757D165ABFC429E","title":"公交嘉定新城站","lon":"121.274462","lat":"31.339514","category":"500","category_name":"未知分类","address":"上海双丁路"},{"poiid":"B2094757DB69A2FA439B","title":"麦德龙(宝安公路店)","lon":"121.26497054498293","lat":"31.325341670266745","category":"118","category_name":"超级市场","address":"嘉定区宝安公路3718号"},{"poiid":"B2094654D469A5FC449E","title":"九洲公寓","lon":"121.27066","lat":"31.351662","category":"47","category_name":"住宅区","address":"沪宜公路2758号"},{"poiid":"B2094753DB69A4F4499B","title":"美亚影城","lon":"121.268226","lat":"31.325668","category":"178","category_name":"电影院","address":"上海市 宝安公路麦德龙4楼"},{"poiid":"B2094457D36BABF4499B","title":"上海保利大剧院","lon":"121.263635","lat":"31.354132","category":"180","category_name":"剧场","address":"上海市嘉定区白银路159号"},{"poiid":"B2094655D36DA0F4439F","title":"永盛路白银路","lon":"121.25342","lat":"31.34923","category":"38","category_name":"公交车站","address":""},{"poiid":"B2094654D469A6FB439F","title":"飞利浦灯具(上海)有限公司","lon":"121.27312","lat":"31.34911","category":"263","category_name":"公司","address":"沪宜公路2688"},{"poiid":"B2094654D469A6FD4392","title":"丰登门诊部","lon":"121.27652","lat":"31.35082","category":"162","category_name":"医院","address":"丰登路"},{"poiid":"B2094654D469A5F9439D","title":"彭封路南区","lon":"121.28104","lat":"31.344938","category":"47","category_name":"住宅区","address":"彭封公路161弄"},{"poiid":"B2094750DB6EA7F9489A","title":"上海市嘉定区人民法院","lon":"121.256591","lat":"31.351579","category":"608","category_name":"法院","address":"德富路1221号"},{"poiid":"B2094655D264A2FC419E","title":"永年桥","lon":"121.2592","lat":"31.33974","category":"250","category_name":"公园户外","address":""},{"poiid":"B2094757D064A2FB479E","title":"上海亚明灯泡厂有限公司","lon":"121.28126774","lat":"31.35180442","category":"46","category_name":"楼宇","address":"上海市嘉定区嘉新公路1001号"}]