[{"poiid":"B2094757D06EAAF9409E","title":"常熟路地铁站","lon":"121.451084","lat":"31.213396","category":"36","category_name":"地铁站","address":"上海轨道交通 一号线 七号线 轨交常熟路站 1 7"},{"poiid":"B2094757D06EAAFD4692","title":"Whisk","lon":"121.45298","lat":"31.21402","category":"67","category_name":"甜品店","address":"徐汇区淮海中路1250号(地铁1号线常熟路地铁站2号出口对面)"},{"poiid":"B2094654DB65A4F4489E","title":"星巴克(爱美高大厦店)","lon":"121.449713","lat":"31.212659","category":"65","category_name":"咖啡厅","address":"徐汇区淮海中路1325号爱美高大厦1楼103室(近宝庆路)"},{"poiid":"B2094753D76FAAFA449C","title":"上海滩国泰旗舰店","lon":"121.466011","lat":"31.216125","category":"249","category_name":"购物服务","address":"淮海中路868号"},{"poiid":"B209475CD564A7F84292","title":"上海滩新天地店","lon":"121.47463","lat":"31.22164","category":"119","category_name":"商场","address":"\"太仓路181弄新天地北里15号\r\n\""},{"poiid":"B209475CD564A7F8439E","title":"上海滩中信泰富店","lon":"121.45602","lat":"31.22851","category":"119","category_name":"商场","address":"\"南京西路1168号中信泰富广场，店铺号221.\r\n\""},{"poiid":"B2094757D068A0FD469D","title":"Bella Napoli(长乐路店)","lon":"121.4457","lat":"31.21567","category":"94","category_name":"西餐厅","address":"徐汇区长乐路946弄4号(近乌鲁木齐中路)"},{"poiid":"B2094757D06FA2F8489B","title":"MT Club(淮海路店)","lon":"121.44947125","lat":"31.211846925","category":"260","category_name":"其他","address":"徐汇区淮海中路1329号云海大厦3楼(近常熟路)"},{"poiid":"B2094757D069A3FA429E","title":"Aura Restaurant","lon":"121.45183358","lat":"31.212174077","category":"500","category_name":"未知分类","address":"上海市 汾阳路 复兴中路"},{"poiid":"B2094757D06FA4F94799","title":"淮海中路常熟路","lon":"121.451735","lat":"31.21375","category":"38","category_name":"公交车站","address":"上海911, 920, 926, 911区间车, 320路 公交车站"},{"poiid":"B2094757D16AA4FD409B","title":"虹桥火车站(上海西站)地铁站","lon":"121.449664786","lat":"31.2127608894","category":"36","category_name":"地铁站","address":"上海轨道交通二、十号线虹桥火车站"},{"poiid":"B2094757D06FA2FB489F","title":"肯德基 KFC (常熟路站店)","lon":"121.450813","lat":"31.213614","category":"68","category_name":"快餐厅","address":"徐汇区淮海中路1298号(近常熟路地铁站)"},{"poiid":"B2094750DB6DA6FE479E","title":"Maya Club","lon":"121.44942","lat":"31.21178","category":"260","category_name":"其他","address":"徐汇区淮海中路1329号云海大厦3楼(宝庆路口)"},{"poiid":"B2094752D16FA3F8439C","title":"petit paris小巴黎咖啡厅","lon":"121.45103","lat":"31.21387","category":"247","category_name":"餐饮美食","address":"淮海中路1288号，华亭路93弄"},{"poiid":"B2094757D06FA2F4499F","title":"董大师金牌稻香蛙(延庆路店)","lon":"121.4514","lat":"31.21504","category":"71","category_name":"四川菜","address":"徐汇区延庆路92号(近华亭路)"},{"poiid":"B2094757D06FA4F84599","title":"上方花园","lon":"121.45129","lat":"31.212694","category":"47","category_name":"住宅区","address":"淮海中路1285弄1-77号"},{"poiid":"B2094757D16AABF9459E","title":"PAULANER","lon":"121.450187586","lat":"31.2119282731","category":"500","category_name":"未知分类","address":"上海汾阳路"},{"poiid":"B2094750D26EA7FE479D","title":"人民广场地铁站","lon":"121.452407","lat":"31.213254","category":"36","category_name":"地铁站","address":null},{"poiid":"B2094753D464AAF8489D","title":"上海交响乐团音乐厅","lon":"121.451896","lat":"31.21169","category":"500","category_name":"未知分类","address":"复兴中路1380号"},{"poiid":"B2094654DA6DAAFB4098","title":"湾仔中国餐馆宝庆路店","lon":"121.44974","lat":"31.21117","category":"71","category_name":"四川菜","address":"徐汇区宝庆路10号(近复兴中路)"},{"poiid":"B2094757D068A4F5449C","title":"淮海路宝庆路口","lon":"121.449333191","lat":"31.2118606567","category":"260","category_name":"其他","address":"上海淮海路1329号"},{"poiid":"B2094655D264A0FB419D","title":"淮海公寓","lon":"121.45298","lat":"31.214819","category":"47","category_name":"住宅区","address":"上海市卢湾区淮海中路1202号"},{"poiid":"B2094750DB69A4FD479C","title":"浦西一妇婴","lon":"121.449172","lat":"31.212591","category":"627","category_name":"一般地点标志","address":"长乐路536号"},{"poiid":"B2094654DA6DAAFB429A","title":"玛雅俱乐部","lon":"121.44926763864044","lat":"31.21184508914139","category":"248","category_name":"生活娱乐","address":"淮海中路1329号云海大厦4层"},{"poiid":"B2094757D06BA2F9409C","title":"正圆烩面","lon":"121.44937258","lat":"31.211990074","category":"68","category_name":"快餐厅","address":"徐汇区乌鲁木齐中路247号(近五原路)"},{"poiid":"B209475DD76AAAFA4298","title":"Captain Rooster","lon":"121.451354","lat":"31.214776","category":"247","category_name":"餐饮美食","address":"上海市 上海市常熟路75号，靠近巨鹿路"},{"poiid":"B2094757D069A7FC489F","title":"十号名邸","lon":"121.45163243","lat":"31.212480733","category":"47","category_name":"住宅区","address":"宝庆路10号2-4楼近复兴中路"},{"poiid":"B2094655D26AA0F94699","title":"地铁常熟路站","lon":"121.45107","lat":"31.2134","category":"36","category_name":"地铁站","address":""},{"poiid":"B2094750DA68A5FA459B","title":"时光花园咖啡","lon":"121.45081181083674","lat":"31.21339009806651","category":"65","category_name":"咖啡厅","address":"徐汇区淮海中路1285弄上方花园51号1楼(近华亭路)"},{"poiid":"B2094757D66DA4FF479F","title":"御香粥","lon":"121.450179586","lat":"31.2125590854","category":"68","category_name":"快餐厅","address":"徐汇区淮海中路1323号(近宝庆路)"},{"poiid":"B2094655D36CA5F9479D","title":"常熟路","lon":"121.45126","lat":"31.21355","category":"38","category_name":"公交车站","address":""},{"poiid":"B2094757D06FABF5409C","title":"Lapis Sky Garden","lon":"121.45001797","lat":"31.210844028","category":"94","category_name":"西餐厅","address":"徐汇区宝庆路10号7楼(复兴中路口)"},{"poiid":"B2094757D06AA5FC419F","title":"happy face coffe","lon":"121.45177058","lat":"31.214046114","category":"500","category_name":"未知分类","address":"上海市淮海中路1288号"},{"poiid":"B2094757D06EAAF5499F","title":"延庆路董大师","lon":"121.451077","lat":"31.215218","category":"52","category_name":"高等院校","address":"上海延庆路92号"},{"poiid":"B2094751D264A5FD489E","title":"陕西南路1号线地铁站","lon":"121.4521672","lat":"31.2152085","category":"36","category_name":"地铁站","address":null},{"poiid":"B2094757D168A2FF499C","title":"衡山路酒吧一条街","lon":"121.450377486","lat":"31.2132739994","category":"260","category_name":"其他","address":"上海衡山路"},{"poiid":"B2094757D06BA1FD429B","title":"南十字星","lon":"121.451812245","lat":"31.2138919748","category":"260","category_name":"其他","address":"徐汇区淮海中路1276号(近华亭路)"},{"poiid":"B2094757D16AAAFC4499","title":"千鹤寿司","lon":"121.450005","lat":"31.212797","category":"95","category_name":"日本料理","address":"卢湾区淮海中路1323号"},{"poiid":"B2094750D665A4FB479F","title":"皓廊","lon":"121.451","lat":"31.2142","category":"260","category_name":"其他","address":"徐汇区华亭路71弄4号(近淮海中路)"},{"poiid":"B2094750D36BABFA4692","title":"致尚生活的爱","lon":"121.45278908724","lat":"31.211112767704","category":"247","category_name":"餐饮美食","address":"徐汇区复兴中路1335号(近音乐学院)"},{"poiid":"B2094757D06FA6F4429B","title":"7-ELEVEN(常熟路店)","lon":"121.449559","lat":"31.21338","category":"117","category_name":"便民商店/便利店","address":"静安区常熟路83号时尚前瞻大楼1楼(近巨鹿路)"},{"poiid":"B2094757D66DA3FE449C","title":"地鐵1號綫","lon":"121.451383","lat":"31.213704","category":"500","category_name":"未知分类","address":"上海邊走邊換！"},{"poiid":"B2094655D36CA5F54998","title":"宝庆路淮海中路","lon":"121.44977","lat":"31.21177","category":"38","category_name":"公交车站","address":""},{"poiid":"B2094757D06AA3FB4199","title":"中国银行(淮海支行)","lon":"121.4530235","lat":"31.2143001","category":"150","category_name":"银行","address":"徐汇区淮海中路1216号(近常熟路)"},{"poiid":"B2094757D16AABF9419E","title":"Happy Face","lon":"121.45109958","lat":"31.213467103","category":"500","category_name":"未知分类","address":"上海市淮海中路1288号"},{"poiid":"B2094757D06EAAFE469F","title":"微听Waiting Cafe(复兴中路近汾阳路)","lon":"121.453418","lat":"31.211411","category":"65","category_name":"咖啡厅","address":"上海复兴中路1323号，近汾阳路"},{"poiid":"B2094655D268A5F9409A","title":"克莱门公寓","lon":"121.4518","lat":"31.21051","category":"47","category_name":"住宅区","address":"复兴中路1363弄1-38号"},{"poiid":"B2094757D065A1F9499D","title":"华亭路延庆路","lon":"121.451167","lat":"31.215257","category":"260","category_name":"其他","address":"上海华亭路延庆路"},{"poiid":"B2094752D56AA7FB469A","title":"Perrys淮海中路店","lon":"121.449625","lat":"31.211541","category":"247","category_name":"餐饮美食","address":"淮海中路1333号3楼"},{"poiid":"B209475CD06CA6F4479E","title":"恒春元食堂","lon":"121.45144","lat":"31.21363","category":"68","category_name":"快餐厅","address":"淮海中路1280号1楼(近华亭路)"},{"poiid":"B2094757D06EAAF9409E","title":"常熟路地铁站","lon":"121.451084","lat":"31.213396","category":"36","category_name":"地铁站","address":"上海轨道交通 一号线 七号线 轨交常熟路站 1 7"},{"poiid":"B2094757D06EAAFD4692","title":"Whisk","lon":"121.45298","lat":"31.21402","category":"67","category_name":"甜品店","address":"徐汇区淮海中路1250号(地铁1号线常熟路地铁站2号出口对面)"},{"poiid":"B2094654DB65A4F4489E","title":"星巴克(爱美高大厦店)","lon":"121.449713","lat":"31.212659","category":"65","category_name":"咖啡厅","address":"徐汇区淮海中路1325号爱美高大厦1楼103室(近宝庆路)"},{"poiid":"B2094753D76FAAFA449C","title":"上海滩国泰旗舰店","lon":"121.466011","lat":"31.216125","category":"249","category_name":"购物服务","address":"淮海中路868号"},{"poiid":"B209475CD564A7F84292","title":"上海滩新天地店","lon":"121.47463","lat":"31.22164","category":"119","category_name":"商场","address":"\"太仓路181弄新天地北里15号\r\n\""},{"poiid":"B209475CD564A7F8439E","title":"上海滩中信泰富店","lon":"121.45602","lat":"31.22851","category":"119","category_name":"商场","address":"\"南京西路1168号中信泰富广场，店铺号221.\r\n\""},{"poiid":"B2094757D068A0FD469D","title":"Bella Napoli(长乐路店)","lon":"121.4457","lat":"31.21567","category":"94","category_name":"西餐厅","address":"徐汇区长乐路946弄4号(近乌鲁木齐中路)"},{"poiid":"B2094757D06FA2F8489B","title":"MT Club(淮海路店)","lon":"121.44947125","lat":"31.211846925","category":"260","category_name":"其他","address":"徐汇区淮海中路1329号云海大厦3楼(近常熟路)"},{"poiid":"B2094757D069A3FA429E","title":"Aura Restaurant","lon":"121.45183358","lat":"31.212174077","category":"500","category_name":"未知分类","address":"上海市 汾阳路 复兴中路"},{"poiid":"B2094757D06FA4F94799","title":"淮海中路常熟路","lon":"121.451735","lat":"31.21375","category":"38","category_name":"公交车站","address":"上海911, 920, 926, 911区间车, 320路 公交车站"},{"poiid":"B2094757D16AA4FD409B","title":"虹桥火车站(上海西站)地铁站","lon":"121.449664786","lat":"31.2127608894","category":"36","category_name":"地铁站","address":"上海轨道交通二、十号线虹桥火车站"},{"poiid":"B2094757D06FA2FB489F","title":"肯德基 KFC (常熟路站店)","lon":"121.450813","lat":"31.213614","category":"68","category_name":"快餐厅","address":"徐汇区淮海中路1298号(近常熟路地铁站)"},{"poiid":"B2094750DB6DA6FE479E","title":"Maya Club","lon":"121.44942","lat":"31.21178","category":"260","category_name":"其他","address":"徐汇区淮海中路1329号云海大厦3楼(宝庆路口)"},{"poiid":"B2094752D16FA3F8439C","title":"petit paris小巴黎咖啡厅","lon":"121.45103","lat":"31.21387","category":"247","category_name":"餐饮美食","address":"淮海中路1288号，华亭路93弄"},{"poiid":"B2094757D06FA2F4499F","title":"董大师金牌稻香蛙(延庆路店)","lon":"121.4514","lat":"31.21504","category":"71","category_name":"四川菜","address":"徐汇区延庆路92号(近华亭路)"},{"poiid":"B2094757D06FA4F84599","title":"上方花园","lon":"121.45129","lat":"31.212694","category":"47","category_name":"住宅区","address":"淮海中路1285弄1-77号"},{"poiid":"B2094757D16AABF9459E","title":"PAULANER","lon":"121.450187586","lat":"31.2119282731","category":"500","category_name":"未知分类","address":"上海汾阳路"},{"poiid":"B2094750D26EA7FE479D","title":"人民广场地铁站","lon":"121.452407","lat":"31.213254","category":"36","category_name":"地铁站","address":null},{"poiid":"B2094753D464AAF8489D","title":"上海交响乐团音乐厅","lon":"121.451896","lat":"31.21169","category":"500","category_name":"未知分类","address":"复兴中路1380号"},{"poiid":"B2094654DA6DAAFB4098","title":"湾仔中国餐馆宝庆路店","lon":"121.44974","lat":"31.21117","category":"71","category_name":"四川菜","address":"徐汇区宝庆路10号(近复兴中路)"},{"poiid":"B2094757D068A4F5449C","title":"淮海路宝庆路口","lon":"121.449333191","lat":"31.2118606567","category":"260","category_name":"其他","address":"上海淮海路1329号"},{"poiid":"B2094655D264A0FB419D","title":"淮海公寓","lon":"121.45298","lat":"31.214819","category":"47","category_name":"住宅区","address":"上海市卢湾区淮海中路1202号"},{"poiid":"B2094750DB69A4FD479C","title":"浦西一妇婴","lon":"121.449172","lat":"31.212591","category":"627","category_name":"一般地点标志","address":"长乐路536号"},{"poiid":"B2094654DA6DAAFB429A","title":"玛雅俱乐部","lon":"121.44926763864044","lat":"31.21184508914139","category":"248","category_name":"生活娱乐","address":"淮海中路1329号云海大厦4层"},{"poiid":"B2094757D06BA2F9409C","title":"正圆烩面","lon":"121.44937258","lat":"31.211990074","category":"68","category_name":"快餐厅","address":"徐汇区乌鲁木齐中路247号(近五原路)"},{"poiid":"B209475DD76AAAFA4298","title":"Captain Rooster","lon":"121.451354","lat":"31.214776","category":"247","category_name":"餐饮美食","address":"上海市 上海市常熟路75号，靠近巨鹿路"},{"poiid":"B2094757D069A7FC489F","title":"十号名邸","lon":"121.45163243","lat":"31.212480733","category":"47","category_name":"住宅区","address":"宝庆路10号2-4楼近复兴中路"},{"poiid":"B2094655D26AA0F94699","title":"地铁常熟路站","lon":"121.45107","lat":"31.2134","category":"36","category_name":"地铁站","address":""},{"poiid":"B2094750DA68A5FA459B","title":"时光花园咖啡","lon":"121.45081181083674","lat":"31.21339009806651","category":"65","category_name":"咖啡厅","address":"徐汇区淮海中路1285弄上方花园51号1楼(近华亭路)"},{"poiid":"B2094757D66DA4FF479F","title":"御香粥","lon":"121.450179586","lat":"31.2125590854","category":"68","category_name":"快餐厅","address":"徐汇区淮海中路1323号(近宝庆路)"},{"poiid":"B2094655D36CA5F9479D","title":"常熟路","lon":"121.45126","lat":"31.21355","category":"38","category_name":"公交车站","address":""},{"poiid":"B2094757D06FABF5409C","title":"Lapis Sky Garden","lon":"121.45001797","lat":"31.210844028","category":"94","category_name":"西餐厅","address":"徐汇区宝庆路10号7楼(复兴中路口)"},{"poiid":"B2094757D06AA5FC419F","title":"happy face coffe","lon":"121.45177058","lat":"31.214046114","category":"500","category_name":"未知分类","address":"上海市淮海中路1288号"},{"poiid":"B2094757D06EAAF5499F","title":"延庆路董大师","lon":"121.451077","lat":"31.215218","category":"52","category_name":"高等院校","address":"上海延庆路92号"},{"poiid":"B2094751D264A5FD489E","title":"陕西南路1号线地铁站","lon":"121.4521672","lat":"31.2152085","category":"36","category_name":"地铁站","address":null},{"poiid":"B2094757D168A2FF499C","title":"衡山路酒吧一条街","lon":"121.450377486","lat":"31.2132739994","category":"260","category_name":"其他","address":"上海衡山路"},{"poiid":"B2094757D06BA1FD429B","title":"南十字星","lon":"121.451812245","lat":"31.2138919748","category":"260","category_name":"其他","address":"徐汇区淮海中路1276号(近华亭路)"},{"poiid":"B2094757D16AAAFC4499","title":"千鹤寿司","lon":"121.450005","lat":"31.212797","category":"95","category_name":"日本料理","address":"卢湾区淮海中路1323号"},{"poiid":"B2094750D665A4FB479F","title":"皓廊","lon":"121.451","lat":"31.2142","category":"260","category_name":"其他","address":"徐汇区华亭路71弄4号(近淮海中路)"},{"poiid":"B2094750D36BABFA4692","title":"致尚生活的爱","lon":"121.45278908724","lat":"31.211112767704","category":"247","category_name":"餐饮美食","address":"徐汇区复兴中路1335号(近音乐学院)"},{"poiid":"B2094757D06FA6F4429B","title":"7-ELEVEN(常熟路店)","lon":"121.449559","lat":"31.21338","category":"117","category_name":"便民商店/便利店","address":"静安区常熟路83号时尚前瞻大楼1楼(近巨鹿路)"},{"poiid":"B2094757D66DA3FE449C","title":"地鐵1號綫","lon":"121.451383","lat":"31.213704","category":"500","category_name":"未知分类","address":"上海邊走邊換！"},{"poiid":"B2094655D36CA5F54998","title":"宝庆路淮海中路","lon":"121.44977","lat":"31.21177","category":"38","category_name":"公交车站","address":""},{"poiid":"B2094757D06AA3FB4199","title":"中国银行(淮海支行)","lon":"121.4530235","lat":"31.2143001","category":"150","category_name":"银行","address":"徐汇区淮海中路1216号(近常熟路)"},{"poiid":"B2094757D16AABF9419E","title":"Happy Face","lon":"121.45109958","lat":"31.213467103","category":"500","category_name":"未知分类","address":"上海市淮海中路1288号"},{"poiid":"B2094757D06EAAFE469F","title":"微听Waiting Cafe(复兴中路近汾阳路)","lon":"121.453418","lat":"31.211411","category":"65","category_name":"咖啡厅","address":"上海复兴中路1323号，近汾阳路"},{"poiid":"B2094655D268A5F9409A","title":"克莱门公寓","lon":"121.4518","lat":"31.21051","category":"47","category_name":"住宅区","address":"复兴中路1363弄1-38号"},{"poiid":"B2094757D065A1F9499D","title":"华亭路延庆路","lon":"121.451167","lat":"31.215257","category":"260","category_name":"其他","address":"上海华亭路延庆路"},{"poiid":"B2094752D56AA7FB469A","title":"Perrys淮海中路店","lon":"121.449625","lat":"31.211541","category":"247","category_name":"餐饮美食","address":"淮海中路1333号3楼"},{"poiid":"B209475CD06CA6F4479E","title":"恒春元食堂","lon":"121.45144","lat":"31.21363","category":"68","category_name":"快餐厅","address":"淮海中路1280号1楼(近华亭路)"},{"poiid":"B2094757D06EAAF9409E","title":"常熟路地铁站","lon":"121.451084","lat":"31.213396","category":"36","category_name":"地铁站","address":"上海轨道交通 一号线 七号线 轨交常熟路站 1 7"},{"poiid":"B2094757D06EAAFD4692","title":"Whisk","lon":"121.45298","lat":"31.21402","category":"67","category_name":"甜品店","address":"徐汇区淮海中路1250号(地铁1号线常熟路地铁站2号出口对面)"},{"poiid":"B2094654DB65A4F4489E","title":"星巴克(爱美高大厦店)","lon":"121.449713","lat":"31.212659","category":"65","category_name":"咖啡厅","address":"徐汇区淮海中路1325号爱美高大厦1楼103室(近宝庆路)"},{"poiid":"B2094753D76FAAFA449C","title":"上海滩国泰旗舰店","lon":"121.466011","lat":"31.216125","category":"249","category_name":"购物服务","address":"淮海中路868号"},{"poiid":"B209475CD564A7F84292","title":"上海滩新天地店","lon":"121.47463","lat":"31.22164","category":"119","category_name":"商场","address":"\"太仓路181弄新天地北里15号\r\n\""},{"poiid":"B209475CD564A7F8439E","title":"上海滩中信泰富店","lon":"121.45602","lat":"31.22851","category":"119","category_name":"商场","address":"\"南京西路1168号中信泰富广场，店铺号221.\r\n\""},{"poiid":"B2094757D068A0FD469D","title":"Bella Napoli(长乐路店)","lon":"121.4457","lat":"31.21567","category":"94","category_name":"西餐厅","address":"徐汇区长乐路946弄4号(近乌鲁木齐中路)"},{"poiid":"B2094757D06FA2F8489B","title":"MT Club(淮海路店)","lon":"121.44947125","lat":"31.211846925","category":"260","category_name":"其他","address":"徐汇区淮海中路1329号云海大厦3楼(近常熟路)"},{"poiid":"B2094757D069A3FA429E","title":"Aura Restaurant","lon":"121.45183358","lat":"31.212174077","category":"500","category_name":"未知分类","address":"上海市 汾阳路 复兴中路"},{"poiid":"B2094757D06FA4F94799","title":"淮海中路常熟路","lon":"121.451735","lat":"31.21375","category":"38","category_name":"公交车站","address":"上海911, 920, 926, 911区间车, 320路 公交车站"},{"poiid":"B2094757D16AA4FD409B","title":"虹桥火车站(上海西站)地铁站","lon":"121.449664786","lat":"31.2127608894","category":"36","category_name":"地铁站","address":"上海轨道交通二、十号线虹桥火车站"},{"poiid":"B2094757D06FA2FB489F","title":"肯德基 KFC (常熟路站店)","lon":"121.450813","lat":"31.213614","category":"68","category_name":"快餐厅","address":"徐汇区淮海中路1298号(近常熟路地铁站)"},{"poiid":"B2094750DB6DA6FE479E","title":"Maya Club","lon":"121.44942","lat":"31.21178","category":"260","category_name":"其他","address":"徐汇区淮海中路1329号云海大厦3楼(宝庆路口)"},{"poiid":"B2094752D16FA3F8439C","title":"petit paris小巴黎咖啡厅","lon":"121.45103","lat":"31.21387","category":"247","category_name":"餐饮美食","address":"淮海中路1288号，华亭路93弄"},{"poiid":"B2094757D06FA2F4499F","title":"董大师金牌稻香蛙(延庆路店)","lon":"121.4514","lat":"31.21504","category":"71","category_name":"四川菜","address":"徐汇区延庆路92号(近华亭路)"},{"poiid":"B2094757D06FA4F84599","title":"上方花园","lon":"121.45129","lat":"31.212694","category":"47","category_name":"住宅区","address":"淮海中路1285弄1-77号"},{"poiid":"B2094757D16AABF9459E","title":"PAULANER","lon":"121.450187586","lat":"31.2119282731","category":"500","category_name":"未知分类","address":"上海汾阳路"},{"poiid":"B2094750D26EA7FE479D","title":"人民广场地铁站","lon":"121.452407","lat":"31.213254","category":"36","category_name":"地铁站","address":null},{"poiid":"B2094753D464AAF8489D","title":"上海交响乐团音乐厅","lon":"121.451896","lat":"31.21169","category":"500","category_name":"未知分类","address":"复兴中路1380号"},{"poiid":"B2094654DA6DAAFB4098","title":"湾仔中国餐馆宝庆路店","lon":"121.44974","lat":"31.21117","category":"71","category_name":"四川菜","address":"徐汇区宝庆路10号(近复兴中路)"},{"poiid":"B2094757D068A4F5449C","title":"淮海路宝庆路口","lon":"121.449333191","lat":"31.2118606567","category":"260","category_name":"其他","address":"上海淮海路1329号"},{"poiid":"B2094655D264A0FB419D","title":"淮海公寓","lon":"121.45298","lat":"31.214819","category":"47","category_name":"住宅区","address":"上海市卢湾区淮海中路1202号"},{"poiid":"B2094750DB69A4FD479C","title":"浦西一妇婴","lon":"121.449172","lat":"31.212591","category":"627","category_name":"一般地点标志","address":"长乐路536号"},{"poiid":"B2094654DA6DAAFB429A","title":"玛雅俱乐部","lon":"121.44926763864044","lat":"31.21184508914139","category":"248","category_name":"生活娱乐","address":"淮海中路1329号云海大厦4层"},{"poiid":"B2094757D06BA2F9409C","title":"正圆烩面","lon":"121.44937258","lat":"31.211990074","category":"68","category_name":"快餐厅","address":"徐汇区乌鲁木齐中路247号(近五原路)"},{"poiid":"B209475DD76AAAFA4298","title":"Captain Rooster","lon":"121.451354","lat":"31.214776","category":"247","category_name":"餐饮美食","address":"上海市 上海市常熟路75号，靠近巨鹿路"},{"poiid":"B2094757D069A7FC489F","title":"十号名邸","lon":"121.45163243","lat":"31.212480733","category":"47","category_name":"住宅区","address":"宝庆路10号2-4楼近复兴中路"},{"poiid":"B2094655D26AA0F94699","title":"地铁常熟路站","lon":"121.45107","lat":"31.2134","category":"36","category_name":"地铁站","address":""},{"poiid":"B2094750DA68A5FA459B","title":"时光花园咖啡","lon":"121.45081181083674","lat":"31.21339009806651","category":"65","category_name":"咖啡厅","address":"徐汇区淮海中路1285弄上方花园51号1楼(近华亭路)"},{"poiid":"B2094757D66DA4FF479F","title":"御香粥","lon":"121.450179586","lat":"31.2125590854","category":"68","category_name":"快餐厅","address":"徐汇区淮海中路1323号(近宝庆路)"},{"poiid":"B2094655D36CA5F9479D","title":"常熟路","lon":"121.45126","lat":"31.21355","category":"38","category_name":"公交车站","address":""},{"poiid":"B2094757D06FABF5409C","title":"Lapis Sky Garden","lon":"121.45001797","lat":"31.210844028","category":"94","category_name":"西餐厅","address":"徐汇区宝庆路10号7楼(复兴中路口)"},{"poiid":"B2094757D06AA5FC419F","title":"happy face coffe","lon":"121.45177058","lat":"31.214046114","category":"500","category_name":"未知分类","address":"上海市淮海中路1288号"},{"poiid":"B2094757D06EAAF5499F","title":"延庆路董大师","lon":"121.451077","lat":"31.215218","category":"52","category_name":"高等院校","address":"上海延庆路92号"},{"poiid":"B2094751D264A5FD489E","title":"陕西南路1号线地铁站","lon":"121.4521672","lat":"31.2152085","category":"36","category_name":"地铁站","address":null},{"poiid":"B2094757D168A2FF499C","title":"衡山路酒吧一条街","lon":"121.450377486","lat":"31.2132739994","category":"260","category_name":"其他","address":"上海衡山路"},{"poiid":"B2094757D06BA1FD429B","title":"南十字星","lon":"121.451812245","lat":"31.2138919748","category":"260","category_name":"其他","address":"徐汇区淮海中路1276号(近华亭路)"},{"poiid":"B2094757D16AAAFC4499","title":"千鹤寿司","lon":"121.450005","lat":"31.212797","category":"95","category_name":"日本料理","address":"卢湾区淮海中路1323号"},{"poiid":"B2094750D665A4FB479F","title":"皓廊","lon":"121.451","lat":"31.2142","category":"260","category_name":"其他","address":"徐汇区华亭路71弄4号(近淮海中路)"},{"poiid":"B2094750D36BABFA4692","title":"致尚生活的爱","lon":"121.45278908724","lat":"31.211112767704","category":"247","category_name":"餐饮美食","address":"徐汇区复兴中路1335号(近音乐学院)"},{"poiid":"B2094757D06FA6F4429B","title":"7-ELEVEN(常熟路店)","lon":"121.449559","lat":"31.21338","category":"117","category_name":"便民商店/便利店","address":"静安区常熟路83号时尚前瞻大楼1楼(近巨鹿路)"},{"poiid":"B2094757D66DA3FE449C","title":"地鐵1號綫","lon":"121.451383","lat":"31.213704","category":"500","category_name":"未知分类","address":"上海邊走邊換！"},{"poiid":"B2094655D36CA5F54998","title":"宝庆路淮海中路","lon":"121.44977","lat":"31.21177","category":"38","category_name":"公交车站","address":""},{"poiid":"B2094757D06AA3FB4199","title":"中国银行(淮海支行)","lon":"121.4530235","lat":"31.2143001","category":"150","category_name":"银行","address":"徐汇区淮海中路1216号(近常熟路)"},{"poiid":"B2094757D16AABF9419E","title":"Happy Face","lon":"121.45109958","lat":"31.213467103","category":"500","category_name":"未知分类","address":"上海市淮海中路1288号"},{"poiid":"B2094757D06EAAFE469F","title":"微听Waiting Cafe(复兴中路近汾阳路)","lon":"121.453418","lat":"31.211411","category":"65","category_name":"咖啡厅","address":"上海复兴中路1323号，近汾阳路"},{"poiid":"B2094655D268A5F9409A","title":"克莱门公寓","lon":"121.4518","lat":"31.21051","category":"47","category_name":"住宅区","address":"复兴中路1363弄1-38号"},{"poiid":"B2094757D065A1F9499D","title":"华亭路延庆路","lon":"121.451167","lat":"31.215257","category":"260","category_name":"其他","address":"上海华亭路延庆路"},{"poiid":"B2094752D56AA7FB469A","title":"Perrys淮海中路店","lon":"121.449625","lat":"31.211541","category":"247","category_name":"餐饮美食","address":"淮海中路1333号3楼"},{"poiid":"B209475CD06CA6F4479E","title":"恒春元食堂","lon":"121.45144","lat":"31.21363","category":"68","category_name":"快餐厅","address":"淮海中路1280号1楼(近华亭路)"},{"poiid":"B2094757D06EAAF9409E","title":"常熟路地铁站","lon":"121.451084","lat":"31.213396","category":"36","category_name":"地铁站","address":"上海轨道交通 一号线 七号线 轨交常熟路站 1 7"},{"poiid":"B2094757D06EAAFD4692","title":"Whisk","lon":"121.45298","lat":"31.21402","category":"67","category_name":"甜品店","address":"徐汇区淮海中路1250号(地铁1号线常熟路地铁站2号出口对面)"},{"poiid":"B2094654DB65A4F4489E","title":"星巴克(爱美高大厦店)","lon":"121.449713","lat":"31.212659","category":"65","category_name":"咖啡厅","address":"徐汇区淮海中路1325号爱美高大厦1楼103室(近宝庆路)"},{"poiid":"B2094753D76FAAFA449C","title":"上海滩国泰旗舰店","lon":"121.466011","lat":"31.216125","category":"249","category_name":"购物服务","address":"淮海中路868号"},{"poiid":"B209475CD564A7F84292","title":"上海滩新天地店","lon":"121.47463","lat":"31.22164","category":"119","category_name":"商场","address":"\"太仓路181弄新天地北里15号\r\n\""},{"poiid":"B209475CD564A7F8439E","title":"上海滩中信泰富店","lon":"121.45602","lat":"31.22851","category":"119","category_name":"商场","address":"\"南京西路1168号中信泰富广场，店铺号221.\r\n\""},{"poiid":"B2094757D068A0FD469D","title":"Bella Napoli(长乐路店)","lon":"121.4457","lat":"31.21567","category":"94","category_name":"西餐厅","address":"徐汇区长乐路946弄4号(近乌鲁木齐中路)"},{"poiid":"B2094757D06FA2F8489B","title":"MT Club(淮海路店)","lon":"121.44947125","lat":"31.211846925","category":"260","category_name":"其他","address":"徐汇区淮海中路1329号云海大厦3楼(近常熟路)"},{"poiid":"B2094757D069A3FA429E","title":"Aura Restaurant","lon":"121.45183358","lat":"31.212174077","category":"500","category_name":"未知分类","address":"上海市 汾阳路 复兴中路"},{"poiid":"B2094757D06FA4F94799","title":"淮海中路常熟路","lon":"121.451735","lat":"31.21375","category":"38","category_name":"公交车站","address":"上海911, 920, 926, 911区间车, 320路 公交车站"},{"poiid":"B2094757D16AA4FD409B","title":"虹桥火车站(上海西站)地铁站","lon":"121.449664786","lat":"31.2127608894","category":"36","category_name":"地铁站","address":"上海轨道交通二、十号线虹桥火车站"},{"poiid":"B2094757D06FA2FB489F","title":"肯德基 KFC (常熟路站店)","lon":"121.450813","lat":"31.213614","category":"68","category_name":"快餐厅","address":"徐汇区淮海中路1298号(近常熟路地铁站)"},{"poiid":"B2094750DB6DA6FE479E","title":"Maya Club","lon":"121.44942","lat":"31.21178","category":"260","category_name":"其他","address":"徐汇区淮海中路1329号云海大厦3楼(宝庆路口)"},{"poiid":"B2094752D16FA3F8439C","title":"petit paris小巴黎咖啡厅","lon":"121.45103","lat":"31.21387","category":"247","category_name":"餐饮美食","address":"淮海中路1288号，华亭路93弄"},{"poiid":"B2094757D06FA2F4499F","title":"董大师金牌稻香蛙(延庆路店)","lon":"121.4514","lat":"31.21504","category":"71","category_name":"四川菜","address":"徐汇区延庆路92号(近华亭路)"},{"poiid":"B2094757D06FA4F84599","title":"上方花园","lon":"121.45129","lat":"31.212694","category":"47","category_name":"住宅区","address":"淮海中路1285弄1-77号"},{"poiid":"B2094757D16AABF9459E","title":"PAULANER","lon":"121.450187586","lat":"31.2119282731","category":"500","category_name":"未知分类","address":"上海汾阳路"},{"poiid":"B2094750D26EA7FE479D","title":"人民广场地铁站","lon":"121.452407","lat":"31.213254","category":"36","category_name":"地铁站","address":null},{"poiid":"B2094753D464AAF8489D","title":"上海交响乐团音乐厅","lon":"121.451896","lat":"31.21169","category":"500","category_name":"未知分类","address":"复兴中路1380号"},{"poiid":"B2094654DA6DAAFB4098","title":"湾仔中国餐馆宝庆路店","lon":"121.44974","lat":"31.21117","category":"71","category_name":"四川菜","address":"徐汇区宝庆路10号(近复兴中路)"},{"poiid":"B2094757D068A4F5449C","title":"淮海路宝庆路口","lon":"121.449333191","lat":"31.2118606567","category":"260","category_name":"其他","address":"上海淮海路1329号"},{"poiid":"B2094655D264A0FB419D","title":"淮海公寓","lon":"121.45298","lat":"31.214819","category":"47","category_name":"住宅区","address":"上海市卢湾区淮海中路1202号"},{"poiid":"B2094750DB69A4FD479C","title":"浦西一妇婴","lon":"121.449172","lat":"31.212591","category":"627","category_name":"一般地点标志","address":"长乐路536号"},{"poiid":"B2094654DA6DAAFB429A","title":"玛雅俱乐部","lon":"121.44926763864044","lat":"31.21184508914139","category":"248","category_name":"生活娱乐","address":"淮海中路1329号云海大厦4层"},{"poiid":"B2094757D06BA2F9409C","title":"正圆烩面","lon":"121.44937258","lat":"31.211990074","category":"68","category_name":"快餐厅","address":"徐汇区乌鲁木齐中路247号(近五原路)"},{"poiid":"B209475DD76AAAFA4298","title":"Captain Rooster","lon":"121.451354","lat":"31.214776","category":"247","category_name":"餐饮美食","address":"上海市 上海市常熟路75号，靠近巨鹿路"},{"poiid":"B2094757D069A7FC489F","title":"十号名邸","lon":"121.45163243","lat":"31.212480733","category":"47","category_name":"住宅区","address":"宝庆路10号2-4楼近复兴中路"},{"poiid":"B2094655D26AA0F94699","title":"地铁常熟路站","lon":"121.45107","lat":"31.2134","category":"36","category_name":"地铁站","address":""},{"poiid":"B2094750DA68A5FA459B","title":"时光花园咖啡","lon":"121.45081181083674","lat":"31.21339009806651","category":"65","category_name":"咖啡厅","address":"徐汇区淮海中路1285弄上方花园51号1楼(近华亭路)"},{"poiid":"B2094757D66DA4FF479F","title":"御香粥","lon":"121.450179586","lat":"31.2125590854","category":"68","category_name":"快餐厅","address":"徐汇区淮海中路1323号(近宝庆路)"},{"poiid":"B2094655D36CA5F9479D","title":"常熟路","lon":"121.45126","lat":"31.21355","category":"38","category_name":"公交车站","address":""},{"poiid":"B2094757D06FABF5409C","title":"Lapis Sky Garden","lon":"121.45001797","lat":"31.210844028","category":"94","category_name":"西餐厅","address":"徐汇区宝庆路10号7楼(复兴中路口)"},{"poiid":"B2094757D06AA5FC419F","title":"happy face coffe","lon":"121.45177058","lat":"31.214046114","category":"500","category_name":"未知分类","address":"上海市淮海中路1288号"},{"poiid":"B2094757D06EAAF5499F","title":"延庆路董大师","lon":"121.451077","lat":"31.215218","category":"52","category_name":"高等院校","address":"上海延庆路92号"},{"poiid":"B2094751D264A5FD489E","title":"陕西南路1号线地铁站","lon":"121.4521672","lat":"31.2152085","category":"36","category_name":"地铁站","address":null},{"poiid":"B2094757D168A2FF499C","title":"衡山路酒吧一条街","lon":"121.450377486","lat":"31.2132739994","category":"260","category_name":"其他","address":"上海衡山路"},{"poiid":"B2094757D06BA1FD429B","title":"南十字星","lon":"121.451812245","lat":"31.2138919748","category":"260","category_name":"其他","address":"徐汇区淮海中路1276号(近华亭路)"},{"poiid":"B2094757D16AAAFC4499","title":"千鹤寿司","lon":"121.450005","lat":"31.212797","category":"95","category_name":"日本料理","address":"卢湾区淮海中路1323号"},{"poiid":"B2094750D665A4FB479F","title":"皓廊","lon":"121.451","lat":"31.2142","category":"260","category_name":"其他","address":"徐汇区华亭路71弄4号(近淮海中路)"},{"poiid":"B2094750D36BABFA4692","title":"致尚生活的爱","lon":"121.45278908724","lat":"31.211112767704","category":"247","category_name":"餐饮美食","address":"徐汇区复兴中路1335号(近音乐学院)"},{"poiid":"B2094757D06FA6F4429B","title":"7-ELEVEN(常熟路店)","lon":"121.449559","lat":"31.21338","category":"117","category_name":"便民商店/便利店","address":"静安区常熟路83号时尚前瞻大楼1楼(近巨鹿路)"},{"poiid":"B2094757D66DA3FE449C","title":"地鐵1號綫","lon":"121.451383","lat":"31.213704","category":"500","category_name":"未知分类","address":"上海邊走邊換！"},{"poiid":"B2094655D36CA5F54998","title":"宝庆路淮海中路","lon":"121.44977","lat":"31.21177","category":"38","category_name":"公交车站","address":""},{"poiid":"B2094757D06AA3FB4199","title":"中国银行(淮海支行)","lon":"121.4530235","lat":"31.2143001","category":"150","category_name":"银行","address":"徐汇区淮海中路1216号(近常熟路)"},{"poiid":"B2094757D16AABF9419E","title":"Happy Face","lon":"121.45109958","lat":"31.213467103","category":"500","category_name":"未知分类","address":"上海市淮海中路1288号"},{"poiid":"B2094757D06EAAFE469F","title":"微听Waiting Cafe(复兴中路近汾阳路)","lon":"121.453418","lat":"31.211411","category":"65","category_name":"咖啡厅","address":"上海复兴中路1323号，近汾阳路"},{"poiid":"B2094655D268A5F9409A","title":"克莱门公寓","lon":"121.4518","lat":"31.21051","category":"47","category_name":"住宅区","address":"复兴中路1363弄1-38号"},{"poiid":"B2094757D065A1F9499D","title":"华亭路延庆路","lon":"121.451167","lat":"31.215257","category":"260","category_name":"其他","address":"上海华亭路延庆路"},{"poiid":"B2094752D56AA7FB469A","title":"Perrys淮海中路店","lon":"121.449625","lat":"31.211541","category":"247","category_name":"餐饮美食","address":"淮海中路1333号3楼"},{"poiid":"B209475CD06CA6F4479E","title":"恒春元食堂","lon":"121.45144","lat":"31.21363","category":"68","category_name":"快餐厅","address":"淮海中路1280号1楼(近华亭路)"}]