[{"poiid":"B2094757D66FA1F5479C","title":"上海西南某高校","lon":"121.431708328","lat":"31.0301269045","category":"500","category_name":"未知分类","address":"上海西南小角落"},{"poiid":"B2094757D06FA7F54192","title":"北桥地铁站","lon":"121.410067407","lat":"31.0447301287","category":"36","category_name":"地铁站","address":"上海轨道交通 五号线 轨交北桥站 5"},{"poiid":"B2094757D06FA6F84399","title":"上海交通大学新体育馆","lon":"121.42467827","lat":"31.026720302","category":"253","category_name":"校园生活","address":"闵行区东川路800号上海交通大学北一门"},{"poiid":"B2094757D06FA1FD4099","title":"剑川路地铁站","lon":"121.41649472","lat":"31.026177569","category":"36","category_name":"地铁站","address":"上海轨道交通 五号线 轨交剑川路站 5"},{"poiid":"B2094757D16DA3FD409A","title":"上海交通大学闵行校区宿舍","lon":"121.428428128","lat":"31.0285047711","category":"500","category_name":"未知分类","address":"上海市闵行区东川路800号"},{"poiid":"B2094757D068A3FC4499","title":"复地北桥城","lon":"121.41927","lat":"31.033833","category":"47","category_name":"住宅区","address":"同景国际城法朵Villa位于南岸茶园新区南岸新行政中心对面"},{"poiid":"B2094757D06BA4F5439A","title":"闵行北桥","lon":"121.409212","lat":"31.04328","category":"500","category_name":"未知分类","address":"上海闵行北桥"},{"poiid":"B2094757D068A2F4419A","title":"交大闵行校区第四餐饮大楼","lon":"121.42695263","lat":"31.0254746275","category":"68","category_name":"快餐厅","address":"闵行区东川路800号上海交通大学内(近剑川路)"},{"poiid":"B2094655D264A7FD4493","title":"万顺水原墅","lon":"121.41538","lat":"31.04333","category":"47","category_name":"住宅区","address":"都市路777弄"},{"poiid":"B2094751D26BA0F5459B","title":"刘家村","lon":"121.419631","lat":"31.044012","category":"87","category_name":"特色／地方风味餐厅","address":"闵行区都市路728号(近金塔路)"},{"poiid":"B2094757D568A0F94699","title":"都市富苑","lon":"121.419934","lat":"31.040362","category":"47","category_name":"住宅区","address":"中国上海市闵行区"},{"poiid":"B2094757D069A4FF4293","title":"北桥花博园","lon":"121.408743","lat":"31.049165","category":"249","category_name":"购物服务","address":"上海沪闵路2759号"},{"poiid":"B2094757D06AAAF9469B","title":"上海电力工业学校","lon":"121.434959","lat":"31.031359","category":"253","category_name":"校园生活","address":"闵行区吴泾镇剑川路665号"},{"poiid":"B2094757D068A3FD409B","title":"沪金高速S4剑川路出口","lon":"121.431243","lat":"31.028693","category":"260","category_name":"其他","address":"上海沪金高速剑川路出口"},{"poiid":"B2094655D265A0F44293","title":"绿地新干线","lon":"121.42150412188","lat":"31.038343046712","category":"47","category_name":"住宅区","address":"上海市闵行区灯辉路601弄"},{"poiid":"B2094654DB6EAAF84193","title":"新佳美酒楼","lon":"121.415136054","lat":"31.044983793","category":"76","category_name":"上海菜","address":"闵行区北桥放鹤路北吴路西口1458号(北吴路放鹤路)"},{"poiid":"B2094655D36CA0FE409D","title":"金阳路都市南路","lon":"121.41937","lat":"31.03768","category":"38","category_name":"公交车站","address":""},{"poiid":"B2094753D365A0FA4193","title":"威尔士健身会所(水原墅店)","lon":"121.41806","lat":"31.0435","category":"221","category_name":"健身中心","address":"闵行区都市路777弄253号(近万顺水原墅)"},{"poiid":"B2094655D26EA5F9419A","title":"翔泰苑","lon":"121.40572","lat":"31.046673","category":"47","category_name":"住宅区","address":"闵行区鹤翔路180弄"},{"poiid":"B2094655D36DA3F5419D","title":"东潮浜桥","lon":"121.42146","lat":"31.04527","category":"250","category_name":"公园户外","address":""},{"poiid":"B2094751D565AAF8499E","title":"17.5北桥影院","lon":"121.407532","lat":"31.047287","category":"248","category_name":"生活娱乐","address":"上海市闵行区鹤翔路28弄9,10号一楼"},{"poiid":"B2094757D569A2FF4099","title":"PARK大街","lon":"121.419525","lat":"31.03734389","category":"47","category_name":"住宅区","address":"上海市闵行区金阳路393号"},{"poiid":"B2094655D264A2F94792","title":"北桥耶稣堂","lon":"121.41631","lat":"31.04512","category":"245","category_name":"教堂","address":"北桥镇北吴路1500号"},{"poiid":"B2094655D36CA5F4479E","title":"北吴路都会路","lon":"121.42628","lat":"31.04663","category":"38","category_name":"公交车站","address":""},{"poiid":"B2094655D36CA7FD469F","title":"沪闵路金塔路","lon":"121.41216","lat":"31.03854","category":"38","category_name":"公交车站","address":""},{"poiid":"B2094655D36CA7FD4693","title":"沪闵路剑川路","lon":"121.41749","lat":"31.02535","category":"38","category_name":"公交车站","address":""},{"poiid":"B2094757D16DA7F9449A","title":"莫泰168 闵行北桥店","lon":"121.40883113","lat":"31.045863773","category":"500","category_name":"未知分类","address":"上海市闵行区沪闵路2660号(近北松公路)"},{"poiid":"B2094655D264A1FF4093","title":"千岱名墅","lon":"121.421467","lat":"31.022477","category":"47","category_name":"住宅区","address":"上海市闵行区安宁路458弄"},{"poiid":"B2094655D36CA6F84898","title":"放鹤路吴河路","lon":"121.43022","lat":"31.04525","category":"38","category_name":"公交车站","address":""},{"poiid":"B2094757D569A1F8489E","title":"骏苑小区","lon":"121.42688251085","lat":"31.046728120954","category":"47","category_name":"住宅区","address":"上海市闵行区金阳路366弄"},{"poiid":"B2094655D36CA6F8499B","title":"放鹤路北吴路","lon":"121.41496","lat":"31.04492","category":"38","category_name":"公交车站","address":""},{"poiid":"B2094655D36CA0FE4092","title":"金阳路沪闵路","lon":"121.41621","lat":"31.03653","category":"38","category_name":"公交车站","address":""},{"poiid":"B2094655D36CA6FA4093","title":"都市南路灯辉路","lon":"121.42366","lat":"31.03287","category":"38","category_name":"公交车站","address":""},{"poiid":"B2094757D069A5F9429F","title":"文洋别克4S","lon":"121.40726315","lat":"31.050309907","category":"500","category_name":"未知分类","address":"上海元江路"},{"poiid":"B2094655D36CA5F4499C","title":"北桥","lon":"121.41034","lat":"31.04316","category":"38","category_name":"公交车站","address":""},{"poiid":"B2094654DB6FA1FF4592","title":"乐意饮食店(北吴路)","lon":"121.42767","lat":"31.04695","category":"257","category_name":"中餐厅","address":""},{"poiid":"B2094757D06AABF84392","title":"沪闵公路","lon":"121.410383","lat":"31.04391","category":"500","category_name":"未知分类","address":"上海闵行区沪闵公路"},{"poiid":"B2094757D568A4F8459A","title":"S4剑川路收费站","lon":"121.428191","lat":"31.034168","category":"267","category_name":"收费站","address":"中国上海市闵行区A4"},{"poiid":"B2094655D264A0FB4198","title":"天凯大酒店","lon":"121.40921","lat":"31.04586","category":"76","category_name":"上海菜","address":"闵行区沪闵路2550号(北桥轻轨站对面)"},{"poiid":"B2094757D569A6FD459E","title":"闵行交大宿舍楼","lon":"121.42425","lat":"31.03012","category":"47","category_name":"住宅区","address":"东川路800号"},{"poiid":"B2094751DA6AA0FD4093","title":"复旦大学附属上海儿科医院","lon":"121.407953","lat":"31.039398","category":"162","category_name":"医院","address":"上海市闵行区万源路399号"},{"poiid":"B2094655D26AA0F9449A","title":"地铁北桥站","lon":"121.41011","lat":"31.04486","category":"36","category_name":"地铁站","address":""},{"poiid":"B2094750D26FA5F44799","title":"交大闵行校区","lon":"121.415473","lat":"31.036525","category":"253","category_name":"校园生活","address":null},{"poiid":"B2094655D26BA2FC409C","title":"五号线北桥站","lon":"121.40971","lat":"31.04499","category":"38","category_name":"公交车站","address":""},{"poiid":"B2094655D36CA5F44793","title":"北松公路沪闵路","lon":"121.41036","lat":"31.04338","category":"38","category_name":"公交车站","address":""},{"poiid":"B2094654DB6EA4F54893","title":"欧式脆皮蛋糕(沪闵路)","lon":"121.4108","lat":"31.04098","category":"112","category_name":"糕饼店","address":""},{"poiid":"B2094654DB6EABFC409E","title":"闵行区北桥中心小学","lon":"121.40969","lat":"31.04051","category":"56","category_name":"小学","address":"闵行区沪闵路2352号"},{"poiid":"B2094654DB69A7FB4892","title":"上海市闵行区北桥职业技术学校","lon":"121.41052","lat":"31.04396","category":"55","category_name":"中学","address":"闵行区沪闵路2575号"},{"poiid":"B2094654DB6FA1F8449D","title":"上海凡宜科技电子有限公司","lon":"121.42938","lat":"31.04059","category":"263","category_name":"公司","address":"都会路451"},{"poiid":"B2094757D164A3F94593","title":"金榜家园","lon":"121.40948","lat":"31.039328","category":"500","category_name":"未知分类","address":"上海市闵行区沪闵路2282弄65支弄"},{"poiid":"B2094757D66FA1F5479C","title":"上海西南某高校","lon":"121.431708328","lat":"31.0301269045","category":"500","category_name":"未知分类","address":"上海西南小角落"},{"poiid":"B2094757D06FA7F54192","title":"北桥地铁站","lon":"121.410067407","lat":"31.0447301287","category":"36","category_name":"地铁站","address":"上海轨道交通 五号线 轨交北桥站 5"},{"poiid":"B2094757D06FA6F84399","title":"上海交通大学新体育馆","lon":"121.42467827","lat":"31.026720302","category":"253","category_name":"校园生活","address":"闵行区东川路800号上海交通大学北一门"},{"poiid":"B2094757D06FA1FD4099","title":"剑川路地铁站","lon":"121.41649472","lat":"31.026177569","category":"36","category_name":"地铁站","address":"上海轨道交通 五号线 轨交剑川路站 5"},{"poiid":"B2094757D16DA3FD409A","title":"上海交通大学闵行校区宿舍","lon":"121.428428128","lat":"31.0285047711","category":"500","category_name":"未知分类","address":"上海市闵行区东川路800号"},{"poiid":"B2094757D068A3FC4499","title":"复地北桥城","lon":"121.41927","lat":"31.033833","category":"47","category_name":"住宅区","address":"同景国际城法朵Villa位于南岸茶园新区南岸新行政中心对面"},{"poiid":"B2094757D06BA4F5439A","title":"闵行北桥","lon":"121.409212","lat":"31.04328","category":"500","category_name":"未知分类","address":"上海闵行北桥"},{"poiid":"B2094757D068A2F4419A","title":"交大闵行校区第四餐饮大楼","lon":"121.42695263","lat":"31.0254746275","category":"68","category_name":"快餐厅","address":"闵行区东川路800号上海交通大学内(近剑川路)"},{"poiid":"B2094655D264A7FD4493","title":"万顺水原墅","lon":"121.41538","lat":"31.04333","category":"47","category_name":"住宅区","address":"都市路777弄"},{"poiid":"B2094751D26BA0F5459B","title":"刘家村","lon":"121.419631","lat":"31.044012","category":"87","category_name":"特色／地方风味餐厅","address":"闵行区都市路728号(近金塔路)"},{"poiid":"B2094757D568A0F94699","title":"都市富苑","lon":"121.419934","lat":"31.040362","category":"47","category_name":"住宅区","address":"中国上海市闵行区"},{"poiid":"B2094757D069A4FF4293","title":"北桥花博园","lon":"121.408743","lat":"31.049165","category":"249","category_name":"购物服务","address":"上海沪闵路2759号"},{"poiid":"B2094757D06AAAF9469B","title":"上海电力工业学校","lon":"121.434959","lat":"31.031359","category":"253","category_name":"校园生活","address":"闵行区吴泾镇剑川路665号"},{"poiid":"B2094757D068A3FD409B","title":"沪金高速S4剑川路出口","lon":"121.431243","lat":"31.028693","category":"260","category_name":"其他","address":"上海沪金高速剑川路出口"},{"poiid":"B2094655D265A0F44293","title":"绿地新干线","lon":"121.42150412188","lat":"31.038343046712","category":"47","category_name":"住宅区","address":"上海市闵行区灯辉路601弄"},{"poiid":"B2094654DB6EAAF84193","title":"新佳美酒楼","lon":"121.415136054","lat":"31.044983793","category":"76","category_name":"上海菜","address":"闵行区北桥放鹤路北吴路西口1458号(北吴路放鹤路)"},{"poiid":"B2094655D36CA0FE409D","title":"金阳路都市南路","lon":"121.41937","lat":"31.03768","category":"38","category_name":"公交车站","address":""},{"poiid":"B2094753D365A0FA4193","title":"威尔士健身会所(水原墅店)","lon":"121.41806","lat":"31.0435","category":"221","category_name":"健身中心","address":"闵行区都市路777弄253号(近万顺水原墅)"},{"poiid":"B2094655D26EA5F9419A","title":"翔泰苑","lon":"121.40572","lat":"31.046673","category":"47","category_name":"住宅区","address":"闵行区鹤翔路180弄"},{"poiid":"B2094655D36DA3F5419D","title":"东潮浜桥","lon":"121.42146","lat":"31.04527","category":"250","category_name":"公园户外","address":""},{"poiid":"B2094751D565AAF8499E","title":"17.5北桥影院","lon":"121.407532","lat":"31.047287","category":"248","category_name":"生活娱乐","address":"上海市闵行区鹤翔路28弄9,10号一楼"},{"poiid":"B2094757D569A2FF4099","title":"PARK大街","lon":"121.419525","lat":"31.03734389","category":"47","category_name":"住宅区","address":"上海市闵行区金阳路393号"},{"poiid":"B2094655D264A2F94792","title":"北桥耶稣堂","lon":"121.41631","lat":"31.04512","category":"245","category_name":"教堂","address":"北桥镇北吴路1500号"},{"poiid":"B2094655D36CA5F4479E","title":"北吴路都会路","lon":"121.42628","lat":"31.04663","category":"38","category_name":"公交车站","address":""},{"poiid":"B2094655D36CA7FD469F","title":"沪闵路金塔路","lon":"121.41216","lat":"31.03854","category":"38","category_name":"公交车站","address":""},{"poiid":"B2094655D36CA7FD4693","title":"沪闵路剑川路","lon":"121.41749","lat":"31.02535","category":"38","category_name":"公交车站","address":""},{"poiid":"B2094757D16DA7F9449A","title":"莫泰168 闵行北桥店","lon":"121.40883113","lat":"31.045863773","category":"500","category_name":"未知分类","address":"上海市闵行区沪闵路2660号(近北松公路)"},{"poiid":"B2094655D264A1FF4093","title":"千岱名墅","lon":"121.421467","lat":"31.022477","category":"47","category_name":"住宅区","address":"上海市闵行区安宁路458弄"},{"poiid":"B2094655D36CA6F84898","title":"放鹤路吴河路","lon":"121.43022","lat":"31.04525","category":"38","category_name":"公交车站","address":""},{"poiid":"B2094757D569A1F8489E","title":"骏苑小区","lon":"121.42688251085","lat":"31.046728120954","category":"47","category_name":"住宅区","address":"上海市闵行区金阳路366弄"},{"poiid":"B2094655D36CA6F8499B","title":"放鹤路北吴路","lon":"121.41496","lat":"31.04492","category":"38","category_name":"公交车站","address":""},{"poiid":"B2094655D36CA0FE4092","title":"金阳路沪闵路","lon":"121.41621","lat":"31.03653","category":"38","category_name":"公交车站","address":""},{"poiid":"B2094655D36CA6FA4093","title":"都市南路灯辉路","lon":"121.42366","lat":"31.03287","category":"38","category_name":"公交车站","address":""},{"poiid":"B2094757D069A5F9429F","title":"文洋别克4S","lon":"121.40726315","lat":"31.050309907","category":"500","category_name":"未知分类","address":"上海元江路"},{"poiid":"B2094655D36CA5F4499C","title":"北桥","lon":"121.41034","lat":"31.04316","category":"38","category_name":"公交车站","address":""},{"poiid":"B2094654DB6FA1FF4592","title":"乐意饮食店(北吴路)","lon":"121.42767","lat":"31.04695","category":"257","category_name":"中餐厅","address":""},{"poiid":"B2094757D06AABF84392","title":"沪闵公路","lon":"121.410383","lat":"31.04391","category":"500","category_name":"未知分类","address":"上海闵行区沪闵公路"},{"poiid":"B2094757D568A4F8459A","title":"S4剑川路收费站","lon":"121.428191","lat":"31.034168","category":"267","category_name":"收费站","address":"中国上海市闵行区A4"},{"poiid":"B2094655D264A0FB4198","title":"天凯大酒店","lon":"121.40921","lat":"31.04586","category":"76","category_name":"上海菜","address":"闵行区沪闵路2550号(北桥轻轨站对面)"},{"poiid":"B2094757D569A6FD459E","title":"闵行交大宿舍楼","lon":"121.42425","lat":"31.03012","category":"47","category_name":"住宅区","address":"东川路800号"},{"poiid":"B2094751DA6AA0FD4093","title":"复旦大学附属上海儿科医院","lon":"121.407953","lat":"31.039398","category":"162","category_name":"医院","address":"上海市闵行区万源路399号"},{"poiid":"B2094655D26AA0F9449A","title":"地铁北桥站","lon":"121.41011","lat":"31.04486","category":"36","category_name":"地铁站","address":""},{"poiid":"B2094750D26FA5F44799","title":"交大闵行校区","lon":"121.415473","lat":"31.036525","category":"253","category_name":"校园生活","address":null},{"poiid":"B2094655D26BA2FC409C","title":"五号线北桥站","lon":"121.40971","lat":"31.04499","category":"38","category_name":"公交车站","address":""},{"poiid":"B2094655D36CA5F44793","title":"北松公路沪闵路","lon":"121.41036","lat":"31.04338","category":"38","category_name":"公交车站","address":""},{"poiid":"B2094654DB6EA4F54893","title":"欧式脆皮蛋糕(沪闵路)","lon":"121.4108","lat":"31.04098","category":"112","category_name":"糕饼店","address":""},{"poiid":"B2094654DB6EABFC409E","title":"闵行区北桥中心小学","lon":"121.40969","lat":"31.04051","category":"56","category_name":"小学","address":"闵行区沪闵路2352号"},{"poiid":"B2094654DB69A7FB4892","title":"上海市闵行区北桥职业技术学校","lon":"121.41052","lat":"31.04396","category":"55","category_name":"中学","address":"闵行区沪闵路2575号"},{"poiid":"B2094654DB6FA1F8449D","title":"上海凡宜科技电子有限公司","lon":"121.42938","lat":"31.04059","category":"263","category_name":"公司","address":"都会路451"},{"poiid":"B2094757D164A3F94593","title":"金榜家园","lon":"121.40948","lat":"31.039328","category":"500","category_name":"未知分类","address":"上海市闵行区沪闵路2282弄65支弄"},{"poiid":"B2094757D66FA1F5479C","title":"上海西南某高校","lon":"121.431708328","lat":"31.0301269045","category":"500","category_name":"未知分类","address":"上海西南小角落"},{"poiid":"B2094757D06FA7F54192","title":"北桥地铁站","lon":"121.410067407","lat":"31.0447301287","category":"36","category_name":"地铁站","address":"上海轨道交通 五号线 轨交北桥站 5"},{"poiid":"B2094757D06FA6F84399","title":"上海交通大学新体育馆","lon":"121.42467827","lat":"31.026720302","category":"253","category_name":"校园生活","address":"闵行区东川路800号上海交通大学北一门"},{"poiid":"B2094757D06FA1FD4099","title":"剑川路地铁站","lon":"121.41649472","lat":"31.026177569","category":"36","category_name":"地铁站","address":"上海轨道交通 五号线 轨交剑川路站 5"},{"poiid":"B2094757D16DA3FD409A","title":"上海交通大学闵行校区宿舍","lon":"121.428428128","lat":"31.0285047711","category":"500","category_name":"未知分类","address":"上海市闵行区东川路800号"},{"poiid":"B2094757D068A3FC4499","title":"复地北桥城","lon":"121.41927","lat":"31.033833","category":"47","category_name":"住宅区","address":"同景国际城法朵Villa位于南岸茶园新区南岸新行政中心对面"},{"poiid":"B2094757D06BA4F5439A","title":"闵行北桥","lon":"121.409212","lat":"31.04328","category":"500","category_name":"未知分类","address":"上海闵行北桥"},{"poiid":"B2094757D068A2F4419A","title":"交大闵行校区第四餐饮大楼","lon":"121.42695263","lat":"31.0254746275","category":"68","category_name":"快餐厅","address":"闵行区东川路800号上海交通大学内(近剑川路)"},{"poiid":"B2094655D264A7FD4493","title":"万顺水原墅","lon":"121.41538","lat":"31.04333","category":"47","category_name":"住宅区","address":"都市路777弄"},{"poiid":"B2094751D26BA0F5459B","title":"刘家村","lon":"121.419631","lat":"31.044012","category":"87","category_name":"特色／地方风味餐厅","address":"闵行区都市路728号(近金塔路)"},{"poiid":"B2094757D568A0F94699","title":"都市富苑","lon":"121.419934","lat":"31.040362","category":"47","category_name":"住宅区","address":"中国上海市闵行区"},{"poiid":"B2094757D069A4FF4293","title":"北桥花博园","lon":"121.408743","lat":"31.049165","category":"249","category_name":"购物服务","address":"上海沪闵路2759号"},{"poiid":"B2094757D06AAAF9469B","title":"上海电力工业学校","lon":"121.434959","lat":"31.031359","category":"253","category_name":"校园生活","address":"闵行区吴泾镇剑川路665号"},{"poiid":"B2094757D068A3FD409B","title":"沪金高速S4剑川路出口","lon":"121.431243","lat":"31.028693","category":"260","category_name":"其他","address":"上海沪金高速剑川路出口"},{"poiid":"B2094655D265A0F44293","title":"绿地新干线","lon":"121.42150412188","lat":"31.038343046712","category":"47","category_name":"住宅区","address":"上海市闵行区灯辉路601弄"},{"poiid":"B2094654DB6EAAF84193","title":"新佳美酒楼","lon":"121.415136054","lat":"31.044983793","category":"76","category_name":"上海菜","address":"闵行区北桥放鹤路北吴路西口1458号(北吴路放鹤路)"},{"poiid":"B2094655D36CA0FE409D","title":"金阳路都市南路","lon":"121.41937","lat":"31.03768","category":"38","category_name":"公交车站","address":""},{"poiid":"B2094753D365A0FA4193","title":"威尔士健身会所(水原墅店)","lon":"121.41806","lat":"31.0435","category":"221","category_name":"健身中心","address":"闵行区都市路777弄253号(近万顺水原墅)"},{"poiid":"B2094655D26EA5F9419A","title":"翔泰苑","lon":"121.40572","lat":"31.046673","category":"47","category_name":"住宅区","address":"闵行区鹤翔路180弄"},{"poiid":"B2094655D36DA3F5419D","title":"东潮浜桥","lon":"121.42146","lat":"31.04527","category":"250","category_name":"公园户外","address":""},{"poiid":"B2094751D565AAF8499E","title":"17.5北桥影院","lon":"121.407532","lat":"31.047287","category":"248","category_name":"生活娱乐","address":"上海市闵行区鹤翔路28弄9,10号一楼"},{"poiid":"B2094757D569A2FF4099","title":"PARK大街","lon":"121.419525","lat":"31.03734389","category":"47","category_name":"住宅区","address":"上海市闵行区金阳路393号"},{"poiid":"B2094655D264A2F94792","title":"北桥耶稣堂","lon":"121.41631","lat":"31.04512","category":"245","category_name":"教堂","address":"北桥镇北吴路1500号"},{"poiid":"B2094655D36CA5F4479E","title":"北吴路都会路","lon":"121.42628","lat":"31.04663","category":"38","category_name":"公交车站","address":""},{"poiid":"B2094655D36CA7FD469F","title":"沪闵路金塔路","lon":"121.41216","lat":"31.03854","category":"38","category_name":"公交车站","address":""},{"poiid":"B2094655D36CA7FD4693","title":"沪闵路剑川路","lon":"121.41749","lat":"31.02535","category":"38","category_name":"公交车站","address":""},{"poiid":"B2094757D16DA7F9449A","title":"莫泰168 闵行北桥店","lon":"121.40883113","lat":"31.045863773","category":"500","category_name":"未知分类","address":"上海市闵行区沪闵路2660号(近北松公路)"},{"poiid":"B2094655D264A1FF4093","title":"千岱名墅","lon":"121.421467","lat":"31.022477","category":"47","category_name":"住宅区","address":"上海市闵行区安宁路458弄"},{"poiid":"B2094655D36CA6F84898","title":"放鹤路吴河路","lon":"121.43022","lat":"31.04525","category":"38","category_name":"公交车站","address":""},{"poiid":"B2094757D569A1F8489E","title":"骏苑小区","lon":"121.42688251085","lat":"31.046728120954","category":"47","category_name":"住宅区","address":"上海市闵行区金阳路366弄"},{"poiid":"B2094655D36CA6F8499B","title":"放鹤路北吴路","lon":"121.41496","lat":"31.04492","category":"38","category_name":"公交车站","address":""},{"poiid":"B2094655D36CA0FE4092","title":"金阳路沪闵路","lon":"121.41621","lat":"31.03653","category":"38","category_name":"公交车站","address":""},{"poiid":"B2094655D36CA6FA4093","title":"都市南路灯辉路","lon":"121.42366","lat":"31.03287","category":"38","category_name":"公交车站","address":""},{"poiid":"B2094757D069A5F9429F","title":"文洋别克4S","lon":"121.40726315","lat":"31.050309907","category":"500","category_name":"未知分类","address":"上海元江路"},{"poiid":"B2094655D36CA5F4499C","title":"北桥","lon":"121.41034","lat":"31.04316","category":"38","category_name":"公交车站","address":""},{"poiid":"B2094654DB6FA1FF4592","title":"乐意饮食店(北吴路)","lon":"121.42767","lat":"31.04695","category":"257","category_name":"中餐厅","address":""},{"poiid":"B2094757D06AABF84392","title":"沪闵公路","lon":"121.410383","lat":"31.04391","category":"500","category_name":"未知分类","address":"上海闵行区沪闵公路"},{"poiid":"B2094757D568A4F8459A","title":"S4剑川路收费站","lon":"121.428191","lat":"31.034168","category":"267","category_name":"收费站","address":"中国上海市闵行区A4"},{"poiid":"B2094655D264A0FB4198","title":"天凯大酒店","lon":"121.40921","lat":"31.04586","category":"76","category_name":"上海菜","address":"闵行区沪闵路2550号(北桥轻轨站对面)"},{"poiid":"B2094757D569A6FD459E","title":"闵行交大宿舍楼","lon":"121.42425","lat":"31.03012","category":"47","category_name":"住宅区","address":"东川路800号"},{"poiid":"B2094751DA6AA0FD4093","title":"复旦大学附属上海儿科医院","lon":"121.407953","lat":"31.039398","category":"162","category_name":"医院","address":"上海市闵行区万源路399号"},{"poiid":"B2094655D26AA0F9449A","title":"地铁北桥站","lon":"121.41011","lat":"31.04486","category":"36","category_name":"地铁站","address":""},{"poiid":"B2094750D26FA5F44799","title":"交大闵行校区","lon":"121.415473","lat":"31.036525","category":"253","category_name":"校园生活","address":null},{"poiid":"B2094655D26BA2FC409C","title":"五号线北桥站","lon":"121.40971","lat":"31.04499","category":"38","category_name":"公交车站","address":""},{"poiid":"B2094655D36CA5F44793","title":"北松公路沪闵路","lon":"121.41036","lat":"31.04338","category":"38","category_name":"公交车站","address":""},{"poiid":"B2094654DB6EA4F54893","title":"欧式脆皮蛋糕(沪闵路)","lon":"121.4108","lat":"31.04098","category":"112","category_name":"糕饼店","address":""},{"poiid":"B2094654DB6EABFC409E","title":"闵行区北桥中心小学","lon":"121.40969","lat":"31.04051","category":"56","category_name":"小学","address":"闵行区沪闵路2352号"},{"poiid":"B2094654DB69A7FB4892","title":"上海市闵行区北桥职业技术学校","lon":"121.41052","lat":"31.04396","category":"55","category_name":"中学","address":"闵行区沪闵路2575号"},{"poiid":"B2094654DB6FA1F8449D","title":"上海凡宜科技电子有限公司","lon":"121.42938","lat":"31.04059","category":"263","category_name":"公司","address":"都会路451"},{"poiid":"B2094757D164A3F94593","title":"金榜家园","lon":"121.40948","lat":"31.039328","category":"500","category_name":"未知分类","address":"上海市闵行区沪闵路2282弄65支弄"},{"poiid":"B2094757D66FA1F5479C","title":"上海西南某高校","lon":"121.431708328","lat":"31.0301269045","category":"500","category_name":"未知分类","address":"上海西南小角落"},{"poiid":"B2094757D06FA7F54192","title":"北桥地铁站","lon":"121.410067407","lat":"31.0447301287","category":"36","category_name":"地铁站","address":"上海轨道交通 五号线 轨交北桥站 5"},{"poiid":"B2094757D06FA6F84399","title":"上海交通大学新体育馆","lon":"121.42467827","lat":"31.026720302","category":"253","category_name":"校园生活","address":"闵行区东川路800号上海交通大学北一门"},{"poiid":"B2094757D06FA1FD4099","title":"剑川路地铁站","lon":"121.41649472","lat":"31.026177569","category":"36","category_name":"地铁站","address":"上海轨道交通 五号线 轨交剑川路站 5"},{"poiid":"B2094757D16DA3FD409A","title":"上海交通大学闵行校区宿舍","lon":"121.428428128","lat":"31.0285047711","category":"500","category_name":"未知分类","address":"上海市闵行区东川路800号"},{"poiid":"B2094757D068A3FC4499","title":"复地北桥城","lon":"121.41927","lat":"31.033833","category":"47","category_name":"住宅区","address":"同景国际城法朵Villa位于南岸茶园新区南岸新行政中心对面"},{"poiid":"B2094757D06BA4F5439A","title":"闵行北桥","lon":"121.409212","lat":"31.04328","category":"500","category_name":"未知分类","address":"上海闵行北桥"},{"poiid":"B2094757D068A2F4419A","title":"交大闵行校区第四餐饮大楼","lon":"121.42695263","lat":"31.0254746275","category":"68","category_name":"快餐厅","address":"闵行区东川路800号上海交通大学内(近剑川路)"},{"poiid":"B2094655D264A7FD4493","title":"万顺水原墅","lon":"121.41538","lat":"31.04333","category":"47","category_name":"住宅区","address":"都市路777弄"},{"poiid":"B2094751D26BA0F5459B","title":"刘家村","lon":"121.419631","lat":"31.044012","category":"87","category_name":"特色／地方风味餐厅","address":"闵行区都市路728号(近金塔路)"},{"poiid":"B2094757D568A0F94699","title":"都市富苑","lon":"121.419934","lat":"31.040362","category":"47","category_name":"住宅区","address":"中国上海市闵行区"},{"poiid":"B2094757D069A4FF4293","title":"北桥花博园","lon":"121.408743","lat":"31.049165","category":"249","category_name":"购物服务","address":"上海沪闵路2759号"},{"poiid":"B2094757D06AAAF9469B","title":"上海电力工业学校","lon":"121.434959","lat":"31.031359","category":"253","category_name":"校园生活","address":"闵行区吴泾镇剑川路665号"},{"poiid":"B2094757D068A3FD409B","title":"沪金高速S4剑川路出口","lon":"121.431243","lat":"31.028693","category":"260","category_name":"其他","address":"上海沪金高速剑川路出口"},{"poiid":"B2094655D265A0F44293","title":"绿地新干线","lon":"121.42150412188","lat":"31.038343046712","category":"47","category_name":"住宅区","address":"上海市闵行区灯辉路601弄"},{"poiid":"B2094654DB6EAAF84193","title":"新佳美酒楼","lon":"121.415136054","lat":"31.044983793","category":"76","category_name":"上海菜","address":"闵行区北桥放鹤路北吴路西口1458号(北吴路放鹤路)"},{"poiid":"B2094655D36CA0FE409D","title":"金阳路都市南路","lon":"121.41937","lat":"31.03768","category":"38","category_name":"公交车站","address":""},{"poiid":"B2094753D365A0FA4193","title":"威尔士健身会所(水原墅店)","lon":"121.41806","lat":"31.0435","category":"221","category_name":"健身中心","address":"闵行区都市路777弄253号(近万顺水原墅)"},{"poiid":"B2094655D26EA5F9419A","title":"翔泰苑","lon":"121.40572","lat":"31.046673","category":"47","category_name":"住宅区","address":"闵行区鹤翔路180弄"},{"poiid":"B2094655D36DA3F5419D","title":"东潮浜桥","lon":"121.42146","lat":"31.04527","category":"250","category_name":"公园户外","address":""},{"poiid":"B2094751D565AAF8499E","title":"17.5北桥影院","lon":"121.407532","lat":"31.047287","category":"248","category_name":"生活娱乐","address":"上海市闵行区鹤翔路28弄9,10号一楼"},{"poiid":"B2094757D569A2FF4099","title":"PARK大街","lon":"121.419525","lat":"31.03734389","category":"47","category_name":"住宅区","address":"上海市闵行区金阳路393号"},{"poiid":"B2094655D264A2F94792","title":"北桥耶稣堂","lon":"121.41631","lat":"31.04512","category":"245","category_name":"教堂","address":"北桥镇北吴路1500号"},{"poiid":"B2094655D36CA5F4479E","title":"北吴路都会路","lon":"121.42628","lat":"31.04663","category":"38","category_name":"公交车站","address":""},{"poiid":"B2094655D36CA7FD469F","title":"沪闵路金塔路","lon":"121.41216","lat":"31.03854","category":"38","category_name":"公交车站","address":""},{"poiid":"B2094655D36CA7FD4693","title":"沪闵路剑川路","lon":"121.41749","lat":"31.02535","category":"38","category_name":"公交车站","address":""},{"poiid":"B2094757D16DA7F9449A","title":"莫泰168 闵行北桥店","lon":"121.40883113","lat":"31.045863773","category":"500","category_name":"未知分类","address":"上海市闵行区沪闵路2660号(近北松公路)"},{"poiid":"B2094655D264A1FF4093","title":"千岱名墅","lon":"121.421467","lat":"31.022477","category":"47","category_name":"住宅区","address":"上海市闵行区安宁路458弄"},{"poiid":"B2094655D36CA6F84898","title":"放鹤路吴河路","lon":"121.43022","lat":"31.04525","category":"38","category_name":"公交车站","address":""},{"poiid":"B2094757D569A1F8489E","title":"骏苑小区","lon":"121.42688251085","lat":"31.046728120954","category":"47","category_name":"住宅区","address":"上海市闵行区金阳路366弄"},{"poiid":"B2094655D36CA6F8499B","title":"放鹤路北吴路","lon":"121.41496","lat":"31.04492","category":"38","category_name":"公交车站","address":""},{"poiid":"B2094655D36CA0FE4092","title":"金阳路沪闵路","lon":"121.41621","lat":"31.03653","category":"38","category_name":"公交车站","address":""},{"poiid":"B2094655D36CA6FA4093","title":"都市南路灯辉路","lon":"121.42366","lat":"31.03287","category":"38","category_name":"公交车站","address":""},{"poiid":"B2094757D069A5F9429F","title":"文洋别克4S","lon":"121.40726315","lat":"31.050309907","category":"500","category_name":"未知分类","address":"上海元江路"},{"poiid":"B2094655D36CA5F4499C","title":"北桥","lon":"121.41034","lat":"31.04316","category":"38","category_name":"公交车站","address":""},{"poiid":"B2094654DB6FA1FF4592","title":"乐意饮食店(北吴路)","lon":"121.42767","lat":"31.04695","category":"257","category_name":"中餐厅","address":""},{"poiid":"B2094757D06AABF84392","title":"沪闵公路","lon":"121.410383","lat":"31.04391","category":"500","category_name":"未知分类","address":"上海闵行区沪闵公路"},{"poiid":"B2094757D568A4F8459A","title":"S4剑川路收费站","lon":"121.428191","lat":"31.034168","category":"267","category_name":"收费站","address":"中国上海市闵行区A4"},{"poiid":"B2094655D264A0FB4198","title":"天凯大酒店","lon":"121.40921","lat":"31.04586","category":"76","category_name":"上海菜","address":"闵行区沪闵路2550号(北桥轻轨站对面)"},{"poiid":"B2094757D569A6FD459E","title":"闵行交大宿舍楼","lon":"121.42425","lat":"31.03012","category":"47","category_name":"住宅区","address":"东川路800号"},{"poiid":"B2094751DA6AA0FD4093","title":"复旦大学附属上海儿科医院","lon":"121.407953","lat":"31.039398","category":"162","category_name":"医院","address":"上海市闵行区万源路399号"},{"poiid":"B2094655D26AA0F9449A","title":"地铁北桥站","lon":"121.41011","lat":"31.04486","category":"36","category_name":"地铁站","address":""},{"poiid":"B2094750D26FA5F44799","title":"交大闵行校区","lon":"121.415473","lat":"31.036525","category":"253","category_name":"校园生活","address":null},{"poiid":"B2094655D26BA2FC409C","title":"五号线北桥站","lon":"121.40971","lat":"31.04499","category":"38","category_name":"公交车站","address":""},{"poiid":"B2094655D36CA5F44793","title":"北松公路沪闵路","lon":"121.41036","lat":"31.04338","category":"38","category_name":"公交车站","address":""},{"poiid":"B2094654DB6EA4F54893","title":"欧式脆皮蛋糕(沪闵路)","lon":"121.4108","lat":"31.04098","category":"112","category_name":"糕饼店","address":""},{"poiid":"B2094654DB6EABFC409E","title":"闵行区北桥中心小学","lon":"121.40969","lat":"31.04051","category":"56","category_name":"小学","address":"闵行区沪闵路2352号"},{"poiid":"B2094654DB69A7FB4892","title":"上海市闵行区北桥职业技术学校","lon":"121.41052","lat":"31.04396","category":"55","category_name":"中学","address":"闵行区沪闵路2575号"},{"poiid":"B2094654DB6FA1F8449D","title":"上海凡宜科技电子有限公司","lon":"121.42938","lat":"31.04059","category":"263","category_name":"公司","address":"都会路451"},{"poiid":"B2094757D164A3F94593","title":"金榜家园","lon":"121.40948","lat":"31.039328","category":"500","category_name":"未知分类","address":"上海市闵行区沪闵路2282弄65支弄"}]