[{"poiid":"B2094655D264A7F5489C","title":"日月光中心广场","lon":"121.46825","lat":"31.20647","category":"46","category_name":"楼宇","address":"徐家汇路618号（靠近瑞金二路）"},{"poiid":"B2094752DB6FA0F44299","title":"DAZZLING CAFE","lon":"121.468246","lat":"31.206467","category":"65","category_name":"咖啡厅","address":"卢湾区徐家汇路618号日月光中心1楼中庭广场E-03铺位"},{"poiid":"B2094757D06EAAF9469C","title":"蔡嘉法式甜品","lon":"121.46799","lat":"31.206356","category":"67","category_name":"甜品店","address":"卢湾区徐家汇路618号日月光中心广场1楼F05室(近瑞金二路)"},{"poiid":"B2094753D76FAAFA449C","title":"上海滩国泰旗舰店","lon":"121.466011","lat":"31.216125","category":"249","category_name":"购物服务","address":"淮海中路868号"},{"poiid":"B209475CD564A7F84292","title":"上海滩新天地店","lon":"121.47463","lat":"31.22164","category":"119","category_name":"商场","address":"\"太仓路181弄新天地北里15号\r\n\""},{"poiid":"B209475CD564A7F8439E","title":"上海滩中信泰富店","lon":"121.45602","lat":"31.22851","category":"119","category_name":"商场","address":"\"南京西路1168号中信泰富广场，店铺号221.\r\n\""},{"poiid":"B2094757D06EAAF8409B","title":"满记甜品 日月光广场店 Honeymoon Dessert","lon":"121.467979","lat":"31.206339","category":"67","category_name":"甜品店","address":"卢湾区徐家汇路618号日月光广场B2楼F-11(近瑞金二路)"},{"poiid":"B2094751D569A7FD469C","title":"Mizzi cafe","lon":"121.46782","lat":"31.206643","category":"247","category_name":"餐饮美食","address":"卢湾区徐家汇路618号日月光中心广场1楼E04号铺(近瑞金二路)"},{"poiid":"B2094757D06EAAF8459A","title":"宝珠奶酪(日月光广场店)","lon":"121.46787962","lat":"31.206321596","category":"67","category_name":"甜品店","address":"卢湾区徐家汇路618号日月光中心广场B2楼F09号商铺(近瑞金二路)"},{"poiid":"B2094757DA6EAAFD439E","title":"丸龟制面","lon":"121.468319892881","lat":"31.2061028718305","category":"68","category_name":"快餐厅","address":"卢湾区徐家汇路618号日月光中心广场B2楼F40商铺(近瑞金二路)"},{"poiid":"B2094757D06EAAFF469D","title":"合点寿司 日月光广场店","lon":"121.46812","lat":"31.20555","category":"95","category_name":"日本料理","address":"卢湾区徐家汇路618号日月光中心广场4楼4F-2号商铺(近瑞金二路)"},{"poiid":"B2094750D26AA2FD4692","title":"小滨楼","lon":"121.4681219","lat":"31.2055526","category":"71","category_name":"四川菜","address":"卢湾区徐家汇路618号日月光中心3楼B区(近瑞金二路)"},{"poiid":"B2094757DB6CA7FD419C","title":"宝燕海鲜自助火锅","lon":"121.46812","lat":"31.20555","category":"86","category_name":"火锅店","address":"卢湾区徐家汇路618号日月光中心广场4楼F27号铺(近瑞金二路)"},{"poiid":"B2094757D06EAAFA469B","title":"芋贵人甜品店(日月光广场店)","lon":"121.46858","lat":"31.205689","category":"67","category_name":"甜品店","address":"卢湾区徐家汇路618号日月光中心广场B2楼C08号商铺(近瑞金二路)"},{"poiid":"B2094750D76FA0FA4693","title":"居食屋和民(日月光广场店)","lon":"121.468","lat":"31.2055","category":"95","category_name":"日本料理","address":"卢湾区徐家汇路618号日月光中心广场4楼(近瑞金二路)"},{"poiid":"B2094757DA6FA2FD449F","title":"猫屎咖啡(日月光广场店)","lon":"121.468105316165","lat":"31.2060478129894","category":"260","category_name":"其他","address":"卢湾区徐家汇路618号日月光中心广场1楼(近田子坊)"},{"poiid":"B2094750D26CA6FD439D","title":"千秋膳房 日月光店","lon":"121.4681219","lat":"31.2055526","category":"91","category_name":"台湾菜","address":"卢湾区徐家汇路618号日月光中心广场B2楼台湾美食馆BT09室(近瑞金二路)"},{"poiid":"B2094751D464A6F84799","title":"Outback澳派牛排馆","lon":"121.468201","lat":"31.205765","category":"247","category_name":"餐饮美食","address":"卢湾区徐家汇路618号日月光中心1F-F-15单元(近田子坊)"},{"poiid":"B2094654DB6BA4FC479F","title":"厚味香辣馆 打浦店","lon":"121.467372054","lat":"31.204689793","category":"71","category_name":"四川菜","address":"卢湾区瑞金南路1号海兴广场3楼(近徐家汇路)"},{"poiid":"B2094757D06FA2FB4299","title":"一哥肥牛火锅海鲜酒家(瑞金南路店)","lon":"121.46747","lat":"31.20419","category":"86","category_name":"火锅店","address":"卢湾区瑞金南路1号海兴广场1楼(徐家汇路口)"},{"poiid":"B2094750D56FAAF54698","title":"星巴克(日月光广场店)","lon":"121.468","lat":"31.2055","category":"260","category_name":"其他","address":"卢湾区徐家汇路618号日月光中心广场1楼(近泰康路)"},{"poiid":"B2094757D06FAAFA4892","title":"小杨生煎(日月光店)","lon":"121.468174738","lat":"31.2062027882","category":"68","category_name":"快餐厅","address":"卢湾区徐家汇路618号日月光广场B2楼(近瑞金二路)"},{"poiid":"B2094757D068A7FF489A","title":"上海一号","lon":"121.467156738","lat":"31.2050147629","category":"500","category_name":"未知分类","address":"上海打浦桥"},{"poiid":"B2094757D06FA1FA459C","title":"Allans","lon":"121.46839365","lat":"31.2062613221","category":"113","category_name":"冷饮店","address":"卢湾区徐家汇路618号日月光广场1楼F-03中庭露天广场"},{"poiid":"B2094757D069A5F5499D","title":"日月光百货","lon":"121.467779738","lat":"31.2054737727","category":"500","category_name":"未知分类","address":"上海徐汇区打浦桥"},{"poiid":"B2094757D16FA5F44698","title":"山茶花韩国料理(日月光中心)","lon":"121.46810573","lat":"31.206278789","category":"247","category_name":"餐饮美食","address":"上海卢湾区徐家汇路618号日月光中心4F"},{"poiid":"B2094757D06EAAF4499E","title":"斗香园 日月光广场店","lon":"121.46812","lat":"31.20555","category":"68","category_name":"快餐厅","address":"卢湾区徐家汇路618号日月光广场B2楼F-17号商铺(近瑞金二路)"},{"poiid":"B2094655D36CA5FD409A","title":"打浦桥","lon":"121.46726","lat":"31.20405","category":"38","category_name":"公交车站","address":""},{"poiid":"B2094757D06FA4FA479A","title":"王子殿下 Tono's Palace 131","lon":"121.468004","lat":"31.206499538","category":"260","category_name":"其他","address":"卢湾区泰康路248弄田子坊10号前门(近瑞金二路)"},{"poiid":"B2094757D06EAAFB419D","title":"奔高","lon":"121.467991","lat":"31.206362","category":"67","category_name":"甜品店","address":"卢湾区徐家汇路618号日月光中心广场B2-T17室(近瑞金二路)"},{"poiid":"B2094655D26AABFD439A","title":"上海1号私藏菜卢湾店","lon":"121.46779","lat":"31.20443","category":"76","category_name":"上海菜","address":"卢湾区瑞金南路1号海兴广场3楼(近徐家汇路)"},{"poiid":"B2094751DA6DA2F5479C","title":"荔餐厅","lon":"121.46774","lat":"31.20579","category":"72","category_name":"广东菜","address":"卢湾区徐家汇路618号日月光广场4楼(近瑞金南路)"},{"poiid":"B2094757DB69A6FE479B","title":"新贝乐意式休闲餐厅 日月光店","lon":"121.4681219","lat":"31.2055526","category":"94","category_name":"西餐厅","address":"卢湾区徐家汇路618号日月光中心广场B2楼(近瑞金二路)"},{"poiid":"B2094757D06FA0F84292","title":"必胜客(海兴店)","lon":"121.467218","lat":"31.203992","category":"68","category_name":"快餐厅","address":"卢湾区徐家汇路618号日月光中心广场B2楼(近瑞金二路)"},{"poiid":"B2094757D06FA3FB4699","title":"麦当劳(打浦桥店)","lon":"121.46800833","lat":"31.204932712","category":"68","category_name":"快餐厅","address":"卢湾区瑞金南路1号海兴广场内(近徐家汇路)"},{"poiid":"B2094757D664A2FD409D","title":"澳明鲜海鲜火锅","lon":"121.4681219","lat":"31.2055526","category":"86","category_name":"火锅店","address":"卢湾区徐家汇路618号日月光中心广场B2楼F-28号(近瑞金二路)"},{"poiid":"B2094750D16AA2F44993","title":"塔哈尔","lon":"121.46813","lat":"31.20648","category":"90","category_name":"清真餐馆","address":"卢湾区徐家汇路618号日月光中心广场B2楼(近田子坊)"},{"poiid":"B2094757DA6EA7F84892","title":"老妈米线(日月光广场店)","lon":"121.468277","lat":"31.2056439999998","category":"86","category_name":"火锅店","address":"卢湾区徐家汇路618号日月光中心广场B2楼(近瑞金二路)"},{"poiid":"B2094757D069A3FB489F","title":"日月光广场停车场","lon":"121.46737342","lat":"31.206339301","category":"500","category_name":"未知分类","address":"上海卢湾区徐家汇路618号"},{"poiid":"B2094757DA6EA6F44693","title":"吞云小莳(日月光广场店)","lon":"121.467783451078","lat":"31.2061212247705","category":"91","category_name":"台湾菜","address":"卢湾区徐家汇路618号日月光中心广场B2楼04号铺(近瑞金二路)"},{"poiid":"B2094757DB69A1FB439C","title":"意国度普丁披萨 日月光店","lon":"121.4681219","lat":"31.2055526","category":"94","category_name":"西餐厅","address":"卢湾区徐家汇路618号日月光中心广场B2楼台湾美食馆BT14室(近瑞金二路)"},{"poiid":"B2094757DA6FA3FC439A","title":"卡乐星(日月光店)","lon":"121.468121899998","lat":"31.2055526000002","category":"94","category_name":"西餐厅","address":"卢湾区徐家汇路618号日月光B2楼B21室(近瑞金二路)"},{"poiid":"B2094750D76EA3F4409F","title":"寿司王子(海兴店)","lon":"121.468","lat":"31.2047","category":"95","category_name":"日本料理","address":"卢湾区瑞金南路1号海兴广场2楼(近徐家汇路)"},{"poiid":"B2094751D36AAAFB4598","title":"喜多屋国际海鲜皇品(日月光店)","lon":"121.46812","lat":"31.20555","category":"268","category_name":"自助","address":"卢湾区徐家汇路618号日月光中心广场4楼(近打浦路)"},{"poiid":"B2094751D36EA2FD4298","title":"炉火唇情巴山烤全鱼","lon":"121.46789","lat":"31.20467","category":"71","category_name":"四川菜","address":"卢湾区瑞金南路1号海兴广场2楼(日月光对面)"},{"poiid":"B2094757D16DA4FE429E","title":"米斯特缤Mr.bean","lon":"121.467888438","lat":"31.2053967711","category":"113","category_name":"冷饮店","address":"卢湾区徐家汇路618号日月光中心广场B2楼F-10号铺(近满记)"},{"poiid":"B209475DD76AA4F54599","title":"好好先生西餐厅Grill(日月光店)","lon":"121.468121","lat":"31.206149","category":"247","category_name":"餐饮美食","address":"上海市 徐家汇路618号日月光4楼F-15商铺"},{"poiid":"B2094757D06FA6F9429F","title":"楚楚园馅饼粥(日月光广场店)","lon":"121.46782013","lat":"31.205556274","category":"68","category_name":"快餐厅","address":"卢湾区徐家汇路618号日月光中心广场B2楼(近瑞金二路)"},{"poiid":"B2094757D06FA5F8449C","title":"小木马西班牙餐厅 PONY KITCHEN","lon":"121.46812","lat":"31.20555","category":"94","category_name":"西餐厅","address":"卢湾区徐家汇路618号日月光中心广场5楼(近瑞金二路)"},{"poiid":"B209475CD46EA0FB469C","title":"年代秀（日月光店）","lon":"121.466468","lat":"31.204427","category":"249","category_name":"购物服务","address":"上海市 打浦橋日月光廣場五樓"},{"poiid":"B2094655D264A7F5489C","title":"日月光中心广场","lon":"121.46825","lat":"31.20647","category":"46","category_name":"楼宇","address":"徐家汇路618号（靠近瑞金二路）"},{"poiid":"B2094752DB6FA0F44299","title":"DAZZLING CAFE","lon":"121.468246","lat":"31.206467","category":"65","category_name":"咖啡厅","address":"卢湾区徐家汇路618号日月光中心1楼中庭广场E-03铺位"},{"poiid":"B2094757D06EAAF9469C","title":"蔡嘉法式甜品","lon":"121.46799","lat":"31.206356","category":"67","category_name":"甜品店","address":"卢湾区徐家汇路618号日月光中心广场1楼F05室(近瑞金二路)"},{"poiid":"B2094753D76FAAFA449C","title":"上海滩国泰旗舰店","lon":"121.466011","lat":"31.216125","category":"249","category_name":"购物服务","address":"淮海中路868号"},{"poiid":"B209475CD564A7F84292","title":"上海滩新天地店","lon":"121.47463","lat":"31.22164","category":"119","category_name":"商场","address":"\"太仓路181弄新天地北里15号\r\n\""},{"poiid":"B209475CD564A7F8439E","title":"上海滩中信泰富店","lon":"121.45602","lat":"31.22851","category":"119","category_name":"商场","address":"\"南京西路1168号中信泰富广场，店铺号221.\r\n\""},{"poiid":"B2094757D06EAAF8409B","title":"满记甜品 日月光广场店 Honeymoon Dessert","lon":"121.467979","lat":"31.206339","category":"67","category_name":"甜品店","address":"卢湾区徐家汇路618号日月光广场B2楼F-11(近瑞金二路)"},{"poiid":"B2094751D569A7FD469C","title":"Mizzi cafe","lon":"121.46782","lat":"31.206643","category":"247","category_name":"餐饮美食","address":"卢湾区徐家汇路618号日月光中心广场1楼E04号铺(近瑞金二路)"},{"poiid":"B2094757D06EAAF8459A","title":"宝珠奶酪(日月光广场店)","lon":"121.46787962","lat":"31.206321596","category":"67","category_name":"甜品店","address":"卢湾区徐家汇路618号日月光中心广场B2楼F09号商铺(近瑞金二路)"},{"poiid":"B2094757DA6EAAFD439E","title":"丸龟制面","lon":"121.468319892881","lat":"31.2061028718305","category":"68","category_name":"快餐厅","address":"卢湾区徐家汇路618号日月光中心广场B2楼F40商铺(近瑞金二路)"},{"poiid":"B2094757D06EAAFF469D","title":"合点寿司 日月光广场店","lon":"121.46812","lat":"31.20555","category":"95","category_name":"日本料理","address":"卢湾区徐家汇路618号日月光中心广场4楼4F-2号商铺(近瑞金二路)"},{"poiid":"B2094750D26AA2FD4692","title":"小滨楼","lon":"121.4681219","lat":"31.2055526","category":"71","category_name":"四川菜","address":"卢湾区徐家汇路618号日月光中心3楼B区(近瑞金二路)"},{"poiid":"B2094757DB6CA7FD419C","title":"宝燕海鲜自助火锅","lon":"121.46812","lat":"31.20555","category":"86","category_name":"火锅店","address":"卢湾区徐家汇路618号日月光中心广场4楼F27号铺(近瑞金二路)"},{"poiid":"B2094757D06EAAFA469B","title":"芋贵人甜品店(日月光广场店)","lon":"121.46858","lat":"31.205689","category":"67","category_name":"甜品店","address":"卢湾区徐家汇路618号日月光中心广场B2楼C08号商铺(近瑞金二路)"},{"poiid":"B2094750D76FA0FA4693","title":"居食屋和民(日月光广场店)","lon":"121.468","lat":"31.2055","category":"95","category_name":"日本料理","address":"卢湾区徐家汇路618号日月光中心广场4楼(近瑞金二路)"},{"poiid":"B2094757DA6FA2FD449F","title":"猫屎咖啡(日月光广场店)","lon":"121.468105316165","lat":"31.2060478129894","category":"260","category_name":"其他","address":"卢湾区徐家汇路618号日月光中心广场1楼(近田子坊)"},{"poiid":"B2094750D26CA6FD439D","title":"千秋膳房 日月光店","lon":"121.4681219","lat":"31.2055526","category":"91","category_name":"台湾菜","address":"卢湾区徐家汇路618号日月光中心广场B2楼台湾美食馆BT09室(近瑞金二路)"},{"poiid":"B2094751D464A6F84799","title":"Outback澳派牛排馆","lon":"121.468201","lat":"31.205765","category":"247","category_name":"餐饮美食","address":"卢湾区徐家汇路618号日月光中心1F-F-15单元(近田子坊)"},{"poiid":"B2094654DB6BA4FC479F","title":"厚味香辣馆 打浦店","lon":"121.467372054","lat":"31.204689793","category":"71","category_name":"四川菜","address":"卢湾区瑞金南路1号海兴广场3楼(近徐家汇路)"},{"poiid":"B2094757D06FA2FB4299","title":"一哥肥牛火锅海鲜酒家(瑞金南路店)","lon":"121.46747","lat":"31.20419","category":"86","category_name":"火锅店","address":"卢湾区瑞金南路1号海兴广场1楼(徐家汇路口)"},{"poiid":"B2094750D56FAAF54698","title":"星巴克(日月光广场店)","lon":"121.468","lat":"31.2055","category":"260","category_name":"其他","address":"卢湾区徐家汇路618号日月光中心广场1楼(近泰康路)"},{"poiid":"B2094757D06FAAFA4892","title":"小杨生煎(日月光店)","lon":"121.468174738","lat":"31.2062027882","category":"68","category_name":"快餐厅","address":"卢湾区徐家汇路618号日月光广场B2楼(近瑞金二路)"},{"poiid":"B2094757D068A7FF489A","title":"上海一号","lon":"121.467156738","lat":"31.2050147629","category":"500","category_name":"未知分类","address":"上海打浦桥"},{"poiid":"B2094757D06FA1FA459C","title":"Allans","lon":"121.46839365","lat":"31.2062613221","category":"113","category_name":"冷饮店","address":"卢湾区徐家汇路618号日月光广场1楼F-03中庭露天广场"},{"poiid":"B2094757D069A5F5499D","title":"日月光百货","lon":"121.467779738","lat":"31.2054737727","category":"500","category_name":"未知分类","address":"上海徐汇区打浦桥"},{"poiid":"B2094757D16FA5F44698","title":"山茶花韩国料理(日月光中心)","lon":"121.46810573","lat":"31.206278789","category":"247","category_name":"餐饮美食","address":"上海卢湾区徐家汇路618号日月光中心4F"},{"poiid":"B2094757D06EAAF4499E","title":"斗香园 日月光广场店","lon":"121.46812","lat":"31.20555","category":"68","category_name":"快餐厅","address":"卢湾区徐家汇路618号日月光广场B2楼F-17号商铺(近瑞金二路)"},{"poiid":"B2094655D36CA5FD409A","title":"打浦桥","lon":"121.46726","lat":"31.20405","category":"38","category_name":"公交车站","address":""},{"poiid":"B2094757D06FA4FA479A","title":"王子殿下 Tono's Palace 131","lon":"121.468004","lat":"31.206499538","category":"260","category_name":"其他","address":"卢湾区泰康路248弄田子坊10号前门(近瑞金二路)"},{"poiid":"B2094757D06EAAFB419D","title":"奔高","lon":"121.467991","lat":"31.206362","category":"67","category_name":"甜品店","address":"卢湾区徐家汇路618号日月光中心广场B2-T17室(近瑞金二路)"},{"poiid":"B2094655D26AABFD439A","title":"上海1号私藏菜卢湾店","lon":"121.46779","lat":"31.20443","category":"76","category_name":"上海菜","address":"卢湾区瑞金南路1号海兴广场3楼(近徐家汇路)"},{"poiid":"B2094751DA6DA2F5479C","title":"荔餐厅","lon":"121.46774","lat":"31.20579","category":"72","category_name":"广东菜","address":"卢湾区徐家汇路618号日月光广场4楼(近瑞金南路)"},{"poiid":"B2094757DB69A6FE479B","title":"新贝乐意式休闲餐厅 日月光店","lon":"121.4681219","lat":"31.2055526","category":"94","category_name":"西餐厅","address":"卢湾区徐家汇路618号日月光中心广场B2楼(近瑞金二路)"},{"poiid":"B2094757D06FA0F84292","title":"必胜客(海兴店)","lon":"121.467218","lat":"31.203992","category":"68","category_name":"快餐厅","address":"卢湾区徐家汇路618号日月光中心广场B2楼(近瑞金二路)"},{"poiid":"B2094757D06FA3FB4699","title":"麦当劳(打浦桥店)","lon":"121.46800833","lat":"31.204932712","category":"68","category_name":"快餐厅","address":"卢湾区瑞金南路1号海兴广场内(近徐家汇路)"},{"poiid":"B2094757D664A2FD409D","title":"澳明鲜海鲜火锅","lon":"121.4681219","lat":"31.2055526","category":"86","category_name":"火锅店","address":"卢湾区徐家汇路618号日月光中心广场B2楼F-28号(近瑞金二路)"},{"poiid":"B2094750D16AA2F44993","title":"塔哈尔","lon":"121.46813","lat":"31.20648","category":"90","category_name":"清真餐馆","address":"卢湾区徐家汇路618号日月光中心广场B2楼(近田子坊)"},{"poiid":"B2094757DA6EA7F84892","title":"老妈米线(日月光广场店)","lon":"121.468277","lat":"31.2056439999998","category":"86","category_name":"火锅店","address":"卢湾区徐家汇路618号日月光中心广场B2楼(近瑞金二路)"},{"poiid":"B2094757D069A3FB489F","title":"日月光广场停车场","lon":"121.46737342","lat":"31.206339301","category":"500","category_name":"未知分类","address":"上海卢湾区徐家汇路618号"},{"poiid":"B2094757DA6EA6F44693","title":"吞云小莳(日月光广场店)","lon":"121.467783451078","lat":"31.2061212247705","category":"91","category_name":"台湾菜","address":"卢湾区徐家汇路618号日月光中心广场B2楼04号铺(近瑞金二路)"},{"poiid":"B2094757DB69A1FB439C","title":"意国度普丁披萨 日月光店","lon":"121.4681219","lat":"31.2055526","category":"94","category_name":"西餐厅","address":"卢湾区徐家汇路618号日月光中心广场B2楼台湾美食馆BT14室(近瑞金二路)"},{"poiid":"B2094757DA6FA3FC439A","title":"卡乐星(日月光店)","lon":"121.468121899998","lat":"31.2055526000002","category":"94","category_name":"西餐厅","address":"卢湾区徐家汇路618号日月光B2楼B21室(近瑞金二路)"},{"poiid":"B2094750D76EA3F4409F","title":"寿司王子(海兴店)","lon":"121.468","lat":"31.2047","category":"95","category_name":"日本料理","address":"卢湾区瑞金南路1号海兴广场2楼(近徐家汇路)"},{"poiid":"B2094751D36AAAFB4598","title":"喜多屋国际海鲜皇品(日月光店)","lon":"121.46812","lat":"31.20555","category":"268","category_name":"自助","address":"卢湾区徐家汇路618号日月光中心广场4楼(近打浦路)"},{"poiid":"B2094751D36EA2FD4298","title":"炉火唇情巴山烤全鱼","lon":"121.46789","lat":"31.20467","category":"71","category_name":"四川菜","address":"卢湾区瑞金南路1号海兴广场2楼(日月光对面)"},{"poiid":"B2094757D16DA4FE429E","title":"米斯特缤Mr.bean","lon":"121.467888438","lat":"31.2053967711","category":"113","category_name":"冷饮店","address":"卢湾区徐家汇路618号日月光中心广场B2楼F-10号铺(近满记)"},{"poiid":"B209475DD76AA4F54599","title":"好好先生西餐厅Grill(日月光店)","lon":"121.468121","lat":"31.206149","category":"247","category_name":"餐饮美食","address":"上海市 徐家汇路618号日月光4楼F-15商铺"},{"poiid":"B2094757D06FA6F9429F","title":"楚楚园馅饼粥(日月光广场店)","lon":"121.46782013","lat":"31.205556274","category":"68","category_name":"快餐厅","address":"卢湾区徐家汇路618号日月光中心广场B2楼(近瑞金二路)"},{"poiid":"B2094757D06FA5F8449C","title":"小木马西班牙餐厅 PONY KITCHEN","lon":"121.46812","lat":"31.20555","category":"94","category_name":"西餐厅","address":"卢湾区徐家汇路618号日月光中心广场5楼(近瑞金二路)"},{"poiid":"B209475CD46EA0FB469C","title":"年代秀（日月光店）","lon":"121.466468","lat":"31.204427","category":"249","category_name":"购物服务","address":"上海市 打浦橋日月光廣場五樓"},{"poiid":"B2094655D264A7F5489C","title":"日月光中心广场","lon":"121.46825","lat":"31.20647","category":"46","category_name":"楼宇","address":"徐家汇路618号（靠近瑞金二路）"},{"poiid":"B2094752DB6FA0F44299","title":"DAZZLING CAFE","lon":"121.468246","lat":"31.206467","category":"65","category_name":"咖啡厅","address":"卢湾区徐家汇路618号日月光中心1楼中庭广场E-03铺位"},{"poiid":"B2094757D06EAAF9469C","title":"蔡嘉法式甜品","lon":"121.46799","lat":"31.206356","category":"67","category_name":"甜品店","address":"卢湾区徐家汇路618号日月光中心广场1楼F05室(近瑞金二路)"},{"poiid":"B2094753D76FAAFA449C","title":"上海滩国泰旗舰店","lon":"121.466011","lat":"31.216125","category":"249","category_name":"购物服务","address":"淮海中路868号"},{"poiid":"B209475CD564A7F84292","title":"上海滩新天地店","lon":"121.47463","lat":"31.22164","category":"119","category_name":"商场","address":"\"太仓路181弄新天地北里15号\r\n\""},{"poiid":"B209475CD564A7F8439E","title":"上海滩中信泰富店","lon":"121.45602","lat":"31.22851","category":"119","category_name":"商场","address":"\"南京西路1168号中信泰富广场，店铺号221.\r\n\""},{"poiid":"B2094757D06EAAF8409B","title":"满记甜品 日月光广场店 Honeymoon Dessert","lon":"121.467979","lat":"31.206339","category":"67","category_name":"甜品店","address":"卢湾区徐家汇路618号日月光广场B2楼F-11(近瑞金二路)"},{"poiid":"B2094751D569A7FD469C","title":"Mizzi cafe","lon":"121.46782","lat":"31.206643","category":"247","category_name":"餐饮美食","address":"卢湾区徐家汇路618号日月光中心广场1楼E04号铺(近瑞金二路)"},{"poiid":"B2094757D06EAAF8459A","title":"宝珠奶酪(日月光广场店)","lon":"121.46787962","lat":"31.206321596","category":"67","category_name":"甜品店","address":"卢湾区徐家汇路618号日月光中心广场B2楼F09号商铺(近瑞金二路)"},{"poiid":"B2094757DA6EAAFD439E","title":"丸龟制面","lon":"121.468319892881","lat":"31.2061028718305","category":"68","category_name":"快餐厅","address":"卢湾区徐家汇路618号日月光中心广场B2楼F40商铺(近瑞金二路)"},{"poiid":"B2094757D06EAAFF469D","title":"合点寿司 日月光广场店","lon":"121.46812","lat":"31.20555","category":"95","category_name":"日本料理","address":"卢湾区徐家汇路618号日月光中心广场4楼4F-2号商铺(近瑞金二路)"},{"poiid":"B2094750D26AA2FD4692","title":"小滨楼","lon":"121.4681219","lat":"31.2055526","category":"71","category_name":"四川菜","address":"卢湾区徐家汇路618号日月光中心3楼B区(近瑞金二路)"},{"poiid":"B2094757DB6CA7FD419C","title":"宝燕海鲜自助火锅","lon":"121.46812","lat":"31.20555","category":"86","category_name":"火锅店","address":"卢湾区徐家汇路618号日月光中心广场4楼F27号铺(近瑞金二路)"},{"poiid":"B2094757D06EAAFA469B","title":"芋贵人甜品店(日月光广场店)","lon":"121.46858","lat":"31.205689","category":"67","category_name":"甜品店","address":"卢湾区徐家汇路618号日月光中心广场B2楼C08号商铺(近瑞金二路)"},{"poiid":"B2094750D76FA0FA4693","title":"居食屋和民(日月光广场店)","lon":"121.468","lat":"31.2055","category":"95","category_name":"日本料理","address":"卢湾区徐家汇路618号日月光中心广场4楼(近瑞金二路)"},{"poiid":"B2094757DA6FA2FD449F","title":"猫屎咖啡(日月光广场店)","lon":"121.468105316165","lat":"31.2060478129894","category":"260","category_name":"其他","address":"卢湾区徐家汇路618号日月光中心广场1楼(近田子坊)"},{"poiid":"B2094750D26CA6FD439D","title":"千秋膳房 日月光店","lon":"121.4681219","lat":"31.2055526","category":"91","category_name":"台湾菜","address":"卢湾区徐家汇路618号日月光中心广场B2楼台湾美食馆BT09室(近瑞金二路)"},{"poiid":"B2094751D464A6F84799","title":"Outback澳派牛排馆","lon":"121.468201","lat":"31.205765","category":"247","category_name":"餐饮美食","address":"卢湾区徐家汇路618号日月光中心1F-F-15单元(近田子坊)"},{"poiid":"B2094654DB6BA4FC479F","title":"厚味香辣馆 打浦店","lon":"121.467372054","lat":"31.204689793","category":"71","category_name":"四川菜","address":"卢湾区瑞金南路1号海兴广场3楼(近徐家汇路)"},{"poiid":"B2094757D06FA2FB4299","title":"一哥肥牛火锅海鲜酒家(瑞金南路店)","lon":"121.46747","lat":"31.20419","category":"86","category_name":"火锅店","address":"卢湾区瑞金南路1号海兴广场1楼(徐家汇路口)"},{"poiid":"B2094750D56FAAF54698","title":"星巴克(日月光广场店)","lon":"121.468","lat":"31.2055","category":"260","category_name":"其他","address":"卢湾区徐家汇路618号日月光中心广场1楼(近泰康路)"},{"poiid":"B2094757D06FAAFA4892","title":"小杨生煎(日月光店)","lon":"121.468174738","lat":"31.2062027882","category":"68","category_name":"快餐厅","address":"卢湾区徐家汇路618号日月光广场B2楼(近瑞金二路)"},{"poiid":"B2094757D068A7FF489A","title":"上海一号","lon":"121.467156738","lat":"31.2050147629","category":"500","category_name":"未知分类","address":"上海打浦桥"},{"poiid":"B2094757D06FA1FA459C","title":"Allans","lon":"121.46839365","lat":"31.2062613221","category":"113","category_name":"冷饮店","address":"卢湾区徐家汇路618号日月光广场1楼F-03中庭露天广场"},{"poiid":"B2094757D069A5F5499D","title":"日月光百货","lon":"121.467779738","lat":"31.2054737727","category":"500","category_name":"未知分类","address":"上海徐汇区打浦桥"},{"poiid":"B2094757D16FA5F44698","title":"山茶花韩国料理(日月光中心)","lon":"121.46810573","lat":"31.206278789","category":"247","category_name":"餐饮美食","address":"上海卢湾区徐家汇路618号日月光中心4F"},{"poiid":"B2094757D06EAAF4499E","title":"斗香园 日月光广场店","lon":"121.46812","lat":"31.20555","category":"68","category_name":"快餐厅","address":"卢湾区徐家汇路618号日月光广场B2楼F-17号商铺(近瑞金二路)"},{"poiid":"B2094655D36CA5FD409A","title":"打浦桥","lon":"121.46726","lat":"31.20405","category":"38","category_name":"公交车站","address":""},{"poiid":"B2094757D06FA4FA479A","title":"王子殿下 Tono's Palace 131","lon":"121.468004","lat":"31.206499538","category":"260","category_name":"其他","address":"卢湾区泰康路248弄田子坊10号前门(近瑞金二路)"},{"poiid":"B2094757D06EAAFB419D","title":"奔高","lon":"121.467991","lat":"31.206362","category":"67","category_name":"甜品店","address":"卢湾区徐家汇路618号日月光中心广场B2-T17室(近瑞金二路)"},{"poiid":"B2094655D26AABFD439A","title":"上海1号私藏菜卢湾店","lon":"121.46779","lat":"31.20443","category":"76","category_name":"上海菜","address":"卢湾区瑞金南路1号海兴广场3楼(近徐家汇路)"},{"poiid":"B2094751DA6DA2F5479C","title":"荔餐厅","lon":"121.46774","lat":"31.20579","category":"72","category_name":"广东菜","address":"卢湾区徐家汇路618号日月光广场4楼(近瑞金南路)"},{"poiid":"B2094757DB69A6FE479B","title":"新贝乐意式休闲餐厅 日月光店","lon":"121.4681219","lat":"31.2055526","category":"94","category_name":"西餐厅","address":"卢湾区徐家汇路618号日月光中心广场B2楼(近瑞金二路)"},{"poiid":"B2094757D06FA0F84292","title":"必胜客(海兴店)","lon":"121.467218","lat":"31.203992","category":"68","category_name":"快餐厅","address":"卢湾区徐家汇路618号日月光中心广场B2楼(近瑞金二路)"},{"poiid":"B2094757D06FA3FB4699","title":"麦当劳(打浦桥店)","lon":"121.46800833","lat":"31.204932712","category":"68","category_name":"快餐厅","address":"卢湾区瑞金南路1号海兴广场内(近徐家汇路)"},{"poiid":"B2094757D664A2FD409D","title":"澳明鲜海鲜火锅","lon":"121.4681219","lat":"31.2055526","category":"86","category_name":"火锅店","address":"卢湾区徐家汇路618号日月光中心广场B2楼F-28号(近瑞金二路)"},{"poiid":"B2094750D16AA2F44993","title":"塔哈尔","lon":"121.46813","lat":"31.20648","category":"90","category_name":"清真餐馆","address":"卢湾区徐家汇路618号日月光中心广场B2楼(近田子坊)"},{"poiid":"B2094757DA6EA7F84892","title":"老妈米线(日月光广场店)","lon":"121.468277","lat":"31.2056439999998","category":"86","category_name":"火锅店","address":"卢湾区徐家汇路618号日月光中心广场B2楼(近瑞金二路)"},{"poiid":"B2094757D069A3FB489F","title":"日月光广场停车场","lon":"121.46737342","lat":"31.206339301","category":"500","category_name":"未知分类","address":"上海卢湾区徐家汇路618号"},{"poiid":"B2094757DA6EA6F44693","title":"吞云小莳(日月光广场店)","lon":"121.467783451078","lat":"31.2061212247705","category":"91","category_name":"台湾菜","address":"卢湾区徐家汇路618号日月光中心广场B2楼04号铺(近瑞金二路)"},{"poiid":"B2094757DB69A1FB439C","title":"意国度普丁披萨 日月光店","lon":"121.4681219","lat":"31.2055526","category":"94","category_name":"西餐厅","address":"卢湾区徐家汇路618号日月光中心广场B2楼台湾美食馆BT14室(近瑞金二路)"},{"poiid":"B2094757DA6FA3FC439A","title":"卡乐星(日月光店)","lon":"121.468121899998","lat":"31.2055526000002","category":"94","category_name":"西餐厅","address":"卢湾区徐家汇路618号日月光B2楼B21室(近瑞金二路)"},{"poiid":"B2094750D76EA3F4409F","title":"寿司王子(海兴店)","lon":"121.468","lat":"31.2047","category":"95","category_name":"日本料理","address":"卢湾区瑞金南路1号海兴广场2楼(近徐家汇路)"},{"poiid":"B2094751D36AAAFB4598","title":"喜多屋国际海鲜皇品(日月光店)","lon":"121.46812","lat":"31.20555","category":"268","category_name":"自助","address":"卢湾区徐家汇路618号日月光中心广场4楼(近打浦路)"},{"poiid":"B2094751D36EA2FD4298","title":"炉火唇情巴山烤全鱼","lon":"121.46789","lat":"31.20467","category":"71","category_name":"四川菜","address":"卢湾区瑞金南路1号海兴广场2楼(日月光对面)"},{"poiid":"B2094757D16DA4FE429E","title":"米斯特缤Mr.bean","lon":"121.467888438","lat":"31.2053967711","category":"113","category_name":"冷饮店","address":"卢湾区徐家汇路618号日月光中心广场B2楼F-10号铺(近满记)"},{"poiid":"B209475DD76AA4F54599","title":"好好先生西餐厅Grill(日月光店)","lon":"121.468121","lat":"31.206149","category":"247","category_name":"餐饮美食","address":"上海市 徐家汇路618号日月光4楼F-15商铺"},{"poiid":"B2094757D06FA6F9429F","title":"楚楚园馅饼粥(日月光广场店)","lon":"121.46782013","lat":"31.205556274","category":"68","category_name":"快餐厅","address":"卢湾区徐家汇路618号日月光中心广场B2楼(近瑞金二路)"},{"poiid":"B2094757D06FA5F8449C","title":"小木马西班牙餐厅 PONY KITCHEN","lon":"121.46812","lat":"31.20555","category":"94","category_name":"西餐厅","address":"卢湾区徐家汇路618号日月光中心广场5楼(近瑞金二路)"},{"poiid":"B209475CD46EA0FB469C","title":"年代秀（日月光店）","lon":"121.466468","lat":"31.204427","category":"249","category_name":"购物服务","address":"上海市 打浦橋日月光廣場五樓"},{"poiid":"B2094655D264A7F5489C","title":"日月光中心广场","lon":"121.46825","lat":"31.20647","category":"46","category_name":"楼宇","address":"徐家汇路618号（靠近瑞金二路）"},{"poiid":"B2094752DB6FA0F44299","title":"DAZZLING CAFE","lon":"121.468246","lat":"31.206467","category":"65","category_name":"咖啡厅","address":"卢湾区徐家汇路618号日月光中心1楼中庭广场E-03铺位"},{"poiid":"B2094757D06EAAF9469C","title":"蔡嘉法式甜品","lon":"121.46799","lat":"31.206356","category":"67","category_name":"甜品店","address":"卢湾区徐家汇路618号日月光中心广场1楼F05室(近瑞金二路)"},{"poiid":"B2094753D76FAAFA449C","title":"上海滩国泰旗舰店","lon":"121.466011","lat":"31.216125","category":"249","category_name":"购物服务","address":"淮海中路868号"},{"poiid":"B209475CD564A7F84292","title":"上海滩新天地店","lon":"121.47463","lat":"31.22164","category":"119","category_name":"商场","address":"\"太仓路181弄新天地北里15号\r\n\""},{"poiid":"B209475CD564A7F8439E","title":"上海滩中信泰富店","lon":"121.45602","lat":"31.22851","category":"119","category_name":"商场","address":"\"南京西路1168号中信泰富广场，店铺号221.\r\n\""},{"poiid":"B2094757D06EAAF8409B","title":"满记甜品 日月光广场店 Honeymoon Dessert","lon":"121.467979","lat":"31.206339","category":"67","category_name":"甜品店","address":"卢湾区徐家汇路618号日月光广场B2楼F-11(近瑞金二路)"},{"poiid":"B2094751D569A7FD469C","title":"Mizzi cafe","lon":"121.46782","lat":"31.206643","category":"247","category_name":"餐饮美食","address":"卢湾区徐家汇路618号日月光中心广场1楼E04号铺(近瑞金二路)"},{"poiid":"B2094757D06EAAF8459A","title":"宝珠奶酪(日月光广场店)","lon":"121.46787962","lat":"31.206321596","category":"67","category_name":"甜品店","address":"卢湾区徐家汇路618号日月光中心广场B2楼F09号商铺(近瑞金二路)"},{"poiid":"B2094757DA6EAAFD439E","title":"丸龟制面","lon":"121.468319892881","lat":"31.2061028718305","category":"68","category_name":"快餐厅","address":"卢湾区徐家汇路618号日月光中心广场B2楼F40商铺(近瑞金二路)"},{"poiid":"B2094757D06EAAFF469D","title":"合点寿司 日月光广场店","lon":"121.46812","lat":"31.20555","category":"95","category_name":"日本料理","address":"卢湾区徐家汇路618号日月光中心广场4楼4F-2号商铺(近瑞金二路)"},{"poiid":"B2094750D26AA2FD4692","title":"小滨楼","lon":"121.4681219","lat":"31.2055526","category":"71","category_name":"四川菜","address":"卢湾区徐家汇路618号日月光中心3楼B区(近瑞金二路)"},{"poiid":"B2094757DB6CA7FD419C","title":"宝燕海鲜自助火锅","lon":"121.46812","lat":"31.20555","category":"86","category_name":"火锅店","address":"卢湾区徐家汇路618号日月光中心广场4楼F27号铺(近瑞金二路)"},{"poiid":"B2094757D06EAAFA469B","title":"芋贵人甜品店(日月光广场店)","lon":"121.46858","lat":"31.205689","category":"67","category_name":"甜品店","address":"卢湾区徐家汇路618号日月光中心广场B2楼C08号商铺(近瑞金二路)"},{"poiid":"B2094750D76FA0FA4693","title":"居食屋和民(日月光广场店)","lon":"121.468","lat":"31.2055","category":"95","category_name":"日本料理","address":"卢湾区徐家汇路618号日月光中心广场4楼(近瑞金二路)"},{"poiid":"B2094757DA6FA2FD449F","title":"猫屎咖啡(日月光广场店)","lon":"121.468105316165","lat":"31.2060478129894","category":"260","category_name":"其他","address":"卢湾区徐家汇路618号日月光中心广场1楼(近田子坊)"},{"poiid":"B2094750D26CA6FD439D","title":"千秋膳房 日月光店","lon":"121.4681219","lat":"31.2055526","category":"91","category_name":"台湾菜","address":"卢湾区徐家汇路618号日月光中心广场B2楼台湾美食馆BT09室(近瑞金二路)"},{"poiid":"B2094751D464A6F84799","title":"Outback澳派牛排馆","lon":"121.468201","lat":"31.205765","category":"247","category_name":"餐饮美食","address":"卢湾区徐家汇路618号日月光中心1F-F-15单元(近田子坊)"},{"poiid":"B2094654DB6BA4FC479F","title":"厚味香辣馆 打浦店","lon":"121.467372054","lat":"31.204689793","category":"71","category_name":"四川菜","address":"卢湾区瑞金南路1号海兴广场3楼(近徐家汇路)"},{"poiid":"B2094757D06FA2FB4299","title":"一哥肥牛火锅海鲜酒家(瑞金南路店)","lon":"121.46747","lat":"31.20419","category":"86","category_name":"火锅店","address":"卢湾区瑞金南路1号海兴广场1楼(徐家汇路口)"},{"poiid":"B2094750D56FAAF54698","title":"星巴克(日月光广场店)","lon":"121.468","lat":"31.2055","category":"260","category_name":"其他","address":"卢湾区徐家汇路618号日月光中心广场1楼(近泰康路)"},{"poiid":"B2094757D06FAAFA4892","title":"小杨生煎(日月光店)","lon":"121.468174738","lat":"31.2062027882","category":"68","category_name":"快餐厅","address":"卢湾区徐家汇路618号日月光广场B2楼(近瑞金二路)"},{"poiid":"B2094757D068A7FF489A","title":"上海一号","lon":"121.467156738","lat":"31.2050147629","category":"500","category_name":"未知分类","address":"上海打浦桥"},{"poiid":"B2094757D06FA1FA459C","title":"Allans","lon":"121.46839365","lat":"31.2062613221","category":"113","category_name":"冷饮店","address":"卢湾区徐家汇路618号日月光广场1楼F-03中庭露天广场"},{"poiid":"B2094757D069A5F5499D","title":"日月光百货","lon":"121.467779738","lat":"31.2054737727","category":"500","category_name":"未知分类","address":"上海徐汇区打浦桥"},{"poiid":"B2094757D16FA5F44698","title":"山茶花韩国料理(日月光中心)","lon":"121.46810573","lat":"31.206278789","category":"247","category_name":"餐饮美食","address":"上海卢湾区徐家汇路618号日月光中心4F"},{"poiid":"B2094757D06EAAF4499E","title":"斗香园 日月光广场店","lon":"121.46812","lat":"31.20555","category":"68","category_name":"快餐厅","address":"卢湾区徐家汇路618号日月光广场B2楼F-17号商铺(近瑞金二路)"},{"poiid":"B2094655D36CA5FD409A","title":"打浦桥","lon":"121.46726","lat":"31.20405","category":"38","category_name":"公交车站","address":""},{"poiid":"B2094757D06FA4FA479A","title":"王子殿下 Tono's Palace 131","lon":"121.468004","lat":"31.206499538","category":"260","category_name":"其他","address":"卢湾区泰康路248弄田子坊10号前门(近瑞金二路)"},{"poiid":"B2094757D06EAAFB419D","title":"奔高","lon":"121.467991","lat":"31.206362","category":"67","category_name":"甜品店","address":"卢湾区徐家汇路618号日月光中心广场B2-T17室(近瑞金二路)"},{"poiid":"B2094655D26AABFD439A","title":"上海1号私藏菜卢湾店","lon":"121.46779","lat":"31.20443","category":"76","category_name":"上海菜","address":"卢湾区瑞金南路1号海兴广场3楼(近徐家汇路)"},{"poiid":"B2094751DA6DA2F5479C","title":"荔餐厅","lon":"121.46774","lat":"31.20579","category":"72","category_name":"广东菜","address":"卢湾区徐家汇路618号日月光广场4楼(近瑞金南路)"},{"poiid":"B2094757DB69A6FE479B","title":"新贝乐意式休闲餐厅 日月光店","lon":"121.4681219","lat":"31.2055526","category":"94","category_name":"西餐厅","address":"卢湾区徐家汇路618号日月光中心广场B2楼(近瑞金二路)"},{"poiid":"B2094757D06FA0F84292","title":"必胜客(海兴店)","lon":"121.467218","lat":"31.203992","category":"68","category_name":"快餐厅","address":"卢湾区徐家汇路618号日月光中心广场B2楼(近瑞金二路)"},{"poiid":"B2094757D06FA3FB4699","title":"麦当劳(打浦桥店)","lon":"121.46800833","lat":"31.204932712","category":"68","category_name":"快餐厅","address":"卢湾区瑞金南路1号海兴广场内(近徐家汇路)"},{"poiid":"B2094757D664A2FD409D","title":"澳明鲜海鲜火锅","lon":"121.4681219","lat":"31.2055526","category":"86","category_name":"火锅店","address":"卢湾区徐家汇路618号日月光中心广场B2楼F-28号(近瑞金二路)"},{"poiid":"B2094750D16AA2F44993","title":"塔哈尔","lon":"121.46813","lat":"31.20648","category":"90","category_name":"清真餐馆","address":"卢湾区徐家汇路618号日月光中心广场B2楼(近田子坊)"},{"poiid":"B2094757DA6EA7F84892","title":"老妈米线(日月光广场店)","lon":"121.468277","lat":"31.2056439999998","category":"86","category_name":"火锅店","address":"卢湾区徐家汇路618号日月光中心广场B2楼(近瑞金二路)"},{"poiid":"B2094757D069A3FB489F","title":"日月光广场停车场","lon":"121.46737342","lat":"31.206339301","category":"500","category_name":"未知分类","address":"上海卢湾区徐家汇路618号"},{"poiid":"B2094757DA6EA6F44693","title":"吞云小莳(日月光广场店)","lon":"121.467783451078","lat":"31.2061212247705","category":"91","category_name":"台湾菜","address":"卢湾区徐家汇路618号日月光中心广场B2楼04号铺(近瑞金二路)"},{"poiid":"B2094757DB69A1FB439C","title":"意国度普丁披萨 日月光店","lon":"121.4681219","lat":"31.2055526","category":"94","category_name":"西餐厅","address":"卢湾区徐家汇路618号日月光中心广场B2楼台湾美食馆BT14室(近瑞金二路)"},{"poiid":"B2094757DA6FA3FC439A","title":"卡乐星(日月光店)","lon":"121.468121899998","lat":"31.2055526000002","category":"94","category_name":"西餐厅","address":"卢湾区徐家汇路618号日月光B2楼B21室(近瑞金二路)"},{"poiid":"B2094750D76EA3F4409F","title":"寿司王子(海兴店)","lon":"121.468","lat":"31.2047","category":"95","category_name":"日本料理","address":"卢湾区瑞金南路1号海兴广场2楼(近徐家汇路)"},{"poiid":"B2094751D36AAAFB4598","title":"喜多屋国际海鲜皇品(日月光店)","lon":"121.46812","lat":"31.20555","category":"268","category_name":"自助","address":"卢湾区徐家汇路618号日月光中心广场4楼(近打浦路)"},{"poiid":"B2094751D36EA2FD4298","title":"炉火唇情巴山烤全鱼","lon":"121.46789","lat":"31.20467","category":"71","category_name":"四川菜","address":"卢湾区瑞金南路1号海兴广场2楼(日月光对面)"},{"poiid":"B2094757D16DA4FE429E","title":"米斯特缤Mr.bean","lon":"121.467888438","lat":"31.2053967711","category":"113","category_name":"冷饮店","address":"卢湾区徐家汇路618号日月光中心广场B2楼F-10号铺(近满记)"},{"poiid":"B209475DD76AA4F54599","title":"好好先生西餐厅Grill(日月光店)","lon":"121.468121","lat":"31.206149","category":"247","category_name":"餐饮美食","address":"上海市 徐家汇路618号日月光4楼F-15商铺"},{"poiid":"B2094757D06FA6F9429F","title":"楚楚园馅饼粥(日月光广场店)","lon":"121.46782013","lat":"31.205556274","category":"68","category_name":"快餐厅","address":"卢湾区徐家汇路618号日月光中心广场B2楼(近瑞金二路)"},{"poiid":"B2094757D06FA5F8449C","title":"小木马西班牙餐厅 PONY KITCHEN","lon":"121.46812","lat":"31.20555","category":"94","category_name":"西餐厅","address":"卢湾区徐家汇路618号日月光中心广场5楼(近瑞金二路)"},{"poiid":"B209475CD46EA0FB469C","title":"年代秀（日月光店）","lon":"121.466468","lat":"31.204427","category":"249","category_name":"购物服务","address":"上海市 打浦橋日月光廣場五樓"},{"poiid":"B2094655D264A7F5489C","title":"日月光中心广场","lon":"121.46825","lat":"31.20647","category":"46","category_name":"楼宇","address":"徐家汇路618号（靠近瑞金二路）"},{"poiid":"B2094752DB6FA0F44299","title":"DAZZLING CAFE","lon":"121.468246","lat":"31.206467","category":"65","category_name":"咖啡厅","address":"卢湾区徐家汇路618号日月光中心1楼中庭广场E-03铺位"},{"poiid":"B2094757D06EAAF9469C","title":"蔡嘉法式甜品","lon":"121.46799","lat":"31.206356","category":"67","category_name":"甜品店","address":"卢湾区徐家汇路618号日月光中心广场1楼F05室(近瑞金二路)"},{"poiid":"B2094753D76FAAFA449C","title":"上海滩国泰旗舰店","lon":"121.466011","lat":"31.216125","category":"249","category_name":"购物服务","address":"淮海中路868号"},{"poiid":"B209475CD564A7F84292","title":"上海滩新天地店","lon":"121.47463","lat":"31.22164","category":"119","category_name":"商场","address":"\"太仓路181弄新天地北里15号\r\n\""},{"poiid":"B209475CD564A7F8439E","title":"上海滩中信泰富店","lon":"121.45602","lat":"31.22851","category":"119","category_name":"商场","address":"\"南京西路1168号中信泰富广场，店铺号221.\r\n\""},{"poiid":"B2094757D06EAAF8409B","title":"满记甜品 日月光广场店 Honeymoon Dessert","lon":"121.467979","lat":"31.206339","category":"67","category_name":"甜品店","address":"卢湾区徐家汇路618号日月光广场B2楼F-11(近瑞金二路)"},{"poiid":"B2094751D569A7FD469C","title":"Mizzi cafe","lon":"121.46782","lat":"31.206643","category":"247","category_name":"餐饮美食","address":"卢湾区徐家汇路618号日月光中心广场1楼E04号铺(近瑞金二路)"},{"poiid":"B2094757D06EAAF8459A","title":"宝珠奶酪(日月光广场店)","lon":"121.46787962","lat":"31.206321596","category":"67","category_name":"甜品店","address":"卢湾区徐家汇路618号日月光中心广场B2楼F09号商铺(近瑞金二路)"},{"poiid":"B2094757DA6EAAFD439E","title":"丸龟制面","lon":"121.468319892881","lat":"31.2061028718305","category":"68","category_name":"快餐厅","address":"卢湾区徐家汇路618号日月光中心广场B2楼F40商铺(近瑞金二路)"},{"poiid":"B2094757D06EAAFF469D","title":"合点寿司 日月光广场店","lon":"121.46812","lat":"31.20555","category":"95","category_name":"日本料理","address":"卢湾区徐家汇路618号日月光中心广场4楼4F-2号商铺(近瑞金二路)"},{"poiid":"B2094750D26AA2FD4692","title":"小滨楼","lon":"121.4681219","lat":"31.2055526","category":"71","category_name":"四川菜","address":"卢湾区徐家汇路618号日月光中心3楼B区(近瑞金二路)"},{"poiid":"B2094757DB6CA7FD419C","title":"宝燕海鲜自助火锅","lon":"121.46812","lat":"31.20555","category":"86","category_name":"火锅店","address":"卢湾区徐家汇路618号日月光中心广场4楼F27号铺(近瑞金二路)"},{"poiid":"B2094757D06EAAFA469B","title":"芋贵人甜品店(日月光广场店)","lon":"121.46858","lat":"31.205689","category":"67","category_name":"甜品店","address":"卢湾区徐家汇路618号日月光中心广场B2楼C08号商铺(近瑞金二路)"},{"poiid":"B2094750D76FA0FA4693","title":"居食屋和民(日月光广场店)","lon":"121.468","lat":"31.2055","category":"95","category_name":"日本料理","address":"卢湾区徐家汇路618号日月光中心广场4楼(近瑞金二路)"},{"poiid":"B2094757DA6FA2FD449F","title":"猫屎咖啡(日月光广场店)","lon":"121.468105316165","lat":"31.2060478129894","category":"260","category_name":"其他","address":"卢湾区徐家汇路618号日月光中心广场1楼(近田子坊)"},{"poiid":"B2094750D26CA6FD439D","title":"千秋膳房 日月光店","lon":"121.4681219","lat":"31.2055526","category":"91","category_name":"台湾菜","address":"卢湾区徐家汇路618号日月光中心广场B2楼台湾美食馆BT09室(近瑞金二路)"},{"poiid":"B2094751D464A6F84799","title":"Outback澳派牛排馆","lon":"121.468201","lat":"31.205765","category":"247","category_name":"餐饮美食","address":"卢湾区徐家汇路618号日月光中心1F-F-15单元(近田子坊)"},{"poiid":"B2094654DB6BA4FC479F","title":"厚味香辣馆 打浦店","lon":"121.467372054","lat":"31.204689793","category":"71","category_name":"四川菜","address":"卢湾区瑞金南路1号海兴广场3楼(近徐家汇路)"},{"poiid":"B2094757D06FA2FB4299","title":"一哥肥牛火锅海鲜酒家(瑞金南路店)","lon":"121.46747","lat":"31.20419","category":"86","category_name":"火锅店","address":"卢湾区瑞金南路1号海兴广场1楼(徐家汇路口)"},{"poiid":"B2094750D56FAAF54698","title":"星巴克(日月光广场店)","lon":"121.468","lat":"31.2055","category":"260","category_name":"其他","address":"卢湾区徐家汇路618号日月光中心广场1楼(近泰康路)"},{"poiid":"B2094757D06FAAFA4892","title":"小杨生煎(日月光店)","lon":"121.468174738","lat":"31.2062027882","category":"68","category_name":"快餐厅","address":"卢湾区徐家汇路618号日月光广场B2楼(近瑞金二路)"},{"poiid":"B2094757D068A7FF489A","title":"上海一号","lon":"121.467156738","lat":"31.2050147629","category":"500","category_name":"未知分类","address":"上海打浦桥"},{"poiid":"B2094757D06FA1FA459C","title":"Allans","lon":"121.46839365","lat":"31.2062613221","category":"113","category_name":"冷饮店","address":"卢湾区徐家汇路618号日月光广场1楼F-03中庭露天广场"},{"poiid":"B2094757D069A5F5499D","title":"日月光百货","lon":"121.467779738","lat":"31.2054737727","category":"500","category_name":"未知分类","address":"上海徐汇区打浦桥"},{"poiid":"B2094757D16FA5F44698","title":"山茶花韩国料理(日月光中心)","lon":"121.46810573","lat":"31.206278789","category":"247","category_name":"餐饮美食","address":"上海卢湾区徐家汇路618号日月光中心4F"},{"poiid":"B2094757D06EAAF4499E","title":"斗香园 日月光广场店","lon":"121.46812","lat":"31.20555","category":"68","category_name":"快餐厅","address":"卢湾区徐家汇路618号日月光广场B2楼F-17号商铺(近瑞金二路)"},{"poiid":"B2094655D36CA5FD409A","title":"打浦桥","lon":"121.46726","lat":"31.20405","category":"38","category_name":"公交车站","address":""},{"poiid":"B2094757D06FA4FA479A","title":"王子殿下 Tono's Palace 131","lon":"121.468004","lat":"31.206499538","category":"260","category_name":"其他","address":"卢湾区泰康路248弄田子坊10号前门(近瑞金二路)"},{"poiid":"B2094757D06EAAFB419D","title":"奔高","lon":"121.467991","lat":"31.206362","category":"67","category_name":"甜品店","address":"卢湾区徐家汇路618号日月光中心广场B2-T17室(近瑞金二路)"},{"poiid":"B2094655D26AABFD439A","title":"上海1号私藏菜卢湾店","lon":"121.46779","lat":"31.20443","category":"76","category_name":"上海菜","address":"卢湾区瑞金南路1号海兴广场3楼(近徐家汇路)"},{"poiid":"B2094751DA6DA2F5479C","title":"荔餐厅","lon":"121.46774","lat":"31.20579","category":"72","category_name":"广东菜","address":"卢湾区徐家汇路618号日月光广场4楼(近瑞金南路)"},{"poiid":"B2094757DB69A6FE479B","title":"新贝乐意式休闲餐厅 日月光店","lon":"121.4681219","lat":"31.2055526","category":"94","category_name":"西餐厅","address":"卢湾区徐家汇路618号日月光中心广场B2楼(近瑞金二路)"},{"poiid":"B2094757D06FA0F84292","title":"必胜客(海兴店)","lon":"121.467218","lat":"31.203992","category":"68","category_name":"快餐厅","address":"卢湾区徐家汇路618号日月光中心广场B2楼(近瑞金二路)"},{"poiid":"B2094757D06FA3FB4699","title":"麦当劳(打浦桥店)","lon":"121.46800833","lat":"31.204932712","category":"68","category_name":"快餐厅","address":"卢湾区瑞金南路1号海兴广场内(近徐家汇路)"},{"poiid":"B2094757D664A2FD409D","title":"澳明鲜海鲜火锅","lon":"121.4681219","lat":"31.2055526","category":"86","category_name":"火锅店","address":"卢湾区徐家汇路618号日月光中心广场B2楼F-28号(近瑞金二路)"},{"poiid":"B2094750D16AA2F44993","title":"塔哈尔","lon":"121.46813","lat":"31.20648","category":"90","category_name":"清真餐馆","address":"卢湾区徐家汇路618号日月光中心广场B2楼(近田子坊)"},{"poiid":"B2094757DA6EA7F84892","title":"老妈米线(日月光广场店)","lon":"121.468277","lat":"31.2056439999998","category":"86","category_name":"火锅店","address":"卢湾区徐家汇路618号日月光中心广场B2楼(近瑞金二路)"},{"poiid":"B2094757D069A3FB489F","title":"日月光广场停车场","lon":"121.46737342","lat":"31.206339301","category":"500","category_name":"未知分类","address":"上海卢湾区徐家汇路618号"},{"poiid":"B2094757DA6EA6F44693","title":"吞云小莳(日月光广场店)","lon":"121.467783451078","lat":"31.2061212247705","category":"91","category_name":"台湾菜","address":"卢湾区徐家汇路618号日月光中心广场B2楼04号铺(近瑞金二路)"},{"poiid":"B2094757DB69A1FB439C","title":"意国度普丁披萨 日月光店","lon":"121.4681219","lat":"31.2055526","category":"94","category_name":"西餐厅","address":"卢湾区徐家汇路618号日月光中心广场B2楼台湾美食馆BT14室(近瑞金二路)"},{"poiid":"B2094757DA6FA3FC439A","title":"卡乐星(日月光店)","lon":"121.468121899998","lat":"31.2055526000002","category":"94","category_name":"西餐厅","address":"卢湾区徐家汇路618号日月光B2楼B21室(近瑞金二路)"},{"poiid":"B2094750D76EA3F4409F","title":"寿司王子(海兴店)","lon":"121.468","lat":"31.2047","category":"95","category_name":"日本料理","address":"卢湾区瑞金南路1号海兴广场2楼(近徐家汇路)"},{"poiid":"B2094751D36AAAFB4598","title":"喜多屋国际海鲜皇品(日月光店)","lon":"121.46812","lat":"31.20555","category":"268","category_name":"自助","address":"卢湾区徐家汇路618号日月光中心广场4楼(近打浦路)"},{"poiid":"B2094751D36EA2FD4298","title":"炉火唇情巴山烤全鱼","lon":"121.46789","lat":"31.20467","category":"71","category_name":"四川菜","address":"卢湾区瑞金南路1号海兴广场2楼(日月光对面)"},{"poiid":"B2094757D16DA4FE429E","title":"米斯特缤Mr.bean","lon":"121.467888438","lat":"31.2053967711","category":"113","category_name":"冷饮店","address":"卢湾区徐家汇路618号日月光中心广场B2楼F-10号铺(近满记)"},{"poiid":"B209475DD76AA4F54599","title":"好好先生西餐厅Grill(日月光店)","lon":"121.468121","lat":"31.206149","category":"247","category_name":"餐饮美食","address":"上海市 徐家汇路618号日月光4楼F-15商铺"},{"poiid":"B2094757D06FA6F9429F","title":"楚楚园馅饼粥(日月光广场店)","lon":"121.46782013","lat":"31.205556274","category":"68","category_name":"快餐厅","address":"卢湾区徐家汇路618号日月光中心广场B2楼(近瑞金二路)"},{"poiid":"B2094757D06FA5F8449C","title":"小木马西班牙餐厅 PONY KITCHEN","lon":"121.46812","lat":"31.20555","category":"94","category_name":"西餐厅","address":"卢湾区徐家汇路618号日月光中心广场5楼(近瑞金二路)"},{"poiid":"B209475CD46EA0FB469C","title":"年代秀（日月光店）","lon":"121.466468","lat":"31.204427","category":"249","category_name":"购物服务","address":"上海市 打浦橋日月光廣場五樓"}]