[{"poiid":"B2094654D46AABFB429B","title":"上海外高桥保税区(二号门)","lon":"121.58669","lat":"31.35007","category":"45","category_name":"产业园区","address":"上海市浦东新区"},{"poiid":"B2094751D26BA3FE429B","title":"上海外高桥喜来登酒店","lon":"121.587144","lat":"31.350886","category":"251","category_name":"出行住宿","address":"上海市外高桥保税区基隆路28号"},{"poiid":"B2094757D06FABF9419C","title":"外高桥税务局","lon":"121.588544","lat":"31.349773","category":"252","category_name":"楼宇机构","address":"上海浦东新区基隆路9号"},{"poiid":"B2094757D068A6FC479E","title":"富豪会展公寓酒店","lon":"121.58600306","lat":"31.348556133","category":"268","category_name":"自助","address":"浦东新区富特西一路77号(近外高桥保税区北站)"},{"poiid":"B2094757D064ABF4439A","title":"maxyou歌城(高桥店)","lon":"121.585417068","lat":"31.350833185","category":"170","category_name":"KTV","address":"上海杨高北路花山路路口"},{"poiid":"B2094757D169A5FA4698","title":"外高桥发电厂","lon":"121.60051884","lat":"31.349837707","category":"500","category_name":"未知分类","address":"上海浦东新区海徐路1001号"},{"poiid":"B2094654D46AABFB4298","title":"汤臣国际贸易大楼","lon":"121.594","lat":"31.3558","category":"46","category_name":"楼宇","address":"基隆路1号"},{"poiid":"B2094654D46AABF4479F","title":"东华金融大厦","lon":"121.595","lat":"31.3543","category":"46","category_name":"楼宇","address":"马吉路28号"},{"poiid":"B2094654D46AABF4469C","title":"外高桥大厦","lon":"121.594","lat":"31.3564","category":"46","category_name":"楼宇","address":"基隆路6号"},{"poiid":"B2094757D064A0FD4692","title":"上海外高桥第二发电有限责任公司","lon":"121.60117727","lat":"31.350453576","category":"263","category_name":"公司","address":"上海海徐路"},{"poiid":"B2094757D168A4FD419D","title":"家弘海鲜渔庄","lon":"121.584862968","lat":"31.3507511832","category":"247","category_name":"餐饮美食","address":"上海浦东高桥镇花山路1199号"},{"poiid":"B2094757D568A5FE479C","title":"品臻国际公寓","lon":"121.594431","lat":"31.351362","category":"47","category_name":"住宅区","address":"浦东区杨高北路610号"},{"poiid":"B2094757DA6BA0FF429A","title":"上海交能大厦","lon":"121.599","lat":"31.3506","category":"252","category_name":"楼宇机构","address":"松江区工业区鼎源路广富林路路口"},{"poiid":"B2094757D16AA3FC499B","title":"外高桥保税区海关一号门","lon":"121.590420068","lat":"31.3614094252","category":"500","category_name":"未知分类","address":"上海威斯路"},{"poiid":"B2094654D46AABF44798","title":"国际信贸大厦","lon":"121.58975","lat":"31.34986","category":"46","category_name":"楼宇","address":"浦东区浦东外高桥保税区基隆路555号"},{"poiid":"B2094757D069A7FB499B","title":"外三集控室","lon":"121.6059186","lat":"31.3498621","category":"46","category_name":"楼宇","address":"上海市浦东新区海徐路1281号"},{"poiid":"B2094757D164A5F8459D","title":"外二电","lon":"121.60045801","lat":"31.350128319","category":"500","category_name":"未知分类","address":"上海海徐路1181号"},{"poiid":"B2094655D36CA7FB449F","title":"海高新村","lon":"121.592","lat":"31.3569","category":"38","category_name":"公交车站","address":"杨高北路花山路"},{"poiid":"B2094750DA69A5F4429A","title":"星巴克","lon":"121.58704","lat":"31.3495","category":"260","category_name":"其他","address":"浦东新区基隆路1号汤臣国际贸易大厦"},{"poiid":"B2094757D068A0F9439F","title":"上海高扬国际烟草有限公司","lon":"121.593077302","lat":"31.3464960566","category":"46","category_name":"楼宇","address":"上海外高桥保税区富特北路88号(近奥纳路)"},{"poiid":"B2094757D66DA2FA419C","title":"昶宏大厦","lon":"121.59254541","lat":"31.359249503","category":"46","category_name":"楼宇","address":"上海冰克路500号"},{"poiid":"B2094654D46AABF5419A","title":"上海外联发D4工业园区(东门)","lon":"121.596","lat":"31.34759","category":"45","category_name":"产业园区","address":""},{"poiid":"B2094757D06BA0FA4292","title":"梓亭","lon":"121.588751054","lat":"31.350598793","category":"95","category_name":"日本料理","address":"浦东新区外高桥保税区基隆路6号(富特西一路基隆路)"},{"poiid":"B2094757D66DA0F9489E","title":"MEGACOM","lon":"121.591376868","lat":"31.3494063527","category":"46","category_name":"楼宇","address":"上海市浦东新区外高桥保税区二号门马吉路88号10号楼"},{"poiid":"B2094654D46BA3F84698","title":"外联发冷库","lon":"121.59391","lat":"31.35808","category":"263","category_name":"公司","address":"上海市冰克路520号"},{"poiid":"B209475CD66BA4FC459B","title":"中国（上海）自由贸易试验区","lon":"121.586691","lat":"31.350137","category":"500","category_name":"未知分类","address":"上海市 外高桥保税区基隆路"},{"poiid":"B2094654D46AAAFB469E","title":"高翔大楼","lon":"121.601","lat":"31.3451","category":"46","category_name":"楼宇","address":"外高桥保税区富特西一路355号"},{"poiid":"B2094655D26AA0FA449F","title":"地铁外高桥保税区北站","lon":"121.58661","lat":"31.34884","category":"36","category_name":"地铁站","address":""},{"poiid":"B2094654D46AABF4499C","title":"联安大厦","lon":"121.59214","lat":"31.34772","category":"46","category_name":"楼宇","address":"富特北路"},{"poiid":"B2094757D16CA2F9429B","title":"东方汇文国际文化贸易中心","lon":"121.587861","lat":"31.348151","category":"500","category_name":"未知分类","address":"上海外高桥保税区马吉路2号"},{"poiid":"B2094654D46AABFC429B","title":"海高一村","lon":"121.589","lat":"31.3558","category":"47","category_name":"住宅区","address":"花山路1003弄"},{"poiid":"B2094655D264A5FA4092","title":"洲际大厦","lon":"121.58855","lat":"31.34977","category":"46","category_name":"楼宇","address":"基隆路9号"},{"poiid":"B209475CD76CA3FC499B","title":"中国（上海）自由贸易试验区","lon":"121.592414","lat":"31.348007","category":"500","category_name":"未知分类","address":"上海市 上海市 外高桥保税区 基隆路"},{"poiid":"B2094654DB65A3FC4298","title":"恒盛大楼","lon":"121.59993","lat":"31.34394","category":"46","category_name":"楼宇","address":"日京路191"},{"poiid":"B2094757D169AAFC479A","title":"百艺海鲜大酒店","lon":"121.59440433","lat":"31.342852333","category":"88","category_name":"海鲜酒楼","address":"浦东新区保税区3号门富特北路111号百艺人才公寓酒店内(近地铁6号线航津路站)"},{"poiid":"B2094654D46AABF5419B","title":"太尔化工(上海)有限公司","lon":"121.5953","lat":"31.34739","category":"263","category_name":"公司","address":"外高桥保锐区富特东一路62号B部位"},{"poiid":"B2094654DB65A4F8439E","title":"莫泰168连锁旅店(外高桥店)","lon":"121.58562","lat":"31.35116","category":"216","category_name":"经济型连锁酒店","address":"上海市浦东新区花山路1209号（杨高北路与花山路的交汇口）"},{"poiid":"B2094757D065A0FF4898","title":"中国建设银行外高桥保税区支行","lon":"121.595938","lat":"31.341652","category":"500","category_name":"未知分类","address":"上海外高桥保税区富特北路258号日京路口"},{"poiid":"B2094757D064AAF5439C","title":"港城新苑","lon":"121.58675942383","lat":"31.358472578242","category":"47","category_name":"住宅区","address":"上海草高之路168弄"},{"poiid":"B209475CD76DA1FE479D","title":"中國（上海）自由貿易区","lon":"121.591156","lat":"31.348287","category":"500","category_name":"未知分类","address":"上海市 中國（上海）自由貿易区"},{"poiid":"B2094654D46AABF4499D","title":"EDWARDS","lon":"121.59272","lat":"31.34815","category":"263","category_name":"公司","address":"富特北路23"},{"poiid":"B209475CD16DAAFA479D","title":"星巴克 基隆路店","lon":"121.58793","lat":"31.34991","category":"65","category_name":"咖啡厅","address":"基隆路1号汤臣国际贸易大厦"},{"poiid":"B2094654D46AABF5409C","title":"上海诚信国际经贸有限公司","lon":"121.59565","lat":"31.34617","category":"263","category_name":"公司","address":"奥纳路188"},{"poiid":"B2094757D06BABFF4092","title":"中国工商银行上海市分行外高桥保税区支行","lon":"121.586916435","lat":"31.3484183636","category":"500","category_name":"未知分类","address":"上海市外高桥保税区马吉路28号"},{"poiid":"B2094654D46AABF44693","title":"可的(汤臣国际贸易大楼北)","lon":"121.58776","lat":"31.35039","category":"117","category_name":"便民商店/便利店","address":"基隆路6"},{"poiid":"B2094654D46AAAF44293","title":"上海玫洛国际贸易有限公司","lon":"121.59638","lat":"31.34606","category":"263","category_name":"公司","address":"奥纳路185"},{"poiid":"B2094654DB69A4F8449B","title":"星巴克咖啡(外高桥店)","lon":"121.59409","lat":"31.34077","category":"65","category_name":"咖啡厅","address":"浦东新区外高桥保税区加枫路24号"},{"poiid":"B2094654DB6AA5F4469E","title":"上海外联发D2工业园区","lon":"121.59429","lat":"31.34407","category":"45","category_name":"产业园区","address":"外高桥保税区富特北路200"},{"poiid":"B2094655D26FA6FB469C","title":"康发工业大楼(日京路)","lon":"121.59753","lat":"31.343","category":"46","category_name":"楼宇","address":"日京路118号"},{"poiid":"B2094654D46AAAF44099","title":"上海外联发D5工业园区(富特北路)","lon":"121.59568","lat":"31.34318","category":"45","category_name":"产业园区","address":"富特北路125-133(D5-14-18号)"},{"poiid":"B2094654D46AABFB429B","title":"上海外高桥保税区(二号门)","lon":"121.58669","lat":"31.35007","category":"45","category_name":"产业园区","address":"上海市浦东新区"},{"poiid":"B2094751D26BA3FE429B","title":"上海外高桥喜来登酒店","lon":"121.587144","lat":"31.350886","category":"251","category_name":"出行住宿","address":"上海市外高桥保税区基隆路28号"},{"poiid":"B2094757D06FABF9419C","title":"外高桥税务局","lon":"121.588544","lat":"31.349773","category":"252","category_name":"楼宇机构","address":"上海浦东新区基隆路9号"},{"poiid":"B2094757D068A6FC479E","title":"富豪会展公寓酒店","lon":"121.58600306","lat":"31.348556133","category":"268","category_name":"自助","address":"浦东新区富特西一路77号(近外高桥保税区北站)"},{"poiid":"B2094757D064ABF4439A","title":"maxyou歌城(高桥店)","lon":"121.585417068","lat":"31.350833185","category":"170","category_name":"KTV","address":"上海杨高北路花山路路口"},{"poiid":"B2094757D169A5FA4698","title":"外高桥发电厂","lon":"121.60051884","lat":"31.349837707","category":"500","category_name":"未知分类","address":"上海浦东新区海徐路1001号"},{"poiid":"B2094654D46AABFB4298","title":"汤臣国际贸易大楼","lon":"121.594","lat":"31.3558","category":"46","category_name":"楼宇","address":"基隆路1号"},{"poiid":"B2094654D46AABF4479F","title":"东华金融大厦","lon":"121.595","lat":"31.3543","category":"46","category_name":"楼宇","address":"马吉路28号"},{"poiid":"B2094654D46AABF4469C","title":"外高桥大厦","lon":"121.594","lat":"31.3564","category":"46","category_name":"楼宇","address":"基隆路6号"},{"poiid":"B2094757D064A0FD4692","title":"上海外高桥第二发电有限责任公司","lon":"121.60117727","lat":"31.350453576","category":"263","category_name":"公司","address":"上海海徐路"},{"poiid":"B2094757D168A4FD419D","title":"家弘海鲜渔庄","lon":"121.584862968","lat":"31.3507511832","category":"247","category_name":"餐饮美食","address":"上海浦东高桥镇花山路1199号"},{"poiid":"B2094757D568A5FE479C","title":"品臻国际公寓","lon":"121.594431","lat":"31.351362","category":"47","category_name":"住宅区","address":"浦东区杨高北路610号"},{"poiid":"B2094757DA6BA0FF429A","title":"上海交能大厦","lon":"121.599","lat":"31.3506","category":"252","category_name":"楼宇机构","address":"松江区工业区鼎源路广富林路路口"},{"poiid":"B2094757D16AA3FC499B","title":"外高桥保税区海关一号门","lon":"121.590420068","lat":"31.3614094252","category":"500","category_name":"未知分类","address":"上海威斯路"},{"poiid":"B2094654D46AABF44798","title":"国际信贸大厦","lon":"121.58975","lat":"31.34986","category":"46","category_name":"楼宇","address":"浦东区浦东外高桥保税区基隆路555号"},{"poiid":"B2094757D069A7FB499B","title":"外三集控室","lon":"121.6059186","lat":"31.3498621","category":"46","category_name":"楼宇","address":"上海市浦东新区海徐路1281号"},{"poiid":"B2094757D164A5F8459D","title":"外二电","lon":"121.60045801","lat":"31.350128319","category":"500","category_name":"未知分类","address":"上海海徐路1181号"},{"poiid":"B2094655D36CA7FB449F","title":"海高新村","lon":"121.592","lat":"31.3569","category":"38","category_name":"公交车站","address":"杨高北路花山路"},{"poiid":"B2094750DA69A5F4429A","title":"星巴克","lon":"121.58704","lat":"31.3495","category":"260","category_name":"其他","address":"浦东新区基隆路1号汤臣国际贸易大厦"},{"poiid":"B2094757D068A0F9439F","title":"上海高扬国际烟草有限公司","lon":"121.593077302","lat":"31.3464960566","category":"46","category_name":"楼宇","address":"上海外高桥保税区富特北路88号(近奥纳路)"},{"poiid":"B2094757D66DA2FA419C","title":"昶宏大厦","lon":"121.59254541","lat":"31.359249503","category":"46","category_name":"楼宇","address":"上海冰克路500号"},{"poiid":"B2094654D46AABF5419A","title":"上海外联发D4工业园区(东门)","lon":"121.596","lat":"31.34759","category":"45","category_name":"产业园区","address":""},{"poiid":"B2094757D06BA0FA4292","title":"梓亭","lon":"121.588751054","lat":"31.350598793","category":"95","category_name":"日本料理","address":"浦东新区外高桥保税区基隆路6号(富特西一路基隆路)"},{"poiid":"B2094757D66DA0F9489E","title":"MEGACOM","lon":"121.591376868","lat":"31.3494063527","category":"46","category_name":"楼宇","address":"上海市浦东新区外高桥保税区二号门马吉路88号10号楼"},{"poiid":"B2094654D46BA3F84698","title":"外联发冷库","lon":"121.59391","lat":"31.35808","category":"263","category_name":"公司","address":"上海市冰克路520号"},{"poiid":"B209475CD66BA4FC459B","title":"中国（上海）自由贸易试验区","lon":"121.586691","lat":"31.350137","category":"500","category_name":"未知分类","address":"上海市 外高桥保税区基隆路"},{"poiid":"B2094654D46AAAFB469E","title":"高翔大楼","lon":"121.601","lat":"31.3451","category":"46","category_name":"楼宇","address":"外高桥保税区富特西一路355号"},{"poiid":"B2094655D26AA0FA449F","title":"地铁外高桥保税区北站","lon":"121.58661","lat":"31.34884","category":"36","category_name":"地铁站","address":""},{"poiid":"B2094654D46AABF4499C","title":"联安大厦","lon":"121.59214","lat":"31.34772","category":"46","category_name":"楼宇","address":"富特北路"},{"poiid":"B2094757D16CA2F9429B","title":"东方汇文国际文化贸易中心","lon":"121.587861","lat":"31.348151","category":"500","category_name":"未知分类","address":"上海外高桥保税区马吉路2号"},{"poiid":"B2094654D46AABFC429B","title":"海高一村","lon":"121.589","lat":"31.3558","category":"47","category_name":"住宅区","address":"花山路1003弄"},{"poiid":"B2094655D264A5FA4092","title":"洲际大厦","lon":"121.58855","lat":"31.34977","category":"46","category_name":"楼宇","address":"基隆路9号"},{"poiid":"B209475CD76CA3FC499B","title":"中国（上海）自由贸易试验区","lon":"121.592414","lat":"31.348007","category":"500","category_name":"未知分类","address":"上海市 上海市 外高桥保税区 基隆路"},{"poiid":"B2094654DB65A3FC4298","title":"恒盛大楼","lon":"121.59993","lat":"31.34394","category":"46","category_name":"楼宇","address":"日京路191"},{"poiid":"B2094757D169AAFC479A","title":"百艺海鲜大酒店","lon":"121.59440433","lat":"31.342852333","category":"88","category_name":"海鲜酒楼","address":"浦东新区保税区3号门富特北路111号百艺人才公寓酒店内(近地铁6号线航津路站)"},{"poiid":"B2094654D46AABF5419B","title":"太尔化工(上海)有限公司","lon":"121.5953","lat":"31.34739","category":"263","category_name":"公司","address":"外高桥保锐区富特东一路62号B部位"},{"poiid":"B2094654DB65A4F8439E","title":"莫泰168连锁旅店(外高桥店)","lon":"121.58562","lat":"31.35116","category":"216","category_name":"经济型连锁酒店","address":"上海市浦东新区花山路1209号（杨高北路与花山路的交汇口）"},{"poiid":"B2094757D065A0FF4898","title":"中国建设银行外高桥保税区支行","lon":"121.595938","lat":"31.341652","category":"500","category_name":"未知分类","address":"上海外高桥保税区富特北路258号日京路口"},{"poiid":"B2094757D064AAF5439C","title":"港城新苑","lon":"121.58675942383","lat":"31.358472578242","category":"47","category_name":"住宅区","address":"上海草高之路168弄"},{"poiid":"B209475CD76DA1FE479D","title":"中國（上海）自由貿易区","lon":"121.591156","lat":"31.348287","category":"500","category_name":"未知分类","address":"上海市 中國（上海）自由貿易区"},{"poiid":"B2094654D46AABF4499D","title":"EDWARDS","lon":"121.59272","lat":"31.34815","category":"263","category_name":"公司","address":"富特北路23"},{"poiid":"B209475CD16DAAFA479D","title":"星巴克 基隆路店","lon":"121.58793","lat":"31.34991","category":"65","category_name":"咖啡厅","address":"基隆路1号汤臣国际贸易大厦"},{"poiid":"B2094654D46AABF5409C","title":"上海诚信国际经贸有限公司","lon":"121.59565","lat":"31.34617","category":"263","category_name":"公司","address":"奥纳路188"},{"poiid":"B2094757D06BABFF4092","title":"中国工商银行上海市分行外高桥保税区支行","lon":"121.586916435","lat":"31.3484183636","category":"500","category_name":"未知分类","address":"上海市外高桥保税区马吉路28号"},{"poiid":"B2094654D46AABF44693","title":"可的(汤臣国际贸易大楼北)","lon":"121.58776","lat":"31.35039","category":"117","category_name":"便民商店/便利店","address":"基隆路6"},{"poiid":"B2094654D46AAAF44293","title":"上海玫洛国际贸易有限公司","lon":"121.59638","lat":"31.34606","category":"263","category_name":"公司","address":"奥纳路185"},{"poiid":"B2094654DB69A4F8449B","title":"星巴克咖啡(外高桥店)","lon":"121.59409","lat":"31.34077","category":"65","category_name":"咖啡厅","address":"浦东新区外高桥保税区加枫路24号"},{"poiid":"B2094654DB6AA5F4469E","title":"上海外联发D2工业园区","lon":"121.59429","lat":"31.34407","category":"45","category_name":"产业园区","address":"外高桥保税区富特北路200"},{"poiid":"B2094655D26FA6FB469C","title":"康发工业大楼(日京路)","lon":"121.59753","lat":"31.343","category":"46","category_name":"楼宇","address":"日京路118号"},{"poiid":"B2094654D46AAAF44099","title":"上海外联发D5工业园区(富特北路)","lon":"121.59568","lat":"31.34318","category":"45","category_name":"产业园区","address":"富特北路125-133(D5-14-18号)"},{"poiid":"B2094654D46AABFB429B","title":"上海外高桥保税区(二号门)","lon":"121.58669","lat":"31.35007","category":"45","category_name":"产业园区","address":"上海市浦东新区"},{"poiid":"B2094751D26BA3FE429B","title":"上海外高桥喜来登酒店","lon":"121.587144","lat":"31.350886","category":"251","category_name":"出行住宿","address":"上海市外高桥保税区基隆路28号"},{"poiid":"B2094757D06FABF9419C","title":"外高桥税务局","lon":"121.588544","lat":"31.349773","category":"252","category_name":"楼宇机构","address":"上海浦东新区基隆路9号"},{"poiid":"B2094757D068A6FC479E","title":"富豪会展公寓酒店","lon":"121.58600306","lat":"31.348556133","category":"268","category_name":"自助","address":"浦东新区富特西一路77号(近外高桥保税区北站)"},{"poiid":"B2094757D064ABF4439A","title":"maxyou歌城(高桥店)","lon":"121.585417068","lat":"31.350833185","category":"170","category_name":"KTV","address":"上海杨高北路花山路路口"},{"poiid":"B2094757D169A5FA4698","title":"外高桥发电厂","lon":"121.60051884","lat":"31.349837707","category":"500","category_name":"未知分类","address":"上海浦东新区海徐路1001号"},{"poiid":"B2094654D46AABFB4298","title":"汤臣国际贸易大楼","lon":"121.594","lat":"31.3558","category":"46","category_name":"楼宇","address":"基隆路1号"},{"poiid":"B2094654D46AABF4479F","title":"东华金融大厦","lon":"121.595","lat":"31.3543","category":"46","category_name":"楼宇","address":"马吉路28号"},{"poiid":"B2094654D46AABF4469C","title":"外高桥大厦","lon":"121.594","lat":"31.3564","category":"46","category_name":"楼宇","address":"基隆路6号"},{"poiid":"B2094757D064A0FD4692","title":"上海外高桥第二发电有限责任公司","lon":"121.60117727","lat":"31.350453576","category":"263","category_name":"公司","address":"上海海徐路"},{"poiid":"B2094757D168A4FD419D","title":"家弘海鲜渔庄","lon":"121.584862968","lat":"31.3507511832","category":"247","category_name":"餐饮美食","address":"上海浦东高桥镇花山路1199号"},{"poiid":"B2094757D568A5FE479C","title":"品臻国际公寓","lon":"121.594431","lat":"31.351362","category":"47","category_name":"住宅区","address":"浦东区杨高北路610号"},{"poiid":"B2094757DA6BA0FF429A","title":"上海交能大厦","lon":"121.599","lat":"31.3506","category":"252","category_name":"楼宇机构","address":"松江区工业区鼎源路广富林路路口"},{"poiid":"B2094757D16AA3FC499B","title":"外高桥保税区海关一号门","lon":"121.590420068","lat":"31.3614094252","category":"500","category_name":"未知分类","address":"上海威斯路"},{"poiid":"B2094654D46AABF44798","title":"国际信贸大厦","lon":"121.58975","lat":"31.34986","category":"46","category_name":"楼宇","address":"浦东区浦东外高桥保税区基隆路555号"},{"poiid":"B2094757D069A7FB499B","title":"外三集控室","lon":"121.6059186","lat":"31.3498621","category":"46","category_name":"楼宇","address":"上海市浦东新区海徐路1281号"},{"poiid":"B2094757D164A5F8459D","title":"外二电","lon":"121.60045801","lat":"31.350128319","category":"500","category_name":"未知分类","address":"上海海徐路1181号"},{"poiid":"B2094655D36CA7FB449F","title":"海高新村","lon":"121.592","lat":"31.3569","category":"38","category_name":"公交车站","address":"杨高北路花山路"},{"poiid":"B2094750DA69A5F4429A","title":"星巴克","lon":"121.58704","lat":"31.3495","category":"260","category_name":"其他","address":"浦东新区基隆路1号汤臣国际贸易大厦"},{"poiid":"B2094757D068A0F9439F","title":"上海高扬国际烟草有限公司","lon":"121.593077302","lat":"31.3464960566","category":"46","category_name":"楼宇","address":"上海外高桥保税区富特北路88号(近奥纳路)"},{"poiid":"B2094757D66DA2FA419C","title":"昶宏大厦","lon":"121.59254541","lat":"31.359249503","category":"46","category_name":"楼宇","address":"上海冰克路500号"},{"poiid":"B2094654D46AABF5419A","title":"上海外联发D4工业园区(东门)","lon":"121.596","lat":"31.34759","category":"45","category_name":"产业园区","address":""},{"poiid":"B2094757D06BA0FA4292","title":"梓亭","lon":"121.588751054","lat":"31.350598793","category":"95","category_name":"日本料理","address":"浦东新区外高桥保税区基隆路6号(富特西一路基隆路)"},{"poiid":"B2094757D66DA0F9489E","title":"MEGACOM","lon":"121.591376868","lat":"31.3494063527","category":"46","category_name":"楼宇","address":"上海市浦东新区外高桥保税区二号门马吉路88号10号楼"},{"poiid":"B2094654D46BA3F84698","title":"外联发冷库","lon":"121.59391","lat":"31.35808","category":"263","category_name":"公司","address":"上海市冰克路520号"},{"poiid":"B209475CD66BA4FC459B","title":"中国（上海）自由贸易试验区","lon":"121.586691","lat":"31.350137","category":"500","category_name":"未知分类","address":"上海市 外高桥保税区基隆路"},{"poiid":"B2094654D46AAAFB469E","title":"高翔大楼","lon":"121.601","lat":"31.3451","category":"46","category_name":"楼宇","address":"外高桥保税区富特西一路355号"},{"poiid":"B2094655D26AA0FA449F","title":"地铁外高桥保税区北站","lon":"121.58661","lat":"31.34884","category":"36","category_name":"地铁站","address":""},{"poiid":"B2094654D46AABF4499C","title":"联安大厦","lon":"121.59214","lat":"31.34772","category":"46","category_name":"楼宇","address":"富特北路"},{"poiid":"B2094757D16CA2F9429B","title":"东方汇文国际文化贸易中心","lon":"121.587861","lat":"31.348151","category":"500","category_name":"未知分类","address":"上海外高桥保税区马吉路2号"},{"poiid":"B2094654D46AABFC429B","title":"海高一村","lon":"121.589","lat":"31.3558","category":"47","category_name":"住宅区","address":"花山路1003弄"},{"poiid":"B2094655D264A5FA4092","title":"洲际大厦","lon":"121.58855","lat":"31.34977","category":"46","category_name":"楼宇","address":"基隆路9号"},{"poiid":"B209475CD76CA3FC499B","title":"中国（上海）自由贸易试验区","lon":"121.592414","lat":"31.348007","category":"500","category_name":"未知分类","address":"上海市 上海市 外高桥保税区 基隆路"},{"poiid":"B2094654DB65A3FC4298","title":"恒盛大楼","lon":"121.59993","lat":"31.34394","category":"46","category_name":"楼宇","address":"日京路191"},{"poiid":"B2094757D169AAFC479A","title":"百艺海鲜大酒店","lon":"121.59440433","lat":"31.342852333","category":"88","category_name":"海鲜酒楼","address":"浦东新区保税区3号门富特北路111号百艺人才公寓酒店内(近地铁6号线航津路站)"},{"poiid":"B2094654D46AABF5419B","title":"太尔化工(上海)有限公司","lon":"121.5953","lat":"31.34739","category":"263","category_name":"公司","address":"外高桥保锐区富特东一路62号B部位"},{"poiid":"B2094654DB65A4F8439E","title":"莫泰168连锁旅店(外高桥店)","lon":"121.58562","lat":"31.35116","category":"216","category_name":"经济型连锁酒店","address":"上海市浦东新区花山路1209号（杨高北路与花山路的交汇口）"},{"poiid":"B2094757D065A0FF4898","title":"中国建设银行外高桥保税区支行","lon":"121.595938","lat":"31.341652","category":"500","category_name":"未知分类","address":"上海外高桥保税区富特北路258号日京路口"},{"poiid":"B2094757D064AAF5439C","title":"港城新苑","lon":"121.58675942383","lat":"31.358472578242","category":"47","category_name":"住宅区","address":"上海草高之路168弄"},{"poiid":"B209475CD76DA1FE479D","title":"中國（上海）自由貿易区","lon":"121.591156","lat":"31.348287","category":"500","category_name":"未知分类","address":"上海市 中國（上海）自由貿易区"},{"poiid":"B2094654D46AABF4499D","title":"EDWARDS","lon":"121.59272","lat":"31.34815","category":"263","category_name":"公司","address":"富特北路23"},{"poiid":"B209475CD16DAAFA479D","title":"星巴克 基隆路店","lon":"121.58793","lat":"31.34991","category":"65","category_name":"咖啡厅","address":"基隆路1号汤臣国际贸易大厦"},{"poiid":"B2094654D46AABF5409C","title":"上海诚信国际经贸有限公司","lon":"121.59565","lat":"31.34617","category":"263","category_name":"公司","address":"奥纳路188"},{"poiid":"B2094757D06BABFF4092","title":"中国工商银行上海市分行外高桥保税区支行","lon":"121.586916435","lat":"31.3484183636","category":"500","category_name":"未知分类","address":"上海市外高桥保税区马吉路28号"},{"poiid":"B2094654D46AABF44693","title":"可的(汤臣国际贸易大楼北)","lon":"121.58776","lat":"31.35039","category":"117","category_name":"便民商店/便利店","address":"基隆路6"},{"poiid":"B2094654D46AAAF44293","title":"上海玫洛国际贸易有限公司","lon":"121.59638","lat":"31.34606","category":"263","category_name":"公司","address":"奥纳路185"},{"poiid":"B2094654DB69A4F8449B","title":"星巴克咖啡(外高桥店)","lon":"121.59409","lat":"31.34077","category":"65","category_name":"咖啡厅","address":"浦东新区外高桥保税区加枫路24号"},{"poiid":"B2094654DB6AA5F4469E","title":"上海外联发D2工业园区","lon":"121.59429","lat":"31.34407","category":"45","category_name":"产业园区","address":"外高桥保税区富特北路200"},{"poiid":"B2094655D26FA6FB469C","title":"康发工业大楼(日京路)","lon":"121.59753","lat":"31.343","category":"46","category_name":"楼宇","address":"日京路118号"},{"poiid":"B2094654D46AAAF44099","title":"上海外联发D5工业园区(富特北路)","lon":"121.59568","lat":"31.34318","category":"45","category_name":"产业园区","address":"富特北路125-133(D5-14-18号)"}]