[{"poiid":"B2094655D36DA2F4499A","title":"翔殷路隧道","lon":"121.56697","lat":"31.30256","category":"250","category_name":"公园户外","address":"上海市杨浦区南翔殷路-浦东新区五洲大道"},{"poiid":"B2094757D06FA1FB409F","title":"上海理工大学第一教学楼","lon":"121.55567376","lat":"31.291738311","category":"253","category_name":"校园生活","address":"杨浦区军工路516号上海理工大学校园内湛恩大道"},{"poiid":"B2094757D068A7FF4493","title":"复兴岛公园","lon":"121.56190431","lat":"31.286679668","category":"196","category_name":"公园","address":"杨浦区共青路386号"},{"poiid":"B2094757D06FA6F84992","title":"上海理工大学第三教学楼","lon":"121.55627835","lat":"31.293536525","category":"253","category_name":"校园生活","address":"杨浦区军工路580号上海理工大学校园内勤勉大道"},{"poiid":"B2094757D068A2FD489B","title":"浦东大道东波路","lon":"121.575669","lat":"31.283804","category":"500","category_name":"未知分类","address":"上海浦东大道东波路"},{"poiid":"B2094757D06BABFA4998","title":"上海理工大学综合楼B区","lon":"121.5543021","lat":"31.290369839","category":"500","category_name":"未知分类","address":"上海市杨浦区军工路516号"},{"poiid":"B2094757D069A5F8459E","title":"上海理工大学大礼堂","lon":"121.55650302","lat":"31.292073276","category":"179","category_name":"音乐厅","address":"上海市杨浦区军工路516号"},{"poiid":"B2094757D16FA2F8489F","title":"活着就是最牛逼的信仰","lon":"121.557584339","lat":"31.2909997399","category":"500","category_name":"未知分类","address":"上海市杨浦区民治路"},{"poiid":"B2094757D06FA6FC409C","title":"上海海洋大学(军工路校区)","lon":"121.55672","lat":"31.28648","category":"52","category_name":"高等院校","address":"上海杨浦区军工路334号(近易初莲花)  "},{"poiid":"B2094654D568ABF8459A","title":"东沟新村","lon":"121.57725","lat":"31.292421","category":"47","category_name":"住宅区","address":"东沟新村位于浦东东沟镇(东清路)东行路247弄"},{"poiid":"B2094654D568A2FA439D","title":"上海理工大学第三学生公寓","lon":"121.55713","lat":"31.29555","category":"47","category_name":"住宅区","address":"上海理工大学第三学生公寓"},{"poiid":"B2094655D36CA6FB469B","title":"东沟","lon":"121.57252","lat":"31.28982","category":"38","category_name":"公交车站","address":""},{"poiid":"B2094757D16EA2F84398","title":"上海理工大学北校区操场","lon":"121.55577533","lat":"31.288551683","category":"500","category_name":"未知分类","address":"上海市杨浦区军工路"},{"poiid":"B2094750DB6FA2FF4399","title":"上海帝国皇家理工大学","lon":"121.556884","lat":"31.29532","category":"253","category_name":"校园生活","address":"杨浦区军工路516号"},{"poiid":"B2094654D568A2FA479B","title":"上海理工大学第四学生公寓一号楼","lon":"121.55662","lat":"31.29512","category":"47","category_name":"住宅区","address":""},{"poiid":"B2094757D065A1F54298","title":"上海理工大学运动场","lon":"121.556309874","lat":"31.2910243314","category":"253","category_name":"校园生活","address":"杨浦区军工路470号上海理工大学校园内"},{"poiid":"B2094655D26FA0F84892","title":"平凉路2767弄小区","lon":"121.564","lat":"31.2848","category":"47","category_name":"住宅区","address":"上海市杨浦区平凉路平凉路2767弄"},{"poiid":"B2094654DB6AA6FF439A","title":"晶波坊","lon":"121.57954","lat":"31.285055","category":"47","category_name":"住宅区","address":"东波路195弄1-125号"},{"poiid":"B2094757D16BA2FE459A","title":"浦东大道东靖路","lon":"121.57138033","lat":"31.291400449","category":"500","category_name":"未知分类","address":"上海浦东大道东靖路"},{"poiid":"B2094757D065A7F4459F","title":"上海理工大学第四教学楼","lon":"121.557355858","lat":"31.2865823801","category":"253","category_name":"校园生活","address":"杨浦区军工路334号上海理工大学(南校区)校园内诚信大道"},{"poiid":"B2094757D068A3FA469A","title":"上海理工大学第五食堂","lon":"121.557476759","lat":"31.2951382687","category":"253","category_name":"校园生活","address":"杨浦区军工路516号上海理工大学内"},{"poiid":"B2094654D568AAFA459E","title":"景源佳苑","lon":"121.57571","lat":"31.288227","category":"47","category_name":"住宅区","address":"上海市浦东新区浦东大道26弄"},{"poiid":"B2094757D168A7FD499C","title":"上海理工大学一公寓南楼","lon":"121.5580691","lat":"31.293708646","category":"500","category_name":"未知分类","address":"上海军工路516号最靠江"},{"poiid":"B2094757D16EA6FB4992","title":"全顺酒家","lon":"121.571752539","lat":"31.2924183726","category":"247","category_name":"餐饮美食","address":"上海浦东北路1290号"},{"poiid":"B2094757D064A7FB4199","title":"610终点站","lon":"121.57315518","lat":"31.288643785","category":"38","category_name":"公交车站","address":"上海浦东大道东靖路路口"},{"poiid":"B2094757D06BA1FF4299","title":"沪东中华造船集团7、8号码头","lon":"121.57068598","lat":"31.291395785","category":"260","category_name":"其他","address":"上海浦东北路1079号 浦东大道东靖路路口"},{"poiid":"B2094654D568AAF8439C","title":"新全顺","lon":"121.57306","lat":"31.29412","category":"70","category_name":"综合酒楼","address":"浦东新区东葛路1200号(近浦东北路)"},{"poiid":"B2094654D568A2FA479F","title":"上海理工大学第一学生公寓北楼","lon":"121.55784","lat":"31.29417","category":"47","category_name":"住宅区","address":""},{"poiid":"B2094654D568A2F84093","title":"时运苑","lon":"121.55441","lat":"31.288563","category":"47","category_name":"住宅区","address":"上海市杨浦区军工路"},{"poiid":"B2094757D065A7F8419A","title":"上海市新陆职校","lon":"121.572359","lat":"31.29031","category":"500","category_name":"未知分类","address":"上海浦东北路1010号"},{"poiid":"B2094654D568A2F8469B","title":"上海理工大学学生宿舍","lon":"121.56137","lat":"31.29019","category":"47","category_name":"住宅区","address":"共青路430"},{"poiid":"B2094654D568AAFB4293","title":"上海市新陆职业技术学校(东沟路)","lon":"121.57453","lat":"31.28939","category":"54","category_name":"职业技术学校","address":"东高路81"},{"poiid":"B2094654D568ABF94593","title":"上海东运船舶工程有限公司(东塘公路)","lon":"121.56954","lat":"31.29329","category":"263","category_name":"公司","address":""},{"poiid":"B2094654D568AAF9479E","title":"快客No.846","lon":"121.57344","lat":"31.29183","category":"117","category_name":"便民商店/便利店","address":"东沟镇"},{"poiid":"B2094654D568AAF9469B","title":"浦煤新村","lon":"121.57494","lat":"31.291819","category":"47","category_name":"住宅区","address":"东靖路6号"},{"poiid":"B2094757D164A2FC4398","title":"上海理工大学南校区五公寓四号楼","lon":"121.56063842","lat":"31.288753509","category":"500","category_name":"未知分类","address":"上海杨浦区军工路334号"},{"poiid":"B2094654D568AAF94792","title":"新浦煤小区","lon":"121.5732","lat":"31.291834","category":"47","category_name":"住宅区","address":"东靖路34-41"},{"poiid":"B2094654D568AAFE469D","title":"上海通华不绣钢压力容器工程有限公司","lon":"121.57168","lat":"31.29039","category":"263","category_name":"公司","address":"浦东北路1039"},{"poiid":"B2094751DA6BAAFB479F","title":"东方医院","lon":"121.57177","lat":"31.285564","category":"162","category_name":"医院","address":"上海市即墨路"},{"poiid":"B2094757D068ABF9459D","title":"上海理工大学二公寓三号楼","lon":"121.55772611","lat":"31.290753057","category":"253","category_name":"校园生活","address":"上海杨浦区军工路516号内"},{"poiid":"B2094757D16FA3F4449F","title":"东沟四村","lon":"121.57421","lat":"31.29084","category":"252","category_name":"楼宇机构","address":"上海市浦东新区东靖路"},{"poiid":"B2094654D568ABF9499B","title":"上海航道局朱家浜基地","lon":"121.56707","lat":"31.29735","category":"45","category_name":"产业园区","address":"东塘路140号"},{"poiid":"B2094751DB6CA3F9489C","title":"浦东大道东波路","lon":"121.572434","lat":"31.288077","category":"500","category_name":"未知分类","address":null},{"poiid":"B2094757D16CA1F4409E","title":"公助一村","lon":"121.561","lat":"31.2927","category":"500","category_name":"未知分类","address":"上海市杨浦区周家嘴路內江路"},{"poiid":"B2094654DB6BA1F9429E","title":"好德","lon":"121.57499","lat":"31.29027","category":"117","category_name":"便民商店/便利店","address":""},{"poiid":"B2094757D16AA2F5419A","title":"东沟幼儿园","lon":"121.574862339","lat":"31.2915777532","category":"57","category_name":"幼儿园","address":"上海浦煤新村"},{"poiid":"B2094655D26CA5FA449F","title":"东波苑二街坊","lon":"121.57686","lat":"31.28503","category":"47","category_name":"住宅区","address":"东波路49弄"},{"poiid":"B2094654D568A2FA429F","title":"学生宿舍(七)","lon":"121.55757","lat":"31.29432","category":"47","category_name":"住宅区","address":""},{"poiid":"B2094757D16DA0F84999","title":"重庆鸡公煲(东靖路店)","lon":"121.57638","lat":"31.29148","category":"71","category_name":"四川菜","address":"浦东新区东靖路850号(近东沟路)"},{"poiid":"B2094654D568A1F54198","title":"静心苑","lon":"121.576546054","lat":"31.284516793","category":"76","category_name":"上海菜","address":"浦东新区东波路69号"},{"poiid":"B2094655D36DA2F4499A","title":"翔殷路隧道","lon":"121.56697","lat":"31.30256","category":"250","category_name":"公园户外","address":"上海市杨浦区南翔殷路-浦东新区五洲大道"},{"poiid":"B2094757D06FA1FB409F","title":"上海理工大学第一教学楼","lon":"121.55567376","lat":"31.291738311","category":"253","category_name":"校园生活","address":"杨浦区军工路516号上海理工大学校园内湛恩大道"},{"poiid":"B2094757D068A7FF4493","title":"复兴岛公园","lon":"121.56190431","lat":"31.286679668","category":"196","category_name":"公园","address":"杨浦区共青路386号"},{"poiid":"B2094757D06FA6F84992","title":"上海理工大学第三教学楼","lon":"121.55627835","lat":"31.293536525","category":"253","category_name":"校园生活","address":"杨浦区军工路580号上海理工大学校园内勤勉大道"},{"poiid":"B2094757D068A2FD489B","title":"浦东大道东波路","lon":"121.575669","lat":"31.283804","category":"500","category_name":"未知分类","address":"上海浦东大道东波路"},{"poiid":"B2094757D06BABFA4998","title":"上海理工大学综合楼B区","lon":"121.5543021","lat":"31.290369839","category":"500","category_name":"未知分类","address":"上海市杨浦区军工路516号"},{"poiid":"B2094757D069A5F8459E","title":"上海理工大学大礼堂","lon":"121.55650302","lat":"31.292073276","category":"179","category_name":"音乐厅","address":"上海市杨浦区军工路516号"},{"poiid":"B2094757D16FA2F8489F","title":"活着就是最牛逼的信仰","lon":"121.557584339","lat":"31.2909997399","category":"500","category_name":"未知分类","address":"上海市杨浦区民治路"},{"poiid":"B2094757D06FA6FC409C","title":"上海海洋大学(军工路校区)","lon":"121.55672","lat":"31.28648","category":"52","category_name":"高等院校","address":"上海杨浦区军工路334号(近易初莲花)  "},{"poiid":"B2094654D568ABF8459A","title":"东沟新村","lon":"121.57725","lat":"31.292421","category":"47","category_name":"住宅区","address":"东沟新村位于浦东东沟镇(东清路)东行路247弄"},{"poiid":"B2094654D568A2FA439D","title":"上海理工大学第三学生公寓","lon":"121.55713","lat":"31.29555","category":"47","category_name":"住宅区","address":"上海理工大学第三学生公寓"},{"poiid":"B2094655D36CA6FB469B","title":"东沟","lon":"121.57252","lat":"31.28982","category":"38","category_name":"公交车站","address":""},{"poiid":"B2094757D16EA2F84398","title":"上海理工大学北校区操场","lon":"121.55577533","lat":"31.288551683","category":"500","category_name":"未知分类","address":"上海市杨浦区军工路"},{"poiid":"B2094750DB6FA2FF4399","title":"上海帝国皇家理工大学","lon":"121.556884","lat":"31.29532","category":"253","category_name":"校园生活","address":"杨浦区军工路516号"},{"poiid":"B2094654D568A2FA479B","title":"上海理工大学第四学生公寓一号楼","lon":"121.55662","lat":"31.29512","category":"47","category_name":"住宅区","address":""},{"poiid":"B2094757D065A1F54298","title":"上海理工大学运动场","lon":"121.556309874","lat":"31.2910243314","category":"253","category_name":"校园生活","address":"杨浦区军工路470号上海理工大学校园内"},{"poiid":"B2094655D26FA0F84892","title":"平凉路2767弄小区","lon":"121.564","lat":"31.2848","category":"47","category_name":"住宅区","address":"上海市杨浦区平凉路平凉路2767弄"},{"poiid":"B2094654DB6AA6FF439A","title":"晶波坊","lon":"121.57954","lat":"31.285055","category":"47","category_name":"住宅区","address":"东波路195弄1-125号"},{"poiid":"B2094757D16BA2FE459A","title":"浦东大道东靖路","lon":"121.57138033","lat":"31.291400449","category":"500","category_name":"未知分类","address":"上海浦东大道东靖路"},{"poiid":"B2094757D065A7F4459F","title":"上海理工大学第四教学楼","lon":"121.557355858","lat":"31.2865823801","category":"253","category_name":"校园生活","address":"杨浦区军工路334号上海理工大学(南校区)校园内诚信大道"},{"poiid":"B2094757D068A3FA469A","title":"上海理工大学第五食堂","lon":"121.557476759","lat":"31.2951382687","category":"253","category_name":"校园生活","address":"杨浦区军工路516号上海理工大学内"},{"poiid":"B2094654D568AAFA459E","title":"景源佳苑","lon":"121.57571","lat":"31.288227","category":"47","category_name":"住宅区","address":"上海市浦东新区浦东大道26弄"},{"poiid":"B2094757D168A7FD499C","title":"上海理工大学一公寓南楼","lon":"121.5580691","lat":"31.293708646","category":"500","category_name":"未知分类","address":"上海军工路516号最靠江"},{"poiid":"B2094757D16EA6FB4992","title":"全顺酒家","lon":"121.571752539","lat":"31.2924183726","category":"247","category_name":"餐饮美食","address":"上海浦东北路1290号"},{"poiid":"B2094757D064A7FB4199","title":"610终点站","lon":"121.57315518","lat":"31.288643785","category":"38","category_name":"公交车站","address":"上海浦东大道东靖路路口"},{"poiid":"B2094757D06BA1FF4299","title":"沪东中华造船集团7、8号码头","lon":"121.57068598","lat":"31.291395785","category":"260","category_name":"其他","address":"上海浦东北路1079号 浦东大道东靖路路口"},{"poiid":"B2094654D568AAF8439C","title":"新全顺","lon":"121.57306","lat":"31.29412","category":"70","category_name":"综合酒楼","address":"浦东新区东葛路1200号(近浦东北路)"},{"poiid":"B2094654D568A2FA479F","title":"上海理工大学第一学生公寓北楼","lon":"121.55784","lat":"31.29417","category":"47","category_name":"住宅区","address":""},{"poiid":"B2094654D568A2F84093","title":"时运苑","lon":"121.55441","lat":"31.288563","category":"47","category_name":"住宅区","address":"上海市杨浦区军工路"},{"poiid":"B2094757D065A7F8419A","title":"上海市新陆职校","lon":"121.572359","lat":"31.29031","category":"500","category_name":"未知分类","address":"上海浦东北路1010号"},{"poiid":"B2094654D568A2F8469B","title":"上海理工大学学生宿舍","lon":"121.56137","lat":"31.29019","category":"47","category_name":"住宅区","address":"共青路430"},{"poiid":"B2094654D568AAFB4293","title":"上海市新陆职业技术学校(东沟路)","lon":"121.57453","lat":"31.28939","category":"54","category_name":"职业技术学校","address":"东高路81"},{"poiid":"B2094654D568ABF94593","title":"上海东运船舶工程有限公司(东塘公路)","lon":"121.56954","lat":"31.29329","category":"263","category_name":"公司","address":""},{"poiid":"B2094654D568AAF9479E","title":"快客No.846","lon":"121.57344","lat":"31.29183","category":"117","category_name":"便民商店/便利店","address":"东沟镇"},{"poiid":"B2094654D568AAF9469B","title":"浦煤新村","lon":"121.57494","lat":"31.291819","category":"47","category_name":"住宅区","address":"东靖路6号"},{"poiid":"B2094757D164A2FC4398","title":"上海理工大学南校区五公寓四号楼","lon":"121.56063842","lat":"31.288753509","category":"500","category_name":"未知分类","address":"上海杨浦区军工路334号"},{"poiid":"B2094654D568AAF94792","title":"新浦煤小区","lon":"121.5732","lat":"31.291834","category":"47","category_name":"住宅区","address":"东靖路34-41"},{"poiid":"B2094654D568AAFE469D","title":"上海通华不绣钢压力容器工程有限公司","lon":"121.57168","lat":"31.29039","category":"263","category_name":"公司","address":"浦东北路1039"},{"poiid":"B2094751DA6BAAFB479F","title":"东方医院","lon":"121.57177","lat":"31.285564","category":"162","category_name":"医院","address":"上海市即墨路"},{"poiid":"B2094757D068ABF9459D","title":"上海理工大学二公寓三号楼","lon":"121.55772611","lat":"31.290753057","category":"253","category_name":"校园生活","address":"上海杨浦区军工路516号内"},{"poiid":"B2094757D16FA3F4449F","title":"东沟四村","lon":"121.57421","lat":"31.29084","category":"252","category_name":"楼宇机构","address":"上海市浦东新区东靖路"},{"poiid":"B2094654D568ABF9499B","title":"上海航道局朱家浜基地","lon":"121.56707","lat":"31.29735","category":"45","category_name":"产业园区","address":"东塘路140号"},{"poiid":"B2094751DB6CA3F9489C","title":"浦东大道东波路","lon":"121.572434","lat":"31.288077","category":"500","category_name":"未知分类","address":null},{"poiid":"B2094757D16CA1F4409E","title":"公助一村","lon":"121.561","lat":"31.2927","category":"500","category_name":"未知分类","address":"上海市杨浦区周家嘴路內江路"},{"poiid":"B2094654DB6BA1F9429E","title":"好德","lon":"121.57499","lat":"31.29027","category":"117","category_name":"便民商店/便利店","address":""},{"poiid":"B2094757D16AA2F5419A","title":"东沟幼儿园","lon":"121.574862339","lat":"31.2915777532","category":"57","category_name":"幼儿园","address":"上海浦煤新村"},{"poiid":"B2094655D26CA5FA449F","title":"东波苑二街坊","lon":"121.57686","lat":"31.28503","category":"47","category_name":"住宅区","address":"东波路49弄"},{"poiid":"B2094654D568A2FA429F","title":"学生宿舍(七)","lon":"121.55757","lat":"31.29432","category":"47","category_name":"住宅区","address":""},{"poiid":"B2094757D16DA0F84999","title":"重庆鸡公煲(东靖路店)","lon":"121.57638","lat":"31.29148","category":"71","category_name":"四川菜","address":"浦东新区东靖路850号(近东沟路)"},{"poiid":"B2094654D568A1F54198","title":"静心苑","lon":"121.576546054","lat":"31.284516793","category":"76","category_name":"上海菜","address":"浦东新区东波路69号"},{"poiid":"B2094655D36DA2F4499A","title":"翔殷路隧道","lon":"121.56697","lat":"31.30256","category":"250","category_name":"公园户外","address":"上海市杨浦区南翔殷路-浦东新区五洲大道"},{"poiid":"B2094757D06FA1FB409F","title":"上海理工大学第一教学楼","lon":"121.55567376","lat":"31.291738311","category":"253","category_name":"校园生活","address":"杨浦区军工路516号上海理工大学校园内湛恩大道"},{"poiid":"B2094757D068A7FF4493","title":"复兴岛公园","lon":"121.56190431","lat":"31.286679668","category":"196","category_name":"公园","address":"杨浦区共青路386号"},{"poiid":"B2094757D06FA6F84992","title":"上海理工大学第三教学楼","lon":"121.55627835","lat":"31.293536525","category":"253","category_name":"校园生活","address":"杨浦区军工路580号上海理工大学校园内勤勉大道"},{"poiid":"B2094757D068A2FD489B","title":"浦东大道东波路","lon":"121.575669","lat":"31.283804","category":"500","category_name":"未知分类","address":"上海浦东大道东波路"},{"poiid":"B2094757D06BABFA4998","title":"上海理工大学综合楼B区","lon":"121.5543021","lat":"31.290369839","category":"500","category_name":"未知分类","address":"上海市杨浦区军工路516号"},{"poiid":"B2094757D069A5F8459E","title":"上海理工大学大礼堂","lon":"121.55650302","lat":"31.292073276","category":"179","category_name":"音乐厅","address":"上海市杨浦区军工路516号"},{"poiid":"B2094757D16FA2F8489F","title":"活着就是最牛逼的信仰","lon":"121.557584339","lat":"31.2909997399","category":"500","category_name":"未知分类","address":"上海市杨浦区民治路"},{"poiid":"B2094757D06FA6FC409C","title":"上海海洋大学(军工路校区)","lon":"121.55672","lat":"31.28648","category":"52","category_name":"高等院校","address":"上海杨浦区军工路334号(近易初莲花)  "},{"poiid":"B2094654D568ABF8459A","title":"东沟新村","lon":"121.57725","lat":"31.292421","category":"47","category_name":"住宅区","address":"东沟新村位于浦东东沟镇(东清路)东行路247弄"},{"poiid":"B2094654D568A2FA439D","title":"上海理工大学第三学生公寓","lon":"121.55713","lat":"31.29555","category":"47","category_name":"住宅区","address":"上海理工大学第三学生公寓"},{"poiid":"B2094655D36CA6FB469B","title":"东沟","lon":"121.57252","lat":"31.28982","category":"38","category_name":"公交车站","address":""},{"poiid":"B2094757D16EA2F84398","title":"上海理工大学北校区操场","lon":"121.55577533","lat":"31.288551683","category":"500","category_name":"未知分类","address":"上海市杨浦区军工路"},{"poiid":"B2094750DB6FA2FF4399","title":"上海帝国皇家理工大学","lon":"121.556884","lat":"31.29532","category":"253","category_name":"校园生活","address":"杨浦区军工路516号"},{"poiid":"B2094654D568A2FA479B","title":"上海理工大学第四学生公寓一号楼","lon":"121.55662","lat":"31.29512","category":"47","category_name":"住宅区","address":""},{"poiid":"B2094757D065A1F54298","title":"上海理工大学运动场","lon":"121.556309874","lat":"31.2910243314","category":"253","category_name":"校园生活","address":"杨浦区军工路470号上海理工大学校园内"},{"poiid":"B2094655D26FA0F84892","title":"平凉路2767弄小区","lon":"121.564","lat":"31.2848","category":"47","category_name":"住宅区","address":"上海市杨浦区平凉路平凉路2767弄"},{"poiid":"B2094654DB6AA6FF439A","title":"晶波坊","lon":"121.57954","lat":"31.285055","category":"47","category_name":"住宅区","address":"东波路195弄1-125号"},{"poiid":"B2094757D16BA2FE459A","title":"浦东大道东靖路","lon":"121.57138033","lat":"31.291400449","category":"500","category_name":"未知分类","address":"上海浦东大道东靖路"},{"poiid":"B2094757D065A7F4459F","title":"上海理工大学第四教学楼","lon":"121.557355858","lat":"31.2865823801","category":"253","category_name":"校园生活","address":"杨浦区军工路334号上海理工大学(南校区)校园内诚信大道"},{"poiid":"B2094757D068A3FA469A","title":"上海理工大学第五食堂","lon":"121.557476759","lat":"31.2951382687","category":"253","category_name":"校园生活","address":"杨浦区军工路516号上海理工大学内"},{"poiid":"B2094654D568AAFA459E","title":"景源佳苑","lon":"121.57571","lat":"31.288227","category":"47","category_name":"住宅区","address":"上海市浦东新区浦东大道26弄"},{"poiid":"B2094757D168A7FD499C","title":"上海理工大学一公寓南楼","lon":"121.5580691","lat":"31.293708646","category":"500","category_name":"未知分类","address":"上海军工路516号最靠江"},{"poiid":"B2094757D16EA6FB4992","title":"全顺酒家","lon":"121.571752539","lat":"31.2924183726","category":"247","category_name":"餐饮美食","address":"上海浦东北路1290号"},{"poiid":"B2094757D064A7FB4199","title":"610终点站","lon":"121.57315518","lat":"31.288643785","category":"38","category_name":"公交车站","address":"上海浦东大道东靖路路口"},{"poiid":"B2094757D06BA1FF4299","title":"沪东中华造船集团7、8号码头","lon":"121.57068598","lat":"31.291395785","category":"260","category_name":"其他","address":"上海浦东北路1079号 浦东大道东靖路路口"},{"poiid":"B2094654D568AAF8439C","title":"新全顺","lon":"121.57306","lat":"31.29412","category":"70","category_name":"综合酒楼","address":"浦东新区东葛路1200号(近浦东北路)"},{"poiid":"B2094654D568A2FA479F","title":"上海理工大学第一学生公寓北楼","lon":"121.55784","lat":"31.29417","category":"47","category_name":"住宅区","address":""},{"poiid":"B2094654D568A2F84093","title":"时运苑","lon":"121.55441","lat":"31.288563","category":"47","category_name":"住宅区","address":"上海市杨浦区军工路"},{"poiid":"B2094757D065A7F8419A","title":"上海市新陆职校","lon":"121.572359","lat":"31.29031","category":"500","category_name":"未知分类","address":"上海浦东北路1010号"},{"poiid":"B2094654D568A2F8469B","title":"上海理工大学学生宿舍","lon":"121.56137","lat":"31.29019","category":"47","category_name":"住宅区","address":"共青路430"},{"poiid":"B2094654D568AAFB4293","title":"上海市新陆职业技术学校(东沟路)","lon":"121.57453","lat":"31.28939","category":"54","category_name":"职业技术学校","address":"东高路81"},{"poiid":"B2094654D568ABF94593","title":"上海东运船舶工程有限公司(东塘公路)","lon":"121.56954","lat":"31.29329","category":"263","category_name":"公司","address":""},{"poiid":"B2094654D568AAF9479E","title":"快客No.846","lon":"121.57344","lat":"31.29183","category":"117","category_name":"便民商店/便利店","address":"东沟镇"},{"poiid":"B2094654D568AAF9469B","title":"浦煤新村","lon":"121.57494","lat":"31.291819","category":"47","category_name":"住宅区","address":"东靖路6号"},{"poiid":"B2094757D164A2FC4398","title":"上海理工大学南校区五公寓四号楼","lon":"121.56063842","lat":"31.288753509","category":"500","category_name":"未知分类","address":"上海杨浦区军工路334号"},{"poiid":"B2094654D568AAF94792","title":"新浦煤小区","lon":"121.5732","lat":"31.291834","category":"47","category_name":"住宅区","address":"东靖路34-41"},{"poiid":"B2094654D568AAFE469D","title":"上海通华不绣钢压力容器工程有限公司","lon":"121.57168","lat":"31.29039","category":"263","category_name":"公司","address":"浦东北路1039"},{"poiid":"B2094751DA6BAAFB479F","title":"东方医院","lon":"121.57177","lat":"31.285564","category":"162","category_name":"医院","address":"上海市即墨路"},{"poiid":"B2094757D068ABF9459D","title":"上海理工大学二公寓三号楼","lon":"121.55772611","lat":"31.290753057","category":"253","category_name":"校园生活","address":"上海杨浦区军工路516号内"},{"poiid":"B2094757D16FA3F4449F","title":"东沟四村","lon":"121.57421","lat":"31.29084","category":"252","category_name":"楼宇机构","address":"上海市浦东新区东靖路"},{"poiid":"B2094654D568ABF9499B","title":"上海航道局朱家浜基地","lon":"121.56707","lat":"31.29735","category":"45","category_name":"产业园区","address":"东塘路140号"},{"poiid":"B2094751DB6CA3F9489C","title":"浦东大道东波路","lon":"121.572434","lat":"31.288077","category":"500","category_name":"未知分类","address":null},{"poiid":"B2094757D16CA1F4409E","title":"公助一村","lon":"121.561","lat":"31.2927","category":"500","category_name":"未知分类","address":"上海市杨浦区周家嘴路內江路"},{"poiid":"B2094654DB6BA1F9429E","title":"好德","lon":"121.57499","lat":"31.29027","category":"117","category_name":"便民商店/便利店","address":""},{"poiid":"B2094757D16AA2F5419A","title":"东沟幼儿园","lon":"121.574862339","lat":"31.2915777532","category":"57","category_name":"幼儿园","address":"上海浦煤新村"},{"poiid":"B2094655D26CA5FA449F","title":"东波苑二街坊","lon":"121.57686","lat":"31.28503","category":"47","category_name":"住宅区","address":"东波路49弄"},{"poiid":"B2094654D568A2FA429F","title":"学生宿舍(七)","lon":"121.55757","lat":"31.29432","category":"47","category_name":"住宅区","address":""},{"poiid":"B2094757D16DA0F84999","title":"重庆鸡公煲(东靖路店)","lon":"121.57638","lat":"31.29148","category":"71","category_name":"四川菜","address":"浦东新区东靖路850号(近东沟路)"},{"poiid":"B2094654D568A1F54198","title":"静心苑","lon":"121.576546054","lat":"31.284516793","category":"76","category_name":"上海菜","address":"浦东新区东波路69号"},{"poiid":"B2094655D36DA2F4499A","title":"翔殷路隧道","lon":"121.56697","lat":"31.30256","category":"250","category_name":"公园户外","address":"上海市杨浦区南翔殷路-浦东新区五洲大道"},{"poiid":"B2094757D06FA1FB409F","title":"上海理工大学第一教学楼","lon":"121.55567376","lat":"31.291738311","category":"253","category_name":"校园生活","address":"杨浦区军工路516号上海理工大学校园内湛恩大道"},{"poiid":"B2094757D068A7FF4493","title":"复兴岛公园","lon":"121.56190431","lat":"31.286679668","category":"196","category_name":"公园","address":"杨浦区共青路386号"},{"poiid":"B2094757D06FA6F84992","title":"上海理工大学第三教学楼","lon":"121.55627835","lat":"31.293536525","category":"253","category_name":"校园生活","address":"杨浦区军工路580号上海理工大学校园内勤勉大道"},{"poiid":"B2094757D068A2FD489B","title":"浦东大道东波路","lon":"121.575669","lat":"31.283804","category":"500","category_name":"未知分类","address":"上海浦东大道东波路"},{"poiid":"B2094757D06BABFA4998","title":"上海理工大学综合楼B区","lon":"121.5543021","lat":"31.290369839","category":"500","category_name":"未知分类","address":"上海市杨浦区军工路516号"},{"poiid":"B2094757D069A5F8459E","title":"上海理工大学大礼堂","lon":"121.55650302","lat":"31.292073276","category":"179","category_name":"音乐厅","address":"上海市杨浦区军工路516号"},{"poiid":"B2094757D16FA2F8489F","title":"活着就是最牛逼的信仰","lon":"121.557584339","lat":"31.2909997399","category":"500","category_name":"未知分类","address":"上海市杨浦区民治路"},{"poiid":"B2094757D06FA6FC409C","title":"上海海洋大学(军工路校区)","lon":"121.55672","lat":"31.28648","category":"52","category_name":"高等院校","address":"上海杨浦区军工路334号(近易初莲花)  "},{"poiid":"B2094654D568ABF8459A","title":"东沟新村","lon":"121.57725","lat":"31.292421","category":"47","category_name":"住宅区","address":"东沟新村位于浦东东沟镇(东清路)东行路247弄"},{"poiid":"B2094654D568A2FA439D","title":"上海理工大学第三学生公寓","lon":"121.55713","lat":"31.29555","category":"47","category_name":"住宅区","address":"上海理工大学第三学生公寓"},{"poiid":"B2094655D36CA6FB469B","title":"东沟","lon":"121.57252","lat":"31.28982","category":"38","category_name":"公交车站","address":""},{"poiid":"B2094757D16EA2F84398","title":"上海理工大学北校区操场","lon":"121.55577533","lat":"31.288551683","category":"500","category_name":"未知分类","address":"上海市杨浦区军工路"},{"poiid":"B2094750DB6FA2FF4399","title":"上海帝国皇家理工大学","lon":"121.556884","lat":"31.29532","category":"253","category_name":"校园生活","address":"杨浦区军工路516号"},{"poiid":"B2094654D568A2FA479B","title":"上海理工大学第四学生公寓一号楼","lon":"121.55662","lat":"31.29512","category":"47","category_name":"住宅区","address":""},{"poiid":"B2094757D065A1F54298","title":"上海理工大学运动场","lon":"121.556309874","lat":"31.2910243314","category":"253","category_name":"校园生活","address":"杨浦区军工路470号上海理工大学校园内"},{"poiid":"B2094655D26FA0F84892","title":"平凉路2767弄小区","lon":"121.564","lat":"31.2848","category":"47","category_name":"住宅区","address":"上海市杨浦区平凉路平凉路2767弄"},{"poiid":"B2094654DB6AA6FF439A","title":"晶波坊","lon":"121.57954","lat":"31.285055","category":"47","category_name":"住宅区","address":"东波路195弄1-125号"},{"poiid":"B2094757D16BA2FE459A","title":"浦东大道东靖路","lon":"121.57138033","lat":"31.291400449","category":"500","category_name":"未知分类","address":"上海浦东大道东靖路"},{"poiid":"B2094757D065A7F4459F","title":"上海理工大学第四教学楼","lon":"121.557355858","lat":"31.2865823801","category":"253","category_name":"校园生活","address":"杨浦区军工路334号上海理工大学(南校区)校园内诚信大道"},{"poiid":"B2094757D068A3FA469A","title":"上海理工大学第五食堂","lon":"121.557476759","lat":"31.2951382687","category":"253","category_name":"校园生活","address":"杨浦区军工路516号上海理工大学内"},{"poiid":"B2094654D568AAFA459E","title":"景源佳苑","lon":"121.57571","lat":"31.288227","category":"47","category_name":"住宅区","address":"上海市浦东新区浦东大道26弄"},{"poiid":"B2094757D168A7FD499C","title":"上海理工大学一公寓南楼","lon":"121.5580691","lat":"31.293708646","category":"500","category_name":"未知分类","address":"上海军工路516号最靠江"},{"poiid":"B2094757D16EA6FB4992","title":"全顺酒家","lon":"121.571752539","lat":"31.2924183726","category":"247","category_name":"餐饮美食","address":"上海浦东北路1290号"},{"poiid":"B2094757D064A7FB4199","title":"610终点站","lon":"121.57315518","lat":"31.288643785","category":"38","category_name":"公交车站","address":"上海浦东大道东靖路路口"},{"poiid":"B2094757D06BA1FF4299","title":"沪东中华造船集团7、8号码头","lon":"121.57068598","lat":"31.291395785","category":"260","category_name":"其他","address":"上海浦东北路1079号 浦东大道东靖路路口"},{"poiid":"B2094654D568AAF8439C","title":"新全顺","lon":"121.57306","lat":"31.29412","category":"70","category_name":"综合酒楼","address":"浦东新区东葛路1200号(近浦东北路)"},{"poiid":"B2094654D568A2FA479F","title":"上海理工大学第一学生公寓北楼","lon":"121.55784","lat":"31.29417","category":"47","category_name":"住宅区","address":""},{"poiid":"B2094654D568A2F84093","title":"时运苑","lon":"121.55441","lat":"31.288563","category":"47","category_name":"住宅区","address":"上海市杨浦区军工路"},{"poiid":"B2094757D065A7F8419A","title":"上海市新陆职校","lon":"121.572359","lat":"31.29031","category":"500","category_name":"未知分类","address":"上海浦东北路1010号"},{"poiid":"B2094654D568A2F8469B","title":"上海理工大学学生宿舍","lon":"121.56137","lat":"31.29019","category":"47","category_name":"住宅区","address":"共青路430"},{"poiid":"B2094654D568AAFB4293","title":"上海市新陆职业技术学校(东沟路)","lon":"121.57453","lat":"31.28939","category":"54","category_name":"职业技术学校","address":"东高路81"},{"poiid":"B2094654D568ABF94593","title":"上海东运船舶工程有限公司(东塘公路)","lon":"121.56954","lat":"31.29329","category":"263","category_name":"公司","address":""},{"poiid":"B2094654D568AAF9479E","title":"快客No.846","lon":"121.57344","lat":"31.29183","category":"117","category_name":"便民商店/便利店","address":"东沟镇"},{"poiid":"B2094654D568AAF9469B","title":"浦煤新村","lon":"121.57494","lat":"31.291819","category":"47","category_name":"住宅区","address":"东靖路6号"},{"poiid":"B2094757D164A2FC4398","title":"上海理工大学南校区五公寓四号楼","lon":"121.56063842","lat":"31.288753509","category":"500","category_name":"未知分类","address":"上海杨浦区军工路334号"},{"poiid":"B2094654D568AAF94792","title":"新浦煤小区","lon":"121.5732","lat":"31.291834","category":"47","category_name":"住宅区","address":"东靖路34-41"},{"poiid":"B2094654D568AAFE469D","title":"上海通华不绣钢压力容器工程有限公司","lon":"121.57168","lat":"31.29039","category":"263","category_name":"公司","address":"浦东北路1039"},{"poiid":"B2094751DA6BAAFB479F","title":"东方医院","lon":"121.57177","lat":"31.285564","category":"162","category_name":"医院","address":"上海市即墨路"},{"poiid":"B2094757D068ABF9459D","title":"上海理工大学二公寓三号楼","lon":"121.55772611","lat":"31.290753057","category":"253","category_name":"校园生活","address":"上海杨浦区军工路516号内"},{"poiid":"B2094757D16FA3F4449F","title":"东沟四村","lon":"121.57421","lat":"31.29084","category":"252","category_name":"楼宇机构","address":"上海市浦东新区东靖路"},{"poiid":"B2094654D568ABF9499B","title":"上海航道局朱家浜基地","lon":"121.56707","lat":"31.29735","category":"45","category_name":"产业园区","address":"东塘路140号"},{"poiid":"B2094751DB6CA3F9489C","title":"浦东大道东波路","lon":"121.572434","lat":"31.288077","category":"500","category_name":"未知分类","address":null},{"poiid":"B2094757D16CA1F4409E","title":"公助一村","lon":"121.561","lat":"31.2927","category":"500","category_name":"未知分类","address":"上海市杨浦区周家嘴路內江路"},{"poiid":"B2094654DB6BA1F9429E","title":"好德","lon":"121.57499","lat":"31.29027","category":"117","category_name":"便民商店/便利店","address":""},{"poiid":"B2094757D16AA2F5419A","title":"东沟幼儿园","lon":"121.574862339","lat":"31.2915777532","category":"57","category_name":"幼儿园","address":"上海浦煤新村"},{"poiid":"B2094655D26CA5FA449F","title":"东波苑二街坊","lon":"121.57686","lat":"31.28503","category":"47","category_name":"住宅区","address":"东波路49弄"},{"poiid":"B2094654D568A2FA429F","title":"学生宿舍(七)","lon":"121.55757","lat":"31.29432","category":"47","category_name":"住宅区","address":""},{"poiid":"B2094757D16DA0F84999","title":"重庆鸡公煲(东靖路店)","lon":"121.57638","lat":"31.29148","category":"71","category_name":"四川菜","address":"浦东新区东靖路850号(近东沟路)"},{"poiid":"B2094654D568A1F54198","title":"静心苑","lon":"121.576546054","lat":"31.284516793","category":"76","category_name":"上海菜","address":"浦东新区东波路69号"}]