[{"poiid":"B2094654DB65A6FA429A","title":"上海市第八人民医院","lon":"121.43375046511653","lat":"31.167588930222983","category":"162","category_name":"医院","address":"徐汇区漕宝路8号(近漕溪路)"},{"poiid":"B2094654D564A3F8459C","title":"辛香汇(漕溪路)","lon":"121.43425","lat":"31.16899","category":"71","category_name":"四川菜","address":"徐汇区漕溪路280号(近漕宝路)"},{"poiid":"B2094655D26FA5FE4393","title":"上海光大会展中心","lon":"121.42892","lat":"31.16707","category":"260","category_name":"其他","address":"徐汇区漕宝路66号光大会展中心国际大酒店1楼(近习勤路)"},{"poiid":"B2094757D06FA2F9479C","title":"光大会展中心国际大酒店","lon":"121.429373","lat":"31.168133","category":"214","category_name":"四星级宾馆","address":"上海市徐汇区漕宝路66号(光大会展中心旁)"},{"poiid":"B2094757D06EABF5429D","title":"漕宝路地铁站","lon":"121.43500667","lat":"31.168222633","category":"36","category_name":"地铁站","address":"上海轨道交通,一号线,轨交漕宝路站,1"},{"poiid":"B2094757D66EA2FE449B","title":"上海大饭堂","lon":"121.43188458","lat":"31.165935174","category":"76","category_name":"上海菜","address":"徐汇区康健路28号(近钦州路)"},{"poiid":"B2094757D165A0FA459C","title":"漕宝路","lon":"121.429336586","lat":"31.1651441589","category":"500","category_name":"未知分类","address":"上海市徐汇区漕宝路"},{"poiid":"B2094752D669A0FA499D","title":"3Quarks真密室","lon":"121.430414","lat":"31.170023","category":"248","category_name":"生活娱乐","address":"上海市钦州路518号"},{"poiid":"B2094757D16CA6F84693","title":"沪闵高架南站上匝道","lon":"121.43315058","lat":"31.164494146","category":"500","category_name":"未知分类","address":"上海市徐汇区漕宝路"},{"poiid":"B2094655D269AAFC439A","title":"华夏宾馆","lon":"121.42989","lat":"31.1678","category":"217","category_name":"旅馆招待所","address":"徐汇区漕宝路38号华夏宾馆2楼(近钦州路)"},{"poiid":"B2094654D564A0F4429A","title":"上海市第八人民医院门诊部","lon":"121.4341","lat":"31.16753","category":"162","category_name":"医院","address":"沪闵路9802"},{"poiid":"B2094757D16EABFE469D","title":"一号线漕宝路站","lon":"121.434171986","lat":"31.1680311153","category":"500","category_name":"未知分类","address":"上海漕宝路"},{"poiid":"B2094757D06BA6FD4792","title":"五木铁板烧(漕宝路店)","lon":"121.43019458","lat":"31.168261219","category":"269","category_name":"烧烤","address":"徐汇区漕宝路38号华夏宾馆1楼(近钦州路)"},{"poiid":"B2094654D564A0F4419A","title":"上海市第八人民医院(北门)","lon":"121.43288","lat":"31.16809","category":"656","category_name":"大门","address":"漕宝路8号"},{"poiid":"B2094654DB64A6F4409A","title":"汉庭快捷(光大店)","lon":"121.43547","lat":"31.16827","category":"216","category_name":"经济型连锁酒店","address":"徐汇区龙漕路2号(地铁1号线漕宝路站4号口)"},{"poiid":"B2094655D36CA7F5449E","title":"冠生园路沪闵路","lon":"121.43067","lat":"31.16351","category":"38","category_name":"公交车站","address":""},{"poiid":"B2094757D16EA5F9439D","title":"卡好日本料理","lon":"121.42932","lat":"31.16821","category":"95","category_name":"日本料理","address":"徐汇区漕宝路59号(近光大会展中心)"},{"poiid":"B2094757D06BA1F94493","title":"漕河景苑","lon":"121.42992","lat":"31.164713","category":"47","category_name":"住宅区","address":"上海市徐汇区康健路58弄"},{"poiid":"B2094757D16AA4FF4093","title":"八五医院","lon":"121.435044586","lat":"31.1669841949","category":"162","category_name":"医院","address":"上海漕溪路"},{"poiid":"B2094655D36DA6FC419F","title":"漕河泾","lon":"121.4326","lat":"31.16836","category":"38","category_name":"公交车站","address":""},{"poiid":"B2094757D16AA1FC4092","title":"玲珑面馆","lon":"121.432861086","lat":"31.1654510983","category":"68","category_name":"快餐厅","address":"徐汇区康健路11号(近沪闵路)"},{"poiid":"B2094750DA6EABFC469C","title":"徐家汇美罗城","lon":"121.4346","lat":"31.165288","category":"500","category_name":"未知分类","address":null},{"poiid":"B2094654D564A0FB489A","title":"九彩天大酒楼","lon":"121.43016","lat":"31.16786","category":"76","category_name":"上海菜","address":"徐汇区漕宝路38号华夏宾馆2楼(漕溪路口)"},{"poiid":"B2094757D06FA5F44498","title":"宜芝多(漕宝路店)","lon":"121.434270467","lat":"31.1685158217","category":"112","category_name":"糕饼店","address":"徐汇区漕宝路36号(漕溪路口)"},{"poiid":"B2094655D26FA6F5499E","title":"九弄小区","lon":"121.43225","lat":"31.166279","category":"47","category_name":"住宅区","address":"康健路25弄1-35号"},{"poiid":"B2094757D068A0FA429C","title":"全家便利(漕宝路店)","lon":"121.43216296","lat":"31.168398727","category":"117","category_name":"便民商店/便利店","address":"上海徐汇区漕宝路36号1楼(近钦州路)"},{"poiid":"B2094757D069A1F94093","title":"港饮港食 光大店","lon":"121.42796","lat":"31.16538","category":"72","category_name":"广东菜","address":"徐汇区漕宝路80号光大会展中心D座1楼(习勤路口)"},{"poiid":"B2094757D66AA0F9469D","title":"漕龙沈记酒楼","lon":"121.43443832498","lat":"31.168168938409","category":"76","category_name":"上海菜","address":"徐汇区漕溪路121号(近宜家)"},{"poiid":"B2094655D26FA6F5499F","title":"康惠苑","lon":"121.43216","lat":"31.16518","category":"47","category_name":"住宅区","address":"都林嘉园位于浦东浦东新区上南路3759弄1号"},{"poiid":"B2094757D465A4FE4299","title":"重庆鸡公煲 康健路店","lon":"121.430665054","lat":"31.165526793","category":"71","category_name":"四川菜","address":"徐汇区康健路45号农工商超市附近(钦州路口)"},{"poiid":"B2094757D465A3FE489C","title":"四季草堂 漕溪路店","lon":"121.434560054","lat":"31.168550793","category":"76","category_name":"上海菜","address":"徐汇区漕溪路251弄望族城内(近漕宝路)"},{"poiid":"B2094654D564A0F4429D","title":"泰成商务楼","lon":"121.43392","lat":"31.16632","category":"46","category_name":"楼宇","address":"上海,上海市,沪闵路9510号"},{"poiid":"B2094757D464AAF9469B","title":"集集小镇 龙漕店 Jijitown","lon":"121.434757054","lat":"31.168068793","category":"68","category_name":"快餐厅","address":"徐汇区龙漕路2号(近漕宝路)"},{"poiid":"B2094654D564A0FA4899","title":"上海光大会展中心F座","lon":"121.42871","lat":"31.16653","category":"46","category_name":"楼宇","address":"漕宝路86"},{"poiid":"B2094654DB6BA7FB4093","title":"和信商务大楼","lon":"121.4317","lat":"31.16787","category":"46","category_name":"楼宇","address":"漕宝路36"},{"poiid":"B2094654D564A0F4429E","title":"市八医院发热门诊","lon":"121.43397","lat":"31.16693","category":"162","category_name":"医院","address":""},{"poiid":"B2094654D564A3F8449F","title":"街客 漕宝店 Jack Hut","lon":"121.433699054","lat":"31.168074793","category":"113","category_name":"冷饮店","address":"徐汇区漕宝路25号(近漕宝路地铁口)"},{"poiid":"B2094654DB6CA6F84093","title":"创意阁","lon":"121.433","lat":"31.169","category":"46","category_name":"楼宇","address":"上海徐汇区冠生园路231号徐汇创意阁"},{"poiid":"B2094655D268A4F94999","title":"中虹汇之苑(边门)","lon":"121.43077","lat":"31.16641","category":"47","category_name":"住宅区","address":"上海市徐汇区钦州路428弄"},{"poiid":"B2094654D564A0FB4899","title":"全家(漕宝路)","lon":"121.43181","lat":"31.16807","category":"117","category_name":"便民商店/便利店","address":"漕宝路36-1"},{"poiid":"B2094757D06BA4FE429B","title":"口吅品牛肉面馆 漕宝路店","lon":"121.430776054","lat":"31.168222793","category":"68","category_name":"快餐厅","address":"徐汇区漕宝路43号(近钦州路)"},{"poiid":"B2094757D065A2FF459C","title":"上海银行(漕河泾支行)","lon":"121.43179958","lat":"31.16625818","category":"150","category_name":"银行","address":"徐汇区康健路66–70号"},{"poiid":"B2094654D564A0FB409F","title":"九弄小区(南门)","lon":"121.4323","lat":"31.16571","category":"47","category_name":"住宅区","address":"康健路25弄1-35号"},{"poiid":"B2094757D569A7FE4998","title":"上海光大会展中心东馆(北门)","lon":"121.42962212","lat":"31.16755859","category":"48","category_name":"楼宇大门","address":"漕宝路78号"},{"poiid":"B2094757D069AAFC4599","title":"四海游龙 光大店","lon":"121.427963","lat":"31.166368","category":"68","category_name":"快餐厅","address":"徐汇区漕宝路78号光大会展中心东馆1楼"},{"poiid":"B2094655D26AA2F5479F","title":"光大会展","lon":"121.42893","lat":"31.16707","category":"247","category_name":"餐饮美食","address":"徐汇区漕宝路78号(近习勤路)"},{"poiid":"B2094654D564A0F4429B","title":"上海市血液中心徐汇爱心献血屋","lon":"121.43411","lat":"31.16734","category":"162","category_name":"医院","address":"沪闵路9816"},{"poiid":"B2094655D268A7F8439C","title":"康健路43弄小区(西一号门)","lon":"121.43106","lat":"31.16663","category":"47","category_name":"住宅区","address":"康健路43弄"},{"poiid":"B2094757D168A7F5419D","title":"泰成花苑","lon":"121.4334","lat":"31.166222","category":"47","category_name":"住宅区","address":"上海沪闵路9512弄"},{"poiid":"B2094753DB69A6FC429E","title":"上海交通大学（徐汇校区）","lon":"121.436498","lat":"31.199753","category":"500","category_name":"未知分类","address":"上海市 上海市徐汇区华山路1954号"},{"poiid":"B2094654DB65A6FA429A","title":"上海市第八人民医院","lon":"121.43375046511653","lat":"31.167588930222983","category":"162","category_name":"医院","address":"徐汇区漕宝路8号(近漕溪路)"},{"poiid":"B2094654D564A3F8459C","title":"辛香汇(漕溪路)","lon":"121.43425","lat":"31.16899","category":"71","category_name":"四川菜","address":"徐汇区漕溪路280号(近漕宝路)"},{"poiid":"B2094655D26FA5FE4393","title":"上海光大会展中心","lon":"121.42892","lat":"31.16707","category":"260","category_name":"其他","address":"徐汇区漕宝路66号光大会展中心国际大酒店1楼(近习勤路)"},{"poiid":"B2094757D06FA2F9479C","title":"光大会展中心国际大酒店","lon":"121.429373","lat":"31.168133","category":"214","category_name":"四星级宾馆","address":"上海市徐汇区漕宝路66号(光大会展中心旁)"},{"poiid":"B2094757D06EABF5429D","title":"漕宝路地铁站","lon":"121.43500667","lat":"31.168222633","category":"36","category_name":"地铁站","address":"上海轨道交通,一号线,轨交漕宝路站,1"},{"poiid":"B2094757D66EA2FE449B","title":"上海大饭堂","lon":"121.43188458","lat":"31.165935174","category":"76","category_name":"上海菜","address":"徐汇区康健路28号(近钦州路)"},{"poiid":"B2094757D165A0FA459C","title":"漕宝路","lon":"121.429336586","lat":"31.1651441589","category":"500","category_name":"未知分类","address":"上海市徐汇区漕宝路"},{"poiid":"B2094752D669A0FA499D","title":"3Quarks真密室","lon":"121.430414","lat":"31.170023","category":"248","category_name":"生活娱乐","address":"上海市钦州路518号"},{"poiid":"B2094757D16CA6F84693","title":"沪闵高架南站上匝道","lon":"121.43315058","lat":"31.164494146","category":"500","category_name":"未知分类","address":"上海市徐汇区漕宝路"},{"poiid":"B2094655D269AAFC439A","title":"华夏宾馆","lon":"121.42989","lat":"31.1678","category":"217","category_name":"旅馆招待所","address":"徐汇区漕宝路38号华夏宾馆2楼(近钦州路)"},{"poiid":"B2094654D564A0F4429A","title":"上海市第八人民医院门诊部","lon":"121.4341","lat":"31.16753","category":"162","category_name":"医院","address":"沪闵路9802"},{"poiid":"B2094757D16EABFE469D","title":"一号线漕宝路站","lon":"121.434171986","lat":"31.1680311153","category":"500","category_name":"未知分类","address":"上海漕宝路"},{"poiid":"B2094757D06BA6FD4792","title":"五木铁板烧(漕宝路店)","lon":"121.43019458","lat":"31.168261219","category":"269","category_name":"烧烤","address":"徐汇区漕宝路38号华夏宾馆1楼(近钦州路)"},{"poiid":"B2094654D564A0F4419A","title":"上海市第八人民医院(北门)","lon":"121.43288","lat":"31.16809","category":"656","category_name":"大门","address":"漕宝路8号"},{"poiid":"B2094654DB64A6F4409A","title":"汉庭快捷(光大店)","lon":"121.43547","lat":"31.16827","category":"216","category_name":"经济型连锁酒店","address":"徐汇区龙漕路2号(地铁1号线漕宝路站4号口)"},{"poiid":"B2094655D36CA7F5449E","title":"冠生园路沪闵路","lon":"121.43067","lat":"31.16351","category":"38","category_name":"公交车站","address":""},{"poiid":"B2094757D16EA5F9439D","title":"卡好日本料理","lon":"121.42932","lat":"31.16821","category":"95","category_name":"日本料理","address":"徐汇区漕宝路59号(近光大会展中心)"},{"poiid":"B2094757D06BA1F94493","title":"漕河景苑","lon":"121.42992","lat":"31.164713","category":"47","category_name":"住宅区","address":"上海市徐汇区康健路58弄"},{"poiid":"B2094757D16AA4FF4093","title":"八五医院","lon":"121.435044586","lat":"31.1669841949","category":"162","category_name":"医院","address":"上海漕溪路"},{"poiid":"B2094655D36DA6FC419F","title":"漕河泾","lon":"121.4326","lat":"31.16836","category":"38","category_name":"公交车站","address":""},{"poiid":"B2094757D16AA1FC4092","title":"玲珑面馆","lon":"121.432861086","lat":"31.1654510983","category":"68","category_name":"快餐厅","address":"徐汇区康健路11号(近沪闵路)"},{"poiid":"B2094750DA6EABFC469C","title":"徐家汇美罗城","lon":"121.4346","lat":"31.165288","category":"500","category_name":"未知分类","address":null},{"poiid":"B2094654D564A0FB489A","title":"九彩天大酒楼","lon":"121.43016","lat":"31.16786","category":"76","category_name":"上海菜","address":"徐汇区漕宝路38号华夏宾馆2楼(漕溪路口)"},{"poiid":"B2094757D06FA5F44498","title":"宜芝多(漕宝路店)","lon":"121.434270467","lat":"31.1685158217","category":"112","category_name":"糕饼店","address":"徐汇区漕宝路36号(漕溪路口)"},{"poiid":"B2094655D26FA6F5499E","title":"九弄小区","lon":"121.43225","lat":"31.166279","category":"47","category_name":"住宅区","address":"康健路25弄1-35号"},{"poiid":"B2094757D068A0FA429C","title":"全家便利(漕宝路店)","lon":"121.43216296","lat":"31.168398727","category":"117","category_name":"便民商店/便利店","address":"上海徐汇区漕宝路36号1楼(近钦州路)"},{"poiid":"B2094757D069A1F94093","title":"港饮港食 光大店","lon":"121.42796","lat":"31.16538","category":"72","category_name":"广东菜","address":"徐汇区漕宝路80号光大会展中心D座1楼(习勤路口)"},{"poiid":"B2094757D66AA0F9469D","title":"漕龙沈记酒楼","lon":"121.43443832498","lat":"31.168168938409","category":"76","category_name":"上海菜","address":"徐汇区漕溪路121号(近宜家)"},{"poiid":"B2094655D26FA6F5499F","title":"康惠苑","lon":"121.43216","lat":"31.16518","category":"47","category_name":"住宅区","address":"都林嘉园位于浦东浦东新区上南路3759弄1号"},{"poiid":"B2094757D465A4FE4299","title":"重庆鸡公煲 康健路店","lon":"121.430665054","lat":"31.165526793","category":"71","category_name":"四川菜","address":"徐汇区康健路45号农工商超市附近(钦州路口)"},{"poiid":"B2094757D465A3FE489C","title":"四季草堂 漕溪路店","lon":"121.434560054","lat":"31.168550793","category":"76","category_name":"上海菜","address":"徐汇区漕溪路251弄望族城内(近漕宝路)"},{"poiid":"B2094654D564A0F4429D","title":"泰成商务楼","lon":"121.43392","lat":"31.16632","category":"46","category_name":"楼宇","address":"上海,上海市,沪闵路9510号"},{"poiid":"B2094757D464AAF9469B","title":"集集小镇 龙漕店 Jijitown","lon":"121.434757054","lat":"31.168068793","category":"68","category_name":"快餐厅","address":"徐汇区龙漕路2号(近漕宝路)"},{"poiid":"B2094654D564A0FA4899","title":"上海光大会展中心F座","lon":"121.42871","lat":"31.16653","category":"46","category_name":"楼宇","address":"漕宝路86"},{"poiid":"B2094654DB6BA7FB4093","title":"和信商务大楼","lon":"121.4317","lat":"31.16787","category":"46","category_name":"楼宇","address":"漕宝路36"},{"poiid":"B2094654D564A0F4429E","title":"市八医院发热门诊","lon":"121.43397","lat":"31.16693","category":"162","category_name":"医院","address":""},{"poiid":"B2094654D564A3F8449F","title":"街客 漕宝店 Jack Hut","lon":"121.433699054","lat":"31.168074793","category":"113","category_name":"冷饮店","address":"徐汇区漕宝路25号(近漕宝路地铁口)"},{"poiid":"B2094654DB6CA6F84093","title":"创意阁","lon":"121.433","lat":"31.169","category":"46","category_name":"楼宇","address":"上海徐汇区冠生园路231号徐汇创意阁"},{"poiid":"B2094655D268A4F94999","title":"中虹汇之苑(边门)","lon":"121.43077","lat":"31.16641","category":"47","category_name":"住宅区","address":"上海市徐汇区钦州路428弄"},{"poiid":"B2094654D564A0FB4899","title":"全家(漕宝路)","lon":"121.43181","lat":"31.16807","category":"117","category_name":"便民商店/便利店","address":"漕宝路36-1"},{"poiid":"B2094757D06BA4FE429B","title":"口吅品牛肉面馆 漕宝路店","lon":"121.430776054","lat":"31.168222793","category":"68","category_name":"快餐厅","address":"徐汇区漕宝路43号(近钦州路)"},{"poiid":"B2094757D065A2FF459C","title":"上海银行(漕河泾支行)","lon":"121.43179958","lat":"31.16625818","category":"150","category_name":"银行","address":"徐汇区康健路66–70号"},{"poiid":"B2094654D564A0FB409F","title":"九弄小区(南门)","lon":"121.4323","lat":"31.16571","category":"47","category_name":"住宅区","address":"康健路25弄1-35号"},{"poiid":"B2094757D569A7FE4998","title":"上海光大会展中心东馆(北门)","lon":"121.42962212","lat":"31.16755859","category":"48","category_name":"楼宇大门","address":"漕宝路78号"},{"poiid":"B2094757D069AAFC4599","title":"四海游龙 光大店","lon":"121.427963","lat":"31.166368","category":"68","category_name":"快餐厅","address":"徐汇区漕宝路78号光大会展中心东馆1楼"},{"poiid":"B2094655D26AA2F5479F","title":"光大会展","lon":"121.42893","lat":"31.16707","category":"247","category_name":"餐饮美食","address":"徐汇区漕宝路78号(近习勤路)"},{"poiid":"B2094654D564A0F4429B","title":"上海市血液中心徐汇爱心献血屋","lon":"121.43411","lat":"31.16734","category":"162","category_name":"医院","address":"沪闵路9816"},{"poiid":"B2094655D268A7F8439C","title":"康健路43弄小区(西一号门)","lon":"121.43106","lat":"31.16663","category":"47","category_name":"住宅区","address":"康健路43弄"},{"poiid":"B2094757D168A7F5419D","title":"泰成花苑","lon":"121.4334","lat":"31.166222","category":"47","category_name":"住宅区","address":"上海沪闵路9512弄"},{"poiid":"B2094753DB69A6FC429E","title":"上海交通大学（徐汇校区）","lon":"121.436498","lat":"31.199753","category":"500","category_name":"未知分类","address":"上海市 上海市徐汇区华山路1954号"},{"poiid":"B2094654DB65A6FA429A","title":"上海市第八人民医院","lon":"121.43375046511653","lat":"31.167588930222983","category":"162","category_name":"医院","address":"徐汇区漕宝路8号(近漕溪路)"},{"poiid":"B2094654D564A3F8459C","title":"辛香汇(漕溪路)","lon":"121.43425","lat":"31.16899","category":"71","category_name":"四川菜","address":"徐汇区漕溪路280号(近漕宝路)"},{"poiid":"B2094655D26FA5FE4393","title":"上海光大会展中心","lon":"121.42892","lat":"31.16707","category":"260","category_name":"其他","address":"徐汇区漕宝路66号光大会展中心国际大酒店1楼(近习勤路)"},{"poiid":"B2094757D06FA2F9479C","title":"光大会展中心国际大酒店","lon":"121.429373","lat":"31.168133","category":"214","category_name":"四星级宾馆","address":"上海市徐汇区漕宝路66号(光大会展中心旁)"},{"poiid":"B2094757D06EABF5429D","title":"漕宝路地铁站","lon":"121.43500667","lat":"31.168222633","category":"36","category_name":"地铁站","address":"上海轨道交通,一号线,轨交漕宝路站,1"},{"poiid":"B2094757D66EA2FE449B","title":"上海大饭堂","lon":"121.43188458","lat":"31.165935174","category":"76","category_name":"上海菜","address":"徐汇区康健路28号(近钦州路)"},{"poiid":"B2094757D165A0FA459C","title":"漕宝路","lon":"121.429336586","lat":"31.1651441589","category":"500","category_name":"未知分类","address":"上海市徐汇区漕宝路"},{"poiid":"B2094752D669A0FA499D","title":"3Quarks真密室","lon":"121.430414","lat":"31.170023","category":"248","category_name":"生活娱乐","address":"上海市钦州路518号"},{"poiid":"B2094757D16CA6F84693","title":"沪闵高架南站上匝道","lon":"121.43315058","lat":"31.164494146","category":"500","category_name":"未知分类","address":"上海市徐汇区漕宝路"},{"poiid":"B2094655D269AAFC439A","title":"华夏宾馆","lon":"121.42989","lat":"31.1678","category":"217","category_name":"旅馆招待所","address":"徐汇区漕宝路38号华夏宾馆2楼(近钦州路)"},{"poiid":"B2094654D564A0F4429A","title":"上海市第八人民医院门诊部","lon":"121.4341","lat":"31.16753","category":"162","category_name":"医院","address":"沪闵路9802"},{"poiid":"B2094757D16EABFE469D","title":"一号线漕宝路站","lon":"121.434171986","lat":"31.1680311153","category":"500","category_name":"未知分类","address":"上海漕宝路"},{"poiid":"B2094757D06BA6FD4792","title":"五木铁板烧(漕宝路店)","lon":"121.43019458","lat":"31.168261219","category":"269","category_name":"烧烤","address":"徐汇区漕宝路38号华夏宾馆1楼(近钦州路)"},{"poiid":"B2094654D564A0F4419A","title":"上海市第八人民医院(北门)","lon":"121.43288","lat":"31.16809","category":"656","category_name":"大门","address":"漕宝路8号"},{"poiid":"B2094654DB64A6F4409A","title":"汉庭快捷(光大店)","lon":"121.43547","lat":"31.16827","category":"216","category_name":"经济型连锁酒店","address":"徐汇区龙漕路2号(地铁1号线漕宝路站4号口)"},{"poiid":"B2094655D36CA7F5449E","title":"冠生园路沪闵路","lon":"121.43067","lat":"31.16351","category":"38","category_name":"公交车站","address":""},{"poiid":"B2094757D16EA5F9439D","title":"卡好日本料理","lon":"121.42932","lat":"31.16821","category":"95","category_name":"日本料理","address":"徐汇区漕宝路59号(近光大会展中心)"},{"poiid":"B2094757D06BA1F94493","title":"漕河景苑","lon":"121.42992","lat":"31.164713","category":"47","category_name":"住宅区","address":"上海市徐汇区康健路58弄"},{"poiid":"B2094757D16AA4FF4093","title":"八五医院","lon":"121.435044586","lat":"31.1669841949","category":"162","category_name":"医院","address":"上海漕溪路"},{"poiid":"B2094655D36DA6FC419F","title":"漕河泾","lon":"121.4326","lat":"31.16836","category":"38","category_name":"公交车站","address":""},{"poiid":"B2094757D16AA1FC4092","title":"玲珑面馆","lon":"121.432861086","lat":"31.1654510983","category":"68","category_name":"快餐厅","address":"徐汇区康健路11号(近沪闵路)"},{"poiid":"B2094750DA6EABFC469C","title":"徐家汇美罗城","lon":"121.4346","lat":"31.165288","category":"500","category_name":"未知分类","address":null},{"poiid":"B2094654D564A0FB489A","title":"九彩天大酒楼","lon":"121.43016","lat":"31.16786","category":"76","category_name":"上海菜","address":"徐汇区漕宝路38号华夏宾馆2楼(漕溪路口)"},{"poiid":"B2094757D06FA5F44498","title":"宜芝多(漕宝路店)","lon":"121.434270467","lat":"31.1685158217","category":"112","category_name":"糕饼店","address":"徐汇区漕宝路36号(漕溪路口)"},{"poiid":"B2094655D26FA6F5499E","title":"九弄小区","lon":"121.43225","lat":"31.166279","category":"47","category_name":"住宅区","address":"康健路25弄1-35号"},{"poiid":"B2094757D068A0FA429C","title":"全家便利(漕宝路店)","lon":"121.43216296","lat":"31.168398727","category":"117","category_name":"便民商店/便利店","address":"上海徐汇区漕宝路36号1楼(近钦州路)"},{"poiid":"B2094757D069A1F94093","title":"港饮港食 光大店","lon":"121.42796","lat":"31.16538","category":"72","category_name":"广东菜","address":"徐汇区漕宝路80号光大会展中心D座1楼(习勤路口)"},{"poiid":"B2094757D66AA0F9469D","title":"漕龙沈记酒楼","lon":"121.43443832498","lat":"31.168168938409","category":"76","category_name":"上海菜","address":"徐汇区漕溪路121号(近宜家)"},{"poiid":"B2094655D26FA6F5499F","title":"康惠苑","lon":"121.43216","lat":"31.16518","category":"47","category_name":"住宅区","address":"都林嘉园位于浦东浦东新区上南路3759弄1号"},{"poiid":"B2094757D465A4FE4299","title":"重庆鸡公煲 康健路店","lon":"121.430665054","lat":"31.165526793","category":"71","category_name":"四川菜","address":"徐汇区康健路45号农工商超市附近(钦州路口)"},{"poiid":"B2094757D465A3FE489C","title":"四季草堂 漕溪路店","lon":"121.434560054","lat":"31.168550793","category":"76","category_name":"上海菜","address":"徐汇区漕溪路251弄望族城内(近漕宝路)"},{"poiid":"B2094654D564A0F4429D","title":"泰成商务楼","lon":"121.43392","lat":"31.16632","category":"46","category_name":"楼宇","address":"上海,上海市,沪闵路9510号"},{"poiid":"B2094757D464AAF9469B","title":"集集小镇 龙漕店 Jijitown","lon":"121.434757054","lat":"31.168068793","category":"68","category_name":"快餐厅","address":"徐汇区龙漕路2号(近漕宝路)"},{"poiid":"B2094654D564A0FA4899","title":"上海光大会展中心F座","lon":"121.42871","lat":"31.16653","category":"46","category_name":"楼宇","address":"漕宝路86"},{"poiid":"B2094654DB6BA7FB4093","title":"和信商务大楼","lon":"121.4317","lat":"31.16787","category":"46","category_name":"楼宇","address":"漕宝路36"},{"poiid":"B2094654D564A0F4429E","title":"市八医院发热门诊","lon":"121.43397","lat":"31.16693","category":"162","category_name":"医院","address":""},{"poiid":"B2094654D564A3F8449F","title":"街客 漕宝店 Jack Hut","lon":"121.433699054","lat":"31.168074793","category":"113","category_name":"冷饮店","address":"徐汇区漕宝路25号(近漕宝路地铁口)"},{"poiid":"B2094654DB6CA6F84093","title":"创意阁","lon":"121.433","lat":"31.169","category":"46","category_name":"楼宇","address":"上海徐汇区冠生园路231号徐汇创意阁"},{"poiid":"B2094655D268A4F94999","title":"中虹汇之苑(边门)","lon":"121.43077","lat":"31.16641","category":"47","category_name":"住宅区","address":"上海市徐汇区钦州路428弄"},{"poiid":"B2094654D564A0FB4899","title":"全家(漕宝路)","lon":"121.43181","lat":"31.16807","category":"117","category_name":"便民商店/便利店","address":"漕宝路36-1"},{"poiid":"B2094757D06BA4FE429B","title":"口吅品牛肉面馆 漕宝路店","lon":"121.430776054","lat":"31.168222793","category":"68","category_name":"快餐厅","address":"徐汇区漕宝路43号(近钦州路)"},{"poiid":"B2094757D065A2FF459C","title":"上海银行(漕河泾支行)","lon":"121.43179958","lat":"31.16625818","category":"150","category_name":"银行","address":"徐汇区康健路66–70号"},{"poiid":"B2094654D564A0FB409F","title":"九弄小区(南门)","lon":"121.4323","lat":"31.16571","category":"47","category_name":"住宅区","address":"康健路25弄1-35号"},{"poiid":"B2094757D569A7FE4998","title":"上海光大会展中心东馆(北门)","lon":"121.42962212","lat":"31.16755859","category":"48","category_name":"楼宇大门","address":"漕宝路78号"},{"poiid":"B2094757D069AAFC4599","title":"四海游龙 光大店","lon":"121.427963","lat":"31.166368","category":"68","category_name":"快餐厅","address":"徐汇区漕宝路78号光大会展中心东馆1楼"},{"poiid":"B2094655D26AA2F5479F","title":"光大会展","lon":"121.42893","lat":"31.16707","category":"247","category_name":"餐饮美食","address":"徐汇区漕宝路78号(近习勤路)"},{"poiid":"B2094654D564A0F4429B","title":"上海市血液中心徐汇爱心献血屋","lon":"121.43411","lat":"31.16734","category":"162","category_name":"医院","address":"沪闵路9816"},{"poiid":"B2094655D268A7F8439C","title":"康健路43弄小区(西一号门)","lon":"121.43106","lat":"31.16663","category":"47","category_name":"住宅区","address":"康健路43弄"},{"poiid":"B2094757D168A7F5419D","title":"泰成花苑","lon":"121.4334","lat":"31.166222","category":"47","category_name":"住宅区","address":"上海沪闵路9512弄"},{"poiid":"B2094753DB69A6FC429E","title":"上海交通大学（徐汇校区）","lon":"121.436498","lat":"31.199753","category":"500","category_name":"未知分类","address":"上海市 上海市徐汇区华山路1954号"},{"poiid":"B2094654DB65A6FA429A","title":"上海市第八人民医院","lon":"121.43375046511653","lat":"31.167588930222983","category":"162","category_name":"医院","address":"徐汇区漕宝路8号(近漕溪路)"},{"poiid":"B2094654D564A3F8459C","title":"辛香汇(漕溪路)","lon":"121.43425","lat":"31.16899","category":"71","category_name":"四川菜","address":"徐汇区漕溪路280号(近漕宝路)"},{"poiid":"B2094655D26FA5FE4393","title":"上海光大会展中心","lon":"121.42892","lat":"31.16707","category":"260","category_name":"其他","address":"徐汇区漕宝路66号光大会展中心国际大酒店1楼(近习勤路)"},{"poiid":"B2094757D06FA2F9479C","title":"光大会展中心国际大酒店","lon":"121.429373","lat":"31.168133","category":"214","category_name":"四星级宾馆","address":"上海市徐汇区漕宝路66号(光大会展中心旁)"},{"poiid":"B2094757D06EABF5429D","title":"漕宝路地铁站","lon":"121.43500667","lat":"31.168222633","category":"36","category_name":"地铁站","address":"上海轨道交通,一号线,轨交漕宝路站,1"},{"poiid":"B2094757D66EA2FE449B","title":"上海大饭堂","lon":"121.43188458","lat":"31.165935174","category":"76","category_name":"上海菜","address":"徐汇区康健路28号(近钦州路)"},{"poiid":"B2094757D165A0FA459C","title":"漕宝路","lon":"121.429336586","lat":"31.1651441589","category":"500","category_name":"未知分类","address":"上海市徐汇区漕宝路"},{"poiid":"B2094752D669A0FA499D","title":"3Quarks真密室","lon":"121.430414","lat":"31.170023","category":"248","category_name":"生活娱乐","address":"上海市钦州路518号"},{"poiid":"B2094757D16CA6F84693","title":"沪闵高架南站上匝道","lon":"121.43315058","lat":"31.164494146","category":"500","category_name":"未知分类","address":"上海市徐汇区漕宝路"},{"poiid":"B2094655D269AAFC439A","title":"华夏宾馆","lon":"121.42989","lat":"31.1678","category":"217","category_name":"旅馆招待所","address":"徐汇区漕宝路38号华夏宾馆2楼(近钦州路)"},{"poiid":"B2094654D564A0F4429A","title":"上海市第八人民医院门诊部","lon":"121.4341","lat":"31.16753","category":"162","category_name":"医院","address":"沪闵路9802"},{"poiid":"B2094757D16EABFE469D","title":"一号线漕宝路站","lon":"121.434171986","lat":"31.1680311153","category":"500","category_name":"未知分类","address":"上海漕宝路"},{"poiid":"B2094757D06BA6FD4792","title":"五木铁板烧(漕宝路店)","lon":"121.43019458","lat":"31.168261219","category":"269","category_name":"烧烤","address":"徐汇区漕宝路38号华夏宾馆1楼(近钦州路)"},{"poiid":"B2094654D564A0F4419A","title":"上海市第八人民医院(北门)","lon":"121.43288","lat":"31.16809","category":"656","category_name":"大门","address":"漕宝路8号"},{"poiid":"B2094654DB64A6F4409A","title":"汉庭快捷(光大店)","lon":"121.43547","lat":"31.16827","category":"216","category_name":"经济型连锁酒店","address":"徐汇区龙漕路2号(地铁1号线漕宝路站4号口)"},{"poiid":"B2094655D36CA7F5449E","title":"冠生园路沪闵路","lon":"121.43067","lat":"31.16351","category":"38","category_name":"公交车站","address":""},{"poiid":"B2094757D16EA5F9439D","title":"卡好日本料理","lon":"121.42932","lat":"31.16821","category":"95","category_name":"日本料理","address":"徐汇区漕宝路59号(近光大会展中心)"},{"poiid":"B2094757D06BA1F94493","title":"漕河景苑","lon":"121.42992","lat":"31.164713","category":"47","category_name":"住宅区","address":"上海市徐汇区康健路58弄"},{"poiid":"B2094757D16AA4FF4093","title":"八五医院","lon":"121.435044586","lat":"31.1669841949","category":"162","category_name":"医院","address":"上海漕溪路"},{"poiid":"B2094655D36DA6FC419F","title":"漕河泾","lon":"121.4326","lat":"31.16836","category":"38","category_name":"公交车站","address":""},{"poiid":"B2094757D16AA1FC4092","title":"玲珑面馆","lon":"121.432861086","lat":"31.1654510983","category":"68","category_name":"快餐厅","address":"徐汇区康健路11号(近沪闵路)"},{"poiid":"B2094750DA6EABFC469C","title":"徐家汇美罗城","lon":"121.4346","lat":"31.165288","category":"500","category_name":"未知分类","address":null},{"poiid":"B2094654D564A0FB489A","title":"九彩天大酒楼","lon":"121.43016","lat":"31.16786","category":"76","category_name":"上海菜","address":"徐汇区漕宝路38号华夏宾馆2楼(漕溪路口)"},{"poiid":"B2094757D06FA5F44498","title":"宜芝多(漕宝路店)","lon":"121.434270467","lat":"31.1685158217","category":"112","category_name":"糕饼店","address":"徐汇区漕宝路36号(漕溪路口)"},{"poiid":"B2094655D26FA6F5499E","title":"九弄小区","lon":"121.43225","lat":"31.166279","category":"47","category_name":"住宅区","address":"康健路25弄1-35号"},{"poiid":"B2094757D068A0FA429C","title":"全家便利(漕宝路店)","lon":"121.43216296","lat":"31.168398727","category":"117","category_name":"便民商店/便利店","address":"上海徐汇区漕宝路36号1楼(近钦州路)"},{"poiid":"B2094757D069A1F94093","title":"港饮港食 光大店","lon":"121.42796","lat":"31.16538","category":"72","category_name":"广东菜","address":"徐汇区漕宝路80号光大会展中心D座1楼(习勤路口)"},{"poiid":"B2094757D66AA0F9469D","title":"漕龙沈记酒楼","lon":"121.43443832498","lat":"31.168168938409","category":"76","category_name":"上海菜","address":"徐汇区漕溪路121号(近宜家)"},{"poiid":"B2094655D26FA6F5499F","title":"康惠苑","lon":"121.43216","lat":"31.16518","category":"47","category_name":"住宅区","address":"都林嘉园位于浦东浦东新区上南路3759弄1号"},{"poiid":"B2094757D465A4FE4299","title":"重庆鸡公煲 康健路店","lon":"121.430665054","lat":"31.165526793","category":"71","category_name":"四川菜","address":"徐汇区康健路45号农工商超市附近(钦州路口)"},{"poiid":"B2094757D465A3FE489C","title":"四季草堂 漕溪路店","lon":"121.434560054","lat":"31.168550793","category":"76","category_name":"上海菜","address":"徐汇区漕溪路251弄望族城内(近漕宝路)"},{"poiid":"B2094654D564A0F4429D","title":"泰成商务楼","lon":"121.43392","lat":"31.16632","category":"46","category_name":"楼宇","address":"上海,上海市,沪闵路9510号"},{"poiid":"B2094757D464AAF9469B","title":"集集小镇 龙漕店 Jijitown","lon":"121.434757054","lat":"31.168068793","category":"68","category_name":"快餐厅","address":"徐汇区龙漕路2号(近漕宝路)"},{"poiid":"B2094654D564A0FA4899","title":"上海光大会展中心F座","lon":"121.42871","lat":"31.16653","category":"46","category_name":"楼宇","address":"漕宝路86"},{"poiid":"B2094654DB6BA7FB4093","title":"和信商务大楼","lon":"121.4317","lat":"31.16787","category":"46","category_name":"楼宇","address":"漕宝路36"},{"poiid":"B2094654D564A0F4429E","title":"市八医院发热门诊","lon":"121.43397","lat":"31.16693","category":"162","category_name":"医院","address":""},{"poiid":"B2094654D564A3F8449F","title":"街客 漕宝店 Jack Hut","lon":"121.433699054","lat":"31.168074793","category":"113","category_name":"冷饮店","address":"徐汇区漕宝路25号(近漕宝路地铁口)"},{"poiid":"B2094654DB6CA6F84093","title":"创意阁","lon":"121.433","lat":"31.169","category":"46","category_name":"楼宇","address":"上海徐汇区冠生园路231号徐汇创意阁"},{"poiid":"B2094655D268A4F94999","title":"中虹汇之苑(边门)","lon":"121.43077","lat":"31.16641","category":"47","category_name":"住宅区","address":"上海市徐汇区钦州路428弄"},{"poiid":"B2094654D564A0FB4899","title":"全家(漕宝路)","lon":"121.43181","lat":"31.16807","category":"117","category_name":"便民商店/便利店","address":"漕宝路36-1"},{"poiid":"B2094757D06BA4FE429B","title":"口吅品牛肉面馆 漕宝路店","lon":"121.430776054","lat":"31.168222793","category":"68","category_name":"快餐厅","address":"徐汇区漕宝路43号(近钦州路)"},{"poiid":"B2094757D065A2FF459C","title":"上海银行(漕河泾支行)","lon":"121.43179958","lat":"31.16625818","category":"150","category_name":"银行","address":"徐汇区康健路66–70号"},{"poiid":"B2094654D564A0FB409F","title":"九弄小区(南门)","lon":"121.4323","lat":"31.16571","category":"47","category_name":"住宅区","address":"康健路25弄1-35号"},{"poiid":"B2094757D569A7FE4998","title":"上海光大会展中心东馆(北门)","lon":"121.42962212","lat":"31.16755859","category":"48","category_name":"楼宇大门","address":"漕宝路78号"},{"poiid":"B2094757D069AAFC4599","title":"四海游龙 光大店","lon":"121.427963","lat":"31.166368","category":"68","category_name":"快餐厅","address":"徐汇区漕宝路78号光大会展中心东馆1楼"},{"poiid":"B2094655D26AA2F5479F","title":"光大会展","lon":"121.42893","lat":"31.16707","category":"247","category_name":"餐饮美食","address":"徐汇区漕宝路78号(近习勤路)"},{"poiid":"B2094654D564A0F4429B","title":"上海市血液中心徐汇爱心献血屋","lon":"121.43411","lat":"31.16734","category":"162","category_name":"医院","address":"沪闵路9816"},{"poiid":"B2094655D268A7F8439C","title":"康健路43弄小区(西一号门)","lon":"121.43106","lat":"31.16663","category":"47","category_name":"住宅区","address":"康健路43弄"},{"poiid":"B2094757D168A7F5419D","title":"泰成花苑","lon":"121.4334","lat":"31.166222","category":"47","category_name":"住宅区","address":"上海沪闵路9512弄"},{"poiid":"B2094753DB69A6FC429E","title":"上海交通大学（徐汇校区）","lon":"121.436498","lat":"31.199753","category":"500","category_name":"未知分类","address":"上海市 上海市徐汇区华山路1954号"}]