[{"poiid":"B2094654DA69A7FB4599","title":"金茂大厦","lon":"121.5124569976","lat":"31.240872238236","category":"46","category_name":"楼宇","address":"浦东新区世纪大道88号金茂大厦内(近二号线陆家嘴站)"},{"poiid":"B2094654DB6AA6FF459C","title":"上海金茂君悦大酒店","lon":"121.50588","lat":"31.23522","category":"213","category_name":"五星级宾馆","address":"浦东新区世纪大道88号金茂大厦53-87楼(近二号线陆家嘴站)"},{"poiid":"B2094654DB6AA6F84799","title":"上海柏悦酒店","lon":"121.50772","lat":"31.23458","category":"213","category_name":"五星级宾馆","address":"浦东新区世纪大道100号环球金融中心79-93楼(近东泰路)"},{"poiid":"B209475CD564A7F84392","title":"上海滩浦东香格里拉店","lon":"121.50058","lat":"31.23634","category":"119","category_name":"商场","address":"浦东富成路33号香格里拉酒店内大堂层"},{"poiid":"B2094757D068AAFF439C","title":"上海環球金融中心100F","lon":"121.50764573","lat":"31.234257385","category":"172","category_name":"酒吧","address":"上海浦东新区银城中路"},{"poiid":"B2094757D06FA3FA449C","title":"蓝蛙(金融中心店)","lon":"121.507612712","lat":"31.2345660379","category":"260","category_name":"其他","address":"浦东新区世纪大道100号环球金融中心B1楼(近东泰路)"},{"poiid":"B2094750D26CA3FE4592","title":"鹿港小镇 正大店","lon":"121.5044996","lat":"31.2354647","category":"91","category_name":"台湾菜","address":"浦东新区陆家嘴西路168号正大广场8楼810室(近东方明珠)"},{"poiid":"B2094757D06FA2FE4493","title":"仁清•东京新怀石料理(金茂店)","lon":"121.50594","lat":"31.23477","category":"95","category_name":"日本料理","address":"浦东新区世纪大道88号金茂大厦裙楼3楼(近二号线陆家嘴站)"},{"poiid":"B2094750DA6AA4F4489F","title":"一风堂拉面","lon":"121.505241","lat":"31.235317","category":"247","category_name":"餐饮美食","address":"国金商场LG1"},{"poiid":"B2094757D464ABF94093","title":"柏悦酒店91楼餐厅","lon":"121.507506","lat":"31.235597","category":"257","category_name":"中餐厅","address":"世纪大道100号环球金融中心87楼（柏悦酒店）近陆家嘴环路"},{"poiid":"B2094655D264A0F9429B","title":"俏江南(环球金融中心店)","lon":"121.50773","lat":"31.23458","category":"71","category_name":"四川菜","address":"浦东新区世纪大道100号环球金融中心3楼307室(近东泰路)"},{"poiid":"B2094757D06FA2FD4698","title":"星巴克 STARBUCKS (金茂大厦店)","lon":"121.505466","lat":"31.235254","category":"65","category_name":"咖啡厅","address":"浦东新区世纪大道88号金茂大厦JLIFE时尚生活中心2楼(近二号线陆家嘴站)"},{"poiid":"B2094757D06FA6FF439A","title":"金茂君悦咖啡厅","lon":"121.50615","lat":"31.23475","category":"268","category_name":"自助","address":"浦东新区世纪大道88号金茂君悦大酒店54楼(近二号线陆家嘴站6号口)"},{"poiid":"B2094757D66FA6FA449C","title":"星巴克(环球金融店)","lon":"121.507684","lat":"31.234951","category":"260","category_name":"其他","address":"浦东新区世纪大道100号环球金融中心1楼101室(近东泰路)"},{"poiid":"B2094757D06FABFE4793","title":"鼎泰丰(环球金融中心店)","lon":"121.507521517","lat":"31.2345763583","category":"68","category_name":"快餐厅","address":"浦东新区世纪大道100号环球金融中心3楼(近东泰路)"},{"poiid":"B2094757D66EA0F9489C","title":"金茂大厦88层","lon":"121.50547323","lat":"31.236578735","category":"252","category_name":"楼宇机构","address":"上海金茂大厦"},{"poiid":"B2094655D26BA3FE419E","title":"新元素 环球中心店 Element Fresh","lon":"121.507588054","lat":"31.235582793","category":"94","category_name":"西餐厅","address":"浦东新区世纪大道100号环球金融中心2楼(近东泰路)"},{"poiid":"B2094757D06FA2FE4099","title":"Ritz-Carlton Flair Pub","lon":"121.505996","lat":"31.235922","category":"172","category_name":"酒吧","address":"上海浦东新区世纪大道8号丽思卡尔顿酒店58层"},{"poiid":"B2094757D06FA3FC439A","title":"金牛苑(国金中心店)","lon":"121.50623","lat":"31.23564","category":"47","category_name":"住宅区","address":"浦东新区世纪大道8号世纪大道8号上海国金中心L3-19"},{"poiid":"B2094757D06FA2FF4198","title":"檬舒舒 MonChouChou(环球金融店)","lon":"121.50742334526058","lat":"31.234131052731218","category":"67","category_name":"甜品店","address":"浦东新区世纪大道100号环球金融中心B1楼B104号商铺(近东泰路)"},{"poiid":"B2094654DA69A7FB4792","title":"拉图餐厅 La Tour","lon":"121.50515","lat":"31.23502","category":"94","category_name":"西餐厅","address":"浦东新区世纪大道88号金茂大厦裙楼5楼(近二号线陆家嘴站)"},{"poiid":"B2094757D569A2FC4193","title":"赤坂亭(环球店)","lon":"121.50769775","lat":"31.23458686","category":"269","category_name":"烧烤","address":"浦东新区世纪大道100号环球金融中心3楼303号(近东泰路)"},{"poiid":"B2094750D268A4FC499B","title":"小金牛越南餐厅","lon":"121.5044996","lat":"31.2354647","category":"99","category_name":"泰国／越南菜品餐厅","address":"浦东新区陆家嘴西路168号正大广场8楼21号铺(近东方明珠)"},{"poiid":"B2094757D06FA6FC459C","title":"Isola Bar & Grill","lon":"121.506157","lat":"31.235234","category":"94","category_name":"西餐厅","address":"浦东新区世纪大道8号上海国金中心L4楼17号铺(近银城中路)"},{"poiid":"B2094750D26BA1FA4898","title":"玛托 MATTO","lon":"121.5044996","lat":"31.2354647","category":"94","category_name":"西餐厅","address":"浦东新区陆家嘴西路168号正大广场1楼GF50铺(近富城路)"},{"poiid":"B2094757D06FA0FB429F","title":"威尔士健身会所(金茂店)","lon":"121.50616","lat":"31.23493","category":"221","category_name":"健身中心","address":"浦东新区世纪大道88号金茂大厦裙楼生活时尚中心J.LIFE3-4楼(近二号线陆家嘴站)"},{"poiid":"B2094757DB68A3F9419D","title":"梅赛德斯-奔驰文化中心","lon":"121.50617587","lat":"31.23635451999999","category":"500","category_name":"未知分类","address":"世博大道1200号"},{"poiid":"B2094757D068A3F94898","title":"天萃庭","lon":"121.50614","lat":"31.23497","category":"72","category_name":"广东菜","address":"浦东新区世纪大道88号金茂大厦裙楼6楼(近二号线陆家嘴站)"},{"poiid":"B2094655D26DA7F44998","title":"上海环球金融中心观光厅","lon":"121.50773","lat":"31.23458","category":"183","category_name":"展览馆","address":"浦东新区世纪大道100号环球金融中心94-100楼(近东泰路)"},{"poiid":"B2094654DA69A7FB459E","title":"上海金茂大厦88层观光厅","lon":"121.50562","lat":"31.23524","category":"240","category_name":"国家级景点","address":"上海市浦东新区世纪大道88号金茂大厦"},{"poiid":"B2094757D068AAFD449B","title":"ABC cooking studio(环球金融中心)","lon":"121.50756773","lat":"31.234875399","category":"67","category_name":"甜品店","address":"上海世纪大道100号"},{"poiid":"B2094655D26BA4F44398","title":"COSTA咖啡(上海环球金融中心店)","lon":"121.50773","lat":"31.23458","category":"65","category_name":"咖啡厅","address":"浦东新区世纪大道100号环球金融中心2楼220单元(近东泰路)"},{"poiid":"B2094757D16CA2FF4899","title":"麦当劳国金中心店","lon":"121.50513081","lat":"31.236093145","category":"68","category_name":"快餐厅","address":"浦东新区世纪大道8号国金中心商场LG1-17号商铺(近东泰路)"},{"poiid":"B2094757D468A7F54892","title":"丽思卡尔顿大堂酒廊 Aura","lon":"121.50596","lat":"31.23591","category":"172","category_name":"酒吧","address":"浦东新区世纪大道8号上海国金中心丽思卡尔顿酒店(东泰路世纪大道)"},{"poiid":"B2094750DB6DA0FC459A","title":"一風堂（IPPUDO SH）","lon":"121.50502","lat":"31.235397","category":"247","category_name":"餐饮美食","address":null},{"poiid":"B2094757D06FA0FF4192","title":"洋面屋五右卫门 世纪大道店","lon":"121.507687","lat":"31.234577","category":"94","category_name":"西餐厅","address":"浦东新区世纪大道100号环球金融中心B1楼106-2号(近东泰路)"},{"poiid":"B2094750D76CABF9459C","title":"Bros会津まる家(陆家嘴店)","lon":"121.508","lat":"31.2349","category":"95","category_name":"日本料理","address":"世纪大道100号环球金融中心B1楼"},{"poiid":"B2094655D26EA6FF409F","title":"金茂君悦宴会厅","lon":"121.50546","lat":"31.23525","category":"257","category_name":"中餐厅","address":"浦东新区世纪大道88号金茂大厦裙楼2楼(近陆家嘴东路)查看地图"},{"poiid":"B2094654DB69A7FE409C","title":"日珍日本餐厅","lon":"121.505615054","lat":"31.235306793","category":"95","category_name":"日本料理","address":"浦东新区世纪大道88号金茂君悦大酒店56楼(近二号线陆家嘴站)"},{"poiid":"B2094757D169A3F84892","title":"金茂大厦56楼意庐Cucina","lon":"121.50576283","lat":"31.235074653","category":"500","category_name":"未知分类","address":"上海世纪大道88号"},{"poiid":"B2094750D268A4FD499B","title":"环球金融中心蒗葶","lon":"121.508239","lat":"31.235717","category":"247","category_name":"餐饮美食","address":"世纪大道100号"},{"poiid":"B2094757D065A7F54592","title":"Park Hyatt 92F Bar","lon":"121.50675873","lat":"31.234378388","category":"260","category_name":"其他","address":"上海市浦东新区世纪大道"},{"poiid":"B2094751D56DA6F4479F","title":"ifc 一风堂","lon":"121.504761","lat":"31.235413","category":"247","category_name":"餐饮美食","address":"上海浦东新区世纪大道8号国金中心LG1 79-80"},{"poiid":"B2094757D06BA1F8439C","title":"一宝日本料理（环球金融店）","lon":"121.50744628","lat":"31.234582901","category":"95","category_name":"日本料理","address":"浦东新区世纪大道100号环球金融中心3楼(近东泰路)"},{"poiid":"B2094757D06BA0FD4692","title":"丽豪港式茶餐厅","lon":"121.506884838","lat":"31.2355587137","category":"72","category_name":"广东菜","address":"浦东新区世纪大道100号环球金融中心B1楼(近东泰路)"},{"poiid":"B2094757D06BA1FC429F","title":"科瓦齿科(金茂店)","lon":"121.505166736","lat":"31.235647382","category":"162","category_name":"医院","address":"浦东新区世纪大道88号金茂大厦裙房时尚生活中心3N1-3N3(近二号线陆家嘴站)"},{"poiid":"B2094757D469A2FD499B","title":"天庭 Patio Lounge","lon":"121.505615054","lat":"31.235306793","category":"65","category_name":"咖啡厅","address":"世纪大道88号金茂大厦56楼近东泰路"},{"poiid":"B2094757D06BA1FA459D","title":"上海中心","lon":"121.506470701","lat":"31.2333594809","category":"500","category_name":"未知分类","address":"上海银城中路501号"},{"poiid":"B2094757D065A7F9409F","title":"Pizzeria Alla Torre(陆家嘴店)","lon":"121.50102","lat":"31.23548","category":"94","category_name":"西餐厅","address":"上海浦东新区陆家嘴环路165号1楼(富城路名商路)"},{"poiid":"B2094757D068AAFC459E","title":"DQ(冰雪皇后)陆家嘴店","lon":"121.506171738","lat":"31.2361194256","category":"113","category_name":"冷饮店","address":"上海市浦东新区世纪大道2F-55(陆家嘴天桥)"},{"poiid":"B2094654DA69A7FB4599","title":"金茂大厦","lon":"121.5124569976","lat":"31.240872238236","category":"46","category_name":"楼宇","address":"浦东新区世纪大道88号金茂大厦内(近二号线陆家嘴站)"},{"poiid":"B2094654DB6AA6FF459C","title":"上海金茂君悦大酒店","lon":"121.50588","lat":"31.23522","category":"213","category_name":"五星级宾馆","address":"浦东新区世纪大道88号金茂大厦53-87楼(近二号线陆家嘴站)"},{"poiid":"B2094654DB6AA6F84799","title":"上海柏悦酒店","lon":"121.50772","lat":"31.23458","category":"213","category_name":"五星级宾馆","address":"浦东新区世纪大道100号环球金融中心79-93楼(近东泰路)"},{"poiid":"B209475CD564A7F84392","title":"上海滩浦东香格里拉店","lon":"121.50058","lat":"31.23634","category":"119","category_name":"商场","address":"浦东富成路33号香格里拉酒店内大堂层"},{"poiid":"B2094757D068AAFF439C","title":"上海環球金融中心100F","lon":"121.50764573","lat":"31.234257385","category":"172","category_name":"酒吧","address":"上海浦东新区银城中路"},{"poiid":"B2094757D06FA3FA449C","title":"蓝蛙(金融中心店)","lon":"121.507612712","lat":"31.2345660379","category":"260","category_name":"其他","address":"浦东新区世纪大道100号环球金融中心B1楼(近东泰路)"},{"poiid":"B2094750D26CA3FE4592","title":"鹿港小镇 正大店","lon":"121.5044996","lat":"31.2354647","category":"91","category_name":"台湾菜","address":"浦东新区陆家嘴西路168号正大广场8楼810室(近东方明珠)"},{"poiid":"B2094757D06FA2FE4493","title":"仁清•东京新怀石料理(金茂店)","lon":"121.50594","lat":"31.23477","category":"95","category_name":"日本料理","address":"浦东新区世纪大道88号金茂大厦裙楼3楼(近二号线陆家嘴站)"},{"poiid":"B2094750DA6AA4F4489F","title":"一风堂拉面","lon":"121.505241","lat":"31.235317","category":"247","category_name":"餐饮美食","address":"国金商场LG1"},{"poiid":"B2094757D464ABF94093","title":"柏悦酒店91楼餐厅","lon":"121.507506","lat":"31.235597","category":"257","category_name":"中餐厅","address":"世纪大道100号环球金融中心87楼（柏悦酒店）近陆家嘴环路"},{"poiid":"B2094655D264A0F9429B","title":"俏江南(环球金融中心店)","lon":"121.50773","lat":"31.23458","category":"71","category_name":"四川菜","address":"浦东新区世纪大道100号环球金融中心3楼307室(近东泰路)"},{"poiid":"B2094757D06FA2FD4698","title":"星巴克 STARBUCKS (金茂大厦店)","lon":"121.505466","lat":"31.235254","category":"65","category_name":"咖啡厅","address":"浦东新区世纪大道88号金茂大厦JLIFE时尚生活中心2楼(近二号线陆家嘴站)"},{"poiid":"B2094757D06FA6FF439A","title":"金茂君悦咖啡厅","lon":"121.50615","lat":"31.23475","category":"268","category_name":"自助","address":"浦东新区世纪大道88号金茂君悦大酒店54楼(近二号线陆家嘴站6号口)"},{"poiid":"B2094757D66FA6FA449C","title":"星巴克(环球金融店)","lon":"121.507684","lat":"31.234951","category":"260","category_name":"其他","address":"浦东新区世纪大道100号环球金融中心1楼101室(近东泰路)"},{"poiid":"B2094757D06FABFE4793","title":"鼎泰丰(环球金融中心店)","lon":"121.507521517","lat":"31.2345763583","category":"68","category_name":"快餐厅","address":"浦东新区世纪大道100号环球金融中心3楼(近东泰路)"},{"poiid":"B2094757D66EA0F9489C","title":"金茂大厦88层","lon":"121.50547323","lat":"31.236578735","category":"252","category_name":"楼宇机构","address":"上海金茂大厦"},{"poiid":"B2094655D26BA3FE419E","title":"新元素 环球中心店 Element Fresh","lon":"121.507588054","lat":"31.235582793","category":"94","category_name":"西餐厅","address":"浦东新区世纪大道100号环球金融中心2楼(近东泰路)"},{"poiid":"B2094757D06FA2FE4099","title":"Ritz-Carlton Flair Pub","lon":"121.505996","lat":"31.235922","category":"172","category_name":"酒吧","address":"上海浦东新区世纪大道8号丽思卡尔顿酒店58层"},{"poiid":"B2094757D06FA3FC439A","title":"金牛苑(国金中心店)","lon":"121.50623","lat":"31.23564","category":"47","category_name":"住宅区","address":"浦东新区世纪大道8号世纪大道8号上海国金中心L3-19"},{"poiid":"B2094757D06FA2FF4198","title":"檬舒舒 MonChouChou(环球金融店)","lon":"121.50742334526058","lat":"31.234131052731218","category":"67","category_name":"甜品店","address":"浦东新区世纪大道100号环球金融中心B1楼B104号商铺(近东泰路)"},{"poiid":"B2094654DA69A7FB4792","title":"拉图餐厅 La Tour","lon":"121.50515","lat":"31.23502","category":"94","category_name":"西餐厅","address":"浦东新区世纪大道88号金茂大厦裙楼5楼(近二号线陆家嘴站)"},{"poiid":"B2094757D569A2FC4193","title":"赤坂亭(环球店)","lon":"121.50769775","lat":"31.23458686","category":"269","category_name":"烧烤","address":"浦东新区世纪大道100号环球金融中心3楼303号(近东泰路)"},{"poiid":"B2094750D268A4FC499B","title":"小金牛越南餐厅","lon":"121.5044996","lat":"31.2354647","category":"99","category_name":"泰国／越南菜品餐厅","address":"浦东新区陆家嘴西路168号正大广场8楼21号铺(近东方明珠)"},{"poiid":"B2094757D06FA6FC459C","title":"Isola Bar & Grill","lon":"121.506157","lat":"31.235234","category":"94","category_name":"西餐厅","address":"浦东新区世纪大道8号上海国金中心L4楼17号铺(近银城中路)"},{"poiid":"B2094750D26BA1FA4898","title":"玛托 MATTO","lon":"121.5044996","lat":"31.2354647","category":"94","category_name":"西餐厅","address":"浦东新区陆家嘴西路168号正大广场1楼GF50铺(近富城路)"},{"poiid":"B2094757D06FA0FB429F","title":"威尔士健身会所(金茂店)","lon":"121.50616","lat":"31.23493","category":"221","category_name":"健身中心","address":"浦东新区世纪大道88号金茂大厦裙楼生活时尚中心J.LIFE3-4楼(近二号线陆家嘴站)"},{"poiid":"B2094757DB68A3F9419D","title":"梅赛德斯-奔驰文化中心","lon":"121.50617587","lat":"31.23635451999999","category":"500","category_name":"未知分类","address":"世博大道1200号"},{"poiid":"B2094757D068A3F94898","title":"天萃庭","lon":"121.50614","lat":"31.23497","category":"72","category_name":"广东菜","address":"浦东新区世纪大道88号金茂大厦裙楼6楼(近二号线陆家嘴站)"},{"poiid":"B2094655D26DA7F44998","title":"上海环球金融中心观光厅","lon":"121.50773","lat":"31.23458","category":"183","category_name":"展览馆","address":"浦东新区世纪大道100号环球金融中心94-100楼(近东泰路)"},{"poiid":"B2094654DA69A7FB459E","title":"上海金茂大厦88层观光厅","lon":"121.50562","lat":"31.23524","category":"240","category_name":"国家级景点","address":"上海市浦东新区世纪大道88号金茂大厦"},{"poiid":"B2094757D068AAFD449B","title":"ABC cooking studio(环球金融中心)","lon":"121.50756773","lat":"31.234875399","category":"67","category_name":"甜品店","address":"上海世纪大道100号"},{"poiid":"B2094655D26BA4F44398","title":"COSTA咖啡(上海环球金融中心店)","lon":"121.50773","lat":"31.23458","category":"65","category_name":"咖啡厅","address":"浦东新区世纪大道100号环球金融中心2楼220单元(近东泰路)"},{"poiid":"B2094757D16CA2FF4899","title":"麦当劳国金中心店","lon":"121.50513081","lat":"31.236093145","category":"68","category_name":"快餐厅","address":"浦东新区世纪大道8号国金中心商场LG1-17号商铺(近东泰路)"},{"poiid":"B2094757D468A7F54892","title":"丽思卡尔顿大堂酒廊 Aura","lon":"121.50596","lat":"31.23591","category":"172","category_name":"酒吧","address":"浦东新区世纪大道8号上海国金中心丽思卡尔顿酒店(东泰路世纪大道)"},{"poiid":"B2094750DB6DA0FC459A","title":"一風堂（IPPUDO SH）","lon":"121.50502","lat":"31.235397","category":"247","category_name":"餐饮美食","address":null},{"poiid":"B2094757D06FA0FF4192","title":"洋面屋五右卫门 世纪大道店","lon":"121.507687","lat":"31.234577","category":"94","category_name":"西餐厅","address":"浦东新区世纪大道100号环球金融中心B1楼106-2号(近东泰路)"},{"poiid":"B2094750D76CABF9459C","title":"Bros会津まる家(陆家嘴店)","lon":"121.508","lat":"31.2349","category":"95","category_name":"日本料理","address":"世纪大道100号环球金融中心B1楼"},{"poiid":"B2094655D26EA6FF409F","title":"金茂君悦宴会厅","lon":"121.50546","lat":"31.23525","category":"257","category_name":"中餐厅","address":"浦东新区世纪大道88号金茂大厦裙楼2楼(近陆家嘴东路)查看地图"},{"poiid":"B2094654DB69A7FE409C","title":"日珍日本餐厅","lon":"121.505615054","lat":"31.235306793","category":"95","category_name":"日本料理","address":"浦东新区世纪大道88号金茂君悦大酒店56楼(近二号线陆家嘴站)"},{"poiid":"B2094757D169A3F84892","title":"金茂大厦56楼意庐Cucina","lon":"121.50576283","lat":"31.235074653","category":"500","category_name":"未知分类","address":"上海世纪大道88号"},{"poiid":"B2094750D268A4FD499B","title":"环球金融中心蒗葶","lon":"121.508239","lat":"31.235717","category":"247","category_name":"餐饮美食","address":"世纪大道100号"},{"poiid":"B2094757D065A7F54592","title":"Park Hyatt 92F Bar","lon":"121.50675873","lat":"31.234378388","category":"260","category_name":"其他","address":"上海市浦东新区世纪大道"},{"poiid":"B2094751D56DA6F4479F","title":"ifc 一风堂","lon":"121.504761","lat":"31.235413","category":"247","category_name":"餐饮美食","address":"上海浦东新区世纪大道8号国金中心LG1 79-80"},{"poiid":"B2094757D06BA1F8439C","title":"一宝日本料理（环球金融店）","lon":"121.50744628","lat":"31.234582901","category":"95","category_name":"日本料理","address":"浦东新区世纪大道100号环球金融中心3楼(近东泰路)"},{"poiid":"B2094757D06BA0FD4692","title":"丽豪港式茶餐厅","lon":"121.506884838","lat":"31.2355587137","category":"72","category_name":"广东菜","address":"浦东新区世纪大道100号环球金融中心B1楼(近东泰路)"},{"poiid":"B2094757D06BA1FC429F","title":"科瓦齿科(金茂店)","lon":"121.505166736","lat":"31.235647382","category":"162","category_name":"医院","address":"浦东新区世纪大道88号金茂大厦裙房时尚生活中心3N1-3N3(近二号线陆家嘴站)"},{"poiid":"B2094757D469A2FD499B","title":"天庭 Patio Lounge","lon":"121.505615054","lat":"31.235306793","category":"65","category_name":"咖啡厅","address":"世纪大道88号金茂大厦56楼近东泰路"},{"poiid":"B2094757D06BA1FA459D","title":"上海中心","lon":"121.506470701","lat":"31.2333594809","category":"500","category_name":"未知分类","address":"上海银城中路501号"},{"poiid":"B2094757D065A7F9409F","title":"Pizzeria Alla Torre(陆家嘴店)","lon":"121.50102","lat":"31.23548","category":"94","category_name":"西餐厅","address":"上海浦东新区陆家嘴环路165号1楼(富城路名商路)"},{"poiid":"B2094757D068AAFC459E","title":"DQ(冰雪皇后)陆家嘴店","lon":"121.506171738","lat":"31.2361194256","category":"113","category_name":"冷饮店","address":"上海市浦东新区世纪大道2F-55(陆家嘴天桥)"},{"poiid":"B2094654DA69A7FB4599","title":"金茂大厦","lon":"121.5124569976","lat":"31.240872238236","category":"46","category_name":"楼宇","address":"浦东新区世纪大道88号金茂大厦内(近二号线陆家嘴站)"},{"poiid":"B2094654DB6AA6FF459C","title":"上海金茂君悦大酒店","lon":"121.50588","lat":"31.23522","category":"213","category_name":"五星级宾馆","address":"浦东新区世纪大道88号金茂大厦53-87楼(近二号线陆家嘴站)"},{"poiid":"B2094654DB6AA6F84799","title":"上海柏悦酒店","lon":"121.50772","lat":"31.23458","category":"213","category_name":"五星级宾馆","address":"浦东新区世纪大道100号环球金融中心79-93楼(近东泰路)"},{"poiid":"B209475CD564A7F84392","title":"上海滩浦东香格里拉店","lon":"121.50058","lat":"31.23634","category":"119","category_name":"商场","address":"浦东富成路33号香格里拉酒店内大堂层"},{"poiid":"B2094757D068AAFF439C","title":"上海環球金融中心100F","lon":"121.50764573","lat":"31.234257385","category":"172","category_name":"酒吧","address":"上海浦东新区银城中路"},{"poiid":"B2094757D06FA3FA449C","title":"蓝蛙(金融中心店)","lon":"121.507612712","lat":"31.2345660379","category":"260","category_name":"其他","address":"浦东新区世纪大道100号环球金融中心B1楼(近东泰路)"},{"poiid":"B2094750D26CA3FE4592","title":"鹿港小镇 正大店","lon":"121.5044996","lat":"31.2354647","category":"91","category_name":"台湾菜","address":"浦东新区陆家嘴西路168号正大广场8楼810室(近东方明珠)"},{"poiid":"B2094757D06FA2FE4493","title":"仁清•东京新怀石料理(金茂店)","lon":"121.50594","lat":"31.23477","category":"95","category_name":"日本料理","address":"浦东新区世纪大道88号金茂大厦裙楼3楼(近二号线陆家嘴站)"},{"poiid":"B2094750DA6AA4F4489F","title":"一风堂拉面","lon":"121.505241","lat":"31.235317","category":"247","category_name":"餐饮美食","address":"国金商场LG1"},{"poiid":"B2094757D464ABF94093","title":"柏悦酒店91楼餐厅","lon":"121.507506","lat":"31.235597","category":"257","category_name":"中餐厅","address":"世纪大道100号环球金融中心87楼（柏悦酒店）近陆家嘴环路"},{"poiid":"B2094655D264A0F9429B","title":"俏江南(环球金融中心店)","lon":"121.50773","lat":"31.23458","category":"71","category_name":"四川菜","address":"浦东新区世纪大道100号环球金融中心3楼307室(近东泰路)"},{"poiid":"B2094757D06FA2FD4698","title":"星巴克 STARBUCKS (金茂大厦店)","lon":"121.505466","lat":"31.235254","category":"65","category_name":"咖啡厅","address":"浦东新区世纪大道88号金茂大厦JLIFE时尚生活中心2楼(近二号线陆家嘴站)"},{"poiid":"B2094757D06FA6FF439A","title":"金茂君悦咖啡厅","lon":"121.50615","lat":"31.23475","category":"268","category_name":"自助","address":"浦东新区世纪大道88号金茂君悦大酒店54楼(近二号线陆家嘴站6号口)"},{"poiid":"B2094757D66FA6FA449C","title":"星巴克(环球金融店)","lon":"121.507684","lat":"31.234951","category":"260","category_name":"其他","address":"浦东新区世纪大道100号环球金融中心1楼101室(近东泰路)"},{"poiid":"B2094757D06FABFE4793","title":"鼎泰丰(环球金融中心店)","lon":"121.507521517","lat":"31.2345763583","category":"68","category_name":"快餐厅","address":"浦东新区世纪大道100号环球金融中心3楼(近东泰路)"},{"poiid":"B2094757D66EA0F9489C","title":"金茂大厦88层","lon":"121.50547323","lat":"31.236578735","category":"252","category_name":"楼宇机构","address":"上海金茂大厦"},{"poiid":"B2094655D26BA3FE419E","title":"新元素 环球中心店 Element Fresh","lon":"121.507588054","lat":"31.235582793","category":"94","category_name":"西餐厅","address":"浦东新区世纪大道100号环球金融中心2楼(近东泰路)"},{"poiid":"B2094757D06FA2FE4099","title":"Ritz-Carlton Flair Pub","lon":"121.505996","lat":"31.235922","category":"172","category_name":"酒吧","address":"上海浦东新区世纪大道8号丽思卡尔顿酒店58层"},{"poiid":"B2094757D06FA3FC439A","title":"金牛苑(国金中心店)","lon":"121.50623","lat":"31.23564","category":"47","category_name":"住宅区","address":"浦东新区世纪大道8号世纪大道8号上海国金中心L3-19"},{"poiid":"B2094757D06FA2FF4198","title":"檬舒舒 MonChouChou(环球金融店)","lon":"121.50742334526058","lat":"31.234131052731218","category":"67","category_name":"甜品店","address":"浦东新区世纪大道100号环球金融中心B1楼B104号商铺(近东泰路)"},{"poiid":"B2094654DA69A7FB4792","title":"拉图餐厅 La Tour","lon":"121.50515","lat":"31.23502","category":"94","category_name":"西餐厅","address":"浦东新区世纪大道88号金茂大厦裙楼5楼(近二号线陆家嘴站)"},{"poiid":"B2094757D569A2FC4193","title":"赤坂亭(环球店)","lon":"121.50769775","lat":"31.23458686","category":"269","category_name":"烧烤","address":"浦东新区世纪大道100号环球金融中心3楼303号(近东泰路)"},{"poiid":"B2094750D268A4FC499B","title":"小金牛越南餐厅","lon":"121.5044996","lat":"31.2354647","category":"99","category_name":"泰国／越南菜品餐厅","address":"浦东新区陆家嘴西路168号正大广场8楼21号铺(近东方明珠)"},{"poiid":"B2094757D06FA6FC459C","title":"Isola Bar & Grill","lon":"121.506157","lat":"31.235234","category":"94","category_name":"西餐厅","address":"浦东新区世纪大道8号上海国金中心L4楼17号铺(近银城中路)"},{"poiid":"B2094750D26BA1FA4898","title":"玛托 MATTO","lon":"121.5044996","lat":"31.2354647","category":"94","category_name":"西餐厅","address":"浦东新区陆家嘴西路168号正大广场1楼GF50铺(近富城路)"},{"poiid":"B2094757D06FA0FB429F","title":"威尔士健身会所(金茂店)","lon":"121.50616","lat":"31.23493","category":"221","category_name":"健身中心","address":"浦东新区世纪大道88号金茂大厦裙楼生活时尚中心J.LIFE3-4楼(近二号线陆家嘴站)"},{"poiid":"B2094757DB68A3F9419D","title":"梅赛德斯-奔驰文化中心","lon":"121.50617587","lat":"31.23635451999999","category":"500","category_name":"未知分类","address":"世博大道1200号"},{"poiid":"B2094757D068A3F94898","title":"天萃庭","lon":"121.50614","lat":"31.23497","category":"72","category_name":"广东菜","address":"浦东新区世纪大道88号金茂大厦裙楼6楼(近二号线陆家嘴站)"},{"poiid":"B2094655D26DA7F44998","title":"上海环球金融中心观光厅","lon":"121.50773","lat":"31.23458","category":"183","category_name":"展览馆","address":"浦东新区世纪大道100号环球金融中心94-100楼(近东泰路)"},{"poiid":"B2094654DA69A7FB459E","title":"上海金茂大厦88层观光厅","lon":"121.50562","lat":"31.23524","category":"240","category_name":"国家级景点","address":"上海市浦东新区世纪大道88号金茂大厦"},{"poiid":"B2094757D068AAFD449B","title":"ABC cooking studio(环球金融中心)","lon":"121.50756773","lat":"31.234875399","category":"67","category_name":"甜品店","address":"上海世纪大道100号"},{"poiid":"B2094655D26BA4F44398","title":"COSTA咖啡(上海环球金融中心店)","lon":"121.50773","lat":"31.23458","category":"65","category_name":"咖啡厅","address":"浦东新区世纪大道100号环球金融中心2楼220单元(近东泰路)"},{"poiid":"B2094757D16CA2FF4899","title":"麦当劳国金中心店","lon":"121.50513081","lat":"31.236093145","category":"68","category_name":"快餐厅","address":"浦东新区世纪大道8号国金中心商场LG1-17号商铺(近东泰路)"},{"poiid":"B2094757D468A7F54892","title":"丽思卡尔顿大堂酒廊 Aura","lon":"121.50596","lat":"31.23591","category":"172","category_name":"酒吧","address":"浦东新区世纪大道8号上海国金中心丽思卡尔顿酒店(东泰路世纪大道)"},{"poiid":"B2094750DB6DA0FC459A","title":"一風堂（IPPUDO SH）","lon":"121.50502","lat":"31.235397","category":"247","category_name":"餐饮美食","address":null},{"poiid":"B2094757D06FA0FF4192","title":"洋面屋五右卫门 世纪大道店","lon":"121.507687","lat":"31.234577","category":"94","category_name":"西餐厅","address":"浦东新区世纪大道100号环球金融中心B1楼106-2号(近东泰路)"},{"poiid":"B2094750D76CABF9459C","title":"Bros会津まる家(陆家嘴店)","lon":"121.508","lat":"31.2349","category":"95","category_name":"日本料理","address":"世纪大道100号环球金融中心B1楼"},{"poiid":"B2094655D26EA6FF409F","title":"金茂君悦宴会厅","lon":"121.50546","lat":"31.23525","category":"257","category_name":"中餐厅","address":"浦东新区世纪大道88号金茂大厦裙楼2楼(近陆家嘴东路)查看地图"},{"poiid":"B2094654DB69A7FE409C","title":"日珍日本餐厅","lon":"121.505615054","lat":"31.235306793","category":"95","category_name":"日本料理","address":"浦东新区世纪大道88号金茂君悦大酒店56楼(近二号线陆家嘴站)"},{"poiid":"B2094757D169A3F84892","title":"金茂大厦56楼意庐Cucina","lon":"121.50576283","lat":"31.235074653","category":"500","category_name":"未知分类","address":"上海世纪大道88号"},{"poiid":"B2094750D268A4FD499B","title":"环球金融中心蒗葶","lon":"121.508239","lat":"31.235717","category":"247","category_name":"餐饮美食","address":"世纪大道100号"},{"poiid":"B2094757D065A7F54592","title":"Park Hyatt 92F Bar","lon":"121.50675873","lat":"31.234378388","category":"260","category_name":"其他","address":"上海市浦东新区世纪大道"},{"poiid":"B2094751D56DA6F4479F","title":"ifc 一风堂","lon":"121.504761","lat":"31.235413","category":"247","category_name":"餐饮美食","address":"上海浦东新区世纪大道8号国金中心LG1 79-80"},{"poiid":"B2094757D06BA1F8439C","title":"一宝日本料理（环球金融店）","lon":"121.50744628","lat":"31.234582901","category":"95","category_name":"日本料理","address":"浦东新区世纪大道100号环球金融中心3楼(近东泰路)"},{"poiid":"B2094757D06BA0FD4692","title":"丽豪港式茶餐厅","lon":"121.506884838","lat":"31.2355587137","category":"72","category_name":"广东菜","address":"浦东新区世纪大道100号环球金融中心B1楼(近东泰路)"},{"poiid":"B2094757D06BA1FC429F","title":"科瓦齿科(金茂店)","lon":"121.505166736","lat":"31.235647382","category":"162","category_name":"医院","address":"浦东新区世纪大道88号金茂大厦裙房时尚生活中心3N1-3N3(近二号线陆家嘴站)"},{"poiid":"B2094757D469A2FD499B","title":"天庭 Patio Lounge","lon":"121.505615054","lat":"31.235306793","category":"65","category_name":"咖啡厅","address":"世纪大道88号金茂大厦56楼近东泰路"},{"poiid":"B2094757D06BA1FA459D","title":"上海中心","lon":"121.506470701","lat":"31.2333594809","category":"500","category_name":"未知分类","address":"上海银城中路501号"},{"poiid":"B2094757D065A7F9409F","title":"Pizzeria Alla Torre(陆家嘴店)","lon":"121.50102","lat":"31.23548","category":"94","category_name":"西餐厅","address":"上海浦东新区陆家嘴环路165号1楼(富城路名商路)"},{"poiid":"B2094757D068AAFC459E","title":"DQ(冰雪皇后)陆家嘴店","lon":"121.506171738","lat":"31.2361194256","category":"113","category_name":"冷饮店","address":"上海市浦东新区世纪大道2F-55(陆家嘴天桥)"},{"poiid":"B2094654DA69A7FB4599","title":"金茂大厦","lon":"121.5124569976","lat":"31.240872238236","category":"46","category_name":"楼宇","address":"浦东新区世纪大道88号金茂大厦内(近二号线陆家嘴站)"},{"poiid":"B2094654DB6AA6FF459C","title":"上海金茂君悦大酒店","lon":"121.50588","lat":"31.23522","category":"213","category_name":"五星级宾馆","address":"浦东新区世纪大道88号金茂大厦53-87楼(近二号线陆家嘴站)"},{"poiid":"B2094654DB6AA6F84799","title":"上海柏悦酒店","lon":"121.50772","lat":"31.23458","category":"213","category_name":"五星级宾馆","address":"浦东新区世纪大道100号环球金融中心79-93楼(近东泰路)"},{"poiid":"B209475CD564A7F84392","title":"上海滩浦东香格里拉店","lon":"121.50058","lat":"31.23634","category":"119","category_name":"商场","address":"浦东富成路33号香格里拉酒店内大堂层"},{"poiid":"B2094757D068AAFF439C","title":"上海環球金融中心100F","lon":"121.50764573","lat":"31.234257385","category":"172","category_name":"酒吧","address":"上海浦东新区银城中路"},{"poiid":"B2094757D06FA3FA449C","title":"蓝蛙(金融中心店)","lon":"121.507612712","lat":"31.2345660379","category":"260","category_name":"其他","address":"浦东新区世纪大道100号环球金融中心B1楼(近东泰路)"},{"poiid":"B2094750D26CA3FE4592","title":"鹿港小镇 正大店","lon":"121.5044996","lat":"31.2354647","category":"91","category_name":"台湾菜","address":"浦东新区陆家嘴西路168号正大广场8楼810室(近东方明珠)"},{"poiid":"B2094757D06FA2FE4493","title":"仁清•东京新怀石料理(金茂店)","lon":"121.50594","lat":"31.23477","category":"95","category_name":"日本料理","address":"浦东新区世纪大道88号金茂大厦裙楼3楼(近二号线陆家嘴站)"},{"poiid":"B2094750DA6AA4F4489F","title":"一风堂拉面","lon":"121.505241","lat":"31.235317","category":"247","category_name":"餐饮美食","address":"国金商场LG1"},{"poiid":"B2094757D464ABF94093","title":"柏悦酒店91楼餐厅","lon":"121.507506","lat":"31.235597","category":"257","category_name":"中餐厅","address":"世纪大道100号环球金融中心87楼（柏悦酒店）近陆家嘴环路"},{"poiid":"B2094655D264A0F9429B","title":"俏江南(环球金融中心店)","lon":"121.50773","lat":"31.23458","category":"71","category_name":"四川菜","address":"浦东新区世纪大道100号环球金融中心3楼307室(近东泰路)"},{"poiid":"B2094757D06FA2FD4698","title":"星巴克 STARBUCKS (金茂大厦店)","lon":"121.505466","lat":"31.235254","category":"65","category_name":"咖啡厅","address":"浦东新区世纪大道88号金茂大厦JLIFE时尚生活中心2楼(近二号线陆家嘴站)"},{"poiid":"B2094757D06FA6FF439A","title":"金茂君悦咖啡厅","lon":"121.50615","lat":"31.23475","category":"268","category_name":"自助","address":"浦东新区世纪大道88号金茂君悦大酒店54楼(近二号线陆家嘴站6号口)"},{"poiid":"B2094757D66FA6FA449C","title":"星巴克(环球金融店)","lon":"121.507684","lat":"31.234951","category":"260","category_name":"其他","address":"浦东新区世纪大道100号环球金融中心1楼101室(近东泰路)"},{"poiid":"B2094757D06FABFE4793","title":"鼎泰丰(环球金融中心店)","lon":"121.507521517","lat":"31.2345763583","category":"68","category_name":"快餐厅","address":"浦东新区世纪大道100号环球金融中心3楼(近东泰路)"},{"poiid":"B2094757D66EA0F9489C","title":"金茂大厦88层","lon":"121.50547323","lat":"31.236578735","category":"252","category_name":"楼宇机构","address":"上海金茂大厦"},{"poiid":"B2094655D26BA3FE419E","title":"新元素 环球中心店 Element Fresh","lon":"121.507588054","lat":"31.235582793","category":"94","category_name":"西餐厅","address":"浦东新区世纪大道100号环球金融中心2楼(近东泰路)"},{"poiid":"B2094757D06FA2FE4099","title":"Ritz-Carlton Flair Pub","lon":"121.505996","lat":"31.235922","category":"172","category_name":"酒吧","address":"上海浦东新区世纪大道8号丽思卡尔顿酒店58层"},{"poiid":"B2094757D06FA3FC439A","title":"金牛苑(国金中心店)","lon":"121.50623","lat":"31.23564","category":"47","category_name":"住宅区","address":"浦东新区世纪大道8号世纪大道8号上海国金中心L3-19"},{"poiid":"B2094757D06FA2FF4198","title":"檬舒舒 MonChouChou(环球金融店)","lon":"121.50742334526058","lat":"31.234131052731218","category":"67","category_name":"甜品店","address":"浦东新区世纪大道100号环球金融中心B1楼B104号商铺(近东泰路)"},{"poiid":"B2094654DA69A7FB4792","title":"拉图餐厅 La Tour","lon":"121.50515","lat":"31.23502","category":"94","category_name":"西餐厅","address":"浦东新区世纪大道88号金茂大厦裙楼5楼(近二号线陆家嘴站)"},{"poiid":"B2094757D569A2FC4193","title":"赤坂亭(环球店)","lon":"121.50769775","lat":"31.23458686","category":"269","category_name":"烧烤","address":"浦东新区世纪大道100号环球金融中心3楼303号(近东泰路)"},{"poiid":"B2094750D268A4FC499B","title":"小金牛越南餐厅","lon":"121.5044996","lat":"31.2354647","category":"99","category_name":"泰国／越南菜品餐厅","address":"浦东新区陆家嘴西路168号正大广场8楼21号铺(近东方明珠)"},{"poiid":"B2094757D06FA6FC459C","title":"Isola Bar & Grill","lon":"121.506157","lat":"31.235234","category":"94","category_name":"西餐厅","address":"浦东新区世纪大道8号上海国金中心L4楼17号铺(近银城中路)"},{"poiid":"B2094750D26BA1FA4898","title":"玛托 MATTO","lon":"121.5044996","lat":"31.2354647","category":"94","category_name":"西餐厅","address":"浦东新区陆家嘴西路168号正大广场1楼GF50铺(近富城路)"},{"poiid":"B2094757D06FA0FB429F","title":"威尔士健身会所(金茂店)","lon":"121.50616","lat":"31.23493","category":"221","category_name":"健身中心","address":"浦东新区世纪大道88号金茂大厦裙楼生活时尚中心J.LIFE3-4楼(近二号线陆家嘴站)"},{"poiid":"B2094757DB68A3F9419D","title":"梅赛德斯-奔驰文化中心","lon":"121.50617587","lat":"31.23635451999999","category":"500","category_name":"未知分类","address":"世博大道1200号"},{"poiid":"B2094757D068A3F94898","title":"天萃庭","lon":"121.50614","lat":"31.23497","category":"72","category_name":"广东菜","address":"浦东新区世纪大道88号金茂大厦裙楼6楼(近二号线陆家嘴站)"},{"poiid":"B2094655D26DA7F44998","title":"上海环球金融中心观光厅","lon":"121.50773","lat":"31.23458","category":"183","category_name":"展览馆","address":"浦东新区世纪大道100号环球金融中心94-100楼(近东泰路)"},{"poiid":"B2094654DA69A7FB459E","title":"上海金茂大厦88层观光厅","lon":"121.50562","lat":"31.23524","category":"240","category_name":"国家级景点","address":"上海市浦东新区世纪大道88号金茂大厦"},{"poiid":"B2094757D068AAFD449B","title":"ABC cooking studio(环球金融中心)","lon":"121.50756773","lat":"31.234875399","category":"67","category_name":"甜品店","address":"上海世纪大道100号"},{"poiid":"B2094655D26BA4F44398","title":"COSTA咖啡(上海环球金融中心店)","lon":"121.50773","lat":"31.23458","category":"65","category_name":"咖啡厅","address":"浦东新区世纪大道100号环球金融中心2楼220单元(近东泰路)"},{"poiid":"B2094757D16CA2FF4899","title":"麦当劳国金中心店","lon":"121.50513081","lat":"31.236093145","category":"68","category_name":"快餐厅","address":"浦东新区世纪大道8号国金中心商场LG1-17号商铺(近东泰路)"},{"poiid":"B2094757D468A7F54892","title":"丽思卡尔顿大堂酒廊 Aura","lon":"121.50596","lat":"31.23591","category":"172","category_name":"酒吧","address":"浦东新区世纪大道8号上海国金中心丽思卡尔顿酒店(东泰路世纪大道)"},{"poiid":"B2094750DB6DA0FC459A","title":"一風堂（IPPUDO SH）","lon":"121.50502","lat":"31.235397","category":"247","category_name":"餐饮美食","address":null},{"poiid":"B2094757D06FA0FF4192","title":"洋面屋五右卫门 世纪大道店","lon":"121.507687","lat":"31.234577","category":"94","category_name":"西餐厅","address":"浦东新区世纪大道100号环球金融中心B1楼106-2号(近东泰路)"},{"poiid":"B2094750D76CABF9459C","title":"Bros会津まる家(陆家嘴店)","lon":"121.508","lat":"31.2349","category":"95","category_name":"日本料理","address":"世纪大道100号环球金融中心B1楼"},{"poiid":"B2094655D26EA6FF409F","title":"金茂君悦宴会厅","lon":"121.50546","lat":"31.23525","category":"257","category_name":"中餐厅","address":"浦东新区世纪大道88号金茂大厦裙楼2楼(近陆家嘴东路)查看地图"},{"poiid":"B2094654DB69A7FE409C","title":"日珍日本餐厅","lon":"121.505615054","lat":"31.235306793","category":"95","category_name":"日本料理","address":"浦东新区世纪大道88号金茂君悦大酒店56楼(近二号线陆家嘴站)"},{"poiid":"B2094757D169A3F84892","title":"金茂大厦56楼意庐Cucina","lon":"121.50576283","lat":"31.235074653","category":"500","category_name":"未知分类","address":"上海世纪大道88号"},{"poiid":"B2094750D268A4FD499B","title":"环球金融中心蒗葶","lon":"121.508239","lat":"31.235717","category":"247","category_name":"餐饮美食","address":"世纪大道100号"},{"poiid":"B2094757D065A7F54592","title":"Park Hyatt 92F Bar","lon":"121.50675873","lat":"31.234378388","category":"260","category_name":"其他","address":"上海市浦东新区世纪大道"},{"poiid":"B2094751D56DA6F4479F","title":"ifc 一风堂","lon":"121.504761","lat":"31.235413","category":"247","category_name":"餐饮美食","address":"上海浦东新区世纪大道8号国金中心LG1 79-80"},{"poiid":"B2094757D06BA1F8439C","title":"一宝日本料理（环球金融店）","lon":"121.50744628","lat":"31.234582901","category":"95","category_name":"日本料理","address":"浦东新区世纪大道100号环球金融中心3楼(近东泰路)"},{"poiid":"B2094757D06BA0FD4692","title":"丽豪港式茶餐厅","lon":"121.506884838","lat":"31.2355587137","category":"72","category_name":"广东菜","address":"浦东新区世纪大道100号环球金融中心B1楼(近东泰路)"},{"poiid":"B2094757D06BA1FC429F","title":"科瓦齿科(金茂店)","lon":"121.505166736","lat":"31.235647382","category":"162","category_name":"医院","address":"浦东新区世纪大道88号金茂大厦裙房时尚生活中心3N1-3N3(近二号线陆家嘴站)"},{"poiid":"B2094757D469A2FD499B","title":"天庭 Patio Lounge","lon":"121.505615054","lat":"31.235306793","category":"65","category_name":"咖啡厅","address":"世纪大道88号金茂大厦56楼近东泰路"},{"poiid":"B2094757D06BA1FA459D","title":"上海中心","lon":"121.506470701","lat":"31.2333594809","category":"500","category_name":"未知分类","address":"上海银城中路501号"},{"poiid":"B2094757D065A7F9409F","title":"Pizzeria Alla Torre(陆家嘴店)","lon":"121.50102","lat":"31.23548","category":"94","category_name":"西餐厅","address":"上海浦东新区陆家嘴环路165号1楼(富城路名商路)"},{"poiid":"B2094757D068AAFC459E","title":"DQ(冰雪皇后)陆家嘴店","lon":"121.506171738","lat":"31.2361194256","category":"113","category_name":"冷饮店","address":"上海市浦东新区世纪大道2F-55(陆家嘴天桥)"},{"poiid":"B2094654DA69A7FB4599","title":"金茂大厦","lon":"121.5124569976","lat":"31.240872238236","category":"46","category_name":"楼宇","address":"浦东新区世纪大道88号金茂大厦内(近二号线陆家嘴站)"},{"poiid":"B2094654DB6AA6FF459C","title":"上海金茂君悦大酒店","lon":"121.50588","lat":"31.23522","category":"213","category_name":"五星级宾馆","address":"浦东新区世纪大道88号金茂大厦53-87楼(近二号线陆家嘴站)"},{"poiid":"B2094654DB6AA6F84799","title":"上海柏悦酒店","lon":"121.50772","lat":"31.23458","category":"213","category_name":"五星级宾馆","address":"浦东新区世纪大道100号环球金融中心79-93楼(近东泰路)"},{"poiid":"B209475CD564A7F84392","title":"上海滩浦东香格里拉店","lon":"121.50058","lat":"31.23634","category":"119","category_name":"商场","address":"浦东富成路33号香格里拉酒店内大堂层"},{"poiid":"B2094757D068AAFF439C","title":"上海環球金融中心100F","lon":"121.50764573","lat":"31.234257385","category":"172","category_name":"酒吧","address":"上海浦东新区银城中路"},{"poiid":"B2094757D06FA3FA449C","title":"蓝蛙(金融中心店)","lon":"121.507612712","lat":"31.2345660379","category":"260","category_name":"其他","address":"浦东新区世纪大道100号环球金融中心B1楼(近东泰路)"},{"poiid":"B2094750D26CA3FE4592","title":"鹿港小镇 正大店","lon":"121.5044996","lat":"31.2354647","category":"91","category_name":"台湾菜","address":"浦东新区陆家嘴西路168号正大广场8楼810室(近东方明珠)"},{"poiid":"B2094757D06FA2FE4493","title":"仁清•东京新怀石料理(金茂店)","lon":"121.50594","lat":"31.23477","category":"95","category_name":"日本料理","address":"浦东新区世纪大道88号金茂大厦裙楼3楼(近二号线陆家嘴站)"},{"poiid":"B2094750DA6AA4F4489F","title":"一风堂拉面","lon":"121.505241","lat":"31.235317","category":"247","category_name":"餐饮美食","address":"国金商场LG1"},{"poiid":"B2094757D464ABF94093","title":"柏悦酒店91楼餐厅","lon":"121.507506","lat":"31.235597","category":"257","category_name":"中餐厅","address":"世纪大道100号环球金融中心87楼（柏悦酒店）近陆家嘴环路"},{"poiid":"B2094655D264A0F9429B","title":"俏江南(环球金融中心店)","lon":"121.50773","lat":"31.23458","category":"71","category_name":"四川菜","address":"浦东新区世纪大道100号环球金融中心3楼307室(近东泰路)"},{"poiid":"B2094757D06FA2FD4698","title":"星巴克 STARBUCKS (金茂大厦店)","lon":"121.505466","lat":"31.235254","category":"65","category_name":"咖啡厅","address":"浦东新区世纪大道88号金茂大厦JLIFE时尚生活中心2楼(近二号线陆家嘴站)"},{"poiid":"B2094757D06FA6FF439A","title":"金茂君悦咖啡厅","lon":"121.50615","lat":"31.23475","category":"268","category_name":"自助","address":"浦东新区世纪大道88号金茂君悦大酒店54楼(近二号线陆家嘴站6号口)"},{"poiid":"B2094757D66FA6FA449C","title":"星巴克(环球金融店)","lon":"121.507684","lat":"31.234951","category":"260","category_name":"其他","address":"浦东新区世纪大道100号环球金融中心1楼101室(近东泰路)"},{"poiid":"B2094757D06FABFE4793","title":"鼎泰丰(环球金融中心店)","lon":"121.507521517","lat":"31.2345763583","category":"68","category_name":"快餐厅","address":"浦东新区世纪大道100号环球金融中心3楼(近东泰路)"},{"poiid":"B2094757D66EA0F9489C","title":"金茂大厦88层","lon":"121.50547323","lat":"31.236578735","category":"252","category_name":"楼宇机构","address":"上海金茂大厦"},{"poiid":"B2094655D26BA3FE419E","title":"新元素 环球中心店 Element Fresh","lon":"121.507588054","lat":"31.235582793","category":"94","category_name":"西餐厅","address":"浦东新区世纪大道100号环球金融中心2楼(近东泰路)"},{"poiid":"B2094757D06FA2FE4099","title":"Ritz-Carlton Flair Pub","lon":"121.505996","lat":"31.235922","category":"172","category_name":"酒吧","address":"上海浦东新区世纪大道8号丽思卡尔顿酒店58层"},{"poiid":"B2094757D06FA3FC439A","title":"金牛苑(国金中心店)","lon":"121.50623","lat":"31.23564","category":"47","category_name":"住宅区","address":"浦东新区世纪大道8号世纪大道8号上海国金中心L3-19"},{"poiid":"B2094757D06FA2FF4198","title":"檬舒舒 MonChouChou(环球金融店)","lon":"121.50742334526058","lat":"31.234131052731218","category":"67","category_name":"甜品店","address":"浦东新区世纪大道100号环球金融中心B1楼B104号商铺(近东泰路)"},{"poiid":"B2094654DA69A7FB4792","title":"拉图餐厅 La Tour","lon":"121.50515","lat":"31.23502","category":"94","category_name":"西餐厅","address":"浦东新区世纪大道88号金茂大厦裙楼5楼(近二号线陆家嘴站)"},{"poiid":"B2094757D569A2FC4193","title":"赤坂亭(环球店)","lon":"121.50769775","lat":"31.23458686","category":"269","category_name":"烧烤","address":"浦东新区世纪大道100号环球金融中心3楼303号(近东泰路)"},{"poiid":"B2094750D268A4FC499B","title":"小金牛越南餐厅","lon":"121.5044996","lat":"31.2354647","category":"99","category_name":"泰国／越南菜品餐厅","address":"浦东新区陆家嘴西路168号正大广场8楼21号铺(近东方明珠)"},{"poiid":"B2094757D06FA6FC459C","title":"Isola Bar & Grill","lon":"121.506157","lat":"31.235234","category":"94","category_name":"西餐厅","address":"浦东新区世纪大道8号上海国金中心L4楼17号铺(近银城中路)"},{"poiid":"B2094750D26BA1FA4898","title":"玛托 MATTO","lon":"121.5044996","lat":"31.2354647","category":"94","category_name":"西餐厅","address":"浦东新区陆家嘴西路168号正大广场1楼GF50铺(近富城路)"},{"poiid":"B2094757D06FA0FB429F","title":"威尔士健身会所(金茂店)","lon":"121.50616","lat":"31.23493","category":"221","category_name":"健身中心","address":"浦东新区世纪大道88号金茂大厦裙楼生活时尚中心J.LIFE3-4楼(近二号线陆家嘴站)"},{"poiid":"B2094757DB68A3F9419D","title":"梅赛德斯-奔驰文化中心","lon":"121.50617587","lat":"31.23635451999999","category":"500","category_name":"未知分类","address":"世博大道1200号"},{"poiid":"B2094757D068A3F94898","title":"天萃庭","lon":"121.50614","lat":"31.23497","category":"72","category_name":"广东菜","address":"浦东新区世纪大道88号金茂大厦裙楼6楼(近二号线陆家嘴站)"},{"poiid":"B2094655D26DA7F44998","title":"上海环球金融中心观光厅","lon":"121.50773","lat":"31.23458","category":"183","category_name":"展览馆","address":"浦东新区世纪大道100号环球金融中心94-100楼(近东泰路)"},{"poiid":"B2094654DA69A7FB459E","title":"上海金茂大厦88层观光厅","lon":"121.50562","lat":"31.23524","category":"240","category_name":"国家级景点","address":"上海市浦东新区世纪大道88号金茂大厦"},{"poiid":"B2094757D068AAFD449B","title":"ABC cooking studio(环球金融中心)","lon":"121.50756773","lat":"31.234875399","category":"67","category_name":"甜品店","address":"上海世纪大道100号"},{"poiid":"B2094655D26BA4F44398","title":"COSTA咖啡(上海环球金融中心店)","lon":"121.50773","lat":"31.23458","category":"65","category_name":"咖啡厅","address":"浦东新区世纪大道100号环球金融中心2楼220单元(近东泰路)"},{"poiid":"B2094757D16CA2FF4899","title":"麦当劳国金中心店","lon":"121.50513081","lat":"31.236093145","category":"68","category_name":"快餐厅","address":"浦东新区世纪大道8号国金中心商场LG1-17号商铺(近东泰路)"},{"poiid":"B2094757D468A7F54892","title":"丽思卡尔顿大堂酒廊 Aura","lon":"121.50596","lat":"31.23591","category":"172","category_name":"酒吧","address":"浦东新区世纪大道8号上海国金中心丽思卡尔顿酒店(东泰路世纪大道)"},{"poiid":"B2094750DB6DA0FC459A","title":"一風堂（IPPUDO SH）","lon":"121.50502","lat":"31.235397","category":"247","category_name":"餐饮美食","address":null},{"poiid":"B2094757D06FA0FF4192","title":"洋面屋五右卫门 世纪大道店","lon":"121.507687","lat":"31.234577","category":"94","category_name":"西餐厅","address":"浦东新区世纪大道100号环球金融中心B1楼106-2号(近东泰路)"},{"poiid":"B2094750D76CABF9459C","title":"Bros会津まる家(陆家嘴店)","lon":"121.508","lat":"31.2349","category":"95","category_name":"日本料理","address":"世纪大道100号环球金融中心B1楼"},{"poiid":"B2094655D26EA6FF409F","title":"金茂君悦宴会厅","lon":"121.50546","lat":"31.23525","category":"257","category_name":"中餐厅","address":"浦东新区世纪大道88号金茂大厦裙楼2楼(近陆家嘴东路)查看地图"},{"poiid":"B2094654DB69A7FE409C","title":"日珍日本餐厅","lon":"121.505615054","lat":"31.235306793","category":"95","category_name":"日本料理","address":"浦东新区世纪大道88号金茂君悦大酒店56楼(近二号线陆家嘴站)"},{"poiid":"B2094757D169A3F84892","title":"金茂大厦56楼意庐Cucina","lon":"121.50576283","lat":"31.235074653","category":"500","category_name":"未知分类","address":"上海世纪大道88号"},{"poiid":"B2094750D268A4FD499B","title":"环球金融中心蒗葶","lon":"121.508239","lat":"31.235717","category":"247","category_name":"餐饮美食","address":"世纪大道100号"},{"poiid":"B2094757D065A7F54592","title":"Park Hyatt 92F Bar","lon":"121.50675873","lat":"31.234378388","category":"260","category_name":"其他","address":"上海市浦东新区世纪大道"},{"poiid":"B2094751D56DA6F4479F","title":"ifc 一风堂","lon":"121.504761","lat":"31.235413","category":"247","category_name":"餐饮美食","address":"上海浦东新区世纪大道8号国金中心LG1 79-80"},{"poiid":"B2094757D06BA1F8439C","title":"一宝日本料理（环球金融店）","lon":"121.50744628","lat":"31.234582901","category":"95","category_name":"日本料理","address":"浦东新区世纪大道100号环球金融中心3楼(近东泰路)"},{"poiid":"B2094757D06BA0FD4692","title":"丽豪港式茶餐厅","lon":"121.506884838","lat":"31.2355587137","category":"72","category_name":"广东菜","address":"浦东新区世纪大道100号环球金融中心B1楼(近东泰路)"},{"poiid":"B2094757D06BA1FC429F","title":"科瓦齿科(金茂店)","lon":"121.505166736","lat":"31.235647382","category":"162","category_name":"医院","address":"浦东新区世纪大道88号金茂大厦裙房时尚生活中心3N1-3N3(近二号线陆家嘴站)"},{"poiid":"B2094757D469A2FD499B","title":"天庭 Patio Lounge","lon":"121.505615054","lat":"31.235306793","category":"65","category_name":"咖啡厅","address":"世纪大道88号金茂大厦56楼近东泰路"},{"poiid":"B2094757D06BA1FA459D","title":"上海中心","lon":"121.506470701","lat":"31.2333594809","category":"500","category_name":"未知分类","address":"上海银城中路501号"},{"poiid":"B2094757D065A7F9409F","title":"Pizzeria Alla Torre(陆家嘴店)","lon":"121.50102","lat":"31.23548","category":"94","category_name":"西餐厅","address":"上海浦东新区陆家嘴环路165号1楼(富城路名商路)"},{"poiid":"B2094757D068AAFC459E","title":"DQ(冰雪皇后)陆家嘴店","lon":"121.506171738","lat":"31.2361194256","category":"113","category_name":"冷饮店","address":"上海市浦东新区世纪大道2F-55(陆家嘴天桥)"}]