[{"poiid":"B2094654DB6BA3FF489E","title":"旺旺火锅城(旺旺新店)","lon":"121.50295","lat":"31.25948","category":"86","category_name":"火锅店","address":"虹口区舟山路"},{"poiid":"B2094757D66FA6FA4598","title":"临平路地铁站","lon":"121.50087513","lat":"31.260837738","category":"36","category_name":"地铁站","address":"上海轨道交通,四号线,轨交临平路站,轻轨,4"},{"poiid":"B2094757D068A2FE479A","title":"虹口区妇幼保健院","lon":"121.5043","lat":"31.25814","category":"162","category_name":"医院","address":"虹口区舟山路445号(近周家嘴路)"},{"poiid":"B209475CD564A7F84392","title":"上海滩浦东香格里拉店","lon":"121.50058","lat":"31.23634","category":"119","category_name":"商场","address":"浦东富成路33号香格里拉酒店内大堂层"},{"poiid":"B2094757D06FA5FA429E","title":"阿五涮羊肉火锅(安国路一店)","lon":"121.50567","lat":"31.25982","category":"86","category_name":"火锅店","address":"虹口区安国路280号(近周家嘴路)"},{"poiid":"B2094654D56DA4FD489F","title":"马大姐烧烤店","lon":"121.503343","lat":"31.256401","category":"68","category_name":"快餐厅","address":"虹口区东余杭路(近公平路)"},{"poiid":"B2094757D069A0FC439B","title":"旺旺火锅楼(周家嘴路三店)","lon":"121.50353","lat":"31.25874","category":"86","category_name":"火锅店","address":"虹口区周家嘴路816号(舟山路口)"},{"poiid":"B2094757D068A0F9459E","title":"澄衷高级中学","lon":"121.50316","lat":"31.25529","category":"55","category_name":"中学","address":"虹口区东余杭路800号(近下海庙)"},{"poiid":"B2094655D36DA7F9499B","title":"周家嘴路高阳路","lon":"121.5002","lat":"31.25672","category":"38","category_name":"公交车站","address":""},{"poiid":"B2094655D36DA7F94893","title":"周家嘴路保定路","lon":"121.50536","lat":"31.26086","category":"38","category_name":"公交车站","address":"1063弄36号101室"},{"poiid":"B2094654D56DAAFA419F","title":"紫虹嘉苑","lon":"121.50306","lat":"31.261141","category":"47","category_name":"住宅区","address":"虹口岳州路399弄"},{"poiid":"B2094757D068AAF9489A","title":"周家嘴路舟山路","lon":"121.503261","lat":"31.259006","category":"260","category_name":"其他","address":"上海虹口区周家嘴路舟山路"},{"poiid":"B2094757D16BA1FD4092","title":"沈家门海鲜(周家嘴路店)","lon":"121.50458","lat":"31.25956","category":"75","category_name":"浙江菜","address":"杨浦区周家嘴路888号(近安国路)"},{"poiid":"B2094654D56DA4FE419C","title":"阿德羊肉火锅","lon":"121.50407","lat":"31.25883","category":"86","category_name":"火锅店","address":"虹口区舟山路504弄5-6号(近周家嘴路)"},{"poiid":"B2094757D069AAF8469C","title":"紫彩寿司(瑞虹店)","lon":"121.499736","lat":"31.259650277","category":"95","category_name":"日本料理","address":"虹口区临平路133弄瑞虹新城内南广场1-06(近瑞虹生活广场)"},{"poiid":"B2094757D66EA1FF419C","title":"玛格萝妮餐厅","lon":"121.503051103","lat":"31.2581421657","category":"500","category_name":"未知分类","address":"上海市虹口区临平路"},{"poiid":"B2094757D06BA5F84993","title":"村夫烤鱼(东余杭路店)","lon":"121.50412","lat":"31.25664","category":"68","category_name":"快餐厅","address":"虹口区东余杭路907号(近公平路)"},{"poiid":"B2094750D76FA0FF4792","title":"尧耀沈家门海鲜(海门路店)","lon":"121.502","lat":"31.2574","category":"75","category_name":"浙江菜","address":"虹口区海门路528号(近周家嘴路)"},{"poiid":"B2094753D768ABFE439C","title":"大香港甜品","lon":"121.501808","lat":"31.260797","category":"247","category_name":"餐饮美食","address":"上海市 舟山路566号"},{"poiid":"B2094757D06FA4F8439A","title":"九龙制造港式茶餐厅(瑞虹店)","lon":"121.50485377","lat":"31.258163743","category":"111","category_name":"休闲餐饮场所","address":"虹口区临平路133弄瑞虹生活广场2-22单元(近飞虹路)"},{"poiid":"B2094757D06FAAFF439A","title":"虹鎮老街","lon":"121.500021","lat":"31.258873","category":"500","category_name":"未知分类","address":"上海虹鎮老街"},{"poiid":"B2094757D068A0FE4393","title":"金太子形象设计(临平路店)","lon":"121.49985","lat":"31.25948","category":"148","category_name":"美容美发店","address":"上海虹口区临平路22号(近飞虹路)"},{"poiid":"B2094655D36CA6FD449B","title":"公平路","lon":"121.50261","lat":"31.2589","category":"38","category_name":"公交车站","address":""},{"poiid":"B2094655D26CA1FF4099","title":"旺旺羊肉火锅旺旺老店","lon":"121.50376","lat":"31.25912","category":"86","category_name":"火锅店","address":"虹口区舟山路475号(近周家嘴路)"},{"poiid":"B2094655D26CA0F5429E","title":"周家嘴路750弄小区","lon":"121.50262","lat":"31.25826","category":"47","category_name":"住宅区","address":"周家嘴路750弄1-50号"},{"poiid":"B2094757D069A3FD4099","title":"小孟烧烤麻辣烫(东余杭路店)","lon":"121.50416","lat":"31.25669","category":"68","category_name":"快餐厅","address":"虹口区东余杭路909号(近公平路)"},{"poiid":"B2094757D06BA3FC499A","title":"周家嘴路保定路公交车站","lon":"121.50191926","lat":"31.258267101","category":"38","category_name":"公交车站","address":"上海周家嘴路保定路"},{"poiid":"B2094757D06BA1F9419C","title":"东方都市景苑","lon":"121.5012","lat":"31.260063","category":"47","category_name":"住宅区","address":"上海市虹口区公平路768弄"},{"poiid":"B2094757D06BAAFF499C","title":"湘湘小厨","lon":"121.49723625044","lat":"31.262295285682","category":"77","category_name":"湖南菜","address":"虹口区天宝路63号(近临平路)"},{"poiid":"B2094757D068A5FA419B","title":"京世造型(飞虹店)","lon":"121.50189","lat":"31.26148","category":"148","category_name":"美容美发店","address":"上海虹口区飞虹路117号(近临平路)"},{"poiid":"B2094655D26CA0F54299","title":"周家嘴路750弄小区(北门)","lon":"121.50244","lat":"31.25841","category":"47","category_name":"住宅区","address":"周家嘴路750弄1-50号"},{"poiid":"B2094757D16CA4FD459F","title":"东伶港海鲜大酒店","lon":"121.50163","lat":"31.25714","category":"71","category_name":"四川菜","address":"虹口区海门路528号(近周家嘴路)"},{"poiid":"B2094655D26FA6FA4593","title":"中虹明珠苑","lon":"121.50266","lat":"31.256445","category":"47","category_name":"住宅区","address":"上海市虹口区东余杭路809号"},{"poiid":"B2094655D36CA7FB429E","title":"海门路周家嘴路","lon":"121.50163","lat":"31.2572","category":"38","category_name":"公交车站","address":""},{"poiid":"B2094654D56DA4F54992","title":"新抚钢大楼","lon":"121.504","lat":"31.258","category":"46","category_name":"楼宇","address":"东汉阳路455号"},{"poiid":"B2094757D06AA6F5439B","title":"澳门豆捞坊(高阳店)","lon":"121.49962659","lat":"31.258649176","category":"86","category_name":"火锅店","address":"虹口区高阳路690号(近继光中学)"},{"poiid":"B2094757D065A4F84399","title":"马大姐烧烤","lon":"121.503139103","lat":"31.2557491157","category":"247","category_name":"餐饮美食","address":"上海市虹口区东余杭路公平路"},{"poiid":"B2094757D069A2FD409D","title":"福德小笼","lon":"121.5038","lat":"31.25597","category":"68","category_name":"快餐厅","address":"虹口区东余杭路862号(近海门路)"},{"poiid":"B2094654D56DA4FE4192","title":"世纪华联舟山路店","lon":"121.50373","lat":"31.25885","category":"117","category_name":"便民商店/便利店","address":"舟山路467号"},{"poiid":"B2094654D56EA3FC4998","title":"全家福No.16","lon":"121.50246","lat":"31.25908","category":"117","category_name":"便民商店/便利店","address":""},{"poiid":"B2094750D46BABF4489B","title":"修剪拾光美发沙龙","lon":"121.502298","lat":"31.260632","category":"249","category_name":"购物服务","address":"虹口区舟山路562号(岳州路口)"},{"poiid":"B2094757D16CA5F84399","title":"小孟烧烤","lon":"121.5035361","lat":"31.257107644","category":"247","category_name":"餐饮美食","address":"上海东余杭路909号「安国路口」"},{"poiid":"B2094757D16EABFD469D","title":"舟山路幼儿园","lon":"121.50415","lat":"31.2584","category":"57","category_name":"幼儿园","address":"虹口区舟山路455号(舟山路周家嘴路)"},{"poiid":"B2094655D26EAAF4479A","title":"阿堂火锅","lon":"121.50373","lat":"31.25937","category":"86","category_name":"火锅店","address":"虹口区周家嘴路842号"},{"poiid":"B2094654DB6BA3F9429D","title":"彬彬餐厅","lon":"121.50115","lat":"31.25872","category":"76","category_name":"上海菜","address":"虹口区公平路684号(近周家嘴路)"},{"poiid":"B2094654DB6BA3F9489B","title":"嘉德小区(东门)","lon":"121.50211","lat":"31.25881","category":"47","category_name":"住宅区","address":"周家嘴路753弄1-23号"},{"poiid":"B2094757D66CA3FE429C","title":"临潼西村","lon":"121.5033401","lat":"31.258159166","category":"500","category_name":"未知分类","address":"上海市榆林路"},{"poiid":"B2094753D76FA5FE499D","title":"红麻辣料理","lon":"121.501205","lat":"31.257452","category":"247","category_name":"餐饮美食","address":"上海市 物华路73号"},{"poiid":"B2094757D064A0FE469F","title":"提篮桥街道社区卫生服务中心海门路分中心","lon":"121.502691","lat":"31.257026","category":"500","category_name":"未知分类","address":"上海海门路456号"},{"poiid":"B2094655D26CA1FB459A","title":"通德里(北门)","lon":"121.50418","lat":"31.25844","category":"47","category_name":"住宅区","address":"舟山路429弄2-10号"},{"poiid":"B2094654DB6BA3FF489E","title":"旺旺火锅城(旺旺新店)","lon":"121.50295","lat":"31.25948","category":"86","category_name":"火锅店","address":"虹口区舟山路"},{"poiid":"B2094757D66FA6FA4598","title":"临平路地铁站","lon":"121.50087513","lat":"31.260837738","category":"36","category_name":"地铁站","address":"上海轨道交通,四号线,轨交临平路站,轻轨,4"},{"poiid":"B2094757D068A2FE479A","title":"虹口区妇幼保健院","lon":"121.5043","lat":"31.25814","category":"162","category_name":"医院","address":"虹口区舟山路445号(近周家嘴路)"},{"poiid":"B209475CD564A7F84392","title":"上海滩浦东香格里拉店","lon":"121.50058","lat":"31.23634","category":"119","category_name":"商场","address":"浦东富成路33号香格里拉酒店内大堂层"},{"poiid":"B2094757D06FA5FA429E","title":"阿五涮羊肉火锅(安国路一店)","lon":"121.50567","lat":"31.25982","category":"86","category_name":"火锅店","address":"虹口区安国路280号(近周家嘴路)"},{"poiid":"B2094654D56DA4FD489F","title":"马大姐烧烤店","lon":"121.503343","lat":"31.256401","category":"68","category_name":"快餐厅","address":"虹口区东余杭路(近公平路)"},{"poiid":"B2094757D069A0FC439B","title":"旺旺火锅楼(周家嘴路三店)","lon":"121.50353","lat":"31.25874","category":"86","category_name":"火锅店","address":"虹口区周家嘴路816号(舟山路口)"},{"poiid":"B2094757D068A0F9459E","title":"澄衷高级中学","lon":"121.50316","lat":"31.25529","category":"55","category_name":"中学","address":"虹口区东余杭路800号(近下海庙)"},{"poiid":"B2094655D36DA7F9499B","title":"周家嘴路高阳路","lon":"121.5002","lat":"31.25672","category":"38","category_name":"公交车站","address":""},{"poiid":"B2094655D36DA7F94893","title":"周家嘴路保定路","lon":"121.50536","lat":"31.26086","category":"38","category_name":"公交车站","address":"1063弄36号101室"},{"poiid":"B2094654D56DAAFA419F","title":"紫虹嘉苑","lon":"121.50306","lat":"31.261141","category":"47","category_name":"住宅区","address":"虹口岳州路399弄"},{"poiid":"B2094757D068AAF9489A","title":"周家嘴路舟山路","lon":"121.503261","lat":"31.259006","category":"260","category_name":"其他","address":"上海虹口区周家嘴路舟山路"},{"poiid":"B2094757D16BA1FD4092","title":"沈家门海鲜(周家嘴路店)","lon":"121.50458","lat":"31.25956","category":"75","category_name":"浙江菜","address":"杨浦区周家嘴路888号(近安国路)"},{"poiid":"B2094654D56DA4FE419C","title":"阿德羊肉火锅","lon":"121.50407","lat":"31.25883","category":"86","category_name":"火锅店","address":"虹口区舟山路504弄5-6号(近周家嘴路)"},{"poiid":"B2094757D069AAF8469C","title":"紫彩寿司(瑞虹店)","lon":"121.499736","lat":"31.259650277","category":"95","category_name":"日本料理","address":"虹口区临平路133弄瑞虹新城内南广场1-06(近瑞虹生活广场)"},{"poiid":"B2094757D66EA1FF419C","title":"玛格萝妮餐厅","lon":"121.503051103","lat":"31.2581421657","category":"500","category_name":"未知分类","address":"上海市虹口区临平路"},{"poiid":"B2094757D06BA5F84993","title":"村夫烤鱼(东余杭路店)","lon":"121.50412","lat":"31.25664","category":"68","category_name":"快餐厅","address":"虹口区东余杭路907号(近公平路)"},{"poiid":"B2094750D76FA0FF4792","title":"尧耀沈家门海鲜(海门路店)","lon":"121.502","lat":"31.2574","category":"75","category_name":"浙江菜","address":"虹口区海门路528号(近周家嘴路)"},{"poiid":"B2094753D768ABFE439C","title":"大香港甜品","lon":"121.501808","lat":"31.260797","category":"247","category_name":"餐饮美食","address":"上海市 舟山路566号"},{"poiid":"B2094757D06FA4F8439A","title":"九龙制造港式茶餐厅(瑞虹店)","lon":"121.50485377","lat":"31.258163743","category":"111","category_name":"休闲餐饮场所","address":"虹口区临平路133弄瑞虹生活广场2-22单元(近飞虹路)"},{"poiid":"B2094757D06FAAFF439A","title":"虹鎮老街","lon":"121.500021","lat":"31.258873","category":"500","category_name":"未知分类","address":"上海虹鎮老街"},{"poiid":"B2094757D068A0FE4393","title":"金太子形象设计(临平路店)","lon":"121.49985","lat":"31.25948","category":"148","category_name":"美容美发店","address":"上海虹口区临平路22号(近飞虹路)"},{"poiid":"B2094655D36CA6FD449B","title":"公平路","lon":"121.50261","lat":"31.2589","category":"38","category_name":"公交车站","address":""},{"poiid":"B2094655D26CA1FF4099","title":"旺旺羊肉火锅旺旺老店","lon":"121.50376","lat":"31.25912","category":"86","category_name":"火锅店","address":"虹口区舟山路475号(近周家嘴路)"},{"poiid":"B2094655D26CA0F5429E","title":"周家嘴路750弄小区","lon":"121.50262","lat":"31.25826","category":"47","category_name":"住宅区","address":"周家嘴路750弄1-50号"},{"poiid":"B2094757D069A3FD4099","title":"小孟烧烤麻辣烫(东余杭路店)","lon":"121.50416","lat":"31.25669","category":"68","category_name":"快餐厅","address":"虹口区东余杭路909号(近公平路)"},{"poiid":"B2094757D06BA3FC499A","title":"周家嘴路保定路公交车站","lon":"121.50191926","lat":"31.258267101","category":"38","category_name":"公交车站","address":"上海周家嘴路保定路"},{"poiid":"B2094757D06BA1F9419C","title":"东方都市景苑","lon":"121.5012","lat":"31.260063","category":"47","category_name":"住宅区","address":"上海市虹口区公平路768弄"},{"poiid":"B2094757D06BAAFF499C","title":"湘湘小厨","lon":"121.49723625044","lat":"31.262295285682","category":"77","category_name":"湖南菜","address":"虹口区天宝路63号(近临平路)"},{"poiid":"B2094757D068A5FA419B","title":"京世造型(飞虹店)","lon":"121.50189","lat":"31.26148","category":"148","category_name":"美容美发店","address":"上海虹口区飞虹路117号(近临平路)"},{"poiid":"B2094655D26CA0F54299","title":"周家嘴路750弄小区(北门)","lon":"121.50244","lat":"31.25841","category":"47","category_name":"住宅区","address":"周家嘴路750弄1-50号"},{"poiid":"B2094757D16CA4FD459F","title":"东伶港海鲜大酒店","lon":"121.50163","lat":"31.25714","category":"71","category_name":"四川菜","address":"虹口区海门路528号(近周家嘴路)"},{"poiid":"B2094655D26FA6FA4593","title":"中虹明珠苑","lon":"121.50266","lat":"31.256445","category":"47","category_name":"住宅区","address":"上海市虹口区东余杭路809号"},{"poiid":"B2094655D36CA7FB429E","title":"海门路周家嘴路","lon":"121.50163","lat":"31.2572","category":"38","category_name":"公交车站","address":""},{"poiid":"B2094654D56DA4F54992","title":"新抚钢大楼","lon":"121.504","lat":"31.258","category":"46","category_name":"楼宇","address":"东汉阳路455号"},{"poiid":"B2094757D06AA6F5439B","title":"澳门豆捞坊(高阳店)","lon":"121.49962659","lat":"31.258649176","category":"86","category_name":"火锅店","address":"虹口区高阳路690号(近继光中学)"},{"poiid":"B2094757D065A4F84399","title":"马大姐烧烤","lon":"121.503139103","lat":"31.2557491157","category":"247","category_name":"餐饮美食","address":"上海市虹口区东余杭路公平路"},{"poiid":"B2094757D069A2FD409D","title":"福德小笼","lon":"121.5038","lat":"31.25597","category":"68","category_name":"快餐厅","address":"虹口区东余杭路862号(近海门路)"},{"poiid":"B2094654D56DA4FE4192","title":"世纪华联舟山路店","lon":"121.50373","lat":"31.25885","category":"117","category_name":"便民商店/便利店","address":"舟山路467号"},{"poiid":"B2094654D56EA3FC4998","title":"全家福No.16","lon":"121.50246","lat":"31.25908","category":"117","category_name":"便民商店/便利店","address":""},{"poiid":"B2094750D46BABF4489B","title":"修剪拾光美发沙龙","lon":"121.502298","lat":"31.260632","category":"249","category_name":"购物服务","address":"虹口区舟山路562号(岳州路口)"},{"poiid":"B2094757D16CA5F84399","title":"小孟烧烤","lon":"121.5035361","lat":"31.257107644","category":"247","category_name":"餐饮美食","address":"上海东余杭路909号「安国路口」"},{"poiid":"B2094757D16EABFD469D","title":"舟山路幼儿园","lon":"121.50415","lat":"31.2584","category":"57","category_name":"幼儿园","address":"虹口区舟山路455号(舟山路周家嘴路)"},{"poiid":"B2094655D26EAAF4479A","title":"阿堂火锅","lon":"121.50373","lat":"31.25937","category":"86","category_name":"火锅店","address":"虹口区周家嘴路842号"},{"poiid":"B2094654DB6BA3F9429D","title":"彬彬餐厅","lon":"121.50115","lat":"31.25872","category":"76","category_name":"上海菜","address":"虹口区公平路684号(近周家嘴路)"},{"poiid":"B2094654DB6BA3F9489B","title":"嘉德小区(东门)","lon":"121.50211","lat":"31.25881","category":"47","category_name":"住宅区","address":"周家嘴路753弄1-23号"},{"poiid":"B2094757D66CA3FE429C","title":"临潼西村","lon":"121.5033401","lat":"31.258159166","category":"500","category_name":"未知分类","address":"上海市榆林路"},{"poiid":"B2094753D76FA5FE499D","title":"红麻辣料理","lon":"121.501205","lat":"31.257452","category":"247","category_name":"餐饮美食","address":"上海市 物华路73号"},{"poiid":"B2094757D064A0FE469F","title":"提篮桥街道社区卫生服务中心海门路分中心","lon":"121.502691","lat":"31.257026","category":"500","category_name":"未知分类","address":"上海海门路456号"},{"poiid":"B2094655D26CA1FB459A","title":"通德里(北门)","lon":"121.50418","lat":"31.25844","category":"47","category_name":"住宅区","address":"舟山路429弄2-10号"},{"poiid":"B2094654DB6BA3FF489E","title":"旺旺火锅城(旺旺新店)","lon":"121.50295","lat":"31.25948","category":"86","category_name":"火锅店","address":"虹口区舟山路"},{"poiid":"B2094757D66FA6FA4598","title":"临平路地铁站","lon":"121.50087513","lat":"31.260837738","category":"36","category_name":"地铁站","address":"上海轨道交通,四号线,轨交临平路站,轻轨,4"},{"poiid":"B2094757D068A2FE479A","title":"虹口区妇幼保健院","lon":"121.5043","lat":"31.25814","category":"162","category_name":"医院","address":"虹口区舟山路445号(近周家嘴路)"},{"poiid":"B209475CD564A7F84392","title":"上海滩浦东香格里拉店","lon":"121.50058","lat":"31.23634","category":"119","category_name":"商场","address":"浦东富成路33号香格里拉酒店内大堂层"},{"poiid":"B2094757D06FA5FA429E","title":"阿五涮羊肉火锅(安国路一店)","lon":"121.50567","lat":"31.25982","category":"86","category_name":"火锅店","address":"虹口区安国路280号(近周家嘴路)"},{"poiid":"B2094654D56DA4FD489F","title":"马大姐烧烤店","lon":"121.503343","lat":"31.256401","category":"68","category_name":"快餐厅","address":"虹口区东余杭路(近公平路)"},{"poiid":"B2094757D069A0FC439B","title":"旺旺火锅楼(周家嘴路三店)","lon":"121.50353","lat":"31.25874","category":"86","category_name":"火锅店","address":"虹口区周家嘴路816号(舟山路口)"},{"poiid":"B2094757D068A0F9459E","title":"澄衷高级中学","lon":"121.50316","lat":"31.25529","category":"55","category_name":"中学","address":"虹口区东余杭路800号(近下海庙)"},{"poiid":"B2094655D36DA7F9499B","title":"周家嘴路高阳路","lon":"121.5002","lat":"31.25672","category":"38","category_name":"公交车站","address":""},{"poiid":"B2094655D36DA7F94893","title":"周家嘴路保定路","lon":"121.50536","lat":"31.26086","category":"38","category_name":"公交车站","address":"1063弄36号101室"},{"poiid":"B2094654D56DAAFA419F","title":"紫虹嘉苑","lon":"121.50306","lat":"31.261141","category":"47","category_name":"住宅区","address":"虹口岳州路399弄"},{"poiid":"B2094757D068AAF9489A","title":"周家嘴路舟山路","lon":"121.503261","lat":"31.259006","category":"260","category_name":"其他","address":"上海虹口区周家嘴路舟山路"},{"poiid":"B2094757D16BA1FD4092","title":"沈家门海鲜(周家嘴路店)","lon":"121.50458","lat":"31.25956","category":"75","category_name":"浙江菜","address":"杨浦区周家嘴路888号(近安国路)"},{"poiid":"B2094654D56DA4FE419C","title":"阿德羊肉火锅","lon":"121.50407","lat":"31.25883","category":"86","category_name":"火锅店","address":"虹口区舟山路504弄5-6号(近周家嘴路)"},{"poiid":"B2094757D069AAF8469C","title":"紫彩寿司(瑞虹店)","lon":"121.499736","lat":"31.259650277","category":"95","category_name":"日本料理","address":"虹口区临平路133弄瑞虹新城内南广场1-06(近瑞虹生活广场)"},{"poiid":"B2094757D66EA1FF419C","title":"玛格萝妮餐厅","lon":"121.503051103","lat":"31.2581421657","category":"500","category_name":"未知分类","address":"上海市虹口区临平路"},{"poiid":"B2094757D06BA5F84993","title":"村夫烤鱼(东余杭路店)","lon":"121.50412","lat":"31.25664","category":"68","category_name":"快餐厅","address":"虹口区东余杭路907号(近公平路)"},{"poiid":"B2094750D76FA0FF4792","title":"尧耀沈家门海鲜(海门路店)","lon":"121.502","lat":"31.2574","category":"75","category_name":"浙江菜","address":"虹口区海门路528号(近周家嘴路)"},{"poiid":"B2094753D768ABFE439C","title":"大香港甜品","lon":"121.501808","lat":"31.260797","category":"247","category_name":"餐饮美食","address":"上海市 舟山路566号"},{"poiid":"B2094757D06FA4F8439A","title":"九龙制造港式茶餐厅(瑞虹店)","lon":"121.50485377","lat":"31.258163743","category":"111","category_name":"休闲餐饮场所","address":"虹口区临平路133弄瑞虹生活广场2-22单元(近飞虹路)"},{"poiid":"B2094757D06FAAFF439A","title":"虹鎮老街","lon":"121.500021","lat":"31.258873","category":"500","category_name":"未知分类","address":"上海虹鎮老街"},{"poiid":"B2094757D068A0FE4393","title":"金太子形象设计(临平路店)","lon":"121.49985","lat":"31.25948","category":"148","category_name":"美容美发店","address":"上海虹口区临平路22号(近飞虹路)"},{"poiid":"B2094655D36CA6FD449B","title":"公平路","lon":"121.50261","lat":"31.2589","category":"38","category_name":"公交车站","address":""},{"poiid":"B2094655D26CA1FF4099","title":"旺旺羊肉火锅旺旺老店","lon":"121.50376","lat":"31.25912","category":"86","category_name":"火锅店","address":"虹口区舟山路475号(近周家嘴路)"},{"poiid":"B2094655D26CA0F5429E","title":"周家嘴路750弄小区","lon":"121.50262","lat":"31.25826","category":"47","category_name":"住宅区","address":"周家嘴路750弄1-50号"},{"poiid":"B2094757D069A3FD4099","title":"小孟烧烤麻辣烫(东余杭路店)","lon":"121.50416","lat":"31.25669","category":"68","category_name":"快餐厅","address":"虹口区东余杭路909号(近公平路)"},{"poiid":"B2094757D06BA3FC499A","title":"周家嘴路保定路公交车站","lon":"121.50191926","lat":"31.258267101","category":"38","category_name":"公交车站","address":"上海周家嘴路保定路"},{"poiid":"B2094757D06BA1F9419C","title":"东方都市景苑","lon":"121.5012","lat":"31.260063","category":"47","category_name":"住宅区","address":"上海市虹口区公平路768弄"},{"poiid":"B2094757D06BAAFF499C","title":"湘湘小厨","lon":"121.49723625044","lat":"31.262295285682","category":"77","category_name":"湖南菜","address":"虹口区天宝路63号(近临平路)"},{"poiid":"B2094757D068A5FA419B","title":"京世造型(飞虹店)","lon":"121.50189","lat":"31.26148","category":"148","category_name":"美容美发店","address":"上海虹口区飞虹路117号(近临平路)"},{"poiid":"B2094655D26CA0F54299","title":"周家嘴路750弄小区(北门)","lon":"121.50244","lat":"31.25841","category":"47","category_name":"住宅区","address":"周家嘴路750弄1-50号"},{"poiid":"B2094757D16CA4FD459F","title":"东伶港海鲜大酒店","lon":"121.50163","lat":"31.25714","category":"71","category_name":"四川菜","address":"虹口区海门路528号(近周家嘴路)"},{"poiid":"B2094655D26FA6FA4593","title":"中虹明珠苑","lon":"121.50266","lat":"31.256445","category":"47","category_name":"住宅区","address":"上海市虹口区东余杭路809号"},{"poiid":"B2094655D36CA7FB429E","title":"海门路周家嘴路","lon":"121.50163","lat":"31.2572","category":"38","category_name":"公交车站","address":""},{"poiid":"B2094654D56DA4F54992","title":"新抚钢大楼","lon":"121.504","lat":"31.258","category":"46","category_name":"楼宇","address":"东汉阳路455号"},{"poiid":"B2094757D06AA6F5439B","title":"澳门豆捞坊(高阳店)","lon":"121.49962659","lat":"31.258649176","category":"86","category_name":"火锅店","address":"虹口区高阳路690号(近继光中学)"},{"poiid":"B2094757D065A4F84399","title":"马大姐烧烤","lon":"121.503139103","lat":"31.2557491157","category":"247","category_name":"餐饮美食","address":"上海市虹口区东余杭路公平路"},{"poiid":"B2094757D069A2FD409D","title":"福德小笼","lon":"121.5038","lat":"31.25597","category":"68","category_name":"快餐厅","address":"虹口区东余杭路862号(近海门路)"},{"poiid":"B2094654D56DA4FE4192","title":"世纪华联舟山路店","lon":"121.50373","lat":"31.25885","category":"117","category_name":"便民商店/便利店","address":"舟山路467号"},{"poiid":"B2094654D56EA3FC4998","title":"全家福No.16","lon":"121.50246","lat":"31.25908","category":"117","category_name":"便民商店/便利店","address":""},{"poiid":"B2094750D46BABF4489B","title":"修剪拾光美发沙龙","lon":"121.502298","lat":"31.260632","category":"249","category_name":"购物服务","address":"虹口区舟山路562号(岳州路口)"},{"poiid":"B2094757D16CA5F84399","title":"小孟烧烤","lon":"121.5035361","lat":"31.257107644","category":"247","category_name":"餐饮美食","address":"上海东余杭路909号「安国路口」"},{"poiid":"B2094757D16EABFD469D","title":"舟山路幼儿园","lon":"121.50415","lat":"31.2584","category":"57","category_name":"幼儿园","address":"虹口区舟山路455号(舟山路周家嘴路)"},{"poiid":"B2094655D26EAAF4479A","title":"阿堂火锅","lon":"121.50373","lat":"31.25937","category":"86","category_name":"火锅店","address":"虹口区周家嘴路842号"},{"poiid":"B2094654DB6BA3F9429D","title":"彬彬餐厅","lon":"121.50115","lat":"31.25872","category":"76","category_name":"上海菜","address":"虹口区公平路684号(近周家嘴路)"},{"poiid":"B2094654DB6BA3F9489B","title":"嘉德小区(东门)","lon":"121.50211","lat":"31.25881","category":"47","category_name":"住宅区","address":"周家嘴路753弄1-23号"},{"poiid":"B2094757D66CA3FE429C","title":"临潼西村","lon":"121.5033401","lat":"31.258159166","category":"500","category_name":"未知分类","address":"上海市榆林路"},{"poiid":"B2094753D76FA5FE499D","title":"红麻辣料理","lon":"121.501205","lat":"31.257452","category":"247","category_name":"餐饮美食","address":"上海市 物华路73号"},{"poiid":"B2094757D064A0FE469F","title":"提篮桥街道社区卫生服务中心海门路分中心","lon":"121.502691","lat":"31.257026","category":"500","category_name":"未知分类","address":"上海海门路456号"},{"poiid":"B2094655D26CA1FB459A","title":"通德里(北门)","lon":"121.50418","lat":"31.25844","category":"47","category_name":"住宅区","address":"舟山路429弄2-10号"},{"poiid":"B2094654DB6BA3FF489E","title":"旺旺火锅城(旺旺新店)","lon":"121.50295","lat":"31.25948","category":"86","category_name":"火锅店","address":"虹口区舟山路"},{"poiid":"B2094757D66FA6FA4598","title":"临平路地铁站","lon":"121.50087513","lat":"31.260837738","category":"36","category_name":"地铁站","address":"上海轨道交通,四号线,轨交临平路站,轻轨,4"},{"poiid":"B2094757D068A2FE479A","title":"虹口区妇幼保健院","lon":"121.5043","lat":"31.25814","category":"162","category_name":"医院","address":"虹口区舟山路445号(近周家嘴路)"},{"poiid":"B209475CD564A7F84392","title":"上海滩浦东香格里拉店","lon":"121.50058","lat":"31.23634","category":"119","category_name":"商场","address":"浦东富成路33号香格里拉酒店内大堂层"},{"poiid":"B2094757D06FA5FA429E","title":"阿五涮羊肉火锅(安国路一店)","lon":"121.50567","lat":"31.25982","category":"86","category_name":"火锅店","address":"虹口区安国路280号(近周家嘴路)"},{"poiid":"B2094654D56DA4FD489F","title":"马大姐烧烤店","lon":"121.503343","lat":"31.256401","category":"68","category_name":"快餐厅","address":"虹口区东余杭路(近公平路)"},{"poiid":"B2094757D069A0FC439B","title":"旺旺火锅楼(周家嘴路三店)","lon":"121.50353","lat":"31.25874","category":"86","category_name":"火锅店","address":"虹口区周家嘴路816号(舟山路口)"},{"poiid":"B2094757D068A0F9459E","title":"澄衷高级中学","lon":"121.50316","lat":"31.25529","category":"55","category_name":"中学","address":"虹口区东余杭路800号(近下海庙)"},{"poiid":"B2094655D36DA7F9499B","title":"周家嘴路高阳路","lon":"121.5002","lat":"31.25672","category":"38","category_name":"公交车站","address":""},{"poiid":"B2094655D36DA7F94893","title":"周家嘴路保定路","lon":"121.50536","lat":"31.26086","category":"38","category_name":"公交车站","address":"1063弄36号101室"},{"poiid":"B2094654D56DAAFA419F","title":"紫虹嘉苑","lon":"121.50306","lat":"31.261141","category":"47","category_name":"住宅区","address":"虹口岳州路399弄"},{"poiid":"B2094757D068AAF9489A","title":"周家嘴路舟山路","lon":"121.503261","lat":"31.259006","category":"260","category_name":"其他","address":"上海虹口区周家嘴路舟山路"},{"poiid":"B2094757D16BA1FD4092","title":"沈家门海鲜(周家嘴路店)","lon":"121.50458","lat":"31.25956","category":"75","category_name":"浙江菜","address":"杨浦区周家嘴路888号(近安国路)"},{"poiid":"B2094654D56DA4FE419C","title":"阿德羊肉火锅","lon":"121.50407","lat":"31.25883","category":"86","category_name":"火锅店","address":"虹口区舟山路504弄5-6号(近周家嘴路)"},{"poiid":"B2094757D069AAF8469C","title":"紫彩寿司(瑞虹店)","lon":"121.499736","lat":"31.259650277","category":"95","category_name":"日本料理","address":"虹口区临平路133弄瑞虹新城内南广场1-06(近瑞虹生活广场)"},{"poiid":"B2094757D66EA1FF419C","title":"玛格萝妮餐厅","lon":"121.503051103","lat":"31.2581421657","category":"500","category_name":"未知分类","address":"上海市虹口区临平路"},{"poiid":"B2094757D06BA5F84993","title":"村夫烤鱼(东余杭路店)","lon":"121.50412","lat":"31.25664","category":"68","category_name":"快餐厅","address":"虹口区东余杭路907号(近公平路)"},{"poiid":"B2094750D76FA0FF4792","title":"尧耀沈家门海鲜(海门路店)","lon":"121.502","lat":"31.2574","category":"75","category_name":"浙江菜","address":"虹口区海门路528号(近周家嘴路)"},{"poiid":"B2094753D768ABFE439C","title":"大香港甜品","lon":"121.501808","lat":"31.260797","category":"247","category_name":"餐饮美食","address":"上海市 舟山路566号"},{"poiid":"B2094757D06FA4F8439A","title":"九龙制造港式茶餐厅(瑞虹店)","lon":"121.50485377","lat":"31.258163743","category":"111","category_name":"休闲餐饮场所","address":"虹口区临平路133弄瑞虹生活广场2-22单元(近飞虹路)"},{"poiid":"B2094757D06FAAFF439A","title":"虹鎮老街","lon":"121.500021","lat":"31.258873","category":"500","category_name":"未知分类","address":"上海虹鎮老街"},{"poiid":"B2094757D068A0FE4393","title":"金太子形象设计(临平路店)","lon":"121.49985","lat":"31.25948","category":"148","category_name":"美容美发店","address":"上海虹口区临平路22号(近飞虹路)"},{"poiid":"B2094655D36CA6FD449B","title":"公平路","lon":"121.50261","lat":"31.2589","category":"38","category_name":"公交车站","address":""},{"poiid":"B2094655D26CA1FF4099","title":"旺旺羊肉火锅旺旺老店","lon":"121.50376","lat":"31.25912","category":"86","category_name":"火锅店","address":"虹口区舟山路475号(近周家嘴路)"},{"poiid":"B2094655D26CA0F5429E","title":"周家嘴路750弄小区","lon":"121.50262","lat":"31.25826","category":"47","category_name":"住宅区","address":"周家嘴路750弄1-50号"},{"poiid":"B2094757D069A3FD4099","title":"小孟烧烤麻辣烫(东余杭路店)","lon":"121.50416","lat":"31.25669","category":"68","category_name":"快餐厅","address":"虹口区东余杭路909号(近公平路)"},{"poiid":"B2094757D06BA3FC499A","title":"周家嘴路保定路公交车站","lon":"121.50191926","lat":"31.258267101","category":"38","category_name":"公交车站","address":"上海周家嘴路保定路"},{"poiid":"B2094757D06BA1F9419C","title":"东方都市景苑","lon":"121.5012","lat":"31.260063","category":"47","category_name":"住宅区","address":"上海市虹口区公平路768弄"},{"poiid":"B2094757D06BAAFF499C","title":"湘湘小厨","lon":"121.49723625044","lat":"31.262295285682","category":"77","category_name":"湖南菜","address":"虹口区天宝路63号(近临平路)"},{"poiid":"B2094757D068A5FA419B","title":"京世造型(飞虹店)","lon":"121.50189","lat":"31.26148","category":"148","category_name":"美容美发店","address":"上海虹口区飞虹路117号(近临平路)"},{"poiid":"B2094655D26CA0F54299","title":"周家嘴路750弄小区(北门)","lon":"121.50244","lat":"31.25841","category":"47","category_name":"住宅区","address":"周家嘴路750弄1-50号"},{"poiid":"B2094757D16CA4FD459F","title":"东伶港海鲜大酒店","lon":"121.50163","lat":"31.25714","category":"71","category_name":"四川菜","address":"虹口区海门路528号(近周家嘴路)"},{"poiid":"B2094655D26FA6FA4593","title":"中虹明珠苑","lon":"121.50266","lat":"31.256445","category":"47","category_name":"住宅区","address":"上海市虹口区东余杭路809号"},{"poiid":"B2094655D36CA7FB429E","title":"海门路周家嘴路","lon":"121.50163","lat":"31.2572","category":"38","category_name":"公交车站","address":""},{"poiid":"B2094654D56DA4F54992","title":"新抚钢大楼","lon":"121.504","lat":"31.258","category":"46","category_name":"楼宇","address":"东汉阳路455号"},{"poiid":"B2094757D06AA6F5439B","title":"澳门豆捞坊(高阳店)","lon":"121.49962659","lat":"31.258649176","category":"86","category_name":"火锅店","address":"虹口区高阳路690号(近继光中学)"},{"poiid":"B2094757D065A4F84399","title":"马大姐烧烤","lon":"121.503139103","lat":"31.2557491157","category":"247","category_name":"餐饮美食","address":"上海市虹口区东余杭路公平路"},{"poiid":"B2094757D069A2FD409D","title":"福德小笼","lon":"121.5038","lat":"31.25597","category":"68","category_name":"快餐厅","address":"虹口区东余杭路862号(近海门路)"},{"poiid":"B2094654D56DA4FE4192","title":"世纪华联舟山路店","lon":"121.50373","lat":"31.25885","category":"117","category_name":"便民商店/便利店","address":"舟山路467号"},{"poiid":"B2094654D56EA3FC4998","title":"全家福No.16","lon":"121.50246","lat":"31.25908","category":"117","category_name":"便民商店/便利店","address":""},{"poiid":"B2094750D46BABF4489B","title":"修剪拾光美发沙龙","lon":"121.502298","lat":"31.260632","category":"249","category_name":"购物服务","address":"虹口区舟山路562号(岳州路口)"},{"poiid":"B2094757D16CA5F84399","title":"小孟烧烤","lon":"121.5035361","lat":"31.257107644","category":"247","category_name":"餐饮美食","address":"上海东余杭路909号「安国路口」"},{"poiid":"B2094757D16EABFD469D","title":"舟山路幼儿园","lon":"121.50415","lat":"31.2584","category":"57","category_name":"幼儿园","address":"虹口区舟山路455号(舟山路周家嘴路)"},{"poiid":"B2094655D26EAAF4479A","title":"阿堂火锅","lon":"121.50373","lat":"31.25937","category":"86","category_name":"火锅店","address":"虹口区周家嘴路842号"},{"poiid":"B2094654DB6BA3F9429D","title":"彬彬餐厅","lon":"121.50115","lat":"31.25872","category":"76","category_name":"上海菜","address":"虹口区公平路684号(近周家嘴路)"},{"poiid":"B2094654DB6BA3F9489B","title":"嘉德小区(东门)","lon":"121.50211","lat":"31.25881","category":"47","category_name":"住宅区","address":"周家嘴路753弄1-23号"},{"poiid":"B2094757D66CA3FE429C","title":"临潼西村","lon":"121.5033401","lat":"31.258159166","category":"500","category_name":"未知分类","address":"上海市榆林路"},{"poiid":"B2094753D76FA5FE499D","title":"红麻辣料理","lon":"121.501205","lat":"31.257452","category":"247","category_name":"餐饮美食","address":"上海市 物华路73号"},{"poiid":"B2094757D064A0FE469F","title":"提篮桥街道社区卫生服务中心海门路分中心","lon":"121.502691","lat":"31.257026","category":"500","category_name":"未知分类","address":"上海海门路456号"},{"poiid":"B2094655D26CA1FB459A","title":"通德里(北门)","lon":"121.50418","lat":"31.25844","category":"47","category_name":"住宅区","address":"舟山路429弄2-10号"}]