[{"poiid":"B2094757D06FA3FA409E","title":"吉亨面馆(古羊路店)","lon":"121.41247","lat":"31.19093","category":"68","category_name":"快餐厅","address":"上海长宁区古羊路433号(近张虹路)  "},{"poiid":"B2094654D56BABFE449D","title":"广播大厦","lon":"121.40747","lat":"31.19681","category":"46","category_name":"楼宇","address":"虹桥路1376"},{"poiid":"B2094757DA6EAAFD4893","title":"幸福131(古羊路店)","lon":"121.409718990327","lat":"31.1916029366807","category":"71","category_name":"四川菜","address":"长宁区古羊路300-11号(近姚虹路)"},{"poiid":"B2094757D068A7FE4898","title":"儿童博物馆","lon":"121.41312011","lat":"31.193867929","category":"182","category_name":"博物馆","address":"长宁区宋园路61号(黄金城道宋园路)"},{"poiid":"B2094757D068A3FD4693","title":"大茴香(古北店)","lon":"121.41172","lat":"31.19091","category":"99","category_name":"泰国／越南菜品餐厅","address":"长宁区古羊路451号(近姚虹路)"},{"poiid":"B2094654D56BABF8429B","title":"古羊路休闲街","lon":"121.41237","lat":"31.19117","category":"116","category_name":"特色商业街","address":"长宁区古羊路(近宋园路)"},{"poiid":"B2094655D36CA0F44499","title":"黄金城道","lon":"121.40412","lat":"31.19204","category":"38","category_name":"公交车站","address":""},{"poiid":"B2094757D068A6FD499F","title":"卢记麻辣鸳鸯火锅","lon":"121.40991658","lat":"31.191428223","category":"86","category_name":"火锅店","address":"长宁区古羊路467-1号(近姚虹路)"},{"poiid":"B2094750D26DA4FE4298","title":"万藏 古羊路二店","lon":"121.41070604324","lat":"31.190905415432","category":"269","category_name":"烧烤","address":"长宁区古羊路451-2号(近姚虹路)"},{"poiid":"B2094757D069A3FD429C","title":"九兴里经典本帮餐厅","lon":"121.412582","lat":"31.191641","category":"76","category_name":"上海菜","address":"上海古羊路316号，近宋园路张虹路"},{"poiid":"B2094757D06FA4FB4099","title":"御香海 宋园店 Gokohai","lon":"121.41368969936","lat":"31.190034480628","category":"95","category_name":"日本料理","address":"长宁区宋园路85号(近古羊路)"},{"poiid":"B2094654D56BABF8429F","title":"大吉古羊店(古羊路)","lon":"121.41191","lat":"31.19114","category":"95","category_name":"日本料理","address":"长宁区古羊路435号(近张虹路)"},{"poiid":"B2094757DB69A1FB419A","title":"凛家日本料理","lon":"121.4088584445181","lat":"31.19565778184372","category":"247","category_name":"餐饮美食","address":"长宁区宋园路36号(近虹桥路)"},{"poiid":"B2094655D36DA0FA4292","title":"伊犁南路黄金城道","lon":"121.40471","lat":"31.19399","category":"38","category_name":"公交车站","address":""},{"poiid":"B2094757D06FAAFF459E","title":"潮汕砂锅粥","lon":"121.410753","lat":"31.191333","category":"72","category_name":"广东菜","address":"长宁区古羊路449号(近宋园路)"},{"poiid":"B2094757D66CABFF4999","title":"千秋膳房城市花园店","lon":"121.411832886","lat":"31.1933274095","category":"91","category_name":"台湾菜","address":"长宁区黄金城道91号"},{"poiid":"B2094757D16EA0FD4492","title":"美伊娜意大利家庭料理","lon":"121.408947586","lat":"31.1914156721","category":"500","category_name":"未知分类","address":"上海市长宁区古羊路300号- 10"},{"poiid":"B2094757D06AA6FE469A","title":"台湾小调","lon":"121.41223352","lat":"31.193278568","category":"91","category_name":"台湾菜","address":"长宁区古羊路443号(近张虹路)"},{"poiid":"B2094757D064A7FB4492","title":"安達くずし割烹(古羊路店)","lon":"121.41039","lat":"31.19098","category":"95","category_name":"日本料理","address":"长宁区古羊路461-463号(近姚虹路)"},{"poiid":"B2094757D16FA5FB4799","title":"湘道","lon":"121.41013023","lat":"31.191798067","category":"77","category_name":"湖南菜","address":"长宁区古羊路461号2楼(姚虹路张虹路间)"},{"poiid":"B2094655D26BABFD4992","title":"小鹭鹭酒家宋园店","lon":"121.41328","lat":"31.19241","category":"71","category_name":"四川菜","address":"长宁区宋园路71-73号(黄金城道古羊路间)"},{"poiid":"B2094757D065A3FE449C","title":"金台湾美食","lon":"121.4091","lat":"31.19147","category":"91","category_name":"台湾菜","address":"长宁区古羊路455号(近姚红路)"},{"poiid":"B2094757D568A6FD4498","title":"串庵日本料理","lon":"121.41271","lat":"31.19129","category":"95","category_name":"日本料理","address":"长宁区古羊路300-10号2楼(近姚虹东路)"},{"poiid":"B2094757D56CA0F94893","title":"西贡庭","lon":"121.412907","lat":"31.191131","category":"99","category_name":"泰国／越南菜品餐厅","address":"长宁区古羊路399号(近张虹路)"},{"poiid":"B2094757D069A3FA449B","title":"台北名厨","lon":"121.41248","lat":"31.19089","category":"91","category_name":"台湾菜","address":"长宁区古羊路429号(近宋园路)"},{"poiid":"B2094654D56BABFF449A","title":"新吉士酒楼(黄金城道)","lon":"121.41156","lat":"31.19291","category":"76","category_name":"上海菜","address":"长宁区黄金城道91号(近宋园路)"},{"poiid":"B2094757D068A7F54999","title":"尼章鱼","lon":"121.41254457","lat":"31.190864762","category":"95","category_name":"日本料理","address":"长宁区古羊路427号(近张虹路)"},{"poiid":"B2094757D069A3F9459F","title":"唻吃面(古羊路店)","lon":"121.40818","lat":"31.19099","category":"68","category_name":"快餐厅","address":"长宁区古羊路300-12号(近姚虹路)"},{"poiid":"B2094757D568A6F94393","title":"越南美食安宫","lon":"121.41271","lat":"31.19129","category":"99","category_name":"泰国／越南菜品餐厅","address":"长宁区古羊路300-10号1楼(近姚虹路)"},{"poiid":"B2094654D564A1FA4792","title":"钱江商务广场","lon":"121.41","lat":"31.1969","category":"46","category_name":"楼宇","address":"上海市闵行区莲花南路1500弄"},{"poiid":"B2094757D465A7FC409A","title":"喜乐炭火烧肉","lon":"121.411989054","lat":"31.191338793","category":"269","category_name":"烧烤","address":"长宁区古羊路395号2楼(近宋园路)"},{"poiid":"B2094757D66BA5FB449A","title":"瓷坊餐厅 China China Restaurant","lon":"121.410001054","lat":"31.191794793","category":"75","category_name":"浙江菜","address":"长宁区古羊路447号(近宋园路)"},{"poiid":"B2094757D16EABFB469F","title":"玉海力","lon":"121.41179458","lat":"31.192062684","category":"95","category_name":"日本料理","address":"长宁区宋园109号3楼(近宋园路)"},{"poiid":"B2094757D06BAAF94698","title":"恒盛苑","lon":"121.4088","lat":"31.190723","category":"500","category_name":"未知分类","address":"上海市闵行区姚虹路299弄1号"},{"poiid":"B2094750D66FA7F8489A","title":"Cube French Restaurant","lon":"121.407066","lat":"31.191873","category":"247","category_name":"餐饮美食","address":"长宁区古羊路483号(近姚虹路)"},{"poiid":"B2094654D56BABF8449C","title":"海申花园","lon":"121.41198","lat":"31.18971","category":"47","category_name":"住宅区","address":"上海张虹路125弄"},{"poiid":"B2094655D36DA0F94899","title":"姚虹路古羊路","lon":"121.40907","lat":"31.19181","category":"38","category_name":"公交车站","address":""},{"poiid":"B2094654D56BABF8439B","title":"幺妹豆捞","lon":"121.40981","lat":"31.19124","category":"86","category_name":"火锅店","address":"长宁区古羊路469号(近姚虹路)"},{"poiid":"B2094654D564A1FB459E","title":"上海协和双语高级中学","lon":"121.40645","lat":"31.18934","category":"55","category_name":"中学","address":"上海市红松东路248号"},{"poiid":"B2094655D265A2F4429A","title":"小题大作","lon":"121.40698","lat":"31.19113","category":"86","category_name":"火锅店","address":"古羊路300-15号(丙),481号"},{"poiid":"B2094757D66CA0F9419A","title":"一潮潮州菜","lon":"121.407156586","lat":"31.1916516767","category":"72","category_name":"广东菜","address":"长宁区古羊路481号(近伊犁南路)"},{"poiid":"B2094757D064A0F54998","title":"虹桥城市花园","lon":"121.41093","lat":"31.192495","category":"252","category_name":"楼宇机构","address":"上海黄金城道99弄"},{"poiid":"B2094757DB6BA3FC479C","title":"Eddie's","lon":"121.4076617","lat":"31.1913253","category":"94","category_name":"西餐厅","address":"长宁区古羊路479号(近姚虹路)"},{"poiid":"B2094655D264A0F4499F","title":"来碗面温州私房海鲜面","lon":"121.40726","lat":"31.19113","category":"75","category_name":"浙江菜","address":"长宁区古羊路481号(近伊犁南路)"},{"poiid":"B2094750D664A6F94499","title":"酉一","lon":"121.407","lat":"31.1916","category":"95","category_name":"日本料理","address":"长宁区古羊路509号(近姚虹路)"},{"poiid":"B2094757D069A6FE4298","title":"海联花苑","lon":"121.412360594245","lat":"31.18756642982282","category":"47","category_name":"住宅区","address":"上海吴中路380弄"},{"poiid":"B2094757D66AA6FF459D","title":"种壹西餐厅","lon":"121.4074","lat":"31.19377","category":"94","category_name":"西餐厅","address":"长宁区黄金城道725号(富贵东路黄金城道)"},{"poiid":"B209475CD76BA5FD439E","title":"Hello Kitty Today","lon":"121.407722","lat":"31.196411","category":"500","category_name":"未知分类","address":"上海市 高岛屋"},{"poiid":"B2094654D564A1FA459A","title":"意大利家庭料理","lon":"121.40864","lat":"31.19107","category":"98","category_name":"意式菜品餐厅","address":"虹桥镇"},{"poiid":"B2094757D164A5F9499D","title":"AN NGON 安宫越南美食","lon":"121.40501358","lat":"31.193916721","category":"247","category_name":"餐饮美食","address":"上海古羊路300-10 1F(姚虹路口)"},{"poiid":"B2094757D06FA3FA409E","title":"吉亨面馆(古羊路店)","lon":"121.41247","lat":"31.19093","category":"68","category_name":"快餐厅","address":"上海长宁区古羊路433号(近张虹路)  "},{"poiid":"B2094654D56BABFE449D","title":"广播大厦","lon":"121.40747","lat":"31.19681","category":"46","category_name":"楼宇","address":"虹桥路1376"},{"poiid":"B2094757DA6EAAFD4893","title":"幸福131(古羊路店)","lon":"121.409718990327","lat":"31.1916029366807","category":"71","category_name":"四川菜","address":"长宁区古羊路300-11号(近姚虹路)"},{"poiid":"B2094757D068A7FE4898","title":"儿童博物馆","lon":"121.41312011","lat":"31.193867929","category":"182","category_name":"博物馆","address":"长宁区宋园路61号(黄金城道宋园路)"},{"poiid":"B2094757D068A3FD4693","title":"大茴香(古北店)","lon":"121.41172","lat":"31.19091","category":"99","category_name":"泰国／越南菜品餐厅","address":"长宁区古羊路451号(近姚虹路)"},{"poiid":"B2094654D56BABF8429B","title":"古羊路休闲街","lon":"121.41237","lat":"31.19117","category":"116","category_name":"特色商业街","address":"长宁区古羊路(近宋园路)"},{"poiid":"B2094655D36CA0F44499","title":"黄金城道","lon":"121.40412","lat":"31.19204","category":"38","category_name":"公交车站","address":""},{"poiid":"B2094757D068A6FD499F","title":"卢记麻辣鸳鸯火锅","lon":"121.40991658","lat":"31.191428223","category":"86","category_name":"火锅店","address":"长宁区古羊路467-1号(近姚虹路)"},{"poiid":"B2094750D26DA4FE4298","title":"万藏 古羊路二店","lon":"121.41070604324","lat":"31.190905415432","category":"269","category_name":"烧烤","address":"长宁区古羊路451-2号(近姚虹路)"},{"poiid":"B2094757D069A3FD429C","title":"九兴里经典本帮餐厅","lon":"121.412582","lat":"31.191641","category":"76","category_name":"上海菜","address":"上海古羊路316号，近宋园路张虹路"},{"poiid":"B2094757D06FA4FB4099","title":"御香海 宋园店 Gokohai","lon":"121.41368969936","lat":"31.190034480628","category":"95","category_name":"日本料理","address":"长宁区宋园路85号(近古羊路)"},{"poiid":"B2094654D56BABF8429F","title":"大吉古羊店(古羊路)","lon":"121.41191","lat":"31.19114","category":"95","category_name":"日本料理","address":"长宁区古羊路435号(近张虹路)"},{"poiid":"B2094757DB69A1FB419A","title":"凛家日本料理","lon":"121.4088584445181","lat":"31.19565778184372","category":"247","category_name":"餐饮美食","address":"长宁区宋园路36号(近虹桥路)"},{"poiid":"B2094655D36DA0FA4292","title":"伊犁南路黄金城道","lon":"121.40471","lat":"31.19399","category":"38","category_name":"公交车站","address":""},{"poiid":"B2094757D06FAAFF459E","title":"潮汕砂锅粥","lon":"121.410753","lat":"31.191333","category":"72","category_name":"广东菜","address":"长宁区古羊路449号(近宋园路)"},{"poiid":"B2094757D66CABFF4999","title":"千秋膳房城市花园店","lon":"121.411832886","lat":"31.1933274095","category":"91","category_name":"台湾菜","address":"长宁区黄金城道91号"},{"poiid":"B2094757D16EA0FD4492","title":"美伊娜意大利家庭料理","lon":"121.408947586","lat":"31.1914156721","category":"500","category_name":"未知分类","address":"上海市长宁区古羊路300号- 10"},{"poiid":"B2094757D06AA6FE469A","title":"台湾小调","lon":"121.41223352","lat":"31.193278568","category":"91","category_name":"台湾菜","address":"长宁区古羊路443号(近张虹路)"},{"poiid":"B2094757D064A7FB4492","title":"安達くずし割烹(古羊路店)","lon":"121.41039","lat":"31.19098","category":"95","category_name":"日本料理","address":"长宁区古羊路461-463号(近姚虹路)"},{"poiid":"B2094757D16FA5FB4799","title":"湘道","lon":"121.41013023","lat":"31.191798067","category":"77","category_name":"湖南菜","address":"长宁区古羊路461号2楼(姚虹路张虹路间)"},{"poiid":"B2094655D26BABFD4992","title":"小鹭鹭酒家宋园店","lon":"121.41328","lat":"31.19241","category":"71","category_name":"四川菜","address":"长宁区宋园路71-73号(黄金城道古羊路间)"},{"poiid":"B2094757D065A3FE449C","title":"金台湾美食","lon":"121.4091","lat":"31.19147","category":"91","category_name":"台湾菜","address":"长宁区古羊路455号(近姚红路)"},{"poiid":"B2094757D568A6FD4498","title":"串庵日本料理","lon":"121.41271","lat":"31.19129","category":"95","category_name":"日本料理","address":"长宁区古羊路300-10号2楼(近姚虹东路)"},{"poiid":"B2094757D56CA0F94893","title":"西贡庭","lon":"121.412907","lat":"31.191131","category":"99","category_name":"泰国／越南菜品餐厅","address":"长宁区古羊路399号(近张虹路)"},{"poiid":"B2094757D069A3FA449B","title":"台北名厨","lon":"121.41248","lat":"31.19089","category":"91","category_name":"台湾菜","address":"长宁区古羊路429号(近宋园路)"},{"poiid":"B2094654D56BABFF449A","title":"新吉士酒楼(黄金城道)","lon":"121.41156","lat":"31.19291","category":"76","category_name":"上海菜","address":"长宁区黄金城道91号(近宋园路)"},{"poiid":"B2094757D068A7F54999","title":"尼章鱼","lon":"121.41254457","lat":"31.190864762","category":"95","category_name":"日本料理","address":"长宁区古羊路427号(近张虹路)"},{"poiid":"B2094757D069A3F9459F","title":"唻吃面(古羊路店)","lon":"121.40818","lat":"31.19099","category":"68","category_name":"快餐厅","address":"长宁区古羊路300-12号(近姚虹路)"},{"poiid":"B2094757D568A6F94393","title":"越南美食安宫","lon":"121.41271","lat":"31.19129","category":"99","category_name":"泰国／越南菜品餐厅","address":"长宁区古羊路300-10号1楼(近姚虹路)"},{"poiid":"B2094654D564A1FA4792","title":"钱江商务广场","lon":"121.41","lat":"31.1969","category":"46","category_name":"楼宇","address":"上海市闵行区莲花南路1500弄"},{"poiid":"B2094757D465A7FC409A","title":"喜乐炭火烧肉","lon":"121.411989054","lat":"31.191338793","category":"269","category_name":"烧烤","address":"长宁区古羊路395号2楼(近宋园路)"},{"poiid":"B2094757D66BA5FB449A","title":"瓷坊餐厅 China China Restaurant","lon":"121.410001054","lat":"31.191794793","category":"75","category_name":"浙江菜","address":"长宁区古羊路447号(近宋园路)"},{"poiid":"B2094757D16EABFB469F","title":"玉海力","lon":"121.41179458","lat":"31.192062684","category":"95","category_name":"日本料理","address":"长宁区宋园109号3楼(近宋园路)"},{"poiid":"B2094757D06BAAF94698","title":"恒盛苑","lon":"121.4088","lat":"31.190723","category":"500","category_name":"未知分类","address":"上海市闵行区姚虹路299弄1号"},{"poiid":"B2094750D66FA7F8489A","title":"Cube French Restaurant","lon":"121.407066","lat":"31.191873","category":"247","category_name":"餐饮美食","address":"长宁区古羊路483号(近姚虹路)"},{"poiid":"B2094654D56BABF8449C","title":"海申花园","lon":"121.41198","lat":"31.18971","category":"47","category_name":"住宅区","address":"上海张虹路125弄"},{"poiid":"B2094655D36DA0F94899","title":"姚虹路古羊路","lon":"121.40907","lat":"31.19181","category":"38","category_name":"公交车站","address":""},{"poiid":"B2094654D56BABF8439B","title":"幺妹豆捞","lon":"121.40981","lat":"31.19124","category":"86","category_name":"火锅店","address":"长宁区古羊路469号(近姚虹路)"},{"poiid":"B2094654D564A1FB459E","title":"上海协和双语高级中学","lon":"121.40645","lat":"31.18934","category":"55","category_name":"中学","address":"上海市红松东路248号"},{"poiid":"B2094655D265A2F4429A","title":"小题大作","lon":"121.40698","lat":"31.19113","category":"86","category_name":"火锅店","address":"古羊路300-15号(丙),481号"},{"poiid":"B2094757D66CA0F9419A","title":"一潮潮州菜","lon":"121.407156586","lat":"31.1916516767","category":"72","category_name":"广东菜","address":"长宁区古羊路481号(近伊犁南路)"},{"poiid":"B2094757D064A0F54998","title":"虹桥城市花园","lon":"121.41093","lat":"31.192495","category":"252","category_name":"楼宇机构","address":"上海黄金城道99弄"},{"poiid":"B2094757DB6BA3FC479C","title":"Eddie's","lon":"121.4076617","lat":"31.1913253","category":"94","category_name":"西餐厅","address":"长宁区古羊路479号(近姚虹路)"},{"poiid":"B2094655D264A0F4499F","title":"来碗面温州私房海鲜面","lon":"121.40726","lat":"31.19113","category":"75","category_name":"浙江菜","address":"长宁区古羊路481号(近伊犁南路)"},{"poiid":"B2094750D664A6F94499","title":"酉一","lon":"121.407","lat":"31.1916","category":"95","category_name":"日本料理","address":"长宁区古羊路509号(近姚虹路)"},{"poiid":"B2094757D069A6FE4298","title":"海联花苑","lon":"121.412360594245","lat":"31.18756642982282","category":"47","category_name":"住宅区","address":"上海吴中路380弄"},{"poiid":"B2094757D66AA6FF459D","title":"种壹西餐厅","lon":"121.4074","lat":"31.19377","category":"94","category_name":"西餐厅","address":"长宁区黄金城道725号(富贵东路黄金城道)"},{"poiid":"B209475CD76BA5FD439E","title":"Hello Kitty Today","lon":"121.407722","lat":"31.196411","category":"500","category_name":"未知分类","address":"上海市 高岛屋"},{"poiid":"B2094654D564A1FA459A","title":"意大利家庭料理","lon":"121.40864","lat":"31.19107","category":"98","category_name":"意式菜品餐厅","address":"虹桥镇"},{"poiid":"B2094757D164A5F9499D","title":"AN NGON 安宫越南美食","lon":"121.40501358","lat":"31.193916721","category":"247","category_name":"餐饮美食","address":"上海古羊路300-10 1F(姚虹路口)"},{"poiid":"B2094757D06FA3FA409E","title":"吉亨面馆(古羊路店)","lon":"121.41247","lat":"31.19093","category":"68","category_name":"快餐厅","address":"上海长宁区古羊路433号(近张虹路)  "},{"poiid":"B2094654D56BABFE449D","title":"广播大厦","lon":"121.40747","lat":"31.19681","category":"46","category_name":"楼宇","address":"虹桥路1376"},{"poiid":"B2094757DA6EAAFD4893","title":"幸福131(古羊路店)","lon":"121.409718990327","lat":"31.1916029366807","category":"71","category_name":"四川菜","address":"长宁区古羊路300-11号(近姚虹路)"},{"poiid":"B2094757D068A7FE4898","title":"儿童博物馆","lon":"121.41312011","lat":"31.193867929","category":"182","category_name":"博物馆","address":"长宁区宋园路61号(黄金城道宋园路)"},{"poiid":"B2094757D068A3FD4693","title":"大茴香(古北店)","lon":"121.41172","lat":"31.19091","category":"99","category_name":"泰国／越南菜品餐厅","address":"长宁区古羊路451号(近姚虹路)"},{"poiid":"B2094654D56BABF8429B","title":"古羊路休闲街","lon":"121.41237","lat":"31.19117","category":"116","category_name":"特色商业街","address":"长宁区古羊路(近宋园路)"},{"poiid":"B2094655D36CA0F44499","title":"黄金城道","lon":"121.40412","lat":"31.19204","category":"38","category_name":"公交车站","address":""},{"poiid":"B2094757D068A6FD499F","title":"卢记麻辣鸳鸯火锅","lon":"121.40991658","lat":"31.191428223","category":"86","category_name":"火锅店","address":"长宁区古羊路467-1号(近姚虹路)"},{"poiid":"B2094750D26DA4FE4298","title":"万藏 古羊路二店","lon":"121.41070604324","lat":"31.190905415432","category":"269","category_name":"烧烤","address":"长宁区古羊路451-2号(近姚虹路)"},{"poiid":"B2094757D069A3FD429C","title":"九兴里经典本帮餐厅","lon":"121.412582","lat":"31.191641","category":"76","category_name":"上海菜","address":"上海古羊路316号，近宋园路张虹路"},{"poiid":"B2094757D06FA4FB4099","title":"御香海 宋园店 Gokohai","lon":"121.41368969936","lat":"31.190034480628","category":"95","category_name":"日本料理","address":"长宁区宋园路85号(近古羊路)"},{"poiid":"B2094654D56BABF8429F","title":"大吉古羊店(古羊路)","lon":"121.41191","lat":"31.19114","category":"95","category_name":"日本料理","address":"长宁区古羊路435号(近张虹路)"},{"poiid":"B2094757DB69A1FB419A","title":"凛家日本料理","lon":"121.4088584445181","lat":"31.19565778184372","category":"247","category_name":"餐饮美食","address":"长宁区宋园路36号(近虹桥路)"},{"poiid":"B2094655D36DA0FA4292","title":"伊犁南路黄金城道","lon":"121.40471","lat":"31.19399","category":"38","category_name":"公交车站","address":""},{"poiid":"B2094757D06FAAFF459E","title":"潮汕砂锅粥","lon":"121.410753","lat":"31.191333","category":"72","category_name":"广东菜","address":"长宁区古羊路449号(近宋园路)"},{"poiid":"B2094757D66CABFF4999","title":"千秋膳房城市花园店","lon":"121.411832886","lat":"31.1933274095","category":"91","category_name":"台湾菜","address":"长宁区黄金城道91号"},{"poiid":"B2094757D16EA0FD4492","title":"美伊娜意大利家庭料理","lon":"121.408947586","lat":"31.1914156721","category":"500","category_name":"未知分类","address":"上海市长宁区古羊路300号- 10"},{"poiid":"B2094757D06AA6FE469A","title":"台湾小调","lon":"121.41223352","lat":"31.193278568","category":"91","category_name":"台湾菜","address":"长宁区古羊路443号(近张虹路)"},{"poiid":"B2094757D064A7FB4492","title":"安達くずし割烹(古羊路店)","lon":"121.41039","lat":"31.19098","category":"95","category_name":"日本料理","address":"长宁区古羊路461-463号(近姚虹路)"},{"poiid":"B2094757D16FA5FB4799","title":"湘道","lon":"121.41013023","lat":"31.191798067","category":"77","category_name":"湖南菜","address":"长宁区古羊路461号2楼(姚虹路张虹路间)"},{"poiid":"B2094655D26BABFD4992","title":"小鹭鹭酒家宋园店","lon":"121.41328","lat":"31.19241","category":"71","category_name":"四川菜","address":"长宁区宋园路71-73号(黄金城道古羊路间)"},{"poiid":"B2094757D065A3FE449C","title":"金台湾美食","lon":"121.4091","lat":"31.19147","category":"91","category_name":"台湾菜","address":"长宁区古羊路455号(近姚红路)"},{"poiid":"B2094757D568A6FD4498","title":"串庵日本料理","lon":"121.41271","lat":"31.19129","category":"95","category_name":"日本料理","address":"长宁区古羊路300-10号2楼(近姚虹东路)"},{"poiid":"B2094757D56CA0F94893","title":"西贡庭","lon":"121.412907","lat":"31.191131","category":"99","category_name":"泰国／越南菜品餐厅","address":"长宁区古羊路399号(近张虹路)"},{"poiid":"B2094757D069A3FA449B","title":"台北名厨","lon":"121.41248","lat":"31.19089","category":"91","category_name":"台湾菜","address":"长宁区古羊路429号(近宋园路)"},{"poiid":"B2094654D56BABFF449A","title":"新吉士酒楼(黄金城道)","lon":"121.41156","lat":"31.19291","category":"76","category_name":"上海菜","address":"长宁区黄金城道91号(近宋园路)"},{"poiid":"B2094757D068A7F54999","title":"尼章鱼","lon":"121.41254457","lat":"31.190864762","category":"95","category_name":"日本料理","address":"长宁区古羊路427号(近张虹路)"},{"poiid":"B2094757D069A3F9459F","title":"唻吃面(古羊路店)","lon":"121.40818","lat":"31.19099","category":"68","category_name":"快餐厅","address":"长宁区古羊路300-12号(近姚虹路)"},{"poiid":"B2094757D568A6F94393","title":"越南美食安宫","lon":"121.41271","lat":"31.19129","category":"99","category_name":"泰国／越南菜品餐厅","address":"长宁区古羊路300-10号1楼(近姚虹路)"},{"poiid":"B2094654D564A1FA4792","title":"钱江商务广场","lon":"121.41","lat":"31.1969","category":"46","category_name":"楼宇","address":"上海市闵行区莲花南路1500弄"},{"poiid":"B2094757D465A7FC409A","title":"喜乐炭火烧肉","lon":"121.411989054","lat":"31.191338793","category":"269","category_name":"烧烤","address":"长宁区古羊路395号2楼(近宋园路)"},{"poiid":"B2094757D66BA5FB449A","title":"瓷坊餐厅 China China Restaurant","lon":"121.410001054","lat":"31.191794793","category":"75","category_name":"浙江菜","address":"长宁区古羊路447号(近宋园路)"},{"poiid":"B2094757D16EABFB469F","title":"玉海力","lon":"121.41179458","lat":"31.192062684","category":"95","category_name":"日本料理","address":"长宁区宋园109号3楼(近宋园路)"},{"poiid":"B2094757D06BAAF94698","title":"恒盛苑","lon":"121.4088","lat":"31.190723","category":"500","category_name":"未知分类","address":"上海市闵行区姚虹路299弄1号"},{"poiid":"B2094750D66FA7F8489A","title":"Cube French Restaurant","lon":"121.407066","lat":"31.191873","category":"247","category_name":"餐饮美食","address":"长宁区古羊路483号(近姚虹路)"},{"poiid":"B2094654D56BABF8449C","title":"海申花园","lon":"121.41198","lat":"31.18971","category":"47","category_name":"住宅区","address":"上海张虹路125弄"},{"poiid":"B2094655D36DA0F94899","title":"姚虹路古羊路","lon":"121.40907","lat":"31.19181","category":"38","category_name":"公交车站","address":""},{"poiid":"B2094654D56BABF8439B","title":"幺妹豆捞","lon":"121.40981","lat":"31.19124","category":"86","category_name":"火锅店","address":"长宁区古羊路469号(近姚虹路)"},{"poiid":"B2094654D564A1FB459E","title":"上海协和双语高级中学","lon":"121.40645","lat":"31.18934","category":"55","category_name":"中学","address":"上海市红松东路248号"},{"poiid":"B2094655D265A2F4429A","title":"小题大作","lon":"121.40698","lat":"31.19113","category":"86","category_name":"火锅店","address":"古羊路300-15号(丙),481号"},{"poiid":"B2094757D66CA0F9419A","title":"一潮潮州菜","lon":"121.407156586","lat":"31.1916516767","category":"72","category_name":"广东菜","address":"长宁区古羊路481号(近伊犁南路)"},{"poiid":"B2094757D064A0F54998","title":"虹桥城市花园","lon":"121.41093","lat":"31.192495","category":"252","category_name":"楼宇机构","address":"上海黄金城道99弄"},{"poiid":"B2094757DB6BA3FC479C","title":"Eddie's","lon":"121.4076617","lat":"31.1913253","category":"94","category_name":"西餐厅","address":"长宁区古羊路479号(近姚虹路)"},{"poiid":"B2094655D264A0F4499F","title":"来碗面温州私房海鲜面","lon":"121.40726","lat":"31.19113","category":"75","category_name":"浙江菜","address":"长宁区古羊路481号(近伊犁南路)"},{"poiid":"B2094750D664A6F94499","title":"酉一","lon":"121.407","lat":"31.1916","category":"95","category_name":"日本料理","address":"长宁区古羊路509号(近姚虹路)"},{"poiid":"B2094757D069A6FE4298","title":"海联花苑","lon":"121.412360594245","lat":"31.18756642982282","category":"47","category_name":"住宅区","address":"上海吴中路380弄"},{"poiid":"B2094757D66AA6FF459D","title":"种壹西餐厅","lon":"121.4074","lat":"31.19377","category":"94","category_name":"西餐厅","address":"长宁区黄金城道725号(富贵东路黄金城道)"},{"poiid":"B209475CD76BA5FD439E","title":"Hello Kitty Today","lon":"121.407722","lat":"31.196411","category":"500","category_name":"未知分类","address":"上海市 高岛屋"},{"poiid":"B2094654D564A1FA459A","title":"意大利家庭料理","lon":"121.40864","lat":"31.19107","category":"98","category_name":"意式菜品餐厅","address":"虹桥镇"},{"poiid":"B2094757D164A5F9499D","title":"AN NGON 安宫越南美食","lon":"121.40501358","lat":"31.193916721","category":"247","category_name":"餐饮美食","address":"上海古羊路300-10 1F(姚虹路口)"},{"poiid":"B2094757D06FA3FA409E","title":"吉亨面馆(古羊路店)","lon":"121.41247","lat":"31.19093","category":"68","category_name":"快餐厅","address":"上海长宁区古羊路433号(近张虹路)  "},{"poiid":"B2094654D56BABFE449D","title":"广播大厦","lon":"121.40747","lat":"31.19681","category":"46","category_name":"楼宇","address":"虹桥路1376"},{"poiid":"B2094757DA6EAAFD4893","title":"幸福131(古羊路店)","lon":"121.409718990327","lat":"31.1916029366807","category":"71","category_name":"四川菜","address":"长宁区古羊路300-11号(近姚虹路)"},{"poiid":"B2094757D068A7FE4898","title":"儿童博物馆","lon":"121.41312011","lat":"31.193867929","category":"182","category_name":"博物馆","address":"长宁区宋园路61号(黄金城道宋园路)"},{"poiid":"B2094757D068A3FD4693","title":"大茴香(古北店)","lon":"121.41172","lat":"31.19091","category":"99","category_name":"泰国／越南菜品餐厅","address":"长宁区古羊路451号(近姚虹路)"},{"poiid":"B2094654D56BABF8429B","title":"古羊路休闲街","lon":"121.41237","lat":"31.19117","category":"116","category_name":"特色商业街","address":"长宁区古羊路(近宋园路)"},{"poiid":"B2094655D36CA0F44499","title":"黄金城道","lon":"121.40412","lat":"31.19204","category":"38","category_name":"公交车站","address":""},{"poiid":"B2094757D068A6FD499F","title":"卢记麻辣鸳鸯火锅","lon":"121.40991658","lat":"31.191428223","category":"86","category_name":"火锅店","address":"长宁区古羊路467-1号(近姚虹路)"},{"poiid":"B2094750D26DA4FE4298","title":"万藏 古羊路二店","lon":"121.41070604324","lat":"31.190905415432","category":"269","category_name":"烧烤","address":"长宁区古羊路451-2号(近姚虹路)"},{"poiid":"B2094757D069A3FD429C","title":"九兴里经典本帮餐厅","lon":"121.412582","lat":"31.191641","category":"76","category_name":"上海菜","address":"上海古羊路316号，近宋园路张虹路"},{"poiid":"B2094757D06FA4FB4099","title":"御香海 宋园店 Gokohai","lon":"121.41368969936","lat":"31.190034480628","category":"95","category_name":"日本料理","address":"长宁区宋园路85号(近古羊路)"},{"poiid":"B2094654D56BABF8429F","title":"大吉古羊店(古羊路)","lon":"121.41191","lat":"31.19114","category":"95","category_name":"日本料理","address":"长宁区古羊路435号(近张虹路)"},{"poiid":"B2094757DB69A1FB419A","title":"凛家日本料理","lon":"121.4088584445181","lat":"31.19565778184372","category":"247","category_name":"餐饮美食","address":"长宁区宋园路36号(近虹桥路)"},{"poiid":"B2094655D36DA0FA4292","title":"伊犁南路黄金城道","lon":"121.40471","lat":"31.19399","category":"38","category_name":"公交车站","address":""},{"poiid":"B2094757D06FAAFF459E","title":"潮汕砂锅粥","lon":"121.410753","lat":"31.191333","category":"72","category_name":"广东菜","address":"长宁区古羊路449号(近宋园路)"},{"poiid":"B2094757D66CABFF4999","title":"千秋膳房城市花园店","lon":"121.411832886","lat":"31.1933274095","category":"91","category_name":"台湾菜","address":"长宁区黄金城道91号"},{"poiid":"B2094757D16EA0FD4492","title":"美伊娜意大利家庭料理","lon":"121.408947586","lat":"31.1914156721","category":"500","category_name":"未知分类","address":"上海市长宁区古羊路300号- 10"},{"poiid":"B2094757D06AA6FE469A","title":"台湾小调","lon":"121.41223352","lat":"31.193278568","category":"91","category_name":"台湾菜","address":"长宁区古羊路443号(近张虹路)"},{"poiid":"B2094757D064A7FB4492","title":"安達くずし割烹(古羊路店)","lon":"121.41039","lat":"31.19098","category":"95","category_name":"日本料理","address":"长宁区古羊路461-463号(近姚虹路)"},{"poiid":"B2094757D16FA5FB4799","title":"湘道","lon":"121.41013023","lat":"31.191798067","category":"77","category_name":"湖南菜","address":"长宁区古羊路461号2楼(姚虹路张虹路间)"},{"poiid":"B2094655D26BABFD4992","title":"小鹭鹭酒家宋园店","lon":"121.41328","lat":"31.19241","category":"71","category_name":"四川菜","address":"长宁区宋园路71-73号(黄金城道古羊路间)"},{"poiid":"B2094757D065A3FE449C","title":"金台湾美食","lon":"121.4091","lat":"31.19147","category":"91","category_name":"台湾菜","address":"长宁区古羊路455号(近姚红路)"},{"poiid":"B2094757D568A6FD4498","title":"串庵日本料理","lon":"121.41271","lat":"31.19129","category":"95","category_name":"日本料理","address":"长宁区古羊路300-10号2楼(近姚虹东路)"},{"poiid":"B2094757D56CA0F94893","title":"西贡庭","lon":"121.412907","lat":"31.191131","category":"99","category_name":"泰国／越南菜品餐厅","address":"长宁区古羊路399号(近张虹路)"},{"poiid":"B2094757D069A3FA449B","title":"台北名厨","lon":"121.41248","lat":"31.19089","category":"91","category_name":"台湾菜","address":"长宁区古羊路429号(近宋园路)"},{"poiid":"B2094654D56BABFF449A","title":"新吉士酒楼(黄金城道)","lon":"121.41156","lat":"31.19291","category":"76","category_name":"上海菜","address":"长宁区黄金城道91号(近宋园路)"},{"poiid":"B2094757D068A7F54999","title":"尼章鱼","lon":"121.41254457","lat":"31.190864762","category":"95","category_name":"日本料理","address":"长宁区古羊路427号(近张虹路)"},{"poiid":"B2094757D069A3F9459F","title":"唻吃面(古羊路店)","lon":"121.40818","lat":"31.19099","category":"68","category_name":"快餐厅","address":"长宁区古羊路300-12号(近姚虹路)"},{"poiid":"B2094757D568A6F94393","title":"越南美食安宫","lon":"121.41271","lat":"31.19129","category":"99","category_name":"泰国／越南菜品餐厅","address":"长宁区古羊路300-10号1楼(近姚虹路)"},{"poiid":"B2094654D564A1FA4792","title":"钱江商务广场","lon":"121.41","lat":"31.1969","category":"46","category_name":"楼宇","address":"上海市闵行区莲花南路1500弄"},{"poiid":"B2094757D465A7FC409A","title":"喜乐炭火烧肉","lon":"121.411989054","lat":"31.191338793","category":"269","category_name":"烧烤","address":"长宁区古羊路395号2楼(近宋园路)"},{"poiid":"B2094757D66BA5FB449A","title":"瓷坊餐厅 China China Restaurant","lon":"121.410001054","lat":"31.191794793","category":"75","category_name":"浙江菜","address":"长宁区古羊路447号(近宋园路)"},{"poiid":"B2094757D16EABFB469F","title":"玉海力","lon":"121.41179458","lat":"31.192062684","category":"95","category_name":"日本料理","address":"长宁区宋园109号3楼(近宋园路)"},{"poiid":"B2094757D06BAAF94698","title":"恒盛苑","lon":"121.4088","lat":"31.190723","category":"500","category_name":"未知分类","address":"上海市闵行区姚虹路299弄1号"},{"poiid":"B2094750D66FA7F8489A","title":"Cube French Restaurant","lon":"121.407066","lat":"31.191873","category":"247","category_name":"餐饮美食","address":"长宁区古羊路483号(近姚虹路)"},{"poiid":"B2094654D56BABF8449C","title":"海申花园","lon":"121.41198","lat":"31.18971","category":"47","category_name":"住宅区","address":"上海张虹路125弄"},{"poiid":"B2094655D36DA0F94899","title":"姚虹路古羊路","lon":"121.40907","lat":"31.19181","category":"38","category_name":"公交车站","address":""},{"poiid":"B2094654D56BABF8439B","title":"幺妹豆捞","lon":"121.40981","lat":"31.19124","category":"86","category_name":"火锅店","address":"长宁区古羊路469号(近姚虹路)"},{"poiid":"B2094654D564A1FB459E","title":"上海协和双语高级中学","lon":"121.40645","lat":"31.18934","category":"55","category_name":"中学","address":"上海市红松东路248号"},{"poiid":"B2094655D265A2F4429A","title":"小题大作","lon":"121.40698","lat":"31.19113","category":"86","category_name":"火锅店","address":"古羊路300-15号(丙),481号"},{"poiid":"B2094757D66CA0F9419A","title":"一潮潮州菜","lon":"121.407156586","lat":"31.1916516767","category":"72","category_name":"广东菜","address":"长宁区古羊路481号(近伊犁南路)"},{"poiid":"B2094757D064A0F54998","title":"虹桥城市花园","lon":"121.41093","lat":"31.192495","category":"252","category_name":"楼宇机构","address":"上海黄金城道99弄"},{"poiid":"B2094757DB6BA3FC479C","title":"Eddie's","lon":"121.4076617","lat":"31.1913253","category":"94","category_name":"西餐厅","address":"长宁区古羊路479号(近姚虹路)"},{"poiid":"B2094655D264A0F4499F","title":"来碗面温州私房海鲜面","lon":"121.40726","lat":"31.19113","category":"75","category_name":"浙江菜","address":"长宁区古羊路481号(近伊犁南路)"},{"poiid":"B2094750D664A6F94499","title":"酉一","lon":"121.407","lat":"31.1916","category":"95","category_name":"日本料理","address":"长宁区古羊路509号(近姚虹路)"},{"poiid":"B2094757D069A6FE4298","title":"海联花苑","lon":"121.412360594245","lat":"31.18756642982282","category":"47","category_name":"住宅区","address":"上海吴中路380弄"},{"poiid":"B2094757D66AA6FF459D","title":"种壹西餐厅","lon":"121.4074","lat":"31.19377","category":"94","category_name":"西餐厅","address":"长宁区黄金城道725号(富贵东路黄金城道)"},{"poiid":"B209475CD76BA5FD439E","title":"Hello Kitty Today","lon":"121.407722","lat":"31.196411","category":"500","category_name":"未知分类","address":"上海市 高岛屋"},{"poiid":"B2094654D564A1FA459A","title":"意大利家庭料理","lon":"121.40864","lat":"31.19107","category":"98","category_name":"意式菜品餐厅","address":"虹桥镇"},{"poiid":"B2094757D164A5F9499D","title":"AN NGON 安宫越南美食","lon":"121.40501358","lat":"31.193916721","category":"247","category_name":"餐饮美食","address":"上海古羊路300-10 1F(姚虹路口)"}]