[{"poiid":"B2094757D06FA0FA469D","title":"滨海森林公园","lon":"121.911233048","lat":"30.9699341393","category":"196","category_name":"公园","address":"浦东新区滨海镇滨海旅游度假区东大公路5366号(滨海高尔夫球场对面)"},{"poiid":"B2094750DB6AA0FB439B","title":"东海农场","lon":"121.91205408566","lat":"30.961151647316","category":"500","category_name":"未知分类","address":"三三公路振东路"},{"poiid":"B2094757D56EA5FB4493","title":"上海滨海森林公园(西北门)","lon":"121.910152","lat":"30.971784","category":"250","category_name":"公园户外","address":"中国上海市浦东新区"},{"poiid":"B2094654DB68A1FE429A","title":"森林公园酒店","lon":"121.91094","lat":"30.97257","category":"250","category_name":"公园户外","address":"白玉兰大道118号"},{"poiid":"B2094757D06BABFE439F","title":"滨海高尔夫俱乐部","lon":"121.90451","lat":"30.97131","category":"500","category_name":"未知分类","address":"浦东新区滨海旅游度假区东大公路5333弄(近A30)"},{"poiid":"B2094757D66DA7F8439B","title":"海燕农家乐","lon":"121.90835568","lat":"30.955884462","category":"247","category_name":"餐饮美食","address":"上海东海农场三三公路5888号"},{"poiid":"B2094757D568AAF4439E","title":"滨海高尔夫会所餐厅","lon":"121.904153","lat":"30.97147","category":"76","category_name":"上海菜","address":"浦东新区滨海渡假区滨海高尔夫俱乐部内"},{"poiid":"B2094654DB68A1FD489B","title":"滨海高尔夫","lon":"121.90409","lat":"30.97232","category":"206","category_name":"高尔夫相关","address":"东大公路"},{"poiid":"B2094757D169A7F44693","title":"龙东线","lon":"121.926463087","lat":"30.9505317321","category":"500","category_name":"未知分类","address":"上海龙阳路地铁站——东海农场"}]