[{"poiid":"B2094757D06FA7FC419B","title":"罗山路中环段","lon":"121.58017194","lat":"31.186608022","category":"500","category_name":"未知分类","address":"上海罗山路高科西路口"},{"poiid":"B2094757D06FA1FC449C","title":"通用电气中国科技园","lon":"121.58406304","lat":"31.192172644","category":"46","category_name":"楼宇","address":"上海浦东新区张江高科技园区华佗路1号(近达尔文路)"},{"poiid":"B2094654DB65A3FF499F","title":"博雅酒店","lon":"121.58403","lat":"31.19929","category":"268","category_name":"自助","address":"浦东新区碧波路699号(近张江地铁站)"},{"poiid":"B2094757D06FA1FD479D","title":"好乐迪量贩式KTV(张江店)","lon":"121.5827847","lat":"31.199233375","category":"170","category_name":"KTV","address":"上海张江碧波路635号传奇广场2楼"},{"poiid":"B2094757D16CA6F8439A","title":"张江传奇广场","lon":"121.58368597","lat":"31.199951352","category":"500","category_name":"未知分类","address":"上海市浦东新区碧波路５７２弄"},{"poiid":"B2094655D26DA7FB4293","title":"张江微电子港(碧波路)","lon":"121.58356","lat":"31.19999","category":"45","category_name":"产业园区","address":"上海碧波路690号"},{"poiid":"B2094757D06FA5FE4493","title":"中兴通讯","lon":"121.58648397","lat":"31.197780301","category":"46","category_name":"楼宇","address":"上海张江高科"},{"poiid":"B2094757D06FA2FE4292","title":"盛大游戏","lon":"121.5835495","lat":"31.1986236572","category":"46","category_name":"楼宇","address":"上海碧波路690号一号楼"},{"poiid":"B2094757D165A2FF4592","title":"复旦附属张江疯人院","lon":"121.59092797","lat":"31.191988166","category":"500","category_name":"未知分类","address":"上海浦东新区蔡伦路"},{"poiid":"B2094757D06AA5FE469D","title":"鹏海小区","lon":"121.578","lat":"31.1833","category":"47","category_name":"住宅区","address":"上海五星路239弄"},{"poiid":"B2094757D06BA7F8409D","title":"星巴克 STARBUCKS (通用电气店)","lon":"121.583692","lat":"31.192177","category":"65","category_name":"咖啡厅","address":"浦东新区华佗路1号GE中国科技园2栋办公楼1楼A区(达尔文路)"},{"poiid":"B2094751DA68ABFB499B","title":"八佰伴","lon":"121.575568","lat":"31.183723","category":"500","category_name":"未知分类","address":"上海浦东张扬路浦东南路"},{"poiid":"B2094757D06BABF4439D","title":"上海外国语大学附属浦东外国语学校","lon":"121.584458575","lat":"31.1944999394","category":"500","category_name":"未知分类","address":"上海浦东新区张江达尔文路91号"},{"poiid":"B2094757D16FAAFC4898","title":"中界村","lon":"121.573780875","lat":"31.1889184947","category":"47","category_name":"住宅区","address":"上海浦东新区北蔡镇中界村"},{"poiid":"B2094753D76BABF54493","title":"金桥国际广场","lon":"121.590606","lat":"31.186851","category":"500","category_name":"未知分类","address":"上海市 张扬北路金桥路"},{"poiid":"B2094757D168A6F9409F","title":"罗山路高架","lon":"121.57910747","lat":"31.194238819","category":"500","category_name":"未知分类","address":"上海高架"},{"poiid":"B2094654DA6AA0FF4593","title":"聚龙家园","lon":"121.56866","lat":"31.196918","category":"47","category_name":"住宅区","address":"上海浦东新区芳华路916弄"},{"poiid":"B2094757D06AAAFE4398","title":"坤儒体育馆","lon":"121.56925987","lat":"31.187941651","category":"633","category_name":"商务服务类公司","address":"浦东新区镇中心路185号(近高科西路)"},{"poiid":"B2094757D06AA5FA439B","title":"龙阳路公交枢纽站","lon":"121.583716745","lat":"31.1853449312","category":"500","category_name":"未知分类","address":"上海市浦东新区龙阳路地铁站(永和大王对面)"},{"poiid":"B2094757D069A6FE4992","title":"半岛科技园","lon":"121.58539581","lat":"31.192474365","category":"500","category_name":"未知分类","address":"浦东临港新城主城区申港大道200号"},{"poiid":"B2094757D065A2F9499E","title":"上海第三十二机动车安全检测站","lon":"121.566987325","lat":"31.1808566563","category":"500","category_name":"未知分类","address":"上海新陈路678号(北蔡镇中心路口)"},{"poiid":"B2094757D16BA0FE4599","title":"石府","lon":"121.575003775","lat":"31.1852382087","category":"47","category_name":"住宅区","address":"上海浦东北蔡"},{"poiid":"B2094757D069ABFA409B","title":"Nc.stop","lon":"121.578343975","lat":"31.1829249546","category":"46","category_name":"楼宇","address":"上海市浦东新区新陈路1063号"},{"poiid":"B2094655D265AAFC4798","title":"光大金鹤信息科技园","lon":"121.58207","lat":"31.18571","category":"45","category_name":"产业园区","address":"上海市浦东新区张衡路198弄"},{"poiid":"B2094753D268A0FD429F","title":"上海歌城","lon":"121.586378","lat":"31.189057","category":"170","category_name":"KTV","address":"上海市 金桥国际商业广场"},{"poiid":"B2094753DA65A0FA449A","title":"南京路步行街","lon":"121.580551","lat":"31.192008","category":"500","category_name":"未知分类","address":"上海市 南京东路"},{"poiid":"B2094757D064AAFC489B","title":"北蔡家具广场","lon":"121.57519","lat":"31.19153","category":"123","category_name":"家具建材市场","address":"浦东新区高科西路4037号"},{"poiid":"B2094757D66CA0FD4498","title":"莲溪路五星路","lon":"121.57357097","lat":"31.183754974","category":"500","category_name":"未知分类","address":"上海市浦东新区北蔡·镇中心路"},{"poiid":"B2094752DB6DA4FB4893","title":"上海市浦东新区图书馆","lon":"121.571365","lat":"31.185898","category":"500","category_name":"未知分类","address":"上海市 浦东新区锦绣路"},{"poiid":"B2094757D064A5F5409B","title":"GE CTC","lon":"121.582303","lat":"31.189038","category":"500","category_name":"未知分类","address":"上海蔡伦路1800号"},{"poiid":"B2094752D16DA2F54492","title":"和记小菜","lon":"121.575576","lat":"31.183718","category":"247","category_name":"餐饮美食","address":"上海市东方路"},{"poiid":"B2094757D16AA4F8469C","title":"北艾路","lon":"121.573848975","lat":"31.1843779886","category":"500","category_name":"未知分类","address":"上海市浦东新区北蔡·镇"},{"poiid":"B2094757D16AA2FF4292","title":"地铁德平路车控室","lon":"121.571118975","lat":"31.1859690257","category":"46","category_name":"楼宇","address":"上海市浦东新区张扬路德平路"},{"poiid":"B2094753D56BA7FE449E","title":"人民广场","lon":"121.572006","lat":"31.187604","category":"500","category_name":"未知分类","address":"上海市 淮海中路路946号"},{"poiid":"B2094655D26BABF44098","title":"中国科学院上海应用物理研究所","lon":"121.58636","lat":"31.18671","category":"191","category_name":"科研机构","address":"张衡路239"},{"poiid":"B2094757D069A6FF4092","title":"51.com","lon":"121.58561866","lat":"31.1852750431","category":"46","category_name":"楼宇","address":"浦东新区张衡路180号第一上海中心3号楼"},{"poiid":"B2094757D169A2F54899","title":"GE通用电气食堂","lon":"121.58320517","lat":"31.192012992","category":"46","category_name":"楼宇","address":"上海浦东新区张江高科技园区华佗路1号"},{"poiid":"B2094757D064A5F8429E","title":"百度上海研发中心","lon":"121.58147589","lat":"31.1990874056","category":"46","category_name":"楼宇","address":"上海浦东新区张江高科微电子港4号楼"},{"poiid":"B2094655D36CA1F5429D","title":"科苑路华佗路","lon":"121.58997","lat":"31.19346","category":"38","category_name":"公交车站","address":""},{"poiid":"B2094757D568A7FB429B","title":"第一上海中心二期2号楼","lon":"121.584373","lat":"31.185575","category":"46","category_name":"楼宇","address":"中国上海市浦东新区张衡路"},{"poiid":"B2094757D16DA7FC409A","title":"通用电气中国科技园2号楼","lon":"121.58207952","lat":"31.192330001","category":"46","category_name":"楼宇","address":"上海华佗路1号"},{"poiid":"B2094654DA6AA0FF4392","title":"龙沟新苑","lon":"121.56876","lat":"31.197325","category":"47","category_name":"住宅区","address":"芳华路933弄1-86号"},{"poiid":"B2094655D26BA1FE419C","title":"牛角尖","lon":"121.57956","lat":"31.19345","category":"38","category_name":"公交车站","address":""},{"poiid":"B2094654DA6AA1F44692","title":"联华(华中路)","lon":"121.57023","lat":"31.18755","category":"118","category_name":"超级市场","address":""},{"poiid":"B2094750DA68A6F94193","title":"浦东国际人才城","lon":"121.590286","lat":"31.186252","category":"252","category_name":"楼宇机构","address":"科苑路张衡路"},{"poiid":"B2094654DA6AA0F4499E","title":"聚丰港海鲜酒楼","lon":"121.56662","lat":"31.18271","category":"88","category_name":"海鲜酒楼","address":"浦东新区北蔡北新路8号(近北中路)"},{"poiid":"B2094757D169A4F44698","title":"秋林阁(张江店)","lon":"121.587062836","lat":"31.1862540261","category":"75","category_name":"浙江菜","address":"浦东新区张衡路200号"},{"poiid":"B2094655D36DA7FF4993","title":"中界","lon":"121.5673","lat":"31.19024","category":"38","category_name":"公交车站","address":""},{"poiid":"B2094757D068A6FF479A","title":"通用电气(中国)研发中心","lon":"121.58859595","lat":"31.18784219","category":"46","category_name":"楼宇","address":"上海蔡伦路1800号"},{"poiid":"B2094655D36CA0F5459F","title":"华佗路达尔文路","lon":"121.58567","lat":"31.19255","category":"38","category_name":"公交车站","address":""},{"poiid":"B2094757D06FA7FC419B","title":"罗山路中环段","lon":"121.58017194","lat":"31.186608022","category":"500","category_name":"未知分类","address":"上海罗山路高科西路口"},{"poiid":"B2094757D06FA1FC449C","title":"通用电气中国科技园","lon":"121.58406304","lat":"31.192172644","category":"46","category_name":"楼宇","address":"上海浦东新区张江高科技园区华佗路1号(近达尔文路)"},{"poiid":"B2094654DB65A3FF499F","title":"博雅酒店","lon":"121.58403","lat":"31.19929","category":"268","category_name":"自助","address":"浦东新区碧波路699号(近张江地铁站)"},{"poiid":"B2094757D06FA1FD479D","title":"好乐迪量贩式KTV(张江店)","lon":"121.5827847","lat":"31.199233375","category":"170","category_name":"KTV","address":"上海张江碧波路635号传奇广场2楼"},{"poiid":"B2094757D16CA6F8439A","title":"张江传奇广场","lon":"121.58368597","lat":"31.199951352","category":"500","category_name":"未知分类","address":"上海市浦东新区碧波路５７２弄"},{"poiid":"B2094655D26DA7FB4293","title":"张江微电子港(碧波路)","lon":"121.58356","lat":"31.19999","category":"45","category_name":"产业园区","address":"上海碧波路690号"},{"poiid":"B2094757D06FA5FE4493","title":"中兴通讯","lon":"121.58648397","lat":"31.197780301","category":"46","category_name":"楼宇","address":"上海张江高科"},{"poiid":"B2094757D06FA2FE4292","title":"盛大游戏","lon":"121.5835495","lat":"31.1986236572","category":"46","category_name":"楼宇","address":"上海碧波路690号一号楼"},{"poiid":"B2094757D165A2FF4592","title":"复旦附属张江疯人院","lon":"121.59092797","lat":"31.191988166","category":"500","category_name":"未知分类","address":"上海浦东新区蔡伦路"},{"poiid":"B2094757D06AA5FE469D","title":"鹏海小区","lon":"121.578","lat":"31.1833","category":"47","category_name":"住宅区","address":"上海五星路239弄"},{"poiid":"B2094757D06BA7F8409D","title":"星巴克 STARBUCKS (通用电气店)","lon":"121.583692","lat":"31.192177","category":"65","category_name":"咖啡厅","address":"浦东新区华佗路1号GE中国科技园2栋办公楼1楼A区(达尔文路)"},{"poiid":"B2094751DA68ABFB499B","title":"八佰伴","lon":"121.575568","lat":"31.183723","category":"500","category_name":"未知分类","address":"上海浦东张扬路浦东南路"},{"poiid":"B2094757D06BABF4439D","title":"上海外国语大学附属浦东外国语学校","lon":"121.584458575","lat":"31.1944999394","category":"500","category_name":"未知分类","address":"上海浦东新区张江达尔文路91号"},{"poiid":"B2094757D16FAAFC4898","title":"中界村","lon":"121.573780875","lat":"31.1889184947","category":"47","category_name":"住宅区","address":"上海浦东新区北蔡镇中界村"},{"poiid":"B2094753D76BABF54493","title":"金桥国际广场","lon":"121.590606","lat":"31.186851","category":"500","category_name":"未知分类","address":"上海市 张扬北路金桥路"},{"poiid":"B2094757D168A6F9409F","title":"罗山路高架","lon":"121.57910747","lat":"31.194238819","category":"500","category_name":"未知分类","address":"上海高架"},{"poiid":"B2094654DA6AA0FF4593","title":"聚龙家园","lon":"121.56866","lat":"31.196918","category":"47","category_name":"住宅区","address":"上海浦东新区芳华路916弄"},{"poiid":"B2094757D06AAAFE4398","title":"坤儒体育馆","lon":"121.56925987","lat":"31.187941651","category":"633","category_name":"商务服务类公司","address":"浦东新区镇中心路185号(近高科西路)"},{"poiid":"B2094757D06AA5FA439B","title":"龙阳路公交枢纽站","lon":"121.583716745","lat":"31.1853449312","category":"500","category_name":"未知分类","address":"上海市浦东新区龙阳路地铁站(永和大王对面)"},{"poiid":"B2094757D069A6FE4992","title":"半岛科技园","lon":"121.58539581","lat":"31.192474365","category":"500","category_name":"未知分类","address":"浦东临港新城主城区申港大道200号"},{"poiid":"B2094757D065A2F9499E","title":"上海第三十二机动车安全检测站","lon":"121.566987325","lat":"31.1808566563","category":"500","category_name":"未知分类","address":"上海新陈路678号(北蔡镇中心路口)"},{"poiid":"B2094757D16BA0FE4599","title":"石府","lon":"121.575003775","lat":"31.1852382087","category":"47","category_name":"住宅区","address":"上海浦东北蔡"},{"poiid":"B2094757D069ABFA409B","title":"Nc.stop","lon":"121.578343975","lat":"31.1829249546","category":"46","category_name":"楼宇","address":"上海市浦东新区新陈路1063号"},{"poiid":"B2094655D265AAFC4798","title":"光大金鹤信息科技园","lon":"121.58207","lat":"31.18571","category":"45","category_name":"产业园区","address":"上海市浦东新区张衡路198弄"},{"poiid":"B2094753D268A0FD429F","title":"上海歌城","lon":"121.586378","lat":"31.189057","category":"170","category_name":"KTV","address":"上海市 金桥国际商业广场"},{"poiid":"B2094753DA65A0FA449A","title":"南京路步行街","lon":"121.580551","lat":"31.192008","category":"500","category_name":"未知分类","address":"上海市 南京东路"},{"poiid":"B2094757D064AAFC489B","title":"北蔡家具广场","lon":"121.57519","lat":"31.19153","category":"123","category_name":"家具建材市场","address":"浦东新区高科西路4037号"},{"poiid":"B2094757D66CA0FD4498","title":"莲溪路五星路","lon":"121.57357097","lat":"31.183754974","category":"500","category_name":"未知分类","address":"上海市浦东新区北蔡·镇中心路"},{"poiid":"B2094752DB6DA4FB4893","title":"上海市浦东新区图书馆","lon":"121.571365","lat":"31.185898","category":"500","category_name":"未知分类","address":"上海市 浦东新区锦绣路"},{"poiid":"B2094757D064A5F5409B","title":"GE CTC","lon":"121.582303","lat":"31.189038","category":"500","category_name":"未知分类","address":"上海蔡伦路1800号"},{"poiid":"B2094752D16DA2F54492","title":"和记小菜","lon":"121.575576","lat":"31.183718","category":"247","category_name":"餐饮美食","address":"上海市东方路"},{"poiid":"B2094757D16AA4F8469C","title":"北艾路","lon":"121.573848975","lat":"31.1843779886","category":"500","category_name":"未知分类","address":"上海市浦东新区北蔡·镇"},{"poiid":"B2094757D16AA2FF4292","title":"地铁德平路车控室","lon":"121.571118975","lat":"31.1859690257","category":"46","category_name":"楼宇","address":"上海市浦东新区张扬路德平路"},{"poiid":"B2094753D56BA7FE449E","title":"人民广场","lon":"121.572006","lat":"31.187604","category":"500","category_name":"未知分类","address":"上海市 淮海中路路946号"},{"poiid":"B2094655D26BABF44098","title":"中国科学院上海应用物理研究所","lon":"121.58636","lat":"31.18671","category":"191","category_name":"科研机构","address":"张衡路239"},{"poiid":"B2094757D069A6FF4092","title":"51.com","lon":"121.58561866","lat":"31.1852750431","category":"46","category_name":"楼宇","address":"浦东新区张衡路180号第一上海中心3号楼"},{"poiid":"B2094757D169A2F54899","title":"GE通用电气食堂","lon":"121.58320517","lat":"31.192012992","category":"46","category_name":"楼宇","address":"上海浦东新区张江高科技园区华佗路1号"},{"poiid":"B2094757D064A5F8429E","title":"百度上海研发中心","lon":"121.58147589","lat":"31.1990874056","category":"46","category_name":"楼宇","address":"上海浦东新区张江高科微电子港4号楼"},{"poiid":"B2094655D36CA1F5429D","title":"科苑路华佗路","lon":"121.58997","lat":"31.19346","category":"38","category_name":"公交车站","address":""},{"poiid":"B2094757D568A7FB429B","title":"第一上海中心二期2号楼","lon":"121.584373","lat":"31.185575","category":"46","category_name":"楼宇","address":"中国上海市浦东新区张衡路"},{"poiid":"B2094757D16DA7FC409A","title":"通用电气中国科技园2号楼","lon":"121.58207952","lat":"31.192330001","category":"46","category_name":"楼宇","address":"上海华佗路1号"},{"poiid":"B2094654DA6AA0FF4392","title":"龙沟新苑","lon":"121.56876","lat":"31.197325","category":"47","category_name":"住宅区","address":"芳华路933弄1-86号"},{"poiid":"B2094655D26BA1FE419C","title":"牛角尖","lon":"121.57956","lat":"31.19345","category":"38","category_name":"公交车站","address":""},{"poiid":"B2094654DA6AA1F44692","title":"联华(华中路)","lon":"121.57023","lat":"31.18755","category":"118","category_name":"超级市场","address":""},{"poiid":"B2094750DA68A6F94193","title":"浦东国际人才城","lon":"121.590286","lat":"31.186252","category":"252","category_name":"楼宇机构","address":"科苑路张衡路"},{"poiid":"B2094654DA6AA0F4499E","title":"聚丰港海鲜酒楼","lon":"121.56662","lat":"31.18271","category":"88","category_name":"海鲜酒楼","address":"浦东新区北蔡北新路8号(近北中路)"},{"poiid":"B2094757D169A4F44698","title":"秋林阁(张江店)","lon":"121.587062836","lat":"31.1862540261","category":"75","category_name":"浙江菜","address":"浦东新区张衡路200号"},{"poiid":"B2094655D36DA7FF4993","title":"中界","lon":"121.5673","lat":"31.19024","category":"38","category_name":"公交车站","address":""},{"poiid":"B2094757D068A6FF479A","title":"通用电气(中国)研发中心","lon":"121.58859595","lat":"31.18784219","category":"46","category_name":"楼宇","address":"上海蔡伦路1800号"},{"poiid":"B2094655D36CA0F5459F","title":"华佗路达尔文路","lon":"121.58567","lat":"31.19255","category":"38","category_name":"公交车站","address":""},{"poiid":"B2094757D06FA7FC419B","title":"罗山路中环段","lon":"121.58017194","lat":"31.186608022","category":"500","category_name":"未知分类","address":"上海罗山路高科西路口"},{"poiid":"B2094757D06FA1FC449C","title":"通用电气中国科技园","lon":"121.58406304","lat":"31.192172644","category":"46","category_name":"楼宇","address":"上海浦东新区张江高科技园区华佗路1号(近达尔文路)"},{"poiid":"B2094654DB65A3FF499F","title":"博雅酒店","lon":"121.58403","lat":"31.19929","category":"268","category_name":"自助","address":"浦东新区碧波路699号(近张江地铁站)"},{"poiid":"B2094757D06FA1FD479D","title":"好乐迪量贩式KTV(张江店)","lon":"121.5827847","lat":"31.199233375","category":"170","category_name":"KTV","address":"上海张江碧波路635号传奇广场2楼"},{"poiid":"B2094757D16CA6F8439A","title":"张江传奇广场","lon":"121.58368597","lat":"31.199951352","category":"500","category_name":"未知分类","address":"上海市浦东新区碧波路５７２弄"},{"poiid":"B2094655D26DA7FB4293","title":"张江微电子港(碧波路)","lon":"121.58356","lat":"31.19999","category":"45","category_name":"产业园区","address":"上海碧波路690号"},{"poiid":"B2094757D06FA5FE4493","title":"中兴通讯","lon":"121.58648397","lat":"31.197780301","category":"46","category_name":"楼宇","address":"上海张江高科"},{"poiid":"B2094757D06FA2FE4292","title":"盛大游戏","lon":"121.5835495","lat":"31.1986236572","category":"46","category_name":"楼宇","address":"上海碧波路690号一号楼"},{"poiid":"B2094757D165A2FF4592","title":"复旦附属张江疯人院","lon":"121.59092797","lat":"31.191988166","category":"500","category_name":"未知分类","address":"上海浦东新区蔡伦路"},{"poiid":"B2094757D06AA5FE469D","title":"鹏海小区","lon":"121.578","lat":"31.1833","category":"47","category_name":"住宅区","address":"上海五星路239弄"},{"poiid":"B2094757D06BA7F8409D","title":"星巴克 STARBUCKS (通用电气店)","lon":"121.583692","lat":"31.192177","category":"65","category_name":"咖啡厅","address":"浦东新区华佗路1号GE中国科技园2栋办公楼1楼A区(达尔文路)"},{"poiid":"B2094751DA68ABFB499B","title":"八佰伴","lon":"121.575568","lat":"31.183723","category":"500","category_name":"未知分类","address":"上海浦东张扬路浦东南路"},{"poiid":"B2094757D06BABF4439D","title":"上海外国语大学附属浦东外国语学校","lon":"121.584458575","lat":"31.1944999394","category":"500","category_name":"未知分类","address":"上海浦东新区张江达尔文路91号"},{"poiid":"B2094757D16FAAFC4898","title":"中界村","lon":"121.573780875","lat":"31.1889184947","category":"47","category_name":"住宅区","address":"上海浦东新区北蔡镇中界村"},{"poiid":"B2094753D76BABF54493","title":"金桥国际广场","lon":"121.590606","lat":"31.186851","category":"500","category_name":"未知分类","address":"上海市 张扬北路金桥路"},{"poiid":"B2094757D168A6F9409F","title":"罗山路高架","lon":"121.57910747","lat":"31.194238819","category":"500","category_name":"未知分类","address":"上海高架"},{"poiid":"B2094654DA6AA0FF4593","title":"聚龙家园","lon":"121.56866","lat":"31.196918","category":"47","category_name":"住宅区","address":"上海浦东新区芳华路916弄"},{"poiid":"B2094757D06AAAFE4398","title":"坤儒体育馆","lon":"121.56925987","lat":"31.187941651","category":"633","category_name":"商务服务类公司","address":"浦东新区镇中心路185号(近高科西路)"},{"poiid":"B2094757D06AA5FA439B","title":"龙阳路公交枢纽站","lon":"121.583716745","lat":"31.1853449312","category":"500","category_name":"未知分类","address":"上海市浦东新区龙阳路地铁站(永和大王对面)"},{"poiid":"B2094757D069A6FE4992","title":"半岛科技园","lon":"121.58539581","lat":"31.192474365","category":"500","category_name":"未知分类","address":"浦东临港新城主城区申港大道200号"},{"poiid":"B2094757D065A2F9499E","title":"上海第三十二机动车安全检测站","lon":"121.566987325","lat":"31.1808566563","category":"500","category_name":"未知分类","address":"上海新陈路678号(北蔡镇中心路口)"},{"poiid":"B2094757D16BA0FE4599","title":"石府","lon":"121.575003775","lat":"31.1852382087","category":"47","category_name":"住宅区","address":"上海浦东北蔡"},{"poiid":"B2094757D069ABFA409B","title":"Nc.stop","lon":"121.578343975","lat":"31.1829249546","category":"46","category_name":"楼宇","address":"上海市浦东新区新陈路1063号"},{"poiid":"B2094655D265AAFC4798","title":"光大金鹤信息科技园","lon":"121.58207","lat":"31.18571","category":"45","category_name":"产业园区","address":"上海市浦东新区张衡路198弄"},{"poiid":"B2094753D268A0FD429F","title":"上海歌城","lon":"121.586378","lat":"31.189057","category":"170","category_name":"KTV","address":"上海市 金桥国际商业广场"},{"poiid":"B2094753DA65A0FA449A","title":"南京路步行街","lon":"121.580551","lat":"31.192008","category":"500","category_name":"未知分类","address":"上海市 南京东路"},{"poiid":"B2094757D064AAFC489B","title":"北蔡家具广场","lon":"121.57519","lat":"31.19153","category":"123","category_name":"家具建材市场","address":"浦东新区高科西路4037号"},{"poiid":"B2094757D66CA0FD4498","title":"莲溪路五星路","lon":"121.57357097","lat":"31.183754974","category":"500","category_name":"未知分类","address":"上海市浦东新区北蔡·镇中心路"},{"poiid":"B2094752DB6DA4FB4893","title":"上海市浦东新区图书馆","lon":"121.571365","lat":"31.185898","category":"500","category_name":"未知分类","address":"上海市 浦东新区锦绣路"},{"poiid":"B2094757D064A5F5409B","title":"GE CTC","lon":"121.582303","lat":"31.189038","category":"500","category_name":"未知分类","address":"上海蔡伦路1800号"},{"poiid":"B2094752D16DA2F54492","title":"和记小菜","lon":"121.575576","lat":"31.183718","category":"247","category_name":"餐饮美食","address":"上海市东方路"},{"poiid":"B2094757D16AA4F8469C","title":"北艾路","lon":"121.573848975","lat":"31.1843779886","category":"500","category_name":"未知分类","address":"上海市浦东新区北蔡·镇"},{"poiid":"B2094757D16AA2FF4292","title":"地铁德平路车控室","lon":"121.571118975","lat":"31.1859690257","category":"46","category_name":"楼宇","address":"上海市浦东新区张扬路德平路"},{"poiid":"B2094753D56BA7FE449E","title":"人民广场","lon":"121.572006","lat":"31.187604","category":"500","category_name":"未知分类","address":"上海市 淮海中路路946号"},{"poiid":"B2094655D26BABF44098","title":"中国科学院上海应用物理研究所","lon":"121.58636","lat":"31.18671","category":"191","category_name":"科研机构","address":"张衡路239"},{"poiid":"B2094757D069A6FF4092","title":"51.com","lon":"121.58561866","lat":"31.1852750431","category":"46","category_name":"楼宇","address":"浦东新区张衡路180号第一上海中心3号楼"},{"poiid":"B2094757D169A2F54899","title":"GE通用电气食堂","lon":"121.58320517","lat":"31.192012992","category":"46","category_name":"楼宇","address":"上海浦东新区张江高科技园区华佗路1号"},{"poiid":"B2094757D064A5F8429E","title":"百度上海研发中心","lon":"121.58147589","lat":"31.1990874056","category":"46","category_name":"楼宇","address":"上海浦东新区张江高科微电子港4号楼"},{"poiid":"B2094655D36CA1F5429D","title":"科苑路华佗路","lon":"121.58997","lat":"31.19346","category":"38","category_name":"公交车站","address":""},{"poiid":"B2094757D568A7FB429B","title":"第一上海中心二期2号楼","lon":"121.584373","lat":"31.185575","category":"46","category_name":"楼宇","address":"中国上海市浦东新区张衡路"},{"poiid":"B2094757D16DA7FC409A","title":"通用电气中国科技园2号楼","lon":"121.58207952","lat":"31.192330001","category":"46","category_name":"楼宇","address":"上海华佗路1号"},{"poiid":"B2094654DA6AA0FF4392","title":"龙沟新苑","lon":"121.56876","lat":"31.197325","category":"47","category_name":"住宅区","address":"芳华路933弄1-86号"},{"poiid":"B2094655D26BA1FE419C","title":"牛角尖","lon":"121.57956","lat":"31.19345","category":"38","category_name":"公交车站","address":""},{"poiid":"B2094654DA6AA1F44692","title":"联华(华中路)","lon":"121.57023","lat":"31.18755","category":"118","category_name":"超级市场","address":""},{"poiid":"B2094750DA68A6F94193","title":"浦东国际人才城","lon":"121.590286","lat":"31.186252","category":"252","category_name":"楼宇机构","address":"科苑路张衡路"},{"poiid":"B2094654DA6AA0F4499E","title":"聚丰港海鲜酒楼","lon":"121.56662","lat":"31.18271","category":"88","category_name":"海鲜酒楼","address":"浦东新区北蔡北新路8号(近北中路)"},{"poiid":"B2094757D169A4F44698","title":"秋林阁(张江店)","lon":"121.587062836","lat":"31.1862540261","category":"75","category_name":"浙江菜","address":"浦东新区张衡路200号"},{"poiid":"B2094655D36DA7FF4993","title":"中界","lon":"121.5673","lat":"31.19024","category":"38","category_name":"公交车站","address":""},{"poiid":"B2094757D068A6FF479A","title":"通用电气(中国)研发中心","lon":"121.58859595","lat":"31.18784219","category":"46","category_name":"楼宇","address":"上海蔡伦路1800号"},{"poiid":"B2094655D36CA0F5459F","title":"华佗路达尔文路","lon":"121.58567","lat":"31.19255","category":"38","category_name":"公交车站","address":""},{"poiid":"B2094757D06FA7FC419B","title":"罗山路中环段","lon":"121.58017194","lat":"31.186608022","category":"500","category_name":"未知分类","address":"上海罗山路高科西路口"},{"poiid":"B2094757D06FA1FC449C","title":"通用电气中国科技园","lon":"121.58406304","lat":"31.192172644","category":"46","category_name":"楼宇","address":"上海浦东新区张江高科技园区华佗路1号(近达尔文路)"},{"poiid":"B2094654DB65A3FF499F","title":"博雅酒店","lon":"121.58403","lat":"31.19929","category":"268","category_name":"自助","address":"浦东新区碧波路699号(近张江地铁站)"},{"poiid":"B2094757D06FA1FD479D","title":"好乐迪量贩式KTV(张江店)","lon":"121.5827847","lat":"31.199233375","category":"170","category_name":"KTV","address":"上海张江碧波路635号传奇广场2楼"},{"poiid":"B2094757D16CA6F8439A","title":"张江传奇广场","lon":"121.58368597","lat":"31.199951352","category":"500","category_name":"未知分类","address":"上海市浦东新区碧波路５７２弄"},{"poiid":"B2094655D26DA7FB4293","title":"张江微电子港(碧波路)","lon":"121.58356","lat":"31.19999","category":"45","category_name":"产业园区","address":"上海碧波路690号"},{"poiid":"B2094757D06FA5FE4493","title":"中兴通讯","lon":"121.58648397","lat":"31.197780301","category":"46","category_name":"楼宇","address":"上海张江高科"},{"poiid":"B2094757D06FA2FE4292","title":"盛大游戏","lon":"121.5835495","lat":"31.1986236572","category":"46","category_name":"楼宇","address":"上海碧波路690号一号楼"},{"poiid":"B2094757D165A2FF4592","title":"复旦附属张江疯人院","lon":"121.59092797","lat":"31.191988166","category":"500","category_name":"未知分类","address":"上海浦东新区蔡伦路"},{"poiid":"B2094757D06AA5FE469D","title":"鹏海小区","lon":"121.578","lat":"31.1833","category":"47","category_name":"住宅区","address":"上海五星路239弄"},{"poiid":"B2094757D06BA7F8409D","title":"星巴克 STARBUCKS (通用电气店)","lon":"121.583692","lat":"31.192177","category":"65","category_name":"咖啡厅","address":"浦东新区华佗路1号GE中国科技园2栋办公楼1楼A区(达尔文路)"},{"poiid":"B2094751DA68ABFB499B","title":"八佰伴","lon":"121.575568","lat":"31.183723","category":"500","category_name":"未知分类","address":"上海浦东张扬路浦东南路"},{"poiid":"B2094757D06BABF4439D","title":"上海外国语大学附属浦东外国语学校","lon":"121.584458575","lat":"31.1944999394","category":"500","category_name":"未知分类","address":"上海浦东新区张江达尔文路91号"},{"poiid":"B2094757D16FAAFC4898","title":"中界村","lon":"121.573780875","lat":"31.1889184947","category":"47","category_name":"住宅区","address":"上海浦东新区北蔡镇中界村"},{"poiid":"B2094753D76BABF54493","title":"金桥国际广场","lon":"121.590606","lat":"31.186851","category":"500","category_name":"未知分类","address":"上海市 张扬北路金桥路"},{"poiid":"B2094757D168A6F9409F","title":"罗山路高架","lon":"121.57910747","lat":"31.194238819","category":"500","category_name":"未知分类","address":"上海高架"},{"poiid":"B2094654DA6AA0FF4593","title":"聚龙家园","lon":"121.56866","lat":"31.196918","category":"47","category_name":"住宅区","address":"上海浦东新区芳华路916弄"},{"poiid":"B2094757D06AAAFE4398","title":"坤儒体育馆","lon":"121.56925987","lat":"31.187941651","category":"633","category_name":"商务服务类公司","address":"浦东新区镇中心路185号(近高科西路)"},{"poiid":"B2094757D06AA5FA439B","title":"龙阳路公交枢纽站","lon":"121.583716745","lat":"31.1853449312","category":"500","category_name":"未知分类","address":"上海市浦东新区龙阳路地铁站(永和大王对面)"},{"poiid":"B2094757D069A6FE4992","title":"半岛科技园","lon":"121.58539581","lat":"31.192474365","category":"500","category_name":"未知分类","address":"浦东临港新城主城区申港大道200号"},{"poiid":"B2094757D065A2F9499E","title":"上海第三十二机动车安全检测站","lon":"121.566987325","lat":"31.1808566563","category":"500","category_name":"未知分类","address":"上海新陈路678号(北蔡镇中心路口)"},{"poiid":"B2094757D16BA0FE4599","title":"石府","lon":"121.575003775","lat":"31.1852382087","category":"47","category_name":"住宅区","address":"上海浦东北蔡"},{"poiid":"B2094757D069ABFA409B","title":"Nc.stop","lon":"121.578343975","lat":"31.1829249546","category":"46","category_name":"楼宇","address":"上海市浦东新区新陈路1063号"},{"poiid":"B2094655D265AAFC4798","title":"光大金鹤信息科技园","lon":"121.58207","lat":"31.18571","category":"45","category_name":"产业园区","address":"上海市浦东新区张衡路198弄"},{"poiid":"B2094753D268A0FD429F","title":"上海歌城","lon":"121.586378","lat":"31.189057","category":"170","category_name":"KTV","address":"上海市 金桥国际商业广场"},{"poiid":"B2094753DA65A0FA449A","title":"南京路步行街","lon":"121.580551","lat":"31.192008","category":"500","category_name":"未知分类","address":"上海市 南京东路"},{"poiid":"B2094757D064AAFC489B","title":"北蔡家具广场","lon":"121.57519","lat":"31.19153","category":"123","category_name":"家具建材市场","address":"浦东新区高科西路4037号"},{"poiid":"B2094757D66CA0FD4498","title":"莲溪路五星路","lon":"121.57357097","lat":"31.183754974","category":"500","category_name":"未知分类","address":"上海市浦东新区北蔡·镇中心路"},{"poiid":"B2094752DB6DA4FB4893","title":"上海市浦东新区图书馆","lon":"121.571365","lat":"31.185898","category":"500","category_name":"未知分类","address":"上海市 浦东新区锦绣路"},{"poiid":"B2094757D064A5F5409B","title":"GE CTC","lon":"121.582303","lat":"31.189038","category":"500","category_name":"未知分类","address":"上海蔡伦路1800号"},{"poiid":"B2094752D16DA2F54492","title":"和记小菜","lon":"121.575576","lat":"31.183718","category":"247","category_name":"餐饮美食","address":"上海市东方路"},{"poiid":"B2094757D16AA4F8469C","title":"北艾路","lon":"121.573848975","lat":"31.1843779886","category":"500","category_name":"未知分类","address":"上海市浦东新区北蔡·镇"},{"poiid":"B2094757D16AA2FF4292","title":"地铁德平路车控室","lon":"121.571118975","lat":"31.1859690257","category":"46","category_name":"楼宇","address":"上海市浦东新区张扬路德平路"},{"poiid":"B2094753D56BA7FE449E","title":"人民广场","lon":"121.572006","lat":"31.187604","category":"500","category_name":"未知分类","address":"上海市 淮海中路路946号"},{"poiid":"B2094655D26BABF44098","title":"中国科学院上海应用物理研究所","lon":"121.58636","lat":"31.18671","category":"191","category_name":"科研机构","address":"张衡路239"},{"poiid":"B2094757D069A6FF4092","title":"51.com","lon":"121.58561866","lat":"31.1852750431","category":"46","category_name":"楼宇","address":"浦东新区张衡路180号第一上海中心3号楼"},{"poiid":"B2094757D169A2F54899","title":"GE通用电气食堂","lon":"121.58320517","lat":"31.192012992","category":"46","category_name":"楼宇","address":"上海浦东新区张江高科技园区华佗路1号"},{"poiid":"B2094757D064A5F8429E","title":"百度上海研发中心","lon":"121.58147589","lat":"31.1990874056","category":"46","category_name":"楼宇","address":"上海浦东新区张江高科微电子港4号楼"},{"poiid":"B2094655D36CA1F5429D","title":"科苑路华佗路","lon":"121.58997","lat":"31.19346","category":"38","category_name":"公交车站","address":""},{"poiid":"B2094757D568A7FB429B","title":"第一上海中心二期2号楼","lon":"121.584373","lat":"31.185575","category":"46","category_name":"楼宇","address":"中国上海市浦东新区张衡路"},{"poiid":"B2094757D16DA7FC409A","title":"通用电气中国科技园2号楼","lon":"121.58207952","lat":"31.192330001","category":"46","category_name":"楼宇","address":"上海华佗路1号"},{"poiid":"B2094654DA6AA0FF4392","title":"龙沟新苑","lon":"121.56876","lat":"31.197325","category":"47","category_name":"住宅区","address":"芳华路933弄1-86号"},{"poiid":"B2094655D26BA1FE419C","title":"牛角尖","lon":"121.57956","lat":"31.19345","category":"38","category_name":"公交车站","address":""},{"poiid":"B2094654DA6AA1F44692","title":"联华(华中路)","lon":"121.57023","lat":"31.18755","category":"118","category_name":"超级市场","address":""},{"poiid":"B2094750DA68A6F94193","title":"浦东国际人才城","lon":"121.590286","lat":"31.186252","category":"252","category_name":"楼宇机构","address":"科苑路张衡路"},{"poiid":"B2094654DA6AA0F4499E","title":"聚丰港海鲜酒楼","lon":"121.56662","lat":"31.18271","category":"88","category_name":"海鲜酒楼","address":"浦东新区北蔡北新路8号(近北中路)"},{"poiid":"B2094757D169A4F44698","title":"秋林阁(张江店)","lon":"121.587062836","lat":"31.1862540261","category":"75","category_name":"浙江菜","address":"浦东新区张衡路200号"},{"poiid":"B2094655D36DA7FF4993","title":"中界","lon":"121.5673","lat":"31.19024","category":"38","category_name":"公交车站","address":""},{"poiid":"B2094757D068A6FF479A","title":"通用电气(中国)研发中心","lon":"121.58859595","lat":"31.18784219","category":"46","category_name":"楼宇","address":"上海蔡伦路1800号"},{"poiid":"B2094655D36CA0F5459F","title":"华佗路达尔文路","lon":"121.58567","lat":"31.19255","category":"38","category_name":"公交车站","address":""}]