[{"poiid":"B2094757D06FA4F5479F","title":"青青旅游世界","lon":"121.25654","lat":"31.06854","category":"250","category_name":"公园户外","address":"松江区洞泾镇辰花公路388号(近茸惠路)"},{"poiid":"B2094655D36CA6FA4398","title":"洞泾","lon":"121.26472","lat":"31.08232","category":"38","category_name":"公交车站","address":""},{"poiid":"B2094654DB6EA6F4489E","title":"上海青青大酒店","lon":"121.25531","lat":"31.06998","category":"250","category_name":"公园户外","address":"上海松江区上海松江辰花公路388号"},{"poiid":"B2094757D068A7FC439C","title":"巨人网络松江园区","lon":"121.26726483","lat":"31.056020429","category":"500","category_name":"未知分类","address":"上海市松江区中凯路988号"},{"poiid":"B2094750D26FA5F5439B","title":"松江大学城","lon":"121.26197","lat":"31.075157","category":"248","category_name":"生活娱乐","address":"松江大学城"},{"poiid":"B2094654DB6EA5FE4893","title":"保隆股份","lon":"121.2651","lat":"31.0713","category":"263","category_name":"公司","address":""},{"poiid":"B2094757D064A3F54693","title":"创异工房","lon":"121.25870929","lat":"31.091482867","category":"247","category_name":"餐饮美食","address":"洞泾镇沈砖公路6000号近洞伟路"},{"poiid":"B2094757D065A5F9429E","title":"洞泾镇人民政府","lon":"121.269157","lat":"31.081943","category":"500","category_name":"未知分类","address":"上海松江区长兴路528号"},{"poiid":"B2094654DB6EA6F44592","title":"芳香饮食店","lon":"121.26746","lat":"31.08078","category":"68","category_name":"快餐厅","address":"松江区洞泾镇洞盛路111号"},{"poiid":"B2094654DB6EA6F44493","title":"松江区洞泾学校","lon":"121.26679","lat":"31.08067","category":"55","category_name":"中学","address":"松江区洞泾镇育才路139号"},{"poiid":"B2094654DA64ABF94593","title":"千里马酒楼","lon":"121.2753","lat":"31.08168","category":"76","category_name":"上海菜","address":"松江区洞泾镇长兴路237号"},{"poiid":"B2094655D26FA6F4489F","title":"青青骑术俱乐部","lon":"121.25549","lat":"31.0706","category":"236","category_name":"马术俱乐部","address":"辰花公路388号"},{"poiid":"B2094757D064A3F84598","title":"松江区","lon":"121.26748835","lat":"31.091539364","category":"250","category_name":"公园户外","address":"上海松江区区域"},{"poiid":"B2094654DB6EA6F4449C","title":"松江区洞泾镇同诚中学","lon":"121.26664","lat":"31.08038","category":"55","category_name":"中学","address":"育才路167"},{"poiid":"B2094654DA64A0FD4793","title":"泾东新村","lon":"121.27208","lat":"31.081936","category":"47","category_name":"住宅区","address":"长兴路248弄"},{"poiid":"B2094654DB6EA6F44698","title":"快客(同盛路)","lon":"121.26744","lat":"31.0811","category":"117","category_name":"便民商店/便利店","address":""},{"poiid":"B2094654DB6EA5FF409F","title":"上海海欣毛纺有限公司海茂公寓","lon":"121.26999","lat":"31.08036","category":"47","category_name":"住宅区","address":""},{"poiid":"B2094654DA64A0FD4899","title":"洞泾小商品市场","lon":"121.26789","lat":"31.08168","category":"120","category_name":"小商品市场","address":""},{"poiid":"B2094654DA64A7FE479E","title":"松江区洞泾镇卫生服务中心","lon":"121.26199","lat":"31.08129","category":"162","category_name":"医院","address":"洞泾镇"},{"poiid":"B2094654DA64A0FD459C","title":"海欣城新世纪家园","lon":"121.27844","lat":"31.08229","category":"47","category_name":"住宅区","address":"洞泾镇长兴路98弄4号"},{"poiid":"B2094655D26BA1FA469A","title":"卖花桥","lon":"121.26138","lat":"31.0628","category":"38","category_name":"公交车站","address":""},{"poiid":"B2094757D66FA7FF4398","title":"洞舟路","lon":"121.26183583","lat":"31.081436976","category":"500","category_name":"未知分类","address":"上海松江区洞业路"},{"poiid":"B2094753DA65A5FF4398","title":"医院","lon":"121.246994","lat":"31.067199","category":"162","category_name":"医院","address":"上海市 松江第一人民医院"},{"poiid":"B2094654DA64A0FB4793","title":"同顺酒家","lon":"121.269","lat":"31.08161","category":"76","category_name":"上海菜","address":"松江区洞泾镇同莘路216号"},{"poiid":"B2094757D16FAAF9439E","title":"海欣世纪家园","lon":"121.273467581","lat":"31.0783702606","category":"500","category_name":"未知分类","address":"上海洞泾长兴路98弄"},{"poiid":"B2094757D16AA6F44099","title":"青青马术俱乐部","lon":"121.25145585","lat":"31.075413879","category":"220","category_name":"运动场所","address":"松江区辰花公路388号青青旅游世界内"},{"poiid":"B2094757D568A0FA4793","title":"海欣公寓","lon":"121.27462","lat":"31.0820825","category":"47","category_name":"住宅区","address":"海欣公寓(现房)位于松江洞泾镇长兴路98弄"},{"poiid":"B2094654DA64A7FE4798","title":"广丰诚信学校","lon":"121.26152","lat":"31.08287","category":"55","category_name":"中学","address":"洞西路"},{"poiid":"B2094654DA64A0FB4693","title":"海利苑","lon":"121.2686","lat":"31.083408","category":"47","category_name":"住宅区","address":"洞莘路319弄"},{"poiid":"B2094750D76CA3FE409C","title":"上海阿婆私房菜(同乐路店)","lon":"121.266","lat":"31.0869","category":"76","category_name":"上海菜","address":"松江区同乐路332号(近农贸市场)"},{"poiid":"B2094654DA64A0F44098","title":"同乐小区","lon":"121.2702","lat":"31.08506","category":"47","category_name":"住宅区","address":"同乐路354号"},{"poiid":"B2094654DB6EA6F44199","title":"松江工业搪瓷厂","lon":"121.26026","lat":"31.06531","category":"263","category_name":"公司","address":""},{"poiid":"B2094757D568A1FF4493","title":"泾东小区二村","lon":"121.27484565","lat":"31.08261339","category":"47","category_name":"住宅区","address":"中国上海市松江区"},{"poiid":"B2094655D265A6F8489B","title":"美克美家上海折扣店","lon":"121.25576","lat":"31.07986","category":"123","category_name":"家具建材市场","address":"洞业路899号"},{"poiid":"B2094654DA64A0FD469A","title":"洞泾海欣幼儿园","lon":"121.27482","lat":"31.08131","category":"57","category_name":"幼儿园","address":"洞泾镇长兴路98弄海欣城内"},{"poiid":"B2094752D56AA7FF439A","title":"上海欢乐谷","lon":"121.275927","lat":"31.083277","category":"500","category_name":"未知分类","address":null},{"poiid":"B2094757D06FAAFF4199","title":"莱顿小城","lon":"121.25373077","lat":"31.065887451","category":"252","category_name":"楼宇机构","address":"上海松江区辰花公路839弄"},{"poiid":"B2094750DB68A0FE499B","title":"洞星小区","lon":"121.277076","lat":"31.065715","category":"47","category_name":"住宅区","address":"洞宁路780弄"},{"poiid":"B2094654DA64ABFA4493","title":"同乐西区","lon":"121.26976","lat":"31.08502","category":"47","category_name":"住宅区","address":""},{"poiid":"B2094757D16BA0F4479F","title":"沪松公路","lon":"121.274825","lat":"31.081308","category":"500","category_name":"未知分类","address":"上海洞泾"},{"poiid":"B2094654DB64A2FD4793","title":"洞泾集贸市场(洞泾·同乐路)","lon":"121.27022","lat":"31.08408","category":"123","category_name":"家具建材市场","address":""},{"poiid":"B2094654DA64A7FE4292","title":"美克·美家折扣店","lon":"121.25903","lat":"31.08383","category":"140","category_name":"体育用品店","address":""},{"poiid":"B2094655D36CA5F84692","title":"长兴路张泾路","lon":"121.27872","lat":"31.08211","category":"38","category_name":"公交车站","address":""},{"poiid":"B2094757D16DAAFC499C","title":"辰花公路","lon":"121.251532846","lat":"31.0672592557","category":"500","category_name":"未知分类","address":"上海辰花公路"},{"poiid":"B2094757DB6FA0FA479F","title":"名企公馆","lon":"121.2797047717202","lat":"31.07195847297998","category":"263","category_name":"公司","address":"松江区泗砖南路255弄"},{"poiid":"B2094654DB69A7FF479A","title":"同欢小区","lon":"121.28326","lat":"31.081703","category":"47","category_name":"住宅区","address":"松江区长兴中路"},{"poiid":"B2094752D66DA1FC459D","title":"上海虹桥机场二号航站楼","lon":"121.252692","lat":"31.060937","category":"500","category_name":"未知分类","address":null},{"poiid":"B2094654DA64A0FD4592","title":"良友便利(海欣城新世纪家园北)","lon":"121.27838","lat":"31.08242","category":"117","category_name":"便民商店/便利店","address":""},{"poiid":"B2094654DA64A7FE449C","title":"兰芬理发店","lon":"121.26443","lat":"31.0868","category":"148","category_name":"美容美发店","address":""},{"poiid":"B2094654DA64A0FE409B","title":"玉兰苑","lon":"121.27296","lat":"31.0858","category":"47","category_name":"住宅区","address":""},{"poiid":"B2094757D06FA4F5479F","title":"青青旅游世界","lon":"121.25654","lat":"31.06854","category":"250","category_name":"公园户外","address":"松江区洞泾镇辰花公路388号(近茸惠路)"},{"poiid":"B2094655D36CA6FA4398","title":"洞泾","lon":"121.26472","lat":"31.08232","category":"38","category_name":"公交车站","address":""},{"poiid":"B2094654DB6EA6F4489E","title":"上海青青大酒店","lon":"121.25531","lat":"31.06998","category":"250","category_name":"公园户外","address":"上海松江区上海松江辰花公路388号"},{"poiid":"B2094757D068A7FC439C","title":"巨人网络松江园区","lon":"121.26726483","lat":"31.056020429","category":"500","category_name":"未知分类","address":"上海市松江区中凯路988号"},{"poiid":"B2094750D26FA5F5439B","title":"松江大学城","lon":"121.26197","lat":"31.075157","category":"248","category_name":"生活娱乐","address":"松江大学城"},{"poiid":"B2094654DB6EA5FE4893","title":"保隆股份","lon":"121.2651","lat":"31.0713","category":"263","category_name":"公司","address":""},{"poiid":"B2094757D064A3F54693","title":"创异工房","lon":"121.25870929","lat":"31.091482867","category":"247","category_name":"餐饮美食","address":"洞泾镇沈砖公路6000号近洞伟路"},{"poiid":"B2094757D065A5F9429E","title":"洞泾镇人民政府","lon":"121.269157","lat":"31.081943","category":"500","category_name":"未知分类","address":"上海松江区长兴路528号"},{"poiid":"B2094654DB6EA6F44592","title":"芳香饮食店","lon":"121.26746","lat":"31.08078","category":"68","category_name":"快餐厅","address":"松江区洞泾镇洞盛路111号"},{"poiid":"B2094654DB6EA6F44493","title":"松江区洞泾学校","lon":"121.26679","lat":"31.08067","category":"55","category_name":"中学","address":"松江区洞泾镇育才路139号"},{"poiid":"B2094654DA64ABF94593","title":"千里马酒楼","lon":"121.2753","lat":"31.08168","category":"76","category_name":"上海菜","address":"松江区洞泾镇长兴路237号"},{"poiid":"B2094655D26FA6F4489F","title":"青青骑术俱乐部","lon":"121.25549","lat":"31.0706","category":"236","category_name":"马术俱乐部","address":"辰花公路388号"},{"poiid":"B2094757D064A3F84598","title":"松江区","lon":"121.26748835","lat":"31.091539364","category":"250","category_name":"公园户外","address":"上海松江区区域"},{"poiid":"B2094654DB6EA6F4449C","title":"松江区洞泾镇同诚中学","lon":"121.26664","lat":"31.08038","category":"55","category_name":"中学","address":"育才路167"},{"poiid":"B2094654DA64A0FD4793","title":"泾东新村","lon":"121.27208","lat":"31.081936","category":"47","category_name":"住宅区","address":"长兴路248弄"},{"poiid":"B2094654DB6EA6F44698","title":"快客(同盛路)","lon":"121.26744","lat":"31.0811","category":"117","category_name":"便民商店/便利店","address":""},{"poiid":"B2094654DB6EA5FF409F","title":"上海海欣毛纺有限公司海茂公寓","lon":"121.26999","lat":"31.08036","category":"47","category_name":"住宅区","address":""},{"poiid":"B2094654DA64A0FD4899","title":"洞泾小商品市场","lon":"121.26789","lat":"31.08168","category":"120","category_name":"小商品市场","address":""},{"poiid":"B2094654DA64A7FE479E","title":"松江区洞泾镇卫生服务中心","lon":"121.26199","lat":"31.08129","category":"162","category_name":"医院","address":"洞泾镇"},{"poiid":"B2094654DA64A0FD459C","title":"海欣城新世纪家园","lon":"121.27844","lat":"31.08229","category":"47","category_name":"住宅区","address":"洞泾镇长兴路98弄4号"},{"poiid":"B2094655D26BA1FA469A","title":"卖花桥","lon":"121.26138","lat":"31.0628","category":"38","category_name":"公交车站","address":""},{"poiid":"B2094757D66FA7FF4398","title":"洞舟路","lon":"121.26183583","lat":"31.081436976","category":"500","category_name":"未知分类","address":"上海松江区洞业路"},{"poiid":"B2094753DA65A5FF4398","title":"医院","lon":"121.246994","lat":"31.067199","category":"162","category_name":"医院","address":"上海市 松江第一人民医院"},{"poiid":"B2094654DA64A0FB4793","title":"同顺酒家","lon":"121.269","lat":"31.08161","category":"76","category_name":"上海菜","address":"松江区洞泾镇同莘路216号"},{"poiid":"B2094757D16FAAF9439E","title":"海欣世纪家园","lon":"121.273467581","lat":"31.0783702606","category":"500","category_name":"未知分类","address":"上海洞泾长兴路98弄"},{"poiid":"B2094757D16AA6F44099","title":"青青马术俱乐部","lon":"121.25145585","lat":"31.075413879","category":"220","category_name":"运动场所","address":"松江区辰花公路388号青青旅游世界内"},{"poiid":"B2094757D568A0FA4793","title":"海欣公寓","lon":"121.27462","lat":"31.0820825","category":"47","category_name":"住宅区","address":"海欣公寓(现房)位于松江洞泾镇长兴路98弄"},{"poiid":"B2094654DA64A7FE4798","title":"广丰诚信学校","lon":"121.26152","lat":"31.08287","category":"55","category_name":"中学","address":"洞西路"},{"poiid":"B2094654DA64A0FB4693","title":"海利苑","lon":"121.2686","lat":"31.083408","category":"47","category_name":"住宅区","address":"洞莘路319弄"},{"poiid":"B2094750D76CA3FE409C","title":"上海阿婆私房菜(同乐路店)","lon":"121.266","lat":"31.0869","category":"76","category_name":"上海菜","address":"松江区同乐路332号(近农贸市场)"},{"poiid":"B2094654DA64A0F44098","title":"同乐小区","lon":"121.2702","lat":"31.08506","category":"47","category_name":"住宅区","address":"同乐路354号"},{"poiid":"B2094654DB6EA6F44199","title":"松江工业搪瓷厂","lon":"121.26026","lat":"31.06531","category":"263","category_name":"公司","address":""},{"poiid":"B2094757D568A1FF4493","title":"泾东小区二村","lon":"121.27484565","lat":"31.08261339","category":"47","category_name":"住宅区","address":"中国上海市松江区"},{"poiid":"B2094655D265A6F8489B","title":"美克美家上海折扣店","lon":"121.25576","lat":"31.07986","category":"123","category_name":"家具建材市场","address":"洞业路899号"},{"poiid":"B2094654DA64A0FD469A","title":"洞泾海欣幼儿园","lon":"121.27482","lat":"31.08131","category":"57","category_name":"幼儿园","address":"洞泾镇长兴路98弄海欣城内"},{"poiid":"B2094752D56AA7FF439A","title":"上海欢乐谷","lon":"121.275927","lat":"31.083277","category":"500","category_name":"未知分类","address":null},{"poiid":"B2094757D06FAAFF4199","title":"莱顿小城","lon":"121.25373077","lat":"31.065887451","category":"252","category_name":"楼宇机构","address":"上海松江区辰花公路839弄"},{"poiid":"B2094750DB68A0FE499B","title":"洞星小区","lon":"121.277076","lat":"31.065715","category":"47","category_name":"住宅区","address":"洞宁路780弄"},{"poiid":"B2094654DA64ABFA4493","title":"同乐西区","lon":"121.26976","lat":"31.08502","category":"47","category_name":"住宅区","address":""},{"poiid":"B2094757D16BA0F4479F","title":"沪松公路","lon":"121.274825","lat":"31.081308","category":"500","category_name":"未知分类","address":"上海洞泾"},{"poiid":"B2094654DB64A2FD4793","title":"洞泾集贸市场(洞泾·同乐路)","lon":"121.27022","lat":"31.08408","category":"123","category_name":"家具建材市场","address":""},{"poiid":"B2094654DA64A7FE4292","title":"美克·美家折扣店","lon":"121.25903","lat":"31.08383","category":"140","category_name":"体育用品店","address":""},{"poiid":"B2094655D36CA5F84692","title":"长兴路张泾路","lon":"121.27872","lat":"31.08211","category":"38","category_name":"公交车站","address":""},{"poiid":"B2094757D16DAAFC499C","title":"辰花公路","lon":"121.251532846","lat":"31.0672592557","category":"500","category_name":"未知分类","address":"上海辰花公路"},{"poiid":"B2094757DB6FA0FA479F","title":"名企公馆","lon":"121.2797047717202","lat":"31.07195847297998","category":"263","category_name":"公司","address":"松江区泗砖南路255弄"},{"poiid":"B2094654DB69A7FF479A","title":"同欢小区","lon":"121.28326","lat":"31.081703","category":"47","category_name":"住宅区","address":"松江区长兴中路"},{"poiid":"B2094752D66DA1FC459D","title":"上海虹桥机场二号航站楼","lon":"121.252692","lat":"31.060937","category":"500","category_name":"未知分类","address":null},{"poiid":"B2094654DA64A0FD4592","title":"良友便利(海欣城新世纪家园北)","lon":"121.27838","lat":"31.08242","category":"117","category_name":"便民商店/便利店","address":""},{"poiid":"B2094654DA64A7FE449C","title":"兰芬理发店","lon":"121.26443","lat":"31.0868","category":"148","category_name":"美容美发店","address":""},{"poiid":"B2094654DA64A0FE409B","title":"玉兰苑","lon":"121.27296","lat":"31.0858","category":"47","category_name":"住宅区","address":""}]