[{"poiid":"B2094757D064ABFB4392","title":"梅赛德斯奔驰文化中心音乐俱乐部","lon":"121.495735738","lat":"31.1882344057","category":"500","category_name":"未知分类","address":"上海世博大道1200号西门一层"},{"poiid":"B2094654DA6AA3FE479D","title":"上海浦东游泳馆","lon":"121.50572","lat":"31.18856","category":"231","category_name":"游泳馆","address":"浦东新区浦东南路3669号"},{"poiid":"B2094750D66CA7F9449E","title":"月亮船","lon":"121.496009","lat":"31.188825","category":"500","category_name":"未知分类","address":null},{"poiid":"B2094757D06FA7FA4093","title":"浦东游泳馆新羽毛球馆","lon":"121.505721806","lat":"31.1885572023","category":"220","category_name":"运动场所","address":"浦东新区浦东南路3669号浦东游泳馆南门内(近沂林路)"},{"poiid":"B2094757DA6EA4F8459F","title":"世博场馆沙特阿拉伯馆","lon":"121.4958","lat":"31.188443","category":"252","category_name":"楼宇机构","address":"浦东新区博成路1221号(近高科西路口)"},{"poiid":"B2094757D06EAAF44099","title":"云台路地铁站","lon":"121.50042159","lat":"31.182326472","category":"36","category_name":"地铁站","address":"上海轨道交通 七号线 轨交云台路站 7"},{"poiid":"B2094757D06FA7F44493","title":"浦东新区社会保险事业管理中心","lon":"121.50377231","lat":"31.185200481","category":"260","category_name":"其他","address":"上海浦东南路浦东南路3993号"},{"poiid":"B2094757D06BA0F94599","title":"7号线耀华路","lon":"121.499637738","lat":"31.1832632999","category":"500","category_name":"未知分类","address":"上海地铁七号线"},{"poiid":"B2094654DA68A6FA4993","title":"浦东长途汽车客运总站","lon":"121.50264","lat":"31.18449","category":"35","category_name":"长途汽车站","address":"浦东新区浦东南路3843号(近莲南路)"},{"poiid":"B2094757D16DA5FA4398","title":"浦东新区社保中心","lon":"121.500264738","lat":"31.1834623041","category":"500","category_name":"未知分类","address":"上海市浦东新区浦东南路云台路"},{"poiid":"B2094757D068A3F94492","title":"世博会阿联酋馆","lon":"121.49784","lat":"31.18622","category":"260","category_name":"其他","address":"上海浦东新区国展路近云台路(原上海世博会A片区)"},{"poiid":"B2094757D068A7FF4098","title":"一阳轩(高科西路店)","lon":"121.50404073","lat":"31.184218214","category":"72","category_name":"广东菜","address":"浦东新区世博园区高科西路551号6楼(近云莲路)"},{"poiid":"B2094757D06BA5FA439C","title":"高科西路","lon":"121.50241873","lat":"31.183264299","category":"260","category_name":"其他","address":"上海高科西路"},{"poiid":"B2094757D068ABFD4493","title":"肯德基 KFC (浦东南路店)","lon":"121.502871552","lat":"31.1837174917","category":"68","category_name":"快餐厅","address":"浦东新区浦东南路3843号(高科西路口)"},{"poiid":"B2094655D26EA5FC4198","title":"星巴克(中融店)","lon":"121.5019","lat":"31.18414","category":"65","category_name":"咖啡厅","address":"浦东新区浦东南路1068号中融国际商城1楼"},{"poiid":"B2094757D068A3F4409A","title":"西藏南路隧道","lon":"121.50355886","lat":"31.184528366","category":"260","category_name":"其他","address":"上海西藏南路隧道"},{"poiid":"B2094752D669A5F54993","title":"梅赛德斯奔驰文化中心","lon":"121.499021","lat":"31.186684","category":"500","category_name":"未知分类","address":null},{"poiid":"B2094654DA68A6FA429A","title":"雪野家园","lon":"121.49998","lat":"31.18418","category":"47","category_name":"住宅区","address":"上海浦东新区浦东南路4200-4250弄(近云台路)"},{"poiid":"B2094757D064A0FC4893","title":"久斯台球俱乐部(浦东游泳馆店)","lon":"121.50067953","lat":"31.186198112","category":"171","category_name":"台球厅","address":"上海浦东南路浦东游泳馆二楼"},{"poiid":"B2094655D26BA2F54599","title":"浦东南路高科西路","lon":"121.5028","lat":"31.18555","category":"38","category_name":"公交车站","address":""},{"poiid":"B2094655D265A0FD499B","title":"上海歌城中融店","lon":"121.5019","lat":"31.18414","category":"170","category_name":"KTV","address":"浦东南路1078号中融国际商场7层"},{"poiid":"B2094757D065A5FD4698","title":"上海协和双语学校(浦东校区) Shanghai United Bilingual School Pudong Campus","lon":"121.49784038","lat":"31.18314481","category":"55","category_name":"中学","address":"浦东新区雪野路48号(近云台路)"},{"poiid":"B2094654DA6AA2F8459C","title":"上南花苑西苑","lon":"121.50429","lat":"31.18305","category":"47","category_name":"住宅区","address":"浦东南路3885弄"},{"poiid":"B2094757D168A4FB479A","title":"海逸酒家","lon":"121.497772217","lat":"31.1877937317","category":"247","category_name":"餐饮美食","address":"浦东新区世博大道1200号世博文化中心6楼"},{"poiid":"B2094757D16EA2FB439E","title":"浦东南路云台路路口","lon":"121.50020073","lat":"31.181478261","category":"500","category_name":"未知分类","address":"上海市浦东新区浦东南路"},{"poiid":"B2094655D265A1F5479A","title":"小尾羊(浦东南路店)","lon":"121.50168","lat":"31.18385","category":"86","category_name":"火锅店","address":"浦东南路2100号(塘桥路口)"},{"poiid":"B2094757D068A5FD409B","title":"雪野二村","lon":"121.49775","lat":"31.182205","category":"47","category_name":"住宅区","address":"上海浦东新区浦东南路4800弄(雪野路34弄)"},{"poiid":"B2094757D16DA3FF4899","title":"浦东南路","lon":"121.49919246","lat":"31.186612791","category":"500","category_name":"未知分类","address":"上海浦东南路"},{"poiid":"B2094757D06BA5F94799","title":"顾惠面馆","lon":"121.50215","lat":"31.18312","category":"68","category_name":"快餐厅","address":"浦东新区浦东南路3903号(近云台路)"},{"poiid":"B2094655D265A1FE469C","title":"钱柜(浦东旗舰店)","lon":"121.50189","lat":"31.18413","category":"170","category_name":"KTV","address":"浦东南路1118号上海湾国际大厦B1层"},{"poiid":"B2094751DA69A0F44198","title":"第一八佰伴","lon":"121.4987051559967","lat":"31.18380815258452","category":"247","category_name":"餐饮美食","address":"上海浦东张扬路501号第一八佰伴9楼"},{"poiid":"B2094757D164A3F54793","title":"雪野路","lon":"121.502169562","lat":"31.1870274938","category":"250","category_name":"公园户外","address":"上海浦东新区雪野路"},{"poiid":"B2094757D068A3FE429F","title":"7-ELEVEN(雪野家园店)","lon":"121.500969045","lat":"31.1833401229","category":"117","category_name":"便民商店/便利店","address":"浦东新区浦东南路4190号(近云台路地铁站)"},{"poiid":"B2094757D06AA6FD449F","title":"世博白莲泾出入口","lon":"121.50255584","lat":"31.184223175","category":"500","category_name":"未知分类","address":"上海白莲泾"},{"poiid":"B2094655D26BA6F54393","title":"京银大厦","lon":"121.50207","lat":"31.18437","category":"46","category_name":"楼宇","address":"浦东南路308号"},{"poiid":"B2094654DB69A4F4409A","title":"重庆鸡公煲 云台路店","lon":"121.500251054","lat":"31.181813793","category":"71","category_name":"四川菜","address":"浦东新区云台路118号临(近浦东南路)"},{"poiid":"B2094750DA64ABFE4493","title":"上海世博园沙特馆","lon":"121.495628","lat":"31.188323","category":"500","category_name":"未知分类","address":null},{"poiid":"B2094750D26EA2FA4093","title":"大悦城","lon":"121.503593","lat":"31.190885","category":"500","category_name":"未知分类","address":"西藏南路曲阜路"},{"poiid":"B2094655D265A1FD449D","title":"喜士多便利浦东南店","lon":"121.50203","lat":"31.18431","category":"117","category_name":"便民商店/便利店","address":"浦东南路500号建设大厦"},{"poiid":"B2094655D264A4F8409A","title":"好美家浦南店","lon":"121.50284","lat":"31.18508","category":"123","category_name":"家具建材市场","address":"浦东南路3799号"},{"poiid":"B2094655D264A0F8459B","title":"交运巴士长途汽车站白莲泾站","lon":"121.50264","lat":"31.18449","category":"35","category_name":"长途汽车站","address":"浦东南路3843号"},{"poiid":"B2094750D164A3FB499D","title":"上海浦东世博星程精品金尚酒店","lon":"121.504245140487","lat":"31.1846108567224","category":"214","category_name":"四星级宾馆","address":"上海浦东新区高科西路551号"},{"poiid":"B2094757D069A3FA499F","title":"世博会朝鲜馆","lon":"121.499862671","lat":"31.1886100769","category":"182","category_name":"博物馆","address":"上海世博会A片区"},{"poiid":"B2094750D768A7FD4098","title":"喜阁亭","lon":"121.505","lat":"31.1849","category":"76","category_name":"上海菜","address":"浦东新区高科西路611号(近东明路)"},{"poiid":"B2094654DA68A6FA4893","title":"博文园","lon":"121.50232","lat":"31.183067","category":"47","category_name":"住宅区","address":"浦东南路3905弄1-36号"},{"poiid":"B2094757D16FA2FE469B","title":"上海长途汽车站白莲泾站","lon":"121.503100552","lat":"31.183725491","category":"500","category_name":"未知分类","address":"上海浦东南路3843号"},{"poiid":"B2094655D268A3FF4499","title":"中国2010年上海世界博览会AB片区外国自建馆办公区","lon":"121.49754","lat":"31.18379","category":"46","category_name":"楼宇","address":""},{"poiid":"B2094750DB6BA4FB4192","title":"大山猫原生态餐厅","lon":"121.499717","lat":"31.182865","category":"87","category_name":"特色／地方风味餐厅","address":"浦东新区浏河路19号(近云台路)"},{"poiid":"B2094655D265A1FE489E","title":"喜士多便利(滨江2店)","lon":"121.50165","lat":"31.1838","category":"117","category_name":"便民商店/便利店","address":"浦东南路2250号"},{"poiid":"B2094654DA68A6FB409C","title":"上电实业大厦","lon":"121.50438","lat":"31.18473","category":"46","category_name":"楼宇","address":"高科西路551"},{"poiid":"B2094757D064ABFB4392","title":"梅赛德斯奔驰文化中心音乐俱乐部","lon":"121.495735738","lat":"31.1882344057","category":"500","category_name":"未知分类","address":"上海世博大道1200号西门一层"},{"poiid":"B2094654DA6AA3FE479D","title":"上海浦东游泳馆","lon":"121.50572","lat":"31.18856","category":"231","category_name":"游泳馆","address":"浦东新区浦东南路3669号"},{"poiid":"B2094750D66CA7F9449E","title":"月亮船","lon":"121.496009","lat":"31.188825","category":"500","category_name":"未知分类","address":null},{"poiid":"B2094757D06FA7FA4093","title":"浦东游泳馆新羽毛球馆","lon":"121.505721806","lat":"31.1885572023","category":"220","category_name":"运动场所","address":"浦东新区浦东南路3669号浦东游泳馆南门内(近沂林路)"},{"poiid":"B2094757DA6EA4F8459F","title":"世博场馆沙特阿拉伯馆","lon":"121.4958","lat":"31.188443","category":"252","category_name":"楼宇机构","address":"浦东新区博成路1221号(近高科西路口)"},{"poiid":"B2094757D06EAAF44099","title":"云台路地铁站","lon":"121.50042159","lat":"31.182326472","category":"36","category_name":"地铁站","address":"上海轨道交通 七号线 轨交云台路站 7"},{"poiid":"B2094757D06FA7F44493","title":"浦东新区社会保险事业管理中心","lon":"121.50377231","lat":"31.185200481","category":"260","category_name":"其他","address":"上海浦东南路浦东南路3993号"},{"poiid":"B2094757D06BA0F94599","title":"7号线耀华路","lon":"121.499637738","lat":"31.1832632999","category":"500","category_name":"未知分类","address":"上海地铁七号线"},{"poiid":"B2094654DA68A6FA4993","title":"浦东长途汽车客运总站","lon":"121.50264","lat":"31.18449","category":"35","category_name":"长途汽车站","address":"浦东新区浦东南路3843号(近莲南路)"},{"poiid":"B2094757D16DA5FA4398","title":"浦东新区社保中心","lon":"121.500264738","lat":"31.1834623041","category":"500","category_name":"未知分类","address":"上海市浦东新区浦东南路云台路"},{"poiid":"B2094757D068A3F94492","title":"世博会阿联酋馆","lon":"121.49784","lat":"31.18622","category":"260","category_name":"其他","address":"上海浦东新区国展路近云台路(原上海世博会A片区)"},{"poiid":"B2094757D068A7FF4098","title":"一阳轩(高科西路店)","lon":"121.50404073","lat":"31.184218214","category":"72","category_name":"广东菜","address":"浦东新区世博园区高科西路551号6楼(近云莲路)"},{"poiid":"B2094757D06BA5FA439C","title":"高科西路","lon":"121.50241873","lat":"31.183264299","category":"260","category_name":"其他","address":"上海高科西路"},{"poiid":"B2094757D068ABFD4493","title":"肯德基 KFC (浦东南路店)","lon":"121.502871552","lat":"31.1837174917","category":"68","category_name":"快餐厅","address":"浦东新区浦东南路3843号(高科西路口)"},{"poiid":"B2094655D26EA5FC4198","title":"星巴克(中融店)","lon":"121.5019","lat":"31.18414","category":"65","category_name":"咖啡厅","address":"浦东新区浦东南路1068号中融国际商城1楼"},{"poiid":"B2094757D068A3F4409A","title":"西藏南路隧道","lon":"121.50355886","lat":"31.184528366","category":"260","category_name":"其他","address":"上海西藏南路隧道"},{"poiid":"B2094752D669A5F54993","title":"梅赛德斯奔驰文化中心","lon":"121.499021","lat":"31.186684","category":"500","category_name":"未知分类","address":null},{"poiid":"B2094654DA68A6FA429A","title":"雪野家园","lon":"121.49998","lat":"31.18418","category":"47","category_name":"住宅区","address":"上海浦东新区浦东南路4200-4250弄(近云台路)"},{"poiid":"B2094757D064A0FC4893","title":"久斯台球俱乐部(浦东游泳馆店)","lon":"121.50067953","lat":"31.186198112","category":"171","category_name":"台球厅","address":"上海浦东南路浦东游泳馆二楼"},{"poiid":"B2094655D26BA2F54599","title":"浦东南路高科西路","lon":"121.5028","lat":"31.18555","category":"38","category_name":"公交车站","address":""},{"poiid":"B2094655D265A0FD499B","title":"上海歌城中融店","lon":"121.5019","lat":"31.18414","category":"170","category_name":"KTV","address":"浦东南路1078号中融国际商场7层"},{"poiid":"B2094757D065A5FD4698","title":"上海协和双语学校(浦东校区) Shanghai United Bilingual School Pudong Campus","lon":"121.49784038","lat":"31.18314481","category":"55","category_name":"中学","address":"浦东新区雪野路48号(近云台路)"},{"poiid":"B2094654DA6AA2F8459C","title":"上南花苑西苑","lon":"121.50429","lat":"31.18305","category":"47","category_name":"住宅区","address":"浦东南路3885弄"},{"poiid":"B2094757D168A4FB479A","title":"海逸酒家","lon":"121.497772217","lat":"31.1877937317","category":"247","category_name":"餐饮美食","address":"浦东新区世博大道1200号世博文化中心6楼"},{"poiid":"B2094757D16EA2FB439E","title":"浦东南路云台路路口","lon":"121.50020073","lat":"31.181478261","category":"500","category_name":"未知分类","address":"上海市浦东新区浦东南路"},{"poiid":"B2094655D265A1F5479A","title":"小尾羊(浦东南路店)","lon":"121.50168","lat":"31.18385","category":"86","category_name":"火锅店","address":"浦东南路2100号(塘桥路口)"},{"poiid":"B2094757D068A5FD409B","title":"雪野二村","lon":"121.49775","lat":"31.182205","category":"47","category_name":"住宅区","address":"上海浦东新区浦东南路4800弄(雪野路34弄)"},{"poiid":"B2094757D16DA3FF4899","title":"浦东南路","lon":"121.49919246","lat":"31.186612791","category":"500","category_name":"未知分类","address":"上海浦东南路"},{"poiid":"B2094757D06BA5F94799","title":"顾惠面馆","lon":"121.50215","lat":"31.18312","category":"68","category_name":"快餐厅","address":"浦东新区浦东南路3903号(近云台路)"},{"poiid":"B2094655D265A1FE469C","title":"钱柜(浦东旗舰店)","lon":"121.50189","lat":"31.18413","category":"170","category_name":"KTV","address":"浦东南路1118号上海湾国际大厦B1层"},{"poiid":"B2094751DA69A0F44198","title":"第一八佰伴","lon":"121.4987051559967","lat":"31.18380815258452","category":"247","category_name":"餐饮美食","address":"上海浦东张扬路501号第一八佰伴9楼"},{"poiid":"B2094757D164A3F54793","title":"雪野路","lon":"121.502169562","lat":"31.1870274938","category":"250","category_name":"公园户外","address":"上海浦东新区雪野路"},{"poiid":"B2094757D068A3FE429F","title":"7-ELEVEN(雪野家园店)","lon":"121.500969045","lat":"31.1833401229","category":"117","category_name":"便民商店/便利店","address":"浦东新区浦东南路4190号(近云台路地铁站)"},{"poiid":"B2094757D06AA6FD449F","title":"世博白莲泾出入口","lon":"121.50255584","lat":"31.184223175","category":"500","category_name":"未知分类","address":"上海白莲泾"},{"poiid":"B2094655D26BA6F54393","title":"京银大厦","lon":"121.50207","lat":"31.18437","category":"46","category_name":"楼宇","address":"浦东南路308号"},{"poiid":"B2094654DB69A4F4409A","title":"重庆鸡公煲 云台路店","lon":"121.500251054","lat":"31.181813793","category":"71","category_name":"四川菜","address":"浦东新区云台路118号临(近浦东南路)"},{"poiid":"B2094750DA64ABFE4493","title":"上海世博园沙特馆","lon":"121.495628","lat":"31.188323","category":"500","category_name":"未知分类","address":null},{"poiid":"B2094750D26EA2FA4093","title":"大悦城","lon":"121.503593","lat":"31.190885","category":"500","category_name":"未知分类","address":"西藏南路曲阜路"},{"poiid":"B2094655D265A1FD449D","title":"喜士多便利浦东南店","lon":"121.50203","lat":"31.18431","category":"117","category_name":"便民商店/便利店","address":"浦东南路500号建设大厦"},{"poiid":"B2094655D264A4F8409A","title":"好美家浦南店","lon":"121.50284","lat":"31.18508","category":"123","category_name":"家具建材市场","address":"浦东南路3799号"},{"poiid":"B2094655D264A0F8459B","title":"交运巴士长途汽车站白莲泾站","lon":"121.50264","lat":"31.18449","category":"35","category_name":"长途汽车站","address":"浦东南路3843号"},{"poiid":"B2094750D164A3FB499D","title":"上海浦东世博星程精品金尚酒店","lon":"121.504245140487","lat":"31.1846108567224","category":"214","category_name":"四星级宾馆","address":"上海浦东新区高科西路551号"},{"poiid":"B2094757D069A3FA499F","title":"世博会朝鲜馆","lon":"121.499862671","lat":"31.1886100769","category":"182","category_name":"博物馆","address":"上海世博会A片区"},{"poiid":"B2094750D768A7FD4098","title":"喜阁亭","lon":"121.505","lat":"31.1849","category":"76","category_name":"上海菜","address":"浦东新区高科西路611号(近东明路)"},{"poiid":"B2094654DA68A6FA4893","title":"博文园","lon":"121.50232","lat":"31.183067","category":"47","category_name":"住宅区","address":"浦东南路3905弄1-36号"},{"poiid":"B2094757D16FA2FE469B","title":"上海长途汽车站白莲泾站","lon":"121.503100552","lat":"31.183725491","category":"500","category_name":"未知分类","address":"上海浦东南路3843号"},{"poiid":"B2094655D268A3FF4499","title":"中国2010年上海世界博览会AB片区外国自建馆办公区","lon":"121.49754","lat":"31.18379","category":"46","category_name":"楼宇","address":""},{"poiid":"B2094750DB6BA4FB4192","title":"大山猫原生态餐厅","lon":"121.499717","lat":"31.182865","category":"87","category_name":"特色／地方风味餐厅","address":"浦东新区浏河路19号(近云台路)"},{"poiid":"B2094655D265A1FE489E","title":"喜士多便利(滨江2店)","lon":"121.50165","lat":"31.1838","category":"117","category_name":"便民商店/便利店","address":"浦东南路2250号"},{"poiid":"B2094654DA68A6FB409C","title":"上电实业大厦","lon":"121.50438","lat":"31.18473","category":"46","category_name":"楼宇","address":"高科西路551"},{"poiid":"B2094757D064ABFB4392","title":"梅赛德斯奔驰文化中心音乐俱乐部","lon":"121.495735738","lat":"31.1882344057","category":"500","category_name":"未知分类","address":"上海世博大道1200号西门一层"},{"poiid":"B2094654DA6AA3FE479D","title":"上海浦东游泳馆","lon":"121.50572","lat":"31.18856","category":"231","category_name":"游泳馆","address":"浦东新区浦东南路3669号"},{"poiid":"B2094750D66CA7F9449E","title":"月亮船","lon":"121.496009","lat":"31.188825","category":"500","category_name":"未知分类","address":null},{"poiid":"B2094757D06FA7FA4093","title":"浦东游泳馆新羽毛球馆","lon":"121.505721806","lat":"31.1885572023","category":"220","category_name":"运动场所","address":"浦东新区浦东南路3669号浦东游泳馆南门内(近沂林路)"},{"poiid":"B2094757DA6EA4F8459F","title":"世博场馆沙特阿拉伯馆","lon":"121.4958","lat":"31.188443","category":"252","category_name":"楼宇机构","address":"浦东新区博成路1221号(近高科西路口)"},{"poiid":"B2094757D06EAAF44099","title":"云台路地铁站","lon":"121.50042159","lat":"31.182326472","category":"36","category_name":"地铁站","address":"上海轨道交通 七号线 轨交云台路站 7"},{"poiid":"B2094757D06FA7F44493","title":"浦东新区社会保险事业管理中心","lon":"121.50377231","lat":"31.185200481","category":"260","category_name":"其他","address":"上海浦东南路浦东南路3993号"},{"poiid":"B2094757D06BA0F94599","title":"7号线耀华路","lon":"121.499637738","lat":"31.1832632999","category":"500","category_name":"未知分类","address":"上海地铁七号线"},{"poiid":"B2094654DA68A6FA4993","title":"浦东长途汽车客运总站","lon":"121.50264","lat":"31.18449","category":"35","category_name":"长途汽车站","address":"浦东新区浦东南路3843号(近莲南路)"},{"poiid":"B2094757D16DA5FA4398","title":"浦东新区社保中心","lon":"121.500264738","lat":"31.1834623041","category":"500","category_name":"未知分类","address":"上海市浦东新区浦东南路云台路"},{"poiid":"B2094757D068A3F94492","title":"世博会阿联酋馆","lon":"121.49784","lat":"31.18622","category":"260","category_name":"其他","address":"上海浦东新区国展路近云台路(原上海世博会A片区)"},{"poiid":"B2094757D068A7FF4098","title":"一阳轩(高科西路店)","lon":"121.50404073","lat":"31.184218214","category":"72","category_name":"广东菜","address":"浦东新区世博园区高科西路551号6楼(近云莲路)"},{"poiid":"B2094757D06BA5FA439C","title":"高科西路","lon":"121.50241873","lat":"31.183264299","category":"260","category_name":"其他","address":"上海高科西路"},{"poiid":"B2094757D068ABFD4493","title":"肯德基 KFC (浦东南路店)","lon":"121.502871552","lat":"31.1837174917","category":"68","category_name":"快餐厅","address":"浦东新区浦东南路3843号(高科西路口)"},{"poiid":"B2094655D26EA5FC4198","title":"星巴克(中融店)","lon":"121.5019","lat":"31.18414","category":"65","category_name":"咖啡厅","address":"浦东新区浦东南路1068号中融国际商城1楼"},{"poiid":"B2094757D068A3F4409A","title":"西藏南路隧道","lon":"121.50355886","lat":"31.184528366","category":"260","category_name":"其他","address":"上海西藏南路隧道"},{"poiid":"B2094752D669A5F54993","title":"梅赛德斯奔驰文化中心","lon":"121.499021","lat":"31.186684","category":"500","category_name":"未知分类","address":null},{"poiid":"B2094654DA68A6FA429A","title":"雪野家园","lon":"121.49998","lat":"31.18418","category":"47","category_name":"住宅区","address":"上海浦东新区浦东南路4200-4250弄(近云台路)"},{"poiid":"B2094757D064A0FC4893","title":"久斯台球俱乐部(浦东游泳馆店)","lon":"121.50067953","lat":"31.186198112","category":"171","category_name":"台球厅","address":"上海浦东南路浦东游泳馆二楼"},{"poiid":"B2094655D26BA2F54599","title":"浦东南路高科西路","lon":"121.5028","lat":"31.18555","category":"38","category_name":"公交车站","address":""},{"poiid":"B2094655D265A0FD499B","title":"上海歌城中融店","lon":"121.5019","lat":"31.18414","category":"170","category_name":"KTV","address":"浦东南路1078号中融国际商场7层"},{"poiid":"B2094757D065A5FD4698","title":"上海协和双语学校(浦东校区) Shanghai United Bilingual School Pudong Campus","lon":"121.49784038","lat":"31.18314481","category":"55","category_name":"中学","address":"浦东新区雪野路48号(近云台路)"},{"poiid":"B2094654DA6AA2F8459C","title":"上南花苑西苑","lon":"121.50429","lat":"31.18305","category":"47","category_name":"住宅区","address":"浦东南路3885弄"},{"poiid":"B2094757D168A4FB479A","title":"海逸酒家","lon":"121.497772217","lat":"31.1877937317","category":"247","category_name":"餐饮美食","address":"浦东新区世博大道1200号世博文化中心6楼"},{"poiid":"B2094757D16EA2FB439E","title":"浦东南路云台路路口","lon":"121.50020073","lat":"31.181478261","category":"500","category_name":"未知分类","address":"上海市浦东新区浦东南路"},{"poiid":"B2094655D265A1F5479A","title":"小尾羊(浦东南路店)","lon":"121.50168","lat":"31.18385","category":"86","category_name":"火锅店","address":"浦东南路2100号(塘桥路口)"},{"poiid":"B2094757D068A5FD409B","title":"雪野二村","lon":"121.49775","lat":"31.182205","category":"47","category_name":"住宅区","address":"上海浦东新区浦东南路4800弄(雪野路34弄)"},{"poiid":"B2094757D16DA3FF4899","title":"浦东南路","lon":"121.49919246","lat":"31.186612791","category":"500","category_name":"未知分类","address":"上海浦东南路"},{"poiid":"B2094757D06BA5F94799","title":"顾惠面馆","lon":"121.50215","lat":"31.18312","category":"68","category_name":"快餐厅","address":"浦东新区浦东南路3903号(近云台路)"},{"poiid":"B2094655D265A1FE469C","title":"钱柜(浦东旗舰店)","lon":"121.50189","lat":"31.18413","category":"170","category_name":"KTV","address":"浦东南路1118号上海湾国际大厦B1层"},{"poiid":"B2094751DA69A0F44198","title":"第一八佰伴","lon":"121.4987051559967","lat":"31.18380815258452","category":"247","category_name":"餐饮美食","address":"上海浦东张扬路501号第一八佰伴9楼"},{"poiid":"B2094757D164A3F54793","title":"雪野路","lon":"121.502169562","lat":"31.1870274938","category":"250","category_name":"公园户外","address":"上海浦东新区雪野路"},{"poiid":"B2094757D068A3FE429F","title":"7-ELEVEN(雪野家园店)","lon":"121.500969045","lat":"31.1833401229","category":"117","category_name":"便民商店/便利店","address":"浦东新区浦东南路4190号(近云台路地铁站)"},{"poiid":"B2094757D06AA6FD449F","title":"世博白莲泾出入口","lon":"121.50255584","lat":"31.184223175","category":"500","category_name":"未知分类","address":"上海白莲泾"},{"poiid":"B2094655D26BA6F54393","title":"京银大厦","lon":"121.50207","lat":"31.18437","category":"46","category_name":"楼宇","address":"浦东南路308号"},{"poiid":"B2094654DB69A4F4409A","title":"重庆鸡公煲 云台路店","lon":"121.500251054","lat":"31.181813793","category":"71","category_name":"四川菜","address":"浦东新区云台路118号临(近浦东南路)"},{"poiid":"B2094750DA64ABFE4493","title":"上海世博园沙特馆","lon":"121.495628","lat":"31.188323","category":"500","category_name":"未知分类","address":null},{"poiid":"B2094750D26EA2FA4093","title":"大悦城","lon":"121.503593","lat":"31.190885","category":"500","category_name":"未知分类","address":"西藏南路曲阜路"},{"poiid":"B2094655D265A1FD449D","title":"喜士多便利浦东南店","lon":"121.50203","lat":"31.18431","category":"117","category_name":"便民商店/便利店","address":"浦东南路500号建设大厦"},{"poiid":"B2094655D264A4F8409A","title":"好美家浦南店","lon":"121.50284","lat":"31.18508","category":"123","category_name":"家具建材市场","address":"浦东南路3799号"},{"poiid":"B2094655D264A0F8459B","title":"交运巴士长途汽车站白莲泾站","lon":"121.50264","lat":"31.18449","category":"35","category_name":"长途汽车站","address":"浦东南路3843号"},{"poiid":"B2094750D164A3FB499D","title":"上海浦东世博星程精品金尚酒店","lon":"121.504245140487","lat":"31.1846108567224","category":"214","category_name":"四星级宾馆","address":"上海浦东新区高科西路551号"},{"poiid":"B2094757D069A3FA499F","title":"世博会朝鲜馆","lon":"121.499862671","lat":"31.1886100769","category":"182","category_name":"博物馆","address":"上海世博会A片区"},{"poiid":"B2094750D768A7FD4098","title":"喜阁亭","lon":"121.505","lat":"31.1849","category":"76","category_name":"上海菜","address":"浦东新区高科西路611号(近东明路)"},{"poiid":"B2094654DA68A6FA4893","title":"博文园","lon":"121.50232","lat":"31.183067","category":"47","category_name":"住宅区","address":"浦东南路3905弄1-36号"},{"poiid":"B2094757D16FA2FE469B","title":"上海长途汽车站白莲泾站","lon":"121.503100552","lat":"31.183725491","category":"500","category_name":"未知分类","address":"上海浦东南路3843号"},{"poiid":"B2094655D268A3FF4499","title":"中国2010年上海世界博览会AB片区外国自建馆办公区","lon":"121.49754","lat":"31.18379","category":"46","category_name":"楼宇","address":""},{"poiid":"B2094750DB6BA4FB4192","title":"大山猫原生态餐厅","lon":"121.499717","lat":"31.182865","category":"87","category_name":"特色／地方风味餐厅","address":"浦东新区浏河路19号(近云台路)"},{"poiid":"B2094655D265A1FE489E","title":"喜士多便利(滨江2店)","lon":"121.50165","lat":"31.1838","category":"117","category_name":"便民商店/便利店","address":"浦东南路2250号"},{"poiid":"B2094654DA68A6FB409C","title":"上电实业大厦","lon":"121.50438","lat":"31.18473","category":"46","category_name":"楼宇","address":"高科西路551"},{"poiid":"B2094757D064ABFB4392","title":"梅赛德斯奔驰文化中心音乐俱乐部","lon":"121.495735738","lat":"31.1882344057","category":"500","category_name":"未知分类","address":"上海世博大道1200号西门一层"},{"poiid":"B2094654DA6AA3FE479D","title":"上海浦东游泳馆","lon":"121.50572","lat":"31.18856","category":"231","category_name":"游泳馆","address":"浦东新区浦东南路3669号"},{"poiid":"B2094750D66CA7F9449E","title":"月亮船","lon":"121.496009","lat":"31.188825","category":"500","category_name":"未知分类","address":null},{"poiid":"B2094757D06FA7FA4093","title":"浦东游泳馆新羽毛球馆","lon":"121.505721806","lat":"31.1885572023","category":"220","category_name":"运动场所","address":"浦东新区浦东南路3669号浦东游泳馆南门内(近沂林路)"},{"poiid":"B2094757DA6EA4F8459F","title":"世博场馆沙特阿拉伯馆","lon":"121.4958","lat":"31.188443","category":"252","category_name":"楼宇机构","address":"浦东新区博成路1221号(近高科西路口)"},{"poiid":"B2094757D06EAAF44099","title":"云台路地铁站","lon":"121.50042159","lat":"31.182326472","category":"36","category_name":"地铁站","address":"上海轨道交通 七号线 轨交云台路站 7"},{"poiid":"B2094757D06FA7F44493","title":"浦东新区社会保险事业管理中心","lon":"121.50377231","lat":"31.185200481","category":"260","category_name":"其他","address":"上海浦东南路浦东南路3993号"},{"poiid":"B2094757D06BA0F94599","title":"7号线耀华路","lon":"121.499637738","lat":"31.1832632999","category":"500","category_name":"未知分类","address":"上海地铁七号线"},{"poiid":"B2094654DA68A6FA4993","title":"浦东长途汽车客运总站","lon":"121.50264","lat":"31.18449","category":"35","category_name":"长途汽车站","address":"浦东新区浦东南路3843号(近莲南路)"},{"poiid":"B2094757D16DA5FA4398","title":"浦东新区社保中心","lon":"121.500264738","lat":"31.1834623041","category":"500","category_name":"未知分类","address":"上海市浦东新区浦东南路云台路"},{"poiid":"B2094757D068A3F94492","title":"世博会阿联酋馆","lon":"121.49784","lat":"31.18622","category":"260","category_name":"其他","address":"上海浦东新区国展路近云台路(原上海世博会A片区)"},{"poiid":"B2094757D068A7FF4098","title":"一阳轩(高科西路店)","lon":"121.50404073","lat":"31.184218214","category":"72","category_name":"广东菜","address":"浦东新区世博园区高科西路551号6楼(近云莲路)"},{"poiid":"B2094757D06BA5FA439C","title":"高科西路","lon":"121.50241873","lat":"31.183264299","category":"260","category_name":"其他","address":"上海高科西路"},{"poiid":"B2094757D068ABFD4493","title":"肯德基 KFC (浦东南路店)","lon":"121.502871552","lat":"31.1837174917","category":"68","category_name":"快餐厅","address":"浦东新区浦东南路3843号(高科西路口)"},{"poiid":"B2094655D26EA5FC4198","title":"星巴克(中融店)","lon":"121.5019","lat":"31.18414","category":"65","category_name":"咖啡厅","address":"浦东新区浦东南路1068号中融国际商城1楼"},{"poiid":"B2094757D068A3F4409A","title":"西藏南路隧道","lon":"121.50355886","lat":"31.184528366","category":"260","category_name":"其他","address":"上海西藏南路隧道"},{"poiid":"B2094752D669A5F54993","title":"梅赛德斯奔驰文化中心","lon":"121.499021","lat":"31.186684","category":"500","category_name":"未知分类","address":null},{"poiid":"B2094654DA68A6FA429A","title":"雪野家园","lon":"121.49998","lat":"31.18418","category":"47","category_name":"住宅区","address":"上海浦东新区浦东南路4200-4250弄(近云台路)"},{"poiid":"B2094757D064A0FC4893","title":"久斯台球俱乐部(浦东游泳馆店)","lon":"121.50067953","lat":"31.186198112","category":"171","category_name":"台球厅","address":"上海浦东南路浦东游泳馆二楼"},{"poiid":"B2094655D26BA2F54599","title":"浦东南路高科西路","lon":"121.5028","lat":"31.18555","category":"38","category_name":"公交车站","address":""},{"poiid":"B2094655D265A0FD499B","title":"上海歌城中融店","lon":"121.5019","lat":"31.18414","category":"170","category_name":"KTV","address":"浦东南路1078号中融国际商场7层"},{"poiid":"B2094757D065A5FD4698","title":"上海协和双语学校(浦东校区) Shanghai United Bilingual School Pudong Campus","lon":"121.49784038","lat":"31.18314481","category":"55","category_name":"中学","address":"浦东新区雪野路48号(近云台路)"},{"poiid":"B2094654DA6AA2F8459C","title":"上南花苑西苑","lon":"121.50429","lat":"31.18305","category":"47","category_name":"住宅区","address":"浦东南路3885弄"},{"poiid":"B2094757D168A4FB479A","title":"海逸酒家","lon":"121.497772217","lat":"31.1877937317","category":"247","category_name":"餐饮美食","address":"浦东新区世博大道1200号世博文化中心6楼"},{"poiid":"B2094757D16EA2FB439E","title":"浦东南路云台路路口","lon":"121.50020073","lat":"31.181478261","category":"500","category_name":"未知分类","address":"上海市浦东新区浦东南路"},{"poiid":"B2094655D265A1F5479A","title":"小尾羊(浦东南路店)","lon":"121.50168","lat":"31.18385","category":"86","category_name":"火锅店","address":"浦东南路2100号(塘桥路口)"},{"poiid":"B2094757D068A5FD409B","title":"雪野二村","lon":"121.49775","lat":"31.182205","category":"47","category_name":"住宅区","address":"上海浦东新区浦东南路4800弄(雪野路34弄)"},{"poiid":"B2094757D16DA3FF4899","title":"浦东南路","lon":"121.49919246","lat":"31.186612791","category":"500","category_name":"未知分类","address":"上海浦东南路"},{"poiid":"B2094757D06BA5F94799","title":"顾惠面馆","lon":"121.50215","lat":"31.18312","category":"68","category_name":"快餐厅","address":"浦东新区浦东南路3903号(近云台路)"},{"poiid":"B2094655D265A1FE469C","title":"钱柜(浦东旗舰店)","lon":"121.50189","lat":"31.18413","category":"170","category_name":"KTV","address":"浦东南路1118号上海湾国际大厦B1层"},{"poiid":"B2094751DA69A0F44198","title":"第一八佰伴","lon":"121.4987051559967","lat":"31.18380815258452","category":"247","category_name":"餐饮美食","address":"上海浦东张扬路501号第一八佰伴9楼"},{"poiid":"B2094757D164A3F54793","title":"雪野路","lon":"121.502169562","lat":"31.1870274938","category":"250","category_name":"公园户外","address":"上海浦东新区雪野路"},{"poiid":"B2094757D068A3FE429F","title":"7-ELEVEN(雪野家园店)","lon":"121.500969045","lat":"31.1833401229","category":"117","category_name":"便民商店/便利店","address":"浦东新区浦东南路4190号(近云台路地铁站)"},{"poiid":"B2094757D06AA6FD449F","title":"世博白莲泾出入口","lon":"121.50255584","lat":"31.184223175","category":"500","category_name":"未知分类","address":"上海白莲泾"},{"poiid":"B2094655D26BA6F54393","title":"京银大厦","lon":"121.50207","lat":"31.18437","category":"46","category_name":"楼宇","address":"浦东南路308号"},{"poiid":"B2094654DB69A4F4409A","title":"重庆鸡公煲 云台路店","lon":"121.500251054","lat":"31.181813793","category":"71","category_name":"四川菜","address":"浦东新区云台路118号临(近浦东南路)"},{"poiid":"B2094750DA64ABFE4493","title":"上海世博园沙特馆","lon":"121.495628","lat":"31.188323","category":"500","category_name":"未知分类","address":null},{"poiid":"B2094750D26EA2FA4093","title":"大悦城","lon":"121.503593","lat":"31.190885","category":"500","category_name":"未知分类","address":"西藏南路曲阜路"},{"poiid":"B2094655D265A1FD449D","title":"喜士多便利浦东南店","lon":"121.50203","lat":"31.18431","category":"117","category_name":"便民商店/便利店","address":"浦东南路500号建设大厦"},{"poiid":"B2094655D264A4F8409A","title":"好美家浦南店","lon":"121.50284","lat":"31.18508","category":"123","category_name":"家具建材市场","address":"浦东南路3799号"},{"poiid":"B2094655D264A0F8459B","title":"交运巴士长途汽车站白莲泾站","lon":"121.50264","lat":"31.18449","category":"35","category_name":"长途汽车站","address":"浦东南路3843号"},{"poiid":"B2094750D164A3FB499D","title":"上海浦东世博星程精品金尚酒店","lon":"121.504245140487","lat":"31.1846108567224","category":"214","category_name":"四星级宾馆","address":"上海浦东新区高科西路551号"},{"poiid":"B2094757D069A3FA499F","title":"世博会朝鲜馆","lon":"121.499862671","lat":"31.1886100769","category":"182","category_name":"博物馆","address":"上海世博会A片区"},{"poiid":"B2094750D768A7FD4098","title":"喜阁亭","lon":"121.505","lat":"31.1849","category":"76","category_name":"上海菜","address":"浦东新区高科西路611号(近东明路)"},{"poiid":"B2094654DA68A6FA4893","title":"博文园","lon":"121.50232","lat":"31.183067","category":"47","category_name":"住宅区","address":"浦东南路3905弄1-36号"},{"poiid":"B2094757D16FA2FE469B","title":"上海长途汽车站白莲泾站","lon":"121.503100552","lat":"31.183725491","category":"500","category_name":"未知分类","address":"上海浦东南路3843号"},{"poiid":"B2094655D268A3FF4499","title":"中国2010年上海世界博览会AB片区外国自建馆办公区","lon":"121.49754","lat":"31.18379","category":"46","category_name":"楼宇","address":""},{"poiid":"B2094750DB6BA4FB4192","title":"大山猫原生态餐厅","lon":"121.499717","lat":"31.182865","category":"87","category_name":"特色／地方风味餐厅","address":"浦东新区浏河路19号(近云台路)"},{"poiid":"B2094655D265A1FE489E","title":"喜士多便利(滨江2店)","lon":"121.50165","lat":"31.1838","category":"117","category_name":"便民商店/便利店","address":"浦东南路2250号"},{"poiid":"B2094654DA68A6FB409C","title":"上电实业大厦","lon":"121.50438","lat":"31.18473","category":"46","category_name":"楼宇","address":"高科西路551"}]