[{"poiid":"B2094654D56DA3FF439A","title":"上海财经大学","lon":"121.4989","lat":"31.30643","category":"671","category_name":"高校中心点","address":"杨浦区武川路111号"},{"poiid":"B2094654DB6AAAF5429F","title":"上海市肺科医院","lon":"121.5016","lat":"31.30274","category":"162","category_name":"医院","address":"杨浦区政民路507号"},{"poiid":"B2094757D06FA0FE459F","title":"上海财经大学第二教学楼","lon":"121.501228333","lat":"31.3061981201","category":"253","category_name":"校园生活","address":"上海国定路777号"},{"poiid":"B2094757D06FA6F94699","title":"上海财经大学　第三教学楼","lon":"121.49969482","lat":"31.301214218","category":"253","category_name":"校园生活","address":"武川路318上海财经大学武东校区内"},{"poiid":"B2094757D06FAAF4429A","title":"上海财经大学(武东路校区) 宁远楼","lon":"121.49890408","lat":"31.306435706","category":"500","category_name":"未知分类","address":"上海武东路100号"},{"poiid":"B2094757DA6FA3FD469F","title":"台味味主食馆(大学路店)","lon":"121.502739492823","lat":"31.3055587569752","category":"247","category_name":"餐饮美食","address":"杨浦区大学路94号(近锦嘉路)"},{"poiid":"B2094654D56DA3FF469B","title":"同济大学附属肺科医院","lon":"121.5016","lat":"31.30274","category":"162","category_name":"医院","address":"杨浦区政民路507号(近国定路)"},{"poiid":"B2094654DB6AAAF5429D","title":"利福友","lon":"121.50568606332","lat":"31.301779034794","category":"96","category_name":"韩国料理","address":"杨浦区政民路482号(近国定路)"},{"poiid":"B2094757D068A4FF409E","title":"上海财经大学大礼堂","lon":"121.49893188","lat":"31.306453704","category":"249","category_name":"购物服务","address":"上海杨浦区国定路777号上海财经大学內"},{"poiid":"B2094654DB6AAAF5429C","title":"上海市肺科医院门诊部","lon":"121.50276","lat":"31.30128","category":"162","category_name":"医院","address":"杨浦区政民路507号"},{"poiid":"B2094757D06BA7FC4193","title":"上海财经大学第一教学楼","lon":"121.50358205","lat":"31.30430539","category":"76","category_name":"上海菜","address":"杨浦区国定路777号上海财经大学内(近政立路)"},{"poiid":"B2094757D068A3FE499E","title":"风波庄(政民路店)","lon":"121.5016581","lat":"31.3004788","category":"260","category_name":"其他","address":"杨浦区政民路522号(近国定路)"},{"poiid":"B2094757D068A5F54192","title":"上海财经大学第四教学楼","lon":"121.497952513","lat":"31.3066278093","category":"253","category_name":"校园生活","address":"上海武川路111号"},{"poiid":"B2094757D068AAF9439C","title":"上海财经大学国定梯教","lon":"121.50215148","lat":"31.305305481","category":"500","category_name":"未知分类","address":"国定路777号上海财经大学内"},{"poiid":"B2094751D365A0FC449E","title":"kanes coffee","lon":"121.505412","lat":"31.3041966","category":"247","category_name":"餐饮美食","address":"杨浦区大学路265号(近国定路)"},{"poiid":"B2094757D06BA7FB4992","title":"新江湾佳苑","lon":"121.5041","lat":"31.308193","category":"47","category_name":"住宅区","address":"上海政立路505弄"},{"poiid":"B2094757D469A5FA419C","title":"一期一会","lon":"121.497397054","lat":"31.303044793","category":"95","category_name":"日本料理","address":"杨浦区武东路38号(近复旦大学北门)"},{"poiid":"B2094757D06BA3FC4392","title":"东方锦园","lon":"121.4996","lat":"31.308222","category":"47","category_name":"住宅区","address":"上海政立路687弄"},{"poiid":"B2094757D069A7FA4098","title":"窄门","lon":"121.50017393","lat":"31.300762047","category":"260","category_name":"其他","address":"杨浦区邯郸路220号复旦大学附近"},{"poiid":"B2094757D069A3FA439F","title":"上海财经大学新园食堂","lon":"121.496303","lat":"31.306886","category":"253","category_name":"校园生活","address":"杨浦区武川路111号上海财经大学内"},{"poiid":"B2094757D16DAAFD419F","title":"上海财经大学静思园","lon":"121.49751203","lat":"31.307275432","category":"500","category_name":"未知分类","address":"杨浦区杨浦区武东路321号(武川路武东路)"},{"poiid":"B2094654D56DA0FA499E","title":"复旦科技园","lon":"121.50287447558","lat":"31.300838521028","category":"45","category_name":"产业园区","address":"邯郸路139-141"},{"poiid":"B2094757D16CA6FD449E","title":"济光学院","lon":"121.4995811","lat":"31.301602024","category":"500","category_name":"未知分类","address":"上海武东路51号"},{"poiid":"B2094654D56DA3FF489B","title":"乡间老厨 政民路店","lon":"121.50184","lat":"31.30018","category":"77","category_name":"湖南菜","address":"杨浦区政民路510号(近武东路)"},{"poiid":"B2094751D06EA5FD499D","title":"复旦大学旦苑餐厅","lon":"121.4996619","lat":"31.3034151","category":"247","category_name":"餐饮美食","address":null},{"poiid":"B2094654D56DA3FF4292","title":"上海财经大学(东门)","lon":"121.50389","lat":"31.30585","category":"656","category_name":"大门","address":"杨浦区国定路777号"},{"poiid":"B2094655D26BA3FD4292","title":"泰晤士咖啡餐厅 国定路店","lon":"121.50383","lat":"31.30587","category":"94","category_name":"西餐厅","address":"杨浦区国定路777号上海财经大学内(近政立路)"},{"poiid":"B2094454D26DA3F9479D","title":"咕的咕的韩国料理","lon":"121.505004","lat":"31.304435","category":"247","category_name":"餐饮美食","address":"上海市 上海财经大学"},{"poiid":"B2094752D269A3FD459C","title":"Splendid Suns 灿烂千阳","lon":"121.502869","lat":"31.304988","category":"247","category_name":"餐饮美食","address":"锦建路18号"},{"poiid":"B2094757D069A2FC499B","title":"哈尔滨风味小吃","lon":"121.50442","lat":"31.30782","category":"82","category_name":"东北菜","address":"杨浦区政立路507号(近国定路)"},{"poiid":"B2094757D06BA0FE4398","title":"上海财经大学生乐食堂","lon":"121.501231","lat":"31.306198","category":"253","category_name":"校园生活","address":"上海杨浦区国定路777号上海财经大学內"},{"poiid":"B2094757D16DA6FE499E","title":"上海财经大学行政楼","lon":"121.503889","lat":"31.305854","category":"253","category_name":"校园生活","address":"上海市杨浦区国定路777号"},{"poiid":"B2094757D16BA7FC4098","title":"复旦大学逸夫楼报告厅","lon":"121.504254903","lat":"31.3013962698","category":"500","category_name":"未知分类","address":"上海杨浦区邯郸路220号逸夫楼"},{"poiid":"B2094757DB69A7F44693","title":"吉寿司","lon":"121.5023576","lat":"31.3006732","category":"95","category_name":"日本料理","address":"杨浦区政民路490号"},{"poiid":"B2094655D26DAAFD429B","title":"上海平凉经济园区海达工业园","lon":"121.5001","lat":"31.30372","category":"45","category_name":"产业园区","address":"武东路32"},{"poiid":"B2094655D26FA0F44992","title":"同和国际留学生村(武东路)","lon":"121.49953","lat":"31.30227","category":"47","category_name":"住宅区","address":""},{"poiid":"B2094655D26AA4FA489C","title":"风味餐厅","lon":"121.50413","lat":"31.30556","category":"68","category_name":"快餐厅","address":"杨浦区国定路777号上海财经大学内(近政立路)"},{"poiid":"B2094655D264A6FD4199","title":"书香银苑","lon":"121.50002","lat":"31.308605","category":"47","category_name":"住宅区","address":"上海市杨浦区政立路717弄"},{"poiid":"B2094757D16DABFC4492","title":"利福友韩国料理","lon":"121.50277845","lat":"31.30093966","category":"247","category_name":"餐饮美食","address":"上海杨浦区郑民路482号近国定路"},{"poiid":"B2094750DA6EA5FD499D","title":"上海财经大学大学生活动中心","lon":"121.499351","lat":"31.30496","category":"253","category_name":"校园生活","address":null},{"poiid":"B2094655D26AA4FD4399","title":"复旦北门黑暗料理","lon":"121.49728","lat":"31.30215","category":"68","category_name":"快餐厅","address":"杨浦区武东路57号"},{"poiid":"B2094757D16AA5F94198","title":"all vegan","lon":"121.5042244","lat":"31.303601116","category":"89","category_name":"中式素餐馆","address":"杨浦区国定路506号(近政民路)"},{"poiid":"B2094757D069A4FC4198","title":"上海财经大学(武川校区)男生宿舍","lon":"121.498905","lat":"31.306435","category":"216","category_name":"经济型连锁酒店","address":"上海市杨浦区武川路318号"},{"poiid":"B2094757D16FA5FE4999","title":"政立路545弄","lon":"121.5030349","lat":"31.3079827","category":"500","category_name":"未知分类","address":"上海杨浦区国定路政立路口"},{"poiid":"B2094757D06AA1F94498","title":"上海财经大学19号楼","lon":"121.49989318","lat":"31.308282852","category":"253","category_name":"校园生活","address":"国定路777号上海财经大学武东校区"},{"poiid":"B2094655D26AABF44092","title":"复旦大学北区学生餐厅","lon":"121.49732","lat":"31.30214","category":"68","category_name":"快餐厅","address":"杨浦区武东路57号复旦大学北区学生宿舍(武川路武东路)"},{"poiid":"B2094752DB6BA1FC479E","title":"上海财经大学","lon":"121.499472","lat":"31.304827","category":"500","category_name":"未知分类","address":"上海市 上海市杨浦区国定路777号"},{"poiid":"B2094757D168A3FF429B","title":"好兄弟(杨浦店)","lon":"121.50387","lat":"31.30718","category":"76","category_name":"上海菜","address":"上海杨浦区国定路600弄31号甲(近政立路)  "},{"poiid":"B2094757D66DA4FF459A","title":"上海财经大学风雨操场","lon":"121.498929503","lat":"31.3069077851","category":"500","category_name":"未知分类","address":"上海财经大学武川校区"},{"poiid":"B209475CD36EABF94892","title":"上海财经大学绿叶食堂","lon":"121.49891","lat":"31.30644","category":"68","category_name":"快餐厅","address":"国定路777号上海财经大学内(近政立路)"},{"poiid":"B2094654D56DA3FF439A","title":"上海财经大学","lon":"121.4989","lat":"31.30643","category":"671","category_name":"高校中心点","address":"杨浦区武川路111号"},{"poiid":"B2094654DB6AAAF5429F","title":"上海市肺科医院","lon":"121.5016","lat":"31.30274","category":"162","category_name":"医院","address":"杨浦区政民路507号"},{"poiid":"B2094757D06FA0FE459F","title":"上海财经大学第二教学楼","lon":"121.501228333","lat":"31.3061981201","category":"253","category_name":"校园生活","address":"上海国定路777号"},{"poiid":"B2094757D06FA6F94699","title":"上海财经大学　第三教学楼","lon":"121.49969482","lat":"31.301214218","category":"253","category_name":"校园生活","address":"武川路318上海财经大学武东校区内"},{"poiid":"B2094757D06FAAF4429A","title":"上海财经大学(武东路校区) 宁远楼","lon":"121.49890408","lat":"31.306435706","category":"500","category_name":"未知分类","address":"上海武东路100号"},{"poiid":"B2094757DA6FA3FD469F","title":"台味味主食馆(大学路店)","lon":"121.502739492823","lat":"31.3055587569752","category":"247","category_name":"餐饮美食","address":"杨浦区大学路94号(近锦嘉路)"},{"poiid":"B2094654D56DA3FF469B","title":"同济大学附属肺科医院","lon":"121.5016","lat":"31.30274","category":"162","category_name":"医院","address":"杨浦区政民路507号(近国定路)"},{"poiid":"B2094654DB6AAAF5429D","title":"利福友","lon":"121.50568606332","lat":"31.301779034794","category":"96","category_name":"韩国料理","address":"杨浦区政民路482号(近国定路)"},{"poiid":"B2094757D068A4FF409E","title":"上海财经大学大礼堂","lon":"121.49893188","lat":"31.306453704","category":"249","category_name":"购物服务","address":"上海杨浦区国定路777号上海财经大学內"},{"poiid":"B2094654DB6AAAF5429C","title":"上海市肺科医院门诊部","lon":"121.50276","lat":"31.30128","category":"162","category_name":"医院","address":"杨浦区政民路507号"},{"poiid":"B2094757D06BA7FC4193","title":"上海财经大学第一教学楼","lon":"121.50358205","lat":"31.30430539","category":"76","category_name":"上海菜","address":"杨浦区国定路777号上海财经大学内(近政立路)"},{"poiid":"B2094757D068A3FE499E","title":"风波庄(政民路店)","lon":"121.5016581","lat":"31.3004788","category":"260","category_name":"其他","address":"杨浦区政民路522号(近国定路)"},{"poiid":"B2094757D068A5F54192","title":"上海财经大学第四教学楼","lon":"121.497952513","lat":"31.3066278093","category":"253","category_name":"校园生活","address":"上海武川路111号"},{"poiid":"B2094757D068AAF9439C","title":"上海财经大学国定梯教","lon":"121.50215148","lat":"31.305305481","category":"500","category_name":"未知分类","address":"国定路777号上海财经大学内"},{"poiid":"B2094751D365A0FC449E","title":"kanes coffee","lon":"121.505412","lat":"31.3041966","category":"247","category_name":"餐饮美食","address":"杨浦区大学路265号(近国定路)"},{"poiid":"B2094757D06BA7FB4992","title":"新江湾佳苑","lon":"121.5041","lat":"31.308193","category":"47","category_name":"住宅区","address":"上海政立路505弄"},{"poiid":"B2094757D469A5FA419C","title":"一期一会","lon":"121.497397054","lat":"31.303044793","category":"95","category_name":"日本料理","address":"杨浦区武东路38号(近复旦大学北门)"},{"poiid":"B2094757D06BA3FC4392","title":"东方锦园","lon":"121.4996","lat":"31.308222","category":"47","category_name":"住宅区","address":"上海政立路687弄"},{"poiid":"B2094757D069A7FA4098","title":"窄门","lon":"121.50017393","lat":"31.300762047","category":"260","category_name":"其他","address":"杨浦区邯郸路220号复旦大学附近"},{"poiid":"B2094757D069A3FA439F","title":"上海财经大学新园食堂","lon":"121.496303","lat":"31.306886","category":"253","category_name":"校园生活","address":"杨浦区武川路111号上海财经大学内"},{"poiid":"B2094757D16DAAFD419F","title":"上海财经大学静思园","lon":"121.49751203","lat":"31.307275432","category":"500","category_name":"未知分类","address":"杨浦区杨浦区武东路321号(武川路武东路)"},{"poiid":"B2094654D56DA0FA499E","title":"复旦科技园","lon":"121.50287447558","lat":"31.300838521028","category":"45","category_name":"产业园区","address":"邯郸路139-141"},{"poiid":"B2094757D16CA6FD449E","title":"济光学院","lon":"121.4995811","lat":"31.301602024","category":"500","category_name":"未知分类","address":"上海武东路51号"},{"poiid":"B2094654D56DA3FF489B","title":"乡间老厨 政民路店","lon":"121.50184","lat":"31.30018","category":"77","category_name":"湖南菜","address":"杨浦区政民路510号(近武东路)"},{"poiid":"B2094751D06EA5FD499D","title":"复旦大学旦苑餐厅","lon":"121.4996619","lat":"31.3034151","category":"247","category_name":"餐饮美食","address":null},{"poiid":"B2094654D56DA3FF4292","title":"上海财经大学(东门)","lon":"121.50389","lat":"31.30585","category":"656","category_name":"大门","address":"杨浦区国定路777号"},{"poiid":"B2094655D26BA3FD4292","title":"泰晤士咖啡餐厅 国定路店","lon":"121.50383","lat":"31.30587","category":"94","category_name":"西餐厅","address":"杨浦区国定路777号上海财经大学内(近政立路)"},{"poiid":"B2094454D26DA3F9479D","title":"咕的咕的韩国料理","lon":"121.505004","lat":"31.304435","category":"247","category_name":"餐饮美食","address":"上海市 上海财经大学"},{"poiid":"B2094752D269A3FD459C","title":"Splendid Suns 灿烂千阳","lon":"121.502869","lat":"31.304988","category":"247","category_name":"餐饮美食","address":"锦建路18号"},{"poiid":"B2094757D069A2FC499B","title":"哈尔滨风味小吃","lon":"121.50442","lat":"31.30782","category":"82","category_name":"东北菜","address":"杨浦区政立路507号(近国定路)"},{"poiid":"B2094757D06BA0FE4398","title":"上海财经大学生乐食堂","lon":"121.501231","lat":"31.306198","category":"253","category_name":"校园生活","address":"上海杨浦区国定路777号上海财经大学內"},{"poiid":"B2094757D16DA6FE499E","title":"上海财经大学行政楼","lon":"121.503889","lat":"31.305854","category":"253","category_name":"校园生活","address":"上海市杨浦区国定路777号"},{"poiid":"B2094757D16BA7FC4098","title":"复旦大学逸夫楼报告厅","lon":"121.504254903","lat":"31.3013962698","category":"500","category_name":"未知分类","address":"上海杨浦区邯郸路220号逸夫楼"},{"poiid":"B2094757DB69A7F44693","title":"吉寿司","lon":"121.5023576","lat":"31.3006732","category":"95","category_name":"日本料理","address":"杨浦区政民路490号"},{"poiid":"B2094655D26DAAFD429B","title":"上海平凉经济园区海达工业园","lon":"121.5001","lat":"31.30372","category":"45","category_name":"产业园区","address":"武东路32"},{"poiid":"B2094655D26FA0F44992","title":"同和国际留学生村(武东路)","lon":"121.49953","lat":"31.30227","category":"47","category_name":"住宅区","address":""},{"poiid":"B2094655D26AA4FA489C","title":"风味餐厅","lon":"121.50413","lat":"31.30556","category":"68","category_name":"快餐厅","address":"杨浦区国定路777号上海财经大学内(近政立路)"},{"poiid":"B2094655D264A6FD4199","title":"书香银苑","lon":"121.50002","lat":"31.308605","category":"47","category_name":"住宅区","address":"上海市杨浦区政立路717弄"},{"poiid":"B2094757D16DABFC4492","title":"利福友韩国料理","lon":"121.50277845","lat":"31.30093966","category":"247","category_name":"餐饮美食","address":"上海杨浦区郑民路482号近国定路"},{"poiid":"B2094750DA6EA5FD499D","title":"上海财经大学大学生活动中心","lon":"121.499351","lat":"31.30496","category":"253","category_name":"校园生活","address":null},{"poiid":"B2094655D26AA4FD4399","title":"复旦北门黑暗料理","lon":"121.49728","lat":"31.30215","category":"68","category_name":"快餐厅","address":"杨浦区武东路57号"},{"poiid":"B2094757D16AA5F94198","title":"all vegan","lon":"121.5042244","lat":"31.303601116","category":"89","category_name":"中式素餐馆","address":"杨浦区国定路506号(近政民路)"},{"poiid":"B2094757D069A4FC4198","title":"上海财经大学(武川校区)男生宿舍","lon":"121.498905","lat":"31.306435","category":"216","category_name":"经济型连锁酒店","address":"上海市杨浦区武川路318号"},{"poiid":"B2094757D16FA5FE4999","title":"政立路545弄","lon":"121.5030349","lat":"31.3079827","category":"500","category_name":"未知分类","address":"上海杨浦区国定路政立路口"},{"poiid":"B2094757D06AA1F94498","title":"上海财经大学19号楼","lon":"121.49989318","lat":"31.308282852","category":"253","category_name":"校园生活","address":"国定路777号上海财经大学武东校区"},{"poiid":"B2094655D26AABF44092","title":"复旦大学北区学生餐厅","lon":"121.49732","lat":"31.30214","category":"68","category_name":"快餐厅","address":"杨浦区武东路57号复旦大学北区学生宿舍(武川路武东路)"},{"poiid":"B2094752DB6BA1FC479E","title":"上海财经大学","lon":"121.499472","lat":"31.304827","category":"500","category_name":"未知分类","address":"上海市 上海市杨浦区国定路777号"},{"poiid":"B2094757D168A3FF429B","title":"好兄弟(杨浦店)","lon":"121.50387","lat":"31.30718","category":"76","category_name":"上海菜","address":"上海杨浦区国定路600弄31号甲(近政立路)  "},{"poiid":"B2094757D66DA4FF459A","title":"上海财经大学风雨操场","lon":"121.498929503","lat":"31.3069077851","category":"500","category_name":"未知分类","address":"上海财经大学武川校区"},{"poiid":"B209475CD36EABF94892","title":"上海财经大学绿叶食堂","lon":"121.49891","lat":"31.30644","category":"68","category_name":"快餐厅","address":"国定路777号上海财经大学内(近政立路)"},{"poiid":"B2094654D56DA3FF439A","title":"上海财经大学","lon":"121.4989","lat":"31.30643","category":"671","category_name":"高校中心点","address":"杨浦区武川路111号"},{"poiid":"B2094654DB6AAAF5429F","title":"上海市肺科医院","lon":"121.5016","lat":"31.30274","category":"162","category_name":"医院","address":"杨浦区政民路507号"},{"poiid":"B2094757D06FA0FE459F","title":"上海财经大学第二教学楼","lon":"121.501228333","lat":"31.3061981201","category":"253","category_name":"校园生活","address":"上海国定路777号"},{"poiid":"B2094757D06FA6F94699","title":"上海财经大学　第三教学楼","lon":"121.49969482","lat":"31.301214218","category":"253","category_name":"校园生活","address":"武川路318上海财经大学武东校区内"},{"poiid":"B2094757D06FAAF4429A","title":"上海财经大学(武东路校区) 宁远楼","lon":"121.49890408","lat":"31.306435706","category":"500","category_name":"未知分类","address":"上海武东路100号"},{"poiid":"B2094757DA6FA3FD469F","title":"台味味主食馆(大学路店)","lon":"121.502739492823","lat":"31.3055587569752","category":"247","category_name":"餐饮美食","address":"杨浦区大学路94号(近锦嘉路)"},{"poiid":"B2094654D56DA3FF469B","title":"同济大学附属肺科医院","lon":"121.5016","lat":"31.30274","category":"162","category_name":"医院","address":"杨浦区政民路507号(近国定路)"},{"poiid":"B2094654DB6AAAF5429D","title":"利福友","lon":"121.50568606332","lat":"31.301779034794","category":"96","category_name":"韩国料理","address":"杨浦区政民路482号(近国定路)"},{"poiid":"B2094757D068A4FF409E","title":"上海财经大学大礼堂","lon":"121.49893188","lat":"31.306453704","category":"249","category_name":"购物服务","address":"上海杨浦区国定路777号上海财经大学內"},{"poiid":"B2094654DB6AAAF5429C","title":"上海市肺科医院门诊部","lon":"121.50276","lat":"31.30128","category":"162","category_name":"医院","address":"杨浦区政民路507号"},{"poiid":"B2094757D06BA7FC4193","title":"上海财经大学第一教学楼","lon":"121.50358205","lat":"31.30430539","category":"76","category_name":"上海菜","address":"杨浦区国定路777号上海财经大学内(近政立路)"},{"poiid":"B2094757D068A3FE499E","title":"风波庄(政民路店)","lon":"121.5016581","lat":"31.3004788","category":"260","category_name":"其他","address":"杨浦区政民路522号(近国定路)"},{"poiid":"B2094757D068A5F54192","title":"上海财经大学第四教学楼","lon":"121.497952513","lat":"31.3066278093","category":"253","category_name":"校园生活","address":"上海武川路111号"},{"poiid":"B2094757D068AAF9439C","title":"上海财经大学国定梯教","lon":"121.50215148","lat":"31.305305481","category":"500","category_name":"未知分类","address":"国定路777号上海财经大学内"},{"poiid":"B2094751D365A0FC449E","title":"kanes coffee","lon":"121.505412","lat":"31.3041966","category":"247","category_name":"餐饮美食","address":"杨浦区大学路265号(近国定路)"},{"poiid":"B2094757D06BA7FB4992","title":"新江湾佳苑","lon":"121.5041","lat":"31.308193","category":"47","category_name":"住宅区","address":"上海政立路505弄"},{"poiid":"B2094757D469A5FA419C","title":"一期一会","lon":"121.497397054","lat":"31.303044793","category":"95","category_name":"日本料理","address":"杨浦区武东路38号(近复旦大学北门)"},{"poiid":"B2094757D06BA3FC4392","title":"东方锦园","lon":"121.4996","lat":"31.308222","category":"47","category_name":"住宅区","address":"上海政立路687弄"},{"poiid":"B2094757D069A7FA4098","title":"窄门","lon":"121.50017393","lat":"31.300762047","category":"260","category_name":"其他","address":"杨浦区邯郸路220号复旦大学附近"},{"poiid":"B2094757D069A3FA439F","title":"上海财经大学新园食堂","lon":"121.496303","lat":"31.306886","category":"253","category_name":"校园生活","address":"杨浦区武川路111号上海财经大学内"},{"poiid":"B2094757D16DAAFD419F","title":"上海财经大学静思园","lon":"121.49751203","lat":"31.307275432","category":"500","category_name":"未知分类","address":"杨浦区杨浦区武东路321号(武川路武东路)"},{"poiid":"B2094654D56DA0FA499E","title":"复旦科技园","lon":"121.50287447558","lat":"31.300838521028","category":"45","category_name":"产业园区","address":"邯郸路139-141"},{"poiid":"B2094757D16CA6FD449E","title":"济光学院","lon":"121.4995811","lat":"31.301602024","category":"500","category_name":"未知分类","address":"上海武东路51号"},{"poiid":"B2094654D56DA3FF489B","title":"乡间老厨 政民路店","lon":"121.50184","lat":"31.30018","category":"77","category_name":"湖南菜","address":"杨浦区政民路510号(近武东路)"},{"poiid":"B2094751D06EA5FD499D","title":"复旦大学旦苑餐厅","lon":"121.4996619","lat":"31.3034151","category":"247","category_name":"餐饮美食","address":null},{"poiid":"B2094654D56DA3FF4292","title":"上海财经大学(东门)","lon":"121.50389","lat":"31.30585","category":"656","category_name":"大门","address":"杨浦区国定路777号"},{"poiid":"B2094655D26BA3FD4292","title":"泰晤士咖啡餐厅 国定路店","lon":"121.50383","lat":"31.30587","category":"94","category_name":"西餐厅","address":"杨浦区国定路777号上海财经大学内(近政立路)"},{"poiid":"B2094454D26DA3F9479D","title":"咕的咕的韩国料理","lon":"121.505004","lat":"31.304435","category":"247","category_name":"餐饮美食","address":"上海市 上海财经大学"},{"poiid":"B2094752D269A3FD459C","title":"Splendid Suns 灿烂千阳","lon":"121.502869","lat":"31.304988","category":"247","category_name":"餐饮美食","address":"锦建路18号"},{"poiid":"B2094757D069A2FC499B","title":"哈尔滨风味小吃","lon":"121.50442","lat":"31.30782","category":"82","category_name":"东北菜","address":"杨浦区政立路507号(近国定路)"},{"poiid":"B2094757D06BA0FE4398","title":"上海财经大学生乐食堂","lon":"121.501231","lat":"31.306198","category":"253","category_name":"校园生活","address":"上海杨浦区国定路777号上海财经大学內"},{"poiid":"B2094757D16DA6FE499E","title":"上海财经大学行政楼","lon":"121.503889","lat":"31.305854","category":"253","category_name":"校园生活","address":"上海市杨浦区国定路777号"},{"poiid":"B2094757D16BA7FC4098","title":"复旦大学逸夫楼报告厅","lon":"121.504254903","lat":"31.3013962698","category":"500","category_name":"未知分类","address":"上海杨浦区邯郸路220号逸夫楼"},{"poiid":"B2094757DB69A7F44693","title":"吉寿司","lon":"121.5023576","lat":"31.3006732","category":"95","category_name":"日本料理","address":"杨浦区政民路490号"},{"poiid":"B2094655D26DAAFD429B","title":"上海平凉经济园区海达工业园","lon":"121.5001","lat":"31.30372","category":"45","category_name":"产业园区","address":"武东路32"},{"poiid":"B2094655D26FA0F44992","title":"同和国际留学生村(武东路)","lon":"121.49953","lat":"31.30227","category":"47","category_name":"住宅区","address":""},{"poiid":"B2094655D26AA4FA489C","title":"风味餐厅","lon":"121.50413","lat":"31.30556","category":"68","category_name":"快餐厅","address":"杨浦区国定路777号上海财经大学内(近政立路)"},{"poiid":"B2094655D264A6FD4199","title":"书香银苑","lon":"121.50002","lat":"31.308605","category":"47","category_name":"住宅区","address":"上海市杨浦区政立路717弄"},{"poiid":"B2094757D16DABFC4492","title":"利福友韩国料理","lon":"121.50277845","lat":"31.30093966","category":"247","category_name":"餐饮美食","address":"上海杨浦区郑民路482号近国定路"},{"poiid":"B2094750DA6EA5FD499D","title":"上海财经大学大学生活动中心","lon":"121.499351","lat":"31.30496","category":"253","category_name":"校园生活","address":null},{"poiid":"B2094655D26AA4FD4399","title":"复旦北门黑暗料理","lon":"121.49728","lat":"31.30215","category":"68","category_name":"快餐厅","address":"杨浦区武东路57号"},{"poiid":"B2094757D16AA5F94198","title":"all vegan","lon":"121.5042244","lat":"31.303601116","category":"89","category_name":"中式素餐馆","address":"杨浦区国定路506号(近政民路)"},{"poiid":"B2094757D069A4FC4198","title":"上海财经大学(武川校区)男生宿舍","lon":"121.498905","lat":"31.306435","category":"216","category_name":"经济型连锁酒店","address":"上海市杨浦区武川路318号"},{"poiid":"B2094757D16FA5FE4999","title":"政立路545弄","lon":"121.5030349","lat":"31.3079827","category":"500","category_name":"未知分类","address":"上海杨浦区国定路政立路口"},{"poiid":"B2094757D06AA1F94498","title":"上海财经大学19号楼","lon":"121.49989318","lat":"31.308282852","category":"253","category_name":"校园生活","address":"国定路777号上海财经大学武东校区"},{"poiid":"B2094655D26AABF44092","title":"复旦大学北区学生餐厅","lon":"121.49732","lat":"31.30214","category":"68","category_name":"快餐厅","address":"杨浦区武东路57号复旦大学北区学生宿舍(武川路武东路)"},{"poiid":"B2094752DB6BA1FC479E","title":"上海财经大学","lon":"121.499472","lat":"31.304827","category":"500","category_name":"未知分类","address":"上海市 上海市杨浦区国定路777号"},{"poiid":"B2094757D168A3FF429B","title":"好兄弟(杨浦店)","lon":"121.50387","lat":"31.30718","category":"76","category_name":"上海菜","address":"上海杨浦区国定路600弄31号甲(近政立路)  "},{"poiid":"B2094757D66DA4FF459A","title":"上海财经大学风雨操场","lon":"121.498929503","lat":"31.3069077851","category":"500","category_name":"未知分类","address":"上海财经大学武川校区"},{"poiid":"B209475CD36EABF94892","title":"上海财经大学绿叶食堂","lon":"121.49891","lat":"31.30644","category":"68","category_name":"快餐厅","address":"国定路777号上海财经大学内(近政立路)"},{"poiid":"B2094654D56DA3FF439A","title":"上海财经大学","lon":"121.4989","lat":"31.30643","category":"671","category_name":"高校中心点","address":"杨浦区武川路111号"},{"poiid":"B2094654DB6AAAF5429F","title":"上海市肺科医院","lon":"121.5016","lat":"31.30274","category":"162","category_name":"医院","address":"杨浦区政民路507号"},{"poiid":"B2094757D06FA0FE459F","title":"上海财经大学第二教学楼","lon":"121.501228333","lat":"31.3061981201","category":"253","category_name":"校园生活","address":"上海国定路777号"},{"poiid":"B2094757D06FA6F94699","title":"上海财经大学　第三教学楼","lon":"121.49969482","lat":"31.301214218","category":"253","category_name":"校园生活","address":"武川路318上海财经大学武东校区内"},{"poiid":"B2094757D06FAAF4429A","title":"上海财经大学(武东路校区) 宁远楼","lon":"121.49890408","lat":"31.306435706","category":"500","category_name":"未知分类","address":"上海武东路100号"},{"poiid":"B2094757DA6FA3FD469F","title":"台味味主食馆(大学路店)","lon":"121.502739492823","lat":"31.3055587569752","category":"247","category_name":"餐饮美食","address":"杨浦区大学路94号(近锦嘉路)"},{"poiid":"B2094654D56DA3FF469B","title":"同济大学附属肺科医院","lon":"121.5016","lat":"31.30274","category":"162","category_name":"医院","address":"杨浦区政民路507号(近国定路)"},{"poiid":"B2094654DB6AAAF5429D","title":"利福友","lon":"121.50568606332","lat":"31.301779034794","category":"96","category_name":"韩国料理","address":"杨浦区政民路482号(近国定路)"},{"poiid":"B2094757D068A4FF409E","title":"上海财经大学大礼堂","lon":"121.49893188","lat":"31.306453704","category":"249","category_name":"购物服务","address":"上海杨浦区国定路777号上海财经大学內"},{"poiid":"B2094654DB6AAAF5429C","title":"上海市肺科医院门诊部","lon":"121.50276","lat":"31.30128","category":"162","category_name":"医院","address":"杨浦区政民路507号"},{"poiid":"B2094757D06BA7FC4193","title":"上海财经大学第一教学楼","lon":"121.50358205","lat":"31.30430539","category":"76","category_name":"上海菜","address":"杨浦区国定路777号上海财经大学内(近政立路)"},{"poiid":"B2094757D068A3FE499E","title":"风波庄(政民路店)","lon":"121.5016581","lat":"31.3004788","category":"260","category_name":"其他","address":"杨浦区政民路522号(近国定路)"},{"poiid":"B2094757D068A5F54192","title":"上海财经大学第四教学楼","lon":"121.497952513","lat":"31.3066278093","category":"253","category_name":"校园生活","address":"上海武川路111号"},{"poiid":"B2094757D068AAF9439C","title":"上海财经大学国定梯教","lon":"121.50215148","lat":"31.305305481","category":"500","category_name":"未知分类","address":"国定路777号上海财经大学内"},{"poiid":"B2094751D365A0FC449E","title":"kanes coffee","lon":"121.505412","lat":"31.3041966","category":"247","category_name":"餐饮美食","address":"杨浦区大学路265号(近国定路)"},{"poiid":"B2094757D06BA7FB4992","title":"新江湾佳苑","lon":"121.5041","lat":"31.308193","category":"47","category_name":"住宅区","address":"上海政立路505弄"},{"poiid":"B2094757D469A5FA419C","title":"一期一会","lon":"121.497397054","lat":"31.303044793","category":"95","category_name":"日本料理","address":"杨浦区武东路38号(近复旦大学北门)"},{"poiid":"B2094757D06BA3FC4392","title":"东方锦园","lon":"121.4996","lat":"31.308222","category":"47","category_name":"住宅区","address":"上海政立路687弄"},{"poiid":"B2094757D069A7FA4098","title":"窄门","lon":"121.50017393","lat":"31.300762047","category":"260","category_name":"其他","address":"杨浦区邯郸路220号复旦大学附近"},{"poiid":"B2094757D069A3FA439F","title":"上海财经大学新园食堂","lon":"121.496303","lat":"31.306886","category":"253","category_name":"校园生活","address":"杨浦区武川路111号上海财经大学内"},{"poiid":"B2094757D16DAAFD419F","title":"上海财经大学静思园","lon":"121.49751203","lat":"31.307275432","category":"500","category_name":"未知分类","address":"杨浦区杨浦区武东路321号(武川路武东路)"},{"poiid":"B2094654D56DA0FA499E","title":"复旦科技园","lon":"121.50287447558","lat":"31.300838521028","category":"45","category_name":"产业园区","address":"邯郸路139-141"},{"poiid":"B2094757D16CA6FD449E","title":"济光学院","lon":"121.4995811","lat":"31.301602024","category":"500","category_name":"未知分类","address":"上海武东路51号"},{"poiid":"B2094654D56DA3FF489B","title":"乡间老厨 政民路店","lon":"121.50184","lat":"31.30018","category":"77","category_name":"湖南菜","address":"杨浦区政民路510号(近武东路)"},{"poiid":"B2094751D06EA5FD499D","title":"复旦大学旦苑餐厅","lon":"121.4996619","lat":"31.3034151","category":"247","category_name":"餐饮美食","address":null},{"poiid":"B2094654D56DA3FF4292","title":"上海财经大学(东门)","lon":"121.50389","lat":"31.30585","category":"656","category_name":"大门","address":"杨浦区国定路777号"},{"poiid":"B2094655D26BA3FD4292","title":"泰晤士咖啡餐厅 国定路店","lon":"121.50383","lat":"31.30587","category":"94","category_name":"西餐厅","address":"杨浦区国定路777号上海财经大学内(近政立路)"},{"poiid":"B2094454D26DA3F9479D","title":"咕的咕的韩国料理","lon":"121.505004","lat":"31.304435","category":"247","category_name":"餐饮美食","address":"上海市 上海财经大学"},{"poiid":"B2094752D269A3FD459C","title":"Splendid Suns 灿烂千阳","lon":"121.502869","lat":"31.304988","category":"247","category_name":"餐饮美食","address":"锦建路18号"},{"poiid":"B2094757D069A2FC499B","title":"哈尔滨风味小吃","lon":"121.50442","lat":"31.30782","category":"82","category_name":"东北菜","address":"杨浦区政立路507号(近国定路)"},{"poiid":"B2094757D06BA0FE4398","title":"上海财经大学生乐食堂","lon":"121.501231","lat":"31.306198","category":"253","category_name":"校园生活","address":"上海杨浦区国定路777号上海财经大学內"},{"poiid":"B2094757D16DA6FE499E","title":"上海财经大学行政楼","lon":"121.503889","lat":"31.305854","category":"253","category_name":"校园生活","address":"上海市杨浦区国定路777号"},{"poiid":"B2094757D16BA7FC4098","title":"复旦大学逸夫楼报告厅","lon":"121.504254903","lat":"31.3013962698","category":"500","category_name":"未知分类","address":"上海杨浦区邯郸路220号逸夫楼"},{"poiid":"B2094757DB69A7F44693","title":"吉寿司","lon":"121.5023576","lat":"31.3006732","category":"95","category_name":"日本料理","address":"杨浦区政民路490号"},{"poiid":"B2094655D26DAAFD429B","title":"上海平凉经济园区海达工业园","lon":"121.5001","lat":"31.30372","category":"45","category_name":"产业园区","address":"武东路32"},{"poiid":"B2094655D26FA0F44992","title":"同和国际留学生村(武东路)","lon":"121.49953","lat":"31.30227","category":"47","category_name":"住宅区","address":""},{"poiid":"B2094655D26AA4FA489C","title":"风味餐厅","lon":"121.50413","lat":"31.30556","category":"68","category_name":"快餐厅","address":"杨浦区国定路777号上海财经大学内(近政立路)"},{"poiid":"B2094655D264A6FD4199","title":"书香银苑","lon":"121.50002","lat":"31.308605","category":"47","category_name":"住宅区","address":"上海市杨浦区政立路717弄"},{"poiid":"B2094757D16DABFC4492","title":"利福友韩国料理","lon":"121.50277845","lat":"31.30093966","category":"247","category_name":"餐饮美食","address":"上海杨浦区郑民路482号近国定路"},{"poiid":"B2094750DA6EA5FD499D","title":"上海财经大学大学生活动中心","lon":"121.499351","lat":"31.30496","category":"253","category_name":"校园生活","address":null},{"poiid":"B2094655D26AA4FD4399","title":"复旦北门黑暗料理","lon":"121.49728","lat":"31.30215","category":"68","category_name":"快餐厅","address":"杨浦区武东路57号"},{"poiid":"B2094757D16AA5F94198","title":"all vegan","lon":"121.5042244","lat":"31.303601116","category":"89","category_name":"中式素餐馆","address":"杨浦区国定路506号(近政民路)"},{"poiid":"B2094757D069A4FC4198","title":"上海财经大学(武川校区)男生宿舍","lon":"121.498905","lat":"31.306435","category":"216","category_name":"经济型连锁酒店","address":"上海市杨浦区武川路318号"},{"poiid":"B2094757D16FA5FE4999","title":"政立路545弄","lon":"121.5030349","lat":"31.3079827","category":"500","category_name":"未知分类","address":"上海杨浦区国定路政立路口"},{"poiid":"B2094757D06AA1F94498","title":"上海财经大学19号楼","lon":"121.49989318","lat":"31.308282852","category":"253","category_name":"校园生活","address":"国定路777号上海财经大学武东校区"},{"poiid":"B2094655D26AABF44092","title":"复旦大学北区学生餐厅","lon":"121.49732","lat":"31.30214","category":"68","category_name":"快餐厅","address":"杨浦区武东路57号复旦大学北区学生宿舍(武川路武东路)"},{"poiid":"B2094752DB6BA1FC479E","title":"上海财经大学","lon":"121.499472","lat":"31.304827","category":"500","category_name":"未知分类","address":"上海市 上海市杨浦区国定路777号"},{"poiid":"B2094757D168A3FF429B","title":"好兄弟(杨浦店)","lon":"121.50387","lat":"31.30718","category":"76","category_name":"上海菜","address":"上海杨浦区国定路600弄31号甲(近政立路)  "},{"poiid":"B2094757D66DA4FF459A","title":"上海财经大学风雨操场","lon":"121.498929503","lat":"31.3069077851","category":"500","category_name":"未知分类","address":"上海财经大学武川校区"},{"poiid":"B209475CD36EABF94892","title":"上海财经大学绿叶食堂","lon":"121.49891","lat":"31.30644","category":"68","category_name":"快餐厅","address":"国定路777号上海财经大学内(近政立路)"}]