[{"poiid":"B2094655D268A6F5449B","title":"翠华餐厅 富民路店 Tsui Wah Restaurant","lon":"121.452124054","lat":"31.217478793","category":"72","category_name":"广东菜","address":"静安区富民路291号悟锦世纪大厦内(长乐路口)"},{"poiid":"B2094655D26AABFF429D","title":"食道园","lon":"121.453704054","lat":"31.218146793","category":"95","category_name":"日本料理","address":"卢湾区长乐路433号(近襄阳北路)"},{"poiid":"B2094655D26EA5F8409A","title":"保罗酒家","lon":"121.45205","lat":"31.21782","category":"257","category_name":"中餐厅","address":"静安区富民路271号(近长乐路)"},{"poiid":"B2094753D76FAAFA449C","title":"上海滩国泰旗舰店","lon":"121.466011","lat":"31.216125","category":"249","category_name":"购物服务","address":"淮海中路868号"},{"poiid":"B209475CD564A7F84292","title":"上海滩新天地店","lon":"121.47463","lat":"31.22164","category":"119","category_name":"商场","address":"\"太仓路181弄新天地北里15号\r\n\""},{"poiid":"B209475CD564A7F8439E","title":"上海滩中信泰富店","lon":"121.45602","lat":"31.22851","category":"119","category_name":"商场","address":"\"南京西路1168号中信泰富广场，店铺号221.\r\n\""},{"poiid":"B2094757D469A1F44499","title":"No.88酒吧 No.88 Bar","lon":"121.451729054","lat":"31.217383793","category":"172","category_name":"酒吧","address":"静安区富民路291号悟锦世纪大厦2楼(长乐路口)"},{"poiid":"B2094757D068A6FD499D","title":"Bistro Burger","lon":"121.45293","lat":"31.21705","category":"94","category_name":"西餐厅","address":"静安区富民路291号悟锦世纪大厦1楼(长乐路口)"},{"poiid":"B2094750D56EA5FF4299","title":"新斗记","lon":"121.454566","lat":"31.21754","category":"72","category_name":"广东菜","address":"徐汇区新乐路47号(近襄阳北路)"},{"poiid":"B2094757D06FA1F94598","title":"大江户","lon":"121.454611586","lat":"31.2162261571","category":"95","category_name":"日本料理","address":"徐汇区东湖路30号(近淮海中路)"},{"poiid":"B2094757D06FA0F54398","title":"CANTINA AGAVE 富民路店","lon":"121.452071054","lat":"31.217879793","category":"94","category_name":"西餐厅","address":"静安区富民路291号悟锦世纪大厦1楼01A-2室(长乐路口)"},{"poiid":"B2094757D06FA3FF489F","title":"白木屋居酒屋(东湖店)","lon":"121.45498","lat":"31.21597","category":"95","category_name":"日本料理","address":"徐汇区东湖路30号甲(近淮海中路)"},{"poiid":"B2094655D26AA1F5419C","title":"首席公馆","lon":"121.45526","lat":"31.21793","category":"247","category_name":"餐饮美食","address":"徐汇区新乐路82号(近襄阳北路)"},{"poiid":"B2094757D06FA3F8479E","title":"龙门阵茶屋川菜馆","lon":"121.45483","lat":"31.21587","category":"71","category_name":"四川菜","address":"徐汇区东湖路30号(近淮海中路)"},{"poiid":"B2094757D06FA1FC429C","title":"Wagas沃歌斯(东湖路店)","lon":"121.454116374","lat":"31.2161574382","category":"94","category_name":"西餐厅","address":"徐汇区东湖路7号(近淮海中路)"},{"poiid":"B2094757D06FA1FC469B","title":"Dolce Vita Italian","lon":"121.45246925","lat":"31.2171414317","category":"94","category_name":"西餐厅","address":"静安区富民路291号悟锦世纪大厦内(长乐路口)"},{"poiid":"B2094757D06FA0FB409F","title":"海之幸(新乐店)","lon":"121.45378","lat":"31.2167","category":"95","category_name":"日本料理","address":"徐汇区新乐路169号(近东湖路)"},{"poiid":"B2094757D06FA4FB449E","title":"新花城鲍鱼海鲜火锅","lon":"121.4546","lat":"31.2161","category":"86","category_name":"火锅店","address":"徐汇区东湖路58号(近淮海中路)"},{"poiid":"B2094654DB65A4FD469F","title":"上海东湖宾馆","lon":"121.4535","lat":"31.21684","category":"214","category_name":"四星级宾馆","address":"上海市徐汇区东湖路70号(主楼)，东湖路7号(副楼)(近新乐路)"},{"poiid":"B2094757D068A7FD4393","title":"Dakota","lon":"121.45416831","lat":"31.216473312","category":"94","category_name":"西餐厅","address":"徐汇区东湖路38号(近淮海中路)"},{"poiid":"B2094757D06FA1F44198","title":"博多新记(新乐路店)","lon":"121.45502","lat":"31.21728","category":"72","category_name":"广东菜","address":"徐汇区新乐路90号(近襄阳北路)"},{"poiid":"B2094757D068A2FD479B","title":"邮电医院","lon":"121.453616","lat":"31.218576733","category":"162","category_name":"医院","address":"上海徐汇区长乐路666号(近襄阳路)"},{"poiid":"B2094757D16BA7FB459C","title":"无敌呷拉面","lon":"121.454262793","lat":"31.2160521684","category":"95","category_name":"日本料理","address":"徐汇区东湖路7号东湖宾馆右侧(近淮海中路)"},{"poiid":"B2094757D068A2FD4299","title":"新乐路","lon":"121.45293426","lat":"31.216962814","category":"47","category_name":"住宅区","address":"上海新乐路"},{"poiid":"B2094757D06FA1FD429F","title":"狠牛独创牛肉面馆(富民路店)","lon":"121.45243","lat":"31.21706","category":"68","category_name":"快餐厅","address":"静安区富民路291号悟锦世纪大厦1楼3B(长乐路口)"},{"poiid":"B2094757D068A2FE439E","title":"红壮铁板烧","lon":"121.45338","lat":"31.21656","category":"269","category_name":"烧烤","address":"徐汇区东湖路70号(近淮海中路)"},{"poiid":"B2094757D06FA4FF459C","title":"南角亭热气涮羊肉","lon":"121.453073994","lat":"31.2180353639","category":"86","category_name":"火锅店","address":"徐汇区长乐路688号(近富民路)"},{"poiid":"B2094757D068A0F54292","title":"Mo'laksa","lon":"121.452731586","lat":"31.2169611715","category":"110","category_name":"其他亚洲菜","address":"上海长乐路208号(近东湖路)"},{"poiid":"B2094654D564ABF54893","title":"葡萄园(新乐路)","lon":"121.45533","lat":"31.21751","category":"76","category_name":"上海菜","address":"徐汇区新乐路55号(近襄阳北路)"},{"poiid":"B2094757D06FA6FB439F","title":"香啡缤(富民路店)","lon":"121.45256","lat":"31.21711","category":"260","category_name":"其他","address":"静安区富民路291号悟锦世纪大厦内(长乐路口)"},{"poiid":"B2094655D26EA6FD4293","title":"笑笑 SHIROKIYA & WARAWARA","lon":"121.45487043308","lat":"31.21617261741","category":"95","category_name":"日本料理","address":"徐汇区东湖路30号乙(近淮海中路)"},{"poiid":"B2094751DB6CA4FD469E","title":"Vino Tapas","lon":"121.45196","lat":"31.21775","category":"247","category_name":"餐饮美食","address":"卢湾区富民路259号(近长乐路)"},{"poiid":"B2094752D66AABF84698","title":"豆苗工坊","lon":"121.452897","lat":"31.216913","category":"247","category_name":"餐饮美食","address":"新乐路 东湖路"},{"poiid":"B2094757D065AAF54292","title":"上海东方大班","lon":"121.454256086","lat":"31.2164013272","category":"500","category_name":"未知分类","address":"徐汇区东湖路39号(近淮海中路)"},{"poiid":"B2094757D06FAAF84498","title":"The Monkey Lounge","lon":"121.454697132","lat":"31.2162284851","category":"172","category_name":"酒吧","address":"徐汇区东湖路56弄22号(近新乐路)"},{"poiid":"B2094750D26FA1FF439C","title":"小南国 东湖店","lon":"121.45339862107","lat":"31.21619616642","category":"76","category_name":"上海菜","address":"徐汇区东湖路9号地产大厦4楼(近淮海中路)"},{"poiid":"B2094757D568AAFF4199","title":"Southern Belle","lon":"121.454345","lat":"31.21859111","category":"260","category_name":"其他","address":"卢湾区长乐路433号(近襄阳北路)"},{"poiid":"B2094654D564AAFC439C","title":"小南国","lon":"121.45369","lat":"31.21626","category":"257","category_name":"中餐厅","address":"瑞金二路118号瑞金宾馆内2号楼近复兴中路"},{"poiid":"B2094757D069A6F8499A","title":"酒池星座(新乐路店)","lon":"121.45520224","lat":"31.217771601","category":"260","category_name":"其他","address":"徐汇区新乐路86号(近襄阳北路)"},{"poiid":"B2094654DA6DAAFA469A","title":"启华大厦","lon":"121.455","lat":"31.2171","category":"46","category_name":"楼宇","address":"闸北区江场西路38号(近共和新路)"},{"poiid":"B2094757DA69A3F9489C","title":"上海搜浩88酒吧","lon":"121.45276728836","lat":"31.217338350747","category":"172","category_name":"酒吧","address":"富民路291号悟锦世纪大楼2F"},{"poiid":"B2094757D16DA2F4469F","title":"莹七","lon":"121.454920738","lat":"31.2175930308","category":"247","category_name":"餐饮美食","address":"上海市静安区巨鹿路"},{"poiid":"B2094654D564AAFC429E","title":"上海地产大厦","lon":"121.45368","lat":"31.2161","category":"46","category_name":"楼宇","address":"西城区金融街A区3号地南部"},{"poiid":"B2094757D16EABF84299","title":"团市委","lon":"121.452710026","lat":"31.2175345227","category":"46","category_name":"楼宇","address":"上海东湖路17号"},{"poiid":"B2094750D76EA5FF429A","title":"五木铁板烧(东湖路店)","lon":"121.454","lat":"31.2156","category":"269","category_name":"烧烤","address":"徐汇区东湖路7号东湖宾馆2楼(近淮海中路)"},{"poiid":"B2094757D16DA6FF4498","title":"ICC环茂广场","lon":"121.455246738","lat":"31.2172880243","category":"500","category_name":"未知分类","address":"上海淮海中路999号"},{"poiid":"B2094757D168AAFA4092","title":"鸟巢","lon":"121.452849586","lat":"31.2169391711","category":"95","category_name":"日本料理","address":"徐汇区新乐路167号(东湖路口)"},{"poiid":"B2094654D564ABFD419D","title":"悠庭保健会所(东湖路)","lon":"121.45477","lat":"31.21615","category":"149","category_name":"洗浴推拿场所","address":"东湖路20"},{"poiid":"B2094757DB6CA4FC4793","title":"Brioche Dorée","lon":"121.4521496124225","lat":"31.21834106369002","category":"247","category_name":"餐饮美食","address":"徐汇区东湖路7号(近富民路)"},{"poiid":"B2094757D569A1FA499F","title":"白木屋居乐屋","lon":"121.4542556","lat":"31.21634277","category":"95","category_name":"日本料理","address":"东湖路30-2号2层"},{"poiid":"B2094655D268A6F5449B","title":"翠华餐厅 富民路店 Tsui Wah Restaurant","lon":"121.452124054","lat":"31.217478793","category":"72","category_name":"广东菜","address":"静安区富民路291号悟锦世纪大厦内(长乐路口)"},{"poiid":"B2094655D26AABFF429D","title":"食道园","lon":"121.453704054","lat":"31.218146793","category":"95","category_name":"日本料理","address":"卢湾区长乐路433号(近襄阳北路)"},{"poiid":"B2094655D26EA5F8409A","title":"保罗酒家","lon":"121.45205","lat":"31.21782","category":"257","category_name":"中餐厅","address":"静安区富民路271号(近长乐路)"},{"poiid":"B2094753D76FAAFA449C","title":"上海滩国泰旗舰店","lon":"121.466011","lat":"31.216125","category":"249","category_name":"购物服务","address":"淮海中路868号"},{"poiid":"B209475CD564A7F84292","title":"上海滩新天地店","lon":"121.47463","lat":"31.22164","category":"119","category_name":"商场","address":"\"太仓路181弄新天地北里15号\r\n\""},{"poiid":"B209475CD564A7F8439E","title":"上海滩中信泰富店","lon":"121.45602","lat":"31.22851","category":"119","category_name":"商场","address":"\"南京西路1168号中信泰富广场，店铺号221.\r\n\""},{"poiid":"B2094757D469A1F44499","title":"No.88酒吧 No.88 Bar","lon":"121.451729054","lat":"31.217383793","category":"172","category_name":"酒吧","address":"静安区富民路291号悟锦世纪大厦2楼(长乐路口)"},{"poiid":"B2094757D068A6FD499D","title":"Bistro Burger","lon":"121.45293","lat":"31.21705","category":"94","category_name":"西餐厅","address":"静安区富民路291号悟锦世纪大厦1楼(长乐路口)"},{"poiid":"B2094750D56EA5FF4299","title":"新斗记","lon":"121.454566","lat":"31.21754","category":"72","category_name":"广东菜","address":"徐汇区新乐路47号(近襄阳北路)"},{"poiid":"B2094757D06FA1F94598","title":"大江户","lon":"121.454611586","lat":"31.2162261571","category":"95","category_name":"日本料理","address":"徐汇区东湖路30号(近淮海中路)"},{"poiid":"B2094757D06FA0F54398","title":"CANTINA AGAVE 富民路店","lon":"121.452071054","lat":"31.217879793","category":"94","category_name":"西餐厅","address":"静安区富民路291号悟锦世纪大厦1楼01A-2室(长乐路口)"},{"poiid":"B2094757D06FA3FF489F","title":"白木屋居酒屋(东湖店)","lon":"121.45498","lat":"31.21597","category":"95","category_name":"日本料理","address":"徐汇区东湖路30号甲(近淮海中路)"},{"poiid":"B2094655D26AA1F5419C","title":"首席公馆","lon":"121.45526","lat":"31.21793","category":"247","category_name":"餐饮美食","address":"徐汇区新乐路82号(近襄阳北路)"},{"poiid":"B2094757D06FA3F8479E","title":"龙门阵茶屋川菜馆","lon":"121.45483","lat":"31.21587","category":"71","category_name":"四川菜","address":"徐汇区东湖路30号(近淮海中路)"},{"poiid":"B2094757D06FA1FC429C","title":"Wagas沃歌斯(东湖路店)","lon":"121.454116374","lat":"31.2161574382","category":"94","category_name":"西餐厅","address":"徐汇区东湖路7号(近淮海中路)"},{"poiid":"B2094757D06FA1FC469B","title":"Dolce Vita Italian","lon":"121.45246925","lat":"31.2171414317","category":"94","category_name":"西餐厅","address":"静安区富民路291号悟锦世纪大厦内(长乐路口)"},{"poiid":"B2094757D06FA0FB409F","title":"海之幸(新乐店)","lon":"121.45378","lat":"31.2167","category":"95","category_name":"日本料理","address":"徐汇区新乐路169号(近东湖路)"},{"poiid":"B2094757D06FA4FB449E","title":"新花城鲍鱼海鲜火锅","lon":"121.4546","lat":"31.2161","category":"86","category_name":"火锅店","address":"徐汇区东湖路58号(近淮海中路)"},{"poiid":"B2094654DB65A4FD469F","title":"上海东湖宾馆","lon":"121.4535","lat":"31.21684","category":"214","category_name":"四星级宾馆","address":"上海市徐汇区东湖路70号(主楼)，东湖路7号(副楼)(近新乐路)"},{"poiid":"B2094757D068A7FD4393","title":"Dakota","lon":"121.45416831","lat":"31.216473312","category":"94","category_name":"西餐厅","address":"徐汇区东湖路38号(近淮海中路)"},{"poiid":"B2094757D06FA1F44198","title":"博多新记(新乐路店)","lon":"121.45502","lat":"31.21728","category":"72","category_name":"广东菜","address":"徐汇区新乐路90号(近襄阳北路)"},{"poiid":"B2094757D068A2FD479B","title":"邮电医院","lon":"121.453616","lat":"31.218576733","category":"162","category_name":"医院","address":"上海徐汇区长乐路666号(近襄阳路)"},{"poiid":"B2094757D16BA7FB459C","title":"无敌呷拉面","lon":"121.454262793","lat":"31.2160521684","category":"95","category_name":"日本料理","address":"徐汇区东湖路7号东湖宾馆右侧(近淮海中路)"},{"poiid":"B2094757D068A2FD4299","title":"新乐路","lon":"121.45293426","lat":"31.216962814","category":"47","category_name":"住宅区","address":"上海新乐路"},{"poiid":"B2094757D06FA1FD429F","title":"狠牛独创牛肉面馆(富民路店)","lon":"121.45243","lat":"31.21706","category":"68","category_name":"快餐厅","address":"静安区富民路291号悟锦世纪大厦1楼3B(长乐路口)"},{"poiid":"B2094757D068A2FE439E","title":"红壮铁板烧","lon":"121.45338","lat":"31.21656","category":"269","category_name":"烧烤","address":"徐汇区东湖路70号(近淮海中路)"},{"poiid":"B2094757D06FA4FF459C","title":"南角亭热气涮羊肉","lon":"121.453073994","lat":"31.2180353639","category":"86","category_name":"火锅店","address":"徐汇区长乐路688号(近富民路)"},{"poiid":"B2094757D068A0F54292","title":"Mo'laksa","lon":"121.452731586","lat":"31.2169611715","category":"110","category_name":"其他亚洲菜","address":"上海长乐路208号(近东湖路)"},{"poiid":"B2094654D564ABF54893","title":"葡萄园(新乐路)","lon":"121.45533","lat":"31.21751","category":"76","category_name":"上海菜","address":"徐汇区新乐路55号(近襄阳北路)"},{"poiid":"B2094757D06FA6FB439F","title":"香啡缤(富民路店)","lon":"121.45256","lat":"31.21711","category":"260","category_name":"其他","address":"静安区富民路291号悟锦世纪大厦内(长乐路口)"},{"poiid":"B2094655D26EA6FD4293","title":"笑笑 SHIROKIYA & WARAWARA","lon":"121.45487043308","lat":"31.21617261741","category":"95","category_name":"日本料理","address":"徐汇区东湖路30号乙(近淮海中路)"},{"poiid":"B2094751DB6CA4FD469E","title":"Vino Tapas","lon":"121.45196","lat":"31.21775","category":"247","category_name":"餐饮美食","address":"卢湾区富民路259号(近长乐路)"},{"poiid":"B2094752D66AABF84698","title":"豆苗工坊","lon":"121.452897","lat":"31.216913","category":"247","category_name":"餐饮美食","address":"新乐路 东湖路"},{"poiid":"B2094757D065AAF54292","title":"上海东方大班","lon":"121.454256086","lat":"31.2164013272","category":"500","category_name":"未知分类","address":"徐汇区东湖路39号(近淮海中路)"},{"poiid":"B2094757D06FAAF84498","title":"The Monkey Lounge","lon":"121.454697132","lat":"31.2162284851","category":"172","category_name":"酒吧","address":"徐汇区东湖路56弄22号(近新乐路)"},{"poiid":"B2094750D26FA1FF439C","title":"小南国 东湖店","lon":"121.45339862107","lat":"31.21619616642","category":"76","category_name":"上海菜","address":"徐汇区东湖路9号地产大厦4楼(近淮海中路)"},{"poiid":"B2094757D568AAFF4199","title":"Southern Belle","lon":"121.454345","lat":"31.21859111","category":"260","category_name":"其他","address":"卢湾区长乐路433号(近襄阳北路)"},{"poiid":"B2094654D564AAFC439C","title":"小南国","lon":"121.45369","lat":"31.21626","category":"257","category_name":"中餐厅","address":"瑞金二路118号瑞金宾馆内2号楼近复兴中路"},{"poiid":"B2094757D069A6F8499A","title":"酒池星座(新乐路店)","lon":"121.45520224","lat":"31.217771601","category":"260","category_name":"其他","address":"徐汇区新乐路86号(近襄阳北路)"},{"poiid":"B2094654DA6DAAFA469A","title":"启华大厦","lon":"121.455","lat":"31.2171","category":"46","category_name":"楼宇","address":"闸北区江场西路38号(近共和新路)"},{"poiid":"B2094757DA69A3F9489C","title":"上海搜浩88酒吧","lon":"121.45276728836","lat":"31.217338350747","category":"172","category_name":"酒吧","address":"富民路291号悟锦世纪大楼2F"},{"poiid":"B2094757D16DA2F4469F","title":"莹七","lon":"121.454920738","lat":"31.2175930308","category":"247","category_name":"餐饮美食","address":"上海市静安区巨鹿路"},{"poiid":"B2094654D564AAFC429E","title":"上海地产大厦","lon":"121.45368","lat":"31.2161","category":"46","category_name":"楼宇","address":"西城区金融街A区3号地南部"},{"poiid":"B2094757D16EABF84299","title":"团市委","lon":"121.452710026","lat":"31.2175345227","category":"46","category_name":"楼宇","address":"上海东湖路17号"},{"poiid":"B2094750D76EA5FF429A","title":"五木铁板烧(东湖路店)","lon":"121.454","lat":"31.2156","category":"269","category_name":"烧烤","address":"徐汇区东湖路7号东湖宾馆2楼(近淮海中路)"},{"poiid":"B2094757D16DA6FF4498","title":"ICC环茂广场","lon":"121.455246738","lat":"31.2172880243","category":"500","category_name":"未知分类","address":"上海淮海中路999号"},{"poiid":"B2094757D168AAFA4092","title":"鸟巢","lon":"121.452849586","lat":"31.2169391711","category":"95","category_name":"日本料理","address":"徐汇区新乐路167号(东湖路口)"},{"poiid":"B2094654D564ABFD419D","title":"悠庭保健会所(东湖路)","lon":"121.45477","lat":"31.21615","category":"149","category_name":"洗浴推拿场所","address":"东湖路20"},{"poiid":"B2094757DB6CA4FC4793","title":"Brioche Dorée","lon":"121.4521496124225","lat":"31.21834106369002","category":"247","category_name":"餐饮美食","address":"徐汇区东湖路7号(近富民路)"},{"poiid":"B2094757D569A1FA499F","title":"白木屋居乐屋","lon":"121.4542556","lat":"31.21634277","category":"95","category_name":"日本料理","address":"东湖路30-2号2层"},{"poiid":"B2094655D268A6F5449B","title":"翠华餐厅 富民路店 Tsui Wah Restaurant","lon":"121.452124054","lat":"31.217478793","category":"72","category_name":"广东菜","address":"静安区富民路291号悟锦世纪大厦内(长乐路口)"},{"poiid":"B2094655D26AABFF429D","title":"食道园","lon":"121.453704054","lat":"31.218146793","category":"95","category_name":"日本料理","address":"卢湾区长乐路433号(近襄阳北路)"},{"poiid":"B2094655D26EA5F8409A","title":"保罗酒家","lon":"121.45205","lat":"31.21782","category":"257","category_name":"中餐厅","address":"静安区富民路271号(近长乐路)"},{"poiid":"B2094753D76FAAFA449C","title":"上海滩国泰旗舰店","lon":"121.466011","lat":"31.216125","category":"249","category_name":"购物服务","address":"淮海中路868号"},{"poiid":"B209475CD564A7F84292","title":"上海滩新天地店","lon":"121.47463","lat":"31.22164","category":"119","category_name":"商场","address":"\"太仓路181弄新天地北里15号\r\n\""},{"poiid":"B209475CD564A7F8439E","title":"上海滩中信泰富店","lon":"121.45602","lat":"31.22851","category":"119","category_name":"商场","address":"\"南京西路1168号中信泰富广场，店铺号221.\r\n\""},{"poiid":"B2094757D469A1F44499","title":"No.88酒吧 No.88 Bar","lon":"121.451729054","lat":"31.217383793","category":"172","category_name":"酒吧","address":"静安区富民路291号悟锦世纪大厦2楼(长乐路口)"},{"poiid":"B2094757D068A6FD499D","title":"Bistro Burger","lon":"121.45293","lat":"31.21705","category":"94","category_name":"西餐厅","address":"静安区富民路291号悟锦世纪大厦1楼(长乐路口)"},{"poiid":"B2094750D56EA5FF4299","title":"新斗记","lon":"121.454566","lat":"31.21754","category":"72","category_name":"广东菜","address":"徐汇区新乐路47号(近襄阳北路)"},{"poiid":"B2094757D06FA1F94598","title":"大江户","lon":"121.454611586","lat":"31.2162261571","category":"95","category_name":"日本料理","address":"徐汇区东湖路30号(近淮海中路)"},{"poiid":"B2094757D06FA0F54398","title":"CANTINA AGAVE 富民路店","lon":"121.452071054","lat":"31.217879793","category":"94","category_name":"西餐厅","address":"静安区富民路291号悟锦世纪大厦1楼01A-2室(长乐路口)"},{"poiid":"B2094757D06FA3FF489F","title":"白木屋居酒屋(东湖店)","lon":"121.45498","lat":"31.21597","category":"95","category_name":"日本料理","address":"徐汇区东湖路30号甲(近淮海中路)"},{"poiid":"B2094655D26AA1F5419C","title":"首席公馆","lon":"121.45526","lat":"31.21793","category":"247","category_name":"餐饮美食","address":"徐汇区新乐路82号(近襄阳北路)"},{"poiid":"B2094757D06FA3F8479E","title":"龙门阵茶屋川菜馆","lon":"121.45483","lat":"31.21587","category":"71","category_name":"四川菜","address":"徐汇区东湖路30号(近淮海中路)"},{"poiid":"B2094757D06FA1FC429C","title":"Wagas沃歌斯(东湖路店)","lon":"121.454116374","lat":"31.2161574382","category":"94","category_name":"西餐厅","address":"徐汇区东湖路7号(近淮海中路)"},{"poiid":"B2094757D06FA1FC469B","title":"Dolce Vita Italian","lon":"121.45246925","lat":"31.2171414317","category":"94","category_name":"西餐厅","address":"静安区富民路291号悟锦世纪大厦内(长乐路口)"},{"poiid":"B2094757D06FA0FB409F","title":"海之幸(新乐店)","lon":"121.45378","lat":"31.2167","category":"95","category_name":"日本料理","address":"徐汇区新乐路169号(近东湖路)"},{"poiid":"B2094757D06FA4FB449E","title":"新花城鲍鱼海鲜火锅","lon":"121.4546","lat":"31.2161","category":"86","category_name":"火锅店","address":"徐汇区东湖路58号(近淮海中路)"},{"poiid":"B2094654DB65A4FD469F","title":"上海东湖宾馆","lon":"121.4535","lat":"31.21684","category":"214","category_name":"四星级宾馆","address":"上海市徐汇区东湖路70号(主楼)，东湖路7号(副楼)(近新乐路)"},{"poiid":"B2094757D068A7FD4393","title":"Dakota","lon":"121.45416831","lat":"31.216473312","category":"94","category_name":"西餐厅","address":"徐汇区东湖路38号(近淮海中路)"},{"poiid":"B2094757D06FA1F44198","title":"博多新记(新乐路店)","lon":"121.45502","lat":"31.21728","category":"72","category_name":"广东菜","address":"徐汇区新乐路90号(近襄阳北路)"},{"poiid":"B2094757D068A2FD479B","title":"邮电医院","lon":"121.453616","lat":"31.218576733","category":"162","category_name":"医院","address":"上海徐汇区长乐路666号(近襄阳路)"},{"poiid":"B2094757D16BA7FB459C","title":"无敌呷拉面","lon":"121.454262793","lat":"31.2160521684","category":"95","category_name":"日本料理","address":"徐汇区东湖路7号东湖宾馆右侧(近淮海中路)"},{"poiid":"B2094757D068A2FD4299","title":"新乐路","lon":"121.45293426","lat":"31.216962814","category":"47","category_name":"住宅区","address":"上海新乐路"},{"poiid":"B2094757D06FA1FD429F","title":"狠牛独创牛肉面馆(富民路店)","lon":"121.45243","lat":"31.21706","category":"68","category_name":"快餐厅","address":"静安区富民路291号悟锦世纪大厦1楼3B(长乐路口)"},{"poiid":"B2094757D068A2FE439E","title":"红壮铁板烧","lon":"121.45338","lat":"31.21656","category":"269","category_name":"烧烤","address":"徐汇区东湖路70号(近淮海中路)"},{"poiid":"B2094757D06FA4FF459C","title":"南角亭热气涮羊肉","lon":"121.453073994","lat":"31.2180353639","category":"86","category_name":"火锅店","address":"徐汇区长乐路688号(近富民路)"},{"poiid":"B2094757D068A0F54292","title":"Mo'laksa","lon":"121.452731586","lat":"31.2169611715","category":"110","category_name":"其他亚洲菜","address":"上海长乐路208号(近东湖路)"},{"poiid":"B2094654D564ABF54893","title":"葡萄园(新乐路)","lon":"121.45533","lat":"31.21751","category":"76","category_name":"上海菜","address":"徐汇区新乐路55号(近襄阳北路)"},{"poiid":"B2094757D06FA6FB439F","title":"香啡缤(富民路店)","lon":"121.45256","lat":"31.21711","category":"260","category_name":"其他","address":"静安区富民路291号悟锦世纪大厦内(长乐路口)"},{"poiid":"B2094655D26EA6FD4293","title":"笑笑 SHIROKIYA & WARAWARA","lon":"121.45487043308","lat":"31.21617261741","category":"95","category_name":"日本料理","address":"徐汇区东湖路30号乙(近淮海中路)"},{"poiid":"B2094751DB6CA4FD469E","title":"Vino Tapas","lon":"121.45196","lat":"31.21775","category":"247","category_name":"餐饮美食","address":"卢湾区富民路259号(近长乐路)"},{"poiid":"B2094752D66AABF84698","title":"豆苗工坊","lon":"121.452897","lat":"31.216913","category":"247","category_name":"餐饮美食","address":"新乐路 东湖路"},{"poiid":"B2094757D065AAF54292","title":"上海东方大班","lon":"121.454256086","lat":"31.2164013272","category":"500","category_name":"未知分类","address":"徐汇区东湖路39号(近淮海中路)"},{"poiid":"B2094757D06FAAF84498","title":"The Monkey Lounge","lon":"121.454697132","lat":"31.2162284851","category":"172","category_name":"酒吧","address":"徐汇区东湖路56弄22号(近新乐路)"},{"poiid":"B2094750D26FA1FF439C","title":"小南国 东湖店","lon":"121.45339862107","lat":"31.21619616642","category":"76","category_name":"上海菜","address":"徐汇区东湖路9号地产大厦4楼(近淮海中路)"},{"poiid":"B2094757D568AAFF4199","title":"Southern Belle","lon":"121.454345","lat":"31.21859111","category":"260","category_name":"其他","address":"卢湾区长乐路433号(近襄阳北路)"},{"poiid":"B2094654D564AAFC439C","title":"小南国","lon":"121.45369","lat":"31.21626","category":"257","category_name":"中餐厅","address":"瑞金二路118号瑞金宾馆内2号楼近复兴中路"},{"poiid":"B2094757D069A6F8499A","title":"酒池星座(新乐路店)","lon":"121.45520224","lat":"31.217771601","category":"260","category_name":"其他","address":"徐汇区新乐路86号(近襄阳北路)"},{"poiid":"B2094654DA6DAAFA469A","title":"启华大厦","lon":"121.455","lat":"31.2171","category":"46","category_name":"楼宇","address":"闸北区江场西路38号(近共和新路)"},{"poiid":"B2094757DA69A3F9489C","title":"上海搜浩88酒吧","lon":"121.45276728836","lat":"31.217338350747","category":"172","category_name":"酒吧","address":"富民路291号悟锦世纪大楼2F"},{"poiid":"B2094757D16DA2F4469F","title":"莹七","lon":"121.454920738","lat":"31.2175930308","category":"247","category_name":"餐饮美食","address":"上海市静安区巨鹿路"},{"poiid":"B2094654D564AAFC429E","title":"上海地产大厦","lon":"121.45368","lat":"31.2161","category":"46","category_name":"楼宇","address":"西城区金融街A区3号地南部"},{"poiid":"B2094757D16EABF84299","title":"团市委","lon":"121.452710026","lat":"31.2175345227","category":"46","category_name":"楼宇","address":"上海东湖路17号"},{"poiid":"B2094750D76EA5FF429A","title":"五木铁板烧(东湖路店)","lon":"121.454","lat":"31.2156","category":"269","category_name":"烧烤","address":"徐汇区东湖路7号东湖宾馆2楼(近淮海中路)"},{"poiid":"B2094757D16DA6FF4498","title":"ICC环茂广场","lon":"121.455246738","lat":"31.2172880243","category":"500","category_name":"未知分类","address":"上海淮海中路999号"},{"poiid":"B2094757D168AAFA4092","title":"鸟巢","lon":"121.452849586","lat":"31.2169391711","category":"95","category_name":"日本料理","address":"徐汇区新乐路167号(东湖路口)"},{"poiid":"B2094654D564ABFD419D","title":"悠庭保健会所(东湖路)","lon":"121.45477","lat":"31.21615","category":"149","category_name":"洗浴推拿场所","address":"东湖路20"},{"poiid":"B2094757DB6CA4FC4793","title":"Brioche Dorée","lon":"121.4521496124225","lat":"31.21834106369002","category":"247","category_name":"餐饮美食","address":"徐汇区东湖路7号(近富民路)"},{"poiid":"B2094757D569A1FA499F","title":"白木屋居乐屋","lon":"121.4542556","lat":"31.21634277","category":"95","category_name":"日本料理","address":"东湖路30-2号2层"},{"poiid":"B2094655D268A6F5449B","title":"翠华餐厅 富民路店 Tsui Wah Restaurant","lon":"121.452124054","lat":"31.217478793","category":"72","category_name":"广东菜","address":"静安区富民路291号悟锦世纪大厦内(长乐路口)"},{"poiid":"B2094655D26AABFF429D","title":"食道园","lon":"121.453704054","lat":"31.218146793","category":"95","category_name":"日本料理","address":"卢湾区长乐路433号(近襄阳北路)"},{"poiid":"B2094655D26EA5F8409A","title":"保罗酒家","lon":"121.45205","lat":"31.21782","category":"257","category_name":"中餐厅","address":"静安区富民路271号(近长乐路)"},{"poiid":"B2094753D76FAAFA449C","title":"上海滩国泰旗舰店","lon":"121.466011","lat":"31.216125","category":"249","category_name":"购物服务","address":"淮海中路868号"},{"poiid":"B209475CD564A7F84292","title":"上海滩新天地店","lon":"121.47463","lat":"31.22164","category":"119","category_name":"商场","address":"\"太仓路181弄新天地北里15号\r\n\""},{"poiid":"B209475CD564A7F8439E","title":"上海滩中信泰富店","lon":"121.45602","lat":"31.22851","category":"119","category_name":"商场","address":"\"南京西路1168号中信泰富广场，店铺号221.\r\n\""},{"poiid":"B2094757D469A1F44499","title":"No.88酒吧 No.88 Bar","lon":"121.451729054","lat":"31.217383793","category":"172","category_name":"酒吧","address":"静安区富民路291号悟锦世纪大厦2楼(长乐路口)"},{"poiid":"B2094757D068A6FD499D","title":"Bistro Burger","lon":"121.45293","lat":"31.21705","category":"94","category_name":"西餐厅","address":"静安区富民路291号悟锦世纪大厦1楼(长乐路口)"},{"poiid":"B2094750D56EA5FF4299","title":"新斗记","lon":"121.454566","lat":"31.21754","category":"72","category_name":"广东菜","address":"徐汇区新乐路47号(近襄阳北路)"},{"poiid":"B2094757D06FA1F94598","title":"大江户","lon":"121.454611586","lat":"31.2162261571","category":"95","category_name":"日本料理","address":"徐汇区东湖路30号(近淮海中路)"},{"poiid":"B2094757D06FA0F54398","title":"CANTINA AGAVE 富民路店","lon":"121.452071054","lat":"31.217879793","category":"94","category_name":"西餐厅","address":"静安区富民路291号悟锦世纪大厦1楼01A-2室(长乐路口)"},{"poiid":"B2094757D06FA3FF489F","title":"白木屋居酒屋(东湖店)","lon":"121.45498","lat":"31.21597","category":"95","category_name":"日本料理","address":"徐汇区东湖路30号甲(近淮海中路)"},{"poiid":"B2094655D26AA1F5419C","title":"首席公馆","lon":"121.45526","lat":"31.21793","category":"247","category_name":"餐饮美食","address":"徐汇区新乐路82号(近襄阳北路)"},{"poiid":"B2094757D06FA3F8479E","title":"龙门阵茶屋川菜馆","lon":"121.45483","lat":"31.21587","category":"71","category_name":"四川菜","address":"徐汇区东湖路30号(近淮海中路)"},{"poiid":"B2094757D06FA1FC429C","title":"Wagas沃歌斯(东湖路店)","lon":"121.454116374","lat":"31.2161574382","category":"94","category_name":"西餐厅","address":"徐汇区东湖路7号(近淮海中路)"},{"poiid":"B2094757D06FA1FC469B","title":"Dolce Vita Italian","lon":"121.45246925","lat":"31.2171414317","category":"94","category_name":"西餐厅","address":"静安区富民路291号悟锦世纪大厦内(长乐路口)"},{"poiid":"B2094757D06FA0FB409F","title":"海之幸(新乐店)","lon":"121.45378","lat":"31.2167","category":"95","category_name":"日本料理","address":"徐汇区新乐路169号(近东湖路)"},{"poiid":"B2094757D06FA4FB449E","title":"新花城鲍鱼海鲜火锅","lon":"121.4546","lat":"31.2161","category":"86","category_name":"火锅店","address":"徐汇区东湖路58号(近淮海中路)"},{"poiid":"B2094654DB65A4FD469F","title":"上海东湖宾馆","lon":"121.4535","lat":"31.21684","category":"214","category_name":"四星级宾馆","address":"上海市徐汇区东湖路70号(主楼)，东湖路7号(副楼)(近新乐路)"},{"poiid":"B2094757D068A7FD4393","title":"Dakota","lon":"121.45416831","lat":"31.216473312","category":"94","category_name":"西餐厅","address":"徐汇区东湖路38号(近淮海中路)"},{"poiid":"B2094757D06FA1F44198","title":"博多新记(新乐路店)","lon":"121.45502","lat":"31.21728","category":"72","category_name":"广东菜","address":"徐汇区新乐路90号(近襄阳北路)"},{"poiid":"B2094757D068A2FD479B","title":"邮电医院","lon":"121.453616","lat":"31.218576733","category":"162","category_name":"医院","address":"上海徐汇区长乐路666号(近襄阳路)"},{"poiid":"B2094757D16BA7FB459C","title":"无敌呷拉面","lon":"121.454262793","lat":"31.2160521684","category":"95","category_name":"日本料理","address":"徐汇区东湖路7号东湖宾馆右侧(近淮海中路)"},{"poiid":"B2094757D068A2FD4299","title":"新乐路","lon":"121.45293426","lat":"31.216962814","category":"47","category_name":"住宅区","address":"上海新乐路"},{"poiid":"B2094757D06FA1FD429F","title":"狠牛独创牛肉面馆(富民路店)","lon":"121.45243","lat":"31.21706","category":"68","category_name":"快餐厅","address":"静安区富民路291号悟锦世纪大厦1楼3B(长乐路口)"},{"poiid":"B2094757D068A2FE439E","title":"红壮铁板烧","lon":"121.45338","lat":"31.21656","category":"269","category_name":"烧烤","address":"徐汇区东湖路70号(近淮海中路)"},{"poiid":"B2094757D06FA4FF459C","title":"南角亭热气涮羊肉","lon":"121.453073994","lat":"31.2180353639","category":"86","category_name":"火锅店","address":"徐汇区长乐路688号(近富民路)"},{"poiid":"B2094757D068A0F54292","title":"Mo'laksa","lon":"121.452731586","lat":"31.2169611715","category":"110","category_name":"其他亚洲菜","address":"上海长乐路208号(近东湖路)"},{"poiid":"B2094654D564ABF54893","title":"葡萄园(新乐路)","lon":"121.45533","lat":"31.21751","category":"76","category_name":"上海菜","address":"徐汇区新乐路55号(近襄阳北路)"},{"poiid":"B2094757D06FA6FB439F","title":"香啡缤(富民路店)","lon":"121.45256","lat":"31.21711","category":"260","category_name":"其他","address":"静安区富民路291号悟锦世纪大厦内(长乐路口)"},{"poiid":"B2094655D26EA6FD4293","title":"笑笑 SHIROKIYA & WARAWARA","lon":"121.45487043308","lat":"31.21617261741","category":"95","category_name":"日本料理","address":"徐汇区东湖路30号乙(近淮海中路)"},{"poiid":"B2094751DB6CA4FD469E","title":"Vino Tapas","lon":"121.45196","lat":"31.21775","category":"247","category_name":"餐饮美食","address":"卢湾区富民路259号(近长乐路)"},{"poiid":"B2094752D66AABF84698","title":"豆苗工坊","lon":"121.452897","lat":"31.216913","category":"247","category_name":"餐饮美食","address":"新乐路 东湖路"},{"poiid":"B2094757D065AAF54292","title":"上海东方大班","lon":"121.454256086","lat":"31.2164013272","category":"500","category_name":"未知分类","address":"徐汇区东湖路39号(近淮海中路)"},{"poiid":"B2094757D06FAAF84498","title":"The Monkey Lounge","lon":"121.454697132","lat":"31.2162284851","category":"172","category_name":"酒吧","address":"徐汇区东湖路56弄22号(近新乐路)"},{"poiid":"B2094750D26FA1FF439C","title":"小南国 东湖店","lon":"121.45339862107","lat":"31.21619616642","category":"76","category_name":"上海菜","address":"徐汇区东湖路9号地产大厦4楼(近淮海中路)"},{"poiid":"B2094757D568AAFF4199","title":"Southern Belle","lon":"121.454345","lat":"31.21859111","category":"260","category_name":"其他","address":"卢湾区长乐路433号(近襄阳北路)"},{"poiid":"B2094654D564AAFC439C","title":"小南国","lon":"121.45369","lat":"31.21626","category":"257","category_name":"中餐厅","address":"瑞金二路118号瑞金宾馆内2号楼近复兴中路"},{"poiid":"B2094757D069A6F8499A","title":"酒池星座(新乐路店)","lon":"121.45520224","lat":"31.217771601","category":"260","category_name":"其他","address":"徐汇区新乐路86号(近襄阳北路)"},{"poiid":"B2094654DA6DAAFA469A","title":"启华大厦","lon":"121.455","lat":"31.2171","category":"46","category_name":"楼宇","address":"闸北区江场西路38号(近共和新路)"},{"poiid":"B2094757DA69A3F9489C","title":"上海搜浩88酒吧","lon":"121.45276728836","lat":"31.217338350747","category":"172","category_name":"酒吧","address":"富民路291号悟锦世纪大楼2F"},{"poiid":"B2094757D16DA2F4469F","title":"莹七","lon":"121.454920738","lat":"31.2175930308","category":"247","category_name":"餐饮美食","address":"上海市静安区巨鹿路"},{"poiid":"B2094654D564AAFC429E","title":"上海地产大厦","lon":"121.45368","lat":"31.2161","category":"46","category_name":"楼宇","address":"西城区金融街A区3号地南部"},{"poiid":"B2094757D16EABF84299","title":"团市委","lon":"121.452710026","lat":"31.2175345227","category":"46","category_name":"楼宇","address":"上海东湖路17号"},{"poiid":"B2094750D76EA5FF429A","title":"五木铁板烧(东湖路店)","lon":"121.454","lat":"31.2156","category":"269","category_name":"烧烤","address":"徐汇区东湖路7号东湖宾馆2楼(近淮海中路)"},{"poiid":"B2094757D16DA6FF4498","title":"ICC环茂广场","lon":"121.455246738","lat":"31.2172880243","category":"500","category_name":"未知分类","address":"上海淮海中路999号"},{"poiid":"B2094757D168AAFA4092","title":"鸟巢","lon":"121.452849586","lat":"31.2169391711","category":"95","category_name":"日本料理","address":"徐汇区新乐路167号(东湖路口)"},{"poiid":"B2094654D564ABFD419D","title":"悠庭保健会所(东湖路)","lon":"121.45477","lat":"31.21615","category":"149","category_name":"洗浴推拿场所","address":"东湖路20"},{"poiid":"B2094757DB6CA4FC4793","title":"Brioche Dorée","lon":"121.4521496124225","lat":"31.21834106369002","category":"247","category_name":"餐饮美食","address":"徐汇区东湖路7号(近富民路)"},{"poiid":"B2094757D569A1FA499F","title":"白木屋居乐屋","lon":"121.4542556","lat":"31.21634277","category":"95","category_name":"日本料理","address":"东湖路30-2号2层"},{"poiid":"B2094655D268A6F5449B","title":"翠华餐厅 富民路店 Tsui Wah Restaurant","lon":"121.452124054","lat":"31.217478793","category":"72","category_name":"广东菜","address":"静安区富民路291号悟锦世纪大厦内(长乐路口)"},{"poiid":"B2094655D26AABFF429D","title":"食道园","lon":"121.453704054","lat":"31.218146793","category":"95","category_name":"日本料理","address":"卢湾区长乐路433号(近襄阳北路)"},{"poiid":"B2094655D26EA5F8409A","title":"保罗酒家","lon":"121.45205","lat":"31.21782","category":"257","category_name":"中餐厅","address":"静安区富民路271号(近长乐路)"},{"poiid":"B2094753D76FAAFA449C","title":"上海滩国泰旗舰店","lon":"121.466011","lat":"31.216125","category":"249","category_name":"购物服务","address":"淮海中路868号"},{"poiid":"B209475CD564A7F84292","title":"上海滩新天地店","lon":"121.47463","lat":"31.22164","category":"119","category_name":"商场","address":"\"太仓路181弄新天地北里15号\r\n\""},{"poiid":"B209475CD564A7F8439E","title":"上海滩中信泰富店","lon":"121.45602","lat":"31.22851","category":"119","category_name":"商场","address":"\"南京西路1168号中信泰富广场，店铺号221.\r\n\""},{"poiid":"B2094757D469A1F44499","title":"No.88酒吧 No.88 Bar","lon":"121.451729054","lat":"31.217383793","category":"172","category_name":"酒吧","address":"静安区富民路291号悟锦世纪大厦2楼(长乐路口)"},{"poiid":"B2094757D068A6FD499D","title":"Bistro Burger","lon":"121.45293","lat":"31.21705","category":"94","category_name":"西餐厅","address":"静安区富民路291号悟锦世纪大厦1楼(长乐路口)"},{"poiid":"B2094750D56EA5FF4299","title":"新斗记","lon":"121.454566","lat":"31.21754","category":"72","category_name":"广东菜","address":"徐汇区新乐路47号(近襄阳北路)"},{"poiid":"B2094757D06FA1F94598","title":"大江户","lon":"121.454611586","lat":"31.2162261571","category":"95","category_name":"日本料理","address":"徐汇区东湖路30号(近淮海中路)"},{"poiid":"B2094757D06FA0F54398","title":"CANTINA AGAVE 富民路店","lon":"121.452071054","lat":"31.217879793","category":"94","category_name":"西餐厅","address":"静安区富民路291号悟锦世纪大厦1楼01A-2室(长乐路口)"},{"poiid":"B2094757D06FA3FF489F","title":"白木屋居酒屋(东湖店)","lon":"121.45498","lat":"31.21597","category":"95","category_name":"日本料理","address":"徐汇区东湖路30号甲(近淮海中路)"},{"poiid":"B2094655D26AA1F5419C","title":"首席公馆","lon":"121.45526","lat":"31.21793","category":"247","category_name":"餐饮美食","address":"徐汇区新乐路82号(近襄阳北路)"},{"poiid":"B2094757D06FA3F8479E","title":"龙门阵茶屋川菜馆","lon":"121.45483","lat":"31.21587","category":"71","category_name":"四川菜","address":"徐汇区东湖路30号(近淮海中路)"},{"poiid":"B2094757D06FA1FC429C","title":"Wagas沃歌斯(东湖路店)","lon":"121.454116374","lat":"31.2161574382","category":"94","category_name":"西餐厅","address":"徐汇区东湖路7号(近淮海中路)"},{"poiid":"B2094757D06FA1FC469B","title":"Dolce Vita Italian","lon":"121.45246925","lat":"31.2171414317","category":"94","category_name":"西餐厅","address":"静安区富民路291号悟锦世纪大厦内(长乐路口)"},{"poiid":"B2094757D06FA0FB409F","title":"海之幸(新乐店)","lon":"121.45378","lat":"31.2167","category":"95","category_name":"日本料理","address":"徐汇区新乐路169号(近东湖路)"},{"poiid":"B2094757D06FA4FB449E","title":"新花城鲍鱼海鲜火锅","lon":"121.4546","lat":"31.2161","category":"86","category_name":"火锅店","address":"徐汇区东湖路58号(近淮海中路)"},{"poiid":"B2094654DB65A4FD469F","title":"上海东湖宾馆","lon":"121.4535","lat":"31.21684","category":"214","category_name":"四星级宾馆","address":"上海市徐汇区东湖路70号(主楼)，东湖路7号(副楼)(近新乐路)"},{"poiid":"B2094757D068A7FD4393","title":"Dakota","lon":"121.45416831","lat":"31.216473312","category":"94","category_name":"西餐厅","address":"徐汇区东湖路38号(近淮海中路)"},{"poiid":"B2094757D06FA1F44198","title":"博多新记(新乐路店)","lon":"121.45502","lat":"31.21728","category":"72","category_name":"广东菜","address":"徐汇区新乐路90号(近襄阳北路)"},{"poiid":"B2094757D068A2FD479B","title":"邮电医院","lon":"121.453616","lat":"31.218576733","category":"162","category_name":"医院","address":"上海徐汇区长乐路666号(近襄阳路)"},{"poiid":"B2094757D16BA7FB459C","title":"无敌呷拉面","lon":"121.454262793","lat":"31.2160521684","category":"95","category_name":"日本料理","address":"徐汇区东湖路7号东湖宾馆右侧(近淮海中路)"},{"poiid":"B2094757D068A2FD4299","title":"新乐路","lon":"121.45293426","lat":"31.216962814","category":"47","category_name":"住宅区","address":"上海新乐路"},{"poiid":"B2094757D06FA1FD429F","title":"狠牛独创牛肉面馆(富民路店)","lon":"121.45243","lat":"31.21706","category":"68","category_name":"快餐厅","address":"静安区富民路291号悟锦世纪大厦1楼3B(长乐路口)"},{"poiid":"B2094757D068A2FE439E","title":"红壮铁板烧","lon":"121.45338","lat":"31.21656","category":"269","category_name":"烧烤","address":"徐汇区东湖路70号(近淮海中路)"},{"poiid":"B2094757D06FA4FF459C","title":"南角亭热气涮羊肉","lon":"121.453073994","lat":"31.2180353639","category":"86","category_name":"火锅店","address":"徐汇区长乐路688号(近富民路)"},{"poiid":"B2094757D068A0F54292","title":"Mo'laksa","lon":"121.452731586","lat":"31.2169611715","category":"110","category_name":"其他亚洲菜","address":"上海长乐路208号(近东湖路)"},{"poiid":"B2094654D564ABF54893","title":"葡萄园(新乐路)","lon":"121.45533","lat":"31.21751","category":"76","category_name":"上海菜","address":"徐汇区新乐路55号(近襄阳北路)"},{"poiid":"B2094757D06FA6FB439F","title":"香啡缤(富民路店)","lon":"121.45256","lat":"31.21711","category":"260","category_name":"其他","address":"静安区富民路291号悟锦世纪大厦内(长乐路口)"},{"poiid":"B2094655D26EA6FD4293","title":"笑笑 SHIROKIYA & WARAWARA","lon":"121.45487043308","lat":"31.21617261741","category":"95","category_name":"日本料理","address":"徐汇区东湖路30号乙(近淮海中路)"},{"poiid":"B2094751DB6CA4FD469E","title":"Vino Tapas","lon":"121.45196","lat":"31.21775","category":"247","category_name":"餐饮美食","address":"卢湾区富民路259号(近长乐路)"},{"poiid":"B2094752D66AABF84698","title":"豆苗工坊","lon":"121.452897","lat":"31.216913","category":"247","category_name":"餐饮美食","address":"新乐路 东湖路"},{"poiid":"B2094757D065AAF54292","title":"上海东方大班","lon":"121.454256086","lat":"31.2164013272","category":"500","category_name":"未知分类","address":"徐汇区东湖路39号(近淮海中路)"},{"poiid":"B2094757D06FAAF84498","title":"The Monkey Lounge","lon":"121.454697132","lat":"31.2162284851","category":"172","category_name":"酒吧","address":"徐汇区东湖路56弄22号(近新乐路)"},{"poiid":"B2094750D26FA1FF439C","title":"小南国 东湖店","lon":"121.45339862107","lat":"31.21619616642","category":"76","category_name":"上海菜","address":"徐汇区东湖路9号地产大厦4楼(近淮海中路)"},{"poiid":"B2094757D568AAFF4199","title":"Southern Belle","lon":"121.454345","lat":"31.21859111","category":"260","category_name":"其他","address":"卢湾区长乐路433号(近襄阳北路)"},{"poiid":"B2094654D564AAFC439C","title":"小南国","lon":"121.45369","lat":"31.21626","category":"257","category_name":"中餐厅","address":"瑞金二路118号瑞金宾馆内2号楼近复兴中路"},{"poiid":"B2094757D069A6F8499A","title":"酒池星座(新乐路店)","lon":"121.45520224","lat":"31.217771601","category":"260","category_name":"其他","address":"徐汇区新乐路86号(近襄阳北路)"},{"poiid":"B2094654DA6DAAFA469A","title":"启华大厦","lon":"121.455","lat":"31.2171","category":"46","category_name":"楼宇","address":"闸北区江场西路38号(近共和新路)"},{"poiid":"B2094757DA69A3F9489C","title":"上海搜浩88酒吧","lon":"121.45276728836","lat":"31.217338350747","category":"172","category_name":"酒吧","address":"富民路291号悟锦世纪大楼2F"},{"poiid":"B2094757D16DA2F4469F","title":"莹七","lon":"121.454920738","lat":"31.2175930308","category":"247","category_name":"餐饮美食","address":"上海市静安区巨鹿路"},{"poiid":"B2094654D564AAFC429E","title":"上海地产大厦","lon":"121.45368","lat":"31.2161","category":"46","category_name":"楼宇","address":"西城区金融街A区3号地南部"},{"poiid":"B2094757D16EABF84299","title":"团市委","lon":"121.452710026","lat":"31.2175345227","category":"46","category_name":"楼宇","address":"上海东湖路17号"},{"poiid":"B2094750D76EA5FF429A","title":"五木铁板烧(东湖路店)","lon":"121.454","lat":"31.2156","category":"269","category_name":"烧烤","address":"徐汇区东湖路7号东湖宾馆2楼(近淮海中路)"},{"poiid":"B2094757D16DA6FF4498","title":"ICC环茂广场","lon":"121.455246738","lat":"31.2172880243","category":"500","category_name":"未知分类","address":"上海淮海中路999号"},{"poiid":"B2094757D168AAFA4092","title":"鸟巢","lon":"121.452849586","lat":"31.2169391711","category":"95","category_name":"日本料理","address":"徐汇区新乐路167号(东湖路口)"},{"poiid":"B2094654D564ABFD419D","title":"悠庭保健会所(东湖路)","lon":"121.45477","lat":"31.21615","category":"149","category_name":"洗浴推拿场所","address":"东湖路20"},{"poiid":"B2094757DB6CA4FC4793","title":"Brioche Dorée","lon":"121.4521496124225","lat":"31.21834106369002","category":"247","category_name":"餐饮美食","address":"徐汇区东湖路7号(近富民路)"},{"poiid":"B2094757D569A1FA499F","title":"白木屋居乐屋","lon":"121.4542556","lat":"31.21634277","category":"95","category_name":"日本料理","address":"东湖路30-2号2层"}]