[{"poiid":"B2094757DB6CA4FC4193","title":"第九人民医院","lon":"121.4792263494245","lat":"31.20129269183132","category":"162","category_name":"医院","address":"黄浦区制造局路639号(近瞿溪路)"},{"poiid":"B2094757DB6CA5F4419B","title":"mr.x迷之城堡","lon":"121.477599","lat":"31.203324","category":"248","category_name":"生活娱乐","address":"局门路550号1号楼"},{"poiid":"B2094757D66CA7F9419C","title":"日月光中心(Happy young)","lon":"121.476897738","lat":"31.2022637043","category":"500","category_name":"未知分类","address":"上海徐家汇路618号3楼"},{"poiid":"B2094753D76FAAFA449C","title":"上海滩国泰旗舰店","lon":"121.466011","lat":"31.216125","category":"249","category_name":"购物服务","address":"淮海中路868号"},{"poiid":"B209475CD564A7F84292","title":"上海滩新天地店","lon":"121.47463","lat":"31.22164","category":"119","category_name":"商场","address":"\"太仓路181弄新天地北里15号\r\n\""},{"poiid":"B2094757D06AABF4449A","title":"八号桥二期","lon":"121.481905738","lat":"31.2032977264","category":"47","category_name":"住宅区","address":"上海局门路436号"},{"poiid":"B2094654DB69A5FF459D","title":"如家酒店(蒙自路店)","lon":"121.47921","lat":"31.20307","category":"216","category_name":"经济型连锁酒店","address":"卢湾区蒙自路379号"},{"poiid":"B2094655D268A2FD4899","title":"蒙自路395弄小区","lon":"121.47956","lat":"31.20256","category":"47","category_name":"住宅区","address":"蒙自路395弄1-8号"},{"poiid":"B2094751D26CAAFB499C","title":"粒子咖啡","lon":"121.479553","lat":"31.204935","category":"247","category_name":"餐饮美食","address":"卢湾区蒙自东路63号(近马当路地铁站3号口)"},{"poiid":"B2094757D16BA4FD449B","title":"五里桥路小区","lon":"121.479136738","lat":"31.2034627299","category":"47","category_name":"住宅区","address":"上海五里桥路269弄"},{"poiid":"B2094654DA68A6FF419A","title":"鼎达公寓","lon":"121.47961","lat":"31.202112","category":"47","category_name":"住宅区","address":"蒙自路481弄1-13号"},{"poiid":"B2094757D068A7FA429E","title":"海阔天空浴场","lon":"121.48222","lat":"31.20214","category":"149","category_name":"洗浴推拿场所","address":"卢湾区局门路457号(近瞿溪路)"},{"poiid":"B2094654DB69A7FF479E","title":"上海永业中学","lon":"121.47938","lat":"31.20228","category":"55","category_name":"中学","address":"卢湾区蒙自路395弄9号"},{"poiid":"B2094654DB65A1FC4498","title":"上海市民政第三精神病院(分部)","lon":"121.47792","lat":"31.20274","category":"162","category_name":"医院","address":"卢湾区斜土路486弄"},{"poiid":"B2094654DA68A6FE459F","title":"克莉丝汀饼屋No.299","lon":"121.47972","lat":"31.20143","category":"112","category_name":"糕饼店","address":"卢湾区蒙自路499号"},{"poiid":"B2094655D268A4F8489A","title":"鼎达公寓(西门)","lon":"121.47945","lat":"31.20181","category":"47","category_name":"住宅区","address":"蒙自路481弄1-13号"},{"poiid":"B2094654DA68A6FF419B","title":"德福苑","lon":"121.48016","lat":"31.201265","category":"47","category_name":"住宅区","address":"上海市卢湾区蒙自路501弄"},{"poiid":"B2094757D568A4FA4398","title":"蒙自新村蛋饼摊","lon":"121.4796139","lat":"31.201045","category":"247","category_name":"餐饮美食","address":"卢湾区蒙自路490弄蒙自新村后门(瞿溪路口)"},{"poiid":"B2094655D268A5FF479A","title":"蒙自路440弄小区","lon":"121.47882","lat":"31.20217","category":"47","category_name":"住宅区","address":"蒙自路440弄4-9号"},{"poiid":"B2094655D268A2FD489E","title":"蒙自路395弄小区(西门)","lon":"121.47926","lat":"31.2026","category":"47","category_name":"住宅区","address":"蒙自路395弄1-8号"},{"poiid":"B2094757D16EA6FB4493","title":"龙建大酒店","lon":"121.477746738","lat":"31.2033497275","category":"76","category_name":"上海菜","address":"卢湾区斜土路456号1楼(近蒙自路)"},{"poiid":"B2094757D064A0FE479A","title":"蒙自新村","lon":"121.4791327","lat":"31.201327224","category":"252","category_name":"楼宇机构","address":"上海卢湾区蒙自路490弄"},{"poiid":"B2094655D26AA6FD499D","title":"豫申园城隍庙小吃世界 蒙自店","lon":"121.47885","lat":"31.2035","category":"68","category_name":"快餐厅","address":"卢湾区蒙自路358号(近斜土路)"},{"poiid":"B2094654DA6DA4F94893","title":"龙华小区","lon":"121.48","lat":"31.2016","category":"47","category_name":"住宅区","address":"中山南一路1012弄1-10号"},{"poiid":"B2094655D268A5FF479B","title":"蒙自路440弄小区(东门)","lon":"121.47901","lat":"31.20227","category":"47","category_name":"住宅区","address":"蒙自路440弄4-9号"},{"poiid":"B2094654DA68A6FD409E","title":"鹏福面馆","lon":"121.477944054","lat":"31.204142793","category":"257","category_name":"中餐厅","address":"卢湾区斜土路332号(近蒙自路)"},{"poiid":"B2094654DA68A6FE459E","title":"上海卢湾区五爱幼稚园","lon":"121.47914","lat":"31.20168","category":"57","category_name":"幼儿园","address":"蒙自路460"},{"poiid":"B2094757D16BA4FA489A","title":"卢湾区中学劳动技术教育中心","lon":"121.479553","lat":"31.202495","category":"500","category_name":"未知分类","address":"上海蒙自路395弄9号"},{"poiid":"B2094655D26EA5FE409A","title":"美臣小厨","lon":"121.47915","lat":"31.203","category":"257","category_name":"中餐厅","address":"蒙自路379号近斜土路"},{"poiid":"B2094654DA68A6FE4992","title":"爱心公寓","lon":"121.47836","lat":"31.202185","category":"47","category_name":"住宅区","address":"蒙自路440弄"},{"poiid":"B2094757D069A3F5459F","title":"PY Salon(日月光广场店)","lon":"121.481814","lat":"31.200765","category":"148","category_name":"美容美发店","address":"卢湾区徐家汇路618号日月光中心广场B2楼(近瑞金二路)"},{"poiid":"B2094757D16AAAFD449E","title":"朱鸿兴面馆","lon":"121.47908873","lat":"31.20302472","category":"247","category_name":"餐饮美食","address":"上海市卢湾区鲁班路193号"},{"poiid":"B2094655D268A7F8449A","title":"中山南一路1043弄小区","lon":"121.47944283307","lat":"31.201483104234","category":"47","category_name":"住宅区","address":"中山南一路1043弄1-6号"},{"poiid":"B2094655D268A5FF4693","title":"蒙自路430弄小区(南门)","lon":"121.47873","lat":"31.20257","category":"47","category_name":"住宅区","address":"蒙自路430弄32-34号"},{"poiid":"B2094757D16EA4FD429D","title":"蒙自路380弄","lon":"121.478702549","lat":"31.2030216829","category":"47","category_name":"住宅区","address":"上海蒙自路380弄"},{"poiid":"B2094655D268A5FF4692","title":"蒙自路430弄小区","lon":"121.47865","lat":"31.20264","category":"47","category_name":"住宅区","address":"蒙自路430弄32-34号"},{"poiid":"B2094757D16CA1F9439B","title":"Bill飚记面铺","lon":"121.48275","lat":"31.20143","category":"68","category_name":"快餐厅","address":"卢湾区局门路541号(近瞿溪路)"},{"poiid":"B2094752D06BA7FA4993","title":"麦当劳（瞿溪路店）","lon":"121.478764","lat":"31.202028","category":"247","category_name":"餐饮美食","address":"瞿溪路691号"},{"poiid":"B2094654DA68A6FD489B","title":"大众家园","lon":"121.48105","lat":"31.20177","category":"47","category_name":"住宅区","address":"大众家园(现房)位于卢湾瞿溪路805号"},{"poiid":"B2094654DA68A6FE469B","title":"肖氏足浴(蒙自路)","lon":"121.47953","lat":"31.20171","category":"149","category_name":"洗浴推拿场所","address":"卢湾区蒙自路483号(瞿溪路口)"},{"poiid":"B2094655D26BA1F94999","title":"蒙自路中山南一路","lon":"121.48027","lat":"31.20013","category":"38","category_name":"公交车站","address":""},{"poiid":"B2094750D56FABF4469E","title":"龙","lon":"121.479","lat":"31.2012","category":"95","category_name":"日本料理","address":"卢湾区斜土路688号华美达大酒店2楼"},{"poiid":"B2094655D26FAAFE4698","title":"爱心公寓(北门)","lon":"121.47846","lat":"31.20228","category":"47","category_name":"住宅区","address":""},{"poiid":"B2094757D16AA2FF4899","title":"符家大院","lon":"121.47903373","lat":"31.202475708","category":"500","category_name":"未知分类","address":"上海市卢湾区南北高架路"},{"poiid":"B2094654DA68A6FF4599","title":"瓦汤寨蒙自店","lon":"121.47882","lat":"31.20393","category":"68","category_name":"快餐厅","address":"卢湾区蒙自路345弄(近斜土路)"},{"poiid":"B2094757D16CAAFA479F","title":"乐屋居酒屋","lon":"121.480327601","lat":"31.201168201","category":"247","category_name":"餐饮美食","address":"上海燎申国际中心（乐虹坊2楼）"},{"poiid":"B2094654DA68A6FE469A","title":"米高(蒙自路)","lon":"121.47955","lat":"31.20168","category":"175","category_name":"棋牌室","address":""},{"poiid":"B2094654DA68A7F5469A","title":"中国移动斜土路营业厅","lon":"121.47796","lat":"31.20435","category":"151","category_name":"电讯营业厅","address":"徐汇区斜土路433号"},{"poiid":"B2094654DA68A6FE4293","title":"克丽缇娜国际专业美容护肤中心蒙自店","lon":"121.48008","lat":"31.20085","category":"148","category_name":"美容美发店","address":"蒙自路509识别"},{"poiid":"B2094757D069A7FC4193","title":"阿三烤鸭丰盛酒家","lon":"121.4805979","lat":"31.200152402","category":"68","category_name":"快餐厅","address":"卢湾区局门路521号(瞿溪路口)"},{"poiid":"B2094757DB6CA4FC4193","title":"第九人民医院","lon":"121.4792263494245","lat":"31.20129269183132","category":"162","category_name":"医院","address":"黄浦区制造局路639号(近瞿溪路)"},{"poiid":"B2094757DB6CA5F4419B","title":"mr.x迷之城堡","lon":"121.477599","lat":"31.203324","category":"248","category_name":"生活娱乐","address":"局门路550号1号楼"},{"poiid":"B2094757D66CA7F9419C","title":"日月光中心(Happy young)","lon":"121.476897738","lat":"31.2022637043","category":"500","category_name":"未知分类","address":"上海徐家汇路618号3楼"},{"poiid":"B2094753D76FAAFA449C","title":"上海滩国泰旗舰店","lon":"121.466011","lat":"31.216125","category":"249","category_name":"购物服务","address":"淮海中路868号"},{"poiid":"B209475CD564A7F84292","title":"上海滩新天地店","lon":"121.47463","lat":"31.22164","category":"119","category_name":"商场","address":"\"太仓路181弄新天地北里15号\r\n\""},{"poiid":"B2094757D06AABF4449A","title":"八号桥二期","lon":"121.481905738","lat":"31.2032977264","category":"47","category_name":"住宅区","address":"上海局门路436号"},{"poiid":"B2094654DB69A5FF459D","title":"如家酒店(蒙自路店)","lon":"121.47921","lat":"31.20307","category":"216","category_name":"经济型连锁酒店","address":"卢湾区蒙自路379号"},{"poiid":"B2094655D268A2FD4899","title":"蒙自路395弄小区","lon":"121.47956","lat":"31.20256","category":"47","category_name":"住宅区","address":"蒙自路395弄1-8号"},{"poiid":"B2094751D26CAAFB499C","title":"粒子咖啡","lon":"121.479553","lat":"31.204935","category":"247","category_name":"餐饮美食","address":"卢湾区蒙自东路63号(近马当路地铁站3号口)"},{"poiid":"B2094757D16BA4FD449B","title":"五里桥路小区","lon":"121.479136738","lat":"31.2034627299","category":"47","category_name":"住宅区","address":"上海五里桥路269弄"},{"poiid":"B2094654DA68A6FF419A","title":"鼎达公寓","lon":"121.47961","lat":"31.202112","category":"47","category_name":"住宅区","address":"蒙自路481弄1-13号"},{"poiid":"B2094757D068A7FA429E","title":"海阔天空浴场","lon":"121.48222","lat":"31.20214","category":"149","category_name":"洗浴推拿场所","address":"卢湾区局门路457号(近瞿溪路)"},{"poiid":"B2094654DB69A7FF479E","title":"上海永业中学","lon":"121.47938","lat":"31.20228","category":"55","category_name":"中学","address":"卢湾区蒙自路395弄9号"},{"poiid":"B2094654DB65A1FC4498","title":"上海市民政第三精神病院(分部)","lon":"121.47792","lat":"31.20274","category":"162","category_name":"医院","address":"卢湾区斜土路486弄"},{"poiid":"B2094654DA68A6FE459F","title":"克莉丝汀饼屋No.299","lon":"121.47972","lat":"31.20143","category":"112","category_name":"糕饼店","address":"卢湾区蒙自路499号"},{"poiid":"B2094655D268A4F8489A","title":"鼎达公寓(西门)","lon":"121.47945","lat":"31.20181","category":"47","category_name":"住宅区","address":"蒙自路481弄1-13号"},{"poiid":"B2094654DA68A6FF419B","title":"德福苑","lon":"121.48016","lat":"31.201265","category":"47","category_name":"住宅区","address":"上海市卢湾区蒙自路501弄"},{"poiid":"B2094757D568A4FA4398","title":"蒙自新村蛋饼摊","lon":"121.4796139","lat":"31.201045","category":"247","category_name":"餐饮美食","address":"卢湾区蒙自路490弄蒙自新村后门(瞿溪路口)"},{"poiid":"B2094655D268A5FF479A","title":"蒙自路440弄小区","lon":"121.47882","lat":"31.20217","category":"47","category_name":"住宅区","address":"蒙自路440弄4-9号"},{"poiid":"B2094655D268A2FD489E","title":"蒙自路395弄小区(西门)","lon":"121.47926","lat":"31.2026","category":"47","category_name":"住宅区","address":"蒙自路395弄1-8号"},{"poiid":"B2094757D16EA6FB4493","title":"龙建大酒店","lon":"121.477746738","lat":"31.2033497275","category":"76","category_name":"上海菜","address":"卢湾区斜土路456号1楼(近蒙自路)"},{"poiid":"B2094757D064A0FE479A","title":"蒙自新村","lon":"121.4791327","lat":"31.201327224","category":"252","category_name":"楼宇机构","address":"上海卢湾区蒙自路490弄"},{"poiid":"B2094655D26AA6FD499D","title":"豫申园城隍庙小吃世界 蒙自店","lon":"121.47885","lat":"31.2035","category":"68","category_name":"快餐厅","address":"卢湾区蒙自路358号(近斜土路)"},{"poiid":"B2094654DA6DA4F94893","title":"龙华小区","lon":"121.48","lat":"31.2016","category":"47","category_name":"住宅区","address":"中山南一路1012弄1-10号"},{"poiid":"B2094655D268A5FF479B","title":"蒙自路440弄小区(东门)","lon":"121.47901","lat":"31.20227","category":"47","category_name":"住宅区","address":"蒙自路440弄4-9号"},{"poiid":"B2094654DA68A6FD409E","title":"鹏福面馆","lon":"121.477944054","lat":"31.204142793","category":"257","category_name":"中餐厅","address":"卢湾区斜土路332号(近蒙自路)"},{"poiid":"B2094654DA68A6FE459E","title":"上海卢湾区五爱幼稚园","lon":"121.47914","lat":"31.20168","category":"57","category_name":"幼儿园","address":"蒙自路460"},{"poiid":"B2094757D16BA4FA489A","title":"卢湾区中学劳动技术教育中心","lon":"121.479553","lat":"31.202495","category":"500","category_name":"未知分类","address":"上海蒙自路395弄9号"},{"poiid":"B2094655D26EA5FE409A","title":"美臣小厨","lon":"121.47915","lat":"31.203","category":"257","category_name":"中餐厅","address":"蒙自路379号近斜土路"},{"poiid":"B2094654DA68A6FE4992","title":"爱心公寓","lon":"121.47836","lat":"31.202185","category":"47","category_name":"住宅区","address":"蒙自路440弄"},{"poiid":"B2094757D069A3F5459F","title":"PY Salon(日月光广场店)","lon":"121.481814","lat":"31.200765","category":"148","category_name":"美容美发店","address":"卢湾区徐家汇路618号日月光中心广场B2楼(近瑞金二路)"},{"poiid":"B2094757D16AAAFD449E","title":"朱鸿兴面馆","lon":"121.47908873","lat":"31.20302472","category":"247","category_name":"餐饮美食","address":"上海市卢湾区鲁班路193号"},{"poiid":"B2094655D268A7F8449A","title":"中山南一路1043弄小区","lon":"121.47944283307","lat":"31.201483104234","category":"47","category_name":"住宅区","address":"中山南一路1043弄1-6号"},{"poiid":"B2094655D268A5FF4693","title":"蒙自路430弄小区(南门)","lon":"121.47873","lat":"31.20257","category":"47","category_name":"住宅区","address":"蒙自路430弄32-34号"},{"poiid":"B2094757D16EA4FD429D","title":"蒙自路380弄","lon":"121.478702549","lat":"31.2030216829","category":"47","category_name":"住宅区","address":"上海蒙自路380弄"},{"poiid":"B2094655D268A5FF4692","title":"蒙自路430弄小区","lon":"121.47865","lat":"31.20264","category":"47","category_name":"住宅区","address":"蒙自路430弄32-34号"},{"poiid":"B2094757D16CA1F9439B","title":"Bill飚记面铺","lon":"121.48275","lat":"31.20143","category":"68","category_name":"快餐厅","address":"卢湾区局门路541号(近瞿溪路)"},{"poiid":"B2094752D06BA7FA4993","title":"麦当劳（瞿溪路店）","lon":"121.478764","lat":"31.202028","category":"247","category_name":"餐饮美食","address":"瞿溪路691号"},{"poiid":"B2094654DA68A6FD489B","title":"大众家园","lon":"121.48105","lat":"31.20177","category":"47","category_name":"住宅区","address":"大众家园(现房)位于卢湾瞿溪路805号"},{"poiid":"B2094654DA68A6FE469B","title":"肖氏足浴(蒙自路)","lon":"121.47953","lat":"31.20171","category":"149","category_name":"洗浴推拿场所","address":"卢湾区蒙自路483号(瞿溪路口)"},{"poiid":"B2094655D26BA1F94999","title":"蒙自路中山南一路","lon":"121.48027","lat":"31.20013","category":"38","category_name":"公交车站","address":""},{"poiid":"B2094750D56FABF4469E","title":"龙","lon":"121.479","lat":"31.2012","category":"95","category_name":"日本料理","address":"卢湾区斜土路688号华美达大酒店2楼"},{"poiid":"B2094655D26FAAFE4698","title":"爱心公寓(北门)","lon":"121.47846","lat":"31.20228","category":"47","category_name":"住宅区","address":""},{"poiid":"B2094757D16AA2FF4899","title":"符家大院","lon":"121.47903373","lat":"31.202475708","category":"500","category_name":"未知分类","address":"上海市卢湾区南北高架路"},{"poiid":"B2094654DA68A6FF4599","title":"瓦汤寨蒙自店","lon":"121.47882","lat":"31.20393","category":"68","category_name":"快餐厅","address":"卢湾区蒙自路345弄(近斜土路)"},{"poiid":"B2094757D16CAAFA479F","title":"乐屋居酒屋","lon":"121.480327601","lat":"31.201168201","category":"247","category_name":"餐饮美食","address":"上海燎申国际中心（乐虹坊2楼）"},{"poiid":"B2094654DA68A6FE469A","title":"米高(蒙自路)","lon":"121.47955","lat":"31.20168","category":"175","category_name":"棋牌室","address":""},{"poiid":"B2094654DA68A7F5469A","title":"中国移动斜土路营业厅","lon":"121.47796","lat":"31.20435","category":"151","category_name":"电讯营业厅","address":"徐汇区斜土路433号"},{"poiid":"B2094654DA68A6FE4293","title":"克丽缇娜国际专业美容护肤中心蒙自店","lon":"121.48008","lat":"31.20085","category":"148","category_name":"美容美发店","address":"蒙自路509识别"},{"poiid":"B2094757D069A7FC4193","title":"阿三烤鸭丰盛酒家","lon":"121.4805979","lat":"31.200152402","category":"68","category_name":"快餐厅","address":"卢湾区局门路521号(瞿溪路口)"},{"poiid":"B2094757DB6CA4FC4193","title":"第九人民医院","lon":"121.4792263494245","lat":"31.20129269183132","category":"162","category_name":"医院","address":"黄浦区制造局路639号(近瞿溪路)"},{"poiid":"B2094757DB6CA5F4419B","title":"mr.x迷之城堡","lon":"121.477599","lat":"31.203324","category":"248","category_name":"生活娱乐","address":"局门路550号1号楼"},{"poiid":"B2094757D66CA7F9419C","title":"日月光中心(Happy young)","lon":"121.476897738","lat":"31.2022637043","category":"500","category_name":"未知分类","address":"上海徐家汇路618号3楼"},{"poiid":"B2094753D76FAAFA449C","title":"上海滩国泰旗舰店","lon":"121.466011","lat":"31.216125","category":"249","category_name":"购物服务","address":"淮海中路868号"},{"poiid":"B209475CD564A7F84292","title":"上海滩新天地店","lon":"121.47463","lat":"31.22164","category":"119","category_name":"商场","address":"\"太仓路181弄新天地北里15号\r\n\""},{"poiid":"B2094757D06AABF4449A","title":"八号桥二期","lon":"121.481905738","lat":"31.2032977264","category":"47","category_name":"住宅区","address":"上海局门路436号"},{"poiid":"B2094654DB69A5FF459D","title":"如家酒店(蒙自路店)","lon":"121.47921","lat":"31.20307","category":"216","category_name":"经济型连锁酒店","address":"卢湾区蒙自路379号"},{"poiid":"B2094655D268A2FD4899","title":"蒙自路395弄小区","lon":"121.47956","lat":"31.20256","category":"47","category_name":"住宅区","address":"蒙自路395弄1-8号"},{"poiid":"B2094751D26CAAFB499C","title":"粒子咖啡","lon":"121.479553","lat":"31.204935","category":"247","category_name":"餐饮美食","address":"卢湾区蒙自东路63号(近马当路地铁站3号口)"},{"poiid":"B2094757D16BA4FD449B","title":"五里桥路小区","lon":"121.479136738","lat":"31.2034627299","category":"47","category_name":"住宅区","address":"上海五里桥路269弄"},{"poiid":"B2094654DA68A6FF419A","title":"鼎达公寓","lon":"121.47961","lat":"31.202112","category":"47","category_name":"住宅区","address":"蒙自路481弄1-13号"},{"poiid":"B2094757D068A7FA429E","title":"海阔天空浴场","lon":"121.48222","lat":"31.20214","category":"149","category_name":"洗浴推拿场所","address":"卢湾区局门路457号(近瞿溪路)"},{"poiid":"B2094654DB69A7FF479E","title":"上海永业中学","lon":"121.47938","lat":"31.20228","category":"55","category_name":"中学","address":"卢湾区蒙自路395弄9号"},{"poiid":"B2094654DB65A1FC4498","title":"上海市民政第三精神病院(分部)","lon":"121.47792","lat":"31.20274","category":"162","category_name":"医院","address":"卢湾区斜土路486弄"},{"poiid":"B2094654DA68A6FE459F","title":"克莉丝汀饼屋No.299","lon":"121.47972","lat":"31.20143","category":"112","category_name":"糕饼店","address":"卢湾区蒙自路499号"},{"poiid":"B2094655D268A4F8489A","title":"鼎达公寓(西门)","lon":"121.47945","lat":"31.20181","category":"47","category_name":"住宅区","address":"蒙自路481弄1-13号"},{"poiid":"B2094654DA68A6FF419B","title":"德福苑","lon":"121.48016","lat":"31.201265","category":"47","category_name":"住宅区","address":"上海市卢湾区蒙自路501弄"},{"poiid":"B2094757D568A4FA4398","title":"蒙自新村蛋饼摊","lon":"121.4796139","lat":"31.201045","category":"247","category_name":"餐饮美食","address":"卢湾区蒙自路490弄蒙自新村后门(瞿溪路口)"},{"poiid":"B2094655D268A5FF479A","title":"蒙自路440弄小区","lon":"121.47882","lat":"31.20217","category":"47","category_name":"住宅区","address":"蒙自路440弄4-9号"},{"poiid":"B2094655D268A2FD489E","title":"蒙自路395弄小区(西门)","lon":"121.47926","lat":"31.2026","category":"47","category_name":"住宅区","address":"蒙自路395弄1-8号"},{"poiid":"B2094757D16EA6FB4493","title":"龙建大酒店","lon":"121.477746738","lat":"31.2033497275","category":"76","category_name":"上海菜","address":"卢湾区斜土路456号1楼(近蒙自路)"},{"poiid":"B2094757D064A0FE479A","title":"蒙自新村","lon":"121.4791327","lat":"31.201327224","category":"252","category_name":"楼宇机构","address":"上海卢湾区蒙自路490弄"},{"poiid":"B2094655D26AA6FD499D","title":"豫申园城隍庙小吃世界 蒙自店","lon":"121.47885","lat":"31.2035","category":"68","category_name":"快餐厅","address":"卢湾区蒙自路358号(近斜土路)"},{"poiid":"B2094654DA6DA4F94893","title":"龙华小区","lon":"121.48","lat":"31.2016","category":"47","category_name":"住宅区","address":"中山南一路1012弄1-10号"},{"poiid":"B2094655D268A5FF479B","title":"蒙自路440弄小区(东门)","lon":"121.47901","lat":"31.20227","category":"47","category_name":"住宅区","address":"蒙自路440弄4-9号"},{"poiid":"B2094654DA68A6FD409E","title":"鹏福面馆","lon":"121.477944054","lat":"31.204142793","category":"257","category_name":"中餐厅","address":"卢湾区斜土路332号(近蒙自路)"},{"poiid":"B2094654DA68A6FE459E","title":"上海卢湾区五爱幼稚园","lon":"121.47914","lat":"31.20168","category":"57","category_name":"幼儿园","address":"蒙自路460"},{"poiid":"B2094757D16BA4FA489A","title":"卢湾区中学劳动技术教育中心","lon":"121.479553","lat":"31.202495","category":"500","category_name":"未知分类","address":"上海蒙自路395弄9号"},{"poiid":"B2094655D26EA5FE409A","title":"美臣小厨","lon":"121.47915","lat":"31.203","category":"257","category_name":"中餐厅","address":"蒙自路379号近斜土路"},{"poiid":"B2094654DA68A6FE4992","title":"爱心公寓","lon":"121.47836","lat":"31.202185","category":"47","category_name":"住宅区","address":"蒙自路440弄"},{"poiid":"B2094757D069A3F5459F","title":"PY Salon(日月光广场店)","lon":"121.481814","lat":"31.200765","category":"148","category_name":"美容美发店","address":"卢湾区徐家汇路618号日月光中心广场B2楼(近瑞金二路)"},{"poiid":"B2094757D16AAAFD449E","title":"朱鸿兴面馆","lon":"121.47908873","lat":"31.20302472","category":"247","category_name":"餐饮美食","address":"上海市卢湾区鲁班路193号"},{"poiid":"B2094655D268A7F8449A","title":"中山南一路1043弄小区","lon":"121.47944283307","lat":"31.201483104234","category":"47","category_name":"住宅区","address":"中山南一路1043弄1-6号"},{"poiid":"B2094655D268A5FF4693","title":"蒙自路430弄小区(南门)","lon":"121.47873","lat":"31.20257","category":"47","category_name":"住宅区","address":"蒙自路430弄32-34号"},{"poiid":"B2094757D16EA4FD429D","title":"蒙自路380弄","lon":"121.478702549","lat":"31.2030216829","category":"47","category_name":"住宅区","address":"上海蒙自路380弄"},{"poiid":"B2094655D268A5FF4692","title":"蒙自路430弄小区","lon":"121.47865","lat":"31.20264","category":"47","category_name":"住宅区","address":"蒙自路430弄32-34号"},{"poiid":"B2094757D16CA1F9439B","title":"Bill飚记面铺","lon":"121.48275","lat":"31.20143","category":"68","category_name":"快餐厅","address":"卢湾区局门路541号(近瞿溪路)"},{"poiid":"B2094752D06BA7FA4993","title":"麦当劳（瞿溪路店）","lon":"121.478764","lat":"31.202028","category":"247","category_name":"餐饮美食","address":"瞿溪路691号"},{"poiid":"B2094654DA68A6FD489B","title":"大众家园","lon":"121.48105","lat":"31.20177","category":"47","category_name":"住宅区","address":"大众家园(现房)位于卢湾瞿溪路805号"},{"poiid":"B2094654DA68A6FE469B","title":"肖氏足浴(蒙自路)","lon":"121.47953","lat":"31.20171","category":"149","category_name":"洗浴推拿场所","address":"卢湾区蒙自路483号(瞿溪路口)"},{"poiid":"B2094655D26BA1F94999","title":"蒙自路中山南一路","lon":"121.48027","lat":"31.20013","category":"38","category_name":"公交车站","address":""},{"poiid":"B2094750D56FABF4469E","title":"龙","lon":"121.479","lat":"31.2012","category":"95","category_name":"日本料理","address":"卢湾区斜土路688号华美达大酒店2楼"},{"poiid":"B2094655D26FAAFE4698","title":"爱心公寓(北门)","lon":"121.47846","lat":"31.20228","category":"47","category_name":"住宅区","address":""},{"poiid":"B2094757D16AA2FF4899","title":"符家大院","lon":"121.47903373","lat":"31.202475708","category":"500","category_name":"未知分类","address":"上海市卢湾区南北高架路"},{"poiid":"B2094654DA68A6FF4599","title":"瓦汤寨蒙自店","lon":"121.47882","lat":"31.20393","category":"68","category_name":"快餐厅","address":"卢湾区蒙自路345弄(近斜土路)"},{"poiid":"B2094757D16CAAFA479F","title":"乐屋居酒屋","lon":"121.480327601","lat":"31.201168201","category":"247","category_name":"餐饮美食","address":"上海燎申国际中心（乐虹坊2楼）"},{"poiid":"B2094654DA68A6FE469A","title":"米高(蒙自路)","lon":"121.47955","lat":"31.20168","category":"175","category_name":"棋牌室","address":""},{"poiid":"B2094654DA68A7F5469A","title":"中国移动斜土路营业厅","lon":"121.47796","lat":"31.20435","category":"151","category_name":"电讯营业厅","address":"徐汇区斜土路433号"},{"poiid":"B2094654DA68A6FE4293","title":"克丽缇娜国际专业美容护肤中心蒙自店","lon":"121.48008","lat":"31.20085","category":"148","category_name":"美容美发店","address":"蒙自路509识别"},{"poiid":"B2094757D069A7FC4193","title":"阿三烤鸭丰盛酒家","lon":"121.4805979","lat":"31.200152402","category":"68","category_name":"快餐厅","address":"卢湾区局门路521号(瞿溪路口)"},{"poiid":"B2094757DB6CA4FC4193","title":"第九人民医院","lon":"121.4792263494245","lat":"31.20129269183132","category":"162","category_name":"医院","address":"黄浦区制造局路639号(近瞿溪路)"},{"poiid":"B2094757DB6CA5F4419B","title":"mr.x迷之城堡","lon":"121.477599","lat":"31.203324","category":"248","category_name":"生活娱乐","address":"局门路550号1号楼"},{"poiid":"B2094757D66CA7F9419C","title":"日月光中心(Happy young)","lon":"121.476897738","lat":"31.2022637043","category":"500","category_name":"未知分类","address":"上海徐家汇路618号3楼"},{"poiid":"B2094753D76FAAFA449C","title":"上海滩国泰旗舰店","lon":"121.466011","lat":"31.216125","category":"249","category_name":"购物服务","address":"淮海中路868号"},{"poiid":"B209475CD564A7F84292","title":"上海滩新天地店","lon":"121.47463","lat":"31.22164","category":"119","category_name":"商场","address":"\"太仓路181弄新天地北里15号\r\n\""},{"poiid":"B2094757D06AABF4449A","title":"八号桥二期","lon":"121.481905738","lat":"31.2032977264","category":"47","category_name":"住宅区","address":"上海局门路436号"},{"poiid":"B2094654DB69A5FF459D","title":"如家酒店(蒙自路店)","lon":"121.47921","lat":"31.20307","category":"216","category_name":"经济型连锁酒店","address":"卢湾区蒙自路379号"},{"poiid":"B2094655D268A2FD4899","title":"蒙自路395弄小区","lon":"121.47956","lat":"31.20256","category":"47","category_name":"住宅区","address":"蒙自路395弄1-8号"},{"poiid":"B2094751D26CAAFB499C","title":"粒子咖啡","lon":"121.479553","lat":"31.204935","category":"247","category_name":"餐饮美食","address":"卢湾区蒙自东路63号(近马当路地铁站3号口)"},{"poiid":"B2094757D16BA4FD449B","title":"五里桥路小区","lon":"121.479136738","lat":"31.2034627299","category":"47","category_name":"住宅区","address":"上海五里桥路269弄"},{"poiid":"B2094654DA68A6FF419A","title":"鼎达公寓","lon":"121.47961","lat":"31.202112","category":"47","category_name":"住宅区","address":"蒙自路481弄1-13号"},{"poiid":"B2094757D068A7FA429E","title":"海阔天空浴场","lon":"121.48222","lat":"31.20214","category":"149","category_name":"洗浴推拿场所","address":"卢湾区局门路457号(近瞿溪路)"},{"poiid":"B2094654DB69A7FF479E","title":"上海永业中学","lon":"121.47938","lat":"31.20228","category":"55","category_name":"中学","address":"卢湾区蒙自路395弄9号"},{"poiid":"B2094654DB65A1FC4498","title":"上海市民政第三精神病院(分部)","lon":"121.47792","lat":"31.20274","category":"162","category_name":"医院","address":"卢湾区斜土路486弄"},{"poiid":"B2094654DA68A6FE459F","title":"克莉丝汀饼屋No.299","lon":"121.47972","lat":"31.20143","category":"112","category_name":"糕饼店","address":"卢湾区蒙自路499号"},{"poiid":"B2094655D268A4F8489A","title":"鼎达公寓(西门)","lon":"121.47945","lat":"31.20181","category":"47","category_name":"住宅区","address":"蒙自路481弄1-13号"},{"poiid":"B2094654DA68A6FF419B","title":"德福苑","lon":"121.48016","lat":"31.201265","category":"47","category_name":"住宅区","address":"上海市卢湾区蒙自路501弄"},{"poiid":"B2094757D568A4FA4398","title":"蒙自新村蛋饼摊","lon":"121.4796139","lat":"31.201045","category":"247","category_name":"餐饮美食","address":"卢湾区蒙自路490弄蒙自新村后门(瞿溪路口)"},{"poiid":"B2094655D268A5FF479A","title":"蒙自路440弄小区","lon":"121.47882","lat":"31.20217","category":"47","category_name":"住宅区","address":"蒙自路440弄4-9号"},{"poiid":"B2094655D268A2FD489E","title":"蒙自路395弄小区(西门)","lon":"121.47926","lat":"31.2026","category":"47","category_name":"住宅区","address":"蒙自路395弄1-8号"},{"poiid":"B2094757D16EA6FB4493","title":"龙建大酒店","lon":"121.477746738","lat":"31.2033497275","category":"76","category_name":"上海菜","address":"卢湾区斜土路456号1楼(近蒙自路)"},{"poiid":"B2094757D064A0FE479A","title":"蒙自新村","lon":"121.4791327","lat":"31.201327224","category":"252","category_name":"楼宇机构","address":"上海卢湾区蒙自路490弄"},{"poiid":"B2094655D26AA6FD499D","title":"豫申园城隍庙小吃世界 蒙自店","lon":"121.47885","lat":"31.2035","category":"68","category_name":"快餐厅","address":"卢湾区蒙自路358号(近斜土路)"},{"poiid":"B2094654DA6DA4F94893","title":"龙华小区","lon":"121.48","lat":"31.2016","category":"47","category_name":"住宅区","address":"中山南一路1012弄1-10号"},{"poiid":"B2094655D268A5FF479B","title":"蒙自路440弄小区(东门)","lon":"121.47901","lat":"31.20227","category":"47","category_name":"住宅区","address":"蒙自路440弄4-9号"},{"poiid":"B2094654DA68A6FD409E","title":"鹏福面馆","lon":"121.477944054","lat":"31.204142793","category":"257","category_name":"中餐厅","address":"卢湾区斜土路332号(近蒙自路)"},{"poiid":"B2094654DA68A6FE459E","title":"上海卢湾区五爱幼稚园","lon":"121.47914","lat":"31.20168","category":"57","category_name":"幼儿园","address":"蒙自路460"},{"poiid":"B2094757D16BA4FA489A","title":"卢湾区中学劳动技术教育中心","lon":"121.479553","lat":"31.202495","category":"500","category_name":"未知分类","address":"上海蒙自路395弄9号"},{"poiid":"B2094655D26EA5FE409A","title":"美臣小厨","lon":"121.47915","lat":"31.203","category":"257","category_name":"中餐厅","address":"蒙自路379号近斜土路"},{"poiid":"B2094654DA68A6FE4992","title":"爱心公寓","lon":"121.47836","lat":"31.202185","category":"47","category_name":"住宅区","address":"蒙自路440弄"},{"poiid":"B2094757D069A3F5459F","title":"PY Salon(日月光广场店)","lon":"121.481814","lat":"31.200765","category":"148","category_name":"美容美发店","address":"卢湾区徐家汇路618号日月光中心广场B2楼(近瑞金二路)"},{"poiid":"B2094757D16AAAFD449E","title":"朱鸿兴面馆","lon":"121.47908873","lat":"31.20302472","category":"247","category_name":"餐饮美食","address":"上海市卢湾区鲁班路193号"},{"poiid":"B2094655D268A7F8449A","title":"中山南一路1043弄小区","lon":"121.47944283307","lat":"31.201483104234","category":"47","category_name":"住宅区","address":"中山南一路1043弄1-6号"},{"poiid":"B2094655D268A5FF4693","title":"蒙自路430弄小区(南门)","lon":"121.47873","lat":"31.20257","category":"47","category_name":"住宅区","address":"蒙自路430弄32-34号"},{"poiid":"B2094757D16EA4FD429D","title":"蒙自路380弄","lon":"121.478702549","lat":"31.2030216829","category":"47","category_name":"住宅区","address":"上海蒙自路380弄"},{"poiid":"B2094655D268A5FF4692","title":"蒙自路430弄小区","lon":"121.47865","lat":"31.20264","category":"47","category_name":"住宅区","address":"蒙自路430弄32-34号"},{"poiid":"B2094757D16CA1F9439B","title":"Bill飚记面铺","lon":"121.48275","lat":"31.20143","category":"68","category_name":"快餐厅","address":"卢湾区局门路541号(近瞿溪路)"},{"poiid":"B2094752D06BA7FA4993","title":"麦当劳（瞿溪路店）","lon":"121.478764","lat":"31.202028","category":"247","category_name":"餐饮美食","address":"瞿溪路691号"},{"poiid":"B2094654DA68A6FD489B","title":"大众家园","lon":"121.48105","lat":"31.20177","category":"47","category_name":"住宅区","address":"大众家园(现房)位于卢湾瞿溪路805号"},{"poiid":"B2094654DA68A6FE469B","title":"肖氏足浴(蒙自路)","lon":"121.47953","lat":"31.20171","category":"149","category_name":"洗浴推拿场所","address":"卢湾区蒙自路483号(瞿溪路口)"},{"poiid":"B2094655D26BA1F94999","title":"蒙自路中山南一路","lon":"121.48027","lat":"31.20013","category":"38","category_name":"公交车站","address":""},{"poiid":"B2094750D56FABF4469E","title":"龙","lon":"121.479","lat":"31.2012","category":"95","category_name":"日本料理","address":"卢湾区斜土路688号华美达大酒店2楼"},{"poiid":"B2094655D26FAAFE4698","title":"爱心公寓(北门)","lon":"121.47846","lat":"31.20228","category":"47","category_name":"住宅区","address":""},{"poiid":"B2094757D16AA2FF4899","title":"符家大院","lon":"121.47903373","lat":"31.202475708","category":"500","category_name":"未知分类","address":"上海市卢湾区南北高架路"},{"poiid":"B2094654DA68A6FF4599","title":"瓦汤寨蒙自店","lon":"121.47882","lat":"31.20393","category":"68","category_name":"快餐厅","address":"卢湾区蒙自路345弄(近斜土路)"},{"poiid":"B2094757D16CAAFA479F","title":"乐屋居酒屋","lon":"121.480327601","lat":"31.201168201","category":"247","category_name":"餐饮美食","address":"上海燎申国际中心（乐虹坊2楼）"},{"poiid":"B2094654DA68A6FE469A","title":"米高(蒙自路)","lon":"121.47955","lat":"31.20168","category":"175","category_name":"棋牌室","address":""},{"poiid":"B2094654DA68A7F5469A","title":"中国移动斜土路营业厅","lon":"121.47796","lat":"31.20435","category":"151","category_name":"电讯营业厅","address":"徐汇区斜土路433号"},{"poiid":"B2094654DA68A6FE4293","title":"克丽缇娜国际专业美容护肤中心蒙自店","lon":"121.48008","lat":"31.20085","category":"148","category_name":"美容美发店","address":"蒙自路509识别"},{"poiid":"B2094757D069A7FC4193","title":"阿三烤鸭丰盛酒家","lon":"121.4805979","lat":"31.200152402","category":"68","category_name":"快餐厅","address":"卢湾区局门路521号(瞿溪路口)"}]