[{"poiid":"B2094757D068AAFE489F","title":"复兴西路","lon":"121.443012","lat":"31.208405","category":"46","category_name":"楼宇","address":"上海永福路"},{"poiid":"B2094654D564A4F8409C","title":"小城故事 淮海店 Charmant","lon":"121.44820018243","lat":"31.211774843986","category":"91","category_name":"台湾菜","address":"徐汇区淮海中路1414号1楼(近复兴西路)"},{"poiid":"B2094757D06FA2FE429C","title":"The Apartment","lon":"121.44423272","lat":"31.2114678","category":"94","category_name":"西餐厅","address":"徐汇区永福路47号3楼(近复兴西路)"},{"poiid":"B2094753D76FAAFA449C","title":"上海滩国泰旗舰店","lon":"121.466011","lat":"31.216125","category":"249","category_name":"购物服务","address":"淮海中路868号"},{"poiid":"B209475CD564A7F84292","title":"上海滩新天地店","lon":"121.47463","lat":"31.22164","category":"119","category_name":"商场","address":"\"太仓路181弄新天地北里15号\r\n\""},{"poiid":"B209475CD564A7F8439E","title":"上海滩中信泰富店","lon":"121.45602","lat":"31.22851","category":"119","category_name":"商场","address":"\"南京西路1168号中信泰富广场，店铺号221.\r\n\""},{"poiid":"B2094757D06EAAF54992","title":"JZ club(爵士俱乐部)","lon":"121.44488035","lat":"31.210675495","category":"172","category_name":"酒吧","address":"徐汇区复兴西路46号(近乌鲁木齐中路)"},{"poiid":"B2094757D06FA1F5479B","title":"El Cóctel","lon":"121.44435072","lat":"31.211305167","category":"260","category_name":"其他","address":"徐汇区永福路47号2楼(近复兴西路)"},{"poiid":"B2094654D564A4F84498","title":"来福楼火锅餐厅","lon":"121.44783","lat":"31.21063","category":"86","category_name":"火锅店","address":"徐汇区淮海中路1416号2楼(近复兴西路)"},{"poiid":"B2094752D768A2FB409E","title":"鼎王无老锅（上海无老衡山店）","lon":"121.446411","lat":"31.211093","category":"247","category_name":"餐饮美食","address":"上海徐汇区衡山路2号甲(近桃江路)"},{"poiid":"B2094757D06FA1FA409A","title":"一品居热气羊肉馆(乌鲁木齐中路店)","lon":"121.44662","lat":"31.21043","category":"86","category_name":"火锅店","address":"徐汇区乌鲁木齐中路352号(近复兴西路)"},{"poiid":"B2094757D06FAAF44599","title":"乾悦阁(Qian Yue Court)","lon":"121.44819358","lat":"31.211111057","category":"72","category_name":"广东菜","address":"上海徐汇区淮海中路1414号2-3楼(近复兴西路)"},{"poiid":"B2094757D06FA5FF419B","title":"棉花俱乐部 Cotton Club","lon":"121.44779408","lat":"31.210617415","category":"260","category_name":"其他","address":"徐汇区淮海中路1428号(近复兴西路)"},{"poiid":"B2094757D06FABFD459E","title":"高丽烧烤","lon":"121.4461","lat":"31.21237","category":"96","category_name":"韩国料理","address":"徐汇区五原路181弄1号(近乌鲁木齐中路)"},{"poiid":"B2094654DB6BA7F5479E","title":"来福小馆","lon":"121.44794","lat":"31.21075","category":"71","category_name":"四川菜","address":"徐汇区淮海中路1416号1楼(近复兴西路)"},{"poiid":"B2094757D06FA2F4459E","title":"博多新记(乌鲁木齐店)","lon":"121.44655","lat":"31.21135","category":"72","category_name":"广东菜","address":"徐汇区乌鲁木齐中路300号(近五原路)"},{"poiid":"B2094757D068A6FD4198","title":"Spicy Moment","lon":"121.448082","lat":"31.212697","category":"77","category_name":"湖南菜","address":"徐汇区五原路71号(近常熟路)"},{"poiid":"B2094757D468AAFA439F","title":"Restaurant Cuivre","lon":"121.445625","lat":"31.209066","category":"94","category_name":"西餐厅","address":"徐汇区淮海中路1502号(近乌鲁木齐路)"},{"poiid":"B2094757D66EA4F8419C","title":"五原路","lon":"121.44781958","lat":"31.213365101","category":"500","category_name":"未知分类","address":"上海市徐汇区五原路"},{"poiid":"B2094757D068A0FC449C","title":"JustGrapes(安福路店)","lon":"121.44505","lat":"31.21389","category":"94","category_name":"西餐厅","address":"徐汇区安福路162号(近乌鲁木齐中路)"},{"poiid":"B2094757D06FA0FD469B","title":"湖南乡村风味(乌鲁木齐中路店)","lon":"121.44546","lat":"31.21341","category":"77","category_name":"湖南菜","address":"徐汇区乌鲁木齐中路168号(近安福路)"},{"poiid":"B2094757D169ABF5459E","title":"Bocado","lon":"121.44390058","lat":"31.211565066","category":"94","category_name":"西餐厅","address":"徐汇区永福路47号203(近复兴路)"},{"poiid":"B2094757D16CA3F44492","title":"Salute","lon":"121.444026586","lat":"31.2107440499","category":"94","category_name":"西餐厅","address":"静安区南京西路1038号梅龙镇伊势丹3楼(近江宁路)"},{"poiid":"B2094757D06AA4F9449A","title":"乌鲁木齐中路五原路","lon":"121.445794","lat":"31.212692","category":"500","category_name":"未知分类","address":"上海乌鲁木齐中路五原路"},{"poiid":"B2094757D06FA6F94598","title":"老北京涮锅店","lon":"121.44719","lat":"31.21046","category":"86","category_name":"火锅店","address":"徐汇区乌鲁木齐中路346号(近复兴路)"},{"poiid":"B2094757D06FA1FB409E","title":"蜀地辣子鱼(安福店)","lon":"121.44467","lat":"31.21375","category":"71","category_name":"四川菜","address":"徐汇区安福路185-187号(近乌鲁木齐中路)"},{"poiid":"B2094752D26AA3FE479C","title":"Shanghai Brewery","lon":"121.4475978","lat":"31.2114357","category":"247","category_name":"餐饮美食","address":"上海市东平路15号(近衡山路"},{"poiid":"B2094654DA6DA4FA489E","title":"徐汇艺术馆","lon":"121.44816","lat":"31.2102","category":"183","category_name":"展览馆","address":"徐汇区淮海中路1413号(复兴路口)"},{"poiid":"B2094757D068ABFE439C","title":"鸿艺会会所(淮海中路店)","lon":"121.44689","lat":"31.2094","category":"221","category_name":"健身中心","address":"徐汇区淮海中路1500号(近乌鲁木齐中路)"},{"poiid":"B2094757D06AA4F84298","title":"Hunan House","lon":"121.445337989","lat":"31.209769788","category":"77","category_name":"湖南菜","address":"徐汇区复兴西路49弄2号(近乌鲁木齐路)"},{"poiid":"B2094757D069A4F8409B","title":"Rhumerie Bounty(永福路店)","lon":"121.44434","lat":"31.21114","category":"260","category_name":"其他","address":"徐汇区永福路47号1楼(近五原路)"},{"poiid":"B2094757D169AAF94193","title":"淮海中路乌鲁木齐中路","lon":"121.446426586","lat":"31.2118040707","category":"500","category_name":"未知分类","address":"上海淮海中路乌鲁木齐中路"},{"poiid":"B2094752D669A6F8449B","title":"鼎王无老养生锅","lon":"121.444528","lat":"31.209638","category":"500","category_name":"未知分类","address":"衡山路2号甲香樟花园"},{"poiid":"B2094757D66EA0FA489E","title":"NeNe Italian restaurant","lon":"121.443460786","lat":"31.2108263515","category":"94","category_name":"西餐厅","address":"徐汇区永福路47号106室(近复兴路)"},{"poiid":"B2094757D569A7FD4499","title":"Mata Mata面包房","lon":"121.44619439","lat":"31.21188802","category":"112","category_name":"糕饼店","address":"乌鲁木齐中路292"},{"poiid":"B2094752D768A2FB409C","title":"鼎王无老锅","lon":"121.446411","lat":"31.211093","category":"247","category_name":"餐饮美食","address":"衡山路2号（香樟花园内）"},{"poiid":"B2094757D068AAF9449A","title":"新潮发家常菜","lon":"121.44598","lat":"31.21257","category":"76","category_name":"上海菜","address":"徐汇区乌鲁木齐中路210号(五原路口)"},{"poiid":"B2094752D465A0FB4898","title":"green & safe","lon":"121.445931","lat":"31.21128","category":"247","category_name":"餐饮美食","address":"东平路6号"},{"poiid":"B209475DD76FA6F9469B","title":"环贸iapm","lon":"121.446853","lat":"31.211797","category":"249","category_name":"购物服务","address":"上海市 徐汇区淮海中路999号"},{"poiid":"B2094757D56DA4FD449D","title":"十八香小龙虾  乌中店","lon":"121.44636869430542","lat":"31.21113144418511","category":"247","category_name":"餐饮美食","address":"上海 上海市 乌鲁木齐中路342号近复兴西路"},{"poiid":"B2094750DB68A7FC439A","title":"cupcakes cafe","lon":"121.4456","lat":"31.21321","category":"67","category_name":"甜品店","address":"徐汇区乌鲁木齐中路192号(近安福路)"},{"poiid":"B2094757D069A6FF4893","title":"Oscar 's Pub","lon":"121.44726716","lat":"31.210363417","category":"500","category_name":"未知分类","address":"上海市复兴西路1377号"},{"poiid":"B2094655D268A1FF449A","title":"陆记蟹行","lon":"121.4461","lat":"31.21202","category":"88","category_name":"海鲜酒楼","address":"上海徐汇区乌鲁木齐中路276号(顶顶鲜超市对面)  "},{"poiid":"B2094757D16EABF54492","title":"乌鲁木齐中路烧烤摊","lon":"121.446404","lat":"31.211256","category":"257","category_name":"中餐厅","address":"上海乌鲁木齐中路328号"},{"poiid":"B2094753D764A7FE479C","title":"暹罗花园","lon":"121.446578","lat":"31.211332","category":"47","category_name":"住宅区","address":"上海市 上海市徐汇区安福路249弄1号"},{"poiid":"B2094751D36EA4F5409B","title":"Organic Kitchen","lon":"121.44503","lat":"31.21022","category":"94","category_name":"西餐厅","address":"徐汇区复兴西路57号(近永福路)"},{"poiid":"B2094655D26FA4FA469B","title":"Yme Casa","lon":"121.44673","lat":"31.21294","category":"76","category_name":"上海菜","address":"徐汇区五原路108号(近乌鲁木齐路)"},{"poiid":"B2094757D06BA4FC4492","title":"吉祥馄饨(复兴西路店)","lon":"121.44671","lat":"31.21029","category":"68","category_name":"快餐厅","address":"徐汇区复兴西路26号(近乌鲁木齐南路)"},{"poiid":"B2094654D564A4F9409A","title":"红峰副食品商店","lon":"121.44606","lat":"31.21205","category":"117","category_name":"便民商店/便利店","address":""},{"poiid":"B2094757D568ABFC4598","title":"迪亚天天(乌鲁木齐中路)","lon":"121.44638428","lat":"31.2119987","category":"117","category_name":"便民商店/便利店","address":"静安区乌鲁木齐中路247-3号(乌鲁木齐中路五原路)"},{"poiid":"B2094757D068AAFE489F","title":"复兴西路","lon":"121.443012","lat":"31.208405","category":"46","category_name":"楼宇","address":"上海永福路"},{"poiid":"B2094654D564A4F8409C","title":"小城故事 淮海店 Charmant","lon":"121.44820018243","lat":"31.211774843986","category":"91","category_name":"台湾菜","address":"徐汇区淮海中路1414号1楼(近复兴西路)"},{"poiid":"B2094757D06FA2FE429C","title":"The Apartment","lon":"121.44423272","lat":"31.2114678","category":"94","category_name":"西餐厅","address":"徐汇区永福路47号3楼(近复兴西路)"},{"poiid":"B2094753D76FAAFA449C","title":"上海滩国泰旗舰店","lon":"121.466011","lat":"31.216125","category":"249","category_name":"购物服务","address":"淮海中路868号"},{"poiid":"B209475CD564A7F84292","title":"上海滩新天地店","lon":"121.47463","lat":"31.22164","category":"119","category_name":"商场","address":"\"太仓路181弄新天地北里15号\r\n\""},{"poiid":"B209475CD564A7F8439E","title":"上海滩中信泰富店","lon":"121.45602","lat":"31.22851","category":"119","category_name":"商场","address":"\"南京西路1168号中信泰富广场，店铺号221.\r\n\""},{"poiid":"B2094757D06EAAF54992","title":"JZ club(爵士俱乐部)","lon":"121.44488035","lat":"31.210675495","category":"172","category_name":"酒吧","address":"徐汇区复兴西路46号(近乌鲁木齐中路)"},{"poiid":"B2094757D06FA1F5479B","title":"El Cóctel","lon":"121.44435072","lat":"31.211305167","category":"260","category_name":"其他","address":"徐汇区永福路47号2楼(近复兴西路)"},{"poiid":"B2094654D564A4F84498","title":"来福楼火锅餐厅","lon":"121.44783","lat":"31.21063","category":"86","category_name":"火锅店","address":"徐汇区淮海中路1416号2楼(近复兴西路)"},{"poiid":"B2094752D768A2FB409E","title":"鼎王无老锅（上海无老衡山店）","lon":"121.446411","lat":"31.211093","category":"247","category_name":"餐饮美食","address":"上海徐汇区衡山路2号甲(近桃江路)"},{"poiid":"B2094757D06FA1FA409A","title":"一品居热气羊肉馆(乌鲁木齐中路店)","lon":"121.44662","lat":"31.21043","category":"86","category_name":"火锅店","address":"徐汇区乌鲁木齐中路352号(近复兴西路)"},{"poiid":"B2094757D06FAAF44599","title":"乾悦阁(Qian Yue Court)","lon":"121.44819358","lat":"31.211111057","category":"72","category_name":"广东菜","address":"上海徐汇区淮海中路1414号2-3楼(近复兴西路)"},{"poiid":"B2094757D06FA5FF419B","title":"棉花俱乐部 Cotton Club","lon":"121.44779408","lat":"31.210617415","category":"260","category_name":"其他","address":"徐汇区淮海中路1428号(近复兴西路)"},{"poiid":"B2094757D06FABFD459E","title":"高丽烧烤","lon":"121.4461","lat":"31.21237","category":"96","category_name":"韩国料理","address":"徐汇区五原路181弄1号(近乌鲁木齐中路)"},{"poiid":"B2094654DB6BA7F5479E","title":"来福小馆","lon":"121.44794","lat":"31.21075","category":"71","category_name":"四川菜","address":"徐汇区淮海中路1416号1楼(近复兴西路)"},{"poiid":"B2094757D06FA2F4459E","title":"博多新记(乌鲁木齐店)","lon":"121.44655","lat":"31.21135","category":"72","category_name":"广东菜","address":"徐汇区乌鲁木齐中路300号(近五原路)"},{"poiid":"B2094757D068A6FD4198","title":"Spicy Moment","lon":"121.448082","lat":"31.212697","category":"77","category_name":"湖南菜","address":"徐汇区五原路71号(近常熟路)"},{"poiid":"B2094757D468AAFA439F","title":"Restaurant Cuivre","lon":"121.445625","lat":"31.209066","category":"94","category_name":"西餐厅","address":"徐汇区淮海中路1502号(近乌鲁木齐路)"},{"poiid":"B2094757D66EA4F8419C","title":"五原路","lon":"121.44781958","lat":"31.213365101","category":"500","category_name":"未知分类","address":"上海市徐汇区五原路"},{"poiid":"B2094757D068A0FC449C","title":"JustGrapes(安福路店)","lon":"121.44505","lat":"31.21389","category":"94","category_name":"西餐厅","address":"徐汇区安福路162号(近乌鲁木齐中路)"},{"poiid":"B2094757D06FA0FD469B","title":"湖南乡村风味(乌鲁木齐中路店)","lon":"121.44546","lat":"31.21341","category":"77","category_name":"湖南菜","address":"徐汇区乌鲁木齐中路168号(近安福路)"},{"poiid":"B2094757D169ABF5459E","title":"Bocado","lon":"121.44390058","lat":"31.211565066","category":"94","category_name":"西餐厅","address":"徐汇区永福路47号203(近复兴路)"},{"poiid":"B2094757D16CA3F44492","title":"Salute","lon":"121.444026586","lat":"31.2107440499","category":"94","category_name":"西餐厅","address":"静安区南京西路1038号梅龙镇伊势丹3楼(近江宁路)"},{"poiid":"B2094757D06AA4F9449A","title":"乌鲁木齐中路五原路","lon":"121.445794","lat":"31.212692","category":"500","category_name":"未知分类","address":"上海乌鲁木齐中路五原路"},{"poiid":"B2094757D06FA6F94598","title":"老北京涮锅店","lon":"121.44719","lat":"31.21046","category":"86","category_name":"火锅店","address":"徐汇区乌鲁木齐中路346号(近复兴路)"},{"poiid":"B2094757D06FA1FB409E","title":"蜀地辣子鱼(安福店)","lon":"121.44467","lat":"31.21375","category":"71","category_name":"四川菜","address":"徐汇区安福路185-187号(近乌鲁木齐中路)"},{"poiid":"B2094752D26AA3FE479C","title":"Shanghai Brewery","lon":"121.4475978","lat":"31.2114357","category":"247","category_name":"餐饮美食","address":"上海市东平路15号(近衡山路"},{"poiid":"B2094654DA6DA4FA489E","title":"徐汇艺术馆","lon":"121.44816","lat":"31.2102","category":"183","category_name":"展览馆","address":"徐汇区淮海中路1413号(复兴路口)"},{"poiid":"B2094757D068ABFE439C","title":"鸿艺会会所(淮海中路店)","lon":"121.44689","lat":"31.2094","category":"221","category_name":"健身中心","address":"徐汇区淮海中路1500号(近乌鲁木齐中路)"},{"poiid":"B2094757D06AA4F84298","title":"Hunan House","lon":"121.445337989","lat":"31.209769788","category":"77","category_name":"湖南菜","address":"徐汇区复兴西路49弄2号(近乌鲁木齐路)"},{"poiid":"B2094757D069A4F8409B","title":"Rhumerie Bounty(永福路店)","lon":"121.44434","lat":"31.21114","category":"260","category_name":"其他","address":"徐汇区永福路47号1楼(近五原路)"},{"poiid":"B2094757D169AAF94193","title":"淮海中路乌鲁木齐中路","lon":"121.446426586","lat":"31.2118040707","category":"500","category_name":"未知分类","address":"上海淮海中路乌鲁木齐中路"},{"poiid":"B2094752D669A6F8449B","title":"鼎王无老养生锅","lon":"121.444528","lat":"31.209638","category":"500","category_name":"未知分类","address":"衡山路2号甲香樟花园"},{"poiid":"B2094757D66EA0FA489E","title":"NeNe Italian restaurant","lon":"121.443460786","lat":"31.2108263515","category":"94","category_name":"西餐厅","address":"徐汇区永福路47号106室(近复兴路)"},{"poiid":"B2094757D569A7FD4499","title":"Mata Mata面包房","lon":"121.44619439","lat":"31.21188802","category":"112","category_name":"糕饼店","address":"乌鲁木齐中路292"},{"poiid":"B2094752D768A2FB409C","title":"鼎王无老锅","lon":"121.446411","lat":"31.211093","category":"247","category_name":"餐饮美食","address":"衡山路2号（香樟花园内）"},{"poiid":"B2094757D068AAF9449A","title":"新潮发家常菜","lon":"121.44598","lat":"31.21257","category":"76","category_name":"上海菜","address":"徐汇区乌鲁木齐中路210号(五原路口)"},{"poiid":"B2094752D465A0FB4898","title":"green & safe","lon":"121.445931","lat":"31.21128","category":"247","category_name":"餐饮美食","address":"东平路6号"},{"poiid":"B209475DD76FA6F9469B","title":"环贸iapm","lon":"121.446853","lat":"31.211797","category":"249","category_name":"购物服务","address":"上海市 徐汇区淮海中路999号"},{"poiid":"B2094757D56DA4FD449D","title":"十八香小龙虾  乌中店","lon":"121.44636869430542","lat":"31.21113144418511","category":"247","category_name":"餐饮美食","address":"上海 上海市 乌鲁木齐中路342号近复兴西路"},{"poiid":"B2094750DB68A7FC439A","title":"cupcakes cafe","lon":"121.4456","lat":"31.21321","category":"67","category_name":"甜品店","address":"徐汇区乌鲁木齐中路192号(近安福路)"},{"poiid":"B2094757D069A6FF4893","title":"Oscar 's Pub","lon":"121.44726716","lat":"31.210363417","category":"500","category_name":"未知分类","address":"上海市复兴西路1377号"},{"poiid":"B2094655D268A1FF449A","title":"陆记蟹行","lon":"121.4461","lat":"31.21202","category":"88","category_name":"海鲜酒楼","address":"上海徐汇区乌鲁木齐中路276号(顶顶鲜超市对面)  "},{"poiid":"B2094757D16EABF54492","title":"乌鲁木齐中路烧烤摊","lon":"121.446404","lat":"31.211256","category":"257","category_name":"中餐厅","address":"上海乌鲁木齐中路328号"},{"poiid":"B2094753D764A7FE479C","title":"暹罗花园","lon":"121.446578","lat":"31.211332","category":"47","category_name":"住宅区","address":"上海市 上海市徐汇区安福路249弄1号"},{"poiid":"B2094751D36EA4F5409B","title":"Organic Kitchen","lon":"121.44503","lat":"31.21022","category":"94","category_name":"西餐厅","address":"徐汇区复兴西路57号(近永福路)"},{"poiid":"B2094655D26FA4FA469B","title":"Yme Casa","lon":"121.44673","lat":"31.21294","category":"76","category_name":"上海菜","address":"徐汇区五原路108号(近乌鲁木齐路)"},{"poiid":"B2094757D06BA4FC4492","title":"吉祥馄饨(复兴西路店)","lon":"121.44671","lat":"31.21029","category":"68","category_name":"快餐厅","address":"徐汇区复兴西路26号(近乌鲁木齐南路)"},{"poiid":"B2094654D564A4F9409A","title":"红峰副食品商店","lon":"121.44606","lat":"31.21205","category":"117","category_name":"便民商店/便利店","address":""},{"poiid":"B2094757D568ABFC4598","title":"迪亚天天(乌鲁木齐中路)","lon":"121.44638428","lat":"31.2119987","category":"117","category_name":"便民商店/便利店","address":"静安区乌鲁木齐中路247-3号(乌鲁木齐中路五原路)"},{"poiid":"B2094757D068AAFE489F","title":"复兴西路","lon":"121.443012","lat":"31.208405","category":"46","category_name":"楼宇","address":"上海永福路"},{"poiid":"B2094654D564A4F8409C","title":"小城故事 淮海店 Charmant","lon":"121.44820018243","lat":"31.211774843986","category":"91","category_name":"台湾菜","address":"徐汇区淮海中路1414号1楼(近复兴西路)"},{"poiid":"B2094757D06FA2FE429C","title":"The Apartment","lon":"121.44423272","lat":"31.2114678","category":"94","category_name":"西餐厅","address":"徐汇区永福路47号3楼(近复兴西路)"},{"poiid":"B2094753D76FAAFA449C","title":"上海滩国泰旗舰店","lon":"121.466011","lat":"31.216125","category":"249","category_name":"购物服务","address":"淮海中路868号"},{"poiid":"B209475CD564A7F84292","title":"上海滩新天地店","lon":"121.47463","lat":"31.22164","category":"119","category_name":"商场","address":"\"太仓路181弄新天地北里15号\r\n\""},{"poiid":"B209475CD564A7F8439E","title":"上海滩中信泰富店","lon":"121.45602","lat":"31.22851","category":"119","category_name":"商场","address":"\"南京西路1168号中信泰富广场，店铺号221.\r\n\""},{"poiid":"B2094757D06EAAF54992","title":"JZ club(爵士俱乐部)","lon":"121.44488035","lat":"31.210675495","category":"172","category_name":"酒吧","address":"徐汇区复兴西路46号(近乌鲁木齐中路)"},{"poiid":"B2094757D06FA1F5479B","title":"El Cóctel","lon":"121.44435072","lat":"31.211305167","category":"260","category_name":"其他","address":"徐汇区永福路47号2楼(近复兴西路)"},{"poiid":"B2094654D564A4F84498","title":"来福楼火锅餐厅","lon":"121.44783","lat":"31.21063","category":"86","category_name":"火锅店","address":"徐汇区淮海中路1416号2楼(近复兴西路)"},{"poiid":"B2094752D768A2FB409E","title":"鼎王无老锅（上海无老衡山店）","lon":"121.446411","lat":"31.211093","category":"247","category_name":"餐饮美食","address":"上海徐汇区衡山路2号甲(近桃江路)"},{"poiid":"B2094757D06FA1FA409A","title":"一品居热气羊肉馆(乌鲁木齐中路店)","lon":"121.44662","lat":"31.21043","category":"86","category_name":"火锅店","address":"徐汇区乌鲁木齐中路352号(近复兴西路)"},{"poiid":"B2094757D06FAAF44599","title":"乾悦阁(Qian Yue Court)","lon":"121.44819358","lat":"31.211111057","category":"72","category_name":"广东菜","address":"上海徐汇区淮海中路1414号2-3楼(近复兴西路)"},{"poiid":"B2094757D06FA5FF419B","title":"棉花俱乐部 Cotton Club","lon":"121.44779408","lat":"31.210617415","category":"260","category_name":"其他","address":"徐汇区淮海中路1428号(近复兴西路)"},{"poiid":"B2094757D06FABFD459E","title":"高丽烧烤","lon":"121.4461","lat":"31.21237","category":"96","category_name":"韩国料理","address":"徐汇区五原路181弄1号(近乌鲁木齐中路)"},{"poiid":"B2094654DB6BA7F5479E","title":"来福小馆","lon":"121.44794","lat":"31.21075","category":"71","category_name":"四川菜","address":"徐汇区淮海中路1416号1楼(近复兴西路)"},{"poiid":"B2094757D06FA2F4459E","title":"博多新记(乌鲁木齐店)","lon":"121.44655","lat":"31.21135","category":"72","category_name":"广东菜","address":"徐汇区乌鲁木齐中路300号(近五原路)"},{"poiid":"B2094757D068A6FD4198","title":"Spicy Moment","lon":"121.448082","lat":"31.212697","category":"77","category_name":"湖南菜","address":"徐汇区五原路71号(近常熟路)"},{"poiid":"B2094757D468AAFA439F","title":"Restaurant Cuivre","lon":"121.445625","lat":"31.209066","category":"94","category_name":"西餐厅","address":"徐汇区淮海中路1502号(近乌鲁木齐路)"},{"poiid":"B2094757D66EA4F8419C","title":"五原路","lon":"121.44781958","lat":"31.213365101","category":"500","category_name":"未知分类","address":"上海市徐汇区五原路"},{"poiid":"B2094757D068A0FC449C","title":"JustGrapes(安福路店)","lon":"121.44505","lat":"31.21389","category":"94","category_name":"西餐厅","address":"徐汇区安福路162号(近乌鲁木齐中路)"},{"poiid":"B2094757D06FA0FD469B","title":"湖南乡村风味(乌鲁木齐中路店)","lon":"121.44546","lat":"31.21341","category":"77","category_name":"湖南菜","address":"徐汇区乌鲁木齐中路168号(近安福路)"},{"poiid":"B2094757D169ABF5459E","title":"Bocado","lon":"121.44390058","lat":"31.211565066","category":"94","category_name":"西餐厅","address":"徐汇区永福路47号203(近复兴路)"},{"poiid":"B2094757D16CA3F44492","title":"Salute","lon":"121.444026586","lat":"31.2107440499","category":"94","category_name":"西餐厅","address":"静安区南京西路1038号梅龙镇伊势丹3楼(近江宁路)"},{"poiid":"B2094757D06AA4F9449A","title":"乌鲁木齐中路五原路","lon":"121.445794","lat":"31.212692","category":"500","category_name":"未知分类","address":"上海乌鲁木齐中路五原路"},{"poiid":"B2094757D06FA6F94598","title":"老北京涮锅店","lon":"121.44719","lat":"31.21046","category":"86","category_name":"火锅店","address":"徐汇区乌鲁木齐中路346号(近复兴路)"},{"poiid":"B2094757D06FA1FB409E","title":"蜀地辣子鱼(安福店)","lon":"121.44467","lat":"31.21375","category":"71","category_name":"四川菜","address":"徐汇区安福路185-187号(近乌鲁木齐中路)"},{"poiid":"B2094752D26AA3FE479C","title":"Shanghai Brewery","lon":"121.4475978","lat":"31.2114357","category":"247","category_name":"餐饮美食","address":"上海市东平路15号(近衡山路"},{"poiid":"B2094654DA6DA4FA489E","title":"徐汇艺术馆","lon":"121.44816","lat":"31.2102","category":"183","category_name":"展览馆","address":"徐汇区淮海中路1413号(复兴路口)"},{"poiid":"B2094757D068ABFE439C","title":"鸿艺会会所(淮海中路店)","lon":"121.44689","lat":"31.2094","category":"221","category_name":"健身中心","address":"徐汇区淮海中路1500号(近乌鲁木齐中路)"},{"poiid":"B2094757D06AA4F84298","title":"Hunan House","lon":"121.445337989","lat":"31.209769788","category":"77","category_name":"湖南菜","address":"徐汇区复兴西路49弄2号(近乌鲁木齐路)"},{"poiid":"B2094757D069A4F8409B","title":"Rhumerie Bounty(永福路店)","lon":"121.44434","lat":"31.21114","category":"260","category_name":"其他","address":"徐汇区永福路47号1楼(近五原路)"},{"poiid":"B2094757D169AAF94193","title":"淮海中路乌鲁木齐中路","lon":"121.446426586","lat":"31.2118040707","category":"500","category_name":"未知分类","address":"上海淮海中路乌鲁木齐中路"},{"poiid":"B2094752D669A6F8449B","title":"鼎王无老养生锅","lon":"121.444528","lat":"31.209638","category":"500","category_name":"未知分类","address":"衡山路2号甲香樟花园"},{"poiid":"B2094757D66EA0FA489E","title":"NeNe Italian restaurant","lon":"121.443460786","lat":"31.2108263515","category":"94","category_name":"西餐厅","address":"徐汇区永福路47号106室(近复兴路)"},{"poiid":"B2094757D569A7FD4499","title":"Mata Mata面包房","lon":"121.44619439","lat":"31.21188802","category":"112","category_name":"糕饼店","address":"乌鲁木齐中路292"},{"poiid":"B2094752D768A2FB409C","title":"鼎王无老锅","lon":"121.446411","lat":"31.211093","category":"247","category_name":"餐饮美食","address":"衡山路2号（香樟花园内）"},{"poiid":"B2094757D068AAF9449A","title":"新潮发家常菜","lon":"121.44598","lat":"31.21257","category":"76","category_name":"上海菜","address":"徐汇区乌鲁木齐中路210号(五原路口)"},{"poiid":"B2094752D465A0FB4898","title":"green & safe","lon":"121.445931","lat":"31.21128","category":"247","category_name":"餐饮美食","address":"东平路6号"},{"poiid":"B209475DD76FA6F9469B","title":"环贸iapm","lon":"121.446853","lat":"31.211797","category":"249","category_name":"购物服务","address":"上海市 徐汇区淮海中路999号"},{"poiid":"B2094757D56DA4FD449D","title":"十八香小龙虾  乌中店","lon":"121.44636869430542","lat":"31.21113144418511","category":"247","category_name":"餐饮美食","address":"上海 上海市 乌鲁木齐中路342号近复兴西路"},{"poiid":"B2094750DB68A7FC439A","title":"cupcakes cafe","lon":"121.4456","lat":"31.21321","category":"67","category_name":"甜品店","address":"徐汇区乌鲁木齐中路192号(近安福路)"},{"poiid":"B2094757D069A6FF4893","title":"Oscar 's Pub","lon":"121.44726716","lat":"31.210363417","category":"500","category_name":"未知分类","address":"上海市复兴西路1377号"},{"poiid":"B2094655D268A1FF449A","title":"陆记蟹行","lon":"121.4461","lat":"31.21202","category":"88","category_name":"海鲜酒楼","address":"上海徐汇区乌鲁木齐中路276号(顶顶鲜超市对面)  "},{"poiid":"B2094757D16EABF54492","title":"乌鲁木齐中路烧烤摊","lon":"121.446404","lat":"31.211256","category":"257","category_name":"中餐厅","address":"上海乌鲁木齐中路328号"},{"poiid":"B2094753D764A7FE479C","title":"暹罗花园","lon":"121.446578","lat":"31.211332","category":"47","category_name":"住宅区","address":"上海市 上海市徐汇区安福路249弄1号"},{"poiid":"B2094751D36EA4F5409B","title":"Organic Kitchen","lon":"121.44503","lat":"31.21022","category":"94","category_name":"西餐厅","address":"徐汇区复兴西路57号(近永福路)"},{"poiid":"B2094655D26FA4FA469B","title":"Yme Casa","lon":"121.44673","lat":"31.21294","category":"76","category_name":"上海菜","address":"徐汇区五原路108号(近乌鲁木齐路)"},{"poiid":"B2094757D06BA4FC4492","title":"吉祥馄饨(复兴西路店)","lon":"121.44671","lat":"31.21029","category":"68","category_name":"快餐厅","address":"徐汇区复兴西路26号(近乌鲁木齐南路)"},{"poiid":"B2094654D564A4F9409A","title":"红峰副食品商店","lon":"121.44606","lat":"31.21205","category":"117","category_name":"便民商店/便利店","address":""},{"poiid":"B2094757D568ABFC4598","title":"迪亚天天(乌鲁木齐中路)","lon":"121.44638428","lat":"31.2119987","category":"117","category_name":"便民商店/便利店","address":"静安区乌鲁木齐中路247-3号(乌鲁木齐中路五原路)"},{"poiid":"B2094757D068AAFE489F","title":"复兴西路","lon":"121.443012","lat":"31.208405","category":"46","category_name":"楼宇","address":"上海永福路"},{"poiid":"B2094654D564A4F8409C","title":"小城故事 淮海店 Charmant","lon":"121.44820018243","lat":"31.211774843986","category":"91","category_name":"台湾菜","address":"徐汇区淮海中路1414号1楼(近复兴西路)"},{"poiid":"B2094757D06FA2FE429C","title":"The Apartment","lon":"121.44423272","lat":"31.2114678","category":"94","category_name":"西餐厅","address":"徐汇区永福路47号3楼(近复兴西路)"},{"poiid":"B2094753D76FAAFA449C","title":"上海滩国泰旗舰店","lon":"121.466011","lat":"31.216125","category":"249","category_name":"购物服务","address":"淮海中路868号"},{"poiid":"B209475CD564A7F84292","title":"上海滩新天地店","lon":"121.47463","lat":"31.22164","category":"119","category_name":"商场","address":"\"太仓路181弄新天地北里15号\r\n\""},{"poiid":"B209475CD564A7F8439E","title":"上海滩中信泰富店","lon":"121.45602","lat":"31.22851","category":"119","category_name":"商场","address":"\"南京西路1168号中信泰富广场，店铺号221.\r\n\""},{"poiid":"B2094757D06EAAF54992","title":"JZ club(爵士俱乐部)","lon":"121.44488035","lat":"31.210675495","category":"172","category_name":"酒吧","address":"徐汇区复兴西路46号(近乌鲁木齐中路)"},{"poiid":"B2094757D06FA1F5479B","title":"El Cóctel","lon":"121.44435072","lat":"31.211305167","category":"260","category_name":"其他","address":"徐汇区永福路47号2楼(近复兴西路)"},{"poiid":"B2094654D564A4F84498","title":"来福楼火锅餐厅","lon":"121.44783","lat":"31.21063","category":"86","category_name":"火锅店","address":"徐汇区淮海中路1416号2楼(近复兴西路)"},{"poiid":"B2094752D768A2FB409E","title":"鼎王无老锅（上海无老衡山店）","lon":"121.446411","lat":"31.211093","category":"247","category_name":"餐饮美食","address":"上海徐汇区衡山路2号甲(近桃江路)"},{"poiid":"B2094757D06FA1FA409A","title":"一品居热气羊肉馆(乌鲁木齐中路店)","lon":"121.44662","lat":"31.21043","category":"86","category_name":"火锅店","address":"徐汇区乌鲁木齐中路352号(近复兴西路)"},{"poiid":"B2094757D06FAAF44599","title":"乾悦阁(Qian Yue Court)","lon":"121.44819358","lat":"31.211111057","category":"72","category_name":"广东菜","address":"上海徐汇区淮海中路1414号2-3楼(近复兴西路)"},{"poiid":"B2094757D06FA5FF419B","title":"棉花俱乐部 Cotton Club","lon":"121.44779408","lat":"31.210617415","category":"260","category_name":"其他","address":"徐汇区淮海中路1428号(近复兴西路)"},{"poiid":"B2094757D06FABFD459E","title":"高丽烧烤","lon":"121.4461","lat":"31.21237","category":"96","category_name":"韩国料理","address":"徐汇区五原路181弄1号(近乌鲁木齐中路)"},{"poiid":"B2094654DB6BA7F5479E","title":"来福小馆","lon":"121.44794","lat":"31.21075","category":"71","category_name":"四川菜","address":"徐汇区淮海中路1416号1楼(近复兴西路)"},{"poiid":"B2094757D06FA2F4459E","title":"博多新记(乌鲁木齐店)","lon":"121.44655","lat":"31.21135","category":"72","category_name":"广东菜","address":"徐汇区乌鲁木齐中路300号(近五原路)"},{"poiid":"B2094757D068A6FD4198","title":"Spicy Moment","lon":"121.448082","lat":"31.212697","category":"77","category_name":"湖南菜","address":"徐汇区五原路71号(近常熟路)"},{"poiid":"B2094757D468AAFA439F","title":"Restaurant Cuivre","lon":"121.445625","lat":"31.209066","category":"94","category_name":"西餐厅","address":"徐汇区淮海中路1502号(近乌鲁木齐路)"},{"poiid":"B2094757D66EA4F8419C","title":"五原路","lon":"121.44781958","lat":"31.213365101","category":"500","category_name":"未知分类","address":"上海市徐汇区五原路"},{"poiid":"B2094757D068A0FC449C","title":"JustGrapes(安福路店)","lon":"121.44505","lat":"31.21389","category":"94","category_name":"西餐厅","address":"徐汇区安福路162号(近乌鲁木齐中路)"},{"poiid":"B2094757D06FA0FD469B","title":"湖南乡村风味(乌鲁木齐中路店)","lon":"121.44546","lat":"31.21341","category":"77","category_name":"湖南菜","address":"徐汇区乌鲁木齐中路168号(近安福路)"},{"poiid":"B2094757D169ABF5459E","title":"Bocado","lon":"121.44390058","lat":"31.211565066","category":"94","category_name":"西餐厅","address":"徐汇区永福路47号203(近复兴路)"},{"poiid":"B2094757D16CA3F44492","title":"Salute","lon":"121.444026586","lat":"31.2107440499","category":"94","category_name":"西餐厅","address":"静安区南京西路1038号梅龙镇伊势丹3楼(近江宁路)"},{"poiid":"B2094757D06AA4F9449A","title":"乌鲁木齐中路五原路","lon":"121.445794","lat":"31.212692","category":"500","category_name":"未知分类","address":"上海乌鲁木齐中路五原路"},{"poiid":"B2094757D06FA6F94598","title":"老北京涮锅店","lon":"121.44719","lat":"31.21046","category":"86","category_name":"火锅店","address":"徐汇区乌鲁木齐中路346号(近复兴路)"},{"poiid":"B2094757D06FA1FB409E","title":"蜀地辣子鱼(安福店)","lon":"121.44467","lat":"31.21375","category":"71","category_name":"四川菜","address":"徐汇区安福路185-187号(近乌鲁木齐中路)"},{"poiid":"B2094752D26AA3FE479C","title":"Shanghai Brewery","lon":"121.4475978","lat":"31.2114357","category":"247","category_name":"餐饮美食","address":"上海市东平路15号(近衡山路"},{"poiid":"B2094654DA6DA4FA489E","title":"徐汇艺术馆","lon":"121.44816","lat":"31.2102","category":"183","category_name":"展览馆","address":"徐汇区淮海中路1413号(复兴路口)"},{"poiid":"B2094757D068ABFE439C","title":"鸿艺会会所(淮海中路店)","lon":"121.44689","lat":"31.2094","category":"221","category_name":"健身中心","address":"徐汇区淮海中路1500号(近乌鲁木齐中路)"},{"poiid":"B2094757D06AA4F84298","title":"Hunan House","lon":"121.445337989","lat":"31.209769788","category":"77","category_name":"湖南菜","address":"徐汇区复兴西路49弄2号(近乌鲁木齐路)"},{"poiid":"B2094757D069A4F8409B","title":"Rhumerie Bounty(永福路店)","lon":"121.44434","lat":"31.21114","category":"260","category_name":"其他","address":"徐汇区永福路47号1楼(近五原路)"},{"poiid":"B2094757D169AAF94193","title":"淮海中路乌鲁木齐中路","lon":"121.446426586","lat":"31.2118040707","category":"500","category_name":"未知分类","address":"上海淮海中路乌鲁木齐中路"},{"poiid":"B2094752D669A6F8449B","title":"鼎王无老养生锅","lon":"121.444528","lat":"31.209638","category":"500","category_name":"未知分类","address":"衡山路2号甲香樟花园"},{"poiid":"B2094757D66EA0FA489E","title":"NeNe Italian restaurant","lon":"121.443460786","lat":"31.2108263515","category":"94","category_name":"西餐厅","address":"徐汇区永福路47号106室(近复兴路)"},{"poiid":"B2094757D569A7FD4499","title":"Mata Mata面包房","lon":"121.44619439","lat":"31.21188802","category":"112","category_name":"糕饼店","address":"乌鲁木齐中路292"},{"poiid":"B2094752D768A2FB409C","title":"鼎王无老锅","lon":"121.446411","lat":"31.211093","category":"247","category_name":"餐饮美食","address":"衡山路2号（香樟花园内）"},{"poiid":"B2094757D068AAF9449A","title":"新潮发家常菜","lon":"121.44598","lat":"31.21257","category":"76","category_name":"上海菜","address":"徐汇区乌鲁木齐中路210号(五原路口)"},{"poiid":"B2094752D465A0FB4898","title":"green & safe","lon":"121.445931","lat":"31.21128","category":"247","category_name":"餐饮美食","address":"东平路6号"},{"poiid":"B209475DD76FA6F9469B","title":"环贸iapm","lon":"121.446853","lat":"31.211797","category":"249","category_name":"购物服务","address":"上海市 徐汇区淮海中路999号"},{"poiid":"B2094757D56DA4FD449D","title":"十八香小龙虾  乌中店","lon":"121.44636869430542","lat":"31.21113144418511","category":"247","category_name":"餐饮美食","address":"上海 上海市 乌鲁木齐中路342号近复兴西路"},{"poiid":"B2094750DB68A7FC439A","title":"cupcakes cafe","lon":"121.4456","lat":"31.21321","category":"67","category_name":"甜品店","address":"徐汇区乌鲁木齐中路192号(近安福路)"},{"poiid":"B2094757D069A6FF4893","title":"Oscar 's Pub","lon":"121.44726716","lat":"31.210363417","category":"500","category_name":"未知分类","address":"上海市复兴西路1377号"},{"poiid":"B2094655D268A1FF449A","title":"陆记蟹行","lon":"121.4461","lat":"31.21202","category":"88","category_name":"海鲜酒楼","address":"上海徐汇区乌鲁木齐中路276号(顶顶鲜超市对面)  "},{"poiid":"B2094757D16EABF54492","title":"乌鲁木齐中路烧烤摊","lon":"121.446404","lat":"31.211256","category":"257","category_name":"中餐厅","address":"上海乌鲁木齐中路328号"},{"poiid":"B2094753D764A7FE479C","title":"暹罗花园","lon":"121.446578","lat":"31.211332","category":"47","category_name":"住宅区","address":"上海市 上海市徐汇区安福路249弄1号"},{"poiid":"B2094751D36EA4F5409B","title":"Organic Kitchen","lon":"121.44503","lat":"31.21022","category":"94","category_name":"西餐厅","address":"徐汇区复兴西路57号(近永福路)"},{"poiid":"B2094655D26FA4FA469B","title":"Yme Casa","lon":"121.44673","lat":"31.21294","category":"76","category_name":"上海菜","address":"徐汇区五原路108号(近乌鲁木齐路)"},{"poiid":"B2094757D06BA4FC4492","title":"吉祥馄饨(复兴西路店)","lon":"121.44671","lat":"31.21029","category":"68","category_name":"快餐厅","address":"徐汇区复兴西路26号(近乌鲁木齐南路)"},{"poiid":"B2094654D564A4F9409A","title":"红峰副食品商店","lon":"121.44606","lat":"31.21205","category":"117","category_name":"便民商店/便利店","address":""},{"poiid":"B2094757D568ABFC4598","title":"迪亚天天(乌鲁木齐中路)","lon":"121.44638428","lat":"31.2119987","category":"117","category_name":"便民商店/便利店","address":"静安区乌鲁木齐中路247-3号(乌鲁木齐中路五原路)"}]