[{"poiid":"B2094654DB65A5F8489A","title":"上海国际赛车场","lon":"121.22282","lat":"31.3401","category":"224","category_name":"综合体育馆","address":"嘉定区伊宁路2000号"},{"poiid":"B2094655D36CA2F4479E","title":"上海赛车场","lon":"121.23606","lat":"31.33054","category":"38","category_name":"公交车站","address":""},{"poiid":"B2094757D069A0FB499E","title":"F1赛车场","lon":"121.22218328","lat":"31.334469835","category":"220","category_name":"运动场所","address":"上海F1"},{"poiid":"B2094757D06FA2F9489E","title":"嘉定新城地铁站","lon":"121.25468554","lat":"31.329586409","category":"36","category_name":"地铁站","address":"上海轨道交通 十一号线 轨交嘉定新城站 11"},{"poiid":"B2094757D06FA0F5479E","title":"白银路地铁站","lon":"121.24574053","lat":"31.344687124","category":"36","category_name":"地铁站","address":"上海轨道交通 十一号线 轨交白银路站 11"},{"poiid":"B2094655D36DA6FD469B","title":"嘉定新城","lon":"121.25464","lat":"31.32956","category":"47","category_name":"住宅区","address":""},{"poiid":"B2094757D06FA7F94998","title":"上海赛车场地铁站","lon":"121.225481649","lat":"31.3317858564","category":"36","category_name":"地铁站","address":"上海轨道交通 十一号线 轨交上海赛车场站 11"},{"poiid":"B209475CDA6AAAFD499C","title":"上海F1国际赛车场","lon":"121.22525","lat":"31.3369","category":"607","category_name":"一般景点","address":"上海市嘉定区伊宁路2000号"},{"poiid":"B2094757D16FA2FB429C","title":"新城金郡","lon":"121.239354289","lat":"31.3435560224","category":"47","category_name":"住宅区","address":"上海白银路地铁站"},{"poiid":"B2094654DB65A2F94898","title":"上海国际卡丁车世界","lon":"121.22328","lat":"31.34028","category":"157","category_name":"汽车俱乐部","address":"嘉定区伊宁路2000号F1国际赛车场内"},{"poiid":"B2094757D168A3F94998","title":"龙湖 郦城国际社区","lon":"121.252030069","lat":"31.3283132785","category":"47","category_name":"住宅区","address":"嘉定新城双单路1509号"},{"poiid":"B2094757D06AA0F4419A","title":"保时捷培训中心","lon":"121.238519","lat":"31.331453","category":"253","category_name":"校园生活","address":"上海伊宁路"},{"poiid":"B209475DDA6EA5F84299","title":"上海国际赛车场","lon":"121.229812","lat":"31.333917","category":"627","category_name":"一般地点标志","address":"上海市 上海市嘉定区"},{"poiid":"B2094757D46AA1FD489F","title":"咖世家咖啡 国际赛车场店 COSTA COFFEE","lon":"121.22528","lat":"31.33366","category":"65","category_name":"咖啡厅","address":"嘉定区伊宁路2000号上海国际赛车场A看台1楼(近内环南路)"},{"poiid":"B2094757D569A3F5439F","title":"Porsche China Training Centre","lon":"121.22912788","lat":"31.33022624","category":"94","category_name":"西餐厅","address":"中国上海市嘉定区"},{"poiid":"B2094757D66DA6FD4792","title":"盘古天地","lon":"121.246903389","lat":"31.3424915005","category":"500","category_name":"未知分类","address":"上海云屏路1188号"},{"poiid":"B2094655D36DA6FC4899","title":"白银路","lon":"121.24572","lat":"31.34468","category":"38","category_name":"公交车站","address":""},{"poiid":"B2094654D468ABF94693","title":"上海国际赛车场治安派出所","lon":"121.22991","lat":"31.33264","category":"609","category_name":"警察局","address":"嘉定区伊宁路2110号"},{"poiid":"B2094750D66FAAF4469F","title":"上海市嘉定区妇幼保健院","lon":"121.247322","lat":"31.349636","category":"162","category_name":"医院","address":"嘉定区高台路1216号"},{"poiid":"B209475DDA6DA5FC4198","title":"上海国际赛车场","lon":"121.234741","lat":"31.330848","category":"627","category_name":"一般地点标志","address":"上海市 上海国际赛车场"},{"poiid":"B2094654D468AAFD449D","title":"F1主题餐厅","lon":"121.22444","lat":"31.34031","category":"257","category_name":"中餐厅","address":""},{"poiid":"B2094654DB65A2F44399","title":"水景广场","lon":"121.22598","lat":"31.33138","category":"202","category_name":"公园广场","address":"方泰镇"},{"poiid":"B209475DD564A4FC4293","title":"上海国际赛车场","lon":"121.229827","lat":"31.332103","category":"627","category_name":"一般地点标志","address":"上海市 上海市"},{"poiid":"B2094654D468AAFD4492","title":"卡丁车世界工作楼","lon":"121.22291","lat":"31.34027","category":"46","category_name":"楼宇","address":""},{"poiid":"B2094757D16FA3FC479B","title":"中国馆一楼等候大厅","lon":"121.24703528","lat":"31.342757006","category":"500","category_name":"未知分类","address":"上海浦东中国馆"},{"poiid":"B2094655D26EABF9489C","title":"上海国际赛车场有限公司","lon":"121.22592","lat":"31.32976","category":"263","category_name":"公司","address":"伊宁路2199号"},{"poiid":"B2094655D264A3F44898","title":"安泾桥","lon":"121.25001","lat":"31.3365","category":"250","category_name":"公园户外","address":""},{"poiid":"B2094750D16BA5F8449A","title":"上海国际赛车场11号PIT房","lon":"121.224754","lat":"31.333574","category":"500","category_name":"未知分类","address":null},{"poiid":"B2094753D26AA4FF439B","title":"兰博基尼 viproom","lon":"121.223235","lat":"31.333538","category":"500","category_name":"未知分类","address":"上海市 F1嘉定赛车场"},{"poiid":"B2094757D16EA3FE439E","title":"虬桥邨私房菜","lon":"121.2292","lat":"31.35278","category":"247","category_name":"餐饮美食","address":"上海近郊嘉定区回城南路2233号  "},{"poiid":"B2094757D16AAAFC489F","title":"嘉定6路","lon":"121.245931289","lat":"31.346494083","category":"500","category_name":"未知分类","address":"上海嘉定6路"},{"poiid":"B2094655D26FA3FE479B","title":"上海国际飞行竞技场","lon":"121.22354","lat":"31.34551","category":"220","category_name":"运动场所","address":""},{"poiid":"B2094655D264A3F4459D","title":"南姚泾桥","lon":"121.23252","lat":"31.35088","category":"250","category_name":"公园户外","address":""},{"poiid":"B2094757D66EA6F9479A","title":"虬橋村","lon":"121.228809653","lat":"31.3531922879","category":"500","category_name":"未知分类","address":"上海市嘉定区Ｇ１５沈海高速"},{"poiid":"B2094654D468AAFD449C","title":"越野公园","lon":"121.21801","lat":"31.3375","category":"196","category_name":"公园","address":""},{"poiid":"B2094750D26CA6FF479D","title":"嘉定妇幼保健院","lon":"121.2448935449492","lat":"31.35352901311892","category":"162","category_name":"医院","address":"高台路"},{"poiid":"B2094757DA65A3FB479F","title":"养乐多","lon":"121.25220112173997","lat":"31.343357388444456","category":"263","category_name":"公司","address":"嘉定区伊宁路986号"},{"poiid":"B2094757D165AAF44698","title":"龙湖郦城","lon":"121.25251","lat":"31.326742","category":"500","category_name":"未知分类","address":"上海嘉定新城双单路1509弄"},{"poiid":"B2094757D568A4FF449A","title":"新城西尚海","lon":"121.2515539","lat":"31.34901889","category":"47","category_name":"住宅区","address":"嘉定新城轨道交通11号线白银路站"},{"poiid":"B2094757D165A2F5429C","title":"嘉定新城示范性高级中学","lon":"121.245029053","lat":"31.3533350908","category":"500","category_name":"未知分类","address":"上海嘉定区嘉定新城东至合作路，南至洪德路，西至胜辛路，北至城固路"},{"poiid":"B2094654D469A2FF4798","title":"富士通将军(上海)有限公司","lon":"121.24135","lat":"31.35666","category":"263","category_name":"公司","address":"回城南路1720"},{"poiid":"B2094752DA6BA1FC4198","title":"南翔","lon":"121.254684","lat":"31.329586","category":"500","category_name":"未知分类","address":"上海市 南翔镇解放街民主街"},{"poiid":"B2094655D268ABFF479F","title":"Ａ３０永盛路收费站","lon":"121.24566","lat":"31.35415","category":"267","category_name":"收费站","address":""},{"poiid":"B2094757D16DA7FA439F","title":"嘉定9路","lon":"121.254691","lat":"31.329595","category":"500","category_name":"未知分类","address":"上海嘉定新城站-菊园车站"},{"poiid":"B2094654D468ABFA4393","title":"上海利才金属制品有限公司","lon":"121.22869","lat":"31.35631","category":"263","category_name":"公司","address":"叶城路1688号"},{"poiid":"B2094654DB6AA6FA4893","title":"钇微(上海)科技有限公司(城固路)","lon":"121.24871","lat":"31.35311","category":"263","category_name":"公司","address":"洪德路918号"}]