[{"poiid":"B2094757D06FA4FB4292","title":"番茄农庄圣湖度假俱乐部","lon":"121.11776","lat":"30.9435","category":"260","category_name":"其他","address":"上海近郊松江区泖港镇叶新支路1272号  "},{"poiid":"B2094757D064A0FD429B","title":"香薇玫瑰庄园","lon":"121.1396","lat":"30.92839","category":"500","category_name":"未知分类","address":"松江区松江现代农业园区五厍示范区东厍路105号"},{"poiid":"B2094757D16FA3F9499D","title":"乡屋人家","lon":"121.119316831","lat":"30.9432486423","category":"76","category_name":"上海菜","address":"松江区叶新支路1272号(近叶新公路)"},{"poiid":"B2094757D16DA1F94498","title":"天一农庄","lon":"121.11604","lat":"30.94237","category":"260","category_name":"其他","address":"上海近郊松江叶新支路1608号(近东方狐狸城)  "},{"poiid":"B2094654DB6FABF9479C","title":"松江区五厍学校","lon":"121.13914","lat":"30.93812","category":"55","category_name":"中学","address":""},{"poiid":"B2094654DB6FABFD4998","title":"番茄农庄","lon":"121.11752","lat":"30.94371","category":"248","category_name":"生活娱乐","address":"松江区泖港镇叶新支路1600号"},{"poiid":"B2094757D169A0FF489B","title":"格林乡村酒店","lon":"121.13153621","lat":"30.928510898","category":"217","category_name":"旅馆招待所","address":"近郊西厍公路189号(近叶新公路)"},{"poiid":"B2094654DB6FABFD489C","title":"上海云间大自然农业科技示范基地","lon":"121.12686","lat":"30.93511","category":"45","category_name":"产业园区","address":""},{"poiid":"B2094757D568A1F5499B","title":"番茄农庄圣湖俱乐部餐厅","lon":"121.141366","lat":"30.939203","category":"257","category_name":"中餐厅","address":"松江区泖港镇叶新支路1272号"},{"poiid":"B2094654DB6FABFD489F","title":"名优养殖基地","lon":"121.12124","lat":"30.93585","category":"45","category_name":"产业园区","address":""},{"poiid":"B2094752D76EA3FB439E","title":"浦江蓝，蓝莓园","lon":"121.14244","lat":"30.936193","category":"263","category_name":"公司","address":"松江区泖港镇徐厍村叶新公路转黄桥公路"},{"poiid":"B2094757D16AA0F44599","title":"乡格里拉农庄","lon":"121.135193213","lat":"30.9260148454","category":"260","category_name":"其他","address":"松江区新五镇五朱公路999号(近叶新公路)"},{"poiid":"B2094655D36DA1FA499C","title":"五厍","lon":"121.14269","lat":"30.95699","category":"38","category_name":"公交车站","address":""},{"poiid":"B2094757D16CABFE4092","title":"浦南陵园","lon":"121.148866213","lat":"30.9371810813","category":"620","category_name":"丧葬","address":"松江区叶新公路5049号"},{"poiid":"B2094757D66CA1F44592","title":"77薰衣岛度假村","lon":"121.140893213","lat":"30.9299029275","category":"260","category_name":"其他","address":"上海松江区五朱公路999号(近番茄农庄)"},{"poiid":"B2094757D16AA7FE419F","title":"新天地乡村马术俱乐部","lon":"121.12017331","lat":"30.939371427","category":"260","category_name":"其他","address":"上海松江"},{"poiid":"B2094757D66CA3F84593","title":"华颂园度假村","lon":"121.136227","lat":"30.925737","category":"500","category_name":"未知分类","address":"松江区五厍镇中厍路888号"}]