[{"poiid":"B2094654DB64A6FF429C","title":"星巴克(古北店)","lon":"121.394189","lat":"31.193703","category":"260","category_name":"其他","address":"长宁区水城南路20号(黄金城道水城南路)"},{"poiid":"B2094757D06FA1FB4498","title":"千秋膳房(古北店)","lon":"121.39549","lat":"31.19448","category":"91","category_name":"台湾菜","address":"上海长宁区水城南路17号"},{"poiid":"B2094757D06BABFE449C","title":"黄金城道","lon":"121.395090586","lat":"31.1946027344","category":"500","category_name":"未知分类","address":"上海黄金城道水城南路"},{"poiid":"B2094757D068A5F4459B","title":"天家 名都城店","lon":"121.394703054","lat":"31.192743793","category":"95","category_name":"日本料理","address":"古羊路1129号名都城俱乐部1楼近虹许路"},{"poiid":"B2094757D06FA2FB419C","title":"麦当劳(古北店)","lon":"121.39396","lat":"31.19584","category":"68","category_name":"快餐厅","address":"长宁区水城南路258号古北家乐福附近(近延安西路)"},{"poiid":"B2094757D06AA0F9439E","title":"墨西哥灵得餐厅 Mexico Lindo","lon":"121.388838","lat":"31.192011","category":"94","category_name":"西餐厅","address":"闵行区虹梅路3338弄2号虹梅休闲街39号(近延安西路)"},{"poiid":"B2094757D069ABFA439A","title":"もんじゃ鬼ぴ～","lon":"121.39527","lat":"31.19343","category":"95","category_name":"日本料理","address":"上海长宁区荣华东道19弄3号d室(近水城南路)"},{"poiid":"B2094654DB64A6FA4392","title":"Colabo 万科广场店","lon":"121.39355883409","lat":"31.194660683717","category":"94","category_name":"西餐厅","address":"长宁区水城南路37号万科广场北楼3楼(近黄金城道)"},{"poiid":"B2094757D06BA6FE4693","title":"朵馥苑酒家","lon":"121.39357858","lat":"31.191007664","category":"76","category_name":"上海菜","address":"长宁区古羊路1129号名都城俱乐部2楼(近水城南路)"},{"poiid":"B2094757D66AAAFF4598","title":"涟波 SAZANAMI","lon":"121.39484837119","lat":"31.19537499377","category":"95","category_name":"日本料理","address":"长宁区荣华东道121号(近家乐福)"},{"poiid":"B2094757D06AA6F4469D","title":"名都城俱樂部","lon":"121.39438841","lat":"31.191833847","category":"260","category_name":"其他","address":"长宁区虹许路788号名都城内(近古羊路)"},{"poiid":"B2094757D069A1FE4693","title":"千秋小馆","lon":"121.39568658","lat":"31.192137686","category":"91","category_name":"台湾菜","address":"长宁区黄金城道887号(近水城南路)"},{"poiid":"B2094654D564A2FF4893","title":"万科广场商务楼","lon":"121.39342","lat":"31.19465","category":"46","category_name":"楼宇","address":"河西区土城医院西侧"},{"poiid":"B2094655D26FA1FE449D","title":"伊藤家(古北店)","lon":"121.39291","lat":"31.1936","category":"95","category_name":"日本料理","address":"长宁区荣华西道19弄金狮花园6号101室(近水城南路)"},{"poiid":"B2094757D069AAF44192","title":"青叶台湾料理(长宁店)","lon":"121.39385","lat":"31.19426","category":"91","category_name":"台湾菜","address":"长宁区水城南路37号万科广场北楼2楼(近黄金城道)"},{"poiid":"B2094757D069A0FE4892","title":"巴黎贝甜(古北店)","lon":"121.39491","lat":"31.19273","category":"67","category_name":"甜品店","address":"长宁区水城南路12号(名都城对面)"},{"poiid":"B2094757D06BA1F5489B","title":"Dunkin Donuts(荣华西道店)","lon":"121.3936","lat":"31.19449","category":"67","category_name":"甜品店","address":"长宁区荣华西道99弄金马公寓1号101室(近水城南路)"},{"poiid":"B2094654D564A2FF499A","title":"和惠日式烧肉","lon":"121.39356","lat":"31.19453","category":"269","category_name":"烧烤","address":"长宁区水城南路37号万科广场1楼(近黄金城道)"},{"poiid":"B2094757D665A1FA419E","title":"彩寿司","lon":"121.393653054","lat":"31.194346793","category":"95","category_name":"日本料理","address":"长宁区水城南路17号万科广场2楼(近黄金城道)"},{"poiid":"B2094757D664A3F9499C","title":"百八","lon":"121.39131","lat":"31.1934","category":"95","category_name":"日本料理","address":"长宁区荣华西道59号古北俱乐部2楼(近水城南路)"},{"poiid":"B2094655D26BA5FC4592","title":"芭斯罗缤冰淇淋","lon":"121.39449","lat":"31.19377","category":"113","category_name":"冷饮店","address":"长宁区水城南路18号(近荣华东道)"},{"poiid":"B2094655D26DA0F54992","title":"碧玉公寓","lon":"121.39236","lat":"31.19286","category":"47","category_name":"住宅区","address":"荣华西道38弄1-17号"},{"poiid":"B2094654DB6BA7F9439E","title":"华园大厦","lon":"121.39266","lat":"31.193392","category":"47","category_name":"住宅区","address":"荣华西道39弄"},{"poiid":"B2094654D564A2F8469C","title":"香啡缤 黄金城道店 Coffee Bean&Tea Leaf","lon":"121.39444829068","lat":"31.194243094447","category":"247","category_name":"餐饮美食","address":"黄金城道915号近古北路"},{"poiid":"B2094757D068A6F4449D","title":"香港喜运来烧腊茶餐厅","lon":"121.39391958","lat":"31.193788718","category":"111","category_name":"休闲餐饮场所","address":"长宁区水城南路17号万科广场内(近古羊路)"},{"poiid":"B2094757D76BA1F4489B","title":"八五八五韩式快餐","lon":"121.3940028","lat":"31.1937747","category":"68","category_name":"快餐厅","address":"长宁区水城南路29号(近荣华西道)"},{"poiid":"B2094654D564A2F94093","title":"STARBUCKS COFFEE(水城南路)","lon":"121.39446","lat":"31.1938","category":"65","category_name":"咖啡厅","address":"中国上海市長寧區水城南路20号"},{"poiid":"B2094655D26FAAF44093","title":"金马公寓(南门)","lon":"121.39286","lat":"31.19321","category":"47","category_name":"住宅区","address":""},{"poiid":"B2094757D568A1F94092","title":"富士咖啡屋","lon":"121.394584","lat":"31.190828","category":"65","category_name":"咖啡厅","address":"长宁区虹许路788号名都城俱乐部1-2楼(近古羊路)"},{"poiid":"B2094757D16CA6FC489C","title":"嘉年别墅","lon":"121.390522","lat":"31.194017","category":"47","category_name":"住宅区","address":"上海虹梅路3333号"},{"poiid":"B2094757D66FA7FB4998","title":"blue frog","lon":"121.391694586","lat":"31.1946807359","category":"500","category_name":"未知分类","address":"上海老外街"},{"poiid":"B2094750D664AAF94492","title":"一龙居酒屋(古北店)","lon":"121.394","lat":"31.194","category":"95","category_name":"日本料理","address":"长宁区水城南路17号万科广场A37号(近黄金城道)"},{"poiid":"B2094654DB64A4F5479B","title":"万科广场南楼","lon":"121.39363","lat":"31.19386","category":"46","category_name":"楼宇","address":"水城南路17"},{"poiid":"B2094654DB6BA7F9459A","title":"珈露梦咖啡 水城南路店 Carmo Specialty Coffee","lon":"121.393881054","lat":"31.194378793","category":"260","category_name":"其他","address":"长宁区水城南路28号(近黄金城道)"},{"poiid":"B2094655D36CA6FC419E","title":"古羊路水城南路","lon":"121.39398","lat":"31.19215","category":"38","category_name":"公交车站","address":""},{"poiid":"B2094757D464A7FF4592","title":"伊豆日本烧肉","lon":"121.39578130603","lat":"31.194834981876","category":"247","category_name":"餐饮美食","address":"长宁区黄金城道856号(水城南路和古北南路之间)"},{"poiid":"B2094655D268A3FC4793","title":"上海长宁区耀华进修学校","lon":"121.39275","lat":"31.19237","category":"53","category_name":"成人教育","address":"荣华西道28弄6号"},{"poiid":"B2094757D064A2F8409F","title":"耀中国际学校(古北校区)","lon":"121.39365","lat":"31.19292","category":"260","category_name":"其他","address":"长宁区荣华西道18号(近水城南路古羊路)"},{"poiid":"B2094655D26EA2F5419E","title":"金龙公寓(1号)","lon":"121.39388","lat":"31.19347","category":"47","category_name":"住宅区","address":"荣华西道19弄1号"},{"poiid":"B2094655D265ABFD489B","title":"香港名都庄园","lon":"121.39464","lat":"31.19164","category":"76","category_name":"上海菜","address":"长宁区虹许路788号名都城内(近水城路)"},{"poiid":"B2094751D56DA7FC439A","title":"Souper Fresh(荣华西道店)","lon":"121.39252","lat":"31.19487","category":"94","category_name":"西餐厅","address":"长宁区荣华西道99弄金马公寓4号101室(近水城南路)"},{"poiid":"B2094750D26EA3FF4698","title":"上雅铁板烧 长宁店 Julia Teppanyaki","lon":"121.39577541849","lat":"31.194540619812","category":"269","category_name":"烧烤","address":"长宁区黄金城道851号(近水城南路)"},{"poiid":"B2094655D26BA3FE439A","title":"1004超市古北店","lon":"121.39363","lat":"31.19386","category":"248","category_name":"生活娱乐","address":"长宁区水城南路27-33号(近万科广场)"},{"poiid":"B2094654DB6BA7F94399","title":"鱼藏(水城南路店)","lon":"121.39234","lat":"31.19407","category":"95","category_name":"日本料理","address":"长宁区水城南路29号广场大厦1楼"},{"poiid":"B2094757D165A0F8419C","title":"蔓丝帝美仪健康研修中心","lon":"121.39376","lat":"31.19364","category":"148","category_name":"美容美发店","address":"上海长宁区水城南路17号3号门601室(近古北家乐福)  "},{"poiid":"B2094654DB6AA3FC4993","title":"咖露梦","lon":"121.39405","lat":"31.19416","category":"247","category_name":"餐饮美食","address":"长宁区水城南路32号"},{"poiid":"B2094654DB6BA7F9449E","title":"碧玉公寓(北门)","lon":"121.39179","lat":"31.19275","category":"47","category_name":"住宅区","address":""},{"poiid":"B2094751D56EA3FB439F","title":"魔家Tokyo铁板(古北店)","lon":"121.39607","lat":"31.19414","category":"269","category_name":"烧烤","address":"长宁区荣华东道19弄4号云古酒店店公寓1楼4012-4013室(近水城南路)"},{"poiid":"B2094655D268A7FC4498","title":"西郊花园别墅(北门)","lon":"121.39123","lat":"31.19301","category":"47","category_name":"住宅区","address":"水城南路荣华西道58弄"},{"poiid":"B2094655D26BABFA4492","title":"古北千殿精品商场","lon":"121.39234","lat":"31.1941","category":"119","category_name":"商场","address":""},{"poiid":"B2094654DB64A6FF429C","title":"星巴克(古北店)","lon":"121.394189","lat":"31.193703","category":"260","category_name":"其他","address":"长宁区水城南路20号(黄金城道水城南路)"},{"poiid":"B2094757D06FA1FB4498","title":"千秋膳房(古北店)","lon":"121.39549","lat":"31.19448","category":"91","category_name":"台湾菜","address":"上海长宁区水城南路17号"},{"poiid":"B2094757D06BABFE449C","title":"黄金城道","lon":"121.395090586","lat":"31.1946027344","category":"500","category_name":"未知分类","address":"上海黄金城道水城南路"},{"poiid":"B2094757D068A5F4459B","title":"天家 名都城店","lon":"121.394703054","lat":"31.192743793","category":"95","category_name":"日本料理","address":"古羊路1129号名都城俱乐部1楼近虹许路"},{"poiid":"B2094757D06FA2FB419C","title":"麦当劳(古北店)","lon":"121.39396","lat":"31.19584","category":"68","category_name":"快餐厅","address":"长宁区水城南路258号古北家乐福附近(近延安西路)"},{"poiid":"B2094757D06AA0F9439E","title":"墨西哥灵得餐厅 Mexico Lindo","lon":"121.388838","lat":"31.192011","category":"94","category_name":"西餐厅","address":"闵行区虹梅路3338弄2号虹梅休闲街39号(近延安西路)"},{"poiid":"B2094757D069ABFA439A","title":"もんじゃ鬼ぴ～","lon":"121.39527","lat":"31.19343","category":"95","category_name":"日本料理","address":"上海长宁区荣华东道19弄3号d室(近水城南路)"},{"poiid":"B2094654DB64A6FA4392","title":"Colabo 万科广场店","lon":"121.39355883409","lat":"31.194660683717","category":"94","category_name":"西餐厅","address":"长宁区水城南路37号万科广场北楼3楼(近黄金城道)"},{"poiid":"B2094757D06BA6FE4693","title":"朵馥苑酒家","lon":"121.39357858","lat":"31.191007664","category":"76","category_name":"上海菜","address":"长宁区古羊路1129号名都城俱乐部2楼(近水城南路)"},{"poiid":"B2094757D66AAAFF4598","title":"涟波 SAZANAMI","lon":"121.39484837119","lat":"31.19537499377","category":"95","category_name":"日本料理","address":"长宁区荣华东道121号(近家乐福)"},{"poiid":"B2094757D06AA6F4469D","title":"名都城俱樂部","lon":"121.39438841","lat":"31.191833847","category":"260","category_name":"其他","address":"长宁区虹许路788号名都城内(近古羊路)"},{"poiid":"B2094757D069A1FE4693","title":"千秋小馆","lon":"121.39568658","lat":"31.192137686","category":"91","category_name":"台湾菜","address":"长宁区黄金城道887号(近水城南路)"},{"poiid":"B2094654D564A2FF4893","title":"万科广场商务楼","lon":"121.39342","lat":"31.19465","category":"46","category_name":"楼宇","address":"河西区土城医院西侧"},{"poiid":"B2094655D26FA1FE449D","title":"伊藤家(古北店)","lon":"121.39291","lat":"31.1936","category":"95","category_name":"日本料理","address":"长宁区荣华西道19弄金狮花园6号101室(近水城南路)"},{"poiid":"B2094757D069AAF44192","title":"青叶台湾料理(长宁店)","lon":"121.39385","lat":"31.19426","category":"91","category_name":"台湾菜","address":"长宁区水城南路37号万科广场北楼2楼(近黄金城道)"},{"poiid":"B2094757D069A0FE4892","title":"巴黎贝甜(古北店)","lon":"121.39491","lat":"31.19273","category":"67","category_name":"甜品店","address":"长宁区水城南路12号(名都城对面)"},{"poiid":"B2094757D06BA1F5489B","title":"Dunkin Donuts(荣华西道店)","lon":"121.3936","lat":"31.19449","category":"67","category_name":"甜品店","address":"长宁区荣华西道99弄金马公寓1号101室(近水城南路)"},{"poiid":"B2094654D564A2FF499A","title":"和惠日式烧肉","lon":"121.39356","lat":"31.19453","category":"269","category_name":"烧烤","address":"长宁区水城南路37号万科广场1楼(近黄金城道)"},{"poiid":"B2094757D665A1FA419E","title":"彩寿司","lon":"121.393653054","lat":"31.194346793","category":"95","category_name":"日本料理","address":"长宁区水城南路17号万科广场2楼(近黄金城道)"},{"poiid":"B2094757D664A3F9499C","title":"百八","lon":"121.39131","lat":"31.1934","category":"95","category_name":"日本料理","address":"长宁区荣华西道59号古北俱乐部2楼(近水城南路)"},{"poiid":"B2094655D26BA5FC4592","title":"芭斯罗缤冰淇淋","lon":"121.39449","lat":"31.19377","category":"113","category_name":"冷饮店","address":"长宁区水城南路18号(近荣华东道)"},{"poiid":"B2094655D26DA0F54992","title":"碧玉公寓","lon":"121.39236","lat":"31.19286","category":"47","category_name":"住宅区","address":"荣华西道38弄1-17号"},{"poiid":"B2094654DB6BA7F9439E","title":"华园大厦","lon":"121.39266","lat":"31.193392","category":"47","category_name":"住宅区","address":"荣华西道39弄"},{"poiid":"B2094654D564A2F8469C","title":"香啡缤 黄金城道店 Coffee Bean&Tea Leaf","lon":"121.39444829068","lat":"31.194243094447","category":"247","category_name":"餐饮美食","address":"黄金城道915号近古北路"},{"poiid":"B2094757D068A6F4449D","title":"香港喜运来烧腊茶餐厅","lon":"121.39391958","lat":"31.193788718","category":"111","category_name":"休闲餐饮场所","address":"长宁区水城南路17号万科广场内(近古羊路)"},{"poiid":"B2094757D76BA1F4489B","title":"八五八五韩式快餐","lon":"121.3940028","lat":"31.1937747","category":"68","category_name":"快餐厅","address":"长宁区水城南路29号(近荣华西道)"},{"poiid":"B2094654D564A2F94093","title":"STARBUCKS COFFEE(水城南路)","lon":"121.39446","lat":"31.1938","category":"65","category_name":"咖啡厅","address":"中国上海市長寧區水城南路20号"},{"poiid":"B2094655D26FAAF44093","title":"金马公寓(南门)","lon":"121.39286","lat":"31.19321","category":"47","category_name":"住宅区","address":""},{"poiid":"B2094757D568A1F94092","title":"富士咖啡屋","lon":"121.394584","lat":"31.190828","category":"65","category_name":"咖啡厅","address":"长宁区虹许路788号名都城俱乐部1-2楼(近古羊路)"},{"poiid":"B2094757D16CA6FC489C","title":"嘉年别墅","lon":"121.390522","lat":"31.194017","category":"47","category_name":"住宅区","address":"上海虹梅路3333号"},{"poiid":"B2094757D66FA7FB4998","title":"blue frog","lon":"121.391694586","lat":"31.1946807359","category":"500","category_name":"未知分类","address":"上海老外街"},{"poiid":"B2094750D664AAF94492","title":"一龙居酒屋(古北店)","lon":"121.394","lat":"31.194","category":"95","category_name":"日本料理","address":"长宁区水城南路17号万科广场A37号(近黄金城道)"},{"poiid":"B2094654DB64A4F5479B","title":"万科广场南楼","lon":"121.39363","lat":"31.19386","category":"46","category_name":"楼宇","address":"水城南路17"},{"poiid":"B2094654DB6BA7F9459A","title":"珈露梦咖啡 水城南路店 Carmo Specialty Coffee","lon":"121.393881054","lat":"31.194378793","category":"260","category_name":"其他","address":"长宁区水城南路28号(近黄金城道)"},{"poiid":"B2094655D36CA6FC419E","title":"古羊路水城南路","lon":"121.39398","lat":"31.19215","category":"38","category_name":"公交车站","address":""},{"poiid":"B2094757D464A7FF4592","title":"伊豆日本烧肉","lon":"121.39578130603","lat":"31.194834981876","category":"247","category_name":"餐饮美食","address":"长宁区黄金城道856号(水城南路和古北南路之间)"},{"poiid":"B2094655D268A3FC4793","title":"上海长宁区耀华进修学校","lon":"121.39275","lat":"31.19237","category":"53","category_name":"成人教育","address":"荣华西道28弄6号"},{"poiid":"B2094757D064A2F8409F","title":"耀中国际学校(古北校区)","lon":"121.39365","lat":"31.19292","category":"260","category_name":"其他","address":"长宁区荣华西道18号(近水城南路古羊路)"},{"poiid":"B2094655D26EA2F5419E","title":"金龙公寓(1号)","lon":"121.39388","lat":"31.19347","category":"47","category_name":"住宅区","address":"荣华西道19弄1号"},{"poiid":"B2094655D265ABFD489B","title":"香港名都庄园","lon":"121.39464","lat":"31.19164","category":"76","category_name":"上海菜","address":"长宁区虹许路788号名都城内(近水城路)"},{"poiid":"B2094751D56DA7FC439A","title":"Souper Fresh(荣华西道店)","lon":"121.39252","lat":"31.19487","category":"94","category_name":"西餐厅","address":"长宁区荣华西道99弄金马公寓4号101室(近水城南路)"},{"poiid":"B2094750D26EA3FF4698","title":"上雅铁板烧 长宁店 Julia Teppanyaki","lon":"121.39577541849","lat":"31.194540619812","category":"269","category_name":"烧烤","address":"长宁区黄金城道851号(近水城南路)"},{"poiid":"B2094655D26BA3FE439A","title":"1004超市古北店","lon":"121.39363","lat":"31.19386","category":"248","category_name":"生活娱乐","address":"长宁区水城南路27-33号(近万科广场)"},{"poiid":"B2094654DB6BA7F94399","title":"鱼藏(水城南路店)","lon":"121.39234","lat":"31.19407","category":"95","category_name":"日本料理","address":"长宁区水城南路29号广场大厦1楼"},{"poiid":"B2094757D165A0F8419C","title":"蔓丝帝美仪健康研修中心","lon":"121.39376","lat":"31.19364","category":"148","category_name":"美容美发店","address":"上海长宁区水城南路17号3号门601室(近古北家乐福)  "},{"poiid":"B2094654DB6AA3FC4993","title":"咖露梦","lon":"121.39405","lat":"31.19416","category":"247","category_name":"餐饮美食","address":"长宁区水城南路32号"},{"poiid":"B2094654DB6BA7F9449E","title":"碧玉公寓(北门)","lon":"121.39179","lat":"31.19275","category":"47","category_name":"住宅区","address":""},{"poiid":"B2094751D56EA3FB439F","title":"魔家Tokyo铁板(古北店)","lon":"121.39607","lat":"31.19414","category":"269","category_name":"烧烤","address":"长宁区荣华东道19弄4号云古酒店店公寓1楼4012-4013室(近水城南路)"},{"poiid":"B2094655D268A7FC4498","title":"西郊花园别墅(北门)","lon":"121.39123","lat":"31.19301","category":"47","category_name":"住宅区","address":"水城南路荣华西道58弄"},{"poiid":"B2094655D26BABFA4492","title":"古北千殿精品商场","lon":"121.39234","lat":"31.1941","category":"119","category_name":"商场","address":""},{"poiid":"B2094654DB64A6FF429C","title":"星巴克(古北店)","lon":"121.394189","lat":"31.193703","category":"260","category_name":"其他","address":"长宁区水城南路20号(黄金城道水城南路)"},{"poiid":"B2094757D06FA1FB4498","title":"千秋膳房(古北店)","lon":"121.39549","lat":"31.19448","category":"91","category_name":"台湾菜","address":"上海长宁区水城南路17号"},{"poiid":"B2094757D06BABFE449C","title":"黄金城道","lon":"121.395090586","lat":"31.1946027344","category":"500","category_name":"未知分类","address":"上海黄金城道水城南路"},{"poiid":"B2094757D068A5F4459B","title":"天家 名都城店","lon":"121.394703054","lat":"31.192743793","category":"95","category_name":"日本料理","address":"古羊路1129号名都城俱乐部1楼近虹许路"},{"poiid":"B2094757D06FA2FB419C","title":"麦当劳(古北店)","lon":"121.39396","lat":"31.19584","category":"68","category_name":"快餐厅","address":"长宁区水城南路258号古北家乐福附近(近延安西路)"},{"poiid":"B2094757D06AA0F9439E","title":"墨西哥灵得餐厅 Mexico Lindo","lon":"121.388838","lat":"31.192011","category":"94","category_name":"西餐厅","address":"闵行区虹梅路3338弄2号虹梅休闲街39号(近延安西路)"},{"poiid":"B2094757D069ABFA439A","title":"もんじゃ鬼ぴ～","lon":"121.39527","lat":"31.19343","category":"95","category_name":"日本料理","address":"上海长宁区荣华东道19弄3号d室(近水城南路)"},{"poiid":"B2094654DB64A6FA4392","title":"Colabo 万科广场店","lon":"121.39355883409","lat":"31.194660683717","category":"94","category_name":"西餐厅","address":"长宁区水城南路37号万科广场北楼3楼(近黄金城道)"},{"poiid":"B2094757D06BA6FE4693","title":"朵馥苑酒家","lon":"121.39357858","lat":"31.191007664","category":"76","category_name":"上海菜","address":"长宁区古羊路1129号名都城俱乐部2楼(近水城南路)"},{"poiid":"B2094757D66AAAFF4598","title":"涟波 SAZANAMI","lon":"121.39484837119","lat":"31.19537499377","category":"95","category_name":"日本料理","address":"长宁区荣华东道121号(近家乐福)"},{"poiid":"B2094757D06AA6F4469D","title":"名都城俱樂部","lon":"121.39438841","lat":"31.191833847","category":"260","category_name":"其他","address":"长宁区虹许路788号名都城内(近古羊路)"},{"poiid":"B2094757D069A1FE4693","title":"千秋小馆","lon":"121.39568658","lat":"31.192137686","category":"91","category_name":"台湾菜","address":"长宁区黄金城道887号(近水城南路)"},{"poiid":"B2094654D564A2FF4893","title":"万科广场商务楼","lon":"121.39342","lat":"31.19465","category":"46","category_name":"楼宇","address":"河西区土城医院西侧"},{"poiid":"B2094655D26FA1FE449D","title":"伊藤家(古北店)","lon":"121.39291","lat":"31.1936","category":"95","category_name":"日本料理","address":"长宁区荣华西道19弄金狮花园6号101室(近水城南路)"},{"poiid":"B2094757D069AAF44192","title":"青叶台湾料理(长宁店)","lon":"121.39385","lat":"31.19426","category":"91","category_name":"台湾菜","address":"长宁区水城南路37号万科广场北楼2楼(近黄金城道)"},{"poiid":"B2094757D069A0FE4892","title":"巴黎贝甜(古北店)","lon":"121.39491","lat":"31.19273","category":"67","category_name":"甜品店","address":"长宁区水城南路12号(名都城对面)"},{"poiid":"B2094757D06BA1F5489B","title":"Dunkin Donuts(荣华西道店)","lon":"121.3936","lat":"31.19449","category":"67","category_name":"甜品店","address":"长宁区荣华西道99弄金马公寓1号101室(近水城南路)"},{"poiid":"B2094654D564A2FF499A","title":"和惠日式烧肉","lon":"121.39356","lat":"31.19453","category":"269","category_name":"烧烤","address":"长宁区水城南路37号万科广场1楼(近黄金城道)"},{"poiid":"B2094757D665A1FA419E","title":"彩寿司","lon":"121.393653054","lat":"31.194346793","category":"95","category_name":"日本料理","address":"长宁区水城南路17号万科广场2楼(近黄金城道)"},{"poiid":"B2094757D664A3F9499C","title":"百八","lon":"121.39131","lat":"31.1934","category":"95","category_name":"日本料理","address":"长宁区荣华西道59号古北俱乐部2楼(近水城南路)"},{"poiid":"B2094655D26BA5FC4592","title":"芭斯罗缤冰淇淋","lon":"121.39449","lat":"31.19377","category":"113","category_name":"冷饮店","address":"长宁区水城南路18号(近荣华东道)"},{"poiid":"B2094655D26DA0F54992","title":"碧玉公寓","lon":"121.39236","lat":"31.19286","category":"47","category_name":"住宅区","address":"荣华西道38弄1-17号"},{"poiid":"B2094654DB6BA7F9439E","title":"华园大厦","lon":"121.39266","lat":"31.193392","category":"47","category_name":"住宅区","address":"荣华西道39弄"},{"poiid":"B2094654D564A2F8469C","title":"香啡缤 黄金城道店 Coffee Bean&Tea Leaf","lon":"121.39444829068","lat":"31.194243094447","category":"247","category_name":"餐饮美食","address":"黄金城道915号近古北路"},{"poiid":"B2094757D068A6F4449D","title":"香港喜运来烧腊茶餐厅","lon":"121.39391958","lat":"31.193788718","category":"111","category_name":"休闲餐饮场所","address":"长宁区水城南路17号万科广场内(近古羊路)"},{"poiid":"B2094757D76BA1F4489B","title":"八五八五韩式快餐","lon":"121.3940028","lat":"31.1937747","category":"68","category_name":"快餐厅","address":"长宁区水城南路29号(近荣华西道)"},{"poiid":"B2094654D564A2F94093","title":"STARBUCKS COFFEE(水城南路)","lon":"121.39446","lat":"31.1938","category":"65","category_name":"咖啡厅","address":"中国上海市長寧區水城南路20号"},{"poiid":"B2094655D26FAAF44093","title":"金马公寓(南门)","lon":"121.39286","lat":"31.19321","category":"47","category_name":"住宅区","address":""},{"poiid":"B2094757D568A1F94092","title":"富士咖啡屋","lon":"121.394584","lat":"31.190828","category":"65","category_name":"咖啡厅","address":"长宁区虹许路788号名都城俱乐部1-2楼(近古羊路)"},{"poiid":"B2094757D16CA6FC489C","title":"嘉年别墅","lon":"121.390522","lat":"31.194017","category":"47","category_name":"住宅区","address":"上海虹梅路3333号"},{"poiid":"B2094757D66FA7FB4998","title":"blue frog","lon":"121.391694586","lat":"31.1946807359","category":"500","category_name":"未知分类","address":"上海老外街"},{"poiid":"B2094750D664AAF94492","title":"一龙居酒屋(古北店)","lon":"121.394","lat":"31.194","category":"95","category_name":"日本料理","address":"长宁区水城南路17号万科广场A37号(近黄金城道)"},{"poiid":"B2094654DB64A4F5479B","title":"万科广场南楼","lon":"121.39363","lat":"31.19386","category":"46","category_name":"楼宇","address":"水城南路17"},{"poiid":"B2094654DB6BA7F9459A","title":"珈露梦咖啡 水城南路店 Carmo Specialty Coffee","lon":"121.393881054","lat":"31.194378793","category":"260","category_name":"其他","address":"长宁区水城南路28号(近黄金城道)"},{"poiid":"B2094655D36CA6FC419E","title":"古羊路水城南路","lon":"121.39398","lat":"31.19215","category":"38","category_name":"公交车站","address":""},{"poiid":"B2094757D464A7FF4592","title":"伊豆日本烧肉","lon":"121.39578130603","lat":"31.194834981876","category":"247","category_name":"餐饮美食","address":"长宁区黄金城道856号(水城南路和古北南路之间)"},{"poiid":"B2094655D268A3FC4793","title":"上海长宁区耀华进修学校","lon":"121.39275","lat":"31.19237","category":"53","category_name":"成人教育","address":"荣华西道28弄6号"},{"poiid":"B2094757D064A2F8409F","title":"耀中国际学校(古北校区)","lon":"121.39365","lat":"31.19292","category":"260","category_name":"其他","address":"长宁区荣华西道18号(近水城南路古羊路)"},{"poiid":"B2094655D26EA2F5419E","title":"金龙公寓(1号)","lon":"121.39388","lat":"31.19347","category":"47","category_name":"住宅区","address":"荣华西道19弄1号"},{"poiid":"B2094655D265ABFD489B","title":"香港名都庄园","lon":"121.39464","lat":"31.19164","category":"76","category_name":"上海菜","address":"长宁区虹许路788号名都城内(近水城路)"},{"poiid":"B2094751D56DA7FC439A","title":"Souper Fresh(荣华西道店)","lon":"121.39252","lat":"31.19487","category":"94","category_name":"西餐厅","address":"长宁区荣华西道99弄金马公寓4号101室(近水城南路)"},{"poiid":"B2094750D26EA3FF4698","title":"上雅铁板烧 长宁店 Julia Teppanyaki","lon":"121.39577541849","lat":"31.194540619812","category":"269","category_name":"烧烤","address":"长宁区黄金城道851号(近水城南路)"},{"poiid":"B2094655D26BA3FE439A","title":"1004超市古北店","lon":"121.39363","lat":"31.19386","category":"248","category_name":"生活娱乐","address":"长宁区水城南路27-33号(近万科广场)"},{"poiid":"B2094654DB6BA7F94399","title":"鱼藏(水城南路店)","lon":"121.39234","lat":"31.19407","category":"95","category_name":"日本料理","address":"长宁区水城南路29号广场大厦1楼"},{"poiid":"B2094757D165A0F8419C","title":"蔓丝帝美仪健康研修中心","lon":"121.39376","lat":"31.19364","category":"148","category_name":"美容美发店","address":"上海长宁区水城南路17号3号门601室(近古北家乐福)  "},{"poiid":"B2094654DB6AA3FC4993","title":"咖露梦","lon":"121.39405","lat":"31.19416","category":"247","category_name":"餐饮美食","address":"长宁区水城南路32号"},{"poiid":"B2094654DB6BA7F9449E","title":"碧玉公寓(北门)","lon":"121.39179","lat":"31.19275","category":"47","category_name":"住宅区","address":""},{"poiid":"B2094751D56EA3FB439F","title":"魔家Tokyo铁板(古北店)","lon":"121.39607","lat":"31.19414","category":"269","category_name":"烧烤","address":"长宁区荣华东道19弄4号云古酒店店公寓1楼4012-4013室(近水城南路)"},{"poiid":"B2094655D268A7FC4498","title":"西郊花园别墅(北门)","lon":"121.39123","lat":"31.19301","category":"47","category_name":"住宅区","address":"水城南路荣华西道58弄"},{"poiid":"B2094655D26BABFA4492","title":"古北千殿精品商场","lon":"121.39234","lat":"31.1941","category":"119","category_name":"商场","address":""},{"poiid":"B2094654DB64A6FF429C","title":"星巴克(古北店)","lon":"121.394189","lat":"31.193703","category":"260","category_name":"其他","address":"长宁区水城南路20号(黄金城道水城南路)"},{"poiid":"B2094757D06FA1FB4498","title":"千秋膳房(古北店)","lon":"121.39549","lat":"31.19448","category":"91","category_name":"台湾菜","address":"上海长宁区水城南路17号"},{"poiid":"B2094757D06BABFE449C","title":"黄金城道","lon":"121.395090586","lat":"31.1946027344","category":"500","category_name":"未知分类","address":"上海黄金城道水城南路"},{"poiid":"B2094757D068A5F4459B","title":"天家 名都城店","lon":"121.394703054","lat":"31.192743793","category":"95","category_name":"日本料理","address":"古羊路1129号名都城俱乐部1楼近虹许路"},{"poiid":"B2094757D06FA2FB419C","title":"麦当劳(古北店)","lon":"121.39396","lat":"31.19584","category":"68","category_name":"快餐厅","address":"长宁区水城南路258号古北家乐福附近(近延安西路)"},{"poiid":"B2094757D06AA0F9439E","title":"墨西哥灵得餐厅 Mexico Lindo","lon":"121.388838","lat":"31.192011","category":"94","category_name":"西餐厅","address":"闵行区虹梅路3338弄2号虹梅休闲街39号(近延安西路)"},{"poiid":"B2094757D069ABFA439A","title":"もんじゃ鬼ぴ～","lon":"121.39527","lat":"31.19343","category":"95","category_name":"日本料理","address":"上海长宁区荣华东道19弄3号d室(近水城南路)"},{"poiid":"B2094654DB64A6FA4392","title":"Colabo 万科广场店","lon":"121.39355883409","lat":"31.194660683717","category":"94","category_name":"西餐厅","address":"长宁区水城南路37号万科广场北楼3楼(近黄金城道)"},{"poiid":"B2094757D06BA6FE4693","title":"朵馥苑酒家","lon":"121.39357858","lat":"31.191007664","category":"76","category_name":"上海菜","address":"长宁区古羊路1129号名都城俱乐部2楼(近水城南路)"},{"poiid":"B2094757D66AAAFF4598","title":"涟波 SAZANAMI","lon":"121.39484837119","lat":"31.19537499377","category":"95","category_name":"日本料理","address":"长宁区荣华东道121号(近家乐福)"},{"poiid":"B2094757D06AA6F4469D","title":"名都城俱樂部","lon":"121.39438841","lat":"31.191833847","category":"260","category_name":"其他","address":"长宁区虹许路788号名都城内(近古羊路)"},{"poiid":"B2094757D069A1FE4693","title":"千秋小馆","lon":"121.39568658","lat":"31.192137686","category":"91","category_name":"台湾菜","address":"长宁区黄金城道887号(近水城南路)"},{"poiid":"B2094654D564A2FF4893","title":"万科广场商务楼","lon":"121.39342","lat":"31.19465","category":"46","category_name":"楼宇","address":"河西区土城医院西侧"},{"poiid":"B2094655D26FA1FE449D","title":"伊藤家(古北店)","lon":"121.39291","lat":"31.1936","category":"95","category_name":"日本料理","address":"长宁区荣华西道19弄金狮花园6号101室(近水城南路)"},{"poiid":"B2094757D069AAF44192","title":"青叶台湾料理(长宁店)","lon":"121.39385","lat":"31.19426","category":"91","category_name":"台湾菜","address":"长宁区水城南路37号万科广场北楼2楼(近黄金城道)"},{"poiid":"B2094757D069A0FE4892","title":"巴黎贝甜(古北店)","lon":"121.39491","lat":"31.19273","category":"67","category_name":"甜品店","address":"长宁区水城南路12号(名都城对面)"},{"poiid":"B2094757D06BA1F5489B","title":"Dunkin Donuts(荣华西道店)","lon":"121.3936","lat":"31.19449","category":"67","category_name":"甜品店","address":"长宁区荣华西道99弄金马公寓1号101室(近水城南路)"},{"poiid":"B2094654D564A2FF499A","title":"和惠日式烧肉","lon":"121.39356","lat":"31.19453","category":"269","category_name":"烧烤","address":"长宁区水城南路37号万科广场1楼(近黄金城道)"},{"poiid":"B2094757D665A1FA419E","title":"彩寿司","lon":"121.393653054","lat":"31.194346793","category":"95","category_name":"日本料理","address":"长宁区水城南路17号万科广场2楼(近黄金城道)"},{"poiid":"B2094757D664A3F9499C","title":"百八","lon":"121.39131","lat":"31.1934","category":"95","category_name":"日本料理","address":"长宁区荣华西道59号古北俱乐部2楼(近水城南路)"},{"poiid":"B2094655D26BA5FC4592","title":"芭斯罗缤冰淇淋","lon":"121.39449","lat":"31.19377","category":"113","category_name":"冷饮店","address":"长宁区水城南路18号(近荣华东道)"},{"poiid":"B2094655D26DA0F54992","title":"碧玉公寓","lon":"121.39236","lat":"31.19286","category":"47","category_name":"住宅区","address":"荣华西道38弄1-17号"},{"poiid":"B2094654DB6BA7F9439E","title":"华园大厦","lon":"121.39266","lat":"31.193392","category":"47","category_name":"住宅区","address":"荣华西道39弄"},{"poiid":"B2094654D564A2F8469C","title":"香啡缤 黄金城道店 Coffee Bean&Tea Leaf","lon":"121.39444829068","lat":"31.194243094447","category":"247","category_name":"餐饮美食","address":"黄金城道915号近古北路"},{"poiid":"B2094757D068A6F4449D","title":"香港喜运来烧腊茶餐厅","lon":"121.39391958","lat":"31.193788718","category":"111","category_name":"休闲餐饮场所","address":"长宁区水城南路17号万科广场内(近古羊路)"},{"poiid":"B2094757D76BA1F4489B","title":"八五八五韩式快餐","lon":"121.3940028","lat":"31.1937747","category":"68","category_name":"快餐厅","address":"长宁区水城南路29号(近荣华西道)"},{"poiid":"B2094654D564A2F94093","title":"STARBUCKS COFFEE(水城南路)","lon":"121.39446","lat":"31.1938","category":"65","category_name":"咖啡厅","address":"中国上海市長寧區水城南路20号"},{"poiid":"B2094655D26FAAF44093","title":"金马公寓(南门)","lon":"121.39286","lat":"31.19321","category":"47","category_name":"住宅区","address":""},{"poiid":"B2094757D568A1F94092","title":"富士咖啡屋","lon":"121.394584","lat":"31.190828","category":"65","category_name":"咖啡厅","address":"长宁区虹许路788号名都城俱乐部1-2楼(近古羊路)"},{"poiid":"B2094757D16CA6FC489C","title":"嘉年别墅","lon":"121.390522","lat":"31.194017","category":"47","category_name":"住宅区","address":"上海虹梅路3333号"},{"poiid":"B2094757D66FA7FB4998","title":"blue frog","lon":"121.391694586","lat":"31.1946807359","category":"500","category_name":"未知分类","address":"上海老外街"},{"poiid":"B2094750D664AAF94492","title":"一龙居酒屋(古北店)","lon":"121.394","lat":"31.194","category":"95","category_name":"日本料理","address":"长宁区水城南路17号万科广场A37号(近黄金城道)"},{"poiid":"B2094654DB64A4F5479B","title":"万科广场南楼","lon":"121.39363","lat":"31.19386","category":"46","category_name":"楼宇","address":"水城南路17"},{"poiid":"B2094654DB6BA7F9459A","title":"珈露梦咖啡 水城南路店 Carmo Specialty Coffee","lon":"121.393881054","lat":"31.194378793","category":"260","category_name":"其他","address":"长宁区水城南路28号(近黄金城道)"},{"poiid":"B2094655D36CA6FC419E","title":"古羊路水城南路","lon":"121.39398","lat":"31.19215","category":"38","category_name":"公交车站","address":""},{"poiid":"B2094757D464A7FF4592","title":"伊豆日本烧肉","lon":"121.39578130603","lat":"31.194834981876","category":"247","category_name":"餐饮美食","address":"长宁区黄金城道856号(水城南路和古北南路之间)"},{"poiid":"B2094655D268A3FC4793","title":"上海长宁区耀华进修学校","lon":"121.39275","lat":"31.19237","category":"53","category_name":"成人教育","address":"荣华西道28弄6号"},{"poiid":"B2094757D064A2F8409F","title":"耀中国际学校(古北校区)","lon":"121.39365","lat":"31.19292","category":"260","category_name":"其他","address":"长宁区荣华西道18号(近水城南路古羊路)"},{"poiid":"B2094655D26EA2F5419E","title":"金龙公寓(1号)","lon":"121.39388","lat":"31.19347","category":"47","category_name":"住宅区","address":"荣华西道19弄1号"},{"poiid":"B2094655D265ABFD489B","title":"香港名都庄园","lon":"121.39464","lat":"31.19164","category":"76","category_name":"上海菜","address":"长宁区虹许路788号名都城内(近水城路)"},{"poiid":"B2094751D56DA7FC439A","title":"Souper Fresh(荣华西道店)","lon":"121.39252","lat":"31.19487","category":"94","category_name":"西餐厅","address":"长宁区荣华西道99弄金马公寓4号101室(近水城南路)"},{"poiid":"B2094750D26EA3FF4698","title":"上雅铁板烧 长宁店 Julia Teppanyaki","lon":"121.39577541849","lat":"31.194540619812","category":"269","category_name":"烧烤","address":"长宁区黄金城道851号(近水城南路)"},{"poiid":"B2094655D26BA3FE439A","title":"1004超市古北店","lon":"121.39363","lat":"31.19386","category":"248","category_name":"生活娱乐","address":"长宁区水城南路27-33号(近万科广场)"},{"poiid":"B2094654DB6BA7F94399","title":"鱼藏(水城南路店)","lon":"121.39234","lat":"31.19407","category":"95","category_name":"日本料理","address":"长宁区水城南路29号广场大厦1楼"},{"poiid":"B2094757D165A0F8419C","title":"蔓丝帝美仪健康研修中心","lon":"121.39376","lat":"31.19364","category":"148","category_name":"美容美发店","address":"上海长宁区水城南路17号3号门601室(近古北家乐福)  "},{"poiid":"B2094654DB6AA3FC4993","title":"咖露梦","lon":"121.39405","lat":"31.19416","category":"247","category_name":"餐饮美食","address":"长宁区水城南路32号"},{"poiid":"B2094654DB6BA7F9449E","title":"碧玉公寓(北门)","lon":"121.39179","lat":"31.19275","category":"47","category_name":"住宅区","address":""},{"poiid":"B2094751D56EA3FB439F","title":"魔家Tokyo铁板(古北店)","lon":"121.39607","lat":"31.19414","category":"269","category_name":"烧烤","address":"长宁区荣华东道19弄4号云古酒店店公寓1楼4012-4013室(近水城南路)"},{"poiid":"B2094655D268A7FC4498","title":"西郊花园别墅(北门)","lon":"121.39123","lat":"31.19301","category":"47","category_name":"住宅区","address":"水城南路荣华西道58弄"},{"poiid":"B2094655D26BABFA4492","title":"古北千殿精品商场","lon":"121.39234","lat":"31.1941","category":"119","category_name":"商场","address":""}]