[{"poiid":"B2094757D06EAAFE459B","title":"中兴路地铁站","lon":"121.468902","lat":"31.253041","category":"36","category_name":"地铁站","address":"上海轨道交通 八号线 轨交中兴路站 8"},{"poiid":"B2094655D36DA6FF4992","title":"上海金逸院线新恒星影城","lon":"121.46933","lat":"31.25147","category":"178","category_name":"电影院","address":"上海市闸北区西藏北路166号大悦城10-11楼"},{"poiid":"B2094757DB6EA6FE469C","title":"上海铭德大酒店","lon":"121.470063329","lat":"31.251024786","category":"213","category_name":"五星级宾馆","address":"上海市闸北区西藏北路558号(上海火车站地区,近虬江路)"},{"poiid":"B209475CD564A7F8439E","title":"上海滩中信泰富店","lon":"121.45602","lat":"31.22851","category":"119","category_name":"商场","address":"\"南京西路1168号中信泰富广场，店铺号221.\r\n\""},{"poiid":"B2094654D56CA2F8469A","title":"闸北体育馆","lon":"121.46576","lat":"31.25462","category":"224","category_name":"综合体育馆","address":"中华新路475"},{"poiid":"B2094757D06FA1FD419F","title":"铭德莱星顿广场酒店","lon":"121.47000877","lat":"31.251120658","category":"213","category_name":"五星级宾馆","address":"上海闸北区西藏北路558号(虬江路口)"},{"poiid":"B2094757D06FA6F9489D","title":"市北中学","lon":"121.47051","lat":"31.25192","category":"55","category_name":"中学","address":"闸北区永兴路365号(民德路永兴路)"},{"poiid":"B2094757D06FAAFD4093","title":"泰煌火锅(闸北店)","lon":"121.46591","lat":"31.25375","category":"86","category_name":"火锅店","address":"闸北区中华新路479号(近共和新路)"},{"poiid":"B2094655D36DA6FF429E","title":"中兴路","lon":"121.46889","lat":"31.25317","category":"38","category_name":"公交车站","address":"中兴路1385弄"},{"poiid":"B2094757D06FA4F9429C","title":"青年餐厅(火车站店)","lon":"121.46552","lat":"31.25192","category":"71","category_name":"四川菜","address":"闸北区中兴路1122号2楼(近共和新路)"},{"poiid":"B2094757D069A2FF409A","title":"闸北游泳馆","lon":"121.465370616","lat":"31.2542683436","category":"231","category_name":"游泳馆","address":"闸北区中华新路483号(近共和新路)"},{"poiid":"B2094757DA6FA3FB4693","title":"乐购(中兴店)","lon":"121.468737899999","lat":"31.2548925999999","category":"249","category_name":"购物服务","address":"闸北区中华新路396号(近西藏北路)"},{"poiid":"B2094757D065AAFB469F","title":"8号线中兴路站","lon":"121.469617103","lat":"31.2535670701","category":"500","category_name":"未知分类","address":"上海中兴路"},{"poiid":"B2094757D068A4F9499D","title":"兴中心创意园 RED PLUS","lon":"121.467529233","lat":"31.252842315","category":"46","category_name":"楼宇","address":"上海西藏北路605"},{"poiid":"B2094655D36DA1FB409F","title":"西藏北路","lon":"121.46786","lat":"31.253","category":"38","category_name":"公交车站","address":""},{"poiid":"B2094757D06FABFC409A","title":"新梅大厦","lon":"121.47","lat":"31.2509","category":"46","category_name":"楼宇","address":"铁西卫工南街8―5号"},{"poiid":"B2094757D06AA5F4479B","title":"上海大悦城(五楼)caster","lon":"121.468886278","lat":"31.2521678284","category":"500","category_name":"未知分类","address":"上海黄浦区西藏北路166号"},{"poiid":"B2094757D068A5F9449C","title":"SOMI(大悦城店)","lon":"121.46940193","lat":"31.251404648","category":"67","category_name":"甜品店","address":"上海闸北区西藏北路180号大悦城7F-08"},{"poiid":"B2094757D064A3FB499C","title":"唯一天使婚纱","lon":"121.468716103","lat":"31.2512740222","category":"255","category_name":"专卖店","address":"上海中兴路605号"},{"poiid":"B2094654D564AAF9469F","title":"海鸥康恒大厦","lon":"121.469","lat":"31.2534","category":"46","category_name":"楼宇","address":"静安区长寿路(万航渡路口)"},{"poiid":"B2094655D36DA1FB419C","title":"西藏北路中兴路","lon":"121.46926","lat":"31.25184","category":"38","category_name":"公交车站","address":""},{"poiid":"B2094655D26AA0FA4198","title":"地铁中兴路站","lon":"121.46889","lat":"31.25317","category":"36","category_name":"地铁站","address":""},{"poiid":"B2094654D56CA2F5469B","title":"中国移动(虬江路)","lon":"121.46797","lat":"31.25004","category":"138","category_name":"家电电子卖场","address":""},{"poiid":"B2094654D56CA2FD449F","title":"市北初级中学","lon":"121.46715","lat":"31.25567","category":"55","category_name":"中学","address":"闸北区西藏北路803号(近南山路)"},{"poiid":"B2094750D665A1FD439F","title":"鼎新小馆","lon":"121.466","lat":"31.2527","category":"76","category_name":"上海菜","address":"闸北区中兴路1055号(近共和新路)"},{"poiid":"B2094757D069A7FD4293","title":"圣贤居温泉浴场","lon":"121.46686","lat":"31.25233","category":"149","category_name":"洗浴推拿场所","address":"闸北区中兴路1032号(近西藏北路)"},{"poiid":"B2094655D26AA6F54199","title":"泰煌鸡中华新路店","lon":"121.46564","lat":"31.25402","category":"68","category_name":"快餐厅","address":"闸北区中华新路479号(近共和新路)"},{"poiid":"B2094655D26BA5FF4799","title":"中兴绿地篮球场","lon":"121.4695","lat":"31.25388","category":"229","category_name":"篮球场馆","address":"闸北区轨道交通8号线中兴路站附近"},{"poiid":"B2094757D664A4F4479C","title":"占美碳烤鱼","lon":"121.46789","lat":"31.25446","category":"68","category_name":"快餐厅","address":"闸北区中华新路426号(近西藏北路)"},{"poiid":"B2094750D46BAAFC4493","title":"咔喱咖喱（大悦城店）","lon":"121.468688","lat":"31.253988","category":"95","category_name":"日本料理","address":"闸北区西藏北路166号大悦城906-907室"},{"poiid":"B2094750D66DA2F9409D","title":"莱福士广场","lon":"121.468673","lat":"31.253633","category":"500","category_name":"未知分类","address":"西藏中路268号"},{"poiid":"B2094757D165A0F8419E","title":"德林酸菜鱼(安顺路店)","lon":"121.4687992","lat":"31.253146761","category":"247","category_name":"餐饮美食","address":"上海市安顺路90号"},{"poiid":"B2094757D16CABFB4399","title":"室外篮球场(西藏北路)","lon":"121.4689411","lat":"31.2531545","category":"220","category_name":"运动场所","address":"上海西藏北路中兴路"},{"poiid":"B2094753D164A0F4429D","title":"上海唯一视觉婚纱摄影工作室","lon":"121.468213","lat":"31.253157","category":"263","category_name":"公司","address":"上海市闸北区西藏北路605号C座2楼"},{"poiid":"B2094654DB6AA6FF469C","title":"星程圣贤居酒店","lon":"121.46676","lat":"31.25246","category":"215","category_name":"三星级宾馆","address":"闸北区中兴路1032号(近育婴堂路)"},{"poiid":"B2094757D068ABF44092","title":"德笼馆(中兴路店)","lon":"121.46578","lat":"31.25238","category":"247","category_name":"餐饮美食","address":"上海闸北区中兴路1089号(近共和新路)  "},{"poiid":"B2094654DB6AAAFE4893","title":"上海如来大酒店","lon":"121.46625","lat":"31.25278","category":"250","category_name":"公园户外","address":"闸北区中兴路1055号(近共和新路)"},{"poiid":"B2094757D06AA1F5489A","title":"上海新东方学校(西藏北路校区)","lon":"121.46977","lat":"31.25207","category":"253","category_name":"校园生活","address":"闸北区西藏北路598号(近虬江路)"},{"poiid":"B2094757D06BA6FC429C","title":"上海贝尔和田分部","lon":"121.46884155","lat":"31.250766754","category":"68","category_name":"快餐厅","address":"闸北区西藏北路525号(近虬江路)"},{"poiid":"B2094757D16FAAFF4198","title":"老北京羊蝎子(中兴店)","lon":"121.466324103","lat":"31.2527600532","category":"86","category_name":"火锅店","address":"闸北区中兴路1041号(近西藏北路)"},{"poiid":"B2094655D36DA1FB419E","title":"西藏北路永兴路","lon":"121.46925","lat":"31.25192","category":"38","category_name":"公交车站","address":""},{"poiid":"B2094750D664A0FA439E","title":"老盛兴苏州汤包馆(中华新路店)","lon":"121.466","lat":"31.2537","category":"68","category_name":"快餐厅","address":"闸北区中华新路482-486号(近泰煌鸡)"},{"poiid":"B2094654D56CA2FD439B","title":"良友金伴便利连锁No.244","lon":"121.46839","lat":"31.25411","category":"117","category_name":"便民商店/便利店","address":"芷江西路"},{"poiid":"B2094757D66CA2F5469D","title":"茅府","lon":"121.468738103","lat":"31.2541361487","category":"247","category_name":"餐饮美食","address":"上海西藏北路691"},{"poiid":"B2094654DB6AAAFF439F","title":"天主堂(上海新新装潢经营部东南)","lon":"121.46723","lat":"31.25361","category":"245","category_name":"教堂","address":"育婴堂路289号"},{"poiid":"B2094751DA6DAAF5499D","title":"宇涵造型","lon":"121.468348","lat":"31.252569","category":"248","category_name":"生活娱乐","address":"西藏北路602弄C座207室"},{"poiid":"B2094757D168A5F94098","title":"上海银行 宝昌支行","lon":"121.468559","lat":"31.252214","category":"150","category_name":"银行","address":"上海西藏北路571号"},{"poiid":"B2094757DB6CA3F84293","title":"上海品薇商务酒店","lon":"121.466426253","lat":"31.253780965","category":"214","category_name":"四星级宾馆","address":"上海市闸北区中华新路482号"},{"poiid":"B2094757D16AA1FC4899","title":"中兴路篮球场","lon":"121.469622","lat":"31.253178","category":"220","category_name":"运动场所","address":"上海中兴路西藏路口"},{"poiid":"B2094757D164A7FD4993","title":"上海索乐软件","lon":"121.4684001","lat":"31.252525048","category":"249","category_name":"购物服务","address":"上海市闸北区西藏北路中兴路"},{"poiid":"B2094757D06EAAFE459B","title":"中兴路地铁站","lon":"121.468902","lat":"31.253041","category":"36","category_name":"地铁站","address":"上海轨道交通 八号线 轨交中兴路站 8"},{"poiid":"B2094655D36DA6FF4992","title":"上海金逸院线新恒星影城","lon":"121.46933","lat":"31.25147","category":"178","category_name":"电影院","address":"上海市闸北区西藏北路166号大悦城10-11楼"},{"poiid":"B2094757DB6EA6FE469C","title":"上海铭德大酒店","lon":"121.470063329","lat":"31.251024786","category":"213","category_name":"五星级宾馆","address":"上海市闸北区西藏北路558号(上海火车站地区,近虬江路)"},{"poiid":"B209475CD564A7F8439E","title":"上海滩中信泰富店","lon":"121.45602","lat":"31.22851","category":"119","category_name":"商场","address":"\"南京西路1168号中信泰富广场，店铺号221.\r\n\""},{"poiid":"B2094654D56CA2F8469A","title":"闸北体育馆","lon":"121.46576","lat":"31.25462","category":"224","category_name":"综合体育馆","address":"中华新路475"},{"poiid":"B2094757D06FA1FD419F","title":"铭德莱星顿广场酒店","lon":"121.47000877","lat":"31.251120658","category":"213","category_name":"五星级宾馆","address":"上海闸北区西藏北路558号(虬江路口)"},{"poiid":"B2094757D06FA6F9489D","title":"市北中学","lon":"121.47051","lat":"31.25192","category":"55","category_name":"中学","address":"闸北区永兴路365号(民德路永兴路)"},{"poiid":"B2094757D06FAAFD4093","title":"泰煌火锅(闸北店)","lon":"121.46591","lat":"31.25375","category":"86","category_name":"火锅店","address":"闸北区中华新路479号(近共和新路)"},{"poiid":"B2094655D36DA6FF429E","title":"中兴路","lon":"121.46889","lat":"31.25317","category":"38","category_name":"公交车站","address":"中兴路1385弄"},{"poiid":"B2094757D06FA4F9429C","title":"青年餐厅(火车站店)","lon":"121.46552","lat":"31.25192","category":"71","category_name":"四川菜","address":"闸北区中兴路1122号2楼(近共和新路)"},{"poiid":"B2094757D069A2FF409A","title":"闸北游泳馆","lon":"121.465370616","lat":"31.2542683436","category":"231","category_name":"游泳馆","address":"闸北区中华新路483号(近共和新路)"},{"poiid":"B2094757DA6FA3FB4693","title":"乐购(中兴店)","lon":"121.468737899999","lat":"31.2548925999999","category":"249","category_name":"购物服务","address":"闸北区中华新路396号(近西藏北路)"},{"poiid":"B2094757D065AAFB469F","title":"8号线中兴路站","lon":"121.469617103","lat":"31.2535670701","category":"500","category_name":"未知分类","address":"上海中兴路"},{"poiid":"B2094757D068A4F9499D","title":"兴中心创意园 RED PLUS","lon":"121.467529233","lat":"31.252842315","category":"46","category_name":"楼宇","address":"上海西藏北路605"},{"poiid":"B2094655D36DA1FB409F","title":"西藏北路","lon":"121.46786","lat":"31.253","category":"38","category_name":"公交车站","address":""},{"poiid":"B2094757D06FABFC409A","title":"新梅大厦","lon":"121.47","lat":"31.2509","category":"46","category_name":"楼宇","address":"铁西卫工南街8―5号"},{"poiid":"B2094757D06AA5F4479B","title":"上海大悦城(五楼)caster","lon":"121.468886278","lat":"31.2521678284","category":"500","category_name":"未知分类","address":"上海黄浦区西藏北路166号"},{"poiid":"B2094757D068A5F9449C","title":"SOMI(大悦城店)","lon":"121.46940193","lat":"31.251404648","category":"67","category_name":"甜品店","address":"上海闸北区西藏北路180号大悦城7F-08"},{"poiid":"B2094757D064A3FB499C","title":"唯一天使婚纱","lon":"121.468716103","lat":"31.2512740222","category":"255","category_name":"专卖店","address":"上海中兴路605号"},{"poiid":"B2094654D564AAF9469F","title":"海鸥康恒大厦","lon":"121.469","lat":"31.2534","category":"46","category_name":"楼宇","address":"静安区长寿路(万航渡路口)"},{"poiid":"B2094655D36DA1FB419C","title":"西藏北路中兴路","lon":"121.46926","lat":"31.25184","category":"38","category_name":"公交车站","address":""},{"poiid":"B2094655D26AA0FA4198","title":"地铁中兴路站","lon":"121.46889","lat":"31.25317","category":"36","category_name":"地铁站","address":""},{"poiid":"B2094654D56CA2F5469B","title":"中国移动(虬江路)","lon":"121.46797","lat":"31.25004","category":"138","category_name":"家电电子卖场","address":""},{"poiid":"B2094654D56CA2FD449F","title":"市北初级中学","lon":"121.46715","lat":"31.25567","category":"55","category_name":"中学","address":"闸北区西藏北路803号(近南山路)"},{"poiid":"B2094750D665A1FD439F","title":"鼎新小馆","lon":"121.466","lat":"31.2527","category":"76","category_name":"上海菜","address":"闸北区中兴路1055号(近共和新路)"},{"poiid":"B2094757D069A7FD4293","title":"圣贤居温泉浴场","lon":"121.46686","lat":"31.25233","category":"149","category_name":"洗浴推拿场所","address":"闸北区中兴路1032号(近西藏北路)"},{"poiid":"B2094655D26AA6F54199","title":"泰煌鸡中华新路店","lon":"121.46564","lat":"31.25402","category":"68","category_name":"快餐厅","address":"闸北区中华新路479号(近共和新路)"},{"poiid":"B2094655D26BA5FF4799","title":"中兴绿地篮球场","lon":"121.4695","lat":"31.25388","category":"229","category_name":"篮球场馆","address":"闸北区轨道交通8号线中兴路站附近"},{"poiid":"B2094757D664A4F4479C","title":"占美碳烤鱼","lon":"121.46789","lat":"31.25446","category":"68","category_name":"快餐厅","address":"闸北区中华新路426号(近西藏北路)"},{"poiid":"B2094750D46BAAFC4493","title":"咔喱咖喱（大悦城店）","lon":"121.468688","lat":"31.253988","category":"95","category_name":"日本料理","address":"闸北区西藏北路166号大悦城906-907室"},{"poiid":"B2094750D66DA2F9409D","title":"莱福士广场","lon":"121.468673","lat":"31.253633","category":"500","category_name":"未知分类","address":"西藏中路268号"},{"poiid":"B2094757D165A0F8419E","title":"德林酸菜鱼(安顺路店)","lon":"121.4687992","lat":"31.253146761","category":"247","category_name":"餐饮美食","address":"上海市安顺路90号"},{"poiid":"B2094757D16CABFB4399","title":"室外篮球场(西藏北路)","lon":"121.4689411","lat":"31.2531545","category":"220","category_name":"运动场所","address":"上海西藏北路中兴路"},{"poiid":"B2094753D164A0F4429D","title":"上海唯一视觉婚纱摄影工作室","lon":"121.468213","lat":"31.253157","category":"263","category_name":"公司","address":"上海市闸北区西藏北路605号C座2楼"},{"poiid":"B2094654DB6AA6FF469C","title":"星程圣贤居酒店","lon":"121.46676","lat":"31.25246","category":"215","category_name":"三星级宾馆","address":"闸北区中兴路1032号(近育婴堂路)"},{"poiid":"B2094757D068ABF44092","title":"德笼馆(中兴路店)","lon":"121.46578","lat":"31.25238","category":"247","category_name":"餐饮美食","address":"上海闸北区中兴路1089号(近共和新路)  "},{"poiid":"B2094654DB6AAAFE4893","title":"上海如来大酒店","lon":"121.46625","lat":"31.25278","category":"250","category_name":"公园户外","address":"闸北区中兴路1055号(近共和新路)"},{"poiid":"B2094757D06AA1F5489A","title":"上海新东方学校(西藏北路校区)","lon":"121.46977","lat":"31.25207","category":"253","category_name":"校园生活","address":"闸北区西藏北路598号(近虬江路)"},{"poiid":"B2094757D06BA6FC429C","title":"上海贝尔和田分部","lon":"121.46884155","lat":"31.250766754","category":"68","category_name":"快餐厅","address":"闸北区西藏北路525号(近虬江路)"},{"poiid":"B2094757D16FAAFF4198","title":"老北京羊蝎子(中兴店)","lon":"121.466324103","lat":"31.2527600532","category":"86","category_name":"火锅店","address":"闸北区中兴路1041号(近西藏北路)"},{"poiid":"B2094655D36DA1FB419E","title":"西藏北路永兴路","lon":"121.46925","lat":"31.25192","category":"38","category_name":"公交车站","address":""},{"poiid":"B2094750D664A0FA439E","title":"老盛兴苏州汤包馆(中华新路店)","lon":"121.466","lat":"31.2537","category":"68","category_name":"快餐厅","address":"闸北区中华新路482-486号(近泰煌鸡)"},{"poiid":"B2094654D56CA2FD439B","title":"良友金伴便利连锁No.244","lon":"121.46839","lat":"31.25411","category":"117","category_name":"便民商店/便利店","address":"芷江西路"},{"poiid":"B2094757D66CA2F5469D","title":"茅府","lon":"121.468738103","lat":"31.2541361487","category":"247","category_name":"餐饮美食","address":"上海西藏北路691"},{"poiid":"B2094654DB6AAAFF439F","title":"天主堂(上海新新装潢经营部东南)","lon":"121.46723","lat":"31.25361","category":"245","category_name":"教堂","address":"育婴堂路289号"},{"poiid":"B2094751DA6DAAF5499D","title":"宇涵造型","lon":"121.468348","lat":"31.252569","category":"248","category_name":"生活娱乐","address":"西藏北路602弄C座207室"},{"poiid":"B2094757D168A5F94098","title":"上海银行 宝昌支行","lon":"121.468559","lat":"31.252214","category":"150","category_name":"银行","address":"上海西藏北路571号"},{"poiid":"B2094757DB6CA3F84293","title":"上海品薇商务酒店","lon":"121.466426253","lat":"31.253780965","category":"214","category_name":"四星级宾馆","address":"上海市闸北区中华新路482号"},{"poiid":"B2094757D16AA1FC4899","title":"中兴路篮球场","lon":"121.469622","lat":"31.253178","category":"220","category_name":"运动场所","address":"上海中兴路西藏路口"},{"poiid":"B2094757D164A7FD4993","title":"上海索乐软件","lon":"121.4684001","lat":"31.252525048","category":"249","category_name":"购物服务","address":"上海市闸北区西藏北路中兴路"},{"poiid":"B2094757D06EAAFE459B","title":"中兴路地铁站","lon":"121.468902","lat":"31.253041","category":"36","category_name":"地铁站","address":"上海轨道交通 八号线 轨交中兴路站 8"},{"poiid":"B2094655D36DA6FF4992","title":"上海金逸院线新恒星影城","lon":"121.46933","lat":"31.25147","category":"178","category_name":"电影院","address":"上海市闸北区西藏北路166号大悦城10-11楼"},{"poiid":"B2094757DB6EA6FE469C","title":"上海铭德大酒店","lon":"121.470063329","lat":"31.251024786","category":"213","category_name":"五星级宾馆","address":"上海市闸北区西藏北路558号(上海火车站地区,近虬江路)"},{"poiid":"B209475CD564A7F8439E","title":"上海滩中信泰富店","lon":"121.45602","lat":"31.22851","category":"119","category_name":"商场","address":"\"南京西路1168号中信泰富广场，店铺号221.\r\n\""},{"poiid":"B2094654D56CA2F8469A","title":"闸北体育馆","lon":"121.46576","lat":"31.25462","category":"224","category_name":"综合体育馆","address":"中华新路475"},{"poiid":"B2094757D06FA1FD419F","title":"铭德莱星顿广场酒店","lon":"121.47000877","lat":"31.251120658","category":"213","category_name":"五星级宾馆","address":"上海闸北区西藏北路558号(虬江路口)"},{"poiid":"B2094757D06FA6F9489D","title":"市北中学","lon":"121.47051","lat":"31.25192","category":"55","category_name":"中学","address":"闸北区永兴路365号(民德路永兴路)"},{"poiid":"B2094757D06FAAFD4093","title":"泰煌火锅(闸北店)","lon":"121.46591","lat":"31.25375","category":"86","category_name":"火锅店","address":"闸北区中华新路479号(近共和新路)"},{"poiid":"B2094655D36DA6FF429E","title":"中兴路","lon":"121.46889","lat":"31.25317","category":"38","category_name":"公交车站","address":"中兴路1385弄"},{"poiid":"B2094757D06FA4F9429C","title":"青年餐厅(火车站店)","lon":"121.46552","lat":"31.25192","category":"71","category_name":"四川菜","address":"闸北区中兴路1122号2楼(近共和新路)"},{"poiid":"B2094757D069A2FF409A","title":"闸北游泳馆","lon":"121.465370616","lat":"31.2542683436","category":"231","category_name":"游泳馆","address":"闸北区中华新路483号(近共和新路)"},{"poiid":"B2094757DA6FA3FB4693","title":"乐购(中兴店)","lon":"121.468737899999","lat":"31.2548925999999","category":"249","category_name":"购物服务","address":"闸北区中华新路396号(近西藏北路)"},{"poiid":"B2094757D065AAFB469F","title":"8号线中兴路站","lon":"121.469617103","lat":"31.2535670701","category":"500","category_name":"未知分类","address":"上海中兴路"},{"poiid":"B2094757D068A4F9499D","title":"兴中心创意园 RED PLUS","lon":"121.467529233","lat":"31.252842315","category":"46","category_name":"楼宇","address":"上海西藏北路605"},{"poiid":"B2094655D36DA1FB409F","title":"西藏北路","lon":"121.46786","lat":"31.253","category":"38","category_name":"公交车站","address":""},{"poiid":"B2094757D06FABFC409A","title":"新梅大厦","lon":"121.47","lat":"31.2509","category":"46","category_name":"楼宇","address":"铁西卫工南街8―5号"},{"poiid":"B2094757D06AA5F4479B","title":"上海大悦城(五楼)caster","lon":"121.468886278","lat":"31.2521678284","category":"500","category_name":"未知分类","address":"上海黄浦区西藏北路166号"},{"poiid":"B2094757D068A5F9449C","title":"SOMI(大悦城店)","lon":"121.46940193","lat":"31.251404648","category":"67","category_name":"甜品店","address":"上海闸北区西藏北路180号大悦城7F-08"},{"poiid":"B2094757D064A3FB499C","title":"唯一天使婚纱","lon":"121.468716103","lat":"31.2512740222","category":"255","category_name":"专卖店","address":"上海中兴路605号"},{"poiid":"B2094654D564AAF9469F","title":"海鸥康恒大厦","lon":"121.469","lat":"31.2534","category":"46","category_name":"楼宇","address":"静安区长寿路(万航渡路口)"},{"poiid":"B2094655D36DA1FB419C","title":"西藏北路中兴路","lon":"121.46926","lat":"31.25184","category":"38","category_name":"公交车站","address":""},{"poiid":"B2094655D26AA0FA4198","title":"地铁中兴路站","lon":"121.46889","lat":"31.25317","category":"36","category_name":"地铁站","address":""},{"poiid":"B2094654D56CA2F5469B","title":"中国移动(虬江路)","lon":"121.46797","lat":"31.25004","category":"138","category_name":"家电电子卖场","address":""},{"poiid":"B2094654D56CA2FD449F","title":"市北初级中学","lon":"121.46715","lat":"31.25567","category":"55","category_name":"中学","address":"闸北区西藏北路803号(近南山路)"},{"poiid":"B2094750D665A1FD439F","title":"鼎新小馆","lon":"121.466","lat":"31.2527","category":"76","category_name":"上海菜","address":"闸北区中兴路1055号(近共和新路)"},{"poiid":"B2094757D069A7FD4293","title":"圣贤居温泉浴场","lon":"121.46686","lat":"31.25233","category":"149","category_name":"洗浴推拿场所","address":"闸北区中兴路1032号(近西藏北路)"},{"poiid":"B2094655D26AA6F54199","title":"泰煌鸡中华新路店","lon":"121.46564","lat":"31.25402","category":"68","category_name":"快餐厅","address":"闸北区中华新路479号(近共和新路)"},{"poiid":"B2094655D26BA5FF4799","title":"中兴绿地篮球场","lon":"121.4695","lat":"31.25388","category":"229","category_name":"篮球场馆","address":"闸北区轨道交通8号线中兴路站附近"},{"poiid":"B2094757D664A4F4479C","title":"占美碳烤鱼","lon":"121.46789","lat":"31.25446","category":"68","category_name":"快餐厅","address":"闸北区中华新路426号(近西藏北路)"},{"poiid":"B2094750D46BAAFC4493","title":"咔喱咖喱（大悦城店）","lon":"121.468688","lat":"31.253988","category":"95","category_name":"日本料理","address":"闸北区西藏北路166号大悦城906-907室"},{"poiid":"B2094750D66DA2F9409D","title":"莱福士广场","lon":"121.468673","lat":"31.253633","category":"500","category_name":"未知分类","address":"西藏中路268号"},{"poiid":"B2094757D165A0F8419E","title":"德林酸菜鱼(安顺路店)","lon":"121.4687992","lat":"31.253146761","category":"247","category_name":"餐饮美食","address":"上海市安顺路90号"},{"poiid":"B2094757D16CABFB4399","title":"室外篮球场(西藏北路)","lon":"121.4689411","lat":"31.2531545","category":"220","category_name":"运动场所","address":"上海西藏北路中兴路"},{"poiid":"B2094753D164A0F4429D","title":"上海唯一视觉婚纱摄影工作室","lon":"121.468213","lat":"31.253157","category":"263","category_name":"公司","address":"上海市闸北区西藏北路605号C座2楼"},{"poiid":"B2094654DB6AA6FF469C","title":"星程圣贤居酒店","lon":"121.46676","lat":"31.25246","category":"215","category_name":"三星级宾馆","address":"闸北区中兴路1032号(近育婴堂路)"},{"poiid":"B2094757D068ABF44092","title":"德笼馆(中兴路店)","lon":"121.46578","lat":"31.25238","category":"247","category_name":"餐饮美食","address":"上海闸北区中兴路1089号(近共和新路)  "},{"poiid":"B2094654DB6AAAFE4893","title":"上海如来大酒店","lon":"121.46625","lat":"31.25278","category":"250","category_name":"公园户外","address":"闸北区中兴路1055号(近共和新路)"},{"poiid":"B2094757D06AA1F5489A","title":"上海新东方学校(西藏北路校区)","lon":"121.46977","lat":"31.25207","category":"253","category_name":"校园生活","address":"闸北区西藏北路598号(近虬江路)"},{"poiid":"B2094757D06BA6FC429C","title":"上海贝尔和田分部","lon":"121.46884155","lat":"31.250766754","category":"68","category_name":"快餐厅","address":"闸北区西藏北路525号(近虬江路)"},{"poiid":"B2094757D16FAAFF4198","title":"老北京羊蝎子(中兴店)","lon":"121.466324103","lat":"31.2527600532","category":"86","category_name":"火锅店","address":"闸北区中兴路1041号(近西藏北路)"},{"poiid":"B2094655D36DA1FB419E","title":"西藏北路永兴路","lon":"121.46925","lat":"31.25192","category":"38","category_name":"公交车站","address":""},{"poiid":"B2094750D664A0FA439E","title":"老盛兴苏州汤包馆(中华新路店)","lon":"121.466","lat":"31.2537","category":"68","category_name":"快餐厅","address":"闸北区中华新路482-486号(近泰煌鸡)"},{"poiid":"B2094654D56CA2FD439B","title":"良友金伴便利连锁No.244","lon":"121.46839","lat":"31.25411","category":"117","category_name":"便民商店/便利店","address":"芷江西路"},{"poiid":"B2094757D66CA2F5469D","title":"茅府","lon":"121.468738103","lat":"31.2541361487","category":"247","category_name":"餐饮美食","address":"上海西藏北路691"},{"poiid":"B2094654DB6AAAFF439F","title":"天主堂(上海新新装潢经营部东南)","lon":"121.46723","lat":"31.25361","category":"245","category_name":"教堂","address":"育婴堂路289号"},{"poiid":"B2094751DA6DAAF5499D","title":"宇涵造型","lon":"121.468348","lat":"31.252569","category":"248","category_name":"生活娱乐","address":"西藏北路602弄C座207室"},{"poiid":"B2094757D168A5F94098","title":"上海银行 宝昌支行","lon":"121.468559","lat":"31.252214","category":"150","category_name":"银行","address":"上海西藏北路571号"},{"poiid":"B2094757DB6CA3F84293","title":"上海品薇商务酒店","lon":"121.466426253","lat":"31.253780965","category":"214","category_name":"四星级宾馆","address":"上海市闸北区中华新路482号"},{"poiid":"B2094757D16AA1FC4899","title":"中兴路篮球场","lon":"121.469622","lat":"31.253178","category":"220","category_name":"运动场所","address":"上海中兴路西藏路口"},{"poiid":"B2094757D164A7FD4993","title":"上海索乐软件","lon":"121.4684001","lat":"31.252525048","category":"249","category_name":"购物服务","address":"上海市闸北区西藏北路中兴路"},{"poiid":"B2094757D06EAAFE459B","title":"中兴路地铁站","lon":"121.468902","lat":"31.253041","category":"36","category_name":"地铁站","address":"上海轨道交通 八号线 轨交中兴路站 8"},{"poiid":"B2094655D36DA6FF4992","title":"上海金逸院线新恒星影城","lon":"121.46933","lat":"31.25147","category":"178","category_name":"电影院","address":"上海市闸北区西藏北路166号大悦城10-11楼"},{"poiid":"B2094757DB6EA6FE469C","title":"上海铭德大酒店","lon":"121.470063329","lat":"31.251024786","category":"213","category_name":"五星级宾馆","address":"上海市闸北区西藏北路558号(上海火车站地区,近虬江路)"},{"poiid":"B209475CD564A7F8439E","title":"上海滩中信泰富店","lon":"121.45602","lat":"31.22851","category":"119","category_name":"商场","address":"\"南京西路1168号中信泰富广场，店铺号221.\r\n\""},{"poiid":"B2094654D56CA2F8469A","title":"闸北体育馆","lon":"121.46576","lat":"31.25462","category":"224","category_name":"综合体育馆","address":"中华新路475"},{"poiid":"B2094757D06FA1FD419F","title":"铭德莱星顿广场酒店","lon":"121.47000877","lat":"31.251120658","category":"213","category_name":"五星级宾馆","address":"上海闸北区西藏北路558号(虬江路口)"},{"poiid":"B2094757D06FA6F9489D","title":"市北中学","lon":"121.47051","lat":"31.25192","category":"55","category_name":"中学","address":"闸北区永兴路365号(民德路永兴路)"},{"poiid":"B2094757D06FAAFD4093","title":"泰煌火锅(闸北店)","lon":"121.46591","lat":"31.25375","category":"86","category_name":"火锅店","address":"闸北区中华新路479号(近共和新路)"},{"poiid":"B2094655D36DA6FF429E","title":"中兴路","lon":"121.46889","lat":"31.25317","category":"38","category_name":"公交车站","address":"中兴路1385弄"},{"poiid":"B2094757D06FA4F9429C","title":"青年餐厅(火车站店)","lon":"121.46552","lat":"31.25192","category":"71","category_name":"四川菜","address":"闸北区中兴路1122号2楼(近共和新路)"},{"poiid":"B2094757D069A2FF409A","title":"闸北游泳馆","lon":"121.465370616","lat":"31.2542683436","category":"231","category_name":"游泳馆","address":"闸北区中华新路483号(近共和新路)"},{"poiid":"B2094757DA6FA3FB4693","title":"乐购(中兴店)","lon":"121.468737899999","lat":"31.2548925999999","category":"249","category_name":"购物服务","address":"闸北区中华新路396号(近西藏北路)"},{"poiid":"B2094757D065AAFB469F","title":"8号线中兴路站","lon":"121.469617103","lat":"31.2535670701","category":"500","category_name":"未知分类","address":"上海中兴路"},{"poiid":"B2094757D068A4F9499D","title":"兴中心创意园 RED PLUS","lon":"121.467529233","lat":"31.252842315","category":"46","category_name":"楼宇","address":"上海西藏北路605"},{"poiid":"B2094655D36DA1FB409F","title":"西藏北路","lon":"121.46786","lat":"31.253","category":"38","category_name":"公交车站","address":""},{"poiid":"B2094757D06FABFC409A","title":"新梅大厦","lon":"121.47","lat":"31.2509","category":"46","category_name":"楼宇","address":"铁西卫工南街8―5号"},{"poiid":"B2094757D06AA5F4479B","title":"上海大悦城(五楼)caster","lon":"121.468886278","lat":"31.2521678284","category":"500","category_name":"未知分类","address":"上海黄浦区西藏北路166号"},{"poiid":"B2094757D068A5F9449C","title":"SOMI(大悦城店)","lon":"121.46940193","lat":"31.251404648","category":"67","category_name":"甜品店","address":"上海闸北区西藏北路180号大悦城7F-08"},{"poiid":"B2094757D064A3FB499C","title":"唯一天使婚纱","lon":"121.468716103","lat":"31.2512740222","category":"255","category_name":"专卖店","address":"上海中兴路605号"},{"poiid":"B2094654D564AAF9469F","title":"海鸥康恒大厦","lon":"121.469","lat":"31.2534","category":"46","category_name":"楼宇","address":"静安区长寿路(万航渡路口)"},{"poiid":"B2094655D36DA1FB419C","title":"西藏北路中兴路","lon":"121.46926","lat":"31.25184","category":"38","category_name":"公交车站","address":""},{"poiid":"B2094655D26AA0FA4198","title":"地铁中兴路站","lon":"121.46889","lat":"31.25317","category":"36","category_name":"地铁站","address":""},{"poiid":"B2094654D56CA2F5469B","title":"中国移动(虬江路)","lon":"121.46797","lat":"31.25004","category":"138","category_name":"家电电子卖场","address":""},{"poiid":"B2094654D56CA2FD449F","title":"市北初级中学","lon":"121.46715","lat":"31.25567","category":"55","category_name":"中学","address":"闸北区西藏北路803号(近南山路)"},{"poiid":"B2094750D665A1FD439F","title":"鼎新小馆","lon":"121.466","lat":"31.2527","category":"76","category_name":"上海菜","address":"闸北区中兴路1055号(近共和新路)"},{"poiid":"B2094757D069A7FD4293","title":"圣贤居温泉浴场","lon":"121.46686","lat":"31.25233","category":"149","category_name":"洗浴推拿场所","address":"闸北区中兴路1032号(近西藏北路)"},{"poiid":"B2094655D26AA6F54199","title":"泰煌鸡中华新路店","lon":"121.46564","lat":"31.25402","category":"68","category_name":"快餐厅","address":"闸北区中华新路479号(近共和新路)"},{"poiid":"B2094655D26BA5FF4799","title":"中兴绿地篮球场","lon":"121.4695","lat":"31.25388","category":"229","category_name":"篮球场馆","address":"闸北区轨道交通8号线中兴路站附近"},{"poiid":"B2094757D664A4F4479C","title":"占美碳烤鱼","lon":"121.46789","lat":"31.25446","category":"68","category_name":"快餐厅","address":"闸北区中华新路426号(近西藏北路)"},{"poiid":"B2094750D46BAAFC4493","title":"咔喱咖喱（大悦城店）","lon":"121.468688","lat":"31.253988","category":"95","category_name":"日本料理","address":"闸北区西藏北路166号大悦城906-907室"},{"poiid":"B2094750D66DA2F9409D","title":"莱福士广场","lon":"121.468673","lat":"31.253633","category":"500","category_name":"未知分类","address":"西藏中路268号"},{"poiid":"B2094757D165A0F8419E","title":"德林酸菜鱼(安顺路店)","lon":"121.4687992","lat":"31.253146761","category":"247","category_name":"餐饮美食","address":"上海市安顺路90号"},{"poiid":"B2094757D16CABFB4399","title":"室外篮球场(西藏北路)","lon":"121.4689411","lat":"31.2531545","category":"220","category_name":"运动场所","address":"上海西藏北路中兴路"},{"poiid":"B2094753D164A0F4429D","title":"上海唯一视觉婚纱摄影工作室","lon":"121.468213","lat":"31.253157","category":"263","category_name":"公司","address":"上海市闸北区西藏北路605号C座2楼"},{"poiid":"B2094654DB6AA6FF469C","title":"星程圣贤居酒店","lon":"121.46676","lat":"31.25246","category":"215","category_name":"三星级宾馆","address":"闸北区中兴路1032号(近育婴堂路)"},{"poiid":"B2094757D068ABF44092","title":"德笼馆(中兴路店)","lon":"121.46578","lat":"31.25238","category":"247","category_name":"餐饮美食","address":"上海闸北区中兴路1089号(近共和新路)  "},{"poiid":"B2094654DB6AAAFE4893","title":"上海如来大酒店","lon":"121.46625","lat":"31.25278","category":"250","category_name":"公园户外","address":"闸北区中兴路1055号(近共和新路)"},{"poiid":"B2094757D06AA1F5489A","title":"上海新东方学校(西藏北路校区)","lon":"121.46977","lat":"31.25207","category":"253","category_name":"校园生活","address":"闸北区西藏北路598号(近虬江路)"},{"poiid":"B2094757D06BA6FC429C","title":"上海贝尔和田分部","lon":"121.46884155","lat":"31.250766754","category":"68","category_name":"快餐厅","address":"闸北区西藏北路525号(近虬江路)"},{"poiid":"B2094757D16FAAFF4198","title":"老北京羊蝎子(中兴店)","lon":"121.466324103","lat":"31.2527600532","category":"86","category_name":"火锅店","address":"闸北区中兴路1041号(近西藏北路)"},{"poiid":"B2094655D36DA1FB419E","title":"西藏北路永兴路","lon":"121.46925","lat":"31.25192","category":"38","category_name":"公交车站","address":""},{"poiid":"B2094750D664A0FA439E","title":"老盛兴苏州汤包馆(中华新路店)","lon":"121.466","lat":"31.2537","category":"68","category_name":"快餐厅","address":"闸北区中华新路482-486号(近泰煌鸡)"},{"poiid":"B2094654D56CA2FD439B","title":"良友金伴便利连锁No.244","lon":"121.46839","lat":"31.25411","category":"117","category_name":"便民商店/便利店","address":"芷江西路"},{"poiid":"B2094757D66CA2F5469D","title":"茅府","lon":"121.468738103","lat":"31.2541361487","category":"247","category_name":"餐饮美食","address":"上海西藏北路691"},{"poiid":"B2094654DB6AAAFF439F","title":"天主堂(上海新新装潢经营部东南)","lon":"121.46723","lat":"31.25361","category":"245","category_name":"教堂","address":"育婴堂路289号"},{"poiid":"B2094751DA6DAAF5499D","title":"宇涵造型","lon":"121.468348","lat":"31.252569","category":"248","category_name":"生活娱乐","address":"西藏北路602弄C座207室"},{"poiid":"B2094757D168A5F94098","title":"上海银行 宝昌支行","lon":"121.468559","lat":"31.252214","category":"150","category_name":"银行","address":"上海西藏北路571号"},{"poiid":"B2094757DB6CA3F84293","title":"上海品薇商务酒店","lon":"121.466426253","lat":"31.253780965","category":"214","category_name":"四星级宾馆","address":"上海市闸北区中华新路482号"},{"poiid":"B2094757D16AA1FC4899","title":"中兴路篮球场","lon":"121.469622","lat":"31.253178","category":"220","category_name":"运动场所","address":"上海中兴路西藏路口"},{"poiid":"B2094757D164A7FD4993","title":"上海索乐软件","lon":"121.4684001","lat":"31.252525048","category":"249","category_name":"购物服务","address":"上海市闸北区西藏北路中兴路"}]