[{"poiid":"B2094654D56BA3FC4492","title":"百联中环购物广场","lon":"121.39","lat":"31.2514","category":"119","category_name":"商场","address":"普陀区真光路1288号百联购物广场内(近梅川路)"},{"poiid":"B2094757D06FA0FB4999","title":"普陀区人民政府","lon":"121.396481784","lat":"31.2495622802","category":"252","category_name":"楼宇机构","address":"上海普陀区大渡河路1668号"},{"poiid":"B2094757D06FA3FC459B","title":"乐购(真北店)","lon":"121.38891","lat":"31.25219","category":"118","category_name":"超级市场","address":"普陀区铜川路1688号(近真北路)"},{"poiid":"B2094757D06EABF54898","title":"武宁路大渡河路","lon":"121.396488","lat":"31.246277","category":"38","category_name":"公交车站","address":"上海武宁路大渡河路"},{"poiid":"B2094757D06FA4FC489D","title":"麦当劳 铜川路店 McDonald's","lon":"121.38894452847","lat":"31.252577622888","category":"68","category_name":"快餐厅","address":"普陀区铜川路1688号乐购内(近子洲路)"},{"poiid":"B2094757D068AAFE4899","title":"上海市普陀区人民法院","lon":"121.392296","lat":"31.251391","category":"608","category_name":"法院","address":"上海市普陀区铜川路1472号"},{"poiid":"B2094654D465A6FD4193","title":"海棠苑","lon":"121.39087","lat":"31.24982","category":"47","category_name":"住宅区","address":"棕榈路300弄1-75"},{"poiid":"B2094757D068A1FF4192","title":"普陀区税务局","lon":"121.394380281","lat":"31.2493238773","category":"252","category_name":"楼宇机构","address":"上海普陀区北石路579号"},{"poiid":"B2094757D16EA7FB479A","title":"波黎露(百联中环店)","lon":"121.390805586","lat":"31.2436804942","category":"94","category_name":"西餐厅","address":"普陀区真光路1288号百联中环B区3楼(近梅川路)"},{"poiid":"B2094654D56BA4FD479F","title":"海上名庭","lon":"121.39221","lat":"31.243805","category":"47","category_name":"住宅区","address":"梅岭北路1258弄1-99号"},{"poiid":"B2094757D568A7FF439D","title":"中环生活广场","lon":"121.386085","lat":"31.244754","category":"46","category_name":"楼宇","address":"中国上海市普陀区真北路立交桥"},{"poiid":"B2094757D468A6F44998","title":"肯德基 铜川店 KFC","lon":"121.38872814113","lat":"31.252453972899","category":"68","category_name":"快餐厅","address":"普陀区铜川路1688号(近子洲路)"},{"poiid":"B2094751D56AA1FD449D","title":"谈阿姨炸猪排","lon":"121.3921658502795","lat":"31.24863703506036","category":"247","category_name":"餐饮美食","address":"铜川路万镇路"},{"poiid":"B2094757D06FA5F4499D","title":"绿洲公寓","lon":"121.39385","lat":"31.252184","category":"47","category_name":"住宅区","address":"上海市普陀区铜川路1422弄44号"},{"poiid":"B2094654D465A6FC4499","title":"樱花苑","lon":"121.39289","lat":"31.24876","category":"47","category_name":"住宅区","address":"静安区陕西南路(复兴中路陕西南路)"},{"poiid":"B2094655D26BA2FC439C","title":"武宁路真北路","lon":"121.39005","lat":"31.24633","category":"38","category_name":"公交车站","address":"上海市武宁路真北路"},{"poiid":"B2094654DB6AABFF4398","title":"锦江之星(真北店)","lon":"121.39112","lat":"31.25214","category":"216","category_name":"经济型连锁酒店","address":"普陀区真北路2051号(近铜川路)"},{"poiid":"B2094757D068ABF44493","title":"梅陇中学","lon":"121.388899461","lat":"31.2427585512","category":"55","category_name":"中学","address":"上海丹巴路梅岭北路"},{"poiid":"B2094757DB6DA5FC479B","title":"上海映像戴斯大酒店\\t","lon":"121.391724","lat":"31.251577","category":"214","category_name":"四星级宾馆","address":"上海市普陀区真北路2022号(近铜川路)。"},{"poiid":"B2094757D168A6FA429F","title":"别克名流4S店","lon":"121.39515795","lat":"31.251129699","category":"500","category_name":"未知分类","address":"上海市普陀区真北路1366号"},{"poiid":"B2094750D76EA3FE499B","title":"新石器烤肉(真北乐购店)","lon":"121.389","lat":"31.2522","category":"68","category_name":"快餐厅","address":"普陀区铜川路1688号真北乐购1楼(近真北路)"},{"poiid":"B2094757D068AAFD479B","title":"味千拉面(真北乐购店)","lon":"121.388897","lat":"31.252605","category":"95","category_name":"日本料理","address":"普陀区铜川路1688号真北乐购(近真北路)"},{"poiid":"B2094654DB6BA7FE4493","title":"海堂苑(武宁路南门)","lon":"121.39063","lat":"31.24685","category":"47","category_name":"住宅区","address":"真北路1902弄"},{"poiid":"B2094757D16AA1FF409F","title":"红星世贸大厦","lon":"121.39256181928","lat":"31.243826936363","category":"252","category_name":"楼宇机构","address":"上海怒江北路598号"},{"poiid":"B2094757D468A5F5409D","title":"呷哺呷哺 真北路店","lon":"121.3889","lat":"31.2526","category":"86","category_name":"火锅店","address":"普陀区铜川路1688号真北乐购1楼S50号商铺(近真北路)"},{"poiid":"B2094654D56BA4FD4598","title":"上海市普陀区疾病预防控制中心","lon":"121.39037","lat":"31.24439","category":"162","category_name":"医院","address":"丹巴路1628号"},{"poiid":"B2094654D465A6FC499B","title":"铜川学校","lon":"121.39197","lat":"31.25077","category":"56","category_name":"小学","address":"普陀区北石路610弄28号(近铜川路)"},{"poiid":"B2094757D06FA7F4419E","title":"山间堂民间瓦缸煨汤(百联中环店)","lon":"121.38832517","lat":"31.243628422","category":"260","category_name":"其他","address":"上海普陀区真光路1288号百联中环购物广场A区4F"},{"poiid":"B2094757D069A5FF449E","title":"宁馨家园","lon":"121.39222","lat":"31.247187","category":"47","category_name":"住宅区","address":"上海市浦东新区花木路1883弄"},{"poiid":"B2094655D268ABFF4099","title":"真北路立交桥环岛","lon":"121.3887","lat":"31.24687","category":"250","category_name":"公园户外","address":""},{"poiid":"B2094757D069A4FA449F","title":"海棠公园","lon":"121.39043","lat":"31.24713","category":"196","category_name":"公园","address":"普陀区武宁路2650号"},{"poiid":"B2094654DB6BA7FE4692","title":"梅四小区(北门)","lon":"121.39034","lat":"31.24607","category":"47","category_name":"住宅区","address":"武宁路2525弄1-90号"},{"poiid":"B2094655D26DA5F9429D","title":"真光九街坊","lon":"121.38547","lat":"31.248898","category":"47","category_name":"住宅区","address":"金汤路59弄"},{"poiid":"B2094757D16AA4F84098","title":"金沙江路京沪高速分叉口","lon":"121.39025695","lat":"31.2494676679","category":"500","category_name":"未知分类","address":"上海中环外圈金沙江路京沪高速分叉口"},{"poiid":"B2094757D165A4FE4392","title":"金苹果幼儿园","lon":"121.39155995","lat":"31.248636652","category":"57","category_name":"幼儿园","address":"上海普陀区雪松路458弄224号"},{"poiid":"B2094757D069A4FB459F","title":"铜川路吃海鲜","lon":"121.3919819","lat":"31.2513085","category":"500","category_name":"未知分类","address":"上海铜川路"},{"poiid":"B2094757D16EA5F8419F","title":"85度C(铜川店)","lon":"121.38938015","lat":"31.250991297","category":"112","category_name":"糕饼店","address":"普陀区铜川路1688号真北乐购(近子洲路)"},{"poiid":"B2094655D26FA5FC429E","title":"真西新村第二小区","lon":"121.39331","lat":"31.246763","category":"47","category_name":"住宅区","address":"普陀区北石路1550弄160支弄真西新村9号居委会(近苏武牧)"},{"poiid":"B2094757D069A1FD479C","title":"上海市工商局行政管理局普陀分局","lon":"121.394478","lat":"31.250374","category":"260","category_name":"其他","address":"上海北石路631号"},{"poiid":"B2094757D16DA7FA489F","title":"圆百爱(中环百联店)","lon":"121.38752","lat":"31.24702","category":"113","category_name":"冷饮店","address":"普陀区真光路1288号百联购物广场1楼(近梅川路)"},{"poiid":"B2094757D16AA1FE449B","title":"大渡河路","lon":"121.39415058","lat":"31.245613732","category":"500","category_name":"未知分类","address":"上海市普陀区大渡河路1550弄90支弄"},{"poiid":"B2094750D26CA2FB499D","title":"普陀法院","lon":"121.3921052435486","lat":"31.24854108667626","category":"608","category_name":"法院","address":null},{"poiid":"B2094757D06AA3FD439C","title":"新驰苑","lon":"121.39180058","lat":"31.246892757","category":"500","category_name":"未知分类","address":"上海北石路440弄24-25号"},{"poiid":"B2094757D065A3FC429E","title":"林綠魚翅坊","lon":"121.39115519","lat":"31.251833954","category":"247","category_name":"餐饮美食","address":"上海銅川路真北路"},{"poiid":"B2094757D06AA1FF489F","title":"盘古烤肉(真北乐购)","lon":"121.38947495","lat":"31.253095737","category":"257","category_name":"中餐厅","address":"上海市普陀区真光路"},{"poiid":"B2094655D26EA2FB4993","title":"舒庭苑(北门)","lon":"121.39366","lat":"31.24808","category":"47","category_name":"住宅区","address":"北石路500弄30号"},{"poiid":"B2094655D26CABF94298","title":"上海市普陀区食品药品监督所","lon":"121.39357","lat":"31.24746","category":"250","category_name":"公园户外","address":""},{"poiid":"B2094655D26BA2FF439E","title":"铜川路真北路","lon":"121.39011","lat":"31.25184","category":"38","category_name":"公交车站","address":""},{"poiid":"B2094757D068A1FB439D","title":"婚姻登记处(普陀区登记处)","lon":"121.394677406","lat":"31.2506676482","category":"46","category_name":"楼宇","address":"普陀区曹杨路510号(近白玉路)查看地图"},{"poiid":"B2094655D26CABF94593","title":"舒庭苑","lon":"121.39369","lat":"31.24785","category":"47","category_name":"住宅区","address":"北石路500弄30号"},{"poiid":"B2094654D56BA3FC4492","title":"百联中环购物广场","lon":"121.39","lat":"31.2514","category":"119","category_name":"商场","address":"普陀区真光路1288号百联购物广场内(近梅川路)"},{"poiid":"B2094757D06FA0FB4999","title":"普陀区人民政府","lon":"121.396481784","lat":"31.2495622802","category":"252","category_name":"楼宇机构","address":"上海普陀区大渡河路1668号"},{"poiid":"B2094757D06FA3FC459B","title":"乐购(真北店)","lon":"121.38891","lat":"31.25219","category":"118","category_name":"超级市场","address":"普陀区铜川路1688号(近真北路)"},{"poiid":"B2094757D06EABF54898","title":"武宁路大渡河路","lon":"121.396488","lat":"31.246277","category":"38","category_name":"公交车站","address":"上海武宁路大渡河路"},{"poiid":"B2094757D06FA4FC489D","title":"麦当劳 铜川路店 McDonald's","lon":"121.38894452847","lat":"31.252577622888","category":"68","category_name":"快餐厅","address":"普陀区铜川路1688号乐购内(近子洲路)"},{"poiid":"B2094757D068AAFE4899","title":"上海市普陀区人民法院","lon":"121.392296","lat":"31.251391","category":"608","category_name":"法院","address":"上海市普陀区铜川路1472号"},{"poiid":"B2094654D465A6FD4193","title":"海棠苑","lon":"121.39087","lat":"31.24982","category":"47","category_name":"住宅区","address":"棕榈路300弄1-75"},{"poiid":"B2094757D068A1FF4192","title":"普陀区税务局","lon":"121.394380281","lat":"31.2493238773","category":"252","category_name":"楼宇机构","address":"上海普陀区北石路579号"},{"poiid":"B2094757D16EA7FB479A","title":"波黎露(百联中环店)","lon":"121.390805586","lat":"31.2436804942","category":"94","category_name":"西餐厅","address":"普陀区真光路1288号百联中环B区3楼(近梅川路)"},{"poiid":"B2094654D56BA4FD479F","title":"海上名庭","lon":"121.39221","lat":"31.243805","category":"47","category_name":"住宅区","address":"梅岭北路1258弄1-99号"},{"poiid":"B2094757D568A7FF439D","title":"中环生活广场","lon":"121.386085","lat":"31.244754","category":"46","category_name":"楼宇","address":"中国上海市普陀区真北路立交桥"},{"poiid":"B2094757D468A6F44998","title":"肯德基 铜川店 KFC","lon":"121.38872814113","lat":"31.252453972899","category":"68","category_name":"快餐厅","address":"普陀区铜川路1688号(近子洲路)"},{"poiid":"B2094751D56AA1FD449D","title":"谈阿姨炸猪排","lon":"121.3921658502795","lat":"31.24863703506036","category":"247","category_name":"餐饮美食","address":"铜川路万镇路"},{"poiid":"B2094757D06FA5F4499D","title":"绿洲公寓","lon":"121.39385","lat":"31.252184","category":"47","category_name":"住宅区","address":"上海市普陀区铜川路1422弄44号"},{"poiid":"B2094654D465A6FC4499","title":"樱花苑","lon":"121.39289","lat":"31.24876","category":"47","category_name":"住宅区","address":"静安区陕西南路(复兴中路陕西南路)"},{"poiid":"B2094655D26BA2FC439C","title":"武宁路真北路","lon":"121.39005","lat":"31.24633","category":"38","category_name":"公交车站","address":"上海市武宁路真北路"},{"poiid":"B2094654DB6AABFF4398","title":"锦江之星(真北店)","lon":"121.39112","lat":"31.25214","category":"216","category_name":"经济型连锁酒店","address":"普陀区真北路2051号(近铜川路)"},{"poiid":"B2094757D068ABF44493","title":"梅陇中学","lon":"121.388899461","lat":"31.2427585512","category":"55","category_name":"中学","address":"上海丹巴路梅岭北路"},{"poiid":"B2094757DB6DA5FC479B","title":"上海映像戴斯大酒店\\t","lon":"121.391724","lat":"31.251577","category":"214","category_name":"四星级宾馆","address":"上海市普陀区真北路2022号(近铜川路)。"},{"poiid":"B2094757D168A6FA429F","title":"别克名流4S店","lon":"121.39515795","lat":"31.251129699","category":"500","category_name":"未知分类","address":"上海市普陀区真北路1366号"},{"poiid":"B2094750D76EA3FE499B","title":"新石器烤肉(真北乐购店)","lon":"121.389","lat":"31.2522","category":"68","category_name":"快餐厅","address":"普陀区铜川路1688号真北乐购1楼(近真北路)"},{"poiid":"B2094757D068AAFD479B","title":"味千拉面(真北乐购店)","lon":"121.388897","lat":"31.252605","category":"95","category_name":"日本料理","address":"普陀区铜川路1688号真北乐购(近真北路)"},{"poiid":"B2094654DB6BA7FE4493","title":"海堂苑(武宁路南门)","lon":"121.39063","lat":"31.24685","category":"47","category_name":"住宅区","address":"真北路1902弄"},{"poiid":"B2094757D16AA1FF409F","title":"红星世贸大厦","lon":"121.39256181928","lat":"31.243826936363","category":"252","category_name":"楼宇机构","address":"上海怒江北路598号"},{"poiid":"B2094757D468A5F5409D","title":"呷哺呷哺 真北路店","lon":"121.3889","lat":"31.2526","category":"86","category_name":"火锅店","address":"普陀区铜川路1688号真北乐购1楼S50号商铺(近真北路)"},{"poiid":"B2094654D56BA4FD4598","title":"上海市普陀区疾病预防控制中心","lon":"121.39037","lat":"31.24439","category":"162","category_name":"医院","address":"丹巴路1628号"},{"poiid":"B2094654D465A6FC499B","title":"铜川学校","lon":"121.39197","lat":"31.25077","category":"56","category_name":"小学","address":"普陀区北石路610弄28号(近铜川路)"},{"poiid":"B2094757D06FA7F4419E","title":"山间堂民间瓦缸煨汤(百联中环店)","lon":"121.38832517","lat":"31.243628422","category":"260","category_name":"其他","address":"上海普陀区真光路1288号百联中环购物广场A区4F"},{"poiid":"B2094757D069A5FF449E","title":"宁馨家园","lon":"121.39222","lat":"31.247187","category":"47","category_name":"住宅区","address":"上海市浦东新区花木路1883弄"},{"poiid":"B2094655D268ABFF4099","title":"真北路立交桥环岛","lon":"121.3887","lat":"31.24687","category":"250","category_name":"公园户外","address":""},{"poiid":"B2094757D069A4FA449F","title":"海棠公园","lon":"121.39043","lat":"31.24713","category":"196","category_name":"公园","address":"普陀区武宁路2650号"},{"poiid":"B2094654DB6BA7FE4692","title":"梅四小区(北门)","lon":"121.39034","lat":"31.24607","category":"47","category_name":"住宅区","address":"武宁路2525弄1-90号"},{"poiid":"B2094655D26DA5F9429D","title":"真光九街坊","lon":"121.38547","lat":"31.248898","category":"47","category_name":"住宅区","address":"金汤路59弄"},{"poiid":"B2094757D16AA4F84098","title":"金沙江路京沪高速分叉口","lon":"121.39025695","lat":"31.2494676679","category":"500","category_name":"未知分类","address":"上海中环外圈金沙江路京沪高速分叉口"},{"poiid":"B2094757D165A4FE4392","title":"金苹果幼儿园","lon":"121.39155995","lat":"31.248636652","category":"57","category_name":"幼儿园","address":"上海普陀区雪松路458弄224号"},{"poiid":"B2094757D069A4FB459F","title":"铜川路吃海鲜","lon":"121.3919819","lat":"31.2513085","category":"500","category_name":"未知分类","address":"上海铜川路"},{"poiid":"B2094757D16EA5F8419F","title":"85度C(铜川店)","lon":"121.38938015","lat":"31.250991297","category":"112","category_name":"糕饼店","address":"普陀区铜川路1688号真北乐购(近子洲路)"},{"poiid":"B2094655D26FA5FC429E","title":"真西新村第二小区","lon":"121.39331","lat":"31.246763","category":"47","category_name":"住宅区","address":"普陀区北石路1550弄160支弄真西新村9号居委会(近苏武牧)"},{"poiid":"B2094757D069A1FD479C","title":"上海市工商局行政管理局普陀分局","lon":"121.394478","lat":"31.250374","category":"260","category_name":"其他","address":"上海北石路631号"},{"poiid":"B2094757D16DA7FA489F","title":"圆百爱(中环百联店)","lon":"121.38752","lat":"31.24702","category":"113","category_name":"冷饮店","address":"普陀区真光路1288号百联购物广场1楼(近梅川路)"},{"poiid":"B2094757D16AA1FE449B","title":"大渡河路","lon":"121.39415058","lat":"31.245613732","category":"500","category_name":"未知分类","address":"上海市普陀区大渡河路1550弄90支弄"},{"poiid":"B2094750D26CA2FB499D","title":"普陀法院","lon":"121.3921052435486","lat":"31.24854108667626","category":"608","category_name":"法院","address":null},{"poiid":"B2094757D06AA3FD439C","title":"新驰苑","lon":"121.39180058","lat":"31.246892757","category":"500","category_name":"未知分类","address":"上海北石路440弄24-25号"},{"poiid":"B2094757D065A3FC429E","title":"林綠魚翅坊","lon":"121.39115519","lat":"31.251833954","category":"247","category_name":"餐饮美食","address":"上海銅川路真北路"},{"poiid":"B2094757D06AA1FF489F","title":"盘古烤肉(真北乐购)","lon":"121.38947495","lat":"31.253095737","category":"257","category_name":"中餐厅","address":"上海市普陀区真光路"},{"poiid":"B2094655D26EA2FB4993","title":"舒庭苑(北门)","lon":"121.39366","lat":"31.24808","category":"47","category_name":"住宅区","address":"北石路500弄30号"},{"poiid":"B2094655D26CABF94298","title":"上海市普陀区食品药品监督所","lon":"121.39357","lat":"31.24746","category":"250","category_name":"公园户外","address":""},{"poiid":"B2094655D26BA2FF439E","title":"铜川路真北路","lon":"121.39011","lat":"31.25184","category":"38","category_name":"公交车站","address":""},{"poiid":"B2094757D068A1FB439D","title":"婚姻登记处(普陀区登记处)","lon":"121.394677406","lat":"31.2506676482","category":"46","category_name":"楼宇","address":"普陀区曹杨路510号(近白玉路)查看地图"},{"poiid":"B2094655D26CABF94593","title":"舒庭苑","lon":"121.39369","lat":"31.24785","category":"47","category_name":"住宅区","address":"北石路500弄30号"},{"poiid":"B2094654D56BA3FC4492","title":"百联中环购物广场","lon":"121.39","lat":"31.2514","category":"119","category_name":"商场","address":"普陀区真光路1288号百联购物广场内(近梅川路)"},{"poiid":"B2094757D06FA0FB4999","title":"普陀区人民政府","lon":"121.396481784","lat":"31.2495622802","category":"252","category_name":"楼宇机构","address":"上海普陀区大渡河路1668号"},{"poiid":"B2094757D06FA3FC459B","title":"乐购(真北店)","lon":"121.38891","lat":"31.25219","category":"118","category_name":"超级市场","address":"普陀区铜川路1688号(近真北路)"},{"poiid":"B2094757D06EABF54898","title":"武宁路大渡河路","lon":"121.396488","lat":"31.246277","category":"38","category_name":"公交车站","address":"上海武宁路大渡河路"},{"poiid":"B2094757D06FA4FC489D","title":"麦当劳 铜川路店 McDonald's","lon":"121.38894452847","lat":"31.252577622888","category":"68","category_name":"快餐厅","address":"普陀区铜川路1688号乐购内(近子洲路)"},{"poiid":"B2094757D068AAFE4899","title":"上海市普陀区人民法院","lon":"121.392296","lat":"31.251391","category":"608","category_name":"法院","address":"上海市普陀区铜川路1472号"},{"poiid":"B2094654D465A6FD4193","title":"海棠苑","lon":"121.39087","lat":"31.24982","category":"47","category_name":"住宅区","address":"棕榈路300弄1-75"},{"poiid":"B2094757D068A1FF4192","title":"普陀区税务局","lon":"121.394380281","lat":"31.2493238773","category":"252","category_name":"楼宇机构","address":"上海普陀区北石路579号"},{"poiid":"B2094757D16EA7FB479A","title":"波黎露(百联中环店)","lon":"121.390805586","lat":"31.2436804942","category":"94","category_name":"西餐厅","address":"普陀区真光路1288号百联中环B区3楼(近梅川路)"},{"poiid":"B2094654D56BA4FD479F","title":"海上名庭","lon":"121.39221","lat":"31.243805","category":"47","category_name":"住宅区","address":"梅岭北路1258弄1-99号"},{"poiid":"B2094757D568A7FF439D","title":"中环生活广场","lon":"121.386085","lat":"31.244754","category":"46","category_name":"楼宇","address":"中国上海市普陀区真北路立交桥"},{"poiid":"B2094757D468A6F44998","title":"肯德基 铜川店 KFC","lon":"121.38872814113","lat":"31.252453972899","category":"68","category_name":"快餐厅","address":"普陀区铜川路1688号(近子洲路)"},{"poiid":"B2094751D56AA1FD449D","title":"谈阿姨炸猪排","lon":"121.3921658502795","lat":"31.24863703506036","category":"247","category_name":"餐饮美食","address":"铜川路万镇路"},{"poiid":"B2094757D06FA5F4499D","title":"绿洲公寓","lon":"121.39385","lat":"31.252184","category":"47","category_name":"住宅区","address":"上海市普陀区铜川路1422弄44号"},{"poiid":"B2094654D465A6FC4499","title":"樱花苑","lon":"121.39289","lat":"31.24876","category":"47","category_name":"住宅区","address":"静安区陕西南路(复兴中路陕西南路)"},{"poiid":"B2094655D26BA2FC439C","title":"武宁路真北路","lon":"121.39005","lat":"31.24633","category":"38","category_name":"公交车站","address":"上海市武宁路真北路"},{"poiid":"B2094654DB6AABFF4398","title":"锦江之星(真北店)","lon":"121.39112","lat":"31.25214","category":"216","category_name":"经济型连锁酒店","address":"普陀区真北路2051号(近铜川路)"},{"poiid":"B2094757D068ABF44493","title":"梅陇中学","lon":"121.388899461","lat":"31.2427585512","category":"55","category_name":"中学","address":"上海丹巴路梅岭北路"},{"poiid":"B2094757DB6DA5FC479B","title":"上海映像戴斯大酒店\\t","lon":"121.391724","lat":"31.251577","category":"214","category_name":"四星级宾馆","address":"上海市普陀区真北路2022号(近铜川路)。"},{"poiid":"B2094757D168A6FA429F","title":"别克名流4S店","lon":"121.39515795","lat":"31.251129699","category":"500","category_name":"未知分类","address":"上海市普陀区真北路1366号"},{"poiid":"B2094750D76EA3FE499B","title":"新石器烤肉(真北乐购店)","lon":"121.389","lat":"31.2522","category":"68","category_name":"快餐厅","address":"普陀区铜川路1688号真北乐购1楼(近真北路)"},{"poiid":"B2094757D068AAFD479B","title":"味千拉面(真北乐购店)","lon":"121.388897","lat":"31.252605","category":"95","category_name":"日本料理","address":"普陀区铜川路1688号真北乐购(近真北路)"},{"poiid":"B2094654DB6BA7FE4493","title":"海堂苑(武宁路南门)","lon":"121.39063","lat":"31.24685","category":"47","category_name":"住宅区","address":"真北路1902弄"},{"poiid":"B2094757D16AA1FF409F","title":"红星世贸大厦","lon":"121.39256181928","lat":"31.243826936363","category":"252","category_name":"楼宇机构","address":"上海怒江北路598号"},{"poiid":"B2094757D468A5F5409D","title":"呷哺呷哺 真北路店","lon":"121.3889","lat":"31.2526","category":"86","category_name":"火锅店","address":"普陀区铜川路1688号真北乐购1楼S50号商铺(近真北路)"},{"poiid":"B2094654D56BA4FD4598","title":"上海市普陀区疾病预防控制中心","lon":"121.39037","lat":"31.24439","category":"162","category_name":"医院","address":"丹巴路1628号"},{"poiid":"B2094654D465A6FC499B","title":"铜川学校","lon":"121.39197","lat":"31.25077","category":"56","category_name":"小学","address":"普陀区北石路610弄28号(近铜川路)"},{"poiid":"B2094757D06FA7F4419E","title":"山间堂民间瓦缸煨汤(百联中环店)","lon":"121.38832517","lat":"31.243628422","category":"260","category_name":"其他","address":"上海普陀区真光路1288号百联中环购物广场A区4F"},{"poiid":"B2094757D069A5FF449E","title":"宁馨家园","lon":"121.39222","lat":"31.247187","category":"47","category_name":"住宅区","address":"上海市浦东新区花木路1883弄"},{"poiid":"B2094655D268ABFF4099","title":"真北路立交桥环岛","lon":"121.3887","lat":"31.24687","category":"250","category_name":"公园户外","address":""},{"poiid":"B2094757D069A4FA449F","title":"海棠公园","lon":"121.39043","lat":"31.24713","category":"196","category_name":"公园","address":"普陀区武宁路2650号"},{"poiid":"B2094654DB6BA7FE4692","title":"梅四小区(北门)","lon":"121.39034","lat":"31.24607","category":"47","category_name":"住宅区","address":"武宁路2525弄1-90号"},{"poiid":"B2094655D26DA5F9429D","title":"真光九街坊","lon":"121.38547","lat":"31.248898","category":"47","category_name":"住宅区","address":"金汤路59弄"},{"poiid":"B2094757D16AA4F84098","title":"金沙江路京沪高速分叉口","lon":"121.39025695","lat":"31.2494676679","category":"500","category_name":"未知分类","address":"上海中环外圈金沙江路京沪高速分叉口"},{"poiid":"B2094757D165A4FE4392","title":"金苹果幼儿园","lon":"121.39155995","lat":"31.248636652","category":"57","category_name":"幼儿园","address":"上海普陀区雪松路458弄224号"},{"poiid":"B2094757D069A4FB459F","title":"铜川路吃海鲜","lon":"121.3919819","lat":"31.2513085","category":"500","category_name":"未知分类","address":"上海铜川路"},{"poiid":"B2094757D16EA5F8419F","title":"85度C(铜川店)","lon":"121.38938015","lat":"31.250991297","category":"112","category_name":"糕饼店","address":"普陀区铜川路1688号真北乐购(近子洲路)"},{"poiid":"B2094655D26FA5FC429E","title":"真西新村第二小区","lon":"121.39331","lat":"31.246763","category":"47","category_name":"住宅区","address":"普陀区北石路1550弄160支弄真西新村9号居委会(近苏武牧)"},{"poiid":"B2094757D069A1FD479C","title":"上海市工商局行政管理局普陀分局","lon":"121.394478","lat":"31.250374","category":"260","category_name":"其他","address":"上海北石路631号"},{"poiid":"B2094757D16DA7FA489F","title":"圆百爱(中环百联店)","lon":"121.38752","lat":"31.24702","category":"113","category_name":"冷饮店","address":"普陀区真光路1288号百联购物广场1楼(近梅川路)"},{"poiid":"B2094757D16AA1FE449B","title":"大渡河路","lon":"121.39415058","lat":"31.245613732","category":"500","category_name":"未知分类","address":"上海市普陀区大渡河路1550弄90支弄"},{"poiid":"B2094750D26CA2FB499D","title":"普陀法院","lon":"121.3921052435486","lat":"31.24854108667626","category":"608","category_name":"法院","address":null},{"poiid":"B2094757D06AA3FD439C","title":"新驰苑","lon":"121.39180058","lat":"31.246892757","category":"500","category_name":"未知分类","address":"上海北石路440弄24-25号"},{"poiid":"B2094757D065A3FC429E","title":"林綠魚翅坊","lon":"121.39115519","lat":"31.251833954","category":"247","category_name":"餐饮美食","address":"上海銅川路真北路"},{"poiid":"B2094757D06AA1FF489F","title":"盘古烤肉(真北乐购)","lon":"121.38947495","lat":"31.253095737","category":"257","category_name":"中餐厅","address":"上海市普陀区真光路"},{"poiid":"B2094655D26EA2FB4993","title":"舒庭苑(北门)","lon":"121.39366","lat":"31.24808","category":"47","category_name":"住宅区","address":"北石路500弄30号"},{"poiid":"B2094655D26CABF94298","title":"上海市普陀区食品药品监督所","lon":"121.39357","lat":"31.24746","category":"250","category_name":"公园户外","address":""},{"poiid":"B2094655D26BA2FF439E","title":"铜川路真北路","lon":"121.39011","lat":"31.25184","category":"38","category_name":"公交车站","address":""},{"poiid":"B2094757D068A1FB439D","title":"婚姻登记处(普陀区登记处)","lon":"121.394677406","lat":"31.2506676482","category":"46","category_name":"楼宇","address":"普陀区曹杨路510号(近白玉路)查看地图"},{"poiid":"B2094655D26CABF94593","title":"舒庭苑","lon":"121.39369","lat":"31.24785","category":"47","category_name":"住宅区","address":"北石路500弄30号"},{"poiid":"B2094654D56BA3FC4492","title":"百联中环购物广场","lon":"121.39","lat":"31.2514","category":"119","category_name":"商场","address":"普陀区真光路1288号百联购物广场内(近梅川路)"},{"poiid":"B2094757D06FA0FB4999","title":"普陀区人民政府","lon":"121.396481784","lat":"31.2495622802","category":"252","category_name":"楼宇机构","address":"上海普陀区大渡河路1668号"},{"poiid":"B2094757D06FA3FC459B","title":"乐购(真北店)","lon":"121.38891","lat":"31.25219","category":"118","category_name":"超级市场","address":"普陀区铜川路1688号(近真北路)"},{"poiid":"B2094757D06EABF54898","title":"武宁路大渡河路","lon":"121.396488","lat":"31.246277","category":"38","category_name":"公交车站","address":"上海武宁路大渡河路"},{"poiid":"B2094757D06FA4FC489D","title":"麦当劳 铜川路店 McDonald's","lon":"121.38894452847","lat":"31.252577622888","category":"68","category_name":"快餐厅","address":"普陀区铜川路1688号乐购内(近子洲路)"},{"poiid":"B2094757D068AAFE4899","title":"上海市普陀区人民法院","lon":"121.392296","lat":"31.251391","category":"608","category_name":"法院","address":"上海市普陀区铜川路1472号"},{"poiid":"B2094654D465A6FD4193","title":"海棠苑","lon":"121.39087","lat":"31.24982","category":"47","category_name":"住宅区","address":"棕榈路300弄1-75"},{"poiid":"B2094757D068A1FF4192","title":"普陀区税务局","lon":"121.394380281","lat":"31.2493238773","category":"252","category_name":"楼宇机构","address":"上海普陀区北石路579号"},{"poiid":"B2094757D16EA7FB479A","title":"波黎露(百联中环店)","lon":"121.390805586","lat":"31.2436804942","category":"94","category_name":"西餐厅","address":"普陀区真光路1288号百联中环B区3楼(近梅川路)"},{"poiid":"B2094654D56BA4FD479F","title":"海上名庭","lon":"121.39221","lat":"31.243805","category":"47","category_name":"住宅区","address":"梅岭北路1258弄1-99号"},{"poiid":"B2094757D568A7FF439D","title":"中环生活广场","lon":"121.386085","lat":"31.244754","category":"46","category_name":"楼宇","address":"中国上海市普陀区真北路立交桥"},{"poiid":"B2094757D468A6F44998","title":"肯德基 铜川店 KFC","lon":"121.38872814113","lat":"31.252453972899","category":"68","category_name":"快餐厅","address":"普陀区铜川路1688号(近子洲路)"},{"poiid":"B2094751D56AA1FD449D","title":"谈阿姨炸猪排","lon":"121.3921658502795","lat":"31.24863703506036","category":"247","category_name":"餐饮美食","address":"铜川路万镇路"},{"poiid":"B2094757D06FA5F4499D","title":"绿洲公寓","lon":"121.39385","lat":"31.252184","category":"47","category_name":"住宅区","address":"上海市普陀区铜川路1422弄44号"},{"poiid":"B2094654D465A6FC4499","title":"樱花苑","lon":"121.39289","lat":"31.24876","category":"47","category_name":"住宅区","address":"静安区陕西南路(复兴中路陕西南路)"},{"poiid":"B2094655D26BA2FC439C","title":"武宁路真北路","lon":"121.39005","lat":"31.24633","category":"38","category_name":"公交车站","address":"上海市武宁路真北路"},{"poiid":"B2094654DB6AABFF4398","title":"锦江之星(真北店)","lon":"121.39112","lat":"31.25214","category":"216","category_name":"经济型连锁酒店","address":"普陀区真北路2051号(近铜川路)"},{"poiid":"B2094757D068ABF44493","title":"梅陇中学","lon":"121.388899461","lat":"31.2427585512","category":"55","category_name":"中学","address":"上海丹巴路梅岭北路"},{"poiid":"B2094757DB6DA5FC479B","title":"上海映像戴斯大酒店\\t","lon":"121.391724","lat":"31.251577","category":"214","category_name":"四星级宾馆","address":"上海市普陀区真北路2022号(近铜川路)。"},{"poiid":"B2094757D168A6FA429F","title":"别克名流4S店","lon":"121.39515795","lat":"31.251129699","category":"500","category_name":"未知分类","address":"上海市普陀区真北路1366号"},{"poiid":"B2094750D76EA3FE499B","title":"新石器烤肉(真北乐购店)","lon":"121.389","lat":"31.2522","category":"68","category_name":"快餐厅","address":"普陀区铜川路1688号真北乐购1楼(近真北路)"},{"poiid":"B2094757D068AAFD479B","title":"味千拉面(真北乐购店)","lon":"121.388897","lat":"31.252605","category":"95","category_name":"日本料理","address":"普陀区铜川路1688号真北乐购(近真北路)"},{"poiid":"B2094654DB6BA7FE4493","title":"海堂苑(武宁路南门)","lon":"121.39063","lat":"31.24685","category":"47","category_name":"住宅区","address":"真北路1902弄"},{"poiid":"B2094757D16AA1FF409F","title":"红星世贸大厦","lon":"121.39256181928","lat":"31.243826936363","category":"252","category_name":"楼宇机构","address":"上海怒江北路598号"},{"poiid":"B2094757D468A5F5409D","title":"呷哺呷哺 真北路店","lon":"121.3889","lat":"31.2526","category":"86","category_name":"火锅店","address":"普陀区铜川路1688号真北乐购1楼S50号商铺(近真北路)"},{"poiid":"B2094654D56BA4FD4598","title":"上海市普陀区疾病预防控制中心","lon":"121.39037","lat":"31.24439","category":"162","category_name":"医院","address":"丹巴路1628号"},{"poiid":"B2094654D465A6FC499B","title":"铜川学校","lon":"121.39197","lat":"31.25077","category":"56","category_name":"小学","address":"普陀区北石路610弄28号(近铜川路)"},{"poiid":"B2094757D06FA7F4419E","title":"山间堂民间瓦缸煨汤(百联中环店)","lon":"121.38832517","lat":"31.243628422","category":"260","category_name":"其他","address":"上海普陀区真光路1288号百联中环购物广场A区4F"},{"poiid":"B2094757D069A5FF449E","title":"宁馨家园","lon":"121.39222","lat":"31.247187","category":"47","category_name":"住宅区","address":"上海市浦东新区花木路1883弄"},{"poiid":"B2094655D268ABFF4099","title":"真北路立交桥环岛","lon":"121.3887","lat":"31.24687","category":"250","category_name":"公园户外","address":""},{"poiid":"B2094757D069A4FA449F","title":"海棠公园","lon":"121.39043","lat":"31.24713","category":"196","category_name":"公园","address":"普陀区武宁路2650号"},{"poiid":"B2094654DB6BA7FE4692","title":"梅四小区(北门)","lon":"121.39034","lat":"31.24607","category":"47","category_name":"住宅区","address":"武宁路2525弄1-90号"},{"poiid":"B2094655D26DA5F9429D","title":"真光九街坊","lon":"121.38547","lat":"31.248898","category":"47","category_name":"住宅区","address":"金汤路59弄"},{"poiid":"B2094757D16AA4F84098","title":"金沙江路京沪高速分叉口","lon":"121.39025695","lat":"31.2494676679","category":"500","category_name":"未知分类","address":"上海中环外圈金沙江路京沪高速分叉口"},{"poiid":"B2094757D165A4FE4392","title":"金苹果幼儿园","lon":"121.39155995","lat":"31.248636652","category":"57","category_name":"幼儿园","address":"上海普陀区雪松路458弄224号"},{"poiid":"B2094757D069A4FB459F","title":"铜川路吃海鲜","lon":"121.3919819","lat":"31.2513085","category":"500","category_name":"未知分类","address":"上海铜川路"},{"poiid":"B2094757D16EA5F8419F","title":"85度C(铜川店)","lon":"121.38938015","lat":"31.250991297","category":"112","category_name":"糕饼店","address":"普陀区铜川路1688号真北乐购(近子洲路)"},{"poiid":"B2094655D26FA5FC429E","title":"真西新村第二小区","lon":"121.39331","lat":"31.246763","category":"47","category_name":"住宅区","address":"普陀区北石路1550弄160支弄真西新村9号居委会(近苏武牧)"},{"poiid":"B2094757D069A1FD479C","title":"上海市工商局行政管理局普陀分局","lon":"121.394478","lat":"31.250374","category":"260","category_name":"其他","address":"上海北石路631号"},{"poiid":"B2094757D16DA7FA489F","title":"圆百爱(中环百联店)","lon":"121.38752","lat":"31.24702","category":"113","category_name":"冷饮店","address":"普陀区真光路1288号百联购物广场1楼(近梅川路)"},{"poiid":"B2094757D16AA1FE449B","title":"大渡河路","lon":"121.39415058","lat":"31.245613732","category":"500","category_name":"未知分类","address":"上海市普陀区大渡河路1550弄90支弄"},{"poiid":"B2094750D26CA2FB499D","title":"普陀法院","lon":"121.3921052435486","lat":"31.24854108667626","category":"608","category_name":"法院","address":null},{"poiid":"B2094757D06AA3FD439C","title":"新驰苑","lon":"121.39180058","lat":"31.246892757","category":"500","category_name":"未知分类","address":"上海北石路440弄24-25号"},{"poiid":"B2094757D065A3FC429E","title":"林綠魚翅坊","lon":"121.39115519","lat":"31.251833954","category":"247","category_name":"餐饮美食","address":"上海銅川路真北路"},{"poiid":"B2094757D06AA1FF489F","title":"盘古烤肉(真北乐购)","lon":"121.38947495","lat":"31.253095737","category":"257","category_name":"中餐厅","address":"上海市普陀区真光路"},{"poiid":"B2094655D26EA2FB4993","title":"舒庭苑(北门)","lon":"121.39366","lat":"31.24808","category":"47","category_name":"住宅区","address":"北石路500弄30号"},{"poiid":"B2094655D26CABF94298","title":"上海市普陀区食品药品监督所","lon":"121.39357","lat":"31.24746","category":"250","category_name":"公园户外","address":""},{"poiid":"B2094655D26BA2FF439E","title":"铜川路真北路","lon":"121.39011","lat":"31.25184","category":"38","category_name":"公交车站","address":""},{"poiid":"B2094757D068A1FB439D","title":"婚姻登记处(普陀区登记处)","lon":"121.394677406","lat":"31.2506676482","category":"46","category_name":"楼宇","address":"普陀区曹杨路510号(近白玉路)查看地图"},{"poiid":"B2094655D26CABF94593","title":"舒庭苑","lon":"121.39369","lat":"31.24785","category":"47","category_name":"住宅区","address":"北石路500弄30号"}]