[{"poiid":"B2094654DA6FAAF84098","title":"外滩中心","lon":"121.494","lat":"31.238","category":"46","category_name":"楼宇","address":"上海黄浦区延安东路222号"},{"poiid":"B2094655D26AA0FD489C","title":"威斯汀大饭店","lon":"121.48682","lat":"31.23242","category":"213","category_name":"五星级宾馆","address":"上海市黄浦区河南中路88号(近广东路)"},{"poiid":"B2094757D06EAAFB419F","title":"仁济医院(西部)","lon":"121.48445382","lat":"31.233387977","category":"162","category_name":"医院","address":"黄浦区山东中路145号(近福州路)"},{"poiid":"B2094753D76FAAFA449C","title":"上海滩国泰旗舰店","lon":"121.466011","lat":"31.216125","category":"249","category_name":"购物服务","address":"淮海中路868号"},{"poiid":"B209475CD564A7F84292","title":"上海滩新天地店","lon":"121.47463","lat":"31.22164","category":"119","category_name":"商场","address":"\"太仓路181弄新天地北里15号\r\n\""},{"poiid":"B209475CD564A7F8439E","title":"上海滩中信泰富店","lon":"121.45602","lat":"31.22851","category":"119","category_name":"商场","address":"\"南京西路1168号中信泰富广场，店铺号221.\r\n\""},{"poiid":"B209475CD564A7F84392","title":"上海滩浦东香格里拉店","lon":"121.50058","lat":"31.23634","category":"119","category_name":"商场","address":"浦东富成路33号香格里拉酒店内大堂层"},{"poiid":"B2094757D06FA5F5429E","title":"自然博物馆","lon":"121.48692063","lat":"31.231605225","category":"182","category_name":"博物馆","address":"上海黄浦区延安东路260号"},{"poiid":"B2094654DA6EAAF84098","title":"兰生大厦","lon":"121.48613790537","lat":"31.231558720298","category":"46","category_name":"楼宇","address":"卢湾区淮海中路2-8号"},{"poiid":"B2094654DA6EAAF8449D","title":"金钟广场","lon":"121.486","lat":"31.2316","category":"46","category_name":"楼宇","address":"卢湾区淮海中路98号(近柳林路)"},{"poiid":"B2094757DA6FA1FC489E","title":"南京路","lon":"121.48612976074219","lat":"31.23181184772342","category":"248","category_name":"生活娱乐","address":"上海 上海市 上海市南京路"},{"poiid":"B2094757D06EAAFD489D","title":"一兆韦德(城市会所店)","lon":"121.48567","lat":"31.23132","category":"221","category_name":"健身中心","address":"黄浦区河南中路1号(近延安东路)"},{"poiid":"B2094757D068A1F94693","title":"中福世福汇大酒店","lon":"121.48475","lat":"31.23242","category":"217","category_name":"旅馆招待所","address":"黄浦区广东路339号(山东中路口)"},{"poiid":"B2094654DA6EA6FC4699","title":"旺角广场","lon":"121.48483","lat":"31.23069","category":"46","category_name":"楼宇","address":"上海市虹口区四川北路1318号"},{"poiid":"B2094757D06EAAFB499F","title":"星巴克(外滩中心店)","lon":"121.486469","lat":"31.231952","category":"260","category_name":"其他","address":"黄浦区延安东路222号1楼(近江西南路)"},{"poiid":"B2094654DB6AA0F5429E","title":"威斯汀舞台餐厅","lon":"121.48682","lat":"31.23242","category":"268","category_name":"自助","address":"黄浦区河南中路88号上海威斯汀大饭店1楼(近广东路)"},{"poiid":"B2094757D06FA6FF4498","title":"老北京前门烤鸭","lon":"121.4867704","lat":"31.2308891","category":"260","category_name":"其他","address":"黄浦区河南南路1号星腾大厦(延安东路口)"},{"poiid":"B2094757D069A3F44892","title":"上海市延安路隧道","lon":"121.484965738","lat":"31.2313593242","category":"500","category_name":"未知分类","address":"上海市延安路隧道"},{"poiid":"B2094757D06FA6FE4298","title":"海上阿叔(黄浦店)","lon":"121.48804","lat":"31.23132","category":"76","category_name":"上海菜","address":"黄浦区延安东路222号外滩中心B1楼(近江西中路)"},{"poiid":"B2094654DA6EA6FB429C","title":"恒积大厦","lon":"121.488","lat":"31.2316","category":"46","category_name":"楼宇","address":"行宫位于沈河北站一路41号"},{"poiid":"B2094757D068A3FD459D","title":"永银大厦","lon":"121.487","lat":"31.2303","category":"46","category_name":"楼宇","address":"卫清西路139_149号等"},{"poiid":"B2094757D06AA2FE4698","title":"地铁二号线静安寺站","lon":"121.48722173","lat":"31.231696331","category":"36","category_name":"地铁站","address":"上海静安区南京西路华山路口,轨道交通二号线静安寺站"},{"poiid":"B2094757D06FABFA469E","title":"中汇大厦","lon":"121.48686831","lat":"31.230220304","category":"46","category_name":"楼宇","address":"丰台学城海鹰路1号,3号"},{"poiid":"B2094655D26EA6FA429E","title":"威斯汀钻石宴会厅","lon":"121.48682","lat":"31.23242","category":"260","category_name":"其他","address":"黄浦区河南中路88号威斯汀大饭店3楼(近广东路)"},{"poiid":"B2094654DA6FABFA489F","title":"上海第二医科大学附属仁济医院","lon":"121.48449","lat":"31.23353","category":"162","category_name":"医院","address":"山东中路145"},{"poiid":"B2094757D06FAAFD419E","title":"黄浦区机关大楼","lon":"121.484796694","lat":"31.2309905459","category":"252","category_name":"楼宇机构","address":"上海延安东路300号"},{"poiid":"B2094655D26CAAFC419A","title":"如家酒店(外滩中心店)","lon":"121.48662","lat":"31.23375","category":"216","category_name":"经济型连锁酒店","address":"上海市黄浦区江西中路135弄11号(泗泾路26弄内)"},{"poiid":"B2094654DA6FAAF8499E","title":"贡多拉意大利餐厅","lon":"121.48687","lat":"31.23147","category":"94","category_name":"西餐厅","address":"黄浦区河南中路16号(近延安东路)"},{"poiid":"B2094654DA6EA6FA4898","title":"汇通大厦","lon":"121.488","lat":"31.2328","category":"46","category_name":"楼宇","address":"金陵东路369号"},{"poiid":"B2094757D069AAFD449E","title":"九江路外滩","lon":"121.485418907","lat":"31.233909491","category":"500","category_name":"未知分类","address":"上海九江路四川中路"},{"poiid":"B2094751DA6DA1F4419D","title":"八佰伴","lon":"121.484531","lat":"31.231188","category":"500","category_name":"未知分类","address":null},{"poiid":"B2094654DB6BA4F9439A","title":"星腾大厦","lon":"121.48728","lat":"31.23068","category":"46","category_name":"楼宇","address":"长宁路1158号贝多芬广场618室"},{"poiid":"B2094654DA6EAAFF439D","title":"柳林大厦","lon":"121.487","lat":"31.2311","category":"46","category_name":"楼宇","address":"上海市闵行区莲花南路1500弄"},{"poiid":"B2094654DB6AA7FF469B","title":"帕戈意大利餐厅 Prego","lon":"121.48738275777","lat":"31.231410271031","category":"94","category_name":"西餐厅","address":"黄浦区河南中路88号威斯汀大饭店2楼(近广东路)"},{"poiid":"B209475CD36BA2FC489F","title":"Tock's","lon":"121.4859","lat":"31.2345","category":"94","category_name":"西餐厅","address":"河南中路221号(近福州路)"},{"poiid":"B2094750D36BA5FA409A","title":"超级密室X-ROOM","lon":"121.48442","lat":"31.23169","category":"196","category_name":"公园","address":"黄浦区中山南路1029号幸福码头6号楼2楼(近南浦大桥)"},{"poiid":"B2094655D26DAAFC4798","title":"宜兰贵斯酒店","lon":"121.48826","lat":"31.23394","category":"250","category_name":"公园户外","address":"黄浦区广东路138号(近河南中路)"},{"poiid":"B2094757D66EA4F94699","title":"一兆伟德城市会所","lon":"121.485223738","lat":"31.2317693329","category":"500","category_name":"未知分类","address":"黄浦区河南中路1号5楼(河南中路延安东路)"},{"poiid":"B2094757D06FABF5479B","title":"福井日本料理(广东路店)","lon":"121.48504","lat":"31.23219","category":"95","category_name":"日本料理","address":"黄浦区广东路339号中福世福汇酒店(山东中路口)"},{"poiid":"B2094655D26EA5F54193","title":"贝纳斯西餐厅","lon":"121.48475","lat":"31.23233","category":"268","category_name":"自助","address":"黄浦区广东路339号中福世福汇酒店31楼(山东中路口)"},{"poiid":"B2094757D068A0F84798","title":"上海市国家安全局","lon":"121.48662337","lat":"31.234723797","category":"252","category_name":"楼宇机构","address":"上海市黄浦区福州路185号"},{"poiid":"B2094757D068A0FB439B","title":"港乐港式茶餐厅","lon":"121.48488069","lat":"31.232128545","category":"72","category_name":"广东菜","address":"黄浦区广东路340号(近山东中路)"},{"poiid":"B2094757D06BA4FC479A","title":"仙芋奇圆","lon":"121.488421738","lat":"31.2310923185","category":"67","category_name":"甜品店","address":"黄浦区金陵东路68号工商联大厦裙楼1楼B-2铺(近江西南路)"},{"poiid":"B2094757D46EABFC4998","title":"旬鲜","lon":"121.48562","lat":"31.23411","category":"95","category_name":"日本料理","address":"黄浦区昭通路24号(河南中路昭通路)"},{"poiid":"B2094654DB65A5F4499A","title":"上海维拉斯酒店","lon":"121.48582","lat":"31.23286","category":"214","category_name":"四星级宾馆","address":"黄浦区广东路306号(近外滩)"},{"poiid":"B2094751D36CA5F84792","title":"南洋茶铺","lon":"121.48591","lat":"31.23287","category":"113","category_name":"冷饮店","address":"黄浦区广东路294号(近河南中路)"},{"poiid":"B2094757D66AA4FA449E","title":"乐阳春","lon":"121.484783054","lat":"31.233858793","category":"76","category_name":"上海菜","address":"黄浦区山东中路142号(近福州路)"},{"poiid":"B2094757D06AA0FE4493","title":"香喷喷好面馆","lon":"121.48482810903","lat":"31.232632885867","category":"68","category_name":"快餐厅","address":"黄浦区山东中路95号(近广东路)"},{"poiid":"B2094757D469A1FE489C","title":"台园圆圆香云吞 广东路店","lon":"121.48454750232","lat":"31.232625932109","category":"87","category_name":"特色／地方风味餐厅","address":"黄浦区广东路360号(近山东中路)"},{"poiid":"B2094750DB6DA5F5449B","title":"花子形象","lon":"121.486069","lat":"31.234283","category":"148","category_name":"美容美发店","address":"黄浦区云南中路246号(近福州路)"},{"poiid":"B2094654DA6FAAF84098","title":"外滩中心","lon":"121.494","lat":"31.238","category":"46","category_name":"楼宇","address":"上海黄浦区延安东路222号"},{"poiid":"B2094655D26AA0FD489C","title":"威斯汀大饭店","lon":"121.48682","lat":"31.23242","category":"213","category_name":"五星级宾馆","address":"上海市黄浦区河南中路88号(近广东路)"},{"poiid":"B2094757D06EAAFB419F","title":"仁济医院(西部)","lon":"121.48445382","lat":"31.233387977","category":"162","category_name":"医院","address":"黄浦区山东中路145号(近福州路)"},{"poiid":"B2094753D76FAAFA449C","title":"上海滩国泰旗舰店","lon":"121.466011","lat":"31.216125","category":"249","category_name":"购物服务","address":"淮海中路868号"},{"poiid":"B209475CD564A7F84292","title":"上海滩新天地店","lon":"121.47463","lat":"31.22164","category":"119","category_name":"商场","address":"\"太仓路181弄新天地北里15号\r\n\""},{"poiid":"B209475CD564A7F8439E","title":"上海滩中信泰富店","lon":"121.45602","lat":"31.22851","category":"119","category_name":"商场","address":"\"南京西路1168号中信泰富广场，店铺号221.\r\n\""},{"poiid":"B209475CD564A7F84392","title":"上海滩浦东香格里拉店","lon":"121.50058","lat":"31.23634","category":"119","category_name":"商场","address":"浦东富成路33号香格里拉酒店内大堂层"},{"poiid":"B2094757D06FA5F5429E","title":"自然博物馆","lon":"121.48692063","lat":"31.231605225","category":"182","category_name":"博物馆","address":"上海黄浦区延安东路260号"},{"poiid":"B2094654DA6EAAF84098","title":"兰生大厦","lon":"121.48613790537","lat":"31.231558720298","category":"46","category_name":"楼宇","address":"卢湾区淮海中路2-8号"},{"poiid":"B2094654DA6EAAF8449D","title":"金钟广场","lon":"121.486","lat":"31.2316","category":"46","category_name":"楼宇","address":"卢湾区淮海中路98号(近柳林路)"},{"poiid":"B2094757DA6FA1FC489E","title":"南京路","lon":"121.48612976074219","lat":"31.23181184772342","category":"248","category_name":"生活娱乐","address":"上海 上海市 上海市南京路"},{"poiid":"B2094757D06EAAFD489D","title":"一兆韦德(城市会所店)","lon":"121.48567","lat":"31.23132","category":"221","category_name":"健身中心","address":"黄浦区河南中路1号(近延安东路)"},{"poiid":"B2094757D068A1F94693","title":"中福世福汇大酒店","lon":"121.48475","lat":"31.23242","category":"217","category_name":"旅馆招待所","address":"黄浦区广东路339号(山东中路口)"},{"poiid":"B2094654DA6EA6FC4699","title":"旺角广场","lon":"121.48483","lat":"31.23069","category":"46","category_name":"楼宇","address":"上海市虹口区四川北路1318号"},{"poiid":"B2094757D06EAAFB499F","title":"星巴克(外滩中心店)","lon":"121.486469","lat":"31.231952","category":"260","category_name":"其他","address":"黄浦区延安东路222号1楼(近江西南路)"},{"poiid":"B2094654DB6AA0F5429E","title":"威斯汀舞台餐厅","lon":"121.48682","lat":"31.23242","category":"268","category_name":"自助","address":"黄浦区河南中路88号上海威斯汀大饭店1楼(近广东路)"},{"poiid":"B2094757D06FA6FF4498","title":"老北京前门烤鸭","lon":"121.4867704","lat":"31.2308891","category":"260","category_name":"其他","address":"黄浦区河南南路1号星腾大厦(延安东路口)"},{"poiid":"B2094757D069A3F44892","title":"上海市延安路隧道","lon":"121.484965738","lat":"31.2313593242","category":"500","category_name":"未知分类","address":"上海市延安路隧道"},{"poiid":"B2094757D06FA6FE4298","title":"海上阿叔(黄浦店)","lon":"121.48804","lat":"31.23132","category":"76","category_name":"上海菜","address":"黄浦区延安东路222号外滩中心B1楼(近江西中路)"},{"poiid":"B2094654DA6EA6FB429C","title":"恒积大厦","lon":"121.488","lat":"31.2316","category":"46","category_name":"楼宇","address":"行宫位于沈河北站一路41号"},{"poiid":"B2094757D068A3FD459D","title":"永银大厦","lon":"121.487","lat":"31.2303","category":"46","category_name":"楼宇","address":"卫清西路139_149号等"},{"poiid":"B2094757D06AA2FE4698","title":"地铁二号线静安寺站","lon":"121.48722173","lat":"31.231696331","category":"36","category_name":"地铁站","address":"上海静安区南京西路华山路口,轨道交通二号线静安寺站"},{"poiid":"B2094757D06FABFA469E","title":"中汇大厦","lon":"121.48686831","lat":"31.230220304","category":"46","category_name":"楼宇","address":"丰台学城海鹰路1号,3号"},{"poiid":"B2094655D26EA6FA429E","title":"威斯汀钻石宴会厅","lon":"121.48682","lat":"31.23242","category":"260","category_name":"其他","address":"黄浦区河南中路88号威斯汀大饭店3楼(近广东路)"},{"poiid":"B2094654DA6FABFA489F","title":"上海第二医科大学附属仁济医院","lon":"121.48449","lat":"31.23353","category":"162","category_name":"医院","address":"山东中路145"},{"poiid":"B2094757D06FAAFD419E","title":"黄浦区机关大楼","lon":"121.484796694","lat":"31.2309905459","category":"252","category_name":"楼宇机构","address":"上海延安东路300号"},{"poiid":"B2094655D26CAAFC419A","title":"如家酒店(外滩中心店)","lon":"121.48662","lat":"31.23375","category":"216","category_name":"经济型连锁酒店","address":"上海市黄浦区江西中路135弄11号(泗泾路26弄内)"},{"poiid":"B2094654DA6FAAF8499E","title":"贡多拉意大利餐厅","lon":"121.48687","lat":"31.23147","category":"94","category_name":"西餐厅","address":"黄浦区河南中路16号(近延安东路)"},{"poiid":"B2094654DA6EA6FA4898","title":"汇通大厦","lon":"121.488","lat":"31.2328","category":"46","category_name":"楼宇","address":"金陵东路369号"},{"poiid":"B2094757D069AAFD449E","title":"九江路外滩","lon":"121.485418907","lat":"31.233909491","category":"500","category_name":"未知分类","address":"上海九江路四川中路"},{"poiid":"B2094751DA6DA1F4419D","title":"八佰伴","lon":"121.484531","lat":"31.231188","category":"500","category_name":"未知分类","address":null},{"poiid":"B2094654DB6BA4F9439A","title":"星腾大厦","lon":"121.48728","lat":"31.23068","category":"46","category_name":"楼宇","address":"长宁路1158号贝多芬广场618室"},{"poiid":"B2094654DA6EAAFF439D","title":"柳林大厦","lon":"121.487","lat":"31.2311","category":"46","category_name":"楼宇","address":"上海市闵行区莲花南路1500弄"},{"poiid":"B2094654DB6AA7FF469B","title":"帕戈意大利餐厅 Prego","lon":"121.48738275777","lat":"31.231410271031","category":"94","category_name":"西餐厅","address":"黄浦区河南中路88号威斯汀大饭店2楼(近广东路)"},{"poiid":"B209475CD36BA2FC489F","title":"Tock's","lon":"121.4859","lat":"31.2345","category":"94","category_name":"西餐厅","address":"河南中路221号(近福州路)"},{"poiid":"B2094750D36BA5FA409A","title":"超级密室X-ROOM","lon":"121.48442","lat":"31.23169","category":"196","category_name":"公园","address":"黄浦区中山南路1029号幸福码头6号楼2楼(近南浦大桥)"},{"poiid":"B2094655D26DAAFC4798","title":"宜兰贵斯酒店","lon":"121.48826","lat":"31.23394","category":"250","category_name":"公园户外","address":"黄浦区广东路138号(近河南中路)"},{"poiid":"B2094757D66EA4F94699","title":"一兆伟德城市会所","lon":"121.485223738","lat":"31.2317693329","category":"500","category_name":"未知分类","address":"黄浦区河南中路1号5楼(河南中路延安东路)"},{"poiid":"B2094757D06FABF5479B","title":"福井日本料理(广东路店)","lon":"121.48504","lat":"31.23219","category":"95","category_name":"日本料理","address":"黄浦区广东路339号中福世福汇酒店(山东中路口)"},{"poiid":"B2094655D26EA5F54193","title":"贝纳斯西餐厅","lon":"121.48475","lat":"31.23233","category":"268","category_name":"自助","address":"黄浦区广东路339号中福世福汇酒店31楼(山东中路口)"},{"poiid":"B2094757D068A0F84798","title":"上海市国家安全局","lon":"121.48662337","lat":"31.234723797","category":"252","category_name":"楼宇机构","address":"上海市黄浦区福州路185号"},{"poiid":"B2094757D068A0FB439B","title":"港乐港式茶餐厅","lon":"121.48488069","lat":"31.232128545","category":"72","category_name":"广东菜","address":"黄浦区广东路340号(近山东中路)"},{"poiid":"B2094757D06BA4FC479A","title":"仙芋奇圆","lon":"121.488421738","lat":"31.2310923185","category":"67","category_name":"甜品店","address":"黄浦区金陵东路68号工商联大厦裙楼1楼B-2铺(近江西南路)"},{"poiid":"B2094757D46EABFC4998","title":"旬鲜","lon":"121.48562","lat":"31.23411","category":"95","category_name":"日本料理","address":"黄浦区昭通路24号(河南中路昭通路)"},{"poiid":"B2094654DB65A5F4499A","title":"上海维拉斯酒店","lon":"121.48582","lat":"31.23286","category":"214","category_name":"四星级宾馆","address":"黄浦区广东路306号(近外滩)"},{"poiid":"B2094751D36CA5F84792","title":"南洋茶铺","lon":"121.48591","lat":"31.23287","category":"113","category_name":"冷饮店","address":"黄浦区广东路294号(近河南中路)"},{"poiid":"B2094757D66AA4FA449E","title":"乐阳春","lon":"121.484783054","lat":"31.233858793","category":"76","category_name":"上海菜","address":"黄浦区山东中路142号(近福州路)"},{"poiid":"B2094757D06AA0FE4493","title":"香喷喷好面馆","lon":"121.48482810903","lat":"31.232632885867","category":"68","category_name":"快餐厅","address":"黄浦区山东中路95号(近广东路)"},{"poiid":"B2094757D469A1FE489C","title":"台园圆圆香云吞 广东路店","lon":"121.48454750232","lat":"31.232625932109","category":"87","category_name":"特色／地方风味餐厅","address":"黄浦区广东路360号(近山东中路)"},{"poiid":"B2094750DB6DA5F5449B","title":"花子形象","lon":"121.486069","lat":"31.234283","category":"148","category_name":"美容美发店","address":"黄浦区云南中路246号(近福州路)"},{"poiid":"B2094654DA6FAAF84098","title":"外滩中心","lon":"121.494","lat":"31.238","category":"46","category_name":"楼宇","address":"上海黄浦区延安东路222号"},{"poiid":"B2094655D26AA0FD489C","title":"威斯汀大饭店","lon":"121.48682","lat":"31.23242","category":"213","category_name":"五星级宾馆","address":"上海市黄浦区河南中路88号(近广东路)"},{"poiid":"B2094757D06EAAFB419F","title":"仁济医院(西部)","lon":"121.48445382","lat":"31.233387977","category":"162","category_name":"医院","address":"黄浦区山东中路145号(近福州路)"},{"poiid":"B2094753D76FAAFA449C","title":"上海滩国泰旗舰店","lon":"121.466011","lat":"31.216125","category":"249","category_name":"购物服务","address":"淮海中路868号"},{"poiid":"B209475CD564A7F84292","title":"上海滩新天地店","lon":"121.47463","lat":"31.22164","category":"119","category_name":"商场","address":"\"太仓路181弄新天地北里15号\r\n\""},{"poiid":"B209475CD564A7F8439E","title":"上海滩中信泰富店","lon":"121.45602","lat":"31.22851","category":"119","category_name":"商场","address":"\"南京西路1168号中信泰富广场，店铺号221.\r\n\""},{"poiid":"B209475CD564A7F84392","title":"上海滩浦东香格里拉店","lon":"121.50058","lat":"31.23634","category":"119","category_name":"商场","address":"浦东富成路33号香格里拉酒店内大堂层"},{"poiid":"B2094757D06FA5F5429E","title":"自然博物馆","lon":"121.48692063","lat":"31.231605225","category":"182","category_name":"博物馆","address":"上海黄浦区延安东路260号"},{"poiid":"B2094654DA6EAAF84098","title":"兰生大厦","lon":"121.48613790537","lat":"31.231558720298","category":"46","category_name":"楼宇","address":"卢湾区淮海中路2-8号"},{"poiid":"B2094654DA6EAAF8449D","title":"金钟广场","lon":"121.486","lat":"31.2316","category":"46","category_name":"楼宇","address":"卢湾区淮海中路98号(近柳林路)"},{"poiid":"B2094757DA6FA1FC489E","title":"南京路","lon":"121.48612976074219","lat":"31.23181184772342","category":"248","category_name":"生活娱乐","address":"上海 上海市 上海市南京路"},{"poiid":"B2094757D06EAAFD489D","title":"一兆韦德(城市会所店)","lon":"121.48567","lat":"31.23132","category":"221","category_name":"健身中心","address":"黄浦区河南中路1号(近延安东路)"},{"poiid":"B2094757D068A1F94693","title":"中福世福汇大酒店","lon":"121.48475","lat":"31.23242","category":"217","category_name":"旅馆招待所","address":"黄浦区广东路339号(山东中路口)"},{"poiid":"B2094654DA6EA6FC4699","title":"旺角广场","lon":"121.48483","lat":"31.23069","category":"46","category_name":"楼宇","address":"上海市虹口区四川北路1318号"},{"poiid":"B2094757D06EAAFB499F","title":"星巴克(外滩中心店)","lon":"121.486469","lat":"31.231952","category":"260","category_name":"其他","address":"黄浦区延安东路222号1楼(近江西南路)"},{"poiid":"B2094654DB6AA0F5429E","title":"威斯汀舞台餐厅","lon":"121.48682","lat":"31.23242","category":"268","category_name":"自助","address":"黄浦区河南中路88号上海威斯汀大饭店1楼(近广东路)"},{"poiid":"B2094757D06FA6FF4498","title":"老北京前门烤鸭","lon":"121.4867704","lat":"31.2308891","category":"260","category_name":"其他","address":"黄浦区河南南路1号星腾大厦(延安东路口)"},{"poiid":"B2094757D069A3F44892","title":"上海市延安路隧道","lon":"121.484965738","lat":"31.2313593242","category":"500","category_name":"未知分类","address":"上海市延安路隧道"},{"poiid":"B2094757D06FA6FE4298","title":"海上阿叔(黄浦店)","lon":"121.48804","lat":"31.23132","category":"76","category_name":"上海菜","address":"黄浦区延安东路222号外滩中心B1楼(近江西中路)"},{"poiid":"B2094654DA6EA6FB429C","title":"恒积大厦","lon":"121.488","lat":"31.2316","category":"46","category_name":"楼宇","address":"行宫位于沈河北站一路41号"},{"poiid":"B2094757D068A3FD459D","title":"永银大厦","lon":"121.487","lat":"31.2303","category":"46","category_name":"楼宇","address":"卫清西路139_149号等"},{"poiid":"B2094757D06AA2FE4698","title":"地铁二号线静安寺站","lon":"121.48722173","lat":"31.231696331","category":"36","category_name":"地铁站","address":"上海静安区南京西路华山路口,轨道交通二号线静安寺站"},{"poiid":"B2094757D06FABFA469E","title":"中汇大厦","lon":"121.48686831","lat":"31.230220304","category":"46","category_name":"楼宇","address":"丰台学城海鹰路1号,3号"},{"poiid":"B2094655D26EA6FA429E","title":"威斯汀钻石宴会厅","lon":"121.48682","lat":"31.23242","category":"260","category_name":"其他","address":"黄浦区河南中路88号威斯汀大饭店3楼(近广东路)"},{"poiid":"B2094654DA6FABFA489F","title":"上海第二医科大学附属仁济医院","lon":"121.48449","lat":"31.23353","category":"162","category_name":"医院","address":"山东中路145"},{"poiid":"B2094757D06FAAFD419E","title":"黄浦区机关大楼","lon":"121.484796694","lat":"31.2309905459","category":"252","category_name":"楼宇机构","address":"上海延安东路300号"},{"poiid":"B2094655D26CAAFC419A","title":"如家酒店(外滩中心店)","lon":"121.48662","lat":"31.23375","category":"216","category_name":"经济型连锁酒店","address":"上海市黄浦区江西中路135弄11号(泗泾路26弄内)"},{"poiid":"B2094654DA6FAAF8499E","title":"贡多拉意大利餐厅","lon":"121.48687","lat":"31.23147","category":"94","category_name":"西餐厅","address":"黄浦区河南中路16号(近延安东路)"},{"poiid":"B2094654DA6EA6FA4898","title":"汇通大厦","lon":"121.488","lat":"31.2328","category":"46","category_name":"楼宇","address":"金陵东路369号"},{"poiid":"B2094757D069AAFD449E","title":"九江路外滩","lon":"121.485418907","lat":"31.233909491","category":"500","category_name":"未知分类","address":"上海九江路四川中路"},{"poiid":"B2094751DA6DA1F4419D","title":"八佰伴","lon":"121.484531","lat":"31.231188","category":"500","category_name":"未知分类","address":null},{"poiid":"B2094654DB6BA4F9439A","title":"星腾大厦","lon":"121.48728","lat":"31.23068","category":"46","category_name":"楼宇","address":"长宁路1158号贝多芬广场618室"},{"poiid":"B2094654DA6EAAFF439D","title":"柳林大厦","lon":"121.487","lat":"31.2311","category":"46","category_name":"楼宇","address":"上海市闵行区莲花南路1500弄"},{"poiid":"B2094654DB6AA7FF469B","title":"帕戈意大利餐厅 Prego","lon":"121.48738275777","lat":"31.231410271031","category":"94","category_name":"西餐厅","address":"黄浦区河南中路88号威斯汀大饭店2楼(近广东路)"},{"poiid":"B209475CD36BA2FC489F","title":"Tock's","lon":"121.4859","lat":"31.2345","category":"94","category_name":"西餐厅","address":"河南中路221号(近福州路)"},{"poiid":"B2094750D36BA5FA409A","title":"超级密室X-ROOM","lon":"121.48442","lat":"31.23169","category":"196","category_name":"公园","address":"黄浦区中山南路1029号幸福码头6号楼2楼(近南浦大桥)"},{"poiid":"B2094655D26DAAFC4798","title":"宜兰贵斯酒店","lon":"121.48826","lat":"31.23394","category":"250","category_name":"公园户外","address":"黄浦区广东路138号(近河南中路)"},{"poiid":"B2094757D66EA4F94699","title":"一兆伟德城市会所","lon":"121.485223738","lat":"31.2317693329","category":"500","category_name":"未知分类","address":"黄浦区河南中路1号5楼(河南中路延安东路)"},{"poiid":"B2094757D06FABF5479B","title":"福井日本料理(广东路店)","lon":"121.48504","lat":"31.23219","category":"95","category_name":"日本料理","address":"黄浦区广东路339号中福世福汇酒店(山东中路口)"},{"poiid":"B2094655D26EA5F54193","title":"贝纳斯西餐厅","lon":"121.48475","lat":"31.23233","category":"268","category_name":"自助","address":"黄浦区广东路339号中福世福汇酒店31楼(山东中路口)"},{"poiid":"B2094757D068A0F84798","title":"上海市国家安全局","lon":"121.48662337","lat":"31.234723797","category":"252","category_name":"楼宇机构","address":"上海市黄浦区福州路185号"},{"poiid":"B2094757D068A0FB439B","title":"港乐港式茶餐厅","lon":"121.48488069","lat":"31.232128545","category":"72","category_name":"广东菜","address":"黄浦区广东路340号(近山东中路)"},{"poiid":"B2094757D06BA4FC479A","title":"仙芋奇圆","lon":"121.488421738","lat":"31.2310923185","category":"67","category_name":"甜品店","address":"黄浦区金陵东路68号工商联大厦裙楼1楼B-2铺(近江西南路)"},{"poiid":"B2094757D46EABFC4998","title":"旬鲜","lon":"121.48562","lat":"31.23411","category":"95","category_name":"日本料理","address":"黄浦区昭通路24号(河南中路昭通路)"},{"poiid":"B2094654DB65A5F4499A","title":"上海维拉斯酒店","lon":"121.48582","lat":"31.23286","category":"214","category_name":"四星级宾馆","address":"黄浦区广东路306号(近外滩)"},{"poiid":"B2094751D36CA5F84792","title":"南洋茶铺","lon":"121.48591","lat":"31.23287","category":"113","category_name":"冷饮店","address":"黄浦区广东路294号(近河南中路)"},{"poiid":"B2094757D66AA4FA449E","title":"乐阳春","lon":"121.484783054","lat":"31.233858793","category":"76","category_name":"上海菜","address":"黄浦区山东中路142号(近福州路)"},{"poiid":"B2094757D06AA0FE4493","title":"香喷喷好面馆","lon":"121.48482810903","lat":"31.232632885867","category":"68","category_name":"快餐厅","address":"黄浦区山东中路95号(近广东路)"},{"poiid":"B2094757D469A1FE489C","title":"台园圆圆香云吞 广东路店","lon":"121.48454750232","lat":"31.232625932109","category":"87","category_name":"特色／地方风味餐厅","address":"黄浦区广东路360号(近山东中路)"},{"poiid":"B2094750DB6DA5F5449B","title":"花子形象","lon":"121.486069","lat":"31.234283","category":"148","category_name":"美容美发店","address":"黄浦区云南中路246号(近福州路)"},{"poiid":"B2094654DA6FAAF84098","title":"外滩中心","lon":"121.494","lat":"31.238","category":"46","category_name":"楼宇","address":"上海黄浦区延安东路222号"},{"poiid":"B2094655D26AA0FD489C","title":"威斯汀大饭店","lon":"121.48682","lat":"31.23242","category":"213","category_name":"五星级宾馆","address":"上海市黄浦区河南中路88号(近广东路)"},{"poiid":"B2094757D06EAAFB419F","title":"仁济医院(西部)","lon":"121.48445382","lat":"31.233387977","category":"162","category_name":"医院","address":"黄浦区山东中路145号(近福州路)"},{"poiid":"B2094753D76FAAFA449C","title":"上海滩国泰旗舰店","lon":"121.466011","lat":"31.216125","category":"249","category_name":"购物服务","address":"淮海中路868号"},{"poiid":"B209475CD564A7F84292","title":"上海滩新天地店","lon":"121.47463","lat":"31.22164","category":"119","category_name":"商场","address":"\"太仓路181弄新天地北里15号\r\n\""},{"poiid":"B209475CD564A7F8439E","title":"上海滩中信泰富店","lon":"121.45602","lat":"31.22851","category":"119","category_name":"商场","address":"\"南京西路1168号中信泰富广场，店铺号221.\r\n\""},{"poiid":"B209475CD564A7F84392","title":"上海滩浦东香格里拉店","lon":"121.50058","lat":"31.23634","category":"119","category_name":"商场","address":"浦东富成路33号香格里拉酒店内大堂层"},{"poiid":"B2094757D06FA5F5429E","title":"自然博物馆","lon":"121.48692063","lat":"31.231605225","category":"182","category_name":"博物馆","address":"上海黄浦区延安东路260号"},{"poiid":"B2094654DA6EAAF84098","title":"兰生大厦","lon":"121.48613790537","lat":"31.231558720298","category":"46","category_name":"楼宇","address":"卢湾区淮海中路2-8号"},{"poiid":"B2094654DA6EAAF8449D","title":"金钟广场","lon":"121.486","lat":"31.2316","category":"46","category_name":"楼宇","address":"卢湾区淮海中路98号(近柳林路)"},{"poiid":"B2094757DA6FA1FC489E","title":"南京路","lon":"121.48612976074219","lat":"31.23181184772342","category":"248","category_name":"生活娱乐","address":"上海 上海市 上海市南京路"},{"poiid":"B2094757D06EAAFD489D","title":"一兆韦德(城市会所店)","lon":"121.48567","lat":"31.23132","category":"221","category_name":"健身中心","address":"黄浦区河南中路1号(近延安东路)"},{"poiid":"B2094757D068A1F94693","title":"中福世福汇大酒店","lon":"121.48475","lat":"31.23242","category":"217","category_name":"旅馆招待所","address":"黄浦区广东路339号(山东中路口)"},{"poiid":"B2094654DA6EA6FC4699","title":"旺角广场","lon":"121.48483","lat":"31.23069","category":"46","category_name":"楼宇","address":"上海市虹口区四川北路1318号"},{"poiid":"B2094757D06EAAFB499F","title":"星巴克(外滩中心店)","lon":"121.486469","lat":"31.231952","category":"260","category_name":"其他","address":"黄浦区延安东路222号1楼(近江西南路)"},{"poiid":"B2094654DB6AA0F5429E","title":"威斯汀舞台餐厅","lon":"121.48682","lat":"31.23242","category":"268","category_name":"自助","address":"黄浦区河南中路88号上海威斯汀大饭店1楼(近广东路)"},{"poiid":"B2094757D06FA6FF4498","title":"老北京前门烤鸭","lon":"121.4867704","lat":"31.2308891","category":"260","category_name":"其他","address":"黄浦区河南南路1号星腾大厦(延安东路口)"},{"poiid":"B2094757D069A3F44892","title":"上海市延安路隧道","lon":"121.484965738","lat":"31.2313593242","category":"500","category_name":"未知分类","address":"上海市延安路隧道"},{"poiid":"B2094757D06FA6FE4298","title":"海上阿叔(黄浦店)","lon":"121.48804","lat":"31.23132","category":"76","category_name":"上海菜","address":"黄浦区延安东路222号外滩中心B1楼(近江西中路)"},{"poiid":"B2094654DA6EA6FB429C","title":"恒积大厦","lon":"121.488","lat":"31.2316","category":"46","category_name":"楼宇","address":"行宫位于沈河北站一路41号"},{"poiid":"B2094757D068A3FD459D","title":"永银大厦","lon":"121.487","lat":"31.2303","category":"46","category_name":"楼宇","address":"卫清西路139_149号等"},{"poiid":"B2094757D06AA2FE4698","title":"地铁二号线静安寺站","lon":"121.48722173","lat":"31.231696331","category":"36","category_name":"地铁站","address":"上海静安区南京西路华山路口,轨道交通二号线静安寺站"},{"poiid":"B2094757D06FABFA469E","title":"中汇大厦","lon":"121.48686831","lat":"31.230220304","category":"46","category_name":"楼宇","address":"丰台学城海鹰路1号,3号"},{"poiid":"B2094655D26EA6FA429E","title":"威斯汀钻石宴会厅","lon":"121.48682","lat":"31.23242","category":"260","category_name":"其他","address":"黄浦区河南中路88号威斯汀大饭店3楼(近广东路)"},{"poiid":"B2094654DA6FABFA489F","title":"上海第二医科大学附属仁济医院","lon":"121.48449","lat":"31.23353","category":"162","category_name":"医院","address":"山东中路145"},{"poiid":"B2094757D06FAAFD419E","title":"黄浦区机关大楼","lon":"121.484796694","lat":"31.2309905459","category":"252","category_name":"楼宇机构","address":"上海延安东路300号"},{"poiid":"B2094655D26CAAFC419A","title":"如家酒店(外滩中心店)","lon":"121.48662","lat":"31.23375","category":"216","category_name":"经济型连锁酒店","address":"上海市黄浦区江西中路135弄11号(泗泾路26弄内)"},{"poiid":"B2094654DA6FAAF8499E","title":"贡多拉意大利餐厅","lon":"121.48687","lat":"31.23147","category":"94","category_name":"西餐厅","address":"黄浦区河南中路16号(近延安东路)"},{"poiid":"B2094654DA6EA6FA4898","title":"汇通大厦","lon":"121.488","lat":"31.2328","category":"46","category_name":"楼宇","address":"金陵东路369号"},{"poiid":"B2094757D069AAFD449E","title":"九江路外滩","lon":"121.485418907","lat":"31.233909491","category":"500","category_name":"未知分类","address":"上海九江路四川中路"},{"poiid":"B2094751DA6DA1F4419D","title":"八佰伴","lon":"121.484531","lat":"31.231188","category":"500","category_name":"未知分类","address":null},{"poiid":"B2094654DB6BA4F9439A","title":"星腾大厦","lon":"121.48728","lat":"31.23068","category":"46","category_name":"楼宇","address":"长宁路1158号贝多芬广场618室"},{"poiid":"B2094654DA6EAAFF439D","title":"柳林大厦","lon":"121.487","lat":"31.2311","category":"46","category_name":"楼宇","address":"上海市闵行区莲花南路1500弄"},{"poiid":"B2094654DB6AA7FF469B","title":"帕戈意大利餐厅 Prego","lon":"121.48738275777","lat":"31.231410271031","category":"94","category_name":"西餐厅","address":"黄浦区河南中路88号威斯汀大饭店2楼(近广东路)"},{"poiid":"B209475CD36BA2FC489F","title":"Tock's","lon":"121.4859","lat":"31.2345","category":"94","category_name":"西餐厅","address":"河南中路221号(近福州路)"},{"poiid":"B2094750D36BA5FA409A","title":"超级密室X-ROOM","lon":"121.48442","lat":"31.23169","category":"196","category_name":"公园","address":"黄浦区中山南路1029号幸福码头6号楼2楼(近南浦大桥)"},{"poiid":"B2094655D26DAAFC4798","title":"宜兰贵斯酒店","lon":"121.48826","lat":"31.23394","category":"250","category_name":"公园户外","address":"黄浦区广东路138号(近河南中路)"},{"poiid":"B2094757D66EA4F94699","title":"一兆伟德城市会所","lon":"121.485223738","lat":"31.2317693329","category":"500","category_name":"未知分类","address":"黄浦区河南中路1号5楼(河南中路延安东路)"},{"poiid":"B2094757D06FABF5479B","title":"福井日本料理(广东路店)","lon":"121.48504","lat":"31.23219","category":"95","category_name":"日本料理","address":"黄浦区广东路339号中福世福汇酒店(山东中路口)"},{"poiid":"B2094655D26EA5F54193","title":"贝纳斯西餐厅","lon":"121.48475","lat":"31.23233","category":"268","category_name":"自助","address":"黄浦区广东路339号中福世福汇酒店31楼(山东中路口)"},{"poiid":"B2094757D068A0F84798","title":"上海市国家安全局","lon":"121.48662337","lat":"31.234723797","category":"252","category_name":"楼宇机构","address":"上海市黄浦区福州路185号"},{"poiid":"B2094757D068A0FB439B","title":"港乐港式茶餐厅","lon":"121.48488069","lat":"31.232128545","category":"72","category_name":"广东菜","address":"黄浦区广东路340号(近山东中路)"},{"poiid":"B2094757D06BA4FC479A","title":"仙芋奇圆","lon":"121.488421738","lat":"31.2310923185","category":"67","category_name":"甜品店","address":"黄浦区金陵东路68号工商联大厦裙楼1楼B-2铺(近江西南路)"},{"poiid":"B2094757D46EABFC4998","title":"旬鲜","lon":"121.48562","lat":"31.23411","category":"95","category_name":"日本料理","address":"黄浦区昭通路24号(河南中路昭通路)"},{"poiid":"B2094654DB65A5F4499A","title":"上海维拉斯酒店","lon":"121.48582","lat":"31.23286","category":"214","category_name":"四星级宾馆","address":"黄浦区广东路306号(近外滩)"},{"poiid":"B2094751D36CA5F84792","title":"南洋茶铺","lon":"121.48591","lat":"31.23287","category":"113","category_name":"冷饮店","address":"黄浦区广东路294号(近河南中路)"},{"poiid":"B2094757D66AA4FA449E","title":"乐阳春","lon":"121.484783054","lat":"31.233858793","category":"76","category_name":"上海菜","address":"黄浦区山东中路142号(近福州路)"},{"poiid":"B2094757D06AA0FE4493","title":"香喷喷好面馆","lon":"121.48482810903","lat":"31.232632885867","category":"68","category_name":"快餐厅","address":"黄浦区山东中路95号(近广东路)"},{"poiid":"B2094757D469A1FE489C","title":"台园圆圆香云吞 广东路店","lon":"121.48454750232","lat":"31.232625932109","category":"87","category_name":"特色／地方风味餐厅","address":"黄浦区广东路360号(近山东中路)"},{"poiid":"B2094750DB6DA5F5449B","title":"花子形象","lon":"121.486069","lat":"31.234283","category":"148","category_name":"美容美发店","address":"黄浦区云南中路246号(近福州路)"}]