[{"poiid":"B2094757D06FA4FE409D","title":"西门子上海中心","lon":"121.51378631","lat":"31.258300781","category":"46","category_name":"楼宇","address":"上海杨浦区荆州路331号"},{"poiid":"B2094757D06FA5FB429F","title":"上海烟草集团有限责任公司","lon":"121.51818084","lat":"31.262939453","category":"46","category_name":"楼宇","address":"上海杨浦区长阳路717号"},{"poiid":"B2094757D06FA2FD409E","title":"上海市市东中学","lon":"121.51550766","lat":"31.257074778","category":"55","category_name":"中学","address":"杨浦区荆州路42号(长阳路荆州路)"},{"poiid":"B2094752D36BAAF5409B","title":"星巴克(昆明路店)","lon":"121.5177","lat":"31.25944","category":"247","category_name":"餐饮美食","address":"虹口区昆明路518号安莉芳大厦1楼(近西门子)"},{"poiid":"B2094757D068A2FD4092","title":"中国烟草博物馆","lon":"121.51852787","lat":"31.261567231","category":"182","category_name":"博物馆","address":"杨浦区长阳路728号(近通北路)"},{"poiid":"B2094654DB6BA3F54099","title":"锦江之星(北外滩店)","lon":"121.51535","lat":"31.2605","category":"216","category_name":"经济型连锁酒店","address":"长阳路555号(近地铁4号线大连路站1号出口)"},{"poiid":"B2094757D069ABF4409F","title":"通北路夜市","lon":"121.51936","lat":"31.2599","category":"249","category_name":"购物服务","address":"杨浦区通北路(霍山路通北路)"},{"poiid":"B2094757D66FA2F9469F","title":"西门子总部","lon":"121.516492803","lat":"31.2571552451","category":"500","category_name":"未知分类","address":"上海大连路500号"},{"poiid":"B2094655D269ABFC449F","title":"市东中学羽毛球馆","lon":"121.51613","lat":"31.25695","category":"247","category_name":"餐饮美食","address":"杨浦区荆州路101号市东中学体育馆5楼(近霍山路)"},{"poiid":"B2094757D069A4FC449A","title":"爱心献血点(通北路)","lon":"121.5188711","lat":"31.261204229","category":"162","category_name":"医院","address":"上海杨浦区通北路540号2楼(近霍山路)"},{"poiid":"B2094753D66AA7F94999","title":"海老寿司","lon":"121.516647","lat":"31.258975","category":"247","category_name":"餐饮美食","address":"上海市 上海市昆明路555号宝地广场"},{"poiid":"B2094757D06FAAFE4492","title":"建爱大厦","lon":"121.515","lat":"31.259","category":"252","category_name":"楼宇机构","address":"铁西区铁西兴华街与南十中路交处(兴华南街48号)"},{"poiid":"B2094654D56EA5FC4692","title":"上海卷烟厂","lon":"121.51818","lat":"31.26294","category":"263","category_name":"公司","address":"长阳路733号"},{"poiid":"B2094655D26CA6F8499F","title":"毛轩湘菜馆长阳店","lon":"121.51572","lat":"31.26052","category":"77","category_name":"湖南菜","address":"杨浦区长阳路573号(近辽阳路)"},{"poiid":"B2094655D26EA2FD489F","title":"辽阳路51号5弄小区(东门)","lon":"121.5176","lat":"31.25859","category":"47","category_name":"住宅区","address":"辽阳路51号5弄"},{"poiid":"B2094655D26CA6F4429B","title":"辽阳路51号5弄小区","lon":"121.51746","lat":"31.25857","category":"47","category_name":"住宅区","address":"辽阳路51号5弄"},{"poiid":"B2094654D56EA6F4499C","title":"良友金伴(辽阳路)","lon":"121.51701","lat":"31.25945","category":"117","category_name":"便民商店/便利店","address":"辽阳路173"},{"poiid":"B2094655D265A6FA489A","title":"国歌广场","lon":"121.51455","lat":"31.25792","category":"202","category_name":"公园广场","address":""},{"poiid":"B2094654DB6BA3F5429E","title":"天主堂","lon":"121.52085","lat":"31.25795","category":"245","category_name":"教堂","address":"惠民路692号"},{"poiid":"B2094753D669A5FE4992","title":"斗牛士台湾牛肉面","lon":"121.516128","lat":"31.259315","category":"247","category_name":"餐饮美食","address":"上海市 昆明路555号宝地广场1楼"},{"poiid":"B2094655D26CA6F4429E","title":"回力公寓(北门)","lon":"121.5175","lat":"31.25813","category":"47","category_name":"住宅区","address":"霍山路542"},{"poiid":"B2094655D26EA7F8489A","title":"沪东工人文化宫分部办公楼","lon":"121.51916","lat":"31.26047","category":"46","category_name":"楼宇","address":"杨浦区通北路540号(近长阳路)"},{"poiid":"B2094654D56EA6F4499D","title":"辽海小区","lon":"121.51659","lat":"31.259352","category":"47","category_name":"住宅区","address":"上海辽阳路189弄"},{"poiid":"B2094655D26CA6F44299","title":"回力公寓","lon":"121.51735","lat":"31.25801","category":"47","category_name":"住宅区","address":"霍山路542"},{"poiid":"B2094757D464A6FA409A","title":"重庆鸡公煲 通北路店","lon":"121.520616054","lat":"31.257234793","category":"71","category_name":"四川菜","address":"杨浦区平凉路412号振鼎鸡对面(近通北路)"},{"poiid":"B2094655D26CA6F4429C","title":"霍山路530弄小区","lon":"121.51689","lat":"31.25817","category":"47","category_name":"住宅区","address":"霍山路530弄"},{"poiid":"B2094655D36CA5F8469C","title":"长阳路大连路","lon":"121.51408","lat":"31.2589","category":"38","category_name":"公交车站","address":""},{"poiid":"B2094655D26CA6F4429D","title":"霍山路530弄小区(北门)","lon":"121.51679","lat":"31.25836","category":"47","category_name":"住宅区","address":"霍山路530弄"},{"poiid":"B2094757D16AA7F5479A","title":"上海市总工会培训中心","lon":"121.519012","lat":"31.260865","category":"500","category_name":"未知分类","address":"上海吉林路2号"},{"poiid":"B2094654D56EA6F44292","title":"上海梅林正广和都市型工业园区","lon":"121.52056","lat":"31.25873","category":"45","category_name":"产业园区","address":"通北路400"},{"poiid":"B2094654D56EA5FC469F","title":"快客No.1132","lon":"121.51913","lat":"31.26037","category":"117","category_name":"便民商店/便利店","address":"通北路536临"},{"poiid":"B2094757D06AA1FC4693","title":"德国大陆汽车亚太总部","lon":"121.51864624","lat":"31.256095886","category":"500","category_name":"未知分类","address":"上海大连路538号"},{"poiid":"B2094757D66CA1F54599","title":"上海烟草集团有限责任公司中华会场","lon":"121.51595255","lat":"31.261613224","category":"46","category_name":"楼宇","address":"上海长阳路717号"},{"poiid":"B2094757D065A7FB469F","title":"上海市杨浦区天主教爱国会 和平之后圣母堂","lon":"121.5181706","lat":"31.256806937","category":"245","category_name":"教堂","address":"上海杨浦区惠民路692号(近益丰大药房)  和平堂"},{"poiid":"B2094750D26CA3F4459B","title":"四海游龙 荆州路店","lon":"121.5140967","lat":"31.2597726","category":"68","category_name":"快餐厅","address":"杨浦区荆州路280号荣广商务中心188幢166-177室(近长阳路)"},{"poiid":"B2094654D56EA6F44493","title":"嘉禄公寓","lon":"121.52032","lat":"31.259665","category":"47","category_name":"住宅区","address":"济宁路29弄"},{"poiid":"B2094655D26CA6FD4293","title":"景江公寓","lon":"121.51985","lat":"31.257236","category":"47","category_name":"住宅区","address":"上海市杨浦区通北路335弄"},{"poiid":"B2094654DB6BA3F4489F","title":"上海市市东中学初中部","lon":"121.51694","lat":"31.25698","category":"55","category_name":"中学","address":"荆州路100号"},{"poiid":"B2094655D36CA5F84699","title":"长阳路辽阳路","lon":"121.51687","lat":"31.26116","category":"38","category_name":"公交车站","address":"上海长阳路辽阳路公交站"},{"poiid":"B2094654D56EA6F5489C","title":"三九商务楼","lon":"121.52036","lat":"31.26152","category":"46","category_name":"楼宇","address":"昌平区回龙观镇国际信息产业基地高新二街"},{"poiid":"B2094655D26CA7F5479D","title":"惠民路527弄小区(南门)","lon":"121.51832","lat":"31.25698","category":"47","category_name":"住宅区","address":"惠民路527弄"},{"poiid":"B2094655D26DA4F84199","title":"惠民路527弄小区","lon":"121.51824","lat":"31.25707","category":"47","category_name":"住宅区","address":"惠民路527弄"},{"poiid":"B2094757D165A2F54598","title":"朝阳台球","lon":"121.518865103","lat":"31.2600364052","category":"171","category_name":"台球厅","address":"上海杨浦区霍山路735号"},{"poiid":"B2094757D06AA7F5449F","title":"小背篓健康主题酒店","lon":"121.51411","lat":"31.25979","category":"86","category_name":"火锅店","address":"上海杨浦区荆州路266号(近长阳路)  "},{"poiid":"B2094654D56EA5FA429E","title":"上海市东幼儿园","lon":"121.52029","lat":"31.25746","category":"57","category_name":"幼儿园","address":"杨浦区通北路350号(惠民路通北路)"},{"poiid":"B2094757D16BA5FF479C","title":"coco奶茶(平凉店)","lon":"121.519247003","lat":"31.2554528095","category":"113","category_name":"冷饮店","address":"上海通北路平凉路口"},{"poiid":"B2094655D26CA6FD439A","title":"惠民新苑(北门)","lon":"121.51928","lat":"31.25722","category":"47","category_name":"住宅区","address":"惠民路580弄"},{"poiid":"B2094655D26CA7F94593","title":"阅览室","lon":"121.5189","lat":"31.26072","category":"181","category_name":"图书馆","address":"通北路540号"},{"poiid":"B2094654D56EA6F44693","title":"辽阳菜市场(惠民路)","lon":"121.5203","lat":"31.25824","category":"117","category_name":"便民商店/便利店","address":"通北路370"},{"poiid":"B2094655D26FA7FD4092","title":"怀安坊(北门)","lon":"121.51902","lat":"31.25709","category":"47","category_name":"住宅区","address":"惠民路560弄"},{"poiid":"B2094757D06FA4FE409D","title":"西门子上海中心","lon":"121.51378631","lat":"31.258300781","category":"46","category_name":"楼宇","address":"上海杨浦区荆州路331号"},{"poiid":"B2094757D06FA5FB429F","title":"上海烟草集团有限责任公司","lon":"121.51818084","lat":"31.262939453","category":"46","category_name":"楼宇","address":"上海杨浦区长阳路717号"},{"poiid":"B2094757D06FA2FD409E","title":"上海市市东中学","lon":"121.51550766","lat":"31.257074778","category":"55","category_name":"中学","address":"杨浦区荆州路42号(长阳路荆州路)"},{"poiid":"B2094752D36BAAF5409B","title":"星巴克(昆明路店)","lon":"121.5177","lat":"31.25944","category":"247","category_name":"餐饮美食","address":"虹口区昆明路518号安莉芳大厦1楼(近西门子)"},{"poiid":"B2094757D068A2FD4092","title":"中国烟草博物馆","lon":"121.51852787","lat":"31.261567231","category":"182","category_name":"博物馆","address":"杨浦区长阳路728号(近通北路)"},{"poiid":"B2094654DB6BA3F54099","title":"锦江之星(北外滩店)","lon":"121.51535","lat":"31.2605","category":"216","category_name":"经济型连锁酒店","address":"长阳路555号(近地铁4号线大连路站1号出口)"},{"poiid":"B2094757D069ABF4409F","title":"通北路夜市","lon":"121.51936","lat":"31.2599","category":"249","category_name":"购物服务","address":"杨浦区通北路(霍山路通北路)"},{"poiid":"B2094757D66FA2F9469F","title":"西门子总部","lon":"121.516492803","lat":"31.2571552451","category":"500","category_name":"未知分类","address":"上海大连路500号"},{"poiid":"B2094655D269ABFC449F","title":"市东中学羽毛球馆","lon":"121.51613","lat":"31.25695","category":"247","category_name":"餐饮美食","address":"杨浦区荆州路101号市东中学体育馆5楼(近霍山路)"},{"poiid":"B2094757D069A4FC449A","title":"爱心献血点(通北路)","lon":"121.5188711","lat":"31.261204229","category":"162","category_name":"医院","address":"上海杨浦区通北路540号2楼(近霍山路)"},{"poiid":"B2094753D66AA7F94999","title":"海老寿司","lon":"121.516647","lat":"31.258975","category":"247","category_name":"餐饮美食","address":"上海市 上海市昆明路555号宝地广场"},{"poiid":"B2094757D06FAAFE4492","title":"建爱大厦","lon":"121.515","lat":"31.259","category":"252","category_name":"楼宇机构","address":"铁西区铁西兴华街与南十中路交处(兴华南街48号)"},{"poiid":"B2094654D56EA5FC4692","title":"上海卷烟厂","lon":"121.51818","lat":"31.26294","category":"263","category_name":"公司","address":"长阳路733号"},{"poiid":"B2094655D26CA6F8499F","title":"毛轩湘菜馆长阳店","lon":"121.51572","lat":"31.26052","category":"77","category_name":"湖南菜","address":"杨浦区长阳路573号(近辽阳路)"},{"poiid":"B2094655D26EA2FD489F","title":"辽阳路51号5弄小区(东门)","lon":"121.5176","lat":"31.25859","category":"47","category_name":"住宅区","address":"辽阳路51号5弄"},{"poiid":"B2094655D26CA6F4429B","title":"辽阳路51号5弄小区","lon":"121.51746","lat":"31.25857","category":"47","category_name":"住宅区","address":"辽阳路51号5弄"},{"poiid":"B2094654D56EA6F4499C","title":"良友金伴(辽阳路)","lon":"121.51701","lat":"31.25945","category":"117","category_name":"便民商店/便利店","address":"辽阳路173"},{"poiid":"B2094655D265A6FA489A","title":"国歌广场","lon":"121.51455","lat":"31.25792","category":"202","category_name":"公园广场","address":""},{"poiid":"B2094654DB6BA3F5429E","title":"天主堂","lon":"121.52085","lat":"31.25795","category":"245","category_name":"教堂","address":"惠民路692号"},{"poiid":"B2094753D669A5FE4992","title":"斗牛士台湾牛肉面","lon":"121.516128","lat":"31.259315","category":"247","category_name":"餐饮美食","address":"上海市 昆明路555号宝地广场1楼"},{"poiid":"B2094655D26CA6F4429E","title":"回力公寓(北门)","lon":"121.5175","lat":"31.25813","category":"47","category_name":"住宅区","address":"霍山路542"},{"poiid":"B2094655D26EA7F8489A","title":"沪东工人文化宫分部办公楼","lon":"121.51916","lat":"31.26047","category":"46","category_name":"楼宇","address":"杨浦区通北路540号(近长阳路)"},{"poiid":"B2094654D56EA6F4499D","title":"辽海小区","lon":"121.51659","lat":"31.259352","category":"47","category_name":"住宅区","address":"上海辽阳路189弄"},{"poiid":"B2094655D26CA6F44299","title":"回力公寓","lon":"121.51735","lat":"31.25801","category":"47","category_name":"住宅区","address":"霍山路542"},{"poiid":"B2094757D464A6FA409A","title":"重庆鸡公煲 通北路店","lon":"121.520616054","lat":"31.257234793","category":"71","category_name":"四川菜","address":"杨浦区平凉路412号振鼎鸡对面(近通北路)"},{"poiid":"B2094655D26CA6F4429C","title":"霍山路530弄小区","lon":"121.51689","lat":"31.25817","category":"47","category_name":"住宅区","address":"霍山路530弄"},{"poiid":"B2094655D36CA5F8469C","title":"长阳路大连路","lon":"121.51408","lat":"31.2589","category":"38","category_name":"公交车站","address":""},{"poiid":"B2094655D26CA6F4429D","title":"霍山路530弄小区(北门)","lon":"121.51679","lat":"31.25836","category":"47","category_name":"住宅区","address":"霍山路530弄"},{"poiid":"B2094757D16AA7F5479A","title":"上海市总工会培训中心","lon":"121.519012","lat":"31.260865","category":"500","category_name":"未知分类","address":"上海吉林路2号"},{"poiid":"B2094654D56EA6F44292","title":"上海梅林正广和都市型工业园区","lon":"121.52056","lat":"31.25873","category":"45","category_name":"产业园区","address":"通北路400"},{"poiid":"B2094654D56EA5FC469F","title":"快客No.1132","lon":"121.51913","lat":"31.26037","category":"117","category_name":"便民商店/便利店","address":"通北路536临"},{"poiid":"B2094757D06AA1FC4693","title":"德国大陆汽车亚太总部","lon":"121.51864624","lat":"31.256095886","category":"500","category_name":"未知分类","address":"上海大连路538号"},{"poiid":"B2094757D66CA1F54599","title":"上海烟草集团有限责任公司中华会场","lon":"121.51595255","lat":"31.261613224","category":"46","category_name":"楼宇","address":"上海长阳路717号"},{"poiid":"B2094757D065A7FB469F","title":"上海市杨浦区天主教爱国会 和平之后圣母堂","lon":"121.5181706","lat":"31.256806937","category":"245","category_name":"教堂","address":"上海杨浦区惠民路692号(近益丰大药房)  和平堂"},{"poiid":"B2094750D26CA3F4459B","title":"四海游龙 荆州路店","lon":"121.5140967","lat":"31.2597726","category":"68","category_name":"快餐厅","address":"杨浦区荆州路280号荣广商务中心188幢166-177室(近长阳路)"},{"poiid":"B2094654D56EA6F44493","title":"嘉禄公寓","lon":"121.52032","lat":"31.259665","category":"47","category_name":"住宅区","address":"济宁路29弄"},{"poiid":"B2094655D26CA6FD4293","title":"景江公寓","lon":"121.51985","lat":"31.257236","category":"47","category_name":"住宅区","address":"上海市杨浦区通北路335弄"},{"poiid":"B2094654DB6BA3F4489F","title":"上海市市东中学初中部","lon":"121.51694","lat":"31.25698","category":"55","category_name":"中学","address":"荆州路100号"},{"poiid":"B2094655D36CA5F84699","title":"长阳路辽阳路","lon":"121.51687","lat":"31.26116","category":"38","category_name":"公交车站","address":"上海长阳路辽阳路公交站"},{"poiid":"B2094654D56EA6F5489C","title":"三九商务楼","lon":"121.52036","lat":"31.26152","category":"46","category_name":"楼宇","address":"昌平区回龙观镇国际信息产业基地高新二街"},{"poiid":"B2094655D26CA7F5479D","title":"惠民路527弄小区(南门)","lon":"121.51832","lat":"31.25698","category":"47","category_name":"住宅区","address":"惠民路527弄"},{"poiid":"B2094655D26DA4F84199","title":"惠民路527弄小区","lon":"121.51824","lat":"31.25707","category":"47","category_name":"住宅区","address":"惠民路527弄"},{"poiid":"B2094757D165A2F54598","title":"朝阳台球","lon":"121.518865103","lat":"31.2600364052","category":"171","category_name":"台球厅","address":"上海杨浦区霍山路735号"},{"poiid":"B2094757D06AA7F5449F","title":"小背篓健康主题酒店","lon":"121.51411","lat":"31.25979","category":"86","category_name":"火锅店","address":"上海杨浦区荆州路266号(近长阳路)  "},{"poiid":"B2094654D56EA5FA429E","title":"上海市东幼儿园","lon":"121.52029","lat":"31.25746","category":"57","category_name":"幼儿园","address":"杨浦区通北路350号(惠民路通北路)"},{"poiid":"B2094757D16BA5FF479C","title":"coco奶茶(平凉店)","lon":"121.519247003","lat":"31.2554528095","category":"113","category_name":"冷饮店","address":"上海通北路平凉路口"},{"poiid":"B2094655D26CA6FD439A","title":"惠民新苑(北门)","lon":"121.51928","lat":"31.25722","category":"47","category_name":"住宅区","address":"惠民路580弄"},{"poiid":"B2094655D26CA7F94593","title":"阅览室","lon":"121.5189","lat":"31.26072","category":"181","category_name":"图书馆","address":"通北路540号"},{"poiid":"B2094654D56EA6F44693","title":"辽阳菜市场(惠民路)","lon":"121.5203","lat":"31.25824","category":"117","category_name":"便民商店/便利店","address":"通北路370"},{"poiid":"B2094655D26FA7FD4092","title":"怀安坊(北门)","lon":"121.51902","lat":"31.25709","category":"47","category_name":"住宅区","address":"惠民路560弄"},{"poiid":"B2094757D06FA4FE409D","title":"西门子上海中心","lon":"121.51378631","lat":"31.258300781","category":"46","category_name":"楼宇","address":"上海杨浦区荆州路331号"},{"poiid":"B2094757D06FA5FB429F","title":"上海烟草集团有限责任公司","lon":"121.51818084","lat":"31.262939453","category":"46","category_name":"楼宇","address":"上海杨浦区长阳路717号"},{"poiid":"B2094757D06FA2FD409E","title":"上海市市东中学","lon":"121.51550766","lat":"31.257074778","category":"55","category_name":"中学","address":"杨浦区荆州路42号(长阳路荆州路)"},{"poiid":"B2094752D36BAAF5409B","title":"星巴克(昆明路店)","lon":"121.5177","lat":"31.25944","category":"247","category_name":"餐饮美食","address":"虹口区昆明路518号安莉芳大厦1楼(近西门子)"},{"poiid":"B2094757D068A2FD4092","title":"中国烟草博物馆","lon":"121.51852787","lat":"31.261567231","category":"182","category_name":"博物馆","address":"杨浦区长阳路728号(近通北路)"},{"poiid":"B2094654DB6BA3F54099","title":"锦江之星(北外滩店)","lon":"121.51535","lat":"31.2605","category":"216","category_name":"经济型连锁酒店","address":"长阳路555号(近地铁4号线大连路站1号出口)"},{"poiid":"B2094757D069ABF4409F","title":"通北路夜市","lon":"121.51936","lat":"31.2599","category":"249","category_name":"购物服务","address":"杨浦区通北路(霍山路通北路)"},{"poiid":"B2094757D66FA2F9469F","title":"西门子总部","lon":"121.516492803","lat":"31.2571552451","category":"500","category_name":"未知分类","address":"上海大连路500号"},{"poiid":"B2094655D269ABFC449F","title":"市东中学羽毛球馆","lon":"121.51613","lat":"31.25695","category":"247","category_name":"餐饮美食","address":"杨浦区荆州路101号市东中学体育馆5楼(近霍山路)"},{"poiid":"B2094757D069A4FC449A","title":"爱心献血点(通北路)","lon":"121.5188711","lat":"31.261204229","category":"162","category_name":"医院","address":"上海杨浦区通北路540号2楼(近霍山路)"},{"poiid":"B2094753D66AA7F94999","title":"海老寿司","lon":"121.516647","lat":"31.258975","category":"247","category_name":"餐饮美食","address":"上海市 上海市昆明路555号宝地广场"},{"poiid":"B2094757D06FAAFE4492","title":"建爱大厦","lon":"121.515","lat":"31.259","category":"252","category_name":"楼宇机构","address":"铁西区铁西兴华街与南十中路交处(兴华南街48号)"},{"poiid":"B2094654D56EA5FC4692","title":"上海卷烟厂","lon":"121.51818","lat":"31.26294","category":"263","category_name":"公司","address":"长阳路733号"},{"poiid":"B2094655D26CA6F8499F","title":"毛轩湘菜馆长阳店","lon":"121.51572","lat":"31.26052","category":"77","category_name":"湖南菜","address":"杨浦区长阳路573号(近辽阳路)"},{"poiid":"B2094655D26EA2FD489F","title":"辽阳路51号5弄小区(东门)","lon":"121.5176","lat":"31.25859","category":"47","category_name":"住宅区","address":"辽阳路51号5弄"},{"poiid":"B2094655D26CA6F4429B","title":"辽阳路51号5弄小区","lon":"121.51746","lat":"31.25857","category":"47","category_name":"住宅区","address":"辽阳路51号5弄"},{"poiid":"B2094654D56EA6F4499C","title":"良友金伴(辽阳路)","lon":"121.51701","lat":"31.25945","category":"117","category_name":"便民商店/便利店","address":"辽阳路173"},{"poiid":"B2094655D265A6FA489A","title":"国歌广场","lon":"121.51455","lat":"31.25792","category":"202","category_name":"公园广场","address":""},{"poiid":"B2094654DB6BA3F5429E","title":"天主堂","lon":"121.52085","lat":"31.25795","category":"245","category_name":"教堂","address":"惠民路692号"},{"poiid":"B2094753D669A5FE4992","title":"斗牛士台湾牛肉面","lon":"121.516128","lat":"31.259315","category":"247","category_name":"餐饮美食","address":"上海市 昆明路555号宝地广场1楼"},{"poiid":"B2094655D26CA6F4429E","title":"回力公寓(北门)","lon":"121.5175","lat":"31.25813","category":"47","category_name":"住宅区","address":"霍山路542"},{"poiid":"B2094655D26EA7F8489A","title":"沪东工人文化宫分部办公楼","lon":"121.51916","lat":"31.26047","category":"46","category_name":"楼宇","address":"杨浦区通北路540号(近长阳路)"},{"poiid":"B2094654D56EA6F4499D","title":"辽海小区","lon":"121.51659","lat":"31.259352","category":"47","category_name":"住宅区","address":"上海辽阳路189弄"},{"poiid":"B2094655D26CA6F44299","title":"回力公寓","lon":"121.51735","lat":"31.25801","category":"47","category_name":"住宅区","address":"霍山路542"},{"poiid":"B2094757D464A6FA409A","title":"重庆鸡公煲 通北路店","lon":"121.520616054","lat":"31.257234793","category":"71","category_name":"四川菜","address":"杨浦区平凉路412号振鼎鸡对面(近通北路)"},{"poiid":"B2094655D26CA6F4429C","title":"霍山路530弄小区","lon":"121.51689","lat":"31.25817","category":"47","category_name":"住宅区","address":"霍山路530弄"},{"poiid":"B2094655D36CA5F8469C","title":"长阳路大连路","lon":"121.51408","lat":"31.2589","category":"38","category_name":"公交车站","address":""},{"poiid":"B2094655D26CA6F4429D","title":"霍山路530弄小区(北门)","lon":"121.51679","lat":"31.25836","category":"47","category_name":"住宅区","address":"霍山路530弄"},{"poiid":"B2094757D16AA7F5479A","title":"上海市总工会培训中心","lon":"121.519012","lat":"31.260865","category":"500","category_name":"未知分类","address":"上海吉林路2号"},{"poiid":"B2094654D56EA6F44292","title":"上海梅林正广和都市型工业园区","lon":"121.52056","lat":"31.25873","category":"45","category_name":"产业园区","address":"通北路400"},{"poiid":"B2094654D56EA5FC469F","title":"快客No.1132","lon":"121.51913","lat":"31.26037","category":"117","category_name":"便民商店/便利店","address":"通北路536临"},{"poiid":"B2094757D06AA1FC4693","title":"德国大陆汽车亚太总部","lon":"121.51864624","lat":"31.256095886","category":"500","category_name":"未知分类","address":"上海大连路538号"},{"poiid":"B2094757D66CA1F54599","title":"上海烟草集团有限责任公司中华会场","lon":"121.51595255","lat":"31.261613224","category":"46","category_name":"楼宇","address":"上海长阳路717号"},{"poiid":"B2094757D065A7FB469F","title":"上海市杨浦区天主教爱国会 和平之后圣母堂","lon":"121.5181706","lat":"31.256806937","category":"245","category_name":"教堂","address":"上海杨浦区惠民路692号(近益丰大药房)  和平堂"},{"poiid":"B2094750D26CA3F4459B","title":"四海游龙 荆州路店","lon":"121.5140967","lat":"31.2597726","category":"68","category_name":"快餐厅","address":"杨浦区荆州路280号荣广商务中心188幢166-177室(近长阳路)"},{"poiid":"B2094654D56EA6F44493","title":"嘉禄公寓","lon":"121.52032","lat":"31.259665","category":"47","category_name":"住宅区","address":"济宁路29弄"},{"poiid":"B2094655D26CA6FD4293","title":"景江公寓","lon":"121.51985","lat":"31.257236","category":"47","category_name":"住宅区","address":"上海市杨浦区通北路335弄"},{"poiid":"B2094654DB6BA3F4489F","title":"上海市市东中学初中部","lon":"121.51694","lat":"31.25698","category":"55","category_name":"中学","address":"荆州路100号"},{"poiid":"B2094655D36CA5F84699","title":"长阳路辽阳路","lon":"121.51687","lat":"31.26116","category":"38","category_name":"公交车站","address":"上海长阳路辽阳路公交站"},{"poiid":"B2094654D56EA6F5489C","title":"三九商务楼","lon":"121.52036","lat":"31.26152","category":"46","category_name":"楼宇","address":"昌平区回龙观镇国际信息产业基地高新二街"},{"poiid":"B2094655D26CA7F5479D","title":"惠民路527弄小区(南门)","lon":"121.51832","lat":"31.25698","category":"47","category_name":"住宅区","address":"惠民路527弄"},{"poiid":"B2094655D26DA4F84199","title":"惠民路527弄小区","lon":"121.51824","lat":"31.25707","category":"47","category_name":"住宅区","address":"惠民路527弄"},{"poiid":"B2094757D165A2F54598","title":"朝阳台球","lon":"121.518865103","lat":"31.2600364052","category":"171","category_name":"台球厅","address":"上海杨浦区霍山路735号"},{"poiid":"B2094757D06AA7F5449F","title":"小背篓健康主题酒店","lon":"121.51411","lat":"31.25979","category":"86","category_name":"火锅店","address":"上海杨浦区荆州路266号(近长阳路)  "},{"poiid":"B2094654D56EA5FA429E","title":"上海市东幼儿园","lon":"121.52029","lat":"31.25746","category":"57","category_name":"幼儿园","address":"杨浦区通北路350号(惠民路通北路)"},{"poiid":"B2094757D16BA5FF479C","title":"coco奶茶(平凉店)","lon":"121.519247003","lat":"31.2554528095","category":"113","category_name":"冷饮店","address":"上海通北路平凉路口"},{"poiid":"B2094655D26CA6FD439A","title":"惠民新苑(北门)","lon":"121.51928","lat":"31.25722","category":"47","category_name":"住宅区","address":"惠民路580弄"},{"poiid":"B2094655D26CA7F94593","title":"阅览室","lon":"121.5189","lat":"31.26072","category":"181","category_name":"图书馆","address":"通北路540号"},{"poiid":"B2094654D56EA6F44693","title":"辽阳菜市场(惠民路)","lon":"121.5203","lat":"31.25824","category":"117","category_name":"便民商店/便利店","address":"通北路370"},{"poiid":"B2094655D26FA7FD4092","title":"怀安坊(北门)","lon":"121.51902","lat":"31.25709","category":"47","category_name":"住宅区","address":"惠民路560弄"},{"poiid":"B2094757D06FA4FE409D","title":"西门子上海中心","lon":"121.51378631","lat":"31.258300781","category":"46","category_name":"楼宇","address":"上海杨浦区荆州路331号"},{"poiid":"B2094757D06FA5FB429F","title":"上海烟草集团有限责任公司","lon":"121.51818084","lat":"31.262939453","category":"46","category_name":"楼宇","address":"上海杨浦区长阳路717号"},{"poiid":"B2094757D06FA2FD409E","title":"上海市市东中学","lon":"121.51550766","lat":"31.257074778","category":"55","category_name":"中学","address":"杨浦区荆州路42号(长阳路荆州路)"},{"poiid":"B2094752D36BAAF5409B","title":"星巴克(昆明路店)","lon":"121.5177","lat":"31.25944","category":"247","category_name":"餐饮美食","address":"虹口区昆明路518号安莉芳大厦1楼(近西门子)"},{"poiid":"B2094757D068A2FD4092","title":"中国烟草博物馆","lon":"121.51852787","lat":"31.261567231","category":"182","category_name":"博物馆","address":"杨浦区长阳路728号(近通北路)"},{"poiid":"B2094654DB6BA3F54099","title":"锦江之星(北外滩店)","lon":"121.51535","lat":"31.2605","category":"216","category_name":"经济型连锁酒店","address":"长阳路555号(近地铁4号线大连路站1号出口)"},{"poiid":"B2094757D069ABF4409F","title":"通北路夜市","lon":"121.51936","lat":"31.2599","category":"249","category_name":"购物服务","address":"杨浦区通北路(霍山路通北路)"},{"poiid":"B2094757D66FA2F9469F","title":"西门子总部","lon":"121.516492803","lat":"31.2571552451","category":"500","category_name":"未知分类","address":"上海大连路500号"},{"poiid":"B2094655D269ABFC449F","title":"市东中学羽毛球馆","lon":"121.51613","lat":"31.25695","category":"247","category_name":"餐饮美食","address":"杨浦区荆州路101号市东中学体育馆5楼(近霍山路)"},{"poiid":"B2094757D069A4FC449A","title":"爱心献血点(通北路)","lon":"121.5188711","lat":"31.261204229","category":"162","category_name":"医院","address":"上海杨浦区通北路540号2楼(近霍山路)"},{"poiid":"B2094753D66AA7F94999","title":"海老寿司","lon":"121.516647","lat":"31.258975","category":"247","category_name":"餐饮美食","address":"上海市 上海市昆明路555号宝地广场"},{"poiid":"B2094757D06FAAFE4492","title":"建爱大厦","lon":"121.515","lat":"31.259","category":"252","category_name":"楼宇机构","address":"铁西区铁西兴华街与南十中路交处(兴华南街48号)"},{"poiid":"B2094654D56EA5FC4692","title":"上海卷烟厂","lon":"121.51818","lat":"31.26294","category":"263","category_name":"公司","address":"长阳路733号"},{"poiid":"B2094655D26CA6F8499F","title":"毛轩湘菜馆长阳店","lon":"121.51572","lat":"31.26052","category":"77","category_name":"湖南菜","address":"杨浦区长阳路573号(近辽阳路)"},{"poiid":"B2094655D26EA2FD489F","title":"辽阳路51号5弄小区(东门)","lon":"121.5176","lat":"31.25859","category":"47","category_name":"住宅区","address":"辽阳路51号5弄"},{"poiid":"B2094655D26CA6F4429B","title":"辽阳路51号5弄小区","lon":"121.51746","lat":"31.25857","category":"47","category_name":"住宅区","address":"辽阳路51号5弄"},{"poiid":"B2094654D56EA6F4499C","title":"良友金伴(辽阳路)","lon":"121.51701","lat":"31.25945","category":"117","category_name":"便民商店/便利店","address":"辽阳路173"},{"poiid":"B2094655D265A6FA489A","title":"国歌广场","lon":"121.51455","lat":"31.25792","category":"202","category_name":"公园广场","address":""},{"poiid":"B2094654DB6BA3F5429E","title":"天主堂","lon":"121.52085","lat":"31.25795","category":"245","category_name":"教堂","address":"惠民路692号"},{"poiid":"B2094753D669A5FE4992","title":"斗牛士台湾牛肉面","lon":"121.516128","lat":"31.259315","category":"247","category_name":"餐饮美食","address":"上海市 昆明路555号宝地广场1楼"},{"poiid":"B2094655D26CA6F4429E","title":"回力公寓(北门)","lon":"121.5175","lat":"31.25813","category":"47","category_name":"住宅区","address":"霍山路542"},{"poiid":"B2094655D26EA7F8489A","title":"沪东工人文化宫分部办公楼","lon":"121.51916","lat":"31.26047","category":"46","category_name":"楼宇","address":"杨浦区通北路540号(近长阳路)"},{"poiid":"B2094654D56EA6F4499D","title":"辽海小区","lon":"121.51659","lat":"31.259352","category":"47","category_name":"住宅区","address":"上海辽阳路189弄"},{"poiid":"B2094655D26CA6F44299","title":"回力公寓","lon":"121.51735","lat":"31.25801","category":"47","category_name":"住宅区","address":"霍山路542"},{"poiid":"B2094757D464A6FA409A","title":"重庆鸡公煲 通北路店","lon":"121.520616054","lat":"31.257234793","category":"71","category_name":"四川菜","address":"杨浦区平凉路412号振鼎鸡对面(近通北路)"},{"poiid":"B2094655D26CA6F4429C","title":"霍山路530弄小区","lon":"121.51689","lat":"31.25817","category":"47","category_name":"住宅区","address":"霍山路530弄"},{"poiid":"B2094655D36CA5F8469C","title":"长阳路大连路","lon":"121.51408","lat":"31.2589","category":"38","category_name":"公交车站","address":""},{"poiid":"B2094655D26CA6F4429D","title":"霍山路530弄小区(北门)","lon":"121.51679","lat":"31.25836","category":"47","category_name":"住宅区","address":"霍山路530弄"},{"poiid":"B2094757D16AA7F5479A","title":"上海市总工会培训中心","lon":"121.519012","lat":"31.260865","category":"500","category_name":"未知分类","address":"上海吉林路2号"},{"poiid":"B2094654D56EA6F44292","title":"上海梅林正广和都市型工业园区","lon":"121.52056","lat":"31.25873","category":"45","category_name":"产业园区","address":"通北路400"},{"poiid":"B2094654D56EA5FC469F","title":"快客No.1132","lon":"121.51913","lat":"31.26037","category":"117","category_name":"便民商店/便利店","address":"通北路536临"},{"poiid":"B2094757D06AA1FC4693","title":"德国大陆汽车亚太总部","lon":"121.51864624","lat":"31.256095886","category":"500","category_name":"未知分类","address":"上海大连路538号"},{"poiid":"B2094757D66CA1F54599","title":"上海烟草集团有限责任公司中华会场","lon":"121.51595255","lat":"31.261613224","category":"46","category_name":"楼宇","address":"上海长阳路717号"},{"poiid":"B2094757D065A7FB469F","title":"上海市杨浦区天主教爱国会 和平之后圣母堂","lon":"121.5181706","lat":"31.256806937","category":"245","category_name":"教堂","address":"上海杨浦区惠民路692号(近益丰大药房)  和平堂"},{"poiid":"B2094750D26CA3F4459B","title":"四海游龙 荆州路店","lon":"121.5140967","lat":"31.2597726","category":"68","category_name":"快餐厅","address":"杨浦区荆州路280号荣广商务中心188幢166-177室(近长阳路)"},{"poiid":"B2094654D56EA6F44493","title":"嘉禄公寓","lon":"121.52032","lat":"31.259665","category":"47","category_name":"住宅区","address":"济宁路29弄"},{"poiid":"B2094655D26CA6FD4293","title":"景江公寓","lon":"121.51985","lat":"31.257236","category":"47","category_name":"住宅区","address":"上海市杨浦区通北路335弄"},{"poiid":"B2094654DB6BA3F4489F","title":"上海市市东中学初中部","lon":"121.51694","lat":"31.25698","category":"55","category_name":"中学","address":"荆州路100号"},{"poiid":"B2094655D36CA5F84699","title":"长阳路辽阳路","lon":"121.51687","lat":"31.26116","category":"38","category_name":"公交车站","address":"上海长阳路辽阳路公交站"},{"poiid":"B2094654D56EA6F5489C","title":"三九商务楼","lon":"121.52036","lat":"31.26152","category":"46","category_name":"楼宇","address":"昌平区回龙观镇国际信息产业基地高新二街"},{"poiid":"B2094655D26CA7F5479D","title":"惠民路527弄小区(南门)","lon":"121.51832","lat":"31.25698","category":"47","category_name":"住宅区","address":"惠民路527弄"},{"poiid":"B2094655D26DA4F84199","title":"惠民路527弄小区","lon":"121.51824","lat":"31.25707","category":"47","category_name":"住宅区","address":"惠民路527弄"},{"poiid":"B2094757D165A2F54598","title":"朝阳台球","lon":"121.518865103","lat":"31.2600364052","category":"171","category_name":"台球厅","address":"上海杨浦区霍山路735号"},{"poiid":"B2094757D06AA7F5449F","title":"小背篓健康主题酒店","lon":"121.51411","lat":"31.25979","category":"86","category_name":"火锅店","address":"上海杨浦区荆州路266号(近长阳路)  "},{"poiid":"B2094654D56EA5FA429E","title":"上海市东幼儿园","lon":"121.52029","lat":"31.25746","category":"57","category_name":"幼儿园","address":"杨浦区通北路350号(惠民路通北路)"},{"poiid":"B2094757D16BA5FF479C","title":"coco奶茶(平凉店)","lon":"121.519247003","lat":"31.2554528095","category":"113","category_name":"冷饮店","address":"上海通北路平凉路口"},{"poiid":"B2094655D26CA6FD439A","title":"惠民新苑(北门)","lon":"121.51928","lat":"31.25722","category":"47","category_name":"住宅区","address":"惠民路580弄"},{"poiid":"B2094655D26CA7F94593","title":"阅览室","lon":"121.5189","lat":"31.26072","category":"181","category_name":"图书馆","address":"通北路540号"},{"poiid":"B2094654D56EA6F44693","title":"辽阳菜市场(惠民路)","lon":"121.5203","lat":"31.25824","category":"117","category_name":"便民商店/便利店","address":"通北路370"},{"poiid":"B2094655D26FA7FD4092","title":"怀安坊(北门)","lon":"121.51902","lat":"31.25709","category":"47","category_name":"住宅区","address":"惠民路560弄"}]