[{"poiid":"B2094655D36DA1F4449A","title":"下沙","lon":"121.58926","lat":"31.05154","category":"38","category_name":"公交车站","address":"上海浦东新区航头镇下沙(近下沙新街)"},{"poiid":"B2094757D664A3FA429E","title":"下沙德持烧卖店","lon":"121.58947","lat":"31.05064","category":"68","category_name":"快餐厅","address":"浦东新区下沙镇沪南公路5263号(沪南公路下沙新街)"},{"poiid":"B2094757D66AA5FD4992","title":"韶梦酒店 航头店","lon":"121.5972982","lat":"31.0340388","category":"76","category_name":"上海菜","address":"浦东新区沪南公路5455号汇力商务广场"},{"poiid":"B2094654DB6FA0F9429E","title":"航头镇下沙农副产品交易市场","lon":"121.5997","lat":"31.05023","category":"117","category_name":"便民商店/便利店","address":""},{"poiid":"B2094655D265A5FC4199","title":"锦江之星旅馆航头店","lon":"121.59139","lat":"31.04567","category":"216","category_name":"经济型连锁酒店","address":"浦东新区沪南公路5278号"},{"poiid":"B2094654DB6FA0FD489C","title":"国航大酒店","lon":"121.59471","lat":"31.04033","category":"76","category_name":"上海菜","address":"浦东新区南汇沪南公路5302号(沪南公路下沙新街)"},{"poiid":"B2094654DB6FA0F94298","title":"上海大华石化设备有限公司","lon":"121.597","lat":"31.05073","category":"263","category_name":"公司","address":""},{"poiid":"B2094750D76CA3F54093","title":"下沙老街烧卖","lon":"121.59","lat":"31.0539","category":"68","category_name":"快餐厅","address":"浦东新区下沙镇沪南公路5263号下沙德持烧卖店对面"},{"poiid":"B2094757D06AA7FF4693","title":"沪南路下沙西街(下沙)站","lon":"121.590812","lat":"31.051998","category":"38","category_name":"公交车站","address":"上海浦东新区沪南公路下沙街(川奉,沪南,龙大,浦卫,塘南,塘四线)"},{"poiid":"B2094654DB6FA0FF4193","title":"中国电信(下沙新街)","lon":"121.59298","lat":"31.05036","category":"151","category_name":"电讯营业厅","address":"下沙新街94号"},{"poiid":"B2094654DB69A6FE4399","title":"生茂养园","lon":"121.59311","lat":"31.04303","category":"47","category_name":"住宅区","address":"浦东新区沪南公路5288弄"},{"poiid":"B2094654DB6FA0F8499F","title":"航头镇社区卫生服务中心门诊部","lon":"121.59333","lat":"31.04479","category":"162","category_name":"医院","address":"南汇区沪南公路5395号"},{"poiid":"B2094655D26EA6FC449B","title":"爱法奥朗新庄园","lon":"121.59198844874","lat":"31.038737699221","category":"47","category_name":"住宅区","address":"航头沪南路5588号"},{"poiid":"B2094757D56CA1F54093","title":"古鹤生态农庄","lon":"121.591777054","lat":"31.038607793","category":"76","category_name":"上海菜","address":"浦东新区航头镇航头路长达村666号(近沪南路)"},{"poiid":"B2094654DB6FA0FD489E","title":"下沙学校","lon":"121.58946","lat":"31.04895","category":"55","category_name":"中学","address":"浦东新区南汇沪南公路5248号(下沙西街下沙新街)"},{"poiid":"B2094757D569A7FA489E","title":"南汇区下沙电信营业代理处","lon":"121.59298693","lat":"31.05035943","category":"138","category_name":"家电电子卖场","address":"航头镇下沙新街94号"},{"poiid":"B2094757D66EA0F4469E","title":"卫红酒家","lon":"121.590740246","lat":"31.0514183358","category":"247","category_name":"餐饮美食","address":"上海近郊南汇区下沙新街(近下沙饭店)  "},{"poiid":"B2094757D16EAAFE459B","title":"沉香苑","lon":"121.59418424","lat":"31.06713471","category":"500","category_name":"未知分类","address":"上海航瑞路389弄"},{"poiid":"B2094655D36CA7FA419D","title":"航头卫生中心","lon":"121.59275","lat":"31.04495","category":"38","category_name":"公交车站","address":""},{"poiid":"B2094654DB6FA0F84692","title":"鹤立新村","lon":"121.59195","lat":"31.05149","category":"47","category_name":"住宅区","address":""},{"poiid":"B2094655D36CA7FE479D","title":"沪南公路下沙","lon":"121.59022","lat":"31.04808","category":"38","category_name":"公交车站","address":""},{"poiid":"B2094655D36CA7FA429A","title":"航头农工商大卖场","lon":"121.59629","lat":"31.03662","category":"38","category_name":"公交车站","address":""},{"poiid":"B2094757D169A5F9439E","title":"沪南线航头卫生中心站","lon":"121.592896","lat":"31.044952","category":"500","category_name":"未知分类","address":"上海浦东新区航头镇沪南公路(近航三路)"},{"poiid":"B2094654DB69A6F9469D","title":"富康别墅","lon":"121.60274779916","lat":"31.037442308081","category":"47","category_name":"住宅区","address":"南汇区沪南路5888弄富田花园内"},{"poiid":"B2094655D36CA4FD419D","title":"白墙","lon":"121.58892","lat":"31.0546","category":"38","category_name":"公交车站","address":""},{"poiid":"B2094654DB6FA0F8499C","title":"华峰商场","lon":"121.58973","lat":"31.05047","category":"119","category_name":"商场","address":"下沙镇"},{"poiid":"B2094757D568A4FA439C","title":"金海马家居","lon":"121.59210449","lat":"31.04618435","category":"123","category_name":"家具建材市场","address":"中国上海市浦东新区沪南公路"},{"poiid":"B2094757D065A4FE499B","title":"下沙北街","lon":"121.591474246","lat":"31.0506033164","category":"500","category_name":"未知分类","address":"上海下沙老街"},{"poiid":"B2094655D264A4FF449B","title":"好又多(下沙店)","lon":"121.58828","lat":"31.05068","category":"118","category_name":"超级市场","address":"下沙镇"},{"poiid":"B2094757D168A7FC429F","title":"浦东新区下沙幼儿园","lon":"121.59105024","lat":"31.048977277","category":"500","category_name":"未知分类","address":"浦东新区南汇区下沙镇新街51弄2号"},{"poiid":"B2094655D36CA6F5479E","title":"大中窑","lon":"121.59504","lat":"31.04019","category":"38","category_name":"公交车站","address":""},{"poiid":"B2094654DB65A3FE499A","title":"鹤鸣新苑","lon":"121.58565","lat":"31.047745","category":"47","category_name":"住宅区","address":"航鹤路1700弄75支弄1-45号"},{"poiid":"B2094750D56AA2FB499A","title":"海洲桃花园","lon":"121.60027","lat":"31.035143","category":"47","category_name":"住宅区","address":"浦东沪南公路5469弄208号"},{"poiid":"B2094654DB64A0F84692","title":"上岛咖啡(鹤立东路店)","lon":"121.58681","lat":"31.05492","category":"65","category_name":"咖啡厅","address":"下沙镇"},{"poiid":"B2094757D568A0F4439F","title":"上海车市","lon":"121.589505","lat":"31.05720278","category":"158","category_name":"汽车销售","address":"航头镇沪南路4789弄"},{"poiid":"B2094757D568A7F5409A","title":"鹤鸣村社区文化活动服务中心","lon":"121.594037","lat":"31.04369873","category":"248","category_name":"生活娱乐","address":"中国上海市浦东新区沪南公路"},{"poiid":"B2094655D26FA3F94298","title":"金丝猴集团办公楼","lon":"121.58663","lat":"31.05491","category":"46","category_name":"楼宇","address":""},{"poiid":"B2094654DB65A4F9449F","title":"中国农业银行下沙支行","lon":"121.58895","lat":"31.0524","category":"150","category_name":"银行","address":"浦东新区航头镇沪南公路5192号"},{"poiid":"B2094757D568A0F5469C","title":"枫林雅苑","lon":"121.599908","lat":"31.036825","category":"47","category_name":"住宅区","address":"枫林雅苑位于浦东沪南公路5890号"},{"poiid":"B2094654DB6FA0F8469D","title":"春鹤新村","lon":"121.58738","lat":"31.051407","category":"47","category_name":"住宅区","address":"下沙镇路3号"},{"poiid":"B2094757D568A0FA439D","title":"欧德福生活购物广场","lon":"121.58898519","lat":"31.05220405","category":"249","category_name":"购物服务","address":"中国上海市浦东新区沪南公路"},{"poiid":"B2094654DB6FA0FD479F","title":"金丝猴大酒店","lon":"121.5834","lat":"31.0514","category":"81","category_name":"湖北菜","address":"浦东新区航鹤西路1688号"},{"poiid":"B2094655D26BA1FE409E","title":"农工商大卖场(招呼站)","lon":"121.59602","lat":"31.03765","category":"38","category_name":"公交车站","address":""},{"poiid":"B2094757D66CA0F8429A","title":"沪南线精微艺术馆站","lon":"121.590471","lat":"31.057739","category":"500","category_name":"未知分类","address":"上海沪南公路沈庄路"},{"poiid":"B2094654DB64A0F8499C","title":"鹤鸣新苑一村(下沙西街)","lon":"121.58523","lat":"31.05021","category":"47","category_name":"住宅区","address":"航鹤路1858弄75支弄1-48号"},{"poiid":"B2094757DA69A2F84099","title":"上海联诚北京现代","lon":"121.58901005392","lat":"31.05608137049","category":"639","category_name":"汽车交通类公司","address":"沪南公路5191号-5号"},{"poiid":"B2094757D568AAF4409D","title":"鹤鸣新村一期商业","lon":"121.5855939","lat":"31.05088389","category":"47","category_name":"住宅区","address":"航头镇航鹤路1858弄1号"},{"poiid":"B2094757D168A2F84493","title":"沪南线大中窑站","lon":"121.595476","lat":"31.038932","category":"500","category_name":"未知分类","address":"上海大中窑"},{"poiid":"B2094757D465A3F9479E","title":"鹤丰度假村","lon":"121.584841","lat":"31.0551","category":"87","category_name":"特色／地方风味餐厅","address":"上海南汇航头鹤立西路牌楼村490号"},{"poiid":"B2094757D66CA1F4439F","title":"瑞和新苑","lon":"121.58553224","lat":"31.049469289","category":"47","category_name":"住宅区","address":"上海市浦涛路江航路"},{"poiid":"B2094655D36DA1F4449A","title":"下沙","lon":"121.58926","lat":"31.05154","category":"38","category_name":"公交车站","address":"上海浦东新区航头镇下沙(近下沙新街)"},{"poiid":"B2094757D664A3FA429E","title":"下沙德持烧卖店","lon":"121.58947","lat":"31.05064","category":"68","category_name":"快餐厅","address":"浦东新区下沙镇沪南公路5263号(沪南公路下沙新街)"},{"poiid":"B2094757D66AA5FD4992","title":"韶梦酒店 航头店","lon":"121.5972982","lat":"31.0340388","category":"76","category_name":"上海菜","address":"浦东新区沪南公路5455号汇力商务广场"},{"poiid":"B2094654DB6FA0F9429E","title":"航头镇下沙农副产品交易市场","lon":"121.5997","lat":"31.05023","category":"117","category_name":"便民商店/便利店","address":""},{"poiid":"B2094655D265A5FC4199","title":"锦江之星旅馆航头店","lon":"121.59139","lat":"31.04567","category":"216","category_name":"经济型连锁酒店","address":"浦东新区沪南公路5278号"},{"poiid":"B2094654DB6FA0FD489C","title":"国航大酒店","lon":"121.59471","lat":"31.04033","category":"76","category_name":"上海菜","address":"浦东新区南汇沪南公路5302号(沪南公路下沙新街)"},{"poiid":"B2094654DB6FA0F94298","title":"上海大华石化设备有限公司","lon":"121.597","lat":"31.05073","category":"263","category_name":"公司","address":""},{"poiid":"B2094750D76CA3F54093","title":"下沙老街烧卖","lon":"121.59","lat":"31.0539","category":"68","category_name":"快餐厅","address":"浦东新区下沙镇沪南公路5263号下沙德持烧卖店对面"},{"poiid":"B2094757D06AA7FF4693","title":"沪南路下沙西街(下沙)站","lon":"121.590812","lat":"31.051998","category":"38","category_name":"公交车站","address":"上海浦东新区沪南公路下沙街(川奉,沪南,龙大,浦卫,塘南,塘四线)"},{"poiid":"B2094654DB6FA0FF4193","title":"中国电信(下沙新街)","lon":"121.59298","lat":"31.05036","category":"151","category_name":"电讯营业厅","address":"下沙新街94号"},{"poiid":"B2094654DB69A6FE4399","title":"生茂养园","lon":"121.59311","lat":"31.04303","category":"47","category_name":"住宅区","address":"浦东新区沪南公路5288弄"},{"poiid":"B2094654DB6FA0F8499F","title":"航头镇社区卫生服务中心门诊部","lon":"121.59333","lat":"31.04479","category":"162","category_name":"医院","address":"南汇区沪南公路5395号"},{"poiid":"B2094655D26EA6FC449B","title":"爱法奥朗新庄园","lon":"121.59198844874","lat":"31.038737699221","category":"47","category_name":"住宅区","address":"航头沪南路5588号"},{"poiid":"B2094757D56CA1F54093","title":"古鹤生态农庄","lon":"121.591777054","lat":"31.038607793","category":"76","category_name":"上海菜","address":"浦东新区航头镇航头路长达村666号(近沪南路)"},{"poiid":"B2094654DB6FA0FD489E","title":"下沙学校","lon":"121.58946","lat":"31.04895","category":"55","category_name":"中学","address":"浦东新区南汇沪南公路5248号(下沙西街下沙新街)"},{"poiid":"B2094757D569A7FA489E","title":"南汇区下沙电信营业代理处","lon":"121.59298693","lat":"31.05035943","category":"138","category_name":"家电电子卖场","address":"航头镇下沙新街94号"},{"poiid":"B2094757D66EA0F4469E","title":"卫红酒家","lon":"121.590740246","lat":"31.0514183358","category":"247","category_name":"餐饮美食","address":"上海近郊南汇区下沙新街(近下沙饭店)  "},{"poiid":"B2094757D16EAAFE459B","title":"沉香苑","lon":"121.59418424","lat":"31.06713471","category":"500","category_name":"未知分类","address":"上海航瑞路389弄"},{"poiid":"B2094655D36CA7FA419D","title":"航头卫生中心","lon":"121.59275","lat":"31.04495","category":"38","category_name":"公交车站","address":""},{"poiid":"B2094654DB6FA0F84692","title":"鹤立新村","lon":"121.59195","lat":"31.05149","category":"47","category_name":"住宅区","address":""},{"poiid":"B2094655D36CA7FE479D","title":"沪南公路下沙","lon":"121.59022","lat":"31.04808","category":"38","category_name":"公交车站","address":""},{"poiid":"B2094655D36CA7FA429A","title":"航头农工商大卖场","lon":"121.59629","lat":"31.03662","category":"38","category_name":"公交车站","address":""},{"poiid":"B2094757D169A5F9439E","title":"沪南线航头卫生中心站","lon":"121.592896","lat":"31.044952","category":"500","category_name":"未知分类","address":"上海浦东新区航头镇沪南公路(近航三路)"},{"poiid":"B2094654DB69A6F9469D","title":"富康别墅","lon":"121.60274779916","lat":"31.037442308081","category":"47","category_name":"住宅区","address":"南汇区沪南路5888弄富田花园内"},{"poiid":"B2094655D36CA4FD419D","title":"白墙","lon":"121.58892","lat":"31.0546","category":"38","category_name":"公交车站","address":""},{"poiid":"B2094654DB6FA0F8499C","title":"华峰商场","lon":"121.58973","lat":"31.05047","category":"119","category_name":"商场","address":"下沙镇"},{"poiid":"B2094757D568A4FA439C","title":"金海马家居","lon":"121.59210449","lat":"31.04618435","category":"123","category_name":"家具建材市场","address":"中国上海市浦东新区沪南公路"},{"poiid":"B2094757D065A4FE499B","title":"下沙北街","lon":"121.591474246","lat":"31.0506033164","category":"500","category_name":"未知分类","address":"上海下沙老街"},{"poiid":"B2094655D264A4FF449B","title":"好又多(下沙店)","lon":"121.58828","lat":"31.05068","category":"118","category_name":"超级市场","address":"下沙镇"},{"poiid":"B2094757D168A7FC429F","title":"浦东新区下沙幼儿园","lon":"121.59105024","lat":"31.048977277","category":"500","category_name":"未知分类","address":"浦东新区南汇区下沙镇新街51弄2号"},{"poiid":"B2094655D36CA6F5479E","title":"大中窑","lon":"121.59504","lat":"31.04019","category":"38","category_name":"公交车站","address":""},{"poiid":"B2094654DB65A3FE499A","title":"鹤鸣新苑","lon":"121.58565","lat":"31.047745","category":"47","category_name":"住宅区","address":"航鹤路1700弄75支弄1-45号"},{"poiid":"B2094750D56AA2FB499A","title":"海洲桃花园","lon":"121.60027","lat":"31.035143","category":"47","category_name":"住宅区","address":"浦东沪南公路5469弄208号"},{"poiid":"B2094654DB64A0F84692","title":"上岛咖啡(鹤立东路店)","lon":"121.58681","lat":"31.05492","category":"65","category_name":"咖啡厅","address":"下沙镇"},{"poiid":"B2094757D568A0F4439F","title":"上海车市","lon":"121.589505","lat":"31.05720278","category":"158","category_name":"汽车销售","address":"航头镇沪南路4789弄"},{"poiid":"B2094757D568A7F5409A","title":"鹤鸣村社区文化活动服务中心","lon":"121.594037","lat":"31.04369873","category":"248","category_name":"生活娱乐","address":"中国上海市浦东新区沪南公路"},{"poiid":"B2094655D26FA3F94298","title":"金丝猴集团办公楼","lon":"121.58663","lat":"31.05491","category":"46","category_name":"楼宇","address":""},{"poiid":"B2094654DB65A4F9449F","title":"中国农业银行下沙支行","lon":"121.58895","lat":"31.0524","category":"150","category_name":"银行","address":"浦东新区航头镇沪南公路5192号"},{"poiid":"B2094757D568A0F5469C","title":"枫林雅苑","lon":"121.599908","lat":"31.036825","category":"47","category_name":"住宅区","address":"枫林雅苑位于浦东沪南公路5890号"},{"poiid":"B2094654DB6FA0F8469D","title":"春鹤新村","lon":"121.58738","lat":"31.051407","category":"47","category_name":"住宅区","address":"下沙镇路3号"},{"poiid":"B2094757D568A0FA439D","title":"欧德福生活购物广场","lon":"121.58898519","lat":"31.05220405","category":"249","category_name":"购物服务","address":"中国上海市浦东新区沪南公路"},{"poiid":"B2094654DB6FA0FD479F","title":"金丝猴大酒店","lon":"121.5834","lat":"31.0514","category":"81","category_name":"湖北菜","address":"浦东新区航鹤西路1688号"},{"poiid":"B2094655D26BA1FE409E","title":"农工商大卖场(招呼站)","lon":"121.59602","lat":"31.03765","category":"38","category_name":"公交车站","address":""},{"poiid":"B2094757D66CA0F8429A","title":"沪南线精微艺术馆站","lon":"121.590471","lat":"31.057739","category":"500","category_name":"未知分类","address":"上海沪南公路沈庄路"},{"poiid":"B2094654DB64A0F8499C","title":"鹤鸣新苑一村(下沙西街)","lon":"121.58523","lat":"31.05021","category":"47","category_name":"住宅区","address":"航鹤路1858弄75支弄1-48号"},{"poiid":"B2094757DA69A2F84099","title":"上海联诚北京现代","lon":"121.58901005392","lat":"31.05608137049","category":"639","category_name":"汽车交通类公司","address":"沪南公路5191号-5号"},{"poiid":"B2094757D568AAF4409D","title":"鹤鸣新村一期商业","lon":"121.5855939","lat":"31.05088389","category":"47","category_name":"住宅区","address":"航头镇航鹤路1858弄1号"},{"poiid":"B2094757D168A2F84493","title":"沪南线大中窑站","lon":"121.595476","lat":"31.038932","category":"500","category_name":"未知分类","address":"上海大中窑"},{"poiid":"B2094757D465A3F9479E","title":"鹤丰度假村","lon":"121.584841","lat":"31.0551","category":"87","category_name":"特色／地方风味餐厅","address":"上海南汇航头鹤立西路牌楼村490号"},{"poiid":"B2094757D66CA1F4439F","title":"瑞和新苑","lon":"121.58553224","lat":"31.049469289","category":"47","category_name":"住宅区","address":"上海市浦涛路江航路"}]