[{"poiid":"B2094757D064A0FB4398","title":"菜花节","lon":"121.393746764","lat":"30.8864066128","category":"500","category_name":"未知分类","address":"上海奉贤区庄行镇"},{"poiid":"B2094757D06BAAFD429D","title":"李记羊肉馆","lon":"121.39691426","lat":"30.884214066","category":"247","category_name":"餐饮美食","address":"上海南庄路庄良路路口"},{"poiid":"B2094757D06BA3FB459A","title":"丰瑞农庄","lon":"121.419613","lat":"30.896939","category":"260","category_name":"其他","address":"近郊奉贤区浦卫公路5166号丰瑞农庄内(G1501高速公路进出口对面)"},{"poiid":"B2094655D265AAF5429B","title":"绿地梨缘","lon":"121.40596","lat":"30.88221","category":"257","category_name":"中餐厅","address":"近郊奉贤区庄行镇潘垫村庄良路1081号(近A30)"},{"poiid":"B2094757D16DA0F44998","title":"上海庄行伏羊节","lon":"121.39808276","lat":"30.884209566","category":"500","category_name":"未知分类","address":"上海市奉贤区庄行镇庄良公路"},{"poiid":"B2094654DB68A0FA4992","title":"上海奉贤金冠蜜梨种植园","lon":"121.4047","lat":"30.88206","category":"250","category_name":"公园户外","address":""},{"poiid":"B2094655D26BA1FD479E","title":"潘垫村","lon":"121.39803","lat":"30.88597","category":"38","category_name":"公交车站","address":""},{"poiid":"B2094757D16EA6FB4698","title":"世外梨源","lon":"121.39742","lat":"30.88447","category":"500","category_name":"未知分类","address":"近郊奉贤庄行潘南村714号(近陈行路)"},{"poiid":"B2094757D66CA5FF459F","title":"贤庄农家","lon":"121.39725976","lat":"30.881615511","category":"247","category_name":"餐饮美食","address":"上海市奉贤区潘陈路"},{"poiid":"B2094654DB68A0FA4198","title":"皖寿奉学校","lon":"121.3982","lat":"30.88229","category":"55","category_name":"中学","address":"庄良路1051"},{"poiid":"B2094757D66AA7FE4193","title":"蒙古大草原美食娱乐中心","lon":"121.415996","lat":"30.888179","category":"260","category_name":"其他","address":"近郊奉贤区南庄公路698号(近A30浦卫公路出口)"},{"poiid":"B2094654DB64A7FE4792","title":"庄行服务区","lon":"121.3971","lat":"30.88844","category":"250","category_name":"公园户外","address":""},{"poiid":"B2094757D66DA7F8479A","title":"奉贤区社会保险事业管理中心","lon":"121.42087676","lat":"30.884470572","category":"500","category_name":"未知分类","address":"上海奉贤人民南路150号"}]