[{"poiid":"B2094654DA6AA1FF409F","title":"上海东方电视台","lon":"121.51921","lat":"31.19806","category":"59","category_name":"电视台","address":"上海浦东新区东方路2000号(东三里桥路)"},{"poiid":"B2094757D06FA7FE439B","title":"上海东方电视台演播厅","lon":"121.519225","lat":"31.198062","category":"46","category_name":"楼宇","address":"上海浦东新区东方路2000号"},{"poiid":"B2094757D06FA3FE4393","title":"星巴克(东樱花苑店)","lon":"121.518163","lat":"31.205601","category":"260","category_name":"其他","address":"浦东新区临沂北路200号东樱花苑(北园路临沂北路)"},{"poiid":"B2094757D06FA3FA439A","title":"沃尔玛(南浦大桥店)","lon":"121.51835161","lat":"31.203034445","category":"118","category_name":"超级市场","address":"浦东新区临沂北路252号(近浦建路)"},{"poiid":"B2094757D068A3FB4299","title":"苏先生海鲜渔庄 南浦店","lon":"121.5131","lat":"31.20325","category":"260","category_name":"其他","address":"浦东新区浦东南路2304号(近龙阳路)"},{"poiid":"B2094757D068A4FA439D","title":"皇品大酒楼(东方路店)","lon":"121.52044","lat":"31.19792","category":"76","category_name":"上海菜","address":"上海浦东新区东方路2121号(近东三里桥路)  "},{"poiid":"B2094750D165A1F94692","title":"陆家嘴正大广场","lon":"121.516113","lat":"31.201364","category":"627","category_name":"一般地点标志","address":null},{"poiid":"B2094757D068ABFD4298","title":"南浦广场公园","lon":"121.514124","lat":"31.204002","category":"196","category_name":"公园","address":"浦东新区浦东南路2277号(近龙阳路)"},{"poiid":"B2094654DB64A3F8489C","title":"龙阳花苑","lon":"121.51781","lat":"31.199564","category":"47","category_name":"住宅区","address":"上海浦东新区临沂路61弄"},{"poiid":"B2094757DB6CA5FB439C","title":"浦东图书馆","lon":"121.5184371046263","lat":"31.2022184607939","category":"500","category_name":"未知分类","address":"浦东新区锦绣路"},{"poiid":"B2094757D069AAF5429A","title":"光鸿苑","lon":"121.51543","lat":"31.199341","category":"252","category_name":"楼宇机构","address":"上海市浦东新区临沂路8弄"},{"poiid":"B2094654DA6AA1FE429C","title":"临沂八村(临沂路)","lon":"121.51647","lat":"31.19665","category":"47","category_name":"住宅区","address":"临沂路81弄"},{"poiid":"B2094654DA6AA1F8439E","title":"颐品居 临沂路店","lon":"121.51756394943","lat":"31.201298827493","category":"86","category_name":"火锅店","address":"浦东新区临沂路29号(龙阳路口)"},{"poiid":"B2094654DB64A3F84793","title":"两岸咖啡 东方路店","lon":"121.520175054","lat":"31.197171793","category":"260","category_name":"其他","address":"浦东新区东方路2111弄1号(近东三里桥路)"},{"poiid":"B2094750D66CA0F84799","title":"地铁站世纪大道","lon":"121.516357","lat":"31.200069","category":"500","category_name":"未知分类","address":null},{"poiid":"B2094757D06AA7FC4298","title":"小荧星艺校东方电视台教学点","lon":"121.519228","lat":"31.198066","category":"500","category_name":"未知分类","address":"上海东方路2000号"},{"poiid":"B2094655D26DA7FA4898","title":"临沂二邨","lon":"121.518","lat":"31.2003","category":"47","category_name":"住宅区","address":"南码头路451弄"},{"poiid":"B2094654DA6AA1FF409E","title":"东视演播剧场","lon":"121.51922","lat":"31.19806","category":"180","category_name":"剧场","address":"浦东新区东方路2000号"},{"poiid":"B2094757D068A7FF459D","title":"临沂一村","lon":"121.513924673","lat":"31.1973909041","category":"47","category_name":"住宅区","address":"上海临沂一村"},{"poiid":"B2094757D069AAF84693","title":"新招鲜","lon":"121.51636873","lat":"31.200389664","category":"500","category_name":"未知分类","address":"北京临沂路8弄14幢42号"},{"poiid":"B2094654DA6AA1FE4798","title":"东方明珠国际公寓","lon":"121.51992","lat":"31.200041","category":"47","category_name":"住宅区","address":"上海市浦东新区东方路1888弄"},{"poiid":"B2094654DB64A3F84792","title":"上岛咖啡 东方路店 UBC Coffee","lon":"121.51989644177","lat":"31.199508083103","category":"260","category_name":"其他","address":"浦东新区东方路1988号华南大厦1楼后栋(近龙阳路)"},{"poiid":"B2094655D265A2FB4299","title":"光鸿花园2-2期","lon":"121.51651","lat":"31.20042","category":"47","category_name":"住宅区","address":""},{"poiid":"B2094654DA69ABF84698","title":"望湘亭","lon":"121.51761","lat":"31.20236","category":"71","category_name":"四川菜","address":"浦东新区浦东南路2140号(近微山路)"},{"poiid":"B2094655D265A2FB429E","title":"国康健康免费体验中心临沂路咨询点","lon":"121.51611","lat":"31.19935","category":"162","category_name":"医院","address":"临沂路40"},{"poiid":"B2094757D06EABF54393","title":"布丁酒店(上海世博南浦大桥店)","lon":"121.513055","lat":"31.20313","category":"217","category_name":"旅馆招待所","address":"浦东新区浦东南路2304号(近龙阳路)"},{"poiid":"B2094654DA6AA1FD499A","title":"爱嘉苑","lon":"121.51413","lat":"31.200245","category":"47","category_name":"住宅区","address":"上海市长宁区延安西路1235弄"},{"poiid":"B2094654DA6AA1F84093","title":"挚腾琴业","lon":"121.51643","lat":"31.19994","category":"255","category_name":"专卖店","address":"临沂路40号"},{"poiid":"B2094757D064A2F9439C","title":"东视大厦","lon":"121.51905036","lat":"31.1970583042","category":"46","category_name":"楼宇","address":"上海东方路2000号"},{"poiid":"B2094655D26BA0FA499E","title":"阳光摩天城","lon":"121.5130386","lat":"31.2008171","category":"47","category_name":"住宅区","address":"阳光摩天城位于浦东浦东南路2321号(近东三里桥路)"},{"poiid":"B2094757D16EABFA409A","title":"联邦公馆","lon":"121.51601","lat":"31.201229","category":"500","category_name":"未知分类","address":"上海浦东新区临沂路8弄"},{"poiid":"B2094655D268A5F84392","title":"光鸿花苑","lon":"121.51709","lat":"31.20127","category":"47","category_name":"住宅区","address":"光鸿花苑位于浦东东三里桥路245号"},{"poiid":"B2094655D26BA5F9419D","title":"桃渊茗生态茶叶","lon":"121.51689","lat":"31.19996","category":"255","category_name":"专卖店","address":"临沂路35临"},{"poiid":"B2094757D16CA7FE4699","title":"剪刀石头布","lon":"121.521874738","lat":"31.1989746343","category":"500","category_name":"未知分类","address":"浦东新区东方路1833号(近龙阳路)"},{"poiid":"B2094655D26FA1FD429D","title":"东方明珠龙阳花园","lon":"121.51798","lat":"31.19857","category":"47","category_name":"住宅区","address":""},{"poiid":"B2094750D76CA3F8499B","title":"真功夫(临沂沃尔玛店)","lon":"121.518","lat":"31.2037","category":"68","category_name":"快餐厅","address":"浦东新区临沂北路252-262号沃尔玛(近龙阳路)"},{"poiid":"B2094757D16DA6FF479D","title":"东方名筑","lon":"121.51923","lat":"31.199537","category":"47","category_name":"住宅区","address":"上海市浦东新区东方路1968弄"},{"poiid":"B2094757D66DA0FE469C","title":"一伍一拾","lon":"121.51642873","lat":"31.200363663","category":"500","category_name":"未知分类","address":"上海市浦东新区96广场店"},{"poiid":"B2094654DA6AA1FE449F","title":"一级AV触觉咖啡馆","lon":"121.51428","lat":"31.19937","category":"65","category_name":"咖啡厅","address":"东三里桥路233"},{"poiid":"B2094757D165A0FC439C","title":"欧亚桌球","lon":"121.51686173","lat":"31.200140659","category":"248","category_name":"生活娱乐","address":"上海市浦东新区临沂路8弄40号"},{"poiid":"B2094654DA69A6F8429D","title":"上海市脑瘫儿童康复资源中心","lon":"121.51832","lat":"31.20246","category":"162","category_name":"医院","address":"浦东新区临沂北路265号(临沂北路龙阳路)"},{"poiid":"B2094654DA6AA1F8419C","title":"意大利专业皮具护理","lon":"121.51655","lat":"31.20046","category":"248","category_name":"生活娱乐","address":"临沂路26"},{"poiid":"B2094757D569A3FA4792","title":"Cache Cache(临沂路店)","lon":"121.5168647","lat":"31.20089611","category":"249","category_name":"购物服务","address":"临沂路14号华联吉买盛2层"},{"poiid":"B2094757D66EA0FA4799","title":"联擎汽车专业保养中心","lon":"121.516276738","lat":"31.1985316249","category":"159","category_name":"汽车维修","address":"上海市浦东新区临沂路67号"},{"poiid":"B2094654DA6AA5F4419F","title":"康乐花园","lon":"121.51904","lat":"31.20287","category":"47","category_name":"住宅区","address":"上海市浦东新区龙阳路195号"},{"poiid":"B2094654DA6AA1FD4198","title":"临沂七村","lon":"121.51505","lat":"31.195351","category":"47","category_name":"住宅区","address":"临沂路101弄"},{"poiid":"B2094654DA6AA1FD499B","title":"光明乳业南码头配送站","lon":"121.51371","lat":"31.19952","category":"117","category_name":"便民商店/便利店","address":"东三里桥路250-8"},{"poiid":"B2094655D26DA1FB409A","title":"精文大厦","lon":"121.52043","lat":"31.19919","category":"46","category_name":"楼宇","address":"上海市浦东新区东方路1928号"},{"poiid":"B2094655D36CA1F9489D","title":"临沂北路龙阳路","lon":"121.51795","lat":"31.20252","category":"38","category_name":"公交车站","address":""},{"poiid":"B2094757D16AABFA4892","title":"中国电信三林营业厅","lon":"121.515308","lat":"31.198623","category":"150","category_name":"银行","address":"上海东三里桥路249号"},{"poiid":"B2094654DA6AA1FF409F","title":"上海东方电视台","lon":"121.51921","lat":"31.19806","category":"59","category_name":"电视台","address":"上海浦东新区东方路2000号(东三里桥路)"},{"poiid":"B2094757D06FA7FE439B","title":"上海东方电视台演播厅","lon":"121.519225","lat":"31.198062","category":"46","category_name":"楼宇","address":"上海浦东新区东方路2000号"},{"poiid":"B2094757D06FA3FE4393","title":"星巴克(东樱花苑店)","lon":"121.518163","lat":"31.205601","category":"260","category_name":"其他","address":"浦东新区临沂北路200号东樱花苑(北园路临沂北路)"},{"poiid":"B2094757D06FA3FA439A","title":"沃尔玛(南浦大桥店)","lon":"121.51835161","lat":"31.203034445","category":"118","category_name":"超级市场","address":"浦东新区临沂北路252号(近浦建路)"},{"poiid":"B2094757D068A3FB4299","title":"苏先生海鲜渔庄 南浦店","lon":"121.5131","lat":"31.20325","category":"260","category_name":"其他","address":"浦东新区浦东南路2304号(近龙阳路)"},{"poiid":"B2094757D068A4FA439D","title":"皇品大酒楼(东方路店)","lon":"121.52044","lat":"31.19792","category":"76","category_name":"上海菜","address":"上海浦东新区东方路2121号(近东三里桥路)  "},{"poiid":"B2094750D165A1F94692","title":"陆家嘴正大广场","lon":"121.516113","lat":"31.201364","category":"627","category_name":"一般地点标志","address":null},{"poiid":"B2094757D068ABFD4298","title":"南浦广场公园","lon":"121.514124","lat":"31.204002","category":"196","category_name":"公园","address":"浦东新区浦东南路2277号(近龙阳路)"},{"poiid":"B2094654DB64A3F8489C","title":"龙阳花苑","lon":"121.51781","lat":"31.199564","category":"47","category_name":"住宅区","address":"上海浦东新区临沂路61弄"},{"poiid":"B2094757DB6CA5FB439C","title":"浦东图书馆","lon":"121.5184371046263","lat":"31.2022184607939","category":"500","category_name":"未知分类","address":"浦东新区锦绣路"},{"poiid":"B2094757D069AAF5429A","title":"光鸿苑","lon":"121.51543","lat":"31.199341","category":"252","category_name":"楼宇机构","address":"上海市浦东新区临沂路8弄"},{"poiid":"B2094654DA6AA1FE429C","title":"临沂八村(临沂路)","lon":"121.51647","lat":"31.19665","category":"47","category_name":"住宅区","address":"临沂路81弄"},{"poiid":"B2094654DA6AA1F8439E","title":"颐品居 临沂路店","lon":"121.51756394943","lat":"31.201298827493","category":"86","category_name":"火锅店","address":"浦东新区临沂路29号(龙阳路口)"},{"poiid":"B2094654DB64A3F84793","title":"两岸咖啡 东方路店","lon":"121.520175054","lat":"31.197171793","category":"260","category_name":"其他","address":"浦东新区东方路2111弄1号(近东三里桥路)"},{"poiid":"B2094750D66CA0F84799","title":"地铁站世纪大道","lon":"121.516357","lat":"31.200069","category":"500","category_name":"未知分类","address":null},{"poiid":"B2094757D06AA7FC4298","title":"小荧星艺校东方电视台教学点","lon":"121.519228","lat":"31.198066","category":"500","category_name":"未知分类","address":"上海东方路2000号"},{"poiid":"B2094655D26DA7FA4898","title":"临沂二邨","lon":"121.518","lat":"31.2003","category":"47","category_name":"住宅区","address":"南码头路451弄"},{"poiid":"B2094654DA6AA1FF409E","title":"东视演播剧场","lon":"121.51922","lat":"31.19806","category":"180","category_name":"剧场","address":"浦东新区东方路2000号"},{"poiid":"B2094757D068A7FF459D","title":"临沂一村","lon":"121.513924673","lat":"31.1973909041","category":"47","category_name":"住宅区","address":"上海临沂一村"},{"poiid":"B2094757D069AAF84693","title":"新招鲜","lon":"121.51636873","lat":"31.200389664","category":"500","category_name":"未知分类","address":"北京临沂路8弄14幢42号"},{"poiid":"B2094654DA6AA1FE4798","title":"东方明珠国际公寓","lon":"121.51992","lat":"31.200041","category":"47","category_name":"住宅区","address":"上海市浦东新区东方路1888弄"},{"poiid":"B2094654DB64A3F84792","title":"上岛咖啡 东方路店 UBC Coffee","lon":"121.51989644177","lat":"31.199508083103","category":"260","category_name":"其他","address":"浦东新区东方路1988号华南大厦1楼后栋(近龙阳路)"},{"poiid":"B2094655D265A2FB4299","title":"光鸿花园2-2期","lon":"121.51651","lat":"31.20042","category":"47","category_name":"住宅区","address":""},{"poiid":"B2094654DA69ABF84698","title":"望湘亭","lon":"121.51761","lat":"31.20236","category":"71","category_name":"四川菜","address":"浦东新区浦东南路2140号(近微山路)"},{"poiid":"B2094655D265A2FB429E","title":"国康健康免费体验中心临沂路咨询点","lon":"121.51611","lat":"31.19935","category":"162","category_name":"医院","address":"临沂路40"},{"poiid":"B2094757D06EABF54393","title":"布丁酒店(上海世博南浦大桥店)","lon":"121.513055","lat":"31.20313","category":"217","category_name":"旅馆招待所","address":"浦东新区浦东南路2304号(近龙阳路)"},{"poiid":"B2094654DA6AA1FD499A","title":"爱嘉苑","lon":"121.51413","lat":"31.200245","category":"47","category_name":"住宅区","address":"上海市长宁区延安西路1235弄"},{"poiid":"B2094654DA6AA1F84093","title":"挚腾琴业","lon":"121.51643","lat":"31.19994","category":"255","category_name":"专卖店","address":"临沂路40号"},{"poiid":"B2094757D064A2F9439C","title":"东视大厦","lon":"121.51905036","lat":"31.1970583042","category":"46","category_name":"楼宇","address":"上海东方路2000号"},{"poiid":"B2094655D26BA0FA499E","title":"阳光摩天城","lon":"121.5130386","lat":"31.2008171","category":"47","category_name":"住宅区","address":"阳光摩天城位于浦东浦东南路2321号(近东三里桥路)"},{"poiid":"B2094757D16EABFA409A","title":"联邦公馆","lon":"121.51601","lat":"31.201229","category":"500","category_name":"未知分类","address":"上海浦东新区临沂路8弄"},{"poiid":"B2094655D268A5F84392","title":"光鸿花苑","lon":"121.51709","lat":"31.20127","category":"47","category_name":"住宅区","address":"光鸿花苑位于浦东东三里桥路245号"},{"poiid":"B2094655D26BA5F9419D","title":"桃渊茗生态茶叶","lon":"121.51689","lat":"31.19996","category":"255","category_name":"专卖店","address":"临沂路35临"},{"poiid":"B2094757D16CA7FE4699","title":"剪刀石头布","lon":"121.521874738","lat":"31.1989746343","category":"500","category_name":"未知分类","address":"浦东新区东方路1833号(近龙阳路)"},{"poiid":"B2094655D26FA1FD429D","title":"东方明珠龙阳花园","lon":"121.51798","lat":"31.19857","category":"47","category_name":"住宅区","address":""},{"poiid":"B2094750D76CA3F8499B","title":"真功夫(临沂沃尔玛店)","lon":"121.518","lat":"31.2037","category":"68","category_name":"快餐厅","address":"浦东新区临沂北路252-262号沃尔玛(近龙阳路)"},{"poiid":"B2094757D16DA6FF479D","title":"东方名筑","lon":"121.51923","lat":"31.199537","category":"47","category_name":"住宅区","address":"上海市浦东新区东方路1968弄"},{"poiid":"B2094757D66DA0FE469C","title":"一伍一拾","lon":"121.51642873","lat":"31.200363663","category":"500","category_name":"未知分类","address":"上海市浦东新区96广场店"},{"poiid":"B2094654DA6AA1FE449F","title":"一级AV触觉咖啡馆","lon":"121.51428","lat":"31.19937","category":"65","category_name":"咖啡厅","address":"东三里桥路233"},{"poiid":"B2094757D165A0FC439C","title":"欧亚桌球","lon":"121.51686173","lat":"31.200140659","category":"248","category_name":"生活娱乐","address":"上海市浦东新区临沂路8弄40号"},{"poiid":"B2094654DA69A6F8429D","title":"上海市脑瘫儿童康复资源中心","lon":"121.51832","lat":"31.20246","category":"162","category_name":"医院","address":"浦东新区临沂北路265号(临沂北路龙阳路)"},{"poiid":"B2094654DA6AA1F8419C","title":"意大利专业皮具护理","lon":"121.51655","lat":"31.20046","category":"248","category_name":"生活娱乐","address":"临沂路26"},{"poiid":"B2094757D569A3FA4792","title":"Cache Cache(临沂路店)","lon":"121.5168647","lat":"31.20089611","category":"249","category_name":"购物服务","address":"临沂路14号华联吉买盛2层"},{"poiid":"B2094757D66EA0FA4799","title":"联擎汽车专业保养中心","lon":"121.516276738","lat":"31.1985316249","category":"159","category_name":"汽车维修","address":"上海市浦东新区临沂路67号"},{"poiid":"B2094654DA6AA5F4419F","title":"康乐花园","lon":"121.51904","lat":"31.20287","category":"47","category_name":"住宅区","address":"上海市浦东新区龙阳路195号"},{"poiid":"B2094654DA6AA1FD4198","title":"临沂七村","lon":"121.51505","lat":"31.195351","category":"47","category_name":"住宅区","address":"临沂路101弄"},{"poiid":"B2094654DA6AA1FD499B","title":"光明乳业南码头配送站","lon":"121.51371","lat":"31.19952","category":"117","category_name":"便民商店/便利店","address":"东三里桥路250-8"},{"poiid":"B2094655D26DA1FB409A","title":"精文大厦","lon":"121.52043","lat":"31.19919","category":"46","category_name":"楼宇","address":"上海市浦东新区东方路1928号"},{"poiid":"B2094655D36CA1F9489D","title":"临沂北路龙阳路","lon":"121.51795","lat":"31.20252","category":"38","category_name":"公交车站","address":""},{"poiid":"B2094757D16AABFA4892","title":"中国电信三林营业厅","lon":"121.515308","lat":"31.198623","category":"150","category_name":"银行","address":"上海东三里桥路249号"},{"poiid":"B2094654DA6AA1FF409F","title":"上海东方电视台","lon":"121.51921","lat":"31.19806","category":"59","category_name":"电视台","address":"上海浦东新区东方路2000号(东三里桥路)"},{"poiid":"B2094757D06FA7FE439B","title":"上海东方电视台演播厅","lon":"121.519225","lat":"31.198062","category":"46","category_name":"楼宇","address":"上海浦东新区东方路2000号"},{"poiid":"B2094757D06FA3FE4393","title":"星巴克(东樱花苑店)","lon":"121.518163","lat":"31.205601","category":"260","category_name":"其他","address":"浦东新区临沂北路200号东樱花苑(北园路临沂北路)"},{"poiid":"B2094757D06FA3FA439A","title":"沃尔玛(南浦大桥店)","lon":"121.51835161","lat":"31.203034445","category":"118","category_name":"超级市场","address":"浦东新区临沂北路252号(近浦建路)"},{"poiid":"B2094757D068A3FB4299","title":"苏先生海鲜渔庄 南浦店","lon":"121.5131","lat":"31.20325","category":"260","category_name":"其他","address":"浦东新区浦东南路2304号(近龙阳路)"},{"poiid":"B2094757D068A4FA439D","title":"皇品大酒楼(东方路店)","lon":"121.52044","lat":"31.19792","category":"76","category_name":"上海菜","address":"上海浦东新区东方路2121号(近东三里桥路)  "},{"poiid":"B2094750D165A1F94692","title":"陆家嘴正大广场","lon":"121.516113","lat":"31.201364","category":"627","category_name":"一般地点标志","address":null},{"poiid":"B2094757D068ABFD4298","title":"南浦广场公园","lon":"121.514124","lat":"31.204002","category":"196","category_name":"公园","address":"浦东新区浦东南路2277号(近龙阳路)"},{"poiid":"B2094654DB64A3F8489C","title":"龙阳花苑","lon":"121.51781","lat":"31.199564","category":"47","category_name":"住宅区","address":"上海浦东新区临沂路61弄"},{"poiid":"B2094757DB6CA5FB439C","title":"浦东图书馆","lon":"121.5184371046263","lat":"31.2022184607939","category":"500","category_name":"未知分类","address":"浦东新区锦绣路"},{"poiid":"B2094757D069AAF5429A","title":"光鸿苑","lon":"121.51543","lat":"31.199341","category":"252","category_name":"楼宇机构","address":"上海市浦东新区临沂路8弄"},{"poiid":"B2094654DA6AA1FE429C","title":"临沂八村(临沂路)","lon":"121.51647","lat":"31.19665","category":"47","category_name":"住宅区","address":"临沂路81弄"},{"poiid":"B2094654DA6AA1F8439E","title":"颐品居 临沂路店","lon":"121.51756394943","lat":"31.201298827493","category":"86","category_name":"火锅店","address":"浦东新区临沂路29号(龙阳路口)"},{"poiid":"B2094654DB64A3F84793","title":"两岸咖啡 东方路店","lon":"121.520175054","lat":"31.197171793","category":"260","category_name":"其他","address":"浦东新区东方路2111弄1号(近东三里桥路)"},{"poiid":"B2094750D66CA0F84799","title":"地铁站世纪大道","lon":"121.516357","lat":"31.200069","category":"500","category_name":"未知分类","address":null},{"poiid":"B2094757D06AA7FC4298","title":"小荧星艺校东方电视台教学点","lon":"121.519228","lat":"31.198066","category":"500","category_name":"未知分类","address":"上海东方路2000号"},{"poiid":"B2094655D26DA7FA4898","title":"临沂二邨","lon":"121.518","lat":"31.2003","category":"47","category_name":"住宅区","address":"南码头路451弄"},{"poiid":"B2094654DA6AA1FF409E","title":"东视演播剧场","lon":"121.51922","lat":"31.19806","category":"180","category_name":"剧场","address":"浦东新区东方路2000号"},{"poiid":"B2094757D068A7FF459D","title":"临沂一村","lon":"121.513924673","lat":"31.1973909041","category":"47","category_name":"住宅区","address":"上海临沂一村"},{"poiid":"B2094757D069AAF84693","title":"新招鲜","lon":"121.51636873","lat":"31.200389664","category":"500","category_name":"未知分类","address":"北京临沂路8弄14幢42号"},{"poiid":"B2094654DA6AA1FE4798","title":"东方明珠国际公寓","lon":"121.51992","lat":"31.200041","category":"47","category_name":"住宅区","address":"上海市浦东新区东方路1888弄"},{"poiid":"B2094654DB64A3F84792","title":"上岛咖啡 东方路店 UBC Coffee","lon":"121.51989644177","lat":"31.199508083103","category":"260","category_name":"其他","address":"浦东新区东方路1988号华南大厦1楼后栋(近龙阳路)"},{"poiid":"B2094655D265A2FB4299","title":"光鸿花园2-2期","lon":"121.51651","lat":"31.20042","category":"47","category_name":"住宅区","address":""},{"poiid":"B2094654DA69ABF84698","title":"望湘亭","lon":"121.51761","lat":"31.20236","category":"71","category_name":"四川菜","address":"浦东新区浦东南路2140号(近微山路)"},{"poiid":"B2094655D265A2FB429E","title":"国康健康免费体验中心临沂路咨询点","lon":"121.51611","lat":"31.19935","category":"162","category_name":"医院","address":"临沂路40"},{"poiid":"B2094757D06EABF54393","title":"布丁酒店(上海世博南浦大桥店)","lon":"121.513055","lat":"31.20313","category":"217","category_name":"旅馆招待所","address":"浦东新区浦东南路2304号(近龙阳路)"},{"poiid":"B2094654DA6AA1FD499A","title":"爱嘉苑","lon":"121.51413","lat":"31.200245","category":"47","category_name":"住宅区","address":"上海市长宁区延安西路1235弄"},{"poiid":"B2094654DA6AA1F84093","title":"挚腾琴业","lon":"121.51643","lat":"31.19994","category":"255","category_name":"专卖店","address":"临沂路40号"},{"poiid":"B2094757D064A2F9439C","title":"东视大厦","lon":"121.51905036","lat":"31.1970583042","category":"46","category_name":"楼宇","address":"上海东方路2000号"},{"poiid":"B2094655D26BA0FA499E","title":"阳光摩天城","lon":"121.5130386","lat":"31.2008171","category":"47","category_name":"住宅区","address":"阳光摩天城位于浦东浦东南路2321号(近东三里桥路)"},{"poiid":"B2094757D16EABFA409A","title":"联邦公馆","lon":"121.51601","lat":"31.201229","category":"500","category_name":"未知分类","address":"上海浦东新区临沂路8弄"},{"poiid":"B2094655D268A5F84392","title":"光鸿花苑","lon":"121.51709","lat":"31.20127","category":"47","category_name":"住宅区","address":"光鸿花苑位于浦东东三里桥路245号"},{"poiid":"B2094655D26BA5F9419D","title":"桃渊茗生态茶叶","lon":"121.51689","lat":"31.19996","category":"255","category_name":"专卖店","address":"临沂路35临"},{"poiid":"B2094757D16CA7FE4699","title":"剪刀石头布","lon":"121.521874738","lat":"31.1989746343","category":"500","category_name":"未知分类","address":"浦东新区东方路1833号(近龙阳路)"},{"poiid":"B2094655D26FA1FD429D","title":"东方明珠龙阳花园","lon":"121.51798","lat":"31.19857","category":"47","category_name":"住宅区","address":""},{"poiid":"B2094750D76CA3F8499B","title":"真功夫(临沂沃尔玛店)","lon":"121.518","lat":"31.2037","category":"68","category_name":"快餐厅","address":"浦东新区临沂北路252-262号沃尔玛(近龙阳路)"},{"poiid":"B2094757D16DA6FF479D","title":"东方名筑","lon":"121.51923","lat":"31.199537","category":"47","category_name":"住宅区","address":"上海市浦东新区东方路1968弄"},{"poiid":"B2094757D66DA0FE469C","title":"一伍一拾","lon":"121.51642873","lat":"31.200363663","category":"500","category_name":"未知分类","address":"上海市浦东新区96广场店"},{"poiid":"B2094654DA6AA1FE449F","title":"一级AV触觉咖啡馆","lon":"121.51428","lat":"31.19937","category":"65","category_name":"咖啡厅","address":"东三里桥路233"},{"poiid":"B2094757D165A0FC439C","title":"欧亚桌球","lon":"121.51686173","lat":"31.200140659","category":"248","category_name":"生活娱乐","address":"上海市浦东新区临沂路8弄40号"},{"poiid":"B2094654DA69A6F8429D","title":"上海市脑瘫儿童康复资源中心","lon":"121.51832","lat":"31.20246","category":"162","category_name":"医院","address":"浦东新区临沂北路265号(临沂北路龙阳路)"},{"poiid":"B2094654DA6AA1F8419C","title":"意大利专业皮具护理","lon":"121.51655","lat":"31.20046","category":"248","category_name":"生活娱乐","address":"临沂路26"},{"poiid":"B2094757D569A3FA4792","title":"Cache Cache(临沂路店)","lon":"121.5168647","lat":"31.20089611","category":"249","category_name":"购物服务","address":"临沂路14号华联吉买盛2层"},{"poiid":"B2094757D66EA0FA4799","title":"联擎汽车专业保养中心","lon":"121.516276738","lat":"31.1985316249","category":"159","category_name":"汽车维修","address":"上海市浦东新区临沂路67号"},{"poiid":"B2094654DA6AA5F4419F","title":"康乐花园","lon":"121.51904","lat":"31.20287","category":"47","category_name":"住宅区","address":"上海市浦东新区龙阳路195号"},{"poiid":"B2094654DA6AA1FD4198","title":"临沂七村","lon":"121.51505","lat":"31.195351","category":"47","category_name":"住宅区","address":"临沂路101弄"},{"poiid":"B2094654DA6AA1FD499B","title":"光明乳业南码头配送站","lon":"121.51371","lat":"31.19952","category":"117","category_name":"便民商店/便利店","address":"东三里桥路250-8"},{"poiid":"B2094655D26DA1FB409A","title":"精文大厦","lon":"121.52043","lat":"31.19919","category":"46","category_name":"楼宇","address":"上海市浦东新区东方路1928号"},{"poiid":"B2094655D36CA1F9489D","title":"临沂北路龙阳路","lon":"121.51795","lat":"31.20252","category":"38","category_name":"公交车站","address":""},{"poiid":"B2094757D16AABFA4892","title":"中国电信三林营业厅","lon":"121.515308","lat":"31.198623","category":"150","category_name":"银行","address":"上海东三里桥路249号"}]