[{"poiid":"B2094752D264A0FC479C","title":"巧克力开心乐园","lon":"121.475159","lat":"31.181213","category":"248","category_name":"生活娱乐","address":"博成路100号"},{"poiid":"B2094757D06FAAFE419F","title":"后滩公园","lon":"121.4758535","lat":"31.184998305","category":"196","category_name":"公园","address":"上海浦东新区世博会园B片区"},{"poiid":"B2094757D06FA1FF449C","title":"第一妇婴保健院(耀华路分院)","lon":"121.48462","lat":"31.17282","category":"162","category_name":"医院","address":"浦东新区耀华路391号(近长清路)"},{"poiid":"B2094757D06FA3F8479F","title":"世博会意大利馆","lon":"121.47576","lat":"31.1841","category":"260","category_name":"其他","address":"上海浦东新区世博大道上钢路口(原上海世博会C片区)"},{"poiid":"B2094757D06FA0FA499E","title":"世博会非洲联合馆","lon":"121.47401428","lat":"31.182336807","category":"260","category_name":"其他","address":"上海浦东新区博成路上钢路口(原上海世博会C片区)"},{"poiid":"B2094655D26EA7F84093","title":"卢浦大桥","lon":"121.48255","lat":"31.18603","category":"250","category_name":"公园户外","address":"卢湾区鲁班路909号"},{"poiid":"B2094757D06EAAF4449B","title":"长清路地铁站","lon":"121.48647265","lat":"31.174856049","category":"36","category_name":"地铁站","address":"上海轨道交通 七号线 轨交长清路站 7"},{"poiid":"B2094655D26CABFD4393","title":"新世纪花苑","lon":"121.48472","lat":"31.17509","category":"47","category_name":"住宅区","address":"上海浦东新区耀华路421弄"},{"poiid":"B2094757D06FA1F8499F","title":"富春小笼(耀华路店)","lon":"121.48261334","lat":"31.172451763","category":"68","category_name":"快餐厅","address":"浦东新区耀华路492号(近卢浦大桥)"},{"poiid":"B2094757D06FAAF4459D","title":"耀華路","lon":"121.48446655","lat":"31.174270629","category":"500","category_name":"未知分类","address":"上海耀華路"},{"poiid":"B2094757D06FA5F8499C","title":"宝钢大舞台","lon":"121.484091043","lat":"31.1868936206","category":"260","category_name":"其他","address":"上海浦东新区世博公园"},{"poiid":"B2094751D568A3FB4192","title":"上海歌城昌里店","lon":"121.487887","lat":"31.173912","category":"248","category_name":"生活娱乐","address":"昌里路337号浦东商场4层"},{"poiid":"B2094757D56DAAFD4998","title":"冰星飞扬（世博）羽毛球馆","lon":"121.47396326065063","lat":"31.180634737769793","category":"248","category_name":"生活娱乐","address":"浦东新区后滩路139号(近国展路)"},{"poiid":"B2094757D16BA1F5419E","title":"麦盛莉","lon":"121.48261173","lat":"31.172518071","category":"249","category_name":"购物服务","address":"上海市浦东新区通耀路"},{"poiid":"B2094654DB65A6FA4592","title":"新世纪花苑(南门)","lon":"121.48059","lat":"31.17204","category":"656","category_name":"大门","address":"耀华路579弄1-127号"},{"poiid":"B2094757D068A7F5469E","title":"复旦大学附属眼耳鼻喉科医院(浦东分院)","lon":"121.484897","lat":"31.17427","category":"162","category_name":"医院","address":"浦东新区耀华路391号(近长清路)"},{"poiid":"B2094757D065A5FE469F","title":"浦东机场T2航站楼停车场","lon":"121.4873315","lat":"31.174126905","category":"21","category_name":"飞机场","address":"上海浦东新区启航路900号T2航站楼"},{"poiid":"B2094757D068A1FF4598","title":"红宝石(昌里路店)","lon":"121.48631391","lat":"31.177169422","category":"67","category_name":"甜品店","address":"浦东新区昌里路347号(近长清路)"},{"poiid":"B2094757D06FA6F5459C","title":"打浦路隧道","lon":"121.48451","lat":"31.17358","category":"500","category_name":"未知分类","address":"上海长青路耀华路"},{"poiid":"B2094757D06FAAF4429D","title":"麦盛莉(耀华店)","lon":"121.4763831","lat":"31.176898854","category":"76","category_name":"上海菜","address":"浦东新区耀华路488号(西营路口)"},{"poiid":"B2094752D26EA5F8479E","title":"世博希腊馆","lon":"121.477208","lat":"31.185743","category":"500","category_name":"未知分类","address":null},{"poiid":"B2094752DB6AA0FB469A","title":"上海海之宝体育运动中心","lon":"121.4775055492","lat":"31.179249091782","category":"230","category_name":"足球场","address":"上海浦东新区国展路410号（近上钢路）"},{"poiid":"B2094752D06DA3F9459D","title":"飞行家主题园","lon":"121.475925","lat":"31.180498","category":"250","category_name":"公园户外","address":"上海市浦东新区国展路311号"},{"poiid":"B2094757D16FABF84098","title":"新世纪花苑三期","lon":"121.48117573","lat":"31.175086125","category":"47","category_name":"住宅区","address":"上海市杨浦区杭州路66弄"},{"poiid":"B2094752DA69A1F5449B","title":"博大汽车公园","lon":"121.472341","lat":"31.179505","category":"500","category_name":"未知分类","address":"上海市 国展路189号"},{"poiid":"B2094757D06FA4F54299","title":"世博园七号门","lon":"121.484425477","lat":"31.1802093305","category":"680","category_name":"楼宇机构","address":"上海世博园七号门长清北路出入口"},{"poiid":"B2094757D068A6FB459C","title":"世博会墨西哥馆","lon":"121.47791","lat":"31.17884","category":"260","category_name":"其他","address":"上海浦东新区国展路近上钢路(原上海世博会C片区)"},{"poiid":"B2094757D068A5F8489D","title":"上钢七村","lon":"121.48531","lat":"31.172562","category":"47","category_name":"住宅区","address":"长清路63弄"},{"poiid":"B2094757D069A3FE4292","title":"龙腾大道南滨江","lon":"121.47991373","lat":"31.180792247","category":"260","category_name":"其他","address":"上海市徐汇区龙腾大道"},{"poiid":"B2094753D768A2FF469F","title":"小辉哥火锅（乐城店）","lon":"121.47583","lat":"31.182259","category":"247","category_name":"餐饮美食","address":"上海市徐汇区中山南二路699号2栋304—305"},{"poiid":"B2094752D365A4FD4993","title":"2062新能源主题公园","lon":"121.480274","lat":"31.182386","category":"250","category_name":"公园户外","address":"世博园C片区"},{"poiid":"B2094753D46BAAFD4398","title":"海之宝足球场","lon":"121.478721","lat":"31.179347","category":"220","category_name":"运动场所","address":"上海市 国展路401号"},{"poiid":"B2094757D06BA0FA459C","title":"鼎味鲜苏州汤包馆(昌里店)","lon":"121.484429738","lat":"31.1770331673","category":"247","category_name":"餐饮美食","address":"上海市浦东新区昌里路(长青公园旁)"},{"poiid":"B2094757DB6FA5FE489B","title":"地铁9号线徐家汇站","lon":"121.4773750945231","lat":"31.18166830842563","category":"500","category_name":"未知分类","address":"徐家汇"},{"poiid":"B2094757D66BA3F54999","title":"伊诺咖啡 沙特馆店","lon":"121.486153","lat":"31.1839423","category":"260","category_name":"其他","address":"浦东新区博成路1221号沙特馆旁(近中国馆)"},{"poiid":"B2094751D26DABF8409A","title":"飞行家主题园","lon":"121.481018","lat":"31.177612","category":"250","category_name":"公园户外","address":"浦东新区国展路300号"},{"poiid":"B2094655D265A1FF4793","title":"丰收日","lon":"121.47794","lat":"31.18171","category":"257","category_name":"中餐厅","address":"上海世博园区"},{"poiid":"B2094750D365A3FB489B","title":"上海意大利中心","lon":"121.47582388308","lat":"31.183763362212","category":"646","category_name":"文化体育类公司","address":"浦东新区世博大道2095号(近塘子泾路)"},{"poiid":"B2094757D16FA3FD419E","title":"世博会8号门 后滩","lon":"121.483853","lat":"31.179195","category":"500","category_name":"未知分类","address":"上海世博大道近雪野二路"},{"poiid":"B2094757D069A5FD4493","title":"救恩堂","lon":"121.48392","lat":"31.17312","category":"245","category_name":"教堂","address":"浦东新区耀华路439号(近西营路)"},{"poiid":"B2094757D064A1F5449B","title":"东方体育中心P8观众停车场","lon":"121.48448861","lat":"31.177274622","category":"500","category_name":"未知分类","address":"上海耀体路耀龙路"},{"poiid":"B2094655D26BA0FA409C","title":"中心广场(意大利馆东)","lon":"121.47659","lat":"31.18368","category":"201","category_name":"城市广场","address":"上海世博园区"},{"poiid":"B2094757D06BA6FF419D","title":"上岛咖啡 耀华路店 UBC Coffee","lon":"121.483056","lat":"31.172774","category":"260","category_name":"其他","address":"浦东新区耀华路488号信建大厦3楼(近地铁7号线长清路站3号口)"},{"poiid":"B2094750DA6BA5FB439D","title":"地铁7号线","lon":"121.47982","lat":"31.179788","category":"627","category_name":"一般地点标志","address":null},{"poiid":"B2094655D26AA0F9469D","title":"地铁长清路站","lon":"121.48751","lat":"31.17543","category":"36","category_name":"地铁站","address":""},{"poiid":"B2094757D06AA5FD4698","title":"杨高南路浦三路","lon":"121.478394451","lat":"31.1781563378","category":"500","category_name":"未知分类","address":"上海杨高南路浦三路"},{"poiid":"B2094750D26DA6FC4498","title":"历城路夜排档","lon":"121.483647","lat":"31.183592","category":"247","category_name":"餐饮美食","address":"历城路昌里路"},{"poiid":"B2094753D668A2F8429E","title":"虹口龙之梦","lon":"121.481583","lat":"31.17323","category":"500","category_name":"未知分类","address":"上海市 虹口区"},{"poiid":"B2094655D36DA2F94593","title":"打浦路隧道","lon":"121.47834","lat":"31.18261","category":"250","category_name":"公园户外","address":""},{"poiid":"B2094757D065A7F4439F","title":"新世纪国际大酒店","lon":"121.48543518299","lat":"31.174531270398","category":"76","category_name":"上海菜","address":"浦东新区耀华路385号(西营路长清路间)"},{"poiid":"B2094752D264A0FC479C","title":"巧克力开心乐园","lon":"121.475159","lat":"31.181213","category":"248","category_name":"生活娱乐","address":"博成路100号"},{"poiid":"B2094757D06FAAFE419F","title":"后滩公园","lon":"121.4758535","lat":"31.184998305","category":"196","category_name":"公园","address":"上海浦东新区世博会园B片区"},{"poiid":"B2094757D06FA1FF449C","title":"第一妇婴保健院(耀华路分院)","lon":"121.48462","lat":"31.17282","category":"162","category_name":"医院","address":"浦东新区耀华路391号(近长清路)"},{"poiid":"B2094757D06FA3F8479F","title":"世博会意大利馆","lon":"121.47576","lat":"31.1841","category":"260","category_name":"其他","address":"上海浦东新区世博大道上钢路口(原上海世博会C片区)"},{"poiid":"B2094757D06FA0FA499E","title":"世博会非洲联合馆","lon":"121.47401428","lat":"31.182336807","category":"260","category_name":"其他","address":"上海浦东新区博成路上钢路口(原上海世博会C片区)"},{"poiid":"B2094655D26EA7F84093","title":"卢浦大桥","lon":"121.48255","lat":"31.18603","category":"250","category_name":"公园户外","address":"卢湾区鲁班路909号"},{"poiid":"B2094757D06EAAF4449B","title":"长清路地铁站","lon":"121.48647265","lat":"31.174856049","category":"36","category_name":"地铁站","address":"上海轨道交通 七号线 轨交长清路站 7"},{"poiid":"B2094655D26CABFD4393","title":"新世纪花苑","lon":"121.48472","lat":"31.17509","category":"47","category_name":"住宅区","address":"上海浦东新区耀华路421弄"},{"poiid":"B2094757D06FA1F8499F","title":"富春小笼(耀华路店)","lon":"121.48261334","lat":"31.172451763","category":"68","category_name":"快餐厅","address":"浦东新区耀华路492号(近卢浦大桥)"},{"poiid":"B2094757D06FAAF4459D","title":"耀華路","lon":"121.48446655","lat":"31.174270629","category":"500","category_name":"未知分类","address":"上海耀華路"},{"poiid":"B2094757D06FA5F8499C","title":"宝钢大舞台","lon":"121.484091043","lat":"31.1868936206","category":"260","category_name":"其他","address":"上海浦东新区世博公园"},{"poiid":"B2094751D568A3FB4192","title":"上海歌城昌里店","lon":"121.487887","lat":"31.173912","category":"248","category_name":"生活娱乐","address":"昌里路337号浦东商场4层"},{"poiid":"B2094757D56DAAFD4998","title":"冰星飞扬（世博）羽毛球馆","lon":"121.47396326065063","lat":"31.180634737769793","category":"248","category_name":"生活娱乐","address":"浦东新区后滩路139号(近国展路)"},{"poiid":"B2094757D16BA1F5419E","title":"麦盛莉","lon":"121.48261173","lat":"31.172518071","category":"249","category_name":"购物服务","address":"上海市浦东新区通耀路"},{"poiid":"B2094654DB65A6FA4592","title":"新世纪花苑(南门)","lon":"121.48059","lat":"31.17204","category":"656","category_name":"大门","address":"耀华路579弄1-127号"},{"poiid":"B2094757D068A7F5469E","title":"复旦大学附属眼耳鼻喉科医院(浦东分院)","lon":"121.484897","lat":"31.17427","category":"162","category_name":"医院","address":"浦东新区耀华路391号(近长清路)"},{"poiid":"B2094757D065A5FE469F","title":"浦东机场T2航站楼停车场","lon":"121.4873315","lat":"31.174126905","category":"21","category_name":"飞机场","address":"上海浦东新区启航路900号T2航站楼"},{"poiid":"B2094757D068A1FF4598","title":"红宝石(昌里路店)","lon":"121.48631391","lat":"31.177169422","category":"67","category_name":"甜品店","address":"浦东新区昌里路347号(近长清路)"},{"poiid":"B2094757D06FA6F5459C","title":"打浦路隧道","lon":"121.48451","lat":"31.17358","category":"500","category_name":"未知分类","address":"上海长青路耀华路"},{"poiid":"B2094757D06FAAF4429D","title":"麦盛莉(耀华店)","lon":"121.4763831","lat":"31.176898854","category":"76","category_name":"上海菜","address":"浦东新区耀华路488号(西营路口)"},{"poiid":"B2094752D26EA5F8479E","title":"世博希腊馆","lon":"121.477208","lat":"31.185743","category":"500","category_name":"未知分类","address":null},{"poiid":"B2094752DB6AA0FB469A","title":"上海海之宝体育运动中心","lon":"121.4775055492","lat":"31.179249091782","category":"230","category_name":"足球场","address":"上海浦东新区国展路410号（近上钢路）"},{"poiid":"B2094752D06DA3F9459D","title":"飞行家主题园","lon":"121.475925","lat":"31.180498","category":"250","category_name":"公园户外","address":"上海市浦东新区国展路311号"},{"poiid":"B2094757D16FABF84098","title":"新世纪花苑三期","lon":"121.48117573","lat":"31.175086125","category":"47","category_name":"住宅区","address":"上海市杨浦区杭州路66弄"},{"poiid":"B2094752DA69A1F5449B","title":"博大汽车公园","lon":"121.472341","lat":"31.179505","category":"500","category_name":"未知分类","address":"上海市 国展路189号"},{"poiid":"B2094757D06FA4F54299","title":"世博园七号门","lon":"121.484425477","lat":"31.1802093305","category":"680","category_name":"楼宇机构","address":"上海世博园七号门长清北路出入口"},{"poiid":"B2094757D068A6FB459C","title":"世博会墨西哥馆","lon":"121.47791","lat":"31.17884","category":"260","category_name":"其他","address":"上海浦东新区国展路近上钢路(原上海世博会C片区)"},{"poiid":"B2094757D068A5F8489D","title":"上钢七村","lon":"121.48531","lat":"31.172562","category":"47","category_name":"住宅区","address":"长清路63弄"},{"poiid":"B2094757D069A3FE4292","title":"龙腾大道南滨江","lon":"121.47991373","lat":"31.180792247","category":"260","category_name":"其他","address":"上海市徐汇区龙腾大道"},{"poiid":"B2094753D768A2FF469F","title":"小辉哥火锅（乐城店）","lon":"121.47583","lat":"31.182259","category":"247","category_name":"餐饮美食","address":"上海市徐汇区中山南二路699号2栋304—305"},{"poiid":"B2094752D365A4FD4993","title":"2062新能源主题公园","lon":"121.480274","lat":"31.182386","category":"250","category_name":"公园户外","address":"世博园C片区"},{"poiid":"B2094753D46BAAFD4398","title":"海之宝足球场","lon":"121.478721","lat":"31.179347","category":"220","category_name":"运动场所","address":"上海市 国展路401号"},{"poiid":"B2094757D06BA0FA459C","title":"鼎味鲜苏州汤包馆(昌里店)","lon":"121.484429738","lat":"31.1770331673","category":"247","category_name":"餐饮美食","address":"上海市浦东新区昌里路(长青公园旁)"},{"poiid":"B2094757DB6FA5FE489B","title":"地铁9号线徐家汇站","lon":"121.4773750945231","lat":"31.18166830842563","category":"500","category_name":"未知分类","address":"徐家汇"},{"poiid":"B2094757D66BA3F54999","title":"伊诺咖啡 沙特馆店","lon":"121.486153","lat":"31.1839423","category":"260","category_name":"其他","address":"浦东新区博成路1221号沙特馆旁(近中国馆)"},{"poiid":"B2094751D26DABF8409A","title":"飞行家主题园","lon":"121.481018","lat":"31.177612","category":"250","category_name":"公园户外","address":"浦东新区国展路300号"},{"poiid":"B2094655D265A1FF4793","title":"丰收日","lon":"121.47794","lat":"31.18171","category":"257","category_name":"中餐厅","address":"上海世博园区"},{"poiid":"B2094750D365A3FB489B","title":"上海意大利中心","lon":"121.47582388308","lat":"31.183763362212","category":"646","category_name":"文化体育类公司","address":"浦东新区世博大道2095号(近塘子泾路)"},{"poiid":"B2094757D16FA3FD419E","title":"世博会8号门 后滩","lon":"121.483853","lat":"31.179195","category":"500","category_name":"未知分类","address":"上海世博大道近雪野二路"},{"poiid":"B2094757D069A5FD4493","title":"救恩堂","lon":"121.48392","lat":"31.17312","category":"245","category_name":"教堂","address":"浦东新区耀华路439号(近西营路)"},{"poiid":"B2094757D064A1F5449B","title":"东方体育中心P8观众停车场","lon":"121.48448861","lat":"31.177274622","category":"500","category_name":"未知分类","address":"上海耀体路耀龙路"},{"poiid":"B2094655D26BA0FA409C","title":"中心广场(意大利馆东)","lon":"121.47659","lat":"31.18368","category":"201","category_name":"城市广场","address":"上海世博园区"},{"poiid":"B2094757D06BA6FF419D","title":"上岛咖啡 耀华路店 UBC Coffee","lon":"121.483056","lat":"31.172774","category":"260","category_name":"其他","address":"浦东新区耀华路488号信建大厦3楼(近地铁7号线长清路站3号口)"},{"poiid":"B2094750DA6BA5FB439D","title":"地铁7号线","lon":"121.47982","lat":"31.179788","category":"627","category_name":"一般地点标志","address":null},{"poiid":"B2094655D26AA0F9469D","title":"地铁长清路站","lon":"121.48751","lat":"31.17543","category":"36","category_name":"地铁站","address":""},{"poiid":"B2094757D06AA5FD4698","title":"杨高南路浦三路","lon":"121.478394451","lat":"31.1781563378","category":"500","category_name":"未知分类","address":"上海杨高南路浦三路"},{"poiid":"B2094750D26DA6FC4498","title":"历城路夜排档","lon":"121.483647","lat":"31.183592","category":"247","category_name":"餐饮美食","address":"历城路昌里路"},{"poiid":"B2094753D668A2F8429E","title":"虹口龙之梦","lon":"121.481583","lat":"31.17323","category":"500","category_name":"未知分类","address":"上海市 虹口区"},{"poiid":"B2094655D36DA2F94593","title":"打浦路隧道","lon":"121.47834","lat":"31.18261","category":"250","category_name":"公园户外","address":""},{"poiid":"B2094757D065A7F4439F","title":"新世纪国际大酒店","lon":"121.48543518299","lat":"31.174531270398","category":"76","category_name":"上海菜","address":"浦东新区耀华路385号(西营路长清路间)"},{"poiid":"B2094752D264A0FC479C","title":"巧克力开心乐园","lon":"121.475159","lat":"31.181213","category":"248","category_name":"生活娱乐","address":"博成路100号"},{"poiid":"B2094757D06FAAFE419F","title":"后滩公园","lon":"121.4758535","lat":"31.184998305","category":"196","category_name":"公园","address":"上海浦东新区世博会园B片区"},{"poiid":"B2094757D06FA1FF449C","title":"第一妇婴保健院(耀华路分院)","lon":"121.48462","lat":"31.17282","category":"162","category_name":"医院","address":"浦东新区耀华路391号(近长清路)"},{"poiid":"B2094757D06FA3F8479F","title":"世博会意大利馆","lon":"121.47576","lat":"31.1841","category":"260","category_name":"其他","address":"上海浦东新区世博大道上钢路口(原上海世博会C片区)"},{"poiid":"B2094757D06FA0FA499E","title":"世博会非洲联合馆","lon":"121.47401428","lat":"31.182336807","category":"260","category_name":"其他","address":"上海浦东新区博成路上钢路口(原上海世博会C片区)"},{"poiid":"B2094655D26EA7F84093","title":"卢浦大桥","lon":"121.48255","lat":"31.18603","category":"250","category_name":"公园户外","address":"卢湾区鲁班路909号"},{"poiid":"B2094757D06EAAF4449B","title":"长清路地铁站","lon":"121.48647265","lat":"31.174856049","category":"36","category_name":"地铁站","address":"上海轨道交通 七号线 轨交长清路站 7"},{"poiid":"B2094655D26CABFD4393","title":"新世纪花苑","lon":"121.48472","lat":"31.17509","category":"47","category_name":"住宅区","address":"上海浦东新区耀华路421弄"},{"poiid":"B2094757D06FA1F8499F","title":"富春小笼(耀华路店)","lon":"121.48261334","lat":"31.172451763","category":"68","category_name":"快餐厅","address":"浦东新区耀华路492号(近卢浦大桥)"},{"poiid":"B2094757D06FAAF4459D","title":"耀華路","lon":"121.48446655","lat":"31.174270629","category":"500","category_name":"未知分类","address":"上海耀華路"},{"poiid":"B2094757D06FA5F8499C","title":"宝钢大舞台","lon":"121.484091043","lat":"31.1868936206","category":"260","category_name":"其他","address":"上海浦东新区世博公园"},{"poiid":"B2094751D568A3FB4192","title":"上海歌城昌里店","lon":"121.487887","lat":"31.173912","category":"248","category_name":"生活娱乐","address":"昌里路337号浦东商场4层"},{"poiid":"B2094757D56DAAFD4998","title":"冰星飞扬（世博）羽毛球馆","lon":"121.47396326065063","lat":"31.180634737769793","category":"248","category_name":"生活娱乐","address":"浦东新区后滩路139号(近国展路)"},{"poiid":"B2094757D16BA1F5419E","title":"麦盛莉","lon":"121.48261173","lat":"31.172518071","category":"249","category_name":"购物服务","address":"上海市浦东新区通耀路"},{"poiid":"B2094654DB65A6FA4592","title":"新世纪花苑(南门)","lon":"121.48059","lat":"31.17204","category":"656","category_name":"大门","address":"耀华路579弄1-127号"},{"poiid":"B2094757D068A7F5469E","title":"复旦大学附属眼耳鼻喉科医院(浦东分院)","lon":"121.484897","lat":"31.17427","category":"162","category_name":"医院","address":"浦东新区耀华路391号(近长清路)"},{"poiid":"B2094757D065A5FE469F","title":"浦东机场T2航站楼停车场","lon":"121.4873315","lat":"31.174126905","category":"21","category_name":"飞机场","address":"上海浦东新区启航路900号T2航站楼"},{"poiid":"B2094757D068A1FF4598","title":"红宝石(昌里路店)","lon":"121.48631391","lat":"31.177169422","category":"67","category_name":"甜品店","address":"浦东新区昌里路347号(近长清路)"},{"poiid":"B2094757D06FA6F5459C","title":"打浦路隧道","lon":"121.48451","lat":"31.17358","category":"500","category_name":"未知分类","address":"上海长青路耀华路"},{"poiid":"B2094757D06FAAF4429D","title":"麦盛莉(耀华店)","lon":"121.4763831","lat":"31.176898854","category":"76","category_name":"上海菜","address":"浦东新区耀华路488号(西营路口)"},{"poiid":"B2094752D26EA5F8479E","title":"世博希腊馆","lon":"121.477208","lat":"31.185743","category":"500","category_name":"未知分类","address":null},{"poiid":"B2094752DB6AA0FB469A","title":"上海海之宝体育运动中心","lon":"121.4775055492","lat":"31.179249091782","category":"230","category_name":"足球场","address":"上海浦东新区国展路410号（近上钢路）"},{"poiid":"B2094752D06DA3F9459D","title":"飞行家主题园","lon":"121.475925","lat":"31.180498","category":"250","category_name":"公园户外","address":"上海市浦东新区国展路311号"},{"poiid":"B2094757D16FABF84098","title":"新世纪花苑三期","lon":"121.48117573","lat":"31.175086125","category":"47","category_name":"住宅区","address":"上海市杨浦区杭州路66弄"},{"poiid":"B2094752DA69A1F5449B","title":"博大汽车公园","lon":"121.472341","lat":"31.179505","category":"500","category_name":"未知分类","address":"上海市 国展路189号"},{"poiid":"B2094757D06FA4F54299","title":"世博园七号门","lon":"121.484425477","lat":"31.1802093305","category":"680","category_name":"楼宇机构","address":"上海世博园七号门长清北路出入口"},{"poiid":"B2094757D068A6FB459C","title":"世博会墨西哥馆","lon":"121.47791","lat":"31.17884","category":"260","category_name":"其他","address":"上海浦东新区国展路近上钢路(原上海世博会C片区)"},{"poiid":"B2094757D068A5F8489D","title":"上钢七村","lon":"121.48531","lat":"31.172562","category":"47","category_name":"住宅区","address":"长清路63弄"},{"poiid":"B2094757D069A3FE4292","title":"龙腾大道南滨江","lon":"121.47991373","lat":"31.180792247","category":"260","category_name":"其他","address":"上海市徐汇区龙腾大道"},{"poiid":"B2094753D768A2FF469F","title":"小辉哥火锅（乐城店）","lon":"121.47583","lat":"31.182259","category":"247","category_name":"餐饮美食","address":"上海市徐汇区中山南二路699号2栋304—305"},{"poiid":"B2094752D365A4FD4993","title":"2062新能源主题公园","lon":"121.480274","lat":"31.182386","category":"250","category_name":"公园户外","address":"世博园C片区"},{"poiid":"B2094753D46BAAFD4398","title":"海之宝足球场","lon":"121.478721","lat":"31.179347","category":"220","category_name":"运动场所","address":"上海市 国展路401号"},{"poiid":"B2094757D06BA0FA459C","title":"鼎味鲜苏州汤包馆(昌里店)","lon":"121.484429738","lat":"31.1770331673","category":"247","category_name":"餐饮美食","address":"上海市浦东新区昌里路(长青公园旁)"},{"poiid":"B2094757DB6FA5FE489B","title":"地铁9号线徐家汇站","lon":"121.4773750945231","lat":"31.18166830842563","category":"500","category_name":"未知分类","address":"徐家汇"},{"poiid":"B2094757D66BA3F54999","title":"伊诺咖啡 沙特馆店","lon":"121.486153","lat":"31.1839423","category":"260","category_name":"其他","address":"浦东新区博成路1221号沙特馆旁(近中国馆)"},{"poiid":"B2094751D26DABF8409A","title":"飞行家主题园","lon":"121.481018","lat":"31.177612","category":"250","category_name":"公园户外","address":"浦东新区国展路300号"},{"poiid":"B2094655D265A1FF4793","title":"丰收日","lon":"121.47794","lat":"31.18171","category":"257","category_name":"中餐厅","address":"上海世博园区"},{"poiid":"B2094750D365A3FB489B","title":"上海意大利中心","lon":"121.47582388308","lat":"31.183763362212","category":"646","category_name":"文化体育类公司","address":"浦东新区世博大道2095号(近塘子泾路)"},{"poiid":"B2094757D16FA3FD419E","title":"世博会8号门 后滩","lon":"121.483853","lat":"31.179195","category":"500","category_name":"未知分类","address":"上海世博大道近雪野二路"},{"poiid":"B2094757D069A5FD4493","title":"救恩堂","lon":"121.48392","lat":"31.17312","category":"245","category_name":"教堂","address":"浦东新区耀华路439号(近西营路)"},{"poiid":"B2094757D064A1F5449B","title":"东方体育中心P8观众停车场","lon":"121.48448861","lat":"31.177274622","category":"500","category_name":"未知分类","address":"上海耀体路耀龙路"},{"poiid":"B2094655D26BA0FA409C","title":"中心广场(意大利馆东)","lon":"121.47659","lat":"31.18368","category":"201","category_name":"城市广场","address":"上海世博园区"},{"poiid":"B2094757D06BA6FF419D","title":"上岛咖啡 耀华路店 UBC Coffee","lon":"121.483056","lat":"31.172774","category":"260","category_name":"其他","address":"浦东新区耀华路488号信建大厦3楼(近地铁7号线长清路站3号口)"},{"poiid":"B2094750DA6BA5FB439D","title":"地铁7号线","lon":"121.47982","lat":"31.179788","category":"627","category_name":"一般地点标志","address":null},{"poiid":"B2094655D26AA0F9469D","title":"地铁长清路站","lon":"121.48751","lat":"31.17543","category":"36","category_name":"地铁站","address":""},{"poiid":"B2094757D06AA5FD4698","title":"杨高南路浦三路","lon":"121.478394451","lat":"31.1781563378","category":"500","category_name":"未知分类","address":"上海杨高南路浦三路"},{"poiid":"B2094750D26DA6FC4498","title":"历城路夜排档","lon":"121.483647","lat":"31.183592","category":"247","category_name":"餐饮美食","address":"历城路昌里路"},{"poiid":"B2094753D668A2F8429E","title":"虹口龙之梦","lon":"121.481583","lat":"31.17323","category":"500","category_name":"未知分类","address":"上海市 虹口区"},{"poiid":"B2094655D36DA2F94593","title":"打浦路隧道","lon":"121.47834","lat":"31.18261","category":"250","category_name":"公园户外","address":""},{"poiid":"B2094757D065A7F4439F","title":"新世纪国际大酒店","lon":"121.48543518299","lat":"31.174531270398","category":"76","category_name":"上海菜","address":"浦东新区耀华路385号(西营路长清路间)"},{"poiid":"B2094752D264A0FC479C","title":"巧克力开心乐园","lon":"121.475159","lat":"31.181213","category":"248","category_name":"生活娱乐","address":"博成路100号"},{"poiid":"B2094757D06FAAFE419F","title":"后滩公园","lon":"121.4758535","lat":"31.184998305","category":"196","category_name":"公园","address":"上海浦东新区世博会园B片区"},{"poiid":"B2094757D06FA1FF449C","title":"第一妇婴保健院(耀华路分院)","lon":"121.48462","lat":"31.17282","category":"162","category_name":"医院","address":"浦东新区耀华路391号(近长清路)"},{"poiid":"B2094757D06FA3F8479F","title":"世博会意大利馆","lon":"121.47576","lat":"31.1841","category":"260","category_name":"其他","address":"上海浦东新区世博大道上钢路口(原上海世博会C片区)"},{"poiid":"B2094757D06FA0FA499E","title":"世博会非洲联合馆","lon":"121.47401428","lat":"31.182336807","category":"260","category_name":"其他","address":"上海浦东新区博成路上钢路口(原上海世博会C片区)"},{"poiid":"B2094655D26EA7F84093","title":"卢浦大桥","lon":"121.48255","lat":"31.18603","category":"250","category_name":"公园户外","address":"卢湾区鲁班路909号"},{"poiid":"B2094757D06EAAF4449B","title":"长清路地铁站","lon":"121.48647265","lat":"31.174856049","category":"36","category_name":"地铁站","address":"上海轨道交通 七号线 轨交长清路站 7"},{"poiid":"B2094655D26CABFD4393","title":"新世纪花苑","lon":"121.48472","lat":"31.17509","category":"47","category_name":"住宅区","address":"上海浦东新区耀华路421弄"},{"poiid":"B2094757D06FA1F8499F","title":"富春小笼(耀华路店)","lon":"121.48261334","lat":"31.172451763","category":"68","category_name":"快餐厅","address":"浦东新区耀华路492号(近卢浦大桥)"},{"poiid":"B2094757D06FAAF4459D","title":"耀華路","lon":"121.48446655","lat":"31.174270629","category":"500","category_name":"未知分类","address":"上海耀華路"},{"poiid":"B2094757D06FA5F8499C","title":"宝钢大舞台","lon":"121.484091043","lat":"31.1868936206","category":"260","category_name":"其他","address":"上海浦东新区世博公园"},{"poiid":"B2094751D568A3FB4192","title":"上海歌城昌里店","lon":"121.487887","lat":"31.173912","category":"248","category_name":"生活娱乐","address":"昌里路337号浦东商场4层"},{"poiid":"B2094757D56DAAFD4998","title":"冰星飞扬（世博）羽毛球馆","lon":"121.47396326065063","lat":"31.180634737769793","category":"248","category_name":"生活娱乐","address":"浦东新区后滩路139号(近国展路)"},{"poiid":"B2094757D16BA1F5419E","title":"麦盛莉","lon":"121.48261173","lat":"31.172518071","category":"249","category_name":"购物服务","address":"上海市浦东新区通耀路"},{"poiid":"B2094654DB65A6FA4592","title":"新世纪花苑(南门)","lon":"121.48059","lat":"31.17204","category":"656","category_name":"大门","address":"耀华路579弄1-127号"},{"poiid":"B2094757D068A7F5469E","title":"复旦大学附属眼耳鼻喉科医院(浦东分院)","lon":"121.484897","lat":"31.17427","category":"162","category_name":"医院","address":"浦东新区耀华路391号(近长清路)"},{"poiid":"B2094757D065A5FE469F","title":"浦东机场T2航站楼停车场","lon":"121.4873315","lat":"31.174126905","category":"21","category_name":"飞机场","address":"上海浦东新区启航路900号T2航站楼"},{"poiid":"B2094757D068A1FF4598","title":"红宝石(昌里路店)","lon":"121.48631391","lat":"31.177169422","category":"67","category_name":"甜品店","address":"浦东新区昌里路347号(近长清路)"},{"poiid":"B2094757D06FA6F5459C","title":"打浦路隧道","lon":"121.48451","lat":"31.17358","category":"500","category_name":"未知分类","address":"上海长青路耀华路"},{"poiid":"B2094757D06FAAF4429D","title":"麦盛莉(耀华店)","lon":"121.4763831","lat":"31.176898854","category":"76","category_name":"上海菜","address":"浦东新区耀华路488号(西营路口)"},{"poiid":"B2094752D26EA5F8479E","title":"世博希腊馆","lon":"121.477208","lat":"31.185743","category":"500","category_name":"未知分类","address":null},{"poiid":"B2094752DB6AA0FB469A","title":"上海海之宝体育运动中心","lon":"121.4775055492","lat":"31.179249091782","category":"230","category_name":"足球场","address":"上海浦东新区国展路410号（近上钢路）"},{"poiid":"B2094752D06DA3F9459D","title":"飞行家主题园","lon":"121.475925","lat":"31.180498","category":"250","category_name":"公园户外","address":"上海市浦东新区国展路311号"},{"poiid":"B2094757D16FABF84098","title":"新世纪花苑三期","lon":"121.48117573","lat":"31.175086125","category":"47","category_name":"住宅区","address":"上海市杨浦区杭州路66弄"},{"poiid":"B2094752DA69A1F5449B","title":"博大汽车公园","lon":"121.472341","lat":"31.179505","category":"500","category_name":"未知分类","address":"上海市 国展路189号"},{"poiid":"B2094757D06FA4F54299","title":"世博园七号门","lon":"121.484425477","lat":"31.1802093305","category":"680","category_name":"楼宇机构","address":"上海世博园七号门长清北路出入口"},{"poiid":"B2094757D068A6FB459C","title":"世博会墨西哥馆","lon":"121.47791","lat":"31.17884","category":"260","category_name":"其他","address":"上海浦东新区国展路近上钢路(原上海世博会C片区)"},{"poiid":"B2094757D068A5F8489D","title":"上钢七村","lon":"121.48531","lat":"31.172562","category":"47","category_name":"住宅区","address":"长清路63弄"},{"poiid":"B2094757D069A3FE4292","title":"龙腾大道南滨江","lon":"121.47991373","lat":"31.180792247","category":"260","category_name":"其他","address":"上海市徐汇区龙腾大道"},{"poiid":"B2094753D768A2FF469F","title":"小辉哥火锅（乐城店）","lon":"121.47583","lat":"31.182259","category":"247","category_name":"餐饮美食","address":"上海市徐汇区中山南二路699号2栋304—305"},{"poiid":"B2094752D365A4FD4993","title":"2062新能源主题公园","lon":"121.480274","lat":"31.182386","category":"250","category_name":"公园户外","address":"世博园C片区"},{"poiid":"B2094753D46BAAFD4398","title":"海之宝足球场","lon":"121.478721","lat":"31.179347","category":"220","category_name":"运动场所","address":"上海市 国展路401号"},{"poiid":"B2094757D06BA0FA459C","title":"鼎味鲜苏州汤包馆(昌里店)","lon":"121.484429738","lat":"31.1770331673","category":"247","category_name":"餐饮美食","address":"上海市浦东新区昌里路(长青公园旁)"},{"poiid":"B2094757DB6FA5FE489B","title":"地铁9号线徐家汇站","lon":"121.4773750945231","lat":"31.18166830842563","category":"500","category_name":"未知分类","address":"徐家汇"},{"poiid":"B2094757D66BA3F54999","title":"伊诺咖啡 沙特馆店","lon":"121.486153","lat":"31.1839423","category":"260","category_name":"其他","address":"浦东新区博成路1221号沙特馆旁(近中国馆)"},{"poiid":"B2094751D26DABF8409A","title":"飞行家主题园","lon":"121.481018","lat":"31.177612","category":"250","category_name":"公园户外","address":"浦东新区国展路300号"},{"poiid":"B2094655D265A1FF4793","title":"丰收日","lon":"121.47794","lat":"31.18171","category":"257","category_name":"中餐厅","address":"上海世博园区"},{"poiid":"B2094750D365A3FB489B","title":"上海意大利中心","lon":"121.47582388308","lat":"31.183763362212","category":"646","category_name":"文化体育类公司","address":"浦东新区世博大道2095号(近塘子泾路)"},{"poiid":"B2094757D16FA3FD419E","title":"世博会8号门 后滩","lon":"121.483853","lat":"31.179195","category":"500","category_name":"未知分类","address":"上海世博大道近雪野二路"},{"poiid":"B2094757D069A5FD4493","title":"救恩堂","lon":"121.48392","lat":"31.17312","category":"245","category_name":"教堂","address":"浦东新区耀华路439号(近西营路)"},{"poiid":"B2094757D064A1F5449B","title":"东方体育中心P8观众停车场","lon":"121.48448861","lat":"31.177274622","category":"500","category_name":"未知分类","address":"上海耀体路耀龙路"},{"poiid":"B2094655D26BA0FA409C","title":"中心广场(意大利馆东)","lon":"121.47659","lat":"31.18368","category":"201","category_name":"城市广场","address":"上海世博园区"},{"poiid":"B2094757D06BA6FF419D","title":"上岛咖啡 耀华路店 UBC Coffee","lon":"121.483056","lat":"31.172774","category":"260","category_name":"其他","address":"浦东新区耀华路488号信建大厦3楼(近地铁7号线长清路站3号口)"},{"poiid":"B2094750DA6BA5FB439D","title":"地铁7号线","lon":"121.47982","lat":"31.179788","category":"627","category_name":"一般地点标志","address":null},{"poiid":"B2094655D26AA0F9469D","title":"地铁长清路站","lon":"121.48751","lat":"31.17543","category":"36","category_name":"地铁站","address":""},{"poiid":"B2094757D06AA5FD4698","title":"杨高南路浦三路","lon":"121.478394451","lat":"31.1781563378","category":"500","category_name":"未知分类","address":"上海杨高南路浦三路"},{"poiid":"B2094750D26DA6FC4498","title":"历城路夜排档","lon":"121.483647","lat":"31.183592","category":"247","category_name":"餐饮美食","address":"历城路昌里路"},{"poiid":"B2094753D668A2F8429E","title":"虹口龙之梦","lon":"121.481583","lat":"31.17323","category":"500","category_name":"未知分类","address":"上海市 虹口区"},{"poiid":"B2094655D36DA2F94593","title":"打浦路隧道","lon":"121.47834","lat":"31.18261","category":"250","category_name":"公园户外","address":""},{"poiid":"B2094757D065A7F4439F","title":"新世纪国际大酒店","lon":"121.48543518299","lat":"31.174531270398","category":"76","category_name":"上海菜","address":"浦东新区耀华路385号(西营路长清路间)"}]