[{"poiid":"B2094655D36CA4FD4792","title":"安亭地铁站","lon":"121.16349","lat":"31.28808","category":"36","category_name":"地铁站","address":""},{"poiid":"B2094757DA68A1F8449F","title":"汉泰东南亚风味餐厅(安亭店)","lon":"121.16259098052979","lat":"31.28860002389548","category":"99","category_name":"泰国／越南菜品餐厅","address":"嘉定区墨玉南路1055号嘉亭荟城市生活广场401-403铺"},{"poiid":"B2094757D06FA3F4409B","title":"上海大众汽车有限公司","lon":"121.16294097","lat":"31.295793533","category":"46","category_name":"楼宇","address":"上海安亭镇昌吉路188号"},{"poiid":"B2094757D06AA4F44193","title":"上海大众汽车一厂","lon":"121.168218289","lat":"31.3003356326","category":"500","category_name":"未知分类","address":"上海嘉定区安亭镇洛浦路63号"},{"poiid":"B2094757D068A2F4479D","title":"新词大酒店","lon":"121.16370824551","lat":"31.291529215577","category":"76","category_name":"上海菜","address":"嘉定区墨玉路29号(近曹安路)"},{"poiid":"B2094757D06FA1FA479C","title":"上海大众汽车","lon":"121.167815","lat":"31.299914","category":"500","category_name":"未知分类","address":"徐汇区安亭洛浦路63号"},{"poiid":"B2094654D46BA0FF4899","title":"上海国际汽车城大厦","lon":"121.172","lat":"31.2875","category":"46","category_name":"楼宇","address":"上海市嘉定区安亭镇墨玉南路888号"},{"poiid":"B2094750D26EABF8489E","title":"星巴克 (嘉亭荟店) STARBUCKS COFFEE","lon":"121.1633617","lat":"31.2886961","category":"260","category_name":"其他","address":"嘉定区墨玉南路1055号嘉亭荟生活广场内(近曹安公路)"},{"poiid":"B2094757D068A6FE439D","title":"安亭市民广场","lon":"121.16414","lat":"31.29896","category":"250","category_name":"公园户外","address":"嘉定区安亭镇墨玉路(近和静路)"},{"poiid":"B2094757D069A2FE459A","title":"安亭医院","lon":"121.16136195","lat":"31.295944036","category":"162","category_name":"医院","address":"嘉定区安亭镇昌吉路204号(昌吉路墨玉路)"},{"poiid":"B2094655D36CA4FD469C","title":"安亭镇","lon":"121.16529","lat":"31.29153","category":"38","category_name":"公交车站","address":""},{"poiid":"B2094750D769A3FB459E","title":"鲜芋仙(嘉亭荟店)","lon":"121.163","lat":"31.2882","category":"67","category_name":"甜品店","address":"嘉定区墨玉南路1055号嘉亭荟城市生活广场2楼"},{"poiid":"B2094757DB68A5F4459A","title":"必胜客(上海嘉葶荟店)","lon":"121.1633834","lat":"31.2886966","category":"94","category_name":"西餐厅","address":"嘉定区墨玉南路1055号嘉亭荟城市生活广场2楼220号铺、223号铺(近地铁11号线安亭站)"},{"poiid":"B2094654DB65A0F4409F","title":"上海大众汽车二厂","lon":"121.17913","lat":"31.29665","category":"263","category_name":"公司","address":"昌吉路82"},{"poiid":"B2094751D269A2F44399","title":"CGV国际影城(安亭店)","lon":"121.16231133862311","lat":"31.288998117584235","category":"178","category_name":"电影院","address":"嘉定区墨玉南路1055号嘉亭荟城市生活广场3楼305号(近11号线安亭汽车城站)"},{"poiid":"B2094757D16FABF8429D","title":"澳门豆捞坊","lon":"121.1636","lat":"31.29124","category":"86","category_name":"火锅店","address":"嘉定区墨玉南路1055号嘉亭荟城市生活广场2A412号铺(近安亭地铁站)"},{"poiid":"B2094750D76FAAFC4899","title":"哈根达斯(嘉亭荟店)","lon":"121.163","lat":"31.2882","category":"113","category_name":"冷饮店","address":"嘉定区墨玉南路1055号嘉亭荟城市生活广场1楼"},{"poiid":"B2094654DB65A3FE4399","title":"嘉正国际","lon":"121.16289","lat":"31.28977","category":"46","category_name":"楼宇","address":"嘉定区墨玉路28号"},{"poiid":"B2094750D76FA7FA4393","title":"望湘园(安亭店)","lon":"121.163","lat":"31.2882","category":"77","category_name":"湖南菜","address":"嘉定区墨玉南路1055号嘉亭荟广场3楼"},{"poiid":"B2094750D76DA5FB409A","title":"吉旺港式茶餐厅(嘉亭荟店)","lon":"121.163","lat":"31.2882","category":"72","category_name":"广东菜","address":"嘉定区墨玉南路1055号嘉亭荟生活广场2号A区4楼410-411号铺(近11号线安亭汽车城站)"},{"poiid":"B2094757DB68A4F8469C","title":"小南国 嘉亭荟店","lon":"121.1633834","lat":"31.2886966","category":"76","category_name":"上海菜","address":"嘉定区墨玉南路1055号嘉亭荟生活广场2楼(近地铁11号线安亭站)"},{"poiid":"B2094757DA68A1F84499","title":"Costa Coffee(安亭店)","lon":"121.16276264190674","lat":"31.288545013134225","category":"65","category_name":"咖啡厅","address":"嘉定区墨玉南路1055号嘉亭荟城市生活广场2楼202号铺(近11号线安亭汽车城站)"},{"poiid":"B2094757D065A0F5439E","title":"中泰量贩KTV","lon":"121.16429228","lat":"31.301352153","category":"170","category_name":"KTV","address":"上海市嘉定区和静路"},{"poiid":"B2094750D26CA6FD459F","title":"避风塘 嘉亭荟","lon":"121.1633834","lat":"31.2886966","category":"72","category_name":"广东菜","address":"嘉定区墨玉南路1055弄嘉亭荟生活广场1楼111号铺(近11号线安亭汽车城站)"},{"poiid":"B2094750D76FAAFD4999","title":"PANKOO釜山料理(嘉亭荟店)","lon":"121.163","lat":"31.2882","category":"96","category_name":"韩国料理","address":"嘉定区墨玉南路1055号嘉亭荟生活广场3楼328-329号铺(近11号线安亭汽车城站)"},{"poiid":"B2094750D26CABFF439E","title":"伊秀手握寿司 嘉亭荟店","lon":"121.1633834","lat":"31.2886966","category":"95","category_name":"日本料理","address":"嘉定区墨玉南路1055号嘉亭荟城市生活广场3楼(近安亭地铁站)"},{"poiid":"B2094750DA6FA1FD4698","title":"一茶一坐（安亭店）","lon":"121.16338","lat":"31.28871","category":"91","category_name":"台湾菜","address":"嘉定区墨玉南路1055号嘉亭荟城市生活广场1楼122号铺(近11号线安亭汽车城站)"},{"poiid":"B2094750D768A1FC419A","title":"赤坂亭(嘉亭荟店)","lon":"121.163","lat":"31.2882","category":"269","category_name":"烧烤","address":"嘉定区墨玉南路1055号嘉亭荟城市生活广场3楼331号铺(近安亭汽车城地铁站)"},{"poiid":"B2094654DB6AA5F54492","title":"肯德基 昌吉路店 KFC","lon":"121.164513054","lat":"31.295557793","category":"68","category_name":"快餐厅","address":"嘉定区昌吉路188号(近墨玉路)"},{"poiid":"B2094654D46BA0F8469A","title":"芙蓉新村一街坊","lon":"121.168","lat":"31.2975","category":"47","category_name":"住宅区","address":"泽普路316弄"},{"poiid":"B2094757D06AA4FF4193","title":"上岛咖啡(安亭店)","lon":"121.16403","lat":"31.28938","category":"260","category_name":"其他","address":"嘉定区安亭镇墨玉路29号(近曹安路)"},{"poiid":"B2094750D26FA6F8469D","title":"旺池 安亭店","lon":"121.1633617","lat":"31.2886961","category":"71","category_name":"四川菜","address":"嘉定区墨玉南路1055号嘉亭荟广场4楼"},{"poiid":"B2094750D76DAAF44998","title":"新石器烤肉(嘉亭荟店)","lon":"121.163","lat":"31.2882","category":"68","category_name":"快餐厅","address":"嘉定区墨玉南路1055号嘉亭荟生活广场1楼142号商铺(近曹安公路)"},{"poiid":"B2094757DB69A5FB429F","title":"嘉亭荟","lon":"121.1611598954804","lat":"31.29087368944145","category":"500","category_name":"未知分类","address":"曹安公路墨玉路"},{"poiid":"B2094750D664A5F44898","title":"大家乐(嘉亭荟店)","lon":"121.163","lat":"31.2887","category":"68","category_name":"快餐厅","address":"嘉定区墨玉南路1055弄嘉亭荟生活广场1楼138-139号商铺(近曹安公路)"},{"poiid":"B2094757D064A7F94798","title":"新鹭大酒店中餐厅","lon":"121.17442","lat":"31.29482","category":"76","category_name":"上海菜","address":"嘉定区安亭镇昌吉路127号(近于田路)"},{"poiid":"B2094750D768A3FA4092","title":"唐之韵大酒店","lon":"121.163","lat":"31.2902","category":"76","category_name":"上海菜","address":"嘉定区安亭镇墨玉路28号(近11号地铁)"},{"poiid":"B2094757D164A0FB459F","title":"安亭 玉兰四村","lon":"121.165731289","lat":"31.2964780532","category":"500","category_name":"未知分类","address":"上海嘉定安亭玉兰四村"},{"poiid":"B2094750D769A3FC489E","title":"老妈米线(墨玉南路店)","lon":"121.163","lat":"31.2882","category":"86","category_name":"火锅店","address":"嘉定区墨玉南路1055号嘉亭荟城市生活广场2A1楼140室(近大润发超市)"},{"poiid":"B2094654D46BA2F44892","title":"紫荆四村","lon":"121.16484","lat":"31.29204","category":"47","category_name":"住宅区","address":"墨玉路63弄"},{"poiid":"B2094654D46BA0F94692","title":"龙安佳苑","lon":"121.16524","lat":"31.295946","category":"47","category_name":"住宅区","address":"上海市嘉定区昌吉路1682弄"},{"poiid":"B2094757D064ABFD4699","title":"迪欧咖啡 安亭店 DIO CAFE","lon":"121.15974841114","lat":"31.302033958359","category":"65","category_name":"咖啡厅","address":"嘉定区安亭镇和静路市民广场(和静路墨玉路)"},{"poiid":"B2094757D069ABFB4893","title":"上海二手车市场","lon":"121.166156","lat":"31.28585","category":"500","category_name":"未知分类","address":"上海墨玉南路1000号"},{"poiid":"B2094757D568ABF9489F","title":"上海国际汽车城创业园","lon":"121.17363498","lat":"31.29556288","category":"45","category_name":"产业园区","address":"中国上海市嘉定区昌吉路"},{"poiid":"B2094757D165A6F54593","title":"上海市嘉定区安亭镇镇政府","lon":"121.17084682","lat":"31.2924235148","category":"500","category_name":"未知分类","address":"上海墨玉路79号"},{"poiid":"B2094654D46BA2F44899","title":"紫荆一村","lon":"121.16667","lat":"31.29117","category":"47","category_name":"住宅区","address":"嘉定泽普路99号"},{"poiid":"B2094750D664A7FC439F","title":"麦当劳(嘉亭荟店)","lon":"121.163","lat":"31.2882","category":"68","category_name":"快餐厅","address":"嘉定区墨玉南路1055号嘉亭荟生活广场1楼141号商铺(近曹安公路)"},{"poiid":"B2094757D065A1F44399","title":"安亭汽车站","lon":"121.163819873","lat":"31.2907305088","category":"35","category_name":"长途汽车站","address":"上海墨玉路泽浦路"},{"poiid":"B2094654DB6AA4FC479D","title":"阿里巴巴土耳其敦娜烤肉安亭店","lon":"121.16709","lat":"31.29507","category":"94","category_name":"西餐厅","address":"嘉定区安亭镇昌吉路157号(安亭幼儿园对面)"},{"poiid":"B2094757D16CA7FB4492","title":"上海大众联合发展有限公司总部","lon":"121.168795","lat":"31.297298","category":"500","category_name":"未知分类","address":"上海洛浦路17号"},{"poiid":"B2094655D36CA4FD4792","title":"安亭地铁站","lon":"121.16349","lat":"31.28808","category":"36","category_name":"地铁站","address":""},{"poiid":"B2094757DA68A1F8449F","title":"汉泰东南亚风味餐厅(安亭店)","lon":"121.16259098052979","lat":"31.28860002389548","category":"99","category_name":"泰国／越南菜品餐厅","address":"嘉定区墨玉南路1055号嘉亭荟城市生活广场401-403铺"},{"poiid":"B2094757D06FA3F4409B","title":"上海大众汽车有限公司","lon":"121.16294097","lat":"31.295793533","category":"46","category_name":"楼宇","address":"上海安亭镇昌吉路188号"},{"poiid":"B2094757D06AA4F44193","title":"上海大众汽车一厂","lon":"121.168218289","lat":"31.3003356326","category":"500","category_name":"未知分类","address":"上海嘉定区安亭镇洛浦路63号"},{"poiid":"B2094757D068A2F4479D","title":"新词大酒店","lon":"121.16370824551","lat":"31.291529215577","category":"76","category_name":"上海菜","address":"嘉定区墨玉路29号(近曹安路)"},{"poiid":"B2094757D06FA1FA479C","title":"上海大众汽车","lon":"121.167815","lat":"31.299914","category":"500","category_name":"未知分类","address":"徐汇区安亭洛浦路63号"},{"poiid":"B2094654D46BA0FF4899","title":"上海国际汽车城大厦","lon":"121.172","lat":"31.2875","category":"46","category_name":"楼宇","address":"上海市嘉定区安亭镇墨玉南路888号"},{"poiid":"B2094750D26EABF8489E","title":"星巴克 (嘉亭荟店) STARBUCKS COFFEE","lon":"121.1633617","lat":"31.2886961","category":"260","category_name":"其他","address":"嘉定区墨玉南路1055号嘉亭荟生活广场内(近曹安公路)"},{"poiid":"B2094757D068A6FE439D","title":"安亭市民广场","lon":"121.16414","lat":"31.29896","category":"250","category_name":"公园户外","address":"嘉定区安亭镇墨玉路(近和静路)"},{"poiid":"B2094757D069A2FE459A","title":"安亭医院","lon":"121.16136195","lat":"31.295944036","category":"162","category_name":"医院","address":"嘉定区安亭镇昌吉路204号(昌吉路墨玉路)"},{"poiid":"B2094655D36CA4FD469C","title":"安亭镇","lon":"121.16529","lat":"31.29153","category":"38","category_name":"公交车站","address":""},{"poiid":"B2094750D769A3FB459E","title":"鲜芋仙(嘉亭荟店)","lon":"121.163","lat":"31.2882","category":"67","category_name":"甜品店","address":"嘉定区墨玉南路1055号嘉亭荟城市生活广场2楼"},{"poiid":"B2094757DB68A5F4459A","title":"必胜客(上海嘉葶荟店)","lon":"121.1633834","lat":"31.2886966","category":"94","category_name":"西餐厅","address":"嘉定区墨玉南路1055号嘉亭荟城市生活广场2楼220号铺、223号铺(近地铁11号线安亭站)"},{"poiid":"B2094654DB65A0F4409F","title":"上海大众汽车二厂","lon":"121.17913","lat":"31.29665","category":"263","category_name":"公司","address":"昌吉路82"},{"poiid":"B2094751D269A2F44399","title":"CGV国际影城(安亭店)","lon":"121.16231133862311","lat":"31.288998117584235","category":"178","category_name":"电影院","address":"嘉定区墨玉南路1055号嘉亭荟城市生活广场3楼305号(近11号线安亭汽车城站)"},{"poiid":"B2094757D16FABF8429D","title":"澳门豆捞坊","lon":"121.1636","lat":"31.29124","category":"86","category_name":"火锅店","address":"嘉定区墨玉南路1055号嘉亭荟城市生活广场2A412号铺(近安亭地铁站)"},{"poiid":"B2094750D76FAAFC4899","title":"哈根达斯(嘉亭荟店)","lon":"121.163","lat":"31.2882","category":"113","category_name":"冷饮店","address":"嘉定区墨玉南路1055号嘉亭荟城市生活广场1楼"},{"poiid":"B2094654DB65A3FE4399","title":"嘉正国际","lon":"121.16289","lat":"31.28977","category":"46","category_name":"楼宇","address":"嘉定区墨玉路28号"},{"poiid":"B2094750D76FA7FA4393","title":"望湘园(安亭店)","lon":"121.163","lat":"31.2882","category":"77","category_name":"湖南菜","address":"嘉定区墨玉南路1055号嘉亭荟广场3楼"},{"poiid":"B2094750D76DA5FB409A","title":"吉旺港式茶餐厅(嘉亭荟店)","lon":"121.163","lat":"31.2882","category":"72","category_name":"广东菜","address":"嘉定区墨玉南路1055号嘉亭荟生活广场2号A区4楼410-411号铺(近11号线安亭汽车城站)"},{"poiid":"B2094757DB68A4F8469C","title":"小南国 嘉亭荟店","lon":"121.1633834","lat":"31.2886966","category":"76","category_name":"上海菜","address":"嘉定区墨玉南路1055号嘉亭荟生活广场2楼(近地铁11号线安亭站)"},{"poiid":"B2094757DA68A1F84499","title":"Costa Coffee(安亭店)","lon":"121.16276264190674","lat":"31.288545013134225","category":"65","category_name":"咖啡厅","address":"嘉定区墨玉南路1055号嘉亭荟城市生活广场2楼202号铺(近11号线安亭汽车城站)"},{"poiid":"B2094757D065A0F5439E","title":"中泰量贩KTV","lon":"121.16429228","lat":"31.301352153","category":"170","category_name":"KTV","address":"上海市嘉定区和静路"},{"poiid":"B2094750D26CA6FD459F","title":"避风塘 嘉亭荟","lon":"121.1633834","lat":"31.2886966","category":"72","category_name":"广东菜","address":"嘉定区墨玉南路1055弄嘉亭荟生活广场1楼111号铺(近11号线安亭汽车城站)"},{"poiid":"B2094750D76FAAFD4999","title":"PANKOO釜山料理(嘉亭荟店)","lon":"121.163","lat":"31.2882","category":"96","category_name":"韩国料理","address":"嘉定区墨玉南路1055号嘉亭荟生活广场3楼328-329号铺(近11号线安亭汽车城站)"},{"poiid":"B2094750D26CABFF439E","title":"伊秀手握寿司 嘉亭荟店","lon":"121.1633834","lat":"31.2886966","category":"95","category_name":"日本料理","address":"嘉定区墨玉南路1055号嘉亭荟城市生活广场3楼(近安亭地铁站)"},{"poiid":"B2094750DA6FA1FD4698","title":"一茶一坐（安亭店）","lon":"121.16338","lat":"31.28871","category":"91","category_name":"台湾菜","address":"嘉定区墨玉南路1055号嘉亭荟城市生活广场1楼122号铺(近11号线安亭汽车城站)"},{"poiid":"B2094750D768A1FC419A","title":"赤坂亭(嘉亭荟店)","lon":"121.163","lat":"31.2882","category":"269","category_name":"烧烤","address":"嘉定区墨玉南路1055号嘉亭荟城市生活广场3楼331号铺(近安亭汽车城地铁站)"},{"poiid":"B2094654DB6AA5F54492","title":"肯德基 昌吉路店 KFC","lon":"121.164513054","lat":"31.295557793","category":"68","category_name":"快餐厅","address":"嘉定区昌吉路188号(近墨玉路)"},{"poiid":"B2094654D46BA0F8469A","title":"芙蓉新村一街坊","lon":"121.168","lat":"31.2975","category":"47","category_name":"住宅区","address":"泽普路316弄"},{"poiid":"B2094757D06AA4FF4193","title":"上岛咖啡(安亭店)","lon":"121.16403","lat":"31.28938","category":"260","category_name":"其他","address":"嘉定区安亭镇墨玉路29号(近曹安路)"},{"poiid":"B2094750D26FA6F8469D","title":"旺池 安亭店","lon":"121.1633617","lat":"31.2886961","category":"71","category_name":"四川菜","address":"嘉定区墨玉南路1055号嘉亭荟广场4楼"},{"poiid":"B2094750D76DAAF44998","title":"新石器烤肉(嘉亭荟店)","lon":"121.163","lat":"31.2882","category":"68","category_name":"快餐厅","address":"嘉定区墨玉南路1055号嘉亭荟生活广场1楼142号商铺(近曹安公路)"},{"poiid":"B2094757DB69A5FB429F","title":"嘉亭荟","lon":"121.1611598954804","lat":"31.29087368944145","category":"500","category_name":"未知分类","address":"曹安公路墨玉路"},{"poiid":"B2094750D664A5F44898","title":"大家乐(嘉亭荟店)","lon":"121.163","lat":"31.2887","category":"68","category_name":"快餐厅","address":"嘉定区墨玉南路1055弄嘉亭荟生活广场1楼138-139号商铺(近曹安公路)"},{"poiid":"B2094757D064A7F94798","title":"新鹭大酒店中餐厅","lon":"121.17442","lat":"31.29482","category":"76","category_name":"上海菜","address":"嘉定区安亭镇昌吉路127号(近于田路)"},{"poiid":"B2094750D768A3FA4092","title":"唐之韵大酒店","lon":"121.163","lat":"31.2902","category":"76","category_name":"上海菜","address":"嘉定区安亭镇墨玉路28号(近11号地铁)"},{"poiid":"B2094757D164A0FB459F","title":"安亭 玉兰四村","lon":"121.165731289","lat":"31.2964780532","category":"500","category_name":"未知分类","address":"上海嘉定安亭玉兰四村"},{"poiid":"B2094750D769A3FC489E","title":"老妈米线(墨玉南路店)","lon":"121.163","lat":"31.2882","category":"86","category_name":"火锅店","address":"嘉定区墨玉南路1055号嘉亭荟城市生活广场2A1楼140室(近大润发超市)"},{"poiid":"B2094654D46BA2F44892","title":"紫荆四村","lon":"121.16484","lat":"31.29204","category":"47","category_name":"住宅区","address":"墨玉路63弄"},{"poiid":"B2094654D46BA0F94692","title":"龙安佳苑","lon":"121.16524","lat":"31.295946","category":"47","category_name":"住宅区","address":"上海市嘉定区昌吉路1682弄"},{"poiid":"B2094757D064ABFD4699","title":"迪欧咖啡 安亭店 DIO CAFE","lon":"121.15974841114","lat":"31.302033958359","category":"65","category_name":"咖啡厅","address":"嘉定区安亭镇和静路市民广场(和静路墨玉路)"},{"poiid":"B2094757D069ABFB4893","title":"上海二手车市场","lon":"121.166156","lat":"31.28585","category":"500","category_name":"未知分类","address":"上海墨玉南路1000号"},{"poiid":"B2094757D568ABF9489F","title":"上海国际汽车城创业园","lon":"121.17363498","lat":"31.29556288","category":"45","category_name":"产业园区","address":"中国上海市嘉定区昌吉路"},{"poiid":"B2094757D165A6F54593","title":"上海市嘉定区安亭镇镇政府","lon":"121.17084682","lat":"31.2924235148","category":"500","category_name":"未知分类","address":"上海墨玉路79号"},{"poiid":"B2094654D46BA2F44899","title":"紫荆一村","lon":"121.16667","lat":"31.29117","category":"47","category_name":"住宅区","address":"嘉定泽普路99号"},{"poiid":"B2094750D664A7FC439F","title":"麦当劳(嘉亭荟店)","lon":"121.163","lat":"31.2882","category":"68","category_name":"快餐厅","address":"嘉定区墨玉南路1055号嘉亭荟生活广场1楼141号商铺(近曹安公路)"},{"poiid":"B2094757D065A1F44399","title":"安亭汽车站","lon":"121.163819873","lat":"31.2907305088","category":"35","category_name":"长途汽车站","address":"上海墨玉路泽浦路"},{"poiid":"B2094654DB6AA4FC479D","title":"阿里巴巴土耳其敦娜烤肉安亭店","lon":"121.16709","lat":"31.29507","category":"94","category_name":"西餐厅","address":"嘉定区安亭镇昌吉路157号(安亭幼儿园对面)"},{"poiid":"B2094757D16CA7FB4492","title":"上海大众联合发展有限公司总部","lon":"121.168795","lat":"31.297298","category":"500","category_name":"未知分类","address":"上海洛浦路17号"},{"poiid":"B2094655D36CA4FD4792","title":"安亭地铁站","lon":"121.16349","lat":"31.28808","category":"36","category_name":"地铁站","address":""},{"poiid":"B2094757DA68A1F8449F","title":"汉泰东南亚风味餐厅(安亭店)","lon":"121.16259098052979","lat":"31.28860002389548","category":"99","category_name":"泰国／越南菜品餐厅","address":"嘉定区墨玉南路1055号嘉亭荟城市生活广场401-403铺"},{"poiid":"B2094757D06FA3F4409B","title":"上海大众汽车有限公司","lon":"121.16294097","lat":"31.295793533","category":"46","category_name":"楼宇","address":"上海安亭镇昌吉路188号"},{"poiid":"B2094757D06AA4F44193","title":"上海大众汽车一厂","lon":"121.168218289","lat":"31.3003356326","category":"500","category_name":"未知分类","address":"上海嘉定区安亭镇洛浦路63号"},{"poiid":"B2094757D068A2F4479D","title":"新词大酒店","lon":"121.16370824551","lat":"31.291529215577","category":"76","category_name":"上海菜","address":"嘉定区墨玉路29号(近曹安路)"},{"poiid":"B2094757D06FA1FA479C","title":"上海大众汽车","lon":"121.167815","lat":"31.299914","category":"500","category_name":"未知分类","address":"徐汇区安亭洛浦路63号"},{"poiid":"B2094654D46BA0FF4899","title":"上海国际汽车城大厦","lon":"121.172","lat":"31.2875","category":"46","category_name":"楼宇","address":"上海市嘉定区安亭镇墨玉南路888号"},{"poiid":"B2094750D26EABF8489E","title":"星巴克 (嘉亭荟店) STARBUCKS COFFEE","lon":"121.1633617","lat":"31.2886961","category":"260","category_name":"其他","address":"嘉定区墨玉南路1055号嘉亭荟生活广场内(近曹安公路)"},{"poiid":"B2094757D068A6FE439D","title":"安亭市民广场","lon":"121.16414","lat":"31.29896","category":"250","category_name":"公园户外","address":"嘉定区安亭镇墨玉路(近和静路)"},{"poiid":"B2094757D069A2FE459A","title":"安亭医院","lon":"121.16136195","lat":"31.295944036","category":"162","category_name":"医院","address":"嘉定区安亭镇昌吉路204号(昌吉路墨玉路)"},{"poiid":"B2094655D36CA4FD469C","title":"安亭镇","lon":"121.16529","lat":"31.29153","category":"38","category_name":"公交车站","address":""},{"poiid":"B2094750D769A3FB459E","title":"鲜芋仙(嘉亭荟店)","lon":"121.163","lat":"31.2882","category":"67","category_name":"甜品店","address":"嘉定区墨玉南路1055号嘉亭荟城市生活广场2楼"},{"poiid":"B2094757DB68A5F4459A","title":"必胜客(上海嘉葶荟店)","lon":"121.1633834","lat":"31.2886966","category":"94","category_name":"西餐厅","address":"嘉定区墨玉南路1055号嘉亭荟城市生活广场2楼220号铺、223号铺(近地铁11号线安亭站)"},{"poiid":"B2094654DB65A0F4409F","title":"上海大众汽车二厂","lon":"121.17913","lat":"31.29665","category":"263","category_name":"公司","address":"昌吉路82"},{"poiid":"B2094751D269A2F44399","title":"CGV国际影城(安亭店)","lon":"121.16231133862311","lat":"31.288998117584235","category":"178","category_name":"电影院","address":"嘉定区墨玉南路1055号嘉亭荟城市生活广场3楼305号(近11号线安亭汽车城站)"},{"poiid":"B2094757D16FABF8429D","title":"澳门豆捞坊","lon":"121.1636","lat":"31.29124","category":"86","category_name":"火锅店","address":"嘉定区墨玉南路1055号嘉亭荟城市生活广场2A412号铺(近安亭地铁站)"},{"poiid":"B2094750D76FAAFC4899","title":"哈根达斯(嘉亭荟店)","lon":"121.163","lat":"31.2882","category":"113","category_name":"冷饮店","address":"嘉定区墨玉南路1055号嘉亭荟城市生活广场1楼"},{"poiid":"B2094654DB65A3FE4399","title":"嘉正国际","lon":"121.16289","lat":"31.28977","category":"46","category_name":"楼宇","address":"嘉定区墨玉路28号"},{"poiid":"B2094750D76FA7FA4393","title":"望湘园(安亭店)","lon":"121.163","lat":"31.2882","category":"77","category_name":"湖南菜","address":"嘉定区墨玉南路1055号嘉亭荟广场3楼"},{"poiid":"B2094750D76DA5FB409A","title":"吉旺港式茶餐厅(嘉亭荟店)","lon":"121.163","lat":"31.2882","category":"72","category_name":"广东菜","address":"嘉定区墨玉南路1055号嘉亭荟生活广场2号A区4楼410-411号铺(近11号线安亭汽车城站)"},{"poiid":"B2094757DB68A4F8469C","title":"小南国 嘉亭荟店","lon":"121.1633834","lat":"31.2886966","category":"76","category_name":"上海菜","address":"嘉定区墨玉南路1055号嘉亭荟生活广场2楼(近地铁11号线安亭站)"},{"poiid":"B2094757DA68A1F84499","title":"Costa Coffee(安亭店)","lon":"121.16276264190674","lat":"31.288545013134225","category":"65","category_name":"咖啡厅","address":"嘉定区墨玉南路1055号嘉亭荟城市生活广场2楼202号铺(近11号线安亭汽车城站)"},{"poiid":"B2094757D065A0F5439E","title":"中泰量贩KTV","lon":"121.16429228","lat":"31.301352153","category":"170","category_name":"KTV","address":"上海市嘉定区和静路"},{"poiid":"B2094750D26CA6FD459F","title":"避风塘 嘉亭荟","lon":"121.1633834","lat":"31.2886966","category":"72","category_name":"广东菜","address":"嘉定区墨玉南路1055弄嘉亭荟生活广场1楼111号铺(近11号线安亭汽车城站)"},{"poiid":"B2094750D76FAAFD4999","title":"PANKOO釜山料理(嘉亭荟店)","lon":"121.163","lat":"31.2882","category":"96","category_name":"韩国料理","address":"嘉定区墨玉南路1055号嘉亭荟生活广场3楼328-329号铺(近11号线安亭汽车城站)"},{"poiid":"B2094750D26CABFF439E","title":"伊秀手握寿司 嘉亭荟店","lon":"121.1633834","lat":"31.2886966","category":"95","category_name":"日本料理","address":"嘉定区墨玉南路1055号嘉亭荟城市生活广场3楼(近安亭地铁站)"},{"poiid":"B2094750DA6FA1FD4698","title":"一茶一坐（安亭店）","lon":"121.16338","lat":"31.28871","category":"91","category_name":"台湾菜","address":"嘉定区墨玉南路1055号嘉亭荟城市生活广场1楼122号铺(近11号线安亭汽车城站)"},{"poiid":"B2094750D768A1FC419A","title":"赤坂亭(嘉亭荟店)","lon":"121.163","lat":"31.2882","category":"269","category_name":"烧烤","address":"嘉定区墨玉南路1055号嘉亭荟城市生活广场3楼331号铺(近安亭汽车城地铁站)"},{"poiid":"B2094654DB6AA5F54492","title":"肯德基 昌吉路店 KFC","lon":"121.164513054","lat":"31.295557793","category":"68","category_name":"快餐厅","address":"嘉定区昌吉路188号(近墨玉路)"},{"poiid":"B2094654D46BA0F8469A","title":"芙蓉新村一街坊","lon":"121.168","lat":"31.2975","category":"47","category_name":"住宅区","address":"泽普路316弄"},{"poiid":"B2094757D06AA4FF4193","title":"上岛咖啡(安亭店)","lon":"121.16403","lat":"31.28938","category":"260","category_name":"其他","address":"嘉定区安亭镇墨玉路29号(近曹安路)"},{"poiid":"B2094750D26FA6F8469D","title":"旺池 安亭店","lon":"121.1633617","lat":"31.2886961","category":"71","category_name":"四川菜","address":"嘉定区墨玉南路1055号嘉亭荟广场4楼"},{"poiid":"B2094750D76DAAF44998","title":"新石器烤肉(嘉亭荟店)","lon":"121.163","lat":"31.2882","category":"68","category_name":"快餐厅","address":"嘉定区墨玉南路1055号嘉亭荟生活广场1楼142号商铺(近曹安公路)"},{"poiid":"B2094757DB69A5FB429F","title":"嘉亭荟","lon":"121.1611598954804","lat":"31.29087368944145","category":"500","category_name":"未知分类","address":"曹安公路墨玉路"},{"poiid":"B2094750D664A5F44898","title":"大家乐(嘉亭荟店)","lon":"121.163","lat":"31.2887","category":"68","category_name":"快餐厅","address":"嘉定区墨玉南路1055弄嘉亭荟生活广场1楼138-139号商铺(近曹安公路)"},{"poiid":"B2094757D064A7F94798","title":"新鹭大酒店中餐厅","lon":"121.17442","lat":"31.29482","category":"76","category_name":"上海菜","address":"嘉定区安亭镇昌吉路127号(近于田路)"},{"poiid":"B2094750D768A3FA4092","title":"唐之韵大酒店","lon":"121.163","lat":"31.2902","category":"76","category_name":"上海菜","address":"嘉定区安亭镇墨玉路28号(近11号地铁)"},{"poiid":"B2094757D164A0FB459F","title":"安亭 玉兰四村","lon":"121.165731289","lat":"31.2964780532","category":"500","category_name":"未知分类","address":"上海嘉定安亭玉兰四村"},{"poiid":"B2094750D769A3FC489E","title":"老妈米线(墨玉南路店)","lon":"121.163","lat":"31.2882","category":"86","category_name":"火锅店","address":"嘉定区墨玉南路1055号嘉亭荟城市生活广场2A1楼140室(近大润发超市)"},{"poiid":"B2094654D46BA2F44892","title":"紫荆四村","lon":"121.16484","lat":"31.29204","category":"47","category_name":"住宅区","address":"墨玉路63弄"},{"poiid":"B2094654D46BA0F94692","title":"龙安佳苑","lon":"121.16524","lat":"31.295946","category":"47","category_name":"住宅区","address":"上海市嘉定区昌吉路1682弄"},{"poiid":"B2094757D064ABFD4699","title":"迪欧咖啡 安亭店 DIO CAFE","lon":"121.15974841114","lat":"31.302033958359","category":"65","category_name":"咖啡厅","address":"嘉定区安亭镇和静路市民广场(和静路墨玉路)"},{"poiid":"B2094757D069ABFB4893","title":"上海二手车市场","lon":"121.166156","lat":"31.28585","category":"500","category_name":"未知分类","address":"上海墨玉南路1000号"},{"poiid":"B2094757D568ABF9489F","title":"上海国际汽车城创业园","lon":"121.17363498","lat":"31.29556288","category":"45","category_name":"产业园区","address":"中国上海市嘉定区昌吉路"},{"poiid":"B2094757D165A6F54593","title":"上海市嘉定区安亭镇镇政府","lon":"121.17084682","lat":"31.2924235148","category":"500","category_name":"未知分类","address":"上海墨玉路79号"},{"poiid":"B2094654D46BA2F44899","title":"紫荆一村","lon":"121.16667","lat":"31.29117","category":"47","category_name":"住宅区","address":"嘉定泽普路99号"},{"poiid":"B2094750D664A7FC439F","title":"麦当劳(嘉亭荟店)","lon":"121.163","lat":"31.2882","category":"68","category_name":"快餐厅","address":"嘉定区墨玉南路1055号嘉亭荟生活广场1楼141号商铺(近曹安公路)"},{"poiid":"B2094757D065A1F44399","title":"安亭汽车站","lon":"121.163819873","lat":"31.2907305088","category":"35","category_name":"长途汽车站","address":"上海墨玉路泽浦路"},{"poiid":"B2094654DB6AA4FC479D","title":"阿里巴巴土耳其敦娜烤肉安亭店","lon":"121.16709","lat":"31.29507","category":"94","category_name":"西餐厅","address":"嘉定区安亭镇昌吉路157号(安亭幼儿园对面)"},{"poiid":"B2094757D16CA7FB4492","title":"上海大众联合发展有限公司总部","lon":"121.168795","lat":"31.297298","category":"500","category_name":"未知分类","address":"上海洛浦路17号"},{"poiid":"B2094655D36CA4FD4792","title":"安亭地铁站","lon":"121.16349","lat":"31.28808","category":"36","category_name":"地铁站","address":""},{"poiid":"B2094757DA68A1F8449F","title":"汉泰东南亚风味餐厅(安亭店)","lon":"121.16259098052979","lat":"31.28860002389548","category":"99","category_name":"泰国／越南菜品餐厅","address":"嘉定区墨玉南路1055号嘉亭荟城市生活广场401-403铺"},{"poiid":"B2094757D06FA3F4409B","title":"上海大众汽车有限公司","lon":"121.16294097","lat":"31.295793533","category":"46","category_name":"楼宇","address":"上海安亭镇昌吉路188号"},{"poiid":"B2094757D06AA4F44193","title":"上海大众汽车一厂","lon":"121.168218289","lat":"31.3003356326","category":"500","category_name":"未知分类","address":"上海嘉定区安亭镇洛浦路63号"},{"poiid":"B2094757D068A2F4479D","title":"新词大酒店","lon":"121.16370824551","lat":"31.291529215577","category":"76","category_name":"上海菜","address":"嘉定区墨玉路29号(近曹安路)"},{"poiid":"B2094757D06FA1FA479C","title":"上海大众汽车","lon":"121.167815","lat":"31.299914","category":"500","category_name":"未知分类","address":"徐汇区安亭洛浦路63号"},{"poiid":"B2094654D46BA0FF4899","title":"上海国际汽车城大厦","lon":"121.172","lat":"31.2875","category":"46","category_name":"楼宇","address":"上海市嘉定区安亭镇墨玉南路888号"},{"poiid":"B2094750D26EABF8489E","title":"星巴克 (嘉亭荟店) STARBUCKS COFFEE","lon":"121.1633617","lat":"31.2886961","category":"260","category_name":"其他","address":"嘉定区墨玉南路1055号嘉亭荟生活广场内(近曹安公路)"},{"poiid":"B2094757D068A6FE439D","title":"安亭市民广场","lon":"121.16414","lat":"31.29896","category":"250","category_name":"公园户外","address":"嘉定区安亭镇墨玉路(近和静路)"},{"poiid":"B2094757D069A2FE459A","title":"安亭医院","lon":"121.16136195","lat":"31.295944036","category":"162","category_name":"医院","address":"嘉定区安亭镇昌吉路204号(昌吉路墨玉路)"},{"poiid":"B2094655D36CA4FD469C","title":"安亭镇","lon":"121.16529","lat":"31.29153","category":"38","category_name":"公交车站","address":""},{"poiid":"B2094750D769A3FB459E","title":"鲜芋仙(嘉亭荟店)","lon":"121.163","lat":"31.2882","category":"67","category_name":"甜品店","address":"嘉定区墨玉南路1055号嘉亭荟城市生活广场2楼"},{"poiid":"B2094757DB68A5F4459A","title":"必胜客(上海嘉葶荟店)","lon":"121.1633834","lat":"31.2886966","category":"94","category_name":"西餐厅","address":"嘉定区墨玉南路1055号嘉亭荟城市生活广场2楼220号铺、223号铺(近地铁11号线安亭站)"},{"poiid":"B2094654DB65A0F4409F","title":"上海大众汽车二厂","lon":"121.17913","lat":"31.29665","category":"263","category_name":"公司","address":"昌吉路82"},{"poiid":"B2094751D269A2F44399","title":"CGV国际影城(安亭店)","lon":"121.16231133862311","lat":"31.288998117584235","category":"178","category_name":"电影院","address":"嘉定区墨玉南路1055号嘉亭荟城市生活广场3楼305号(近11号线安亭汽车城站)"},{"poiid":"B2094757D16FABF8429D","title":"澳门豆捞坊","lon":"121.1636","lat":"31.29124","category":"86","category_name":"火锅店","address":"嘉定区墨玉南路1055号嘉亭荟城市生活广场2A412号铺(近安亭地铁站)"},{"poiid":"B2094750D76FAAFC4899","title":"哈根达斯(嘉亭荟店)","lon":"121.163","lat":"31.2882","category":"113","category_name":"冷饮店","address":"嘉定区墨玉南路1055号嘉亭荟城市生活广场1楼"},{"poiid":"B2094654DB65A3FE4399","title":"嘉正国际","lon":"121.16289","lat":"31.28977","category":"46","category_name":"楼宇","address":"嘉定区墨玉路28号"},{"poiid":"B2094750D76FA7FA4393","title":"望湘园(安亭店)","lon":"121.163","lat":"31.2882","category":"77","category_name":"湖南菜","address":"嘉定区墨玉南路1055号嘉亭荟广场3楼"},{"poiid":"B2094750D76DA5FB409A","title":"吉旺港式茶餐厅(嘉亭荟店)","lon":"121.163","lat":"31.2882","category":"72","category_name":"广东菜","address":"嘉定区墨玉南路1055号嘉亭荟生活广场2号A区4楼410-411号铺(近11号线安亭汽车城站)"},{"poiid":"B2094757DB68A4F8469C","title":"小南国 嘉亭荟店","lon":"121.1633834","lat":"31.2886966","category":"76","category_name":"上海菜","address":"嘉定区墨玉南路1055号嘉亭荟生活广场2楼(近地铁11号线安亭站)"},{"poiid":"B2094757DA68A1F84499","title":"Costa Coffee(安亭店)","lon":"121.16276264190674","lat":"31.288545013134225","category":"65","category_name":"咖啡厅","address":"嘉定区墨玉南路1055号嘉亭荟城市生活广场2楼202号铺(近11号线安亭汽车城站)"},{"poiid":"B2094757D065A0F5439E","title":"中泰量贩KTV","lon":"121.16429228","lat":"31.301352153","category":"170","category_name":"KTV","address":"上海市嘉定区和静路"},{"poiid":"B2094750D26CA6FD459F","title":"避风塘 嘉亭荟","lon":"121.1633834","lat":"31.2886966","category":"72","category_name":"广东菜","address":"嘉定区墨玉南路1055弄嘉亭荟生活广场1楼111号铺(近11号线安亭汽车城站)"},{"poiid":"B2094750D76FAAFD4999","title":"PANKOO釜山料理(嘉亭荟店)","lon":"121.163","lat":"31.2882","category":"96","category_name":"韩国料理","address":"嘉定区墨玉南路1055号嘉亭荟生活广场3楼328-329号铺(近11号线安亭汽车城站)"},{"poiid":"B2094750D26CABFF439E","title":"伊秀手握寿司 嘉亭荟店","lon":"121.1633834","lat":"31.2886966","category":"95","category_name":"日本料理","address":"嘉定区墨玉南路1055号嘉亭荟城市生活广场3楼(近安亭地铁站)"},{"poiid":"B2094750DA6FA1FD4698","title":"一茶一坐（安亭店）","lon":"121.16338","lat":"31.28871","category":"91","category_name":"台湾菜","address":"嘉定区墨玉南路1055号嘉亭荟城市生活广场1楼122号铺(近11号线安亭汽车城站)"},{"poiid":"B2094750D768A1FC419A","title":"赤坂亭(嘉亭荟店)","lon":"121.163","lat":"31.2882","category":"269","category_name":"烧烤","address":"嘉定区墨玉南路1055号嘉亭荟城市生活广场3楼331号铺(近安亭汽车城地铁站)"},{"poiid":"B2094654DB6AA5F54492","title":"肯德基 昌吉路店 KFC","lon":"121.164513054","lat":"31.295557793","category":"68","category_name":"快餐厅","address":"嘉定区昌吉路188号(近墨玉路)"},{"poiid":"B2094654D46BA0F8469A","title":"芙蓉新村一街坊","lon":"121.168","lat":"31.2975","category":"47","category_name":"住宅区","address":"泽普路316弄"},{"poiid":"B2094757D06AA4FF4193","title":"上岛咖啡(安亭店)","lon":"121.16403","lat":"31.28938","category":"260","category_name":"其他","address":"嘉定区安亭镇墨玉路29号(近曹安路)"},{"poiid":"B2094750D26FA6F8469D","title":"旺池 安亭店","lon":"121.1633617","lat":"31.2886961","category":"71","category_name":"四川菜","address":"嘉定区墨玉南路1055号嘉亭荟广场4楼"},{"poiid":"B2094750D76DAAF44998","title":"新石器烤肉(嘉亭荟店)","lon":"121.163","lat":"31.2882","category":"68","category_name":"快餐厅","address":"嘉定区墨玉南路1055号嘉亭荟生活广场1楼142号商铺(近曹安公路)"},{"poiid":"B2094757DB69A5FB429F","title":"嘉亭荟","lon":"121.1611598954804","lat":"31.29087368944145","category":"500","category_name":"未知分类","address":"曹安公路墨玉路"},{"poiid":"B2094750D664A5F44898","title":"大家乐(嘉亭荟店)","lon":"121.163","lat":"31.2887","category":"68","category_name":"快餐厅","address":"嘉定区墨玉南路1055弄嘉亭荟生活广场1楼138-139号商铺(近曹安公路)"},{"poiid":"B2094757D064A7F94798","title":"新鹭大酒店中餐厅","lon":"121.17442","lat":"31.29482","category":"76","category_name":"上海菜","address":"嘉定区安亭镇昌吉路127号(近于田路)"},{"poiid":"B2094750D768A3FA4092","title":"唐之韵大酒店","lon":"121.163","lat":"31.2902","category":"76","category_name":"上海菜","address":"嘉定区安亭镇墨玉路28号(近11号地铁)"},{"poiid":"B2094757D164A0FB459F","title":"安亭 玉兰四村","lon":"121.165731289","lat":"31.2964780532","category":"500","category_name":"未知分类","address":"上海嘉定安亭玉兰四村"},{"poiid":"B2094750D769A3FC489E","title":"老妈米线(墨玉南路店)","lon":"121.163","lat":"31.2882","category":"86","category_name":"火锅店","address":"嘉定区墨玉南路1055号嘉亭荟城市生活广场2A1楼140室(近大润发超市)"},{"poiid":"B2094654D46BA2F44892","title":"紫荆四村","lon":"121.16484","lat":"31.29204","category":"47","category_name":"住宅区","address":"墨玉路63弄"},{"poiid":"B2094654D46BA0F94692","title":"龙安佳苑","lon":"121.16524","lat":"31.295946","category":"47","category_name":"住宅区","address":"上海市嘉定区昌吉路1682弄"},{"poiid":"B2094757D064ABFD4699","title":"迪欧咖啡 安亭店 DIO CAFE","lon":"121.15974841114","lat":"31.302033958359","category":"65","category_name":"咖啡厅","address":"嘉定区安亭镇和静路市民广场(和静路墨玉路)"},{"poiid":"B2094757D069ABFB4893","title":"上海二手车市场","lon":"121.166156","lat":"31.28585","category":"500","category_name":"未知分类","address":"上海墨玉南路1000号"},{"poiid":"B2094757D568ABF9489F","title":"上海国际汽车城创业园","lon":"121.17363498","lat":"31.29556288","category":"45","category_name":"产业园区","address":"中国上海市嘉定区昌吉路"},{"poiid":"B2094757D165A6F54593","title":"上海市嘉定区安亭镇镇政府","lon":"121.17084682","lat":"31.2924235148","category":"500","category_name":"未知分类","address":"上海墨玉路79号"},{"poiid":"B2094654D46BA2F44899","title":"紫荆一村","lon":"121.16667","lat":"31.29117","category":"47","category_name":"住宅区","address":"嘉定泽普路99号"},{"poiid":"B2094750D664A7FC439F","title":"麦当劳(嘉亭荟店)","lon":"121.163","lat":"31.2882","category":"68","category_name":"快餐厅","address":"嘉定区墨玉南路1055号嘉亭荟生活广场1楼141号商铺(近曹安公路)"},{"poiid":"B2094757D065A1F44399","title":"安亭汽车站","lon":"121.163819873","lat":"31.2907305088","category":"35","category_name":"长途汽车站","address":"上海墨玉路泽浦路"},{"poiid":"B2094654DB6AA4FC479D","title":"阿里巴巴土耳其敦娜烤肉安亭店","lon":"121.16709","lat":"31.29507","category":"94","category_name":"西餐厅","address":"嘉定区安亭镇昌吉路157号(安亭幼儿园对面)"},{"poiid":"B2094757D16CA7FB4492","title":"上海大众联合发展有限公司总部","lon":"121.168795","lat":"31.297298","category":"500","category_name":"未知分类","address":"上海洛浦路17号"}]