[{"poiid":"B2094655D36CA7FD449D","title":"花木","lon":"121.54541","lat":"31.20232","category":"38","category_name":"公交车站","address":""},{"poiid":"B2094757D06FAAFC489A","title":"东昌别克上海陆家嘴店","lon":"121.5433428","lat":"31.2050985","category":"158","category_name":"汽车销售","address":"上海浦东新区浦建路1281-1285号"},{"poiid":"B2094757D06BA5FD409D","title":"建平世纪中学","lon":"121.54689","lat":"31.20865","category":"55","category_name":"中学","address":"浦东新区玉兰路356号(梅花路口)"},{"poiid":"B2094757D06BA1F8439F","title":"花木社区文化中心","lon":"121.54376973","lat":"31.20864984","category":"500","category_name":"未知分类","address":"上海市浦东新区梅花路281号"},{"poiid":"B2094654DA69A2F8499C","title":"上海大众汽车东昌销售服务有限公司","lon":"121.54382","lat":"31.20529","category":"158","category_name":"汽车销售","address":"浦东新区浦建路1289号(近樱花路)"},{"poiid":"B2094750D36BA5FC4499","title":"极乐汤碧云温泉馆","lon":"121.600574","lat":"31.250259","category":"250","category_name":"公园户外","address":"上海市新金桥路600号（靠近金藏路）"},{"poiid":"B2094757D06AA5F44392","title":"上海东昌一汽丰田特约店","lon":"121.544039","lat":"31.204762","category":"500","category_name":"未知分类","address":"上海浦建路1317号"},{"poiid":"B2094655D265A2FE429F","title":"花木玉兰广场","lon":"121.54754","lat":"31.20687","category":"201","category_name":"城市广场","address":""},{"poiid":"B2094750D669A2FF409B","title":"大饭堂花木店","lon":"121.543617","lat":"31.206312","category":"76","category_name":"上海菜","address":"浦东新区浦建路1207号(近锦绣路)"},{"poiid":"B2094757D064A5F4439C","title":"东城新村","lon":"121.545023959","lat":"31.2015203635","category":"47","category_name":"住宅区","address":"上海市浦东新区锦绣路"},{"poiid":"B2094752D269A2FD4298","title":"大饭堂","lon":"121.54233","lat":"31.205898","category":"247","category_name":"餐饮美食","address":"浦建路"},{"poiid":"B2094757D068A5FD469C","title":"绍兴饭店(牡丹路店)","lon":"121.54452","lat":"31.20521","category":"75","category_name":"浙江菜","address":"上海浦东新区牡丹路60号(近浦建路)  "},{"poiid":"B2094757D06AA7FE429B","title":"金色港湾","lon":"121.542232682","lat":"31.2024024111","category":"76","category_name":"上海菜","address":"浦东新区东建路800号(近锦安东路)"},{"poiid":"B2094757D16CABF54792","title":"多凌茶楼","lon":"121.5445","lat":"31.20532","category":"72","category_name":"广东菜","address":"浦东新区牡丹路60号东辰大厦22楼(牡丹路浦建路)"},{"poiid":"B2094757DA69A2FB4192","title":"永恒之塔游戏官博","lon":"121.54775","lat":"31.20623","category":"634","category_name":"IT类公司","address":"上海市碧波路690号"},{"poiid":"B2094757D469A5F9499A","title":"凯司令西点房 东建路店","lon":"121.5436339","lat":"31.2041368","category":"67","category_name":"甜品店","address":"浦东新区东建路927-2号(近浦建路)"},{"poiid":"B2094655D268A3FC429B","title":"花木派出所","lon":"121.54245","lat":"31.20351","category":"609","category_name":"警察局","address":"浦建路1207"},{"poiid":"B2094654DA69A2F84193","title":"克莉丝汀 玉兰店","lon":"121.544663054","lat":"31.206323793","category":"112","category_name":"糕饼店","address":"浦东新区牡丹路147号(近浦建路)"},{"poiid":"B2094757D468A5F54899","title":"湖南风味米粉 牡丹路店","lon":"121.543837","lat":"31.205842","category":"68","category_name":"快餐厅","address":"浦东新区花木镇牡丹路117号"},{"poiid":"B2094655D36DA0FB449F","title":"樱花路浦建路","lon":"121.54497","lat":"31.20613","category":"38","category_name":"公交车站","address":""},{"poiid":"B2094752D36CA4F94198","title":"上海外滩","lon":"121.5427777","lat":"31.2041992","category":"500","category_name":"未知分类","address":null},{"poiid":"B2094655D26AA7FD4099","title":"格林豪泰酒店浦建路店","lon":"121.54429","lat":"31.20257","category":"247","category_name":"餐饮美食","address":"上海市浦东新区浦建路1352号（近东建路）"},{"poiid":"B2094655D26FAAFE4893","title":"东辰大厦(北一号门)","lon":"121.54441","lat":"31.20571","category":"49","category_name":"无中心点楼宇大门","address":"牡丹路60号"},{"poiid":"B2094757D164A1FB409E","title":"超级奶爸(花木店)","lon":"121.544778943","lat":"31.2033740356","category":"113","category_name":"冷饮店","address":"浦东新区东建路921号(近浦建路)"},{"poiid":"B2094654DA69A2F84998","title":"罗森超市","lon":"121.54467","lat":"31.20579","category":"117","category_name":"便民商店/便利店","address":"牡丹路60号东辰大厦1层"},{"poiid":"B2094757DA69A3F5499F","title":"卓美亚喜玛拉雅酒店","lon":"121.54775","lat":"31.20623","category":"604","category_name":"旅游咨询","address":"梅花路1108号(近芳甸路)"},{"poiid":"B2094757DA69A2FA459C","title":"citysuperSH","lon":"121.54775","lat":"31.20623","category":"119","category_name":"商场","address":"世纪大道 国金中心 LG2"},{"poiid":"B2094757D168ABFB449C","title":"浦建路锦绣路大桥六线公交车站","lon":"121.546001738","lat":"31.2052187673","category":"38","category_name":"公交车站","address":"上海浦建路锦绣路"},{"poiid":"B2094654DB64A7F9429E","title":"锦江大厨","lon":"121.54091","lat":"31.20739","category":"76","category_name":"上海菜","address":"浦东新区浦建路1121号(锦绣路口)"},{"poiid":"B2094757D064ABF5489F","title":"北京现代4s 东昌店","lon":"121.546502","lat":"31.202044","category":"500","category_name":"未知分类","address":"上海浦建路1509号"},{"poiid":"B2094654DA69A2F8429A","title":"永琪美容美发(牡丹路)","lon":"121.54547","lat":"31.20651","category":"148","category_name":"美容美发店","address":"牡丹路131"},{"poiid":"B2094757D164ABF8429C","title":"如家快捷酒店餐厅(世纪公园店)","lon":"121.54094","lat":"31.20593","category":"76","category_name":"上海菜","address":"浦东新区浦建路1151号(锦绣路浦建路)"},{"poiid":"B2094655D264A2FA469A","title":"潮州汤骨煲 玉兰路店","lon":"121.54633","lat":"31.20763","category":"86","category_name":"火锅店","address":"浦东新区玉兰路303号(近梅花路)"},{"poiid":"B2094757D164A4F84092","title":"浦建路牡丹路","lon":"121.54534373","lat":"31.205896781","category":"500","category_name":"未知分类","address":"上海市浦东新区牡丹路"},{"poiid":"B2094757D66DA5F9469B","title":"香粤粥铺","lon":"121.54361873","lat":"31.205082764","category":"247","category_name":"餐饮美食","address":"上海浦东新区浦东南路595弄8号104室"},{"poiid":"B2094655D26FAAFA4099","title":"东港乐特色快餐No.72","lon":"121.54504","lat":"31.20632","category":"68","category_name":"快餐厅","address":"浦东新区牡丹路106号(近玉兰路)"},{"poiid":"B2094655D268A4F4459E","title":"上海大众汽车特约维修站","lon":"121.54412","lat":"31.20603","category":"159","category_name":"汽车维修","address":""},{"poiid":"B2094757DA69A3F44799","title":"龙之谷官方微博","lon":"121.54775","lat":"31.20623","category":"634","category_name":"IT类公司","address":"碧波路690号1号楼"},{"poiid":"B2094655D26EA3FF429C","title":"牡丹苑","lon":"121.54291","lat":"31.206867","category":"47","category_name":"住宅区","address":"牡丹路89弄"},{"poiid":"B2094655D26FAAF9499F","title":"牡丹路186弄小区(南大门)","lon":"121.5464","lat":"31.20553","category":"47","category_name":"住宅区","address":"樱花路"},{"poiid":"B2094654DA68A4FD4593","title":"永琪美容美发(东建路)","lon":"121.54286","lat":"31.20394","category":"148","category_name":"美容美发店","address":"浦东新区东建路(锦安东路口)"},{"poiid":"B2094757DA69A3F4429A","title":"1号店","lon":"121.54775","lat":"31.20623","category":"630","category_name":"电子商务公司","address":"祖冲之路295号"},{"poiid":"B2094655D26FAAF9499D","title":"牡丹路186弄小区","lon":"121.546","lat":"31.20602","category":"47","category_name":"住宅区","address":"樱花路"},{"poiid":"B2094655D26DA6F54792","title":"上海东昌丰田汽车销售服务有限公司","lon":"121.54423","lat":"31.20499","category":"158","category_name":"汽车销售","address":"浦东新区浦建路1317号(近樱花路)"},{"poiid":"B2094654DB69AAF9479F","title":"浦东新区花木镇花木街道","lon":"121.54775","lat":"31.20623","category":"116","category_name":"特色商业街","address":"浦东新区玉兰路218号"},{"poiid":"B2094757D06AA7FA479D","title":"公交746牡丹路玉兰路站","lon":"121.546605138","lat":"31.2042067457","category":"38","category_name":"公交车站","address":"上海牡丹路玉兰路站（靠近克莉丝汀）"},{"poiid":"B2094655D26FAAF94993","title":"牡丹路186弄小区(北一号门)","lon":"121.54591","lat":"31.20634","category":"47","category_name":"住宅区","address":"牡丹路186弄"},{"poiid":"B2094654DA69A2F8439D","title":"牡丹苑(东门)","lon":"121.54406","lat":"31.2068","category":"47","category_name":"住宅区","address":"牡丹路89弄"},{"poiid":"B2094757D069A4FF499C","title":"上海大众汽车东昌销售有限公司","lon":"121.543181","lat":"31.205758","category":"500","category_name":"未知分类","address":"上海浦建路1281号"},{"poiid":"B2094757D168A2F4479B","title":"湘一品土家菜","lon":"121.54181865","lat":"31.204836579","category":"77","category_name":"湖南菜","address":"浦东新区锦安东路128号(近锦绣路)"},{"poiid":"B2094655D36CA7FD449D","title":"花木","lon":"121.54541","lat":"31.20232","category":"38","category_name":"公交车站","address":""},{"poiid":"B2094757D06FAAFC489A","title":"东昌别克上海陆家嘴店","lon":"121.5433428","lat":"31.2050985","category":"158","category_name":"汽车销售","address":"上海浦东新区浦建路1281-1285号"},{"poiid":"B2094757D06BA5FD409D","title":"建平世纪中学","lon":"121.54689","lat":"31.20865","category":"55","category_name":"中学","address":"浦东新区玉兰路356号(梅花路口)"},{"poiid":"B2094757D06BA1F8439F","title":"花木社区文化中心","lon":"121.54376973","lat":"31.20864984","category":"500","category_name":"未知分类","address":"上海市浦东新区梅花路281号"},{"poiid":"B2094654DA69A2F8499C","title":"上海大众汽车东昌销售服务有限公司","lon":"121.54382","lat":"31.20529","category":"158","category_name":"汽车销售","address":"浦东新区浦建路1289号(近樱花路)"},{"poiid":"B2094750D36BA5FC4499","title":"极乐汤碧云温泉馆","lon":"121.600574","lat":"31.250259","category":"250","category_name":"公园户外","address":"上海市新金桥路600号（靠近金藏路）"},{"poiid":"B2094757D06AA5F44392","title":"上海东昌一汽丰田特约店","lon":"121.544039","lat":"31.204762","category":"500","category_name":"未知分类","address":"上海浦建路1317号"},{"poiid":"B2094655D265A2FE429F","title":"花木玉兰广场","lon":"121.54754","lat":"31.20687","category":"201","category_name":"城市广场","address":""},{"poiid":"B2094750D669A2FF409B","title":"大饭堂花木店","lon":"121.543617","lat":"31.206312","category":"76","category_name":"上海菜","address":"浦东新区浦建路1207号(近锦绣路)"},{"poiid":"B2094757D064A5F4439C","title":"东城新村","lon":"121.545023959","lat":"31.2015203635","category":"47","category_name":"住宅区","address":"上海市浦东新区锦绣路"},{"poiid":"B2094752D269A2FD4298","title":"大饭堂","lon":"121.54233","lat":"31.205898","category":"247","category_name":"餐饮美食","address":"浦建路"},{"poiid":"B2094757D068A5FD469C","title":"绍兴饭店(牡丹路店)","lon":"121.54452","lat":"31.20521","category":"75","category_name":"浙江菜","address":"上海浦东新区牡丹路60号(近浦建路)  "},{"poiid":"B2094757D06AA7FE429B","title":"金色港湾","lon":"121.542232682","lat":"31.2024024111","category":"76","category_name":"上海菜","address":"浦东新区东建路800号(近锦安东路)"},{"poiid":"B2094757D16CABF54792","title":"多凌茶楼","lon":"121.5445","lat":"31.20532","category":"72","category_name":"广东菜","address":"浦东新区牡丹路60号东辰大厦22楼(牡丹路浦建路)"},{"poiid":"B2094757DA69A2FB4192","title":"永恒之塔游戏官博","lon":"121.54775","lat":"31.20623","category":"634","category_name":"IT类公司","address":"上海市碧波路690号"},{"poiid":"B2094757D469A5F9499A","title":"凯司令西点房 东建路店","lon":"121.5436339","lat":"31.2041368","category":"67","category_name":"甜品店","address":"浦东新区东建路927-2号(近浦建路)"},{"poiid":"B2094655D268A3FC429B","title":"花木派出所","lon":"121.54245","lat":"31.20351","category":"609","category_name":"警察局","address":"浦建路1207"},{"poiid":"B2094654DA69A2F84193","title":"克莉丝汀 玉兰店","lon":"121.544663054","lat":"31.206323793","category":"112","category_name":"糕饼店","address":"浦东新区牡丹路147号(近浦建路)"},{"poiid":"B2094757D468A5F54899","title":"湖南风味米粉 牡丹路店","lon":"121.543837","lat":"31.205842","category":"68","category_name":"快餐厅","address":"浦东新区花木镇牡丹路117号"},{"poiid":"B2094655D36DA0FB449F","title":"樱花路浦建路","lon":"121.54497","lat":"31.20613","category":"38","category_name":"公交车站","address":""},{"poiid":"B2094752D36CA4F94198","title":"上海外滩","lon":"121.5427777","lat":"31.2041992","category":"500","category_name":"未知分类","address":null},{"poiid":"B2094655D26AA7FD4099","title":"格林豪泰酒店浦建路店","lon":"121.54429","lat":"31.20257","category":"247","category_name":"餐饮美食","address":"上海市浦东新区浦建路1352号（近东建路）"},{"poiid":"B2094655D26FAAFE4893","title":"东辰大厦(北一号门)","lon":"121.54441","lat":"31.20571","category":"49","category_name":"无中心点楼宇大门","address":"牡丹路60号"},{"poiid":"B2094757D164A1FB409E","title":"超级奶爸(花木店)","lon":"121.544778943","lat":"31.2033740356","category":"113","category_name":"冷饮店","address":"浦东新区东建路921号(近浦建路)"},{"poiid":"B2094654DA69A2F84998","title":"罗森超市","lon":"121.54467","lat":"31.20579","category":"117","category_name":"便民商店/便利店","address":"牡丹路60号东辰大厦1层"},{"poiid":"B2094757DA69A3F5499F","title":"卓美亚喜玛拉雅酒店","lon":"121.54775","lat":"31.20623","category":"604","category_name":"旅游咨询","address":"梅花路1108号(近芳甸路)"},{"poiid":"B2094757DA69A2FA459C","title":"citysuperSH","lon":"121.54775","lat":"31.20623","category":"119","category_name":"商场","address":"世纪大道 国金中心 LG2"},{"poiid":"B2094757D168ABFB449C","title":"浦建路锦绣路大桥六线公交车站","lon":"121.546001738","lat":"31.2052187673","category":"38","category_name":"公交车站","address":"上海浦建路锦绣路"},{"poiid":"B2094654DB64A7F9429E","title":"锦江大厨","lon":"121.54091","lat":"31.20739","category":"76","category_name":"上海菜","address":"浦东新区浦建路1121号(锦绣路口)"},{"poiid":"B2094757D064ABF5489F","title":"北京现代4s 东昌店","lon":"121.546502","lat":"31.202044","category":"500","category_name":"未知分类","address":"上海浦建路1509号"},{"poiid":"B2094654DA69A2F8429A","title":"永琪美容美发(牡丹路)","lon":"121.54547","lat":"31.20651","category":"148","category_name":"美容美发店","address":"牡丹路131"},{"poiid":"B2094757D164ABF8429C","title":"如家快捷酒店餐厅(世纪公园店)","lon":"121.54094","lat":"31.20593","category":"76","category_name":"上海菜","address":"浦东新区浦建路1151号(锦绣路浦建路)"},{"poiid":"B2094655D264A2FA469A","title":"潮州汤骨煲 玉兰路店","lon":"121.54633","lat":"31.20763","category":"86","category_name":"火锅店","address":"浦东新区玉兰路303号(近梅花路)"},{"poiid":"B2094757D164A4F84092","title":"浦建路牡丹路","lon":"121.54534373","lat":"31.205896781","category":"500","category_name":"未知分类","address":"上海市浦东新区牡丹路"},{"poiid":"B2094757D66DA5F9469B","title":"香粤粥铺","lon":"121.54361873","lat":"31.205082764","category":"247","category_name":"餐饮美食","address":"上海浦东新区浦东南路595弄8号104室"},{"poiid":"B2094655D26FAAFA4099","title":"东港乐特色快餐No.72","lon":"121.54504","lat":"31.20632","category":"68","category_name":"快餐厅","address":"浦东新区牡丹路106号(近玉兰路)"},{"poiid":"B2094655D268A4F4459E","title":"上海大众汽车特约维修站","lon":"121.54412","lat":"31.20603","category":"159","category_name":"汽车维修","address":""},{"poiid":"B2094757DA69A3F44799","title":"龙之谷官方微博","lon":"121.54775","lat":"31.20623","category":"634","category_name":"IT类公司","address":"碧波路690号1号楼"},{"poiid":"B2094655D26EA3FF429C","title":"牡丹苑","lon":"121.54291","lat":"31.206867","category":"47","category_name":"住宅区","address":"牡丹路89弄"},{"poiid":"B2094655D26FAAF9499F","title":"牡丹路186弄小区(南大门)","lon":"121.5464","lat":"31.20553","category":"47","category_name":"住宅区","address":"樱花路"},{"poiid":"B2094654DA68A4FD4593","title":"永琪美容美发(东建路)","lon":"121.54286","lat":"31.20394","category":"148","category_name":"美容美发店","address":"浦东新区东建路(锦安东路口)"},{"poiid":"B2094757DA69A3F4429A","title":"1号店","lon":"121.54775","lat":"31.20623","category":"630","category_name":"电子商务公司","address":"祖冲之路295号"},{"poiid":"B2094655D26FAAF9499D","title":"牡丹路186弄小区","lon":"121.546","lat":"31.20602","category":"47","category_name":"住宅区","address":"樱花路"},{"poiid":"B2094655D26DA6F54792","title":"上海东昌丰田汽车销售服务有限公司","lon":"121.54423","lat":"31.20499","category":"158","category_name":"汽车销售","address":"浦东新区浦建路1317号(近樱花路)"},{"poiid":"B2094654DB69AAF9479F","title":"浦东新区花木镇花木街道","lon":"121.54775","lat":"31.20623","category":"116","category_name":"特色商业街","address":"浦东新区玉兰路218号"},{"poiid":"B2094757D06AA7FA479D","title":"公交746牡丹路玉兰路站","lon":"121.546605138","lat":"31.2042067457","category":"38","category_name":"公交车站","address":"上海牡丹路玉兰路站（靠近克莉丝汀）"},{"poiid":"B2094655D26FAAF94993","title":"牡丹路186弄小区(北一号门)","lon":"121.54591","lat":"31.20634","category":"47","category_name":"住宅区","address":"牡丹路186弄"},{"poiid":"B2094654DA69A2F8439D","title":"牡丹苑(东门)","lon":"121.54406","lat":"31.2068","category":"47","category_name":"住宅区","address":"牡丹路89弄"},{"poiid":"B2094757D069A4FF499C","title":"上海大众汽车东昌销售有限公司","lon":"121.543181","lat":"31.205758","category":"500","category_name":"未知分类","address":"上海浦建路1281号"},{"poiid":"B2094757D168A2F4479B","title":"湘一品土家菜","lon":"121.54181865","lat":"31.204836579","category":"77","category_name":"湖南菜","address":"浦东新区锦安东路128号(近锦绣路)"},{"poiid":"B2094655D36CA7FD449D","title":"花木","lon":"121.54541","lat":"31.20232","category":"38","category_name":"公交车站","address":""},{"poiid":"B2094757D06FAAFC489A","title":"东昌别克上海陆家嘴店","lon":"121.5433428","lat":"31.2050985","category":"158","category_name":"汽车销售","address":"上海浦东新区浦建路1281-1285号"},{"poiid":"B2094757D06BA5FD409D","title":"建平世纪中学","lon":"121.54689","lat":"31.20865","category":"55","category_name":"中学","address":"浦东新区玉兰路356号(梅花路口)"},{"poiid":"B2094757D06BA1F8439F","title":"花木社区文化中心","lon":"121.54376973","lat":"31.20864984","category":"500","category_name":"未知分类","address":"上海市浦东新区梅花路281号"},{"poiid":"B2094654DA69A2F8499C","title":"上海大众汽车东昌销售服务有限公司","lon":"121.54382","lat":"31.20529","category":"158","category_name":"汽车销售","address":"浦东新区浦建路1289号(近樱花路)"},{"poiid":"B2094750D36BA5FC4499","title":"极乐汤碧云温泉馆","lon":"121.600574","lat":"31.250259","category":"250","category_name":"公园户外","address":"上海市新金桥路600号（靠近金藏路）"},{"poiid":"B2094757D06AA5F44392","title":"上海东昌一汽丰田特约店","lon":"121.544039","lat":"31.204762","category":"500","category_name":"未知分类","address":"上海浦建路1317号"},{"poiid":"B2094655D265A2FE429F","title":"花木玉兰广场","lon":"121.54754","lat":"31.20687","category":"201","category_name":"城市广场","address":""},{"poiid":"B2094750D669A2FF409B","title":"大饭堂花木店","lon":"121.543617","lat":"31.206312","category":"76","category_name":"上海菜","address":"浦东新区浦建路1207号(近锦绣路)"},{"poiid":"B2094757D064A5F4439C","title":"东城新村","lon":"121.545023959","lat":"31.2015203635","category":"47","category_name":"住宅区","address":"上海市浦东新区锦绣路"},{"poiid":"B2094752D269A2FD4298","title":"大饭堂","lon":"121.54233","lat":"31.205898","category":"247","category_name":"餐饮美食","address":"浦建路"},{"poiid":"B2094757D068A5FD469C","title":"绍兴饭店(牡丹路店)","lon":"121.54452","lat":"31.20521","category":"75","category_name":"浙江菜","address":"上海浦东新区牡丹路60号(近浦建路)  "},{"poiid":"B2094757D06AA7FE429B","title":"金色港湾","lon":"121.542232682","lat":"31.2024024111","category":"76","category_name":"上海菜","address":"浦东新区东建路800号(近锦安东路)"},{"poiid":"B2094757D16CABF54792","title":"多凌茶楼","lon":"121.5445","lat":"31.20532","category":"72","category_name":"广东菜","address":"浦东新区牡丹路60号东辰大厦22楼(牡丹路浦建路)"},{"poiid":"B2094757DA69A2FB4192","title":"永恒之塔游戏官博","lon":"121.54775","lat":"31.20623","category":"634","category_name":"IT类公司","address":"上海市碧波路690号"},{"poiid":"B2094757D469A5F9499A","title":"凯司令西点房 东建路店","lon":"121.5436339","lat":"31.2041368","category":"67","category_name":"甜品店","address":"浦东新区东建路927-2号(近浦建路)"},{"poiid":"B2094655D268A3FC429B","title":"花木派出所","lon":"121.54245","lat":"31.20351","category":"609","category_name":"警察局","address":"浦建路1207"},{"poiid":"B2094654DA69A2F84193","title":"克莉丝汀 玉兰店","lon":"121.544663054","lat":"31.206323793","category":"112","category_name":"糕饼店","address":"浦东新区牡丹路147号(近浦建路)"},{"poiid":"B2094757D468A5F54899","title":"湖南风味米粉 牡丹路店","lon":"121.543837","lat":"31.205842","category":"68","category_name":"快餐厅","address":"浦东新区花木镇牡丹路117号"},{"poiid":"B2094655D36DA0FB449F","title":"樱花路浦建路","lon":"121.54497","lat":"31.20613","category":"38","category_name":"公交车站","address":""},{"poiid":"B2094752D36CA4F94198","title":"上海外滩","lon":"121.5427777","lat":"31.2041992","category":"500","category_name":"未知分类","address":null},{"poiid":"B2094655D26AA7FD4099","title":"格林豪泰酒店浦建路店","lon":"121.54429","lat":"31.20257","category":"247","category_name":"餐饮美食","address":"上海市浦东新区浦建路1352号（近东建路）"},{"poiid":"B2094655D26FAAFE4893","title":"东辰大厦(北一号门)","lon":"121.54441","lat":"31.20571","category":"49","category_name":"无中心点楼宇大门","address":"牡丹路60号"},{"poiid":"B2094757D164A1FB409E","title":"超级奶爸(花木店)","lon":"121.544778943","lat":"31.2033740356","category":"113","category_name":"冷饮店","address":"浦东新区东建路921号(近浦建路)"},{"poiid":"B2094654DA69A2F84998","title":"罗森超市","lon":"121.54467","lat":"31.20579","category":"117","category_name":"便民商店/便利店","address":"牡丹路60号东辰大厦1层"},{"poiid":"B2094757DA69A3F5499F","title":"卓美亚喜玛拉雅酒店","lon":"121.54775","lat":"31.20623","category":"604","category_name":"旅游咨询","address":"梅花路1108号(近芳甸路)"},{"poiid":"B2094757DA69A2FA459C","title":"citysuperSH","lon":"121.54775","lat":"31.20623","category":"119","category_name":"商场","address":"世纪大道 国金中心 LG2"},{"poiid":"B2094757D168ABFB449C","title":"浦建路锦绣路大桥六线公交车站","lon":"121.546001738","lat":"31.2052187673","category":"38","category_name":"公交车站","address":"上海浦建路锦绣路"},{"poiid":"B2094654DB64A7F9429E","title":"锦江大厨","lon":"121.54091","lat":"31.20739","category":"76","category_name":"上海菜","address":"浦东新区浦建路1121号(锦绣路口)"},{"poiid":"B2094757D064ABF5489F","title":"北京现代4s 东昌店","lon":"121.546502","lat":"31.202044","category":"500","category_name":"未知分类","address":"上海浦建路1509号"},{"poiid":"B2094654DA69A2F8429A","title":"永琪美容美发(牡丹路)","lon":"121.54547","lat":"31.20651","category":"148","category_name":"美容美发店","address":"牡丹路131"},{"poiid":"B2094757D164ABF8429C","title":"如家快捷酒店餐厅(世纪公园店)","lon":"121.54094","lat":"31.20593","category":"76","category_name":"上海菜","address":"浦东新区浦建路1151号(锦绣路浦建路)"},{"poiid":"B2094655D264A2FA469A","title":"潮州汤骨煲 玉兰路店","lon":"121.54633","lat":"31.20763","category":"86","category_name":"火锅店","address":"浦东新区玉兰路303号(近梅花路)"},{"poiid":"B2094757D164A4F84092","title":"浦建路牡丹路","lon":"121.54534373","lat":"31.205896781","category":"500","category_name":"未知分类","address":"上海市浦东新区牡丹路"},{"poiid":"B2094757D66DA5F9469B","title":"香粤粥铺","lon":"121.54361873","lat":"31.205082764","category":"247","category_name":"餐饮美食","address":"上海浦东新区浦东南路595弄8号104室"},{"poiid":"B2094655D26FAAFA4099","title":"东港乐特色快餐No.72","lon":"121.54504","lat":"31.20632","category":"68","category_name":"快餐厅","address":"浦东新区牡丹路106号(近玉兰路)"},{"poiid":"B2094655D268A4F4459E","title":"上海大众汽车特约维修站","lon":"121.54412","lat":"31.20603","category":"159","category_name":"汽车维修","address":""},{"poiid":"B2094757DA69A3F44799","title":"龙之谷官方微博","lon":"121.54775","lat":"31.20623","category":"634","category_name":"IT类公司","address":"碧波路690号1号楼"},{"poiid":"B2094655D26EA3FF429C","title":"牡丹苑","lon":"121.54291","lat":"31.206867","category":"47","category_name":"住宅区","address":"牡丹路89弄"},{"poiid":"B2094655D26FAAF9499F","title":"牡丹路186弄小区(南大门)","lon":"121.5464","lat":"31.20553","category":"47","category_name":"住宅区","address":"樱花路"},{"poiid":"B2094654DA68A4FD4593","title":"永琪美容美发(东建路)","lon":"121.54286","lat":"31.20394","category":"148","category_name":"美容美发店","address":"浦东新区东建路(锦安东路口)"},{"poiid":"B2094757DA69A3F4429A","title":"1号店","lon":"121.54775","lat":"31.20623","category":"630","category_name":"电子商务公司","address":"祖冲之路295号"},{"poiid":"B2094655D26FAAF9499D","title":"牡丹路186弄小区","lon":"121.546","lat":"31.20602","category":"47","category_name":"住宅区","address":"樱花路"},{"poiid":"B2094655D26DA6F54792","title":"上海东昌丰田汽车销售服务有限公司","lon":"121.54423","lat":"31.20499","category":"158","category_name":"汽车销售","address":"浦东新区浦建路1317号(近樱花路)"},{"poiid":"B2094654DB69AAF9479F","title":"浦东新区花木镇花木街道","lon":"121.54775","lat":"31.20623","category":"116","category_name":"特色商业街","address":"浦东新区玉兰路218号"},{"poiid":"B2094757D06AA7FA479D","title":"公交746牡丹路玉兰路站","lon":"121.546605138","lat":"31.2042067457","category":"38","category_name":"公交车站","address":"上海牡丹路玉兰路站（靠近克莉丝汀）"},{"poiid":"B2094655D26FAAF94993","title":"牡丹路186弄小区(北一号门)","lon":"121.54591","lat":"31.20634","category":"47","category_name":"住宅区","address":"牡丹路186弄"},{"poiid":"B2094654DA69A2F8439D","title":"牡丹苑(东门)","lon":"121.54406","lat":"31.2068","category":"47","category_name":"住宅区","address":"牡丹路89弄"},{"poiid":"B2094757D069A4FF499C","title":"上海大众汽车东昌销售有限公司","lon":"121.543181","lat":"31.205758","category":"500","category_name":"未知分类","address":"上海浦建路1281号"},{"poiid":"B2094757D168A2F4479B","title":"湘一品土家菜","lon":"121.54181865","lat":"31.204836579","category":"77","category_name":"湖南菜","address":"浦东新区锦安东路128号(近锦绣路)"},{"poiid":"B2094655D36CA7FD449D","title":"花木","lon":"121.54541","lat":"31.20232","category":"38","category_name":"公交车站","address":""},{"poiid":"B2094757D06FAAFC489A","title":"东昌别克上海陆家嘴店","lon":"121.5433428","lat":"31.2050985","category":"158","category_name":"汽车销售","address":"上海浦东新区浦建路1281-1285号"},{"poiid":"B2094757D06BA5FD409D","title":"建平世纪中学","lon":"121.54689","lat":"31.20865","category":"55","category_name":"中学","address":"浦东新区玉兰路356号(梅花路口)"},{"poiid":"B2094757D06BA1F8439F","title":"花木社区文化中心","lon":"121.54376973","lat":"31.20864984","category":"500","category_name":"未知分类","address":"上海市浦东新区梅花路281号"},{"poiid":"B2094654DA69A2F8499C","title":"上海大众汽车东昌销售服务有限公司","lon":"121.54382","lat":"31.20529","category":"158","category_name":"汽车销售","address":"浦东新区浦建路1289号(近樱花路)"},{"poiid":"B2094750D36BA5FC4499","title":"极乐汤碧云温泉馆","lon":"121.600574","lat":"31.250259","category":"250","category_name":"公园户外","address":"上海市新金桥路600号（靠近金藏路）"},{"poiid":"B2094757D06AA5F44392","title":"上海东昌一汽丰田特约店","lon":"121.544039","lat":"31.204762","category":"500","category_name":"未知分类","address":"上海浦建路1317号"},{"poiid":"B2094655D265A2FE429F","title":"花木玉兰广场","lon":"121.54754","lat":"31.20687","category":"201","category_name":"城市广场","address":""},{"poiid":"B2094750D669A2FF409B","title":"大饭堂花木店","lon":"121.543617","lat":"31.206312","category":"76","category_name":"上海菜","address":"浦东新区浦建路1207号(近锦绣路)"},{"poiid":"B2094757D064A5F4439C","title":"东城新村","lon":"121.545023959","lat":"31.2015203635","category":"47","category_name":"住宅区","address":"上海市浦东新区锦绣路"},{"poiid":"B2094752D269A2FD4298","title":"大饭堂","lon":"121.54233","lat":"31.205898","category":"247","category_name":"餐饮美食","address":"浦建路"},{"poiid":"B2094757D068A5FD469C","title":"绍兴饭店(牡丹路店)","lon":"121.54452","lat":"31.20521","category":"75","category_name":"浙江菜","address":"上海浦东新区牡丹路60号(近浦建路)  "},{"poiid":"B2094757D06AA7FE429B","title":"金色港湾","lon":"121.542232682","lat":"31.2024024111","category":"76","category_name":"上海菜","address":"浦东新区东建路800号(近锦安东路)"},{"poiid":"B2094757D16CABF54792","title":"多凌茶楼","lon":"121.5445","lat":"31.20532","category":"72","category_name":"广东菜","address":"浦东新区牡丹路60号东辰大厦22楼(牡丹路浦建路)"},{"poiid":"B2094757DA69A2FB4192","title":"永恒之塔游戏官博","lon":"121.54775","lat":"31.20623","category":"634","category_name":"IT类公司","address":"上海市碧波路690号"},{"poiid":"B2094757D469A5F9499A","title":"凯司令西点房 东建路店","lon":"121.5436339","lat":"31.2041368","category":"67","category_name":"甜品店","address":"浦东新区东建路927-2号(近浦建路)"},{"poiid":"B2094655D268A3FC429B","title":"花木派出所","lon":"121.54245","lat":"31.20351","category":"609","category_name":"警察局","address":"浦建路1207"},{"poiid":"B2094654DA69A2F84193","title":"克莉丝汀 玉兰店","lon":"121.544663054","lat":"31.206323793","category":"112","category_name":"糕饼店","address":"浦东新区牡丹路147号(近浦建路)"},{"poiid":"B2094757D468A5F54899","title":"湖南风味米粉 牡丹路店","lon":"121.543837","lat":"31.205842","category":"68","category_name":"快餐厅","address":"浦东新区花木镇牡丹路117号"},{"poiid":"B2094655D36DA0FB449F","title":"樱花路浦建路","lon":"121.54497","lat":"31.20613","category":"38","category_name":"公交车站","address":""},{"poiid":"B2094752D36CA4F94198","title":"上海外滩","lon":"121.5427777","lat":"31.2041992","category":"500","category_name":"未知分类","address":null},{"poiid":"B2094655D26AA7FD4099","title":"格林豪泰酒店浦建路店","lon":"121.54429","lat":"31.20257","category":"247","category_name":"餐饮美食","address":"上海市浦东新区浦建路1352号（近东建路）"},{"poiid":"B2094655D26FAAFE4893","title":"东辰大厦(北一号门)","lon":"121.54441","lat":"31.20571","category":"49","category_name":"无中心点楼宇大门","address":"牡丹路60号"},{"poiid":"B2094757D164A1FB409E","title":"超级奶爸(花木店)","lon":"121.544778943","lat":"31.2033740356","category":"113","category_name":"冷饮店","address":"浦东新区东建路921号(近浦建路)"},{"poiid":"B2094654DA69A2F84998","title":"罗森超市","lon":"121.54467","lat":"31.20579","category":"117","category_name":"便民商店/便利店","address":"牡丹路60号东辰大厦1层"},{"poiid":"B2094757DA69A3F5499F","title":"卓美亚喜玛拉雅酒店","lon":"121.54775","lat":"31.20623","category":"604","category_name":"旅游咨询","address":"梅花路1108号(近芳甸路)"},{"poiid":"B2094757DA69A2FA459C","title":"citysuperSH","lon":"121.54775","lat":"31.20623","category":"119","category_name":"商场","address":"世纪大道 国金中心 LG2"},{"poiid":"B2094757D168ABFB449C","title":"浦建路锦绣路大桥六线公交车站","lon":"121.546001738","lat":"31.2052187673","category":"38","category_name":"公交车站","address":"上海浦建路锦绣路"},{"poiid":"B2094654DB64A7F9429E","title":"锦江大厨","lon":"121.54091","lat":"31.20739","category":"76","category_name":"上海菜","address":"浦东新区浦建路1121号(锦绣路口)"},{"poiid":"B2094757D064ABF5489F","title":"北京现代4s 东昌店","lon":"121.546502","lat":"31.202044","category":"500","category_name":"未知分类","address":"上海浦建路1509号"},{"poiid":"B2094654DA69A2F8429A","title":"永琪美容美发(牡丹路)","lon":"121.54547","lat":"31.20651","category":"148","category_name":"美容美发店","address":"牡丹路131"},{"poiid":"B2094757D164ABF8429C","title":"如家快捷酒店餐厅(世纪公园店)","lon":"121.54094","lat":"31.20593","category":"76","category_name":"上海菜","address":"浦东新区浦建路1151号(锦绣路浦建路)"},{"poiid":"B2094655D264A2FA469A","title":"潮州汤骨煲 玉兰路店","lon":"121.54633","lat":"31.20763","category":"86","category_name":"火锅店","address":"浦东新区玉兰路303号(近梅花路)"},{"poiid":"B2094757D164A4F84092","title":"浦建路牡丹路","lon":"121.54534373","lat":"31.205896781","category":"500","category_name":"未知分类","address":"上海市浦东新区牡丹路"},{"poiid":"B2094757D66DA5F9469B","title":"香粤粥铺","lon":"121.54361873","lat":"31.205082764","category":"247","category_name":"餐饮美食","address":"上海浦东新区浦东南路595弄8号104室"},{"poiid":"B2094655D26FAAFA4099","title":"东港乐特色快餐No.72","lon":"121.54504","lat":"31.20632","category":"68","category_name":"快餐厅","address":"浦东新区牡丹路106号(近玉兰路)"},{"poiid":"B2094655D268A4F4459E","title":"上海大众汽车特约维修站","lon":"121.54412","lat":"31.20603","category":"159","category_name":"汽车维修","address":""},{"poiid":"B2094757DA69A3F44799","title":"龙之谷官方微博","lon":"121.54775","lat":"31.20623","category":"634","category_name":"IT类公司","address":"碧波路690号1号楼"},{"poiid":"B2094655D26EA3FF429C","title":"牡丹苑","lon":"121.54291","lat":"31.206867","category":"47","category_name":"住宅区","address":"牡丹路89弄"},{"poiid":"B2094655D26FAAF9499F","title":"牡丹路186弄小区(南大门)","lon":"121.5464","lat":"31.20553","category":"47","category_name":"住宅区","address":"樱花路"},{"poiid":"B2094654DA68A4FD4593","title":"永琪美容美发(东建路)","lon":"121.54286","lat":"31.20394","category":"148","category_name":"美容美发店","address":"浦东新区东建路(锦安东路口)"},{"poiid":"B2094757DA69A3F4429A","title":"1号店","lon":"121.54775","lat":"31.20623","category":"630","category_name":"电子商务公司","address":"祖冲之路295号"},{"poiid":"B2094655D26FAAF9499D","title":"牡丹路186弄小区","lon":"121.546","lat":"31.20602","category":"47","category_name":"住宅区","address":"樱花路"},{"poiid":"B2094655D26DA6F54792","title":"上海东昌丰田汽车销售服务有限公司","lon":"121.54423","lat":"31.20499","category":"158","category_name":"汽车销售","address":"浦东新区浦建路1317号(近樱花路)"},{"poiid":"B2094654DB69AAF9479F","title":"浦东新区花木镇花木街道","lon":"121.54775","lat":"31.20623","category":"116","category_name":"特色商业街","address":"浦东新区玉兰路218号"},{"poiid":"B2094757D06AA7FA479D","title":"公交746牡丹路玉兰路站","lon":"121.546605138","lat":"31.2042067457","category":"38","category_name":"公交车站","address":"上海牡丹路玉兰路站（靠近克莉丝汀）"},{"poiid":"B2094655D26FAAF94993","title":"牡丹路186弄小区(北一号门)","lon":"121.54591","lat":"31.20634","category":"47","category_name":"住宅区","address":"牡丹路186弄"},{"poiid":"B2094654DA69A2F8439D","title":"牡丹苑(东门)","lon":"121.54406","lat":"31.2068","category":"47","category_name":"住宅区","address":"牡丹路89弄"},{"poiid":"B2094757D069A4FF499C","title":"上海大众汽车东昌销售有限公司","lon":"121.543181","lat":"31.205758","category":"500","category_name":"未知分类","address":"上海浦建路1281号"},{"poiid":"B2094757D168A2F4479B","title":"湘一品土家菜","lon":"121.54181865","lat":"31.204836579","category":"77","category_name":"湖南菜","address":"浦东新区锦安东路128号(近锦绣路)"}]