[{"poiid":"B2094655D36CA6FA4398","title":"洞泾","lon":"121.26472","lat":"31.08232","category":"38","category_name":"公交车站","address":""},{"poiid":"B2094757D06AAAFA429A","title":"海欣别墅","lon":"121.28479280228","lat":"31.087700307975","category":"47","category_name":"住宅区","address":"上海松江区长兴路99号"},{"poiid":"B2094655D36CA2FC4299","title":"合生国际花园","lon":"121.287947","lat":"31.086237","category":"47","category_name":"住宅区","address":"松江长兴路1290号"},{"poiid":"B2094757D568A0FB4298","title":"润景苑","lon":"121.287","lat":"31.0824","category":"47","category_name":"住宅区","address":"上海市松江区洞宁路655弄"},{"poiid":"B2094654DA64A0FD459C","title":"海欣城新世纪家园","lon":"121.27844","lat":"31.08229","category":"47","category_name":"住宅区","address":"洞泾镇长兴路98弄4号"},{"poiid":"B2094654DB69A7FF479A","title":"同欢小区","lon":"121.28326","lat":"31.081703","category":"47","category_name":"住宅区","address":"松江区长兴中路"},{"poiid":"B2094655D26FA5F84599","title":"协和海琴花园","lon":"121.27839","lat":"31.08591","category":"47","category_name":"住宅区","address":"泾镇长兴路98弄40-107号"},{"poiid":"B2094654DA64ABF94593","title":"千里马酒楼","lon":"121.2753","lat":"31.08168","category":"76","category_name":"上海菜","address":"松江区洞泾镇长兴路237号"},{"poiid":"B2094753D164AAF84692","title":"复兴公园","lon":"121.283917","lat":"31.081356","category":"196","category_name":"公园","address":"上海市 重庆南路复兴中路"},{"poiid":"B2094757D064A3F84598","title":"松江区","lon":"121.26748835","lat":"31.091539364","category":"250","category_name":"公园户外","address":"上海松江区区域"},{"poiid":"B2094753D26EA1FC4498","title":"三钢里 巫山烤全鱼","lon":"121.28391","lat":"31.081339","category":"247","category_name":"餐饮美食","address":"上海市 昌里路上南路口"},{"poiid":"B2094655D36CA5F84692","title":"长兴路张泾路","lon":"121.27872","lat":"31.08211","category":"38","category_name":"公交车站","address":""},{"poiid":"B2094654DB69A7F9439E","title":"海茂公寓","lon":"121.277","lat":"31.086","category":"47","category_name":"住宅区","address":"松江区同乐路77弄"},{"poiid":"B2094752D56AA7FF439A","title":"上海欢乐谷","lon":"121.275927","lat":"31.083277","category":"500","category_name":"未知分类","address":null},{"poiid":"B2094655D36CA5F84693","title":"长兴路泗砖路","lon":"121.28608","lat":"31.08352","category":"38","category_name":"公交车站","address":""},{"poiid":"B2094753D76DA4FC499F","title":"上南路昌里路","lon":"121.28836","lat":"31.07928","category":"500","category_name":"未知分类","address":"上海市 上南路1160号"},{"poiid":"B2094654DA64A0FD4592","title":"良友便利(海欣城新世纪家园北)","lon":"121.27838","lat":"31.08242","category":"117","category_name":"便民商店/便利店","address":""},{"poiid":"B2094654DB69A7F5469D","title":"海欣小区","lon":"121.27858","lat":"31.08229","category":"47","category_name":"住宅区","address":"松江区长兴路99弄"},{"poiid":"B2094757D568A0FA4793","title":"海欣公寓","lon":"121.27462","lat":"31.0820825","category":"47","category_name":"住宅区","address":"海欣公寓(现房)位于松江洞泾镇长兴路98弄"},{"poiid":"B2094757D068A1F8429E","title":"松江漕河泾高科技开发园区","lon":"121.290146","lat":"31.093264","category":"46","category_name":"楼宇","address":"上海松江区莘砖公路518号"},{"poiid":"B2094757D568A1FF4493","title":"泾东小区二村","lon":"121.27484565","lat":"31.08261339","category":"47","category_name":"住宅区","address":"中国上海市松江区"},{"poiid":"B2094654DA64A0FD4793","title":"泾东新村","lon":"121.27208","lat":"31.081936","category":"47","category_name":"住宅区","address":"长兴路248弄"},{"poiid":"B2094654DA64ABF9409C","title":"上海达飞工业气体经销站","lon":"121.2768","lat":"31.09036","category":"45","category_name":"产业园区","address":""},{"poiid":"B2094757D164A2FE459F","title":"G15沈海高速莘砖公路收费站","lon":"121.295812275","lat":"31.0914411128","category":"267","category_name":"收费站","address":"上海G15沈海高速莘砖公路收费站"},{"poiid":"B209475CD26FA6FE429F","title":"三钢里美食街","lon":"121.288352","lat":"31.079261","category":"247","category_name":"餐饮美食","address":"上海市 上海市浦东上南路昌里路路口"},{"poiid":"B2094753D669A1FA409B","title":"昌里路鱼酷","lon":"121.288345","lat":"31.079263","category":"247","category_name":"餐饮美食","address":"上海市 上南路昌里路"},{"poiid":"B2094757D065AAF9439C","title":"kk＇s home","lon":"121.27977683","lat":"31.080644959","category":"500","category_name":"未知分类","address":null},{"poiid":"B2094654DA64A0FD469A","title":"洞泾海欣幼儿园","lon":"121.27482","lat":"31.08131","category":"57","category_name":"幼儿园","address":"洞泾镇长兴路98弄海欣城内"},{"poiid":"B2094654DA64A0FB4793","title":"同顺酒家","lon":"121.269","lat":"31.08161","category":"76","category_name":"上海菜","address":"松江区洞泾镇同莘路216号"},{"poiid":"B2094654DA64A0FE409B","title":"玉兰苑","lon":"121.27296","lat":"31.0858","category":"47","category_name":"住宅区","address":""},{"poiid":"B2094757D065A5F9429E","title":"洞泾镇人民政府","lon":"121.269157","lat":"31.081943","category":"500","category_name":"未知分类","address":"上海松江区长兴路528号"},{"poiid":"B2094757D069A4FA4092","title":"保利十二橡树庄园","lon":"121.296","lat":"31.0993","category":"500","category_name":"未知分类","address":"上海市松江区莘砖公路3118弄"},{"poiid":"B2094654DA64A0F44098","title":"同乐小区","lon":"121.2702","lat":"31.08506","category":"47","category_name":"住宅区","address":"同乐路354号"},{"poiid":"B2094757D568ABFF439E","title":"上海漕河泾开发区松江高科技园一期","lon":"121.2859206","lat":"31.09557167","category":"46","category_name":"楼宇","address":"松江区新桥镇莘砖公路1188号"},{"poiid":"B2094753D564A7FE4799","title":"思南公馆","lon":"121.288375","lat":"31.079288","category":"500","category_name":"未知分类","address":"上海市 重庆南路复兴中路523号"},{"poiid":"B2094757D16BA0F4479F","title":"沪松公路","lon":"121.274825","lat":"31.081308","category":"500","category_name":"未知分类","address":"上海洞泾"},{"poiid":"B2094753D76FA7F8499C","title":"california pizza","lon":"121.288368","lat":"31.079278","category":"500","category_name":"未知分类","address":"上海市 思南公馆3-2F"},{"poiid":"B209475CD16FA0FC4293","title":"复兴公园","lon":"121.288375","lat":"31.07928","category":"196","category_name":"公园","address":"上海市 雁荡路"},{"poiid":"B2094654DB6EA6F4489B","title":"上海新鸿企业园区","lon":"121.28723","lat":"31.07618","category":"45","category_name":"产业园区","address":""},{"poiid":"B2094654DA64A1F5449D","title":"中欧国际集团","lon":"121.27704","lat":"31.09316","category":"263","category_name":"公司","address":""},{"poiid":"B2094654DA64ABFA4493","title":"同乐西区","lon":"121.26976","lat":"31.08502","category":"47","category_name":"住宅区","address":""},{"poiid":"B2094750D76CA3FE409C","title":"上海阿婆私房菜(同乐路店)","lon":"121.266","lat":"31.0869","category":"76","category_name":"上海菜","address":"松江区同乐路332号(近农贸市场)"},{"poiid":"B2094654DA64A0FE429C","title":"上海砖桥休闲·美食城","lon":"121.26962","lat":"31.09108","category":"257","category_name":"中餐厅","address":""},{"poiid":"B2094654DA64A0FE409E","title":"上海海欣玩具有限公司","lon":"121.27239","lat":"31.08825","category":"263","category_name":"公司","address":""},{"poiid":"B2094654DA64A0FB4693","title":"海利苑","lon":"121.2686","lat":"31.083408","category":"47","category_name":"住宅区","address":"洞莘路319弄"},{"poiid":"B2094757D16FAAF9439E","title":"海欣世纪家园","lon":"121.273467581","lat":"31.0783702606","category":"500","category_name":"未知分类","address":"上海洞泾长兴路98弄"},{"poiid":"B2094654DA64A0FE4193","title":"上海海欣集团员工居住中心","lon":"121.26907","lat":"31.08862","category":"47","category_name":"住宅区","address":"振业路88号-1"},{"poiid":"B2094654DB64A2FD4793","title":"洞泾集贸市场(洞泾·同乐路)","lon":"121.27022","lat":"31.08408","category":"123","category_name":"家具建材市场","address":""},{"poiid":"B2094654DB6EA5FF409F","title":"上海海欣毛纺有限公司海茂公寓","lon":"121.26999","lat":"31.08036","category":"47","category_name":"住宅区","address":""},{"poiid":"B2094654DA64A0F94493","title":"中欧公寓","lon":"121.27606","lat":"31.09635","category":"47","category_name":"住宅区","address":""},{"poiid":"B2094655D36CA6FA4398","title":"洞泾","lon":"121.26472","lat":"31.08232","category":"38","category_name":"公交车站","address":""},{"poiid":"B2094757D06AAAFA429A","title":"海欣别墅","lon":"121.28479280228","lat":"31.087700307975","category":"47","category_name":"住宅区","address":"上海松江区长兴路99号"},{"poiid":"B2094655D36CA2FC4299","title":"合生国际花园","lon":"121.287947","lat":"31.086237","category":"47","category_name":"住宅区","address":"松江长兴路1290号"},{"poiid":"B2094757D568A0FB4298","title":"润景苑","lon":"121.287","lat":"31.0824","category":"47","category_name":"住宅区","address":"上海市松江区洞宁路655弄"},{"poiid":"B2094654DA64A0FD459C","title":"海欣城新世纪家园","lon":"121.27844","lat":"31.08229","category":"47","category_name":"住宅区","address":"洞泾镇长兴路98弄4号"},{"poiid":"B2094654DB69A7FF479A","title":"同欢小区","lon":"121.28326","lat":"31.081703","category":"47","category_name":"住宅区","address":"松江区长兴中路"},{"poiid":"B2094655D26FA5F84599","title":"协和海琴花园","lon":"121.27839","lat":"31.08591","category":"47","category_name":"住宅区","address":"泾镇长兴路98弄40-107号"},{"poiid":"B2094654DA64ABF94593","title":"千里马酒楼","lon":"121.2753","lat":"31.08168","category":"76","category_name":"上海菜","address":"松江区洞泾镇长兴路237号"},{"poiid":"B2094753D164AAF84692","title":"复兴公园","lon":"121.283917","lat":"31.081356","category":"196","category_name":"公园","address":"上海市 重庆南路复兴中路"},{"poiid":"B2094757D064A3F84598","title":"松江区","lon":"121.26748835","lat":"31.091539364","category":"250","category_name":"公园户外","address":"上海松江区区域"},{"poiid":"B2094753D26EA1FC4498","title":"三钢里 巫山烤全鱼","lon":"121.28391","lat":"31.081339","category":"247","category_name":"餐饮美食","address":"上海市 昌里路上南路口"},{"poiid":"B2094655D36CA5F84692","title":"长兴路张泾路","lon":"121.27872","lat":"31.08211","category":"38","category_name":"公交车站","address":""},{"poiid":"B2094654DB69A7F9439E","title":"海茂公寓","lon":"121.277","lat":"31.086","category":"47","category_name":"住宅区","address":"松江区同乐路77弄"},{"poiid":"B2094752D56AA7FF439A","title":"上海欢乐谷","lon":"121.275927","lat":"31.083277","category":"500","category_name":"未知分类","address":null},{"poiid":"B2094655D36CA5F84693","title":"长兴路泗砖路","lon":"121.28608","lat":"31.08352","category":"38","category_name":"公交车站","address":""},{"poiid":"B2094753D76DA4FC499F","title":"上南路昌里路","lon":"121.28836","lat":"31.07928","category":"500","category_name":"未知分类","address":"上海市 上南路1160号"},{"poiid":"B2094654DA64A0FD4592","title":"良友便利(海欣城新世纪家园北)","lon":"121.27838","lat":"31.08242","category":"117","category_name":"便民商店/便利店","address":""},{"poiid":"B2094654DB69A7F5469D","title":"海欣小区","lon":"121.27858","lat":"31.08229","category":"47","category_name":"住宅区","address":"松江区长兴路99弄"},{"poiid":"B2094757D568A0FA4793","title":"海欣公寓","lon":"121.27462","lat":"31.0820825","category":"47","category_name":"住宅区","address":"海欣公寓(现房)位于松江洞泾镇长兴路98弄"},{"poiid":"B2094757D068A1F8429E","title":"松江漕河泾高科技开发园区","lon":"121.290146","lat":"31.093264","category":"46","category_name":"楼宇","address":"上海松江区莘砖公路518号"},{"poiid":"B2094757D568A1FF4493","title":"泾东小区二村","lon":"121.27484565","lat":"31.08261339","category":"47","category_name":"住宅区","address":"中国上海市松江区"},{"poiid":"B2094654DA64A0FD4793","title":"泾东新村","lon":"121.27208","lat":"31.081936","category":"47","category_name":"住宅区","address":"长兴路248弄"},{"poiid":"B2094654DA64ABF9409C","title":"上海达飞工业气体经销站","lon":"121.2768","lat":"31.09036","category":"45","category_name":"产业园区","address":""},{"poiid":"B2094757D164A2FE459F","title":"G15沈海高速莘砖公路收费站","lon":"121.295812275","lat":"31.0914411128","category":"267","category_name":"收费站","address":"上海G15沈海高速莘砖公路收费站"},{"poiid":"B209475CD26FA6FE429F","title":"三钢里美食街","lon":"121.288352","lat":"31.079261","category":"247","category_name":"餐饮美食","address":"上海市 上海市浦东上南路昌里路路口"},{"poiid":"B2094753D669A1FA409B","title":"昌里路鱼酷","lon":"121.288345","lat":"31.079263","category":"247","category_name":"餐饮美食","address":"上海市 上南路昌里路"},{"poiid":"B2094757D065AAF9439C","title":"kk＇s home","lon":"121.27977683","lat":"31.080644959","category":"500","category_name":"未知分类","address":null},{"poiid":"B2094654DA64A0FD469A","title":"洞泾海欣幼儿园","lon":"121.27482","lat":"31.08131","category":"57","category_name":"幼儿园","address":"洞泾镇长兴路98弄海欣城内"},{"poiid":"B2094654DA64A0FB4793","title":"同顺酒家","lon":"121.269","lat":"31.08161","category":"76","category_name":"上海菜","address":"松江区洞泾镇同莘路216号"},{"poiid":"B2094654DA64A0FE409B","title":"玉兰苑","lon":"121.27296","lat":"31.0858","category":"47","category_name":"住宅区","address":""},{"poiid":"B2094757D065A5F9429E","title":"洞泾镇人民政府","lon":"121.269157","lat":"31.081943","category":"500","category_name":"未知分类","address":"上海松江区长兴路528号"},{"poiid":"B2094757D069A4FA4092","title":"保利十二橡树庄园","lon":"121.296","lat":"31.0993","category":"500","category_name":"未知分类","address":"上海市松江区莘砖公路3118弄"},{"poiid":"B2094654DA64A0F44098","title":"同乐小区","lon":"121.2702","lat":"31.08506","category":"47","category_name":"住宅区","address":"同乐路354号"},{"poiid":"B2094757D568ABFF439E","title":"上海漕河泾开发区松江高科技园一期","lon":"121.2859206","lat":"31.09557167","category":"46","category_name":"楼宇","address":"松江区新桥镇莘砖公路1188号"},{"poiid":"B2094753D564A7FE4799","title":"思南公馆","lon":"121.288375","lat":"31.079288","category":"500","category_name":"未知分类","address":"上海市 重庆南路复兴中路523号"},{"poiid":"B2094757D16BA0F4479F","title":"沪松公路","lon":"121.274825","lat":"31.081308","category":"500","category_name":"未知分类","address":"上海洞泾"},{"poiid":"B2094753D76FA7F8499C","title":"california pizza","lon":"121.288368","lat":"31.079278","category":"500","category_name":"未知分类","address":"上海市 思南公馆3-2F"},{"poiid":"B209475CD16FA0FC4293","title":"复兴公园","lon":"121.288375","lat":"31.07928","category":"196","category_name":"公园","address":"上海市 雁荡路"},{"poiid":"B2094654DB6EA6F4489B","title":"上海新鸿企业园区","lon":"121.28723","lat":"31.07618","category":"45","category_name":"产业园区","address":""},{"poiid":"B2094654DA64A1F5449D","title":"中欧国际集团","lon":"121.27704","lat":"31.09316","category":"263","category_name":"公司","address":""},{"poiid":"B2094654DA64ABFA4493","title":"同乐西区","lon":"121.26976","lat":"31.08502","category":"47","category_name":"住宅区","address":""},{"poiid":"B2094750D76CA3FE409C","title":"上海阿婆私房菜(同乐路店)","lon":"121.266","lat":"31.0869","category":"76","category_name":"上海菜","address":"松江区同乐路332号(近农贸市场)"},{"poiid":"B2094654DA64A0FE429C","title":"上海砖桥休闲·美食城","lon":"121.26962","lat":"31.09108","category":"257","category_name":"中餐厅","address":""},{"poiid":"B2094654DA64A0FE409E","title":"上海海欣玩具有限公司","lon":"121.27239","lat":"31.08825","category":"263","category_name":"公司","address":""},{"poiid":"B2094654DA64A0FB4693","title":"海利苑","lon":"121.2686","lat":"31.083408","category":"47","category_name":"住宅区","address":"洞莘路319弄"},{"poiid":"B2094757D16FAAF9439E","title":"海欣世纪家园","lon":"121.273467581","lat":"31.0783702606","category":"500","category_name":"未知分类","address":"上海洞泾长兴路98弄"},{"poiid":"B2094654DA64A0FE4193","title":"上海海欣集团员工居住中心","lon":"121.26907","lat":"31.08862","category":"47","category_name":"住宅区","address":"振业路88号-1"},{"poiid":"B2094654DB64A2FD4793","title":"洞泾集贸市场(洞泾·同乐路)","lon":"121.27022","lat":"31.08408","category":"123","category_name":"家具建材市场","address":""},{"poiid":"B2094654DB6EA5FF409F","title":"上海海欣毛纺有限公司海茂公寓","lon":"121.26999","lat":"31.08036","category":"47","category_name":"住宅区","address":""},{"poiid":"B2094654DA64A0F94493","title":"中欧公寓","lon":"121.27606","lat":"31.09635","category":"47","category_name":"住宅区","address":""}]