[{"poiid":"B2094655D26DA7FE4793","title":"南京路步行街(东门)","lon":"121.48473","lat":"31.23754","category":"116","category_name":"特色商业街","address":""},{"poiid":"B2094757DA69A3F44592","title":"甲泰餐厅","lon":"121.48598641005","lat":"31.239524260517","category":"99","category_name":"泰国／越南菜品餐厅","address":"黄浦区宁波路51号(近江西中路)"},{"poiid":"B2094757D06EAAF84992","title":"Apple Store 苹果官方零售店(南京东路店)","lon":"121.484334712","lat":"31.2375712753","category":"138","category_name":"家电电子卖场","address":"上海市黄浦区南京东路300号名人购物中心B1-F2(河南中路口)"},{"poiid":"B209475CD564A7F84292","title":"上海滩新天地店","lon":"121.47463","lat":"31.22164","category":"119","category_name":"商场","address":"\"太仓路181弄新天地北里15号\r\n\""},{"poiid":"B209475CD564A7F84392","title":"上海滩浦东香格里拉店","lon":"121.50058","lat":"31.23634","category":"119","category_name":"商场","address":"浦东富成路33号香格里拉酒店内大堂层"},{"poiid":"B2094757D06EAAF8499E","title":"南京东路地铁站","lon":"121.484855","lat":"31.237632","category":"36","category_name":"地铁站","address":"上海轨道交通 二号线 十号线 轨交南京东路站 2 10"},{"poiid":"B2094757D068A3FE4992","title":"星巴克(名人大厦店)","lon":"121.4848452","lat":"31.2375642","category":"260","category_name":"其他","address":"黄浦区南京东路300号名人购物中心1楼L114号铺(近河南路)"},{"poiid":"B2094757D76AA7FD469D","title":"赤坂亭 南京东路店 A KA SA KA TEI","lon":"121.48449","lat":"31.23748","category":"268","category_name":"自助","address":"黄浦区南京东路300号名人购物中心3楼L312-313室(近河南中路)"},{"poiid":"B2094757D16DAAFD439D","title":"融合马来西亚","lon":"121.48441473","lat":"31.237640458","category":"500","category_name":"未知分类","address":"上海名人购物中心"},{"poiid":"B2094757D06FAAF9469A","title":"汉拿山","lon":"121.484004738","lat":"31.2379848654","category":"500","category_name":"未知分类","address":"上海名人广场5F"},{"poiid":"B2094757D06FA0FC479A","title":"尚一汤(名人店)","lon":"121.484609045","lat":"31.2375079839","category":"72","category_name":"广东菜","address":"黄浦区南京东路300号名人购物中心4楼420单元(河南中路口)"},{"poiid":"B2094757D06FA2F44099","title":"绿雅酒家","lon":"121.48623","lat":"31.23976","category":"76","category_name":"上海菜","address":"上海黄浦区江西中路372号(近宁波路)  "},{"poiid":"B2094757D465A4F5459D","title":"老上海弄堂菜馆 名人店","lon":"121.48452579975","lat":"31.237623382578","category":"76","category_name":"上海菜","address":"黄浦区南京东路300号名人商业大厦6楼(近河南中路)"},{"poiid":"B2094757D068A4F9469A","title":"成隆行蟹王府","lon":"121.485942537","lat":"31.2369416306","category":"257","category_name":"中餐厅","address":"黄浦区九江路216号(河南中路口)"},{"poiid":"B2094750D26EAAFD4998","title":"融合马来西亚餐厅 名人店 Food Fusion","lon":"121.48440778255","lat":"31.237504128155","category":"110","category_name":"其他亚洲菜","address":"黄浦区南京东路300号名人购物中心L413-415室(近南京东路地铁站2号口)"},{"poiid":"B2094757DB6CA6FD419A","title":"Cuvve","lon":"121.485513","lat":"31.240501","category":"248","category_name":"生活娱乐","address":"外灘十八號"},{"poiid":"B2094757D068A2FE4799","title":"小杨生煎(河南中路店)","lon":"121.4841","lat":"31.239","category":"68","category_name":"快餐厅","address":"黄浦区宁波路178号(近河南中路)"},{"poiid":"B2094757D068A0FB449B","title":"大家乐(南京东路店)","lon":"121.484654738","lat":"31.2374831547","category":"500","category_name":"未知分类","address":"上海市黄浦区南京东路300号名人商业大厦L317-18单元"},{"poiid":"B2094753D469A5FC469E","title":"年代秀饭堂","lon":"121.483963","lat":"31.23822","category":"247","category_name":"餐饮美食","address":"上海市 天津路118号（近河南中路）"},{"poiid":"B2094757D06EAAFC4293","title":"太平洋咖啡Pacific Coffee(名人商业大厦店)","lon":"121.484204","lat":"31.237958","category":"260","category_name":"其他","address":"黄浦区南京东路300号名人购物中心L2楼211-212室(河南中路口)"},{"poiid":"B2094757D469A5F84698","title":"亚洲蕉叶 南京东路店","lon":"121.4848452","lat":"31.2375642","category":"110","category_name":"其他亚洲菜","address":"黄浦区南京东路300号名人购物中心5楼"},{"poiid":"B2094757D469A7FA449C","title":"龙记茶餐厅 南京东路店","lon":"121.48559","lat":"31.23748","category":"257","category_name":"中餐厅","address":"黄浦区南京东路233号南京大楼5楼(近河南中路)"},{"poiid":"B2094757D16DA0FD429F","title":"苹果旗舰店南京东路","lon":"121.485093338","lat":"31.2374578541","category":"500","category_name":"未知分类","address":"上海南京东路300号"},{"poiid":"B2094752DA65A2F8419B","title":"上海外滩","lon":"121.484815","lat":"31.237563","category":"500","category_name":"未知分类","address":"上海市 外滩18号"},{"poiid":"B2094751D36EA3F9459A","title":"云上云源生态云南菜","lon":"121.48562","lat":"31.23753","category":"76","category_name":"上海菜","address":"黄浦区南京东路233号南京大厦5楼(近河南路)"},{"poiid":"B2094654DB69A4FE439E","title":"莫泰168连锁旅店(外滩店)","lon":"121.48634","lat":"31.23979","category":"216","category_name":"经济型连锁酒店","address":"上海黄浦区宁波路50号（近江西中路口）"},{"poiid":"B2094757D06FABF5429F","title":"新发记港式茶餐厅","lon":"121.4876","lat":"31.23866","category":"72","category_name":"广东菜","address":"上海黄浦区四川中路417号(近南京东路)"},{"poiid":"B2094757D06EAAFE409B","title":"ANNA BANANA 爱酸奶","lon":"121.48458173","lat":"31.237558456","category":"67","category_name":"甜品店","address":"上海黄浦区河南中路88号威斯汀大饭店101室(广东路口)"},{"poiid":"B2094654DA6FA4FB4598","title":"申华金融大厦","lon":"121.48691","lat":"31.23962","category":"46","category_name":"楼宇","address":"浦东临港新城主城区申港大道200号"},{"poiid":"B2094654DA6FA4FB4199","title":"香港仔码头茶餐厅(河南中路店)","lon":"121.48529","lat":"31.2369","category":"72","category_name":"广东菜","address":"上海黄浦区河南中路368号(近南京东路)"},{"poiid":"B2094757DA6FA3F5499C","title":"金装大家乐茶餐厅(南京东路店)","lon":"121.487614100001","lat":"31.2384557","category":"72","category_name":"广东菜","address":"黄浦区南京东路300号名人购物中心3楼(近苹果南京路旗舰店)"},{"poiid":"B2094757DB6CA4FF419D","title":"汉拿山","lon":"121.48404","lat":"31.23815","category":"96","category_name":"韩国料理","address":"黄浦区南京东路300号名人大厦5楼511-513号(近河南中路)"},{"poiid":"B2094757D068A7F44893","title":"小梁园精菜坊","lon":"121.48434","lat":"31.23824","category":"75","category_name":"浙江菜","address":"黄浦区天津路118号(近河南中路)"},{"poiid":"B2094757D065A4FD4893","title":"轨道交通2号线(南京东路)","lon":"121.484178138","lat":"31.2382214704","category":"500","category_name":"未知分类","address":"上海南京东路河南中路(可换乘轨道交通10号线)"},{"poiid":"B2094757D068A1FD489D","title":"亚洲大厦","lon":"121.485","lat":"31.2397","category":"46","category_name":"楼宇","address":"松江区工业区鼎源路广富林路路口"},{"poiid":"B2094757D06FA0F4489D","title":"味千拉面(宏伊店)","lon":"121.48457943","lat":"31.237201398","category":"95","category_name":"日本料理","address":"黄浦区南京东路830号第一百货新楼B1楼(近西藏中路)"},{"poiid":"B2094654DA6FA4FF459D","title":"宝龙大酒楼","lon":"121.48596793288","lat":"31.240782833756","category":"72","category_name":"广东菜","address":"黄浦区北京东路230号(近河南中路)"},{"poiid":"B2094654DA6FA0FB469F","title":"汇金大厦","lon":"121.48732391965","lat":"31.240035306526","category":"46","category_name":"楼宇","address":"丰台学城海鹰路1号,3号"},{"poiid":"B2094757D064ABFE4899","title":"中国银行外滩多媒体教室","lon":"121.48706973","lat":"31.23868248","category":"500","category_name":"未知分类","address":"上海滇池路74号540室"},{"poiid":"B2094757D069A0FE4599","title":"三林塘馄饨店","lon":"121.48568504662","lat":"31.240624646304","category":"68","category_name":"快餐厅","address":"黄浦区江西中路416号(北京东路口)"},{"poiid":"B2094757D468A6FB4899","title":"85度C 宁波路店","lon":"121.484141054","lat":"31.239500793","category":"112","category_name":"糕饼店","address":"黄浦区河南中路521-3号(宁波路口)"},{"poiid":"B2094757D16DA3FA469C","title":"大块头面菜馆","lon":"121.485606738","lat":"31.2383654735","category":"68","category_name":"快餐厅","address":"黄浦区宁波路190号(近河南中路)"},{"poiid":"B2094750D26FABFE4898","title":"muse1","lon":"121.485687","lat":"31.240003","category":"500","category_name":"未知分类","address":"北京东路圆明圆路"},{"poiid":"B2094655D36CA5F5419D","title":"北京东路四川中路","lon":"121.48625","lat":"31.24066","category":"38","category_name":"公交车站","address":"上海北京东路四川中路"},{"poiid":"B2094757D16AA5F54698","title":"珂兰钻石","lon":"121.484550738","lat":"31.2375184554","category":"249","category_name":"购物服务","address":"黄浦区南京东路300号名人商厦503-504室(近河南中路)查看地图"},{"poiid":"B2094753D16DA1FA4492","title":"外滩和平饭店","lon":"121.486209","lat":"31.240235","category":"247","category_name":"餐饮美食","address":"上海市 外滩和平饭店"},{"poiid":"B2094654DB69A6FE4693","title":"滇池大楼","lon":"121.48584","lat":"31.24007","category":"46","category_name":"楼宇","address":"昌平区回龙观镇国际信息产业基地高新二街"},{"poiid":"B2094655D26FA6FB4898","title":"美伦大楼","lon":"121.48694","lat":"31.23808","category":"46","category_name":"楼宇","address":"昌平区回龙观镇国际信息产业基地高新二街"},{"poiid":"B2094654DA6FA4FF449A","title":"宁波小区","lon":"121.48452","lat":"31.239851","category":"47","category_name":"住宅区","address":"上海宁波路120号"},{"poiid":"B2094750D76CA6FC489E","title":"AnnaBanana爱酸奶(南京东路店)","lon":"121.485","lat":"31.2376","category":"68","category_name":"快餐厅","address":"南京东路300号名人购物中心1楼L115室(近河南中路)"},{"poiid":"B2094655D26DA7FE4793","title":"南京路步行街(东门)","lon":"121.48473","lat":"31.23754","category":"116","category_name":"特色商业街","address":""},{"poiid":"B2094757DA69A3F44592","title":"甲泰餐厅","lon":"121.48598641005","lat":"31.239524260517","category":"99","category_name":"泰国／越南菜品餐厅","address":"黄浦区宁波路51号(近江西中路)"},{"poiid":"B2094757D06EAAF84992","title":"Apple Store 苹果官方零售店(南京东路店)","lon":"121.484334712","lat":"31.2375712753","category":"138","category_name":"家电电子卖场","address":"上海市黄浦区南京东路300号名人购物中心B1-F2(河南中路口)"},{"poiid":"B209475CD564A7F84292","title":"上海滩新天地店","lon":"121.47463","lat":"31.22164","category":"119","category_name":"商场","address":"\"太仓路181弄新天地北里15号\r\n\""},{"poiid":"B209475CD564A7F84392","title":"上海滩浦东香格里拉店","lon":"121.50058","lat":"31.23634","category":"119","category_name":"商场","address":"浦东富成路33号香格里拉酒店内大堂层"},{"poiid":"B2094757D06EAAF8499E","title":"南京东路地铁站","lon":"121.484855","lat":"31.237632","category":"36","category_name":"地铁站","address":"上海轨道交通 二号线 十号线 轨交南京东路站 2 10"},{"poiid":"B2094757D068A3FE4992","title":"星巴克(名人大厦店)","lon":"121.4848452","lat":"31.2375642","category":"260","category_name":"其他","address":"黄浦区南京东路300号名人购物中心1楼L114号铺(近河南路)"},{"poiid":"B2094757D76AA7FD469D","title":"赤坂亭 南京东路店 A KA SA KA TEI","lon":"121.48449","lat":"31.23748","category":"268","category_name":"自助","address":"黄浦区南京东路300号名人购物中心3楼L312-313室(近河南中路)"},{"poiid":"B2094757D16DAAFD439D","title":"融合马来西亚","lon":"121.48441473","lat":"31.237640458","category":"500","category_name":"未知分类","address":"上海名人购物中心"},{"poiid":"B2094757D06FAAF9469A","title":"汉拿山","lon":"121.484004738","lat":"31.2379848654","category":"500","category_name":"未知分类","address":"上海名人广场5F"},{"poiid":"B2094757D06FA0FC479A","title":"尚一汤(名人店)","lon":"121.484609045","lat":"31.2375079839","category":"72","category_name":"广东菜","address":"黄浦区南京东路300号名人购物中心4楼420单元(河南中路口)"},{"poiid":"B2094757D06FA2F44099","title":"绿雅酒家","lon":"121.48623","lat":"31.23976","category":"76","category_name":"上海菜","address":"上海黄浦区江西中路372号(近宁波路)  "},{"poiid":"B2094757D465A4F5459D","title":"老上海弄堂菜馆 名人店","lon":"121.48452579975","lat":"31.237623382578","category":"76","category_name":"上海菜","address":"黄浦区南京东路300号名人商业大厦6楼(近河南中路)"},{"poiid":"B2094757D068A4F9469A","title":"成隆行蟹王府","lon":"121.485942537","lat":"31.2369416306","category":"257","category_name":"中餐厅","address":"黄浦区九江路216号(河南中路口)"},{"poiid":"B2094750D26EAAFD4998","title":"融合马来西亚餐厅 名人店 Food Fusion","lon":"121.48440778255","lat":"31.237504128155","category":"110","category_name":"其他亚洲菜","address":"黄浦区南京东路300号名人购物中心L413-415室(近南京东路地铁站2号口)"},{"poiid":"B2094757DB6CA6FD419A","title":"Cuvve","lon":"121.485513","lat":"31.240501","category":"248","category_name":"生活娱乐","address":"外灘十八號"},{"poiid":"B2094757D068A2FE4799","title":"小杨生煎(河南中路店)","lon":"121.4841","lat":"31.239","category":"68","category_name":"快餐厅","address":"黄浦区宁波路178号(近河南中路)"},{"poiid":"B2094757D068A0FB449B","title":"大家乐(南京东路店)","lon":"121.484654738","lat":"31.2374831547","category":"500","category_name":"未知分类","address":"上海市黄浦区南京东路300号名人商业大厦L317-18单元"},{"poiid":"B2094753D469A5FC469E","title":"年代秀饭堂","lon":"121.483963","lat":"31.23822","category":"247","category_name":"餐饮美食","address":"上海市 天津路118号（近河南中路）"},{"poiid":"B2094757D06EAAFC4293","title":"太平洋咖啡Pacific Coffee(名人商业大厦店)","lon":"121.484204","lat":"31.237958","category":"260","category_name":"其他","address":"黄浦区南京东路300号名人购物中心L2楼211-212室(河南中路口)"},{"poiid":"B2094757D469A5F84698","title":"亚洲蕉叶 南京东路店","lon":"121.4848452","lat":"31.2375642","category":"110","category_name":"其他亚洲菜","address":"黄浦区南京东路300号名人购物中心5楼"},{"poiid":"B2094757D469A7FA449C","title":"龙记茶餐厅 南京东路店","lon":"121.48559","lat":"31.23748","category":"257","category_name":"中餐厅","address":"黄浦区南京东路233号南京大楼5楼(近河南中路)"},{"poiid":"B2094757D16DA0FD429F","title":"苹果旗舰店南京东路","lon":"121.485093338","lat":"31.2374578541","category":"500","category_name":"未知分类","address":"上海南京东路300号"},{"poiid":"B2094752DA65A2F8419B","title":"上海外滩","lon":"121.484815","lat":"31.237563","category":"500","category_name":"未知分类","address":"上海市 外滩18号"},{"poiid":"B2094751D36EA3F9459A","title":"云上云源生态云南菜","lon":"121.48562","lat":"31.23753","category":"76","category_name":"上海菜","address":"黄浦区南京东路233号南京大厦5楼(近河南路)"},{"poiid":"B2094654DB69A4FE439E","title":"莫泰168连锁旅店(外滩店)","lon":"121.48634","lat":"31.23979","category":"216","category_name":"经济型连锁酒店","address":"上海黄浦区宁波路50号（近江西中路口）"},{"poiid":"B2094757D06FABF5429F","title":"新发记港式茶餐厅","lon":"121.4876","lat":"31.23866","category":"72","category_name":"广东菜","address":"上海黄浦区四川中路417号(近南京东路)"},{"poiid":"B2094757D06EAAFE409B","title":"ANNA BANANA 爱酸奶","lon":"121.48458173","lat":"31.237558456","category":"67","category_name":"甜品店","address":"上海黄浦区河南中路88号威斯汀大饭店101室(广东路口)"},{"poiid":"B2094654DA6FA4FB4598","title":"申华金融大厦","lon":"121.48691","lat":"31.23962","category":"46","category_name":"楼宇","address":"浦东临港新城主城区申港大道200号"},{"poiid":"B2094654DA6FA4FB4199","title":"香港仔码头茶餐厅(河南中路店)","lon":"121.48529","lat":"31.2369","category":"72","category_name":"广东菜","address":"上海黄浦区河南中路368号(近南京东路)"},{"poiid":"B2094757DA6FA3F5499C","title":"金装大家乐茶餐厅(南京东路店)","lon":"121.487614100001","lat":"31.2384557","category":"72","category_name":"广东菜","address":"黄浦区南京东路300号名人购物中心3楼(近苹果南京路旗舰店)"},{"poiid":"B2094757DB6CA4FF419D","title":"汉拿山","lon":"121.48404","lat":"31.23815","category":"96","category_name":"韩国料理","address":"黄浦区南京东路300号名人大厦5楼511-513号(近河南中路)"},{"poiid":"B2094757D068A7F44893","title":"小梁园精菜坊","lon":"121.48434","lat":"31.23824","category":"75","category_name":"浙江菜","address":"黄浦区天津路118号(近河南中路)"},{"poiid":"B2094757D065A4FD4893","title":"轨道交通2号线(南京东路)","lon":"121.484178138","lat":"31.2382214704","category":"500","category_name":"未知分类","address":"上海南京东路河南中路(可换乘轨道交通10号线)"},{"poiid":"B2094757D068A1FD489D","title":"亚洲大厦","lon":"121.485","lat":"31.2397","category":"46","category_name":"楼宇","address":"松江区工业区鼎源路广富林路路口"},{"poiid":"B2094757D06FA0F4489D","title":"味千拉面(宏伊店)","lon":"121.48457943","lat":"31.237201398","category":"95","category_name":"日本料理","address":"黄浦区南京东路830号第一百货新楼B1楼(近西藏中路)"},{"poiid":"B2094654DA6FA4FF459D","title":"宝龙大酒楼","lon":"121.48596793288","lat":"31.240782833756","category":"72","category_name":"广东菜","address":"黄浦区北京东路230号(近河南中路)"},{"poiid":"B2094654DA6FA0FB469F","title":"汇金大厦","lon":"121.48732391965","lat":"31.240035306526","category":"46","category_name":"楼宇","address":"丰台学城海鹰路1号,3号"},{"poiid":"B2094757D064ABFE4899","title":"中国银行外滩多媒体教室","lon":"121.48706973","lat":"31.23868248","category":"500","category_name":"未知分类","address":"上海滇池路74号540室"},{"poiid":"B2094757D069A0FE4599","title":"三林塘馄饨店","lon":"121.48568504662","lat":"31.240624646304","category":"68","category_name":"快餐厅","address":"黄浦区江西中路416号(北京东路口)"},{"poiid":"B2094757D468A6FB4899","title":"85度C 宁波路店","lon":"121.484141054","lat":"31.239500793","category":"112","category_name":"糕饼店","address":"黄浦区河南中路521-3号(宁波路口)"},{"poiid":"B2094757D16DA3FA469C","title":"大块头面菜馆","lon":"121.485606738","lat":"31.2383654735","category":"68","category_name":"快餐厅","address":"黄浦区宁波路190号(近河南中路)"},{"poiid":"B2094750D26FABFE4898","title":"muse1","lon":"121.485687","lat":"31.240003","category":"500","category_name":"未知分类","address":"北京东路圆明圆路"},{"poiid":"B2094655D36CA5F5419D","title":"北京东路四川中路","lon":"121.48625","lat":"31.24066","category":"38","category_name":"公交车站","address":"上海北京东路四川中路"},{"poiid":"B2094757D16AA5F54698","title":"珂兰钻石","lon":"121.484550738","lat":"31.2375184554","category":"249","category_name":"购物服务","address":"黄浦区南京东路300号名人商厦503-504室(近河南中路)查看地图"},{"poiid":"B2094753D16DA1FA4492","title":"外滩和平饭店","lon":"121.486209","lat":"31.240235","category":"247","category_name":"餐饮美食","address":"上海市 外滩和平饭店"},{"poiid":"B2094654DB69A6FE4693","title":"滇池大楼","lon":"121.48584","lat":"31.24007","category":"46","category_name":"楼宇","address":"昌平区回龙观镇国际信息产业基地高新二街"},{"poiid":"B2094655D26FA6FB4898","title":"美伦大楼","lon":"121.48694","lat":"31.23808","category":"46","category_name":"楼宇","address":"昌平区回龙观镇国际信息产业基地高新二街"},{"poiid":"B2094654DA6FA4FF449A","title":"宁波小区","lon":"121.48452","lat":"31.239851","category":"47","category_name":"住宅区","address":"上海宁波路120号"},{"poiid":"B2094750D76CA6FC489E","title":"AnnaBanana爱酸奶(南京东路店)","lon":"121.485","lat":"31.2376","category":"68","category_name":"快餐厅","address":"南京东路300号名人购物中心1楼L115室(近河南中路)"},{"poiid":"B2094655D26DA7FE4793","title":"南京路步行街(东门)","lon":"121.48473","lat":"31.23754","category":"116","category_name":"特色商业街","address":""},{"poiid":"B2094757DA69A3F44592","title":"甲泰餐厅","lon":"121.48598641005","lat":"31.239524260517","category":"99","category_name":"泰国／越南菜品餐厅","address":"黄浦区宁波路51号(近江西中路)"},{"poiid":"B2094757D06EAAF84992","title":"Apple Store 苹果官方零售店(南京东路店)","lon":"121.484334712","lat":"31.2375712753","category":"138","category_name":"家电电子卖场","address":"上海市黄浦区南京东路300号名人购物中心B1-F2(河南中路口)"},{"poiid":"B209475CD564A7F84292","title":"上海滩新天地店","lon":"121.47463","lat":"31.22164","category":"119","category_name":"商场","address":"\"太仓路181弄新天地北里15号\r\n\""},{"poiid":"B209475CD564A7F84392","title":"上海滩浦东香格里拉店","lon":"121.50058","lat":"31.23634","category":"119","category_name":"商场","address":"浦东富成路33号香格里拉酒店内大堂层"},{"poiid":"B2094757D06EAAF8499E","title":"南京东路地铁站","lon":"121.484855","lat":"31.237632","category":"36","category_name":"地铁站","address":"上海轨道交通 二号线 十号线 轨交南京东路站 2 10"},{"poiid":"B2094757D068A3FE4992","title":"星巴克(名人大厦店)","lon":"121.4848452","lat":"31.2375642","category":"260","category_name":"其他","address":"黄浦区南京东路300号名人购物中心1楼L114号铺(近河南路)"},{"poiid":"B2094757D76AA7FD469D","title":"赤坂亭 南京东路店 A KA SA KA TEI","lon":"121.48449","lat":"31.23748","category":"268","category_name":"自助","address":"黄浦区南京东路300号名人购物中心3楼L312-313室(近河南中路)"},{"poiid":"B2094757D16DAAFD439D","title":"融合马来西亚","lon":"121.48441473","lat":"31.237640458","category":"500","category_name":"未知分类","address":"上海名人购物中心"},{"poiid":"B2094757D06FAAF9469A","title":"汉拿山","lon":"121.484004738","lat":"31.2379848654","category":"500","category_name":"未知分类","address":"上海名人广场5F"},{"poiid":"B2094757D06FA0FC479A","title":"尚一汤(名人店)","lon":"121.484609045","lat":"31.2375079839","category":"72","category_name":"广东菜","address":"黄浦区南京东路300号名人购物中心4楼420单元(河南中路口)"},{"poiid":"B2094757D06FA2F44099","title":"绿雅酒家","lon":"121.48623","lat":"31.23976","category":"76","category_name":"上海菜","address":"上海黄浦区江西中路372号(近宁波路)  "},{"poiid":"B2094757D465A4F5459D","title":"老上海弄堂菜馆 名人店","lon":"121.48452579975","lat":"31.237623382578","category":"76","category_name":"上海菜","address":"黄浦区南京东路300号名人商业大厦6楼(近河南中路)"},{"poiid":"B2094757D068A4F9469A","title":"成隆行蟹王府","lon":"121.485942537","lat":"31.2369416306","category":"257","category_name":"中餐厅","address":"黄浦区九江路216号(河南中路口)"},{"poiid":"B2094750D26EAAFD4998","title":"融合马来西亚餐厅 名人店 Food Fusion","lon":"121.48440778255","lat":"31.237504128155","category":"110","category_name":"其他亚洲菜","address":"黄浦区南京东路300号名人购物中心L413-415室(近南京东路地铁站2号口)"},{"poiid":"B2094757DB6CA6FD419A","title":"Cuvve","lon":"121.485513","lat":"31.240501","category":"248","category_name":"生活娱乐","address":"外灘十八號"},{"poiid":"B2094757D068A2FE4799","title":"小杨生煎(河南中路店)","lon":"121.4841","lat":"31.239","category":"68","category_name":"快餐厅","address":"黄浦区宁波路178号(近河南中路)"},{"poiid":"B2094757D068A0FB449B","title":"大家乐(南京东路店)","lon":"121.484654738","lat":"31.2374831547","category":"500","category_name":"未知分类","address":"上海市黄浦区南京东路300号名人商业大厦L317-18单元"},{"poiid":"B2094753D469A5FC469E","title":"年代秀饭堂","lon":"121.483963","lat":"31.23822","category":"247","category_name":"餐饮美食","address":"上海市 天津路118号（近河南中路）"},{"poiid":"B2094757D06EAAFC4293","title":"太平洋咖啡Pacific Coffee(名人商业大厦店)","lon":"121.484204","lat":"31.237958","category":"260","category_name":"其他","address":"黄浦区南京东路300号名人购物中心L2楼211-212室(河南中路口)"},{"poiid":"B2094757D469A5F84698","title":"亚洲蕉叶 南京东路店","lon":"121.4848452","lat":"31.2375642","category":"110","category_name":"其他亚洲菜","address":"黄浦区南京东路300号名人购物中心5楼"},{"poiid":"B2094757D469A7FA449C","title":"龙记茶餐厅 南京东路店","lon":"121.48559","lat":"31.23748","category":"257","category_name":"中餐厅","address":"黄浦区南京东路233号南京大楼5楼(近河南中路)"},{"poiid":"B2094757D16DA0FD429F","title":"苹果旗舰店南京东路","lon":"121.485093338","lat":"31.2374578541","category":"500","category_name":"未知分类","address":"上海南京东路300号"},{"poiid":"B2094752DA65A2F8419B","title":"上海外滩","lon":"121.484815","lat":"31.237563","category":"500","category_name":"未知分类","address":"上海市 外滩18号"},{"poiid":"B2094751D36EA3F9459A","title":"云上云源生态云南菜","lon":"121.48562","lat":"31.23753","category":"76","category_name":"上海菜","address":"黄浦区南京东路233号南京大厦5楼(近河南路)"},{"poiid":"B2094654DB69A4FE439E","title":"莫泰168连锁旅店(外滩店)","lon":"121.48634","lat":"31.23979","category":"216","category_name":"经济型连锁酒店","address":"上海黄浦区宁波路50号（近江西中路口）"},{"poiid":"B2094757D06FABF5429F","title":"新发记港式茶餐厅","lon":"121.4876","lat":"31.23866","category":"72","category_name":"广东菜","address":"上海黄浦区四川中路417号(近南京东路)"},{"poiid":"B2094757D06EAAFE409B","title":"ANNA BANANA 爱酸奶","lon":"121.48458173","lat":"31.237558456","category":"67","category_name":"甜品店","address":"上海黄浦区河南中路88号威斯汀大饭店101室(广东路口)"},{"poiid":"B2094654DA6FA4FB4598","title":"申华金融大厦","lon":"121.48691","lat":"31.23962","category":"46","category_name":"楼宇","address":"浦东临港新城主城区申港大道200号"},{"poiid":"B2094654DA6FA4FB4199","title":"香港仔码头茶餐厅(河南中路店)","lon":"121.48529","lat":"31.2369","category":"72","category_name":"广东菜","address":"上海黄浦区河南中路368号(近南京东路)"},{"poiid":"B2094757DA6FA3F5499C","title":"金装大家乐茶餐厅(南京东路店)","lon":"121.487614100001","lat":"31.2384557","category":"72","category_name":"广东菜","address":"黄浦区南京东路300号名人购物中心3楼(近苹果南京路旗舰店)"},{"poiid":"B2094757DB6CA4FF419D","title":"汉拿山","lon":"121.48404","lat":"31.23815","category":"96","category_name":"韩国料理","address":"黄浦区南京东路300号名人大厦5楼511-513号(近河南中路)"},{"poiid":"B2094757D068A7F44893","title":"小梁园精菜坊","lon":"121.48434","lat":"31.23824","category":"75","category_name":"浙江菜","address":"黄浦区天津路118号(近河南中路)"},{"poiid":"B2094757D065A4FD4893","title":"轨道交通2号线(南京东路)","lon":"121.484178138","lat":"31.2382214704","category":"500","category_name":"未知分类","address":"上海南京东路河南中路(可换乘轨道交通10号线)"},{"poiid":"B2094757D068A1FD489D","title":"亚洲大厦","lon":"121.485","lat":"31.2397","category":"46","category_name":"楼宇","address":"松江区工业区鼎源路广富林路路口"},{"poiid":"B2094757D06FA0F4489D","title":"味千拉面(宏伊店)","lon":"121.48457943","lat":"31.237201398","category":"95","category_name":"日本料理","address":"黄浦区南京东路830号第一百货新楼B1楼(近西藏中路)"},{"poiid":"B2094654DA6FA4FF459D","title":"宝龙大酒楼","lon":"121.48596793288","lat":"31.240782833756","category":"72","category_name":"广东菜","address":"黄浦区北京东路230号(近河南中路)"},{"poiid":"B2094654DA6FA0FB469F","title":"汇金大厦","lon":"121.48732391965","lat":"31.240035306526","category":"46","category_name":"楼宇","address":"丰台学城海鹰路1号,3号"},{"poiid":"B2094757D064ABFE4899","title":"中国银行外滩多媒体教室","lon":"121.48706973","lat":"31.23868248","category":"500","category_name":"未知分类","address":"上海滇池路74号540室"},{"poiid":"B2094757D069A0FE4599","title":"三林塘馄饨店","lon":"121.48568504662","lat":"31.240624646304","category":"68","category_name":"快餐厅","address":"黄浦区江西中路416号(北京东路口)"},{"poiid":"B2094757D468A6FB4899","title":"85度C 宁波路店","lon":"121.484141054","lat":"31.239500793","category":"112","category_name":"糕饼店","address":"黄浦区河南中路521-3号(宁波路口)"},{"poiid":"B2094757D16DA3FA469C","title":"大块头面菜馆","lon":"121.485606738","lat":"31.2383654735","category":"68","category_name":"快餐厅","address":"黄浦区宁波路190号(近河南中路)"},{"poiid":"B2094750D26FABFE4898","title":"muse1","lon":"121.485687","lat":"31.240003","category":"500","category_name":"未知分类","address":"北京东路圆明圆路"},{"poiid":"B2094655D36CA5F5419D","title":"北京东路四川中路","lon":"121.48625","lat":"31.24066","category":"38","category_name":"公交车站","address":"上海北京东路四川中路"},{"poiid":"B2094757D16AA5F54698","title":"珂兰钻石","lon":"121.484550738","lat":"31.2375184554","category":"249","category_name":"购物服务","address":"黄浦区南京东路300号名人商厦503-504室(近河南中路)查看地图"},{"poiid":"B2094753D16DA1FA4492","title":"外滩和平饭店","lon":"121.486209","lat":"31.240235","category":"247","category_name":"餐饮美食","address":"上海市 外滩和平饭店"},{"poiid":"B2094654DB69A6FE4693","title":"滇池大楼","lon":"121.48584","lat":"31.24007","category":"46","category_name":"楼宇","address":"昌平区回龙观镇国际信息产业基地高新二街"},{"poiid":"B2094655D26FA6FB4898","title":"美伦大楼","lon":"121.48694","lat":"31.23808","category":"46","category_name":"楼宇","address":"昌平区回龙观镇国际信息产业基地高新二街"},{"poiid":"B2094654DA6FA4FF449A","title":"宁波小区","lon":"121.48452","lat":"31.239851","category":"47","category_name":"住宅区","address":"上海宁波路120号"},{"poiid":"B2094750D76CA6FC489E","title":"AnnaBanana爱酸奶(南京东路店)","lon":"121.485","lat":"31.2376","category":"68","category_name":"快餐厅","address":"南京东路300号名人购物中心1楼L115室(近河南中路)"},{"poiid":"B2094655D26DA7FE4793","title":"南京路步行街(东门)","lon":"121.48473","lat":"31.23754","category":"116","category_name":"特色商业街","address":""},{"poiid":"B2094757DA69A3F44592","title":"甲泰餐厅","lon":"121.48598641005","lat":"31.239524260517","category":"99","category_name":"泰国／越南菜品餐厅","address":"黄浦区宁波路51号(近江西中路)"},{"poiid":"B2094757D06EAAF84992","title":"Apple Store 苹果官方零售店(南京东路店)","lon":"121.484334712","lat":"31.2375712753","category":"138","category_name":"家电电子卖场","address":"上海市黄浦区南京东路300号名人购物中心B1-F2(河南中路口)"},{"poiid":"B209475CD564A7F84292","title":"上海滩新天地店","lon":"121.47463","lat":"31.22164","category":"119","category_name":"商场","address":"\"太仓路181弄新天地北里15号\r\n\""},{"poiid":"B209475CD564A7F84392","title":"上海滩浦东香格里拉店","lon":"121.50058","lat":"31.23634","category":"119","category_name":"商场","address":"浦东富成路33号香格里拉酒店内大堂层"},{"poiid":"B2094757D06EAAF8499E","title":"南京东路地铁站","lon":"121.484855","lat":"31.237632","category":"36","category_name":"地铁站","address":"上海轨道交通 二号线 十号线 轨交南京东路站 2 10"},{"poiid":"B2094757D068A3FE4992","title":"星巴克(名人大厦店)","lon":"121.4848452","lat":"31.2375642","category":"260","category_name":"其他","address":"黄浦区南京东路300号名人购物中心1楼L114号铺(近河南路)"},{"poiid":"B2094757D76AA7FD469D","title":"赤坂亭 南京东路店 A KA SA KA TEI","lon":"121.48449","lat":"31.23748","category":"268","category_name":"自助","address":"黄浦区南京东路300号名人购物中心3楼L312-313室(近河南中路)"},{"poiid":"B2094757D16DAAFD439D","title":"融合马来西亚","lon":"121.48441473","lat":"31.237640458","category":"500","category_name":"未知分类","address":"上海名人购物中心"},{"poiid":"B2094757D06FAAF9469A","title":"汉拿山","lon":"121.484004738","lat":"31.2379848654","category":"500","category_name":"未知分类","address":"上海名人广场5F"},{"poiid":"B2094757D06FA0FC479A","title":"尚一汤(名人店)","lon":"121.484609045","lat":"31.2375079839","category":"72","category_name":"广东菜","address":"黄浦区南京东路300号名人购物中心4楼420单元(河南中路口)"},{"poiid":"B2094757D06FA2F44099","title":"绿雅酒家","lon":"121.48623","lat":"31.23976","category":"76","category_name":"上海菜","address":"上海黄浦区江西中路372号(近宁波路)  "},{"poiid":"B2094757D465A4F5459D","title":"老上海弄堂菜馆 名人店","lon":"121.48452579975","lat":"31.237623382578","category":"76","category_name":"上海菜","address":"黄浦区南京东路300号名人商业大厦6楼(近河南中路)"},{"poiid":"B2094757D068A4F9469A","title":"成隆行蟹王府","lon":"121.485942537","lat":"31.2369416306","category":"257","category_name":"中餐厅","address":"黄浦区九江路216号(河南中路口)"},{"poiid":"B2094750D26EAAFD4998","title":"融合马来西亚餐厅 名人店 Food Fusion","lon":"121.48440778255","lat":"31.237504128155","category":"110","category_name":"其他亚洲菜","address":"黄浦区南京东路300号名人购物中心L413-415室(近南京东路地铁站2号口)"},{"poiid":"B2094757DB6CA6FD419A","title":"Cuvve","lon":"121.485513","lat":"31.240501","category":"248","category_name":"生活娱乐","address":"外灘十八號"},{"poiid":"B2094757D068A2FE4799","title":"小杨生煎(河南中路店)","lon":"121.4841","lat":"31.239","category":"68","category_name":"快餐厅","address":"黄浦区宁波路178号(近河南中路)"},{"poiid":"B2094757D068A0FB449B","title":"大家乐(南京东路店)","lon":"121.484654738","lat":"31.2374831547","category":"500","category_name":"未知分类","address":"上海市黄浦区南京东路300号名人商业大厦L317-18单元"},{"poiid":"B2094753D469A5FC469E","title":"年代秀饭堂","lon":"121.483963","lat":"31.23822","category":"247","category_name":"餐饮美食","address":"上海市 天津路118号（近河南中路）"},{"poiid":"B2094757D06EAAFC4293","title":"太平洋咖啡Pacific Coffee(名人商业大厦店)","lon":"121.484204","lat":"31.237958","category":"260","category_name":"其他","address":"黄浦区南京东路300号名人购物中心L2楼211-212室(河南中路口)"},{"poiid":"B2094757D469A5F84698","title":"亚洲蕉叶 南京东路店","lon":"121.4848452","lat":"31.2375642","category":"110","category_name":"其他亚洲菜","address":"黄浦区南京东路300号名人购物中心5楼"},{"poiid":"B2094757D469A7FA449C","title":"龙记茶餐厅 南京东路店","lon":"121.48559","lat":"31.23748","category":"257","category_name":"中餐厅","address":"黄浦区南京东路233号南京大楼5楼(近河南中路)"},{"poiid":"B2094757D16DA0FD429F","title":"苹果旗舰店南京东路","lon":"121.485093338","lat":"31.2374578541","category":"500","category_name":"未知分类","address":"上海南京东路300号"},{"poiid":"B2094752DA65A2F8419B","title":"上海外滩","lon":"121.484815","lat":"31.237563","category":"500","category_name":"未知分类","address":"上海市 外滩18号"},{"poiid":"B2094751D36EA3F9459A","title":"云上云源生态云南菜","lon":"121.48562","lat":"31.23753","category":"76","category_name":"上海菜","address":"黄浦区南京东路233号南京大厦5楼(近河南路)"},{"poiid":"B2094654DB69A4FE439E","title":"莫泰168连锁旅店(外滩店)","lon":"121.48634","lat":"31.23979","category":"216","category_name":"经济型连锁酒店","address":"上海黄浦区宁波路50号（近江西中路口）"},{"poiid":"B2094757D06FABF5429F","title":"新发记港式茶餐厅","lon":"121.4876","lat":"31.23866","category":"72","category_name":"广东菜","address":"上海黄浦区四川中路417号(近南京东路)"},{"poiid":"B2094757D06EAAFE409B","title":"ANNA BANANA 爱酸奶","lon":"121.48458173","lat":"31.237558456","category":"67","category_name":"甜品店","address":"上海黄浦区河南中路88号威斯汀大饭店101室(广东路口)"},{"poiid":"B2094654DA6FA4FB4598","title":"申华金融大厦","lon":"121.48691","lat":"31.23962","category":"46","category_name":"楼宇","address":"浦东临港新城主城区申港大道200号"},{"poiid":"B2094654DA6FA4FB4199","title":"香港仔码头茶餐厅(河南中路店)","lon":"121.48529","lat":"31.2369","category":"72","category_name":"广东菜","address":"上海黄浦区河南中路368号(近南京东路)"},{"poiid":"B2094757DA6FA3F5499C","title":"金装大家乐茶餐厅(南京东路店)","lon":"121.487614100001","lat":"31.2384557","category":"72","category_name":"广东菜","address":"黄浦区南京东路300号名人购物中心3楼(近苹果南京路旗舰店)"},{"poiid":"B2094757DB6CA4FF419D","title":"汉拿山","lon":"121.48404","lat":"31.23815","category":"96","category_name":"韩国料理","address":"黄浦区南京东路300号名人大厦5楼511-513号(近河南中路)"},{"poiid":"B2094757D068A7F44893","title":"小梁园精菜坊","lon":"121.48434","lat":"31.23824","category":"75","category_name":"浙江菜","address":"黄浦区天津路118号(近河南中路)"},{"poiid":"B2094757D065A4FD4893","title":"轨道交通2号线(南京东路)","lon":"121.484178138","lat":"31.2382214704","category":"500","category_name":"未知分类","address":"上海南京东路河南中路(可换乘轨道交通10号线)"},{"poiid":"B2094757D068A1FD489D","title":"亚洲大厦","lon":"121.485","lat":"31.2397","category":"46","category_name":"楼宇","address":"松江区工业区鼎源路广富林路路口"},{"poiid":"B2094757D06FA0F4489D","title":"味千拉面(宏伊店)","lon":"121.48457943","lat":"31.237201398","category":"95","category_name":"日本料理","address":"黄浦区南京东路830号第一百货新楼B1楼(近西藏中路)"},{"poiid":"B2094654DA6FA4FF459D","title":"宝龙大酒楼","lon":"121.48596793288","lat":"31.240782833756","category":"72","category_name":"广东菜","address":"黄浦区北京东路230号(近河南中路)"},{"poiid":"B2094654DA6FA0FB469F","title":"汇金大厦","lon":"121.48732391965","lat":"31.240035306526","category":"46","category_name":"楼宇","address":"丰台学城海鹰路1号,3号"},{"poiid":"B2094757D064ABFE4899","title":"中国银行外滩多媒体教室","lon":"121.48706973","lat":"31.23868248","category":"500","category_name":"未知分类","address":"上海滇池路74号540室"},{"poiid":"B2094757D069A0FE4599","title":"三林塘馄饨店","lon":"121.48568504662","lat":"31.240624646304","category":"68","category_name":"快餐厅","address":"黄浦区江西中路416号(北京东路口)"},{"poiid":"B2094757D468A6FB4899","title":"85度C 宁波路店","lon":"121.484141054","lat":"31.239500793","category":"112","category_name":"糕饼店","address":"黄浦区河南中路521-3号(宁波路口)"},{"poiid":"B2094757D16DA3FA469C","title":"大块头面菜馆","lon":"121.485606738","lat":"31.2383654735","category":"68","category_name":"快餐厅","address":"黄浦区宁波路190号(近河南中路)"},{"poiid":"B2094750D26FABFE4898","title":"muse1","lon":"121.485687","lat":"31.240003","category":"500","category_name":"未知分类","address":"北京东路圆明圆路"},{"poiid":"B2094655D36CA5F5419D","title":"北京东路四川中路","lon":"121.48625","lat":"31.24066","category":"38","category_name":"公交车站","address":"上海北京东路四川中路"},{"poiid":"B2094757D16AA5F54698","title":"珂兰钻石","lon":"121.484550738","lat":"31.2375184554","category":"249","category_name":"购物服务","address":"黄浦区南京东路300号名人商厦503-504室(近河南中路)查看地图"},{"poiid":"B2094753D16DA1FA4492","title":"外滩和平饭店","lon":"121.486209","lat":"31.240235","category":"247","category_name":"餐饮美食","address":"上海市 外滩和平饭店"},{"poiid":"B2094654DB69A6FE4693","title":"滇池大楼","lon":"121.48584","lat":"31.24007","category":"46","category_name":"楼宇","address":"昌平区回龙观镇国际信息产业基地高新二街"},{"poiid":"B2094655D26FA6FB4898","title":"美伦大楼","lon":"121.48694","lat":"31.23808","category":"46","category_name":"楼宇","address":"昌平区回龙观镇国际信息产业基地高新二街"},{"poiid":"B2094654DA6FA4FF449A","title":"宁波小区","lon":"121.48452","lat":"31.239851","category":"47","category_name":"住宅区","address":"上海宁波路120号"},{"poiid":"B2094750D76CA6FC489E","title":"AnnaBanana爱酸奶(南京东路店)","lon":"121.485","lat":"31.2376","category":"68","category_name":"快餐厅","address":"南京东路300号名人购物中心1楼L115室(近河南中路)"},{"poiid":"B2094655D26DA7FE4793","title":"南京路步行街(东门)","lon":"121.48473","lat":"31.23754","category":"116","category_name":"特色商业街","address":""},{"poiid":"B2094757DA69A3F44592","title":"甲泰餐厅","lon":"121.48598641005","lat":"31.239524260517","category":"99","category_name":"泰国／越南菜品餐厅","address":"黄浦区宁波路51号(近江西中路)"},{"poiid":"B2094757D06EAAF84992","title":"Apple Store 苹果官方零售店(南京东路店)","lon":"121.484334712","lat":"31.2375712753","category":"138","category_name":"家电电子卖场","address":"上海市黄浦区南京东路300号名人购物中心B1-F2(河南中路口)"},{"poiid":"B209475CD564A7F84292","title":"上海滩新天地店","lon":"121.47463","lat":"31.22164","category":"119","category_name":"商场","address":"\"太仓路181弄新天地北里15号\r\n\""},{"poiid":"B209475CD564A7F84392","title":"上海滩浦东香格里拉店","lon":"121.50058","lat":"31.23634","category":"119","category_name":"商场","address":"浦东富成路33号香格里拉酒店内大堂层"},{"poiid":"B2094757D06EAAF8499E","title":"南京东路地铁站","lon":"121.484855","lat":"31.237632","category":"36","category_name":"地铁站","address":"上海轨道交通 二号线 十号线 轨交南京东路站 2 10"},{"poiid":"B2094757D068A3FE4992","title":"星巴克(名人大厦店)","lon":"121.4848452","lat":"31.2375642","category":"260","category_name":"其他","address":"黄浦区南京东路300号名人购物中心1楼L114号铺(近河南路)"},{"poiid":"B2094757D76AA7FD469D","title":"赤坂亭 南京东路店 A KA SA KA TEI","lon":"121.48449","lat":"31.23748","category":"268","category_name":"自助","address":"黄浦区南京东路300号名人购物中心3楼L312-313室(近河南中路)"},{"poiid":"B2094757D16DAAFD439D","title":"融合马来西亚","lon":"121.48441473","lat":"31.237640458","category":"500","category_name":"未知分类","address":"上海名人购物中心"},{"poiid":"B2094757D06FAAF9469A","title":"汉拿山","lon":"121.484004738","lat":"31.2379848654","category":"500","category_name":"未知分类","address":"上海名人广场5F"},{"poiid":"B2094757D06FA0FC479A","title":"尚一汤(名人店)","lon":"121.484609045","lat":"31.2375079839","category":"72","category_name":"广东菜","address":"黄浦区南京东路300号名人购物中心4楼420单元(河南中路口)"},{"poiid":"B2094757D06FA2F44099","title":"绿雅酒家","lon":"121.48623","lat":"31.23976","category":"76","category_name":"上海菜","address":"上海黄浦区江西中路372号(近宁波路)  "},{"poiid":"B2094757D465A4F5459D","title":"老上海弄堂菜馆 名人店","lon":"121.48452579975","lat":"31.237623382578","category":"76","category_name":"上海菜","address":"黄浦区南京东路300号名人商业大厦6楼(近河南中路)"},{"poiid":"B2094757D068A4F9469A","title":"成隆行蟹王府","lon":"121.485942537","lat":"31.2369416306","category":"257","category_name":"中餐厅","address":"黄浦区九江路216号(河南中路口)"},{"poiid":"B2094750D26EAAFD4998","title":"融合马来西亚餐厅 名人店 Food Fusion","lon":"121.48440778255","lat":"31.237504128155","category":"110","category_name":"其他亚洲菜","address":"黄浦区南京东路300号名人购物中心L413-415室(近南京东路地铁站2号口)"},{"poiid":"B2094757DB6CA6FD419A","title":"Cuvve","lon":"121.485513","lat":"31.240501","category":"248","category_name":"生活娱乐","address":"外灘十八號"},{"poiid":"B2094757D068A2FE4799","title":"小杨生煎(河南中路店)","lon":"121.4841","lat":"31.239","category":"68","category_name":"快餐厅","address":"黄浦区宁波路178号(近河南中路)"},{"poiid":"B2094757D068A0FB449B","title":"大家乐(南京东路店)","lon":"121.484654738","lat":"31.2374831547","category":"500","category_name":"未知分类","address":"上海市黄浦区南京东路300号名人商业大厦L317-18单元"},{"poiid":"B2094753D469A5FC469E","title":"年代秀饭堂","lon":"121.483963","lat":"31.23822","category":"247","category_name":"餐饮美食","address":"上海市 天津路118号（近河南中路）"},{"poiid":"B2094757D06EAAFC4293","title":"太平洋咖啡Pacific Coffee(名人商业大厦店)","lon":"121.484204","lat":"31.237958","category":"260","category_name":"其他","address":"黄浦区南京东路300号名人购物中心L2楼211-212室(河南中路口)"},{"poiid":"B2094757D469A5F84698","title":"亚洲蕉叶 南京东路店","lon":"121.4848452","lat":"31.2375642","category":"110","category_name":"其他亚洲菜","address":"黄浦区南京东路300号名人购物中心5楼"},{"poiid":"B2094757D469A7FA449C","title":"龙记茶餐厅 南京东路店","lon":"121.48559","lat":"31.23748","category":"257","category_name":"中餐厅","address":"黄浦区南京东路233号南京大楼5楼(近河南中路)"},{"poiid":"B2094757D16DA0FD429F","title":"苹果旗舰店南京东路","lon":"121.485093338","lat":"31.2374578541","category":"500","category_name":"未知分类","address":"上海南京东路300号"},{"poiid":"B2094752DA65A2F8419B","title":"上海外滩","lon":"121.484815","lat":"31.237563","category":"500","category_name":"未知分类","address":"上海市 外滩18号"},{"poiid":"B2094751D36EA3F9459A","title":"云上云源生态云南菜","lon":"121.48562","lat":"31.23753","category":"76","category_name":"上海菜","address":"黄浦区南京东路233号南京大厦5楼(近河南路)"},{"poiid":"B2094654DB69A4FE439E","title":"莫泰168连锁旅店(外滩店)","lon":"121.48634","lat":"31.23979","category":"216","category_name":"经济型连锁酒店","address":"上海黄浦区宁波路50号（近江西中路口）"},{"poiid":"B2094757D06FABF5429F","title":"新发记港式茶餐厅","lon":"121.4876","lat":"31.23866","category":"72","category_name":"广东菜","address":"上海黄浦区四川中路417号(近南京东路)"},{"poiid":"B2094757D06EAAFE409B","title":"ANNA BANANA 爱酸奶","lon":"121.48458173","lat":"31.237558456","category":"67","category_name":"甜品店","address":"上海黄浦区河南中路88号威斯汀大饭店101室(广东路口)"},{"poiid":"B2094654DA6FA4FB4598","title":"申华金融大厦","lon":"121.48691","lat":"31.23962","category":"46","category_name":"楼宇","address":"浦东临港新城主城区申港大道200号"},{"poiid":"B2094654DA6FA4FB4199","title":"香港仔码头茶餐厅(河南中路店)","lon":"121.48529","lat":"31.2369","category":"72","category_name":"广东菜","address":"上海黄浦区河南中路368号(近南京东路)"},{"poiid":"B2094757DA6FA3F5499C","title":"金装大家乐茶餐厅(南京东路店)","lon":"121.487614100001","lat":"31.2384557","category":"72","category_name":"广东菜","address":"黄浦区南京东路300号名人购物中心3楼(近苹果南京路旗舰店)"},{"poiid":"B2094757DB6CA4FF419D","title":"汉拿山","lon":"121.48404","lat":"31.23815","category":"96","category_name":"韩国料理","address":"黄浦区南京东路300号名人大厦5楼511-513号(近河南中路)"},{"poiid":"B2094757D068A7F44893","title":"小梁园精菜坊","lon":"121.48434","lat":"31.23824","category":"75","category_name":"浙江菜","address":"黄浦区天津路118号(近河南中路)"},{"poiid":"B2094757D065A4FD4893","title":"轨道交通2号线(南京东路)","lon":"121.484178138","lat":"31.2382214704","category":"500","category_name":"未知分类","address":"上海南京东路河南中路(可换乘轨道交通10号线)"},{"poiid":"B2094757D068A1FD489D","title":"亚洲大厦","lon":"121.485","lat":"31.2397","category":"46","category_name":"楼宇","address":"松江区工业区鼎源路广富林路路口"},{"poiid":"B2094757D06FA0F4489D","title":"味千拉面(宏伊店)","lon":"121.48457943","lat":"31.237201398","category":"95","category_name":"日本料理","address":"黄浦区南京东路830号第一百货新楼B1楼(近西藏中路)"},{"poiid":"B2094654DA6FA4FF459D","title":"宝龙大酒楼","lon":"121.48596793288","lat":"31.240782833756","category":"72","category_name":"广东菜","address":"黄浦区北京东路230号(近河南中路)"},{"poiid":"B2094654DA6FA0FB469F","title":"汇金大厦","lon":"121.48732391965","lat":"31.240035306526","category":"46","category_name":"楼宇","address":"丰台学城海鹰路1号,3号"},{"poiid":"B2094757D064ABFE4899","title":"中国银行外滩多媒体教室","lon":"121.48706973","lat":"31.23868248","category":"500","category_name":"未知分类","address":"上海滇池路74号540室"},{"poiid":"B2094757D069A0FE4599","title":"三林塘馄饨店","lon":"121.48568504662","lat":"31.240624646304","category":"68","category_name":"快餐厅","address":"黄浦区江西中路416号(北京东路口)"},{"poiid":"B2094757D468A6FB4899","title":"85度C 宁波路店","lon":"121.484141054","lat":"31.239500793","category":"112","category_name":"糕饼店","address":"黄浦区河南中路521-3号(宁波路口)"},{"poiid":"B2094757D16DA3FA469C","title":"大块头面菜馆","lon":"121.485606738","lat":"31.2383654735","category":"68","category_name":"快餐厅","address":"黄浦区宁波路190号(近河南中路)"},{"poiid":"B2094750D26FABFE4898","title":"muse1","lon":"121.485687","lat":"31.240003","category":"500","category_name":"未知分类","address":"北京东路圆明圆路"},{"poiid":"B2094655D36CA5F5419D","title":"北京东路四川中路","lon":"121.48625","lat":"31.24066","category":"38","category_name":"公交车站","address":"上海北京东路四川中路"},{"poiid":"B2094757D16AA5F54698","title":"珂兰钻石","lon":"121.484550738","lat":"31.2375184554","category":"249","category_name":"购物服务","address":"黄浦区南京东路300号名人商厦503-504室(近河南中路)查看地图"},{"poiid":"B2094753D16DA1FA4492","title":"外滩和平饭店","lon":"121.486209","lat":"31.240235","category":"247","category_name":"餐饮美食","address":"上海市 外滩和平饭店"},{"poiid":"B2094654DB69A6FE4693","title":"滇池大楼","lon":"121.48584","lat":"31.24007","category":"46","category_name":"楼宇","address":"昌平区回龙观镇国际信息产业基地高新二街"},{"poiid":"B2094655D26FA6FB4898","title":"美伦大楼","lon":"121.48694","lat":"31.23808","category":"46","category_name":"楼宇","address":"昌平区回龙观镇国际信息产业基地高新二街"},{"poiid":"B2094654DA6FA4FF449A","title":"宁波小区","lon":"121.48452","lat":"31.239851","category":"47","category_name":"住宅区","address":"上海宁波路120号"},{"poiid":"B2094750D76CA6FC489E","title":"AnnaBanana爱酸奶(南京东路店)","lon":"121.485","lat":"31.2376","category":"68","category_name":"快餐厅","address":"南京东路300号名人购物中心1楼L115室(近河南中路)"}]