[{"poiid":"B2094655D26FA1FD459E","title":"源深体育中心","lon":"121.53706","lat":"31.2334","category":"224","category_name":"综合体育馆","address":"浦东新区张杨路1458号"},{"poiid":"B2094757D06FA2FA4193","title":"源深体育馆","lon":"121.536191683","lat":"31.2310137082","category":"220","category_name":"运动场所","address":"上海浦东源深路200号"},{"poiid":"B2094757D06FA3F84798","title":"浦东假日酒店","lon":"121.536","lat":"31.2292","category":"214","category_name":"四星级宾馆","address":"浦东新区东方路899号(近向城路)"},{"poiid":"B2094757D06FA3FB429D","title":"浦东游泳馆(源深馆)","lon":"121.53847","lat":"31.23198","category":"231","category_name":"游泳馆","address":"浦东新区张杨路1458号源深体育中心内(近源深路)"},{"poiid":"B2094655D26AA0FB459F","title":"源深体育场","lon":"121.53635","lat":"31.2306","category":"247","category_name":"餐饮美食","address":"浦东新区深源路655号"},{"poiid":"B2094757D068A4F9469E","title":"汉唐酒店","lon":"121.539241","lat":"31.23287","category":"72","category_name":"广东菜","address":"浦东新区桃林路777号(近张杨路)"},{"poiid":"B2094757D06FA6F94692","title":"上海市医药学校","lon":"121.54008","lat":"31.2359","category":"500","category_name":"未知分类","address":"浦东新区沈家弄路700号(近源深体育场)"},{"poiid":"B2094654DA68ABF8499E","title":"陆家嘴国际华城","lon":"121.53563","lat":"31.235361","category":"47","category_name":"住宅区","address":"上海市浦东新区张扬路1351号"},{"poiid":"B2094757D068A6FE429D","title":"枣子树 源深店","lon":"121.534981","lat":"31.23073","category":"89","category_name":"中式素餐馆","address":"浦东新区张杨路1458号源深体育中心北区3楼(近源深路)"},{"poiid":"B2094757D06FA5F8489D","title":"源深篮球公园","lon":"121.536632157","lat":"31.2295100303","category":"220","category_name":"运动场所","address":"浦东新区羽山路9号浦东源深体育中心6号门(潍坊路羽山路)"},{"poiid":"B2094757D06FABFE439A","title":"宏嘉大厦","lon":"121.537","lat":"31.2307","category":"46","category_name":"楼宇","address":"上海浦东新区福山路388号"},{"poiid":"B2094757D068A1FB479A","title":"陆家嘴花园","lon":"121.540586699","lat":"31.2326953785","category":"47","category_name":"住宅区","address":"上海浦东新区桃林路815弄"},{"poiid":"B2094757D06FA2F9499F","title":"源深体育中心羽毛球场","lon":"121.538296989","lat":"31.2324749785","category":"220","category_name":"运动场所","address":"浦东新区张杨路1458号源深体育中心内(近源深路)"},{"poiid":"B2094654DA6AA2FD4292","title":"东方国际科技大厦","lon":"121.537","lat":"31.2299","category":"46","category_name":"楼宇","address":"浦东新区向城路58号"},{"poiid":"B2094655D26EA7FA4293","title":"苏先生海鲜渔庄 源深店","lon":"121.53480097364","lat":"31.232918552506","category":"260","category_name":"其他","address":"浦东新区源深路655号体育中心内(近张杨路)"},{"poiid":"B2094757D06FABFF4799","title":"老碗 源深店","lon":"121.537022054","lat":"31.229380793","category":"84","category_name":"西北菜","address":"浦东新区羽山路68号(近源深路)"},{"poiid":"B2094757D165AAF54892","title":"陆家嘴基金大厦","lon":"121.539","lat":"31.2302","category":"46","category_name":"楼宇","address":"上海竹林路101號"},{"poiid":"B2094654DA68ABFF489B","title":"上海市第二轻工业学校","lon":"121.53842","lat":"31.23609","category":"54","category_name":"职业技术学校","address":"浦东新区沈家弄路650号"},{"poiid":"B2094757D068A5F44598","title":"船长高尔夫","lon":"121.53754","lat":"31.23753","category":"206","category_name":"高尔夫相关","address":"浦东新区商城路1860号(桃林路口)"},{"poiid":"B2094655D26EA3F5479B","title":"中国电信张杨路营业厅","lon":"121.53703","lat":"31.23426","category":"151","category_name":"电讯营业厅","address":"张杨路1551号"},{"poiid":"B2094757D065A7F44498","title":"爱康国宾","lon":"121.537822","lat":"31.237644","category":"902","category_name":"楼宇机构","address":"上海商城路1900号"},{"poiid":"B2094757D068A4FA489C","title":"鼎杰保龄球馆","lon":"121.53581","lat":"31.23152","category":"228","category_name":"保龄球馆","address":"浦东新区张杨路1458号源深体育馆3号门1楼(近源深路)"},{"poiid":"B2094757D06FAAF94899","title":"同盛大厦","lon":"121.538","lat":"31.2292","category":"46","category_name":"楼宇","address":"黄浦区南京东路311号"},{"poiid":"B2094757D66BA2FA4098","title":"紫阳富豪精菜坊","lon":"121.53687","lat":"31.23347","category":"72","category_name":"广东菜","address":"浦东新区张杨路1458号源深体育中心1楼(近桃林路)"},{"poiid":"B2094654DA69AAFF4293","title":"上海钦赐仰殿道观","lon":"121.53257","lat":"31.23426","category":"244","category_name":"寺庙道观","address":"浦东新区源深路476号(近张杨路)"},{"poiid":"B2094757D069A1F84599","title":"全华信息大厦","lon":"121.538","lat":"31.2304","category":"46","category_name":"楼宇","address":"黄陂区楚天大道与盘龙三路交汇处"},{"poiid":"B2094750DA6EA7F94892","title":"6号线世纪大道站","lon":"121.533592","lat":"31.230928","category":"500","category_name":"未知分类","address":"世纪大道"},{"poiid":"B2094757D068A1FF4398","title":"国际华城","lon":"121.53430175","lat":"31.233566284","category":"47","category_name":"住宅区","address":"上海源深路419号"},{"poiid":"B2094654DA6AA3FA4792","title":"嘉兴大厦","lon":"121.535","lat":"31.2305","category":"46","category_name":"楼宇","address":"丰台学城海鹰路1号,3号"},{"poiid":"B2094654DB69AAF9499D","title":"宁波汉通酒店","lon":"121.53834","lat":"31.2347","category":"247","category_name":"餐饮美食","address":"上海市浦东新区张杨路1587号八方大厦2楼(近桃林路)"},{"poiid":"B2094654DB64A6FB449B","title":"莫泰268(上海羽山路店)","lon":"121.53953","lat":"31.23068","category":"250","category_name":"公园户外","address":"上海市浦东新区羽山路166号(近桃林路)"},{"poiid":"B2094757D569A2FE459F","title":"茶识地","lon":"121.53570584","lat":"31.23188911","category":"66","category_name":"茶艺馆","address":"浦东新区张杨路1458号源深体育中心1楼(近源深路)"},{"poiid":"B2094757D06FABF5459A","title":"新天国际大厦","lon":"121.538","lat":"31.2301","category":"46","category_name":"楼宇","address":"上海市长宁区遵义南路88号"},{"poiid":"B2094654DA69A5F4459E","title":"众城大厦","lon":"121.53220617513","lat":"31.232716882997","category":"46","category_name":"楼宇","address":"上海市浦东新区张杨路500号"},{"poiid":"B2094751D465A3F4489B","title":"镰仓pasta","lon":"121.538772","lat":"31.229763","category":"247","category_name":"餐饮美食","address":"浦东新区东方路796号96广场9号门2楼212单元(近世纪大道)"},{"poiid":"B2094654DB6BABF44498","title":"上海市环境学校","lon":"121.53858","lat":"31.23765","category":"54","category_name":"职业技术学校","address":"商城路1980"},{"poiid":"B2094757D069A1FA489E","title":"索福德足球世界(源深体育中心店)","lon":"121.53465","lat":"31.23251","category":"220","category_name":"运动场所","address":"浦东新区张杨路1458号源深体育中心内(近源深路)"},{"poiid":"B2094654DA68ABF84393","title":"八方大酒店","lon":"121.53851","lat":"31.23477","category":"215","category_name":"三星级宾馆","address":"张杨路1587号(近桃林路)"},{"poiid":"B2094654DB64ABF9479B","title":"源深游泳馆","lon":"121.53855","lat":"31.23223","category":"231","category_name":"游泳馆","address":"桃林路892"},{"poiid":"B2094757D66CA2F94092","title":"老干部活动中心","lon":"121.536842","lat":"31.233563","category":"500","category_name":"未知分类","address":"浦东新区张杨路1458号源深体育中心内(近源深路)"},{"poiid":"B2094654DA68ABFF499D","title":"金桃大厦","lon":"121.53782","lat":"31.23764","category":"46","category_name":"楼宇","address":"普陀区宜昌路88号梦清园公园内"},{"poiid":"B2094757DB6DA5F8439E","title":"上海鄂尔多斯艾力酒店","lon":"121.539521813","lat":"31.233371411","category":"216","category_name":"经济型连锁酒店","address":"桃林路777号(靠近张杨路路口)"},{"poiid":"B2094757D068A1FF4193","title":"国际华城小区","lon":"121.53621114","lat":"31.23470831","category":"47","category_name":"住宅区","address":"上海张杨路1515号"},{"poiid":"B2094654DA69A3F94292","title":"源深体育发展中心(3号门)","lon":"121.53694","lat":"31.23336","category":"224","category_name":"综合体育馆","address":"张杨路1458"},{"poiid":"B2094654DB64A5FD4098","title":"斯巴顿健身会所(源深店)","lon":"121.53562","lat":"31.23536","category":"221","category_name":"健身中心","address":"浦东新区张杨路1515弄19号陆家嘴国际华城(近源深路)"},{"poiid":"B2094655D26FAAFA419C","title":"建平中学西校(陆家嘴国际华城西南)","lon":"121.53402","lat":"31.2342","category":"55","category_name":"中学","address":"源深路383"},{"poiid":"B2094757D56CA2FA439C","title":"鼓浪屿","lon":"121.54076346374","lat":"31.235272760666","category":"247","category_name":"餐饮美食","address":"浦东新区张杨路1657号鼓浪屿休闲浴场2楼(近民生路)"},{"poiid":"B2094654DA6AA2FE4799","title":"爵士大厦","lon":"121.535","lat":"31.2306","category":"46","category_name":"楼宇","address":"向城路29号"},{"poiid":"B2094655D26DA7FF469D","title":"八方大厦","lon":"121.5382","lat":"31.234913","category":"47","category_name":"住宅区","address":"张杨路1551-1591号"},{"poiid":"B2094654DB69A6F9419D","title":"陆家嘴巴洛克风情","lon":"121.53272","lat":"31.23542","category":"46","category_name":"楼宇","address":"铁西区铁西兴华街与南十中路交处(兴华南街48号)"},{"poiid":"B2094655D26FA1FD459E","title":"源深体育中心","lon":"121.53706","lat":"31.2334","category":"224","category_name":"综合体育馆","address":"浦东新区张杨路1458号"},{"poiid":"B2094757D06FA2FA4193","title":"源深体育馆","lon":"121.536191683","lat":"31.2310137082","category":"220","category_name":"运动场所","address":"上海浦东源深路200号"},{"poiid":"B2094757D06FA3F84798","title":"浦东假日酒店","lon":"121.536","lat":"31.2292","category":"214","category_name":"四星级宾馆","address":"浦东新区东方路899号(近向城路)"},{"poiid":"B2094757D06FA3FB429D","title":"浦东游泳馆(源深馆)","lon":"121.53847","lat":"31.23198","category":"231","category_name":"游泳馆","address":"浦东新区张杨路1458号源深体育中心内(近源深路)"},{"poiid":"B2094655D26AA0FB459F","title":"源深体育场","lon":"121.53635","lat":"31.2306","category":"247","category_name":"餐饮美食","address":"浦东新区深源路655号"},{"poiid":"B2094757D068A4F9469E","title":"汉唐酒店","lon":"121.539241","lat":"31.23287","category":"72","category_name":"广东菜","address":"浦东新区桃林路777号(近张杨路)"},{"poiid":"B2094757D06FA6F94692","title":"上海市医药学校","lon":"121.54008","lat":"31.2359","category":"500","category_name":"未知分类","address":"浦东新区沈家弄路700号(近源深体育场)"},{"poiid":"B2094654DA68ABF8499E","title":"陆家嘴国际华城","lon":"121.53563","lat":"31.235361","category":"47","category_name":"住宅区","address":"上海市浦东新区张扬路1351号"},{"poiid":"B2094757D068A6FE429D","title":"枣子树 源深店","lon":"121.534981","lat":"31.23073","category":"89","category_name":"中式素餐馆","address":"浦东新区张杨路1458号源深体育中心北区3楼(近源深路)"},{"poiid":"B2094757D06FA5F8489D","title":"源深篮球公园","lon":"121.536632157","lat":"31.2295100303","category":"220","category_name":"运动场所","address":"浦东新区羽山路9号浦东源深体育中心6号门(潍坊路羽山路)"},{"poiid":"B2094757D06FABFE439A","title":"宏嘉大厦","lon":"121.537","lat":"31.2307","category":"46","category_name":"楼宇","address":"上海浦东新区福山路388号"},{"poiid":"B2094757D068A1FB479A","title":"陆家嘴花园","lon":"121.540586699","lat":"31.2326953785","category":"47","category_name":"住宅区","address":"上海浦东新区桃林路815弄"},{"poiid":"B2094757D06FA2F9499F","title":"源深体育中心羽毛球场","lon":"121.538296989","lat":"31.2324749785","category":"220","category_name":"运动场所","address":"浦东新区张杨路1458号源深体育中心内(近源深路)"},{"poiid":"B2094654DA6AA2FD4292","title":"东方国际科技大厦","lon":"121.537","lat":"31.2299","category":"46","category_name":"楼宇","address":"浦东新区向城路58号"},{"poiid":"B2094655D26EA7FA4293","title":"苏先生海鲜渔庄 源深店","lon":"121.53480097364","lat":"31.232918552506","category":"260","category_name":"其他","address":"浦东新区源深路655号体育中心内(近张杨路)"},{"poiid":"B2094757D06FABFF4799","title":"老碗 源深店","lon":"121.537022054","lat":"31.229380793","category":"84","category_name":"西北菜","address":"浦东新区羽山路68号(近源深路)"},{"poiid":"B2094757D165AAF54892","title":"陆家嘴基金大厦","lon":"121.539","lat":"31.2302","category":"46","category_name":"楼宇","address":"上海竹林路101號"},{"poiid":"B2094654DA68ABFF489B","title":"上海市第二轻工业学校","lon":"121.53842","lat":"31.23609","category":"54","category_name":"职业技术学校","address":"浦东新区沈家弄路650号"},{"poiid":"B2094757D068A5F44598","title":"船长高尔夫","lon":"121.53754","lat":"31.23753","category":"206","category_name":"高尔夫相关","address":"浦东新区商城路1860号(桃林路口)"},{"poiid":"B2094655D26EA3F5479B","title":"中国电信张杨路营业厅","lon":"121.53703","lat":"31.23426","category":"151","category_name":"电讯营业厅","address":"张杨路1551号"},{"poiid":"B2094757D065A7F44498","title":"爱康国宾","lon":"121.537822","lat":"31.237644","category":"902","category_name":"楼宇机构","address":"上海商城路1900号"},{"poiid":"B2094757D068A4FA489C","title":"鼎杰保龄球馆","lon":"121.53581","lat":"31.23152","category":"228","category_name":"保龄球馆","address":"浦东新区张杨路1458号源深体育馆3号门1楼(近源深路)"},{"poiid":"B2094757D06FAAF94899","title":"同盛大厦","lon":"121.538","lat":"31.2292","category":"46","category_name":"楼宇","address":"黄浦区南京东路311号"},{"poiid":"B2094757D66BA2FA4098","title":"紫阳富豪精菜坊","lon":"121.53687","lat":"31.23347","category":"72","category_name":"广东菜","address":"浦东新区张杨路1458号源深体育中心1楼(近桃林路)"},{"poiid":"B2094654DA69AAFF4293","title":"上海钦赐仰殿道观","lon":"121.53257","lat":"31.23426","category":"244","category_name":"寺庙道观","address":"浦东新区源深路476号(近张杨路)"},{"poiid":"B2094757D069A1F84599","title":"全华信息大厦","lon":"121.538","lat":"31.2304","category":"46","category_name":"楼宇","address":"黄陂区楚天大道与盘龙三路交汇处"},{"poiid":"B2094750DA6EA7F94892","title":"6号线世纪大道站","lon":"121.533592","lat":"31.230928","category":"500","category_name":"未知分类","address":"世纪大道"},{"poiid":"B2094757D068A1FF4398","title":"国际华城","lon":"121.53430175","lat":"31.233566284","category":"47","category_name":"住宅区","address":"上海源深路419号"},{"poiid":"B2094654DA6AA3FA4792","title":"嘉兴大厦","lon":"121.535","lat":"31.2305","category":"46","category_name":"楼宇","address":"丰台学城海鹰路1号,3号"},{"poiid":"B2094654DB69AAF9499D","title":"宁波汉通酒店","lon":"121.53834","lat":"31.2347","category":"247","category_name":"餐饮美食","address":"上海市浦东新区张杨路1587号八方大厦2楼(近桃林路)"},{"poiid":"B2094654DB64A6FB449B","title":"莫泰268(上海羽山路店)","lon":"121.53953","lat":"31.23068","category":"250","category_name":"公园户外","address":"上海市浦东新区羽山路166号(近桃林路)"},{"poiid":"B2094757D569A2FE459F","title":"茶识地","lon":"121.53570584","lat":"31.23188911","category":"66","category_name":"茶艺馆","address":"浦东新区张杨路1458号源深体育中心1楼(近源深路)"},{"poiid":"B2094757D06FABF5459A","title":"新天国际大厦","lon":"121.538","lat":"31.2301","category":"46","category_name":"楼宇","address":"上海市长宁区遵义南路88号"},{"poiid":"B2094654DA69A5F4459E","title":"众城大厦","lon":"121.53220617513","lat":"31.232716882997","category":"46","category_name":"楼宇","address":"上海市浦东新区张杨路500号"},{"poiid":"B2094751D465A3F4489B","title":"镰仓pasta","lon":"121.538772","lat":"31.229763","category":"247","category_name":"餐饮美食","address":"浦东新区东方路796号96广场9号门2楼212单元(近世纪大道)"},{"poiid":"B2094654DB6BABF44498","title":"上海市环境学校","lon":"121.53858","lat":"31.23765","category":"54","category_name":"职业技术学校","address":"商城路1980"},{"poiid":"B2094757D069A1FA489E","title":"索福德足球世界(源深体育中心店)","lon":"121.53465","lat":"31.23251","category":"220","category_name":"运动场所","address":"浦东新区张杨路1458号源深体育中心内(近源深路)"},{"poiid":"B2094654DA68ABF84393","title":"八方大酒店","lon":"121.53851","lat":"31.23477","category":"215","category_name":"三星级宾馆","address":"张杨路1587号(近桃林路)"},{"poiid":"B2094654DB64ABF9479B","title":"源深游泳馆","lon":"121.53855","lat":"31.23223","category":"231","category_name":"游泳馆","address":"桃林路892"},{"poiid":"B2094757D66CA2F94092","title":"老干部活动中心","lon":"121.536842","lat":"31.233563","category":"500","category_name":"未知分类","address":"浦东新区张杨路1458号源深体育中心内(近源深路)"},{"poiid":"B2094654DA68ABFF499D","title":"金桃大厦","lon":"121.53782","lat":"31.23764","category":"46","category_name":"楼宇","address":"普陀区宜昌路88号梦清园公园内"},{"poiid":"B2094757DB6DA5F8439E","title":"上海鄂尔多斯艾力酒店","lon":"121.539521813","lat":"31.233371411","category":"216","category_name":"经济型连锁酒店","address":"桃林路777号(靠近张杨路路口)"},{"poiid":"B2094757D068A1FF4193","title":"国际华城小区","lon":"121.53621114","lat":"31.23470831","category":"47","category_name":"住宅区","address":"上海张杨路1515号"},{"poiid":"B2094654DA69A3F94292","title":"源深体育发展中心(3号门)","lon":"121.53694","lat":"31.23336","category":"224","category_name":"综合体育馆","address":"张杨路1458"},{"poiid":"B2094654DB64A5FD4098","title":"斯巴顿健身会所(源深店)","lon":"121.53562","lat":"31.23536","category":"221","category_name":"健身中心","address":"浦东新区张杨路1515弄19号陆家嘴国际华城(近源深路)"},{"poiid":"B2094655D26FAAFA419C","title":"建平中学西校(陆家嘴国际华城西南)","lon":"121.53402","lat":"31.2342","category":"55","category_name":"中学","address":"源深路383"},{"poiid":"B2094757D56CA2FA439C","title":"鼓浪屿","lon":"121.54076346374","lat":"31.235272760666","category":"247","category_name":"餐饮美食","address":"浦东新区张杨路1657号鼓浪屿休闲浴场2楼(近民生路)"},{"poiid":"B2094654DA6AA2FE4799","title":"爵士大厦","lon":"121.535","lat":"31.2306","category":"46","category_name":"楼宇","address":"向城路29号"},{"poiid":"B2094655D26DA7FF469D","title":"八方大厦","lon":"121.5382","lat":"31.234913","category":"47","category_name":"住宅区","address":"张杨路1551-1591号"},{"poiid":"B2094654DB69A6F9419D","title":"陆家嘴巴洛克风情","lon":"121.53272","lat":"31.23542","category":"46","category_name":"楼宇","address":"铁西区铁西兴华街与南十中路交处(兴华南街48号)"},{"poiid":"B2094655D26FA1FD459E","title":"源深体育中心","lon":"121.53706","lat":"31.2334","category":"224","category_name":"综合体育馆","address":"浦东新区张杨路1458号"},{"poiid":"B2094757D06FA2FA4193","title":"源深体育馆","lon":"121.536191683","lat":"31.2310137082","category":"220","category_name":"运动场所","address":"上海浦东源深路200号"},{"poiid":"B2094757D06FA3F84798","title":"浦东假日酒店","lon":"121.536","lat":"31.2292","category":"214","category_name":"四星级宾馆","address":"浦东新区东方路899号(近向城路)"},{"poiid":"B2094757D06FA3FB429D","title":"浦东游泳馆(源深馆)","lon":"121.53847","lat":"31.23198","category":"231","category_name":"游泳馆","address":"浦东新区张杨路1458号源深体育中心内(近源深路)"},{"poiid":"B2094655D26AA0FB459F","title":"源深体育场","lon":"121.53635","lat":"31.2306","category":"247","category_name":"餐饮美食","address":"浦东新区深源路655号"},{"poiid":"B2094757D068A4F9469E","title":"汉唐酒店","lon":"121.539241","lat":"31.23287","category":"72","category_name":"广东菜","address":"浦东新区桃林路777号(近张杨路)"},{"poiid":"B2094757D06FA6F94692","title":"上海市医药学校","lon":"121.54008","lat":"31.2359","category":"500","category_name":"未知分类","address":"浦东新区沈家弄路700号(近源深体育场)"},{"poiid":"B2094654DA68ABF8499E","title":"陆家嘴国际华城","lon":"121.53563","lat":"31.235361","category":"47","category_name":"住宅区","address":"上海市浦东新区张扬路1351号"},{"poiid":"B2094757D068A6FE429D","title":"枣子树 源深店","lon":"121.534981","lat":"31.23073","category":"89","category_name":"中式素餐馆","address":"浦东新区张杨路1458号源深体育中心北区3楼(近源深路)"},{"poiid":"B2094757D06FA5F8489D","title":"源深篮球公园","lon":"121.536632157","lat":"31.2295100303","category":"220","category_name":"运动场所","address":"浦东新区羽山路9号浦东源深体育中心6号门(潍坊路羽山路)"},{"poiid":"B2094757D06FABFE439A","title":"宏嘉大厦","lon":"121.537","lat":"31.2307","category":"46","category_name":"楼宇","address":"上海浦东新区福山路388号"},{"poiid":"B2094757D068A1FB479A","title":"陆家嘴花园","lon":"121.540586699","lat":"31.2326953785","category":"47","category_name":"住宅区","address":"上海浦东新区桃林路815弄"},{"poiid":"B2094757D06FA2F9499F","title":"源深体育中心羽毛球场","lon":"121.538296989","lat":"31.2324749785","category":"220","category_name":"运动场所","address":"浦东新区张杨路1458号源深体育中心内(近源深路)"},{"poiid":"B2094654DA6AA2FD4292","title":"东方国际科技大厦","lon":"121.537","lat":"31.2299","category":"46","category_name":"楼宇","address":"浦东新区向城路58号"},{"poiid":"B2094655D26EA7FA4293","title":"苏先生海鲜渔庄 源深店","lon":"121.53480097364","lat":"31.232918552506","category":"260","category_name":"其他","address":"浦东新区源深路655号体育中心内(近张杨路)"},{"poiid":"B2094757D06FABFF4799","title":"老碗 源深店","lon":"121.537022054","lat":"31.229380793","category":"84","category_name":"西北菜","address":"浦东新区羽山路68号(近源深路)"},{"poiid":"B2094757D165AAF54892","title":"陆家嘴基金大厦","lon":"121.539","lat":"31.2302","category":"46","category_name":"楼宇","address":"上海竹林路101號"},{"poiid":"B2094654DA68ABFF489B","title":"上海市第二轻工业学校","lon":"121.53842","lat":"31.23609","category":"54","category_name":"职业技术学校","address":"浦东新区沈家弄路650号"},{"poiid":"B2094757D068A5F44598","title":"船长高尔夫","lon":"121.53754","lat":"31.23753","category":"206","category_name":"高尔夫相关","address":"浦东新区商城路1860号(桃林路口)"},{"poiid":"B2094655D26EA3F5479B","title":"中国电信张杨路营业厅","lon":"121.53703","lat":"31.23426","category":"151","category_name":"电讯营业厅","address":"张杨路1551号"},{"poiid":"B2094757D065A7F44498","title":"爱康国宾","lon":"121.537822","lat":"31.237644","category":"902","category_name":"楼宇机构","address":"上海商城路1900号"},{"poiid":"B2094757D068A4FA489C","title":"鼎杰保龄球馆","lon":"121.53581","lat":"31.23152","category":"228","category_name":"保龄球馆","address":"浦东新区张杨路1458号源深体育馆3号门1楼(近源深路)"},{"poiid":"B2094757D06FAAF94899","title":"同盛大厦","lon":"121.538","lat":"31.2292","category":"46","category_name":"楼宇","address":"黄浦区南京东路311号"},{"poiid":"B2094757D66BA2FA4098","title":"紫阳富豪精菜坊","lon":"121.53687","lat":"31.23347","category":"72","category_name":"广东菜","address":"浦东新区张杨路1458号源深体育中心1楼(近桃林路)"},{"poiid":"B2094654DA69AAFF4293","title":"上海钦赐仰殿道观","lon":"121.53257","lat":"31.23426","category":"244","category_name":"寺庙道观","address":"浦东新区源深路476号(近张杨路)"},{"poiid":"B2094757D069A1F84599","title":"全华信息大厦","lon":"121.538","lat":"31.2304","category":"46","category_name":"楼宇","address":"黄陂区楚天大道与盘龙三路交汇处"},{"poiid":"B2094750DA6EA7F94892","title":"6号线世纪大道站","lon":"121.533592","lat":"31.230928","category":"500","category_name":"未知分类","address":"世纪大道"},{"poiid":"B2094757D068A1FF4398","title":"国际华城","lon":"121.53430175","lat":"31.233566284","category":"47","category_name":"住宅区","address":"上海源深路419号"},{"poiid":"B2094654DA6AA3FA4792","title":"嘉兴大厦","lon":"121.535","lat":"31.2305","category":"46","category_name":"楼宇","address":"丰台学城海鹰路1号,3号"},{"poiid":"B2094654DB69AAF9499D","title":"宁波汉通酒店","lon":"121.53834","lat":"31.2347","category":"247","category_name":"餐饮美食","address":"上海市浦东新区张杨路1587号八方大厦2楼(近桃林路)"},{"poiid":"B2094654DB64A6FB449B","title":"莫泰268(上海羽山路店)","lon":"121.53953","lat":"31.23068","category":"250","category_name":"公园户外","address":"上海市浦东新区羽山路166号(近桃林路)"},{"poiid":"B2094757D569A2FE459F","title":"茶识地","lon":"121.53570584","lat":"31.23188911","category":"66","category_name":"茶艺馆","address":"浦东新区张杨路1458号源深体育中心1楼(近源深路)"},{"poiid":"B2094757D06FABF5459A","title":"新天国际大厦","lon":"121.538","lat":"31.2301","category":"46","category_name":"楼宇","address":"上海市长宁区遵义南路88号"},{"poiid":"B2094654DA69A5F4459E","title":"众城大厦","lon":"121.53220617513","lat":"31.232716882997","category":"46","category_name":"楼宇","address":"上海市浦东新区张杨路500号"},{"poiid":"B2094751D465A3F4489B","title":"镰仓pasta","lon":"121.538772","lat":"31.229763","category":"247","category_name":"餐饮美食","address":"浦东新区东方路796号96广场9号门2楼212单元(近世纪大道)"},{"poiid":"B2094654DB6BABF44498","title":"上海市环境学校","lon":"121.53858","lat":"31.23765","category":"54","category_name":"职业技术学校","address":"商城路1980"},{"poiid":"B2094757D069A1FA489E","title":"索福德足球世界(源深体育中心店)","lon":"121.53465","lat":"31.23251","category":"220","category_name":"运动场所","address":"浦东新区张杨路1458号源深体育中心内(近源深路)"},{"poiid":"B2094654DA68ABF84393","title":"八方大酒店","lon":"121.53851","lat":"31.23477","category":"215","category_name":"三星级宾馆","address":"张杨路1587号(近桃林路)"},{"poiid":"B2094654DB64ABF9479B","title":"源深游泳馆","lon":"121.53855","lat":"31.23223","category":"231","category_name":"游泳馆","address":"桃林路892"},{"poiid":"B2094757D66CA2F94092","title":"老干部活动中心","lon":"121.536842","lat":"31.233563","category":"500","category_name":"未知分类","address":"浦东新区张杨路1458号源深体育中心内(近源深路)"},{"poiid":"B2094654DA68ABFF499D","title":"金桃大厦","lon":"121.53782","lat":"31.23764","category":"46","category_name":"楼宇","address":"普陀区宜昌路88号梦清园公园内"},{"poiid":"B2094757DB6DA5F8439E","title":"上海鄂尔多斯艾力酒店","lon":"121.539521813","lat":"31.233371411","category":"216","category_name":"经济型连锁酒店","address":"桃林路777号(靠近张杨路路口)"},{"poiid":"B2094757D068A1FF4193","title":"国际华城小区","lon":"121.53621114","lat":"31.23470831","category":"47","category_name":"住宅区","address":"上海张杨路1515号"},{"poiid":"B2094654DA69A3F94292","title":"源深体育发展中心(3号门)","lon":"121.53694","lat":"31.23336","category":"224","category_name":"综合体育馆","address":"张杨路1458"},{"poiid":"B2094654DB64A5FD4098","title":"斯巴顿健身会所(源深店)","lon":"121.53562","lat":"31.23536","category":"221","category_name":"健身中心","address":"浦东新区张杨路1515弄19号陆家嘴国际华城(近源深路)"},{"poiid":"B2094655D26FAAFA419C","title":"建平中学西校(陆家嘴国际华城西南)","lon":"121.53402","lat":"31.2342","category":"55","category_name":"中学","address":"源深路383"},{"poiid":"B2094757D56CA2FA439C","title":"鼓浪屿","lon":"121.54076346374","lat":"31.235272760666","category":"247","category_name":"餐饮美食","address":"浦东新区张杨路1657号鼓浪屿休闲浴场2楼(近民生路)"},{"poiid":"B2094654DA6AA2FE4799","title":"爵士大厦","lon":"121.535","lat":"31.2306","category":"46","category_name":"楼宇","address":"向城路29号"},{"poiid":"B2094655D26DA7FF469D","title":"八方大厦","lon":"121.5382","lat":"31.234913","category":"47","category_name":"住宅区","address":"张杨路1551-1591号"},{"poiid":"B2094654DB69A6F9419D","title":"陆家嘴巴洛克风情","lon":"121.53272","lat":"31.23542","category":"46","category_name":"楼宇","address":"铁西区铁西兴华街与南十中路交处(兴华南街48号)"},{"poiid":"B2094655D26FA1FD459E","title":"源深体育中心","lon":"121.53706","lat":"31.2334","category":"224","category_name":"综合体育馆","address":"浦东新区张杨路1458号"},{"poiid":"B2094757D06FA2FA4193","title":"源深体育馆","lon":"121.536191683","lat":"31.2310137082","category":"220","category_name":"运动场所","address":"上海浦东源深路200号"},{"poiid":"B2094757D06FA3F84798","title":"浦东假日酒店","lon":"121.536","lat":"31.2292","category":"214","category_name":"四星级宾馆","address":"浦东新区东方路899号(近向城路)"},{"poiid":"B2094757D06FA3FB429D","title":"浦东游泳馆(源深馆)","lon":"121.53847","lat":"31.23198","category":"231","category_name":"游泳馆","address":"浦东新区张杨路1458号源深体育中心内(近源深路)"},{"poiid":"B2094655D26AA0FB459F","title":"源深体育场","lon":"121.53635","lat":"31.2306","category":"247","category_name":"餐饮美食","address":"浦东新区深源路655号"},{"poiid":"B2094757D068A4F9469E","title":"汉唐酒店","lon":"121.539241","lat":"31.23287","category":"72","category_name":"广东菜","address":"浦东新区桃林路777号(近张杨路)"},{"poiid":"B2094757D06FA6F94692","title":"上海市医药学校","lon":"121.54008","lat":"31.2359","category":"500","category_name":"未知分类","address":"浦东新区沈家弄路700号(近源深体育场)"},{"poiid":"B2094654DA68ABF8499E","title":"陆家嘴国际华城","lon":"121.53563","lat":"31.235361","category":"47","category_name":"住宅区","address":"上海市浦东新区张扬路1351号"},{"poiid":"B2094757D068A6FE429D","title":"枣子树 源深店","lon":"121.534981","lat":"31.23073","category":"89","category_name":"中式素餐馆","address":"浦东新区张杨路1458号源深体育中心北区3楼(近源深路)"},{"poiid":"B2094757D06FA5F8489D","title":"源深篮球公园","lon":"121.536632157","lat":"31.2295100303","category":"220","category_name":"运动场所","address":"浦东新区羽山路9号浦东源深体育中心6号门(潍坊路羽山路)"},{"poiid":"B2094757D06FABFE439A","title":"宏嘉大厦","lon":"121.537","lat":"31.2307","category":"46","category_name":"楼宇","address":"上海浦东新区福山路388号"},{"poiid":"B2094757D068A1FB479A","title":"陆家嘴花园","lon":"121.540586699","lat":"31.2326953785","category":"47","category_name":"住宅区","address":"上海浦东新区桃林路815弄"},{"poiid":"B2094757D06FA2F9499F","title":"源深体育中心羽毛球场","lon":"121.538296989","lat":"31.2324749785","category":"220","category_name":"运动场所","address":"浦东新区张杨路1458号源深体育中心内(近源深路)"},{"poiid":"B2094654DA6AA2FD4292","title":"东方国际科技大厦","lon":"121.537","lat":"31.2299","category":"46","category_name":"楼宇","address":"浦东新区向城路58号"},{"poiid":"B2094655D26EA7FA4293","title":"苏先生海鲜渔庄 源深店","lon":"121.53480097364","lat":"31.232918552506","category":"260","category_name":"其他","address":"浦东新区源深路655号体育中心内(近张杨路)"},{"poiid":"B2094757D06FABFF4799","title":"老碗 源深店","lon":"121.537022054","lat":"31.229380793","category":"84","category_name":"西北菜","address":"浦东新区羽山路68号(近源深路)"},{"poiid":"B2094757D165AAF54892","title":"陆家嘴基金大厦","lon":"121.539","lat":"31.2302","category":"46","category_name":"楼宇","address":"上海竹林路101號"},{"poiid":"B2094654DA68ABFF489B","title":"上海市第二轻工业学校","lon":"121.53842","lat":"31.23609","category":"54","category_name":"职业技术学校","address":"浦东新区沈家弄路650号"},{"poiid":"B2094757D068A5F44598","title":"船长高尔夫","lon":"121.53754","lat":"31.23753","category":"206","category_name":"高尔夫相关","address":"浦东新区商城路1860号(桃林路口)"},{"poiid":"B2094655D26EA3F5479B","title":"中国电信张杨路营业厅","lon":"121.53703","lat":"31.23426","category":"151","category_name":"电讯营业厅","address":"张杨路1551号"},{"poiid":"B2094757D065A7F44498","title":"爱康国宾","lon":"121.537822","lat":"31.237644","category":"902","category_name":"楼宇机构","address":"上海商城路1900号"},{"poiid":"B2094757D068A4FA489C","title":"鼎杰保龄球馆","lon":"121.53581","lat":"31.23152","category":"228","category_name":"保龄球馆","address":"浦东新区张杨路1458号源深体育馆3号门1楼(近源深路)"},{"poiid":"B2094757D06FAAF94899","title":"同盛大厦","lon":"121.538","lat":"31.2292","category":"46","category_name":"楼宇","address":"黄浦区南京东路311号"},{"poiid":"B2094757D66BA2FA4098","title":"紫阳富豪精菜坊","lon":"121.53687","lat":"31.23347","category":"72","category_name":"广东菜","address":"浦东新区张杨路1458号源深体育中心1楼(近桃林路)"},{"poiid":"B2094654DA69AAFF4293","title":"上海钦赐仰殿道观","lon":"121.53257","lat":"31.23426","category":"244","category_name":"寺庙道观","address":"浦东新区源深路476号(近张杨路)"},{"poiid":"B2094757D069A1F84599","title":"全华信息大厦","lon":"121.538","lat":"31.2304","category":"46","category_name":"楼宇","address":"黄陂区楚天大道与盘龙三路交汇处"},{"poiid":"B2094750DA6EA7F94892","title":"6号线世纪大道站","lon":"121.533592","lat":"31.230928","category":"500","category_name":"未知分类","address":"世纪大道"},{"poiid":"B2094757D068A1FF4398","title":"国际华城","lon":"121.53430175","lat":"31.233566284","category":"47","category_name":"住宅区","address":"上海源深路419号"},{"poiid":"B2094654DA6AA3FA4792","title":"嘉兴大厦","lon":"121.535","lat":"31.2305","category":"46","category_name":"楼宇","address":"丰台学城海鹰路1号,3号"},{"poiid":"B2094654DB69AAF9499D","title":"宁波汉通酒店","lon":"121.53834","lat":"31.2347","category":"247","category_name":"餐饮美食","address":"上海市浦东新区张杨路1587号八方大厦2楼(近桃林路)"},{"poiid":"B2094654DB64A6FB449B","title":"莫泰268(上海羽山路店)","lon":"121.53953","lat":"31.23068","category":"250","category_name":"公园户外","address":"上海市浦东新区羽山路166号(近桃林路)"},{"poiid":"B2094757D569A2FE459F","title":"茶识地","lon":"121.53570584","lat":"31.23188911","category":"66","category_name":"茶艺馆","address":"浦东新区张杨路1458号源深体育中心1楼(近源深路)"},{"poiid":"B2094757D06FABF5459A","title":"新天国际大厦","lon":"121.538","lat":"31.2301","category":"46","category_name":"楼宇","address":"上海市长宁区遵义南路88号"},{"poiid":"B2094654DA69A5F4459E","title":"众城大厦","lon":"121.53220617513","lat":"31.232716882997","category":"46","category_name":"楼宇","address":"上海市浦东新区张杨路500号"},{"poiid":"B2094751D465A3F4489B","title":"镰仓pasta","lon":"121.538772","lat":"31.229763","category":"247","category_name":"餐饮美食","address":"浦东新区东方路796号96广场9号门2楼212单元(近世纪大道)"},{"poiid":"B2094654DB6BABF44498","title":"上海市环境学校","lon":"121.53858","lat":"31.23765","category":"54","category_name":"职业技术学校","address":"商城路1980"},{"poiid":"B2094757D069A1FA489E","title":"索福德足球世界(源深体育中心店)","lon":"121.53465","lat":"31.23251","category":"220","category_name":"运动场所","address":"浦东新区张杨路1458号源深体育中心内(近源深路)"},{"poiid":"B2094654DA68ABF84393","title":"八方大酒店","lon":"121.53851","lat":"31.23477","category":"215","category_name":"三星级宾馆","address":"张杨路1587号(近桃林路)"},{"poiid":"B2094654DB64ABF9479B","title":"源深游泳馆","lon":"121.53855","lat":"31.23223","category":"231","category_name":"游泳馆","address":"桃林路892"},{"poiid":"B2094757D66CA2F94092","title":"老干部活动中心","lon":"121.536842","lat":"31.233563","category":"500","category_name":"未知分类","address":"浦东新区张杨路1458号源深体育中心内(近源深路)"},{"poiid":"B2094654DA68ABFF499D","title":"金桃大厦","lon":"121.53782","lat":"31.23764","category":"46","category_name":"楼宇","address":"普陀区宜昌路88号梦清园公园内"},{"poiid":"B2094757DB6DA5F8439E","title":"上海鄂尔多斯艾力酒店","lon":"121.539521813","lat":"31.233371411","category":"216","category_name":"经济型连锁酒店","address":"桃林路777号(靠近张杨路路口)"},{"poiid":"B2094757D068A1FF4193","title":"国际华城小区","lon":"121.53621114","lat":"31.23470831","category":"47","category_name":"住宅区","address":"上海张杨路1515号"},{"poiid":"B2094654DA69A3F94292","title":"源深体育发展中心(3号门)","lon":"121.53694","lat":"31.23336","category":"224","category_name":"综合体育馆","address":"张杨路1458"},{"poiid":"B2094654DB64A5FD4098","title":"斯巴顿健身会所(源深店)","lon":"121.53562","lat":"31.23536","category":"221","category_name":"健身中心","address":"浦东新区张杨路1515弄19号陆家嘴国际华城(近源深路)"},{"poiid":"B2094655D26FAAFA419C","title":"建平中学西校(陆家嘴国际华城西南)","lon":"121.53402","lat":"31.2342","category":"55","category_name":"中学","address":"源深路383"},{"poiid":"B2094757D56CA2FA439C","title":"鼓浪屿","lon":"121.54076346374","lat":"31.235272760666","category":"247","category_name":"餐饮美食","address":"浦东新区张杨路1657号鼓浪屿休闲浴场2楼(近民生路)"},{"poiid":"B2094654DA6AA2FE4799","title":"爵士大厦","lon":"121.535","lat":"31.2306","category":"46","category_name":"楼宇","address":"向城路29号"},{"poiid":"B2094655D26DA7FF469D","title":"八方大厦","lon":"121.5382","lat":"31.234913","category":"47","category_name":"住宅区","address":"张杨路1551-1591号"},{"poiid":"B2094654DB69A6F9419D","title":"陆家嘴巴洛克风情","lon":"121.53272","lat":"31.23542","category":"46","category_name":"楼宇","address":"铁西区铁西兴华街与南十中路交处(兴华南街48号)"}]