[{"poiid":"B2094757D06FA1F5429D","title":"本家韩国料理","lon":"121.52953653","lat":"31.223620009","category":"96","category_name":"韩国料理","address":"浦东新区东方路971号钱江大厦2楼(近向城路)"},{"poiid":"B2094757D068AAFD409A","title":"台北吴记麻辣火锅(张扬路店))","lon":"121.529039738","lat":"31.2306723095","category":"86","category_name":"火锅店","address":"浦东新区张杨路998号(近福山路)"},{"poiid":"B2094757D06FA7F9409A","title":"浦东新区国家税务局第一税务所","lon":"121.531951","lat":"31.223319242","category":"150","category_name":"银行","address":"上海向城路80号"},{"poiid":"B2094654DA6AA3FA489A","title":"苏浙汇(东方店)","lon":"121.52799","lat":"31.22449","category":"76","category_name":"上海菜","address":"浦东新区东方路877号(近潍坊路)"},{"poiid":"B2094655D268A0FD419C","title":"满记甜品 东方店","lon":"121.528440054","lat":"31.223715793","category":"67","category_name":"甜品店","address":"浦东新区向城路17号J-08室(近东方路)"},{"poiid":"B2094757D66FA0FC4292","title":"平壤高丽饭店","lon":"121.53491673","lat":"31.226411218","category":"247","category_name":"餐饮美食","address":"浦东新区松林路357号通茂大酒店1楼(近浦电路)"},{"poiid":"B2094757D06FA2F54298","title":"麦当劳(东方路店)","lon":"121.52743","lat":"31.22576","category":"68","category_name":"快餐厅","address":"浦东新区潍坊路162号(近东方路)"},{"poiid":"B2094757DA6EABFA479F","title":"蜀留香冷锅鱼(潍坊路店)","lon":"121.529072999998","lat":"31.2265219999997","category":"86","category_name":"火锅店","address":"浦东新区潍坊路194号(近世纪大道)"},{"poiid":"B2094752D569A1F5479D","title":"芥末日本料理","lon":"121.534682","lat":"31.226723","category":"247","category_name":"餐饮美食","address":"上海市浦东新区松林路357号通茂大酒店二楼西侧"},{"poiid":"B2094757D068A3F9449E","title":"COSTA COFFEE(向城店)","lon":"121.52895","lat":"31.22376","category":"65","category_name":"咖啡厅","address":"浦东新区向城路17号(东方路口)"},{"poiid":"B2094654DA69ABF44998","title":"竹园新村","lon":"121.5315","lat":"31.22899","category":"47","category_name":"住宅区","address":"潍坊路335弄1-3支弄"},{"poiid":"B2094752D664AAFB4499","title":"芥末日本料理","lon":"121.532582","lat":"31.22741","category":"247","category_name":"餐饮美食","address":"上海市浦东新区松林路357号通茂大酒店二楼西侧"},{"poiid":"B2094757D068A0FF4298","title":"柏雅居服务公寓","lon":"121.52984","lat":"31.22455","category":"217","category_name":"旅馆招待所","address":"浦东新区向城路29号爵士大厦C栋(近东方路)"},{"poiid":"B2094757D06FABFD429D","title":"阿拉对面碳烤鱼 福山路店","lon":"121.5284129484","lat":"31.231552680725","category":"71","category_name":"四川菜","address":"浦东新区福山路287号(近张杨路)"},{"poiid":"B2094757D068A3F44093","title":"东方大厦","lon":"121.532377958","lat":"31.224922976","category":"46","category_name":"楼宇","address":"卢湾区复兴中路369号(马当路口)"},{"poiid":"B2094757D06FA4FF4498","title":"億方砂锅粥(潍坊路店)","lon":"121.52899","lat":"31.22607","category":"72","category_name":"广东菜","address":"上海浦东新区潍坊路188号(近东方路)"},{"poiid":"B2094757D068A3FE409F","title":"振鼎鸡(潍坊路店)","lon":"121.52882773","lat":"31.225452198","category":"68","category_name":"快餐厅","address":"浦东新区潍坊路174号(近东方路)"},{"poiid":"B2094654DA6AA2FE479B","title":"上海市浦东新区国家税务局","lon":"121.532","lat":"31.22353","category":"250","category_name":"公园户外","address":"浦东新区向城路80"},{"poiid":"B2094753D36FA3FC439B","title":"世纪大道地铁站","lon":"121.52771","lat":"31.225006","category":"36","category_name":"地铁站","address":"上海市 世纪大道地铁站"},{"poiid":"B209475CD26DA0F44992","title":"糖员外私房甜品（96广场店）","lon":"121.530052","lat":"31.226718","category":"247","category_name":"餐饮美食","address":"上海市 东方路796号96广场249B"},{"poiid":"B2094752D364A3F94192","title":"辉哥海鲜火锅(松林路店)","lon":"121.53351","lat":"31.227","category":"86","category_name":"火锅店","address":"浦东新区松林路281号(近潍坊路)"},{"poiid":"B2094757D068A1F9429B","title":"干锅居(东方路店)","lon":"121.527303266","lat":"31.2256183568","category":"83","category_name":"云贵菜","address":"浦东新区潍坊路162号3幢(近东方路)"},{"poiid":"B2094757D064AAFB409A","title":"美年体检","lon":"121.52747344","lat":"31.22664526","category":"162","category_name":"医院","address":"上海崂山路523号"},{"poiid":"B2094654DA6AA3F9479E","title":"老西安","lon":"121.529323054","lat":"31.227174793","category":"84","category_name":"西北菜","address":"浦东新区潍坊路192号(近世纪大道)"},{"poiid":"B2094655D26FABFE439A","title":"盛大国际金融中心","lon":"121.53138","lat":"31.22506","category":"46","category_name":"楼宇","address":"松江区荣乐东路1133弄"},{"poiid":"B2094757D068A3F9459C","title":"85度C 潍坊店","lon":"121.527273054","lat":"31.226372793","category":"112","category_name":"糕饼店","address":"浦东新区潍坊路164号(近东方路)"},{"poiid":"B209475CDA69ABFA4192","title":"PIZZA MARZANO","lon":"121.529724","lat":"31.225532","category":"500","category_name":"未知分类","address":"上海市 上海市浦东新区九六广场"},{"poiid":"B2094654DB69A0FA4192","title":"大渔(东方店)","lon":"121.52796","lat":"31.22467","category":"87","category_name":"特色／地方风味餐厅","address":"浦东新区东方路877号嘉兴大厦3楼(近向城路)"},{"poiid":"B2094655D265A5FD459B","title":"莎琪玛港式茶餐厅","lon":"121.52894","lat":"31.23002","category":"72","category_name":"广东菜","address":"浦东新区福山路295号(近张杨路)"},{"poiid":"B2094654DA69ABF44999","title":"竹园新村(南门)","lon":"121.53131","lat":"31.22761","category":"47","category_name":"住宅区","address":"潍坊路335弄1-3支弄"},{"poiid":"B2094757D06AA0FA419D","title":"福山路世纪大道车站","lon":"121.52947","lat":"31.22856","category":"500","category_name":"未知分类","address":"上海福山路世纪大道"},{"poiid":"B2094750DA6AA3F5489B","title":"soho世纪广场","lon":"121.533538","lat":"31.22653","category":"252","category_name":"楼宇机构","address":"向城路288号"},{"poiid":"B2094757D06BA0FB4498","title":"新竹园中学","lon":"121.53334","lat":"31.228","category":"55","category_name":"中学","address":"浦东新区潍坊路357号(近松林路)"},{"poiid":"B2094655D26EA2FE409E","title":"中国移动潍坊路营业厅","lon":"121.52926","lat":"31.22657","category":"151","category_name":"电讯营业厅","address":"潍坊路198号"},{"poiid":"B2094757D66FA2FB4999","title":"扬歌ktv","lon":"121.531835738","lat":"31.2280042527","category":"170","category_name":"KTV","address":"上海昌里路历城路口"},{"poiid":"B2094757D064A1FB489C","title":"吉祥馄饨(潍坊路店)","lon":"121.52864","lat":"31.22588","category":"68","category_name":"快餐厅","address":"浦东新区潍坊路186号(近世纪大道)"},{"poiid":"B2094750DB6BABFA4399","title":"耶里夏丽","lon":"121.528411","lat":"31.224428","category":"500","category_name":"未知分类","address":null},{"poiid":"B2094751D36EA0FF459E","title":"点沁(福山路店)","lon":"121.53101","lat":"31.2241","category":"68","category_name":"快餐厅","address":"浦东新区向城路78号新天国际商厦1楼(近福山路)"},{"poiid":"B2094757D068ABFE479D","title":"will\\'s 健身会所(九六广场店)","lon":"121.52732377","lat":"31.228175696","category":"221","category_name":"健身中心","address":"上海浦东新区东方路796号96广场B1楼(近张杨路)"},{"poiid":"B209475CD468A2F9429F","title":"比萨马上诺96广场餐厅","lon":"121.529747","lat":"31.225519","category":"247","category_name":"餐饮美食","address":"东方路796号130单元，1号门"},{"poiid":"B2094752D46CA5FC4792","title":"同济大学","lon":"121.529943","lat":"31.228333","category":"671","category_name":"高校中心点","address":null},{"poiid":"B2094757D465A4FA419E","title":"邵稼楼 潍坊路店","lon":"121.527697054","lat":"31.225929793","category":"76","category_name":"上海菜","address":"浦东新区潍坊路172号(近东方路)"},{"poiid":"B2094757D068A0F54393","title":"竹园小区","lon":"121.53177549","lat":"31.2311335378","category":"47","category_name":"住宅区","address":"潍坊路238弄,252弄"},{"poiid":"B2094757D16FABF9489C","title":"蒂凡尼","lon":"121.527249738","lat":"31.2257132038","category":"500","category_name":"未知分类","address":"上海96广场"},{"poiid":"B2094655D26EA6FF439E","title":"蒂凡尼(浦东店)","lon":"121.5292","lat":"31.22821","category":"148","category_name":"美容美发店","address":"浦东新区世纪大道1211号A15-A16座"},{"poiid":"B2094655D26DA1FB4698","title":"竹园商务公寓","lon":"121.52941","lat":"31.229389","category":"47","category_name":"住宅区","address":"铁西区铁西兴华街与南十中路交处(兴华南街48号)"},{"poiid":"B209475CDB69A7FC429E","title":"纯彩","lon":"121.530143","lat":"31.225347","category":"247","category_name":"餐饮美食","address":"东方路796号96广场"},{"poiid":"B2094757D069AAF44093","title":"东方路潍坊路","lon":"121.52722773","lat":"31.225521199","category":"500","category_name":"未知分类","address":"上海东方路潍坊路"},{"poiid":"B2094757D66BA3FB4198","title":"雅园","lon":"121.5307757","lat":"31.2249032","category":"94","category_name":"西餐厅","address":"浦东新区向城路29号爵士大厦C栋柏雅居1楼(近东方路)"},{"poiid":"B2094654DB64A3FF4793","title":"竹南小区北门(潍坊路)","lon":"121.52968","lat":"31.22669","category":"47","category_name":"住宅区","address":"潍坊路168弄1-37号"},{"poiid":"B2094757D06FA1F5429D","title":"本家韩国料理","lon":"121.52953653","lat":"31.223620009","category":"96","category_name":"韩国料理","address":"浦东新区东方路971号钱江大厦2楼(近向城路)"},{"poiid":"B2094757D068AAFD409A","title":"台北吴记麻辣火锅(张扬路店))","lon":"121.529039738","lat":"31.2306723095","category":"86","category_name":"火锅店","address":"浦东新区张杨路998号(近福山路)"},{"poiid":"B2094757D06FA7F9409A","title":"浦东新区国家税务局第一税务所","lon":"121.531951","lat":"31.223319242","category":"150","category_name":"银行","address":"上海向城路80号"},{"poiid":"B2094654DA6AA3FA489A","title":"苏浙汇(东方店)","lon":"121.52799","lat":"31.22449","category":"76","category_name":"上海菜","address":"浦东新区东方路877号(近潍坊路)"},{"poiid":"B2094655D268A0FD419C","title":"满记甜品 东方店","lon":"121.528440054","lat":"31.223715793","category":"67","category_name":"甜品店","address":"浦东新区向城路17号J-08室(近东方路)"},{"poiid":"B2094757D66FA0FC4292","title":"平壤高丽饭店","lon":"121.53491673","lat":"31.226411218","category":"247","category_name":"餐饮美食","address":"浦东新区松林路357号通茂大酒店1楼(近浦电路)"},{"poiid":"B2094757D06FA2F54298","title":"麦当劳(东方路店)","lon":"121.52743","lat":"31.22576","category":"68","category_name":"快餐厅","address":"浦东新区潍坊路162号(近东方路)"},{"poiid":"B2094757DA6EABFA479F","title":"蜀留香冷锅鱼(潍坊路店)","lon":"121.529072999998","lat":"31.2265219999997","category":"86","category_name":"火锅店","address":"浦东新区潍坊路194号(近世纪大道)"},{"poiid":"B2094752D569A1F5479D","title":"芥末日本料理","lon":"121.534682","lat":"31.226723","category":"247","category_name":"餐饮美食","address":"上海市浦东新区松林路357号通茂大酒店二楼西侧"},{"poiid":"B2094757D068A3F9449E","title":"COSTA COFFEE(向城店)","lon":"121.52895","lat":"31.22376","category":"65","category_name":"咖啡厅","address":"浦东新区向城路17号(东方路口)"},{"poiid":"B2094654DA69ABF44998","title":"竹园新村","lon":"121.5315","lat":"31.22899","category":"47","category_name":"住宅区","address":"潍坊路335弄1-3支弄"},{"poiid":"B2094752D664AAFB4499","title":"芥末日本料理","lon":"121.532582","lat":"31.22741","category":"247","category_name":"餐饮美食","address":"上海市浦东新区松林路357号通茂大酒店二楼西侧"},{"poiid":"B2094757D068A0FF4298","title":"柏雅居服务公寓","lon":"121.52984","lat":"31.22455","category":"217","category_name":"旅馆招待所","address":"浦东新区向城路29号爵士大厦C栋(近东方路)"},{"poiid":"B2094757D06FABFD429D","title":"阿拉对面碳烤鱼 福山路店","lon":"121.5284129484","lat":"31.231552680725","category":"71","category_name":"四川菜","address":"浦东新区福山路287号(近张杨路)"},{"poiid":"B2094757D068A3F44093","title":"东方大厦","lon":"121.532377958","lat":"31.224922976","category":"46","category_name":"楼宇","address":"卢湾区复兴中路369号(马当路口)"},{"poiid":"B2094757D06FA4FF4498","title":"億方砂锅粥(潍坊路店)","lon":"121.52899","lat":"31.22607","category":"72","category_name":"广东菜","address":"上海浦东新区潍坊路188号(近东方路)"},{"poiid":"B2094757D068A3FE409F","title":"振鼎鸡(潍坊路店)","lon":"121.52882773","lat":"31.225452198","category":"68","category_name":"快餐厅","address":"浦东新区潍坊路174号(近东方路)"},{"poiid":"B2094654DA6AA2FE479B","title":"上海市浦东新区国家税务局","lon":"121.532","lat":"31.22353","category":"250","category_name":"公园户外","address":"浦东新区向城路80"},{"poiid":"B2094753D36FA3FC439B","title":"世纪大道地铁站","lon":"121.52771","lat":"31.225006","category":"36","category_name":"地铁站","address":"上海市 世纪大道地铁站"},{"poiid":"B209475CD26DA0F44992","title":"糖员外私房甜品（96广场店）","lon":"121.530052","lat":"31.226718","category":"247","category_name":"餐饮美食","address":"上海市 东方路796号96广场249B"},{"poiid":"B2094752D364A3F94192","title":"辉哥海鲜火锅(松林路店)","lon":"121.53351","lat":"31.227","category":"86","category_name":"火锅店","address":"浦东新区松林路281号(近潍坊路)"},{"poiid":"B2094757D068A1F9429B","title":"干锅居(东方路店)","lon":"121.527303266","lat":"31.2256183568","category":"83","category_name":"云贵菜","address":"浦东新区潍坊路162号3幢(近东方路)"},{"poiid":"B2094757D064AAFB409A","title":"美年体检","lon":"121.52747344","lat":"31.22664526","category":"162","category_name":"医院","address":"上海崂山路523号"},{"poiid":"B2094654DA6AA3F9479E","title":"老西安","lon":"121.529323054","lat":"31.227174793","category":"84","category_name":"西北菜","address":"浦东新区潍坊路192号(近世纪大道)"},{"poiid":"B2094655D26FABFE439A","title":"盛大国际金融中心","lon":"121.53138","lat":"31.22506","category":"46","category_name":"楼宇","address":"松江区荣乐东路1133弄"},{"poiid":"B2094757D068A3F9459C","title":"85度C 潍坊店","lon":"121.527273054","lat":"31.226372793","category":"112","category_name":"糕饼店","address":"浦东新区潍坊路164号(近东方路)"},{"poiid":"B209475CDA69ABFA4192","title":"PIZZA MARZANO","lon":"121.529724","lat":"31.225532","category":"500","category_name":"未知分类","address":"上海市 上海市浦东新区九六广场"},{"poiid":"B2094654DB69A0FA4192","title":"大渔(东方店)","lon":"121.52796","lat":"31.22467","category":"87","category_name":"特色／地方风味餐厅","address":"浦东新区东方路877号嘉兴大厦3楼(近向城路)"},{"poiid":"B2094655D265A5FD459B","title":"莎琪玛港式茶餐厅","lon":"121.52894","lat":"31.23002","category":"72","category_name":"广东菜","address":"浦东新区福山路295号(近张杨路)"},{"poiid":"B2094654DA69ABF44999","title":"竹园新村(南门)","lon":"121.53131","lat":"31.22761","category":"47","category_name":"住宅区","address":"潍坊路335弄1-3支弄"},{"poiid":"B2094757D06AA0FA419D","title":"福山路世纪大道车站","lon":"121.52947","lat":"31.22856","category":"500","category_name":"未知分类","address":"上海福山路世纪大道"},{"poiid":"B2094750DA6AA3F5489B","title":"soho世纪广场","lon":"121.533538","lat":"31.22653","category":"252","category_name":"楼宇机构","address":"向城路288号"},{"poiid":"B2094757D06BA0FB4498","title":"新竹园中学","lon":"121.53334","lat":"31.228","category":"55","category_name":"中学","address":"浦东新区潍坊路357号(近松林路)"},{"poiid":"B2094655D26EA2FE409E","title":"中国移动潍坊路营业厅","lon":"121.52926","lat":"31.22657","category":"151","category_name":"电讯营业厅","address":"潍坊路198号"},{"poiid":"B2094757D66FA2FB4999","title":"扬歌ktv","lon":"121.531835738","lat":"31.2280042527","category":"170","category_name":"KTV","address":"上海昌里路历城路口"},{"poiid":"B2094757D064A1FB489C","title":"吉祥馄饨(潍坊路店)","lon":"121.52864","lat":"31.22588","category":"68","category_name":"快餐厅","address":"浦东新区潍坊路186号(近世纪大道)"},{"poiid":"B2094750DB6BABFA4399","title":"耶里夏丽","lon":"121.528411","lat":"31.224428","category":"500","category_name":"未知分类","address":null},{"poiid":"B2094751D36EA0FF459E","title":"点沁(福山路店)","lon":"121.53101","lat":"31.2241","category":"68","category_name":"快餐厅","address":"浦东新区向城路78号新天国际商厦1楼(近福山路)"},{"poiid":"B2094757D068ABFE479D","title":"will\\'s 健身会所(九六广场店)","lon":"121.52732377","lat":"31.228175696","category":"221","category_name":"健身中心","address":"上海浦东新区东方路796号96广场B1楼(近张杨路)"},{"poiid":"B209475CD468A2F9429F","title":"比萨马上诺96广场餐厅","lon":"121.529747","lat":"31.225519","category":"247","category_name":"餐饮美食","address":"东方路796号130单元，1号门"},{"poiid":"B2094752D46CA5FC4792","title":"同济大学","lon":"121.529943","lat":"31.228333","category":"671","category_name":"高校中心点","address":null},{"poiid":"B2094757D465A4FA419E","title":"邵稼楼 潍坊路店","lon":"121.527697054","lat":"31.225929793","category":"76","category_name":"上海菜","address":"浦东新区潍坊路172号(近东方路)"},{"poiid":"B2094757D068A0F54393","title":"竹园小区","lon":"121.53177549","lat":"31.2311335378","category":"47","category_name":"住宅区","address":"潍坊路238弄,252弄"},{"poiid":"B2094757D16FABF9489C","title":"蒂凡尼","lon":"121.527249738","lat":"31.2257132038","category":"500","category_name":"未知分类","address":"上海96广场"},{"poiid":"B2094655D26EA6FF439E","title":"蒂凡尼(浦东店)","lon":"121.5292","lat":"31.22821","category":"148","category_name":"美容美发店","address":"浦东新区世纪大道1211号A15-A16座"},{"poiid":"B2094655D26DA1FB4698","title":"竹园商务公寓","lon":"121.52941","lat":"31.229389","category":"47","category_name":"住宅区","address":"铁西区铁西兴华街与南十中路交处(兴华南街48号)"},{"poiid":"B209475CDB69A7FC429E","title":"纯彩","lon":"121.530143","lat":"31.225347","category":"247","category_name":"餐饮美食","address":"东方路796号96广场"},{"poiid":"B2094757D069AAF44093","title":"东方路潍坊路","lon":"121.52722773","lat":"31.225521199","category":"500","category_name":"未知分类","address":"上海东方路潍坊路"},{"poiid":"B2094757D66BA3FB4198","title":"雅园","lon":"121.5307757","lat":"31.2249032","category":"94","category_name":"西餐厅","address":"浦东新区向城路29号爵士大厦C栋柏雅居1楼(近东方路)"},{"poiid":"B2094654DB64A3FF4793","title":"竹南小区北门(潍坊路)","lon":"121.52968","lat":"31.22669","category":"47","category_name":"住宅区","address":"潍坊路168弄1-37号"},{"poiid":"B2094757D06FA1F5429D","title":"本家韩国料理","lon":"121.52953653","lat":"31.223620009","category":"96","category_name":"韩国料理","address":"浦东新区东方路971号钱江大厦2楼(近向城路)"},{"poiid":"B2094757D068AAFD409A","title":"台北吴记麻辣火锅(张扬路店))","lon":"121.529039738","lat":"31.2306723095","category":"86","category_name":"火锅店","address":"浦东新区张杨路998号(近福山路)"},{"poiid":"B2094757D06FA7F9409A","title":"浦东新区国家税务局第一税务所","lon":"121.531951","lat":"31.223319242","category":"150","category_name":"银行","address":"上海向城路80号"},{"poiid":"B2094654DA6AA3FA489A","title":"苏浙汇(东方店)","lon":"121.52799","lat":"31.22449","category":"76","category_name":"上海菜","address":"浦东新区东方路877号(近潍坊路)"},{"poiid":"B2094655D268A0FD419C","title":"满记甜品 东方店","lon":"121.528440054","lat":"31.223715793","category":"67","category_name":"甜品店","address":"浦东新区向城路17号J-08室(近东方路)"},{"poiid":"B2094757D66FA0FC4292","title":"平壤高丽饭店","lon":"121.53491673","lat":"31.226411218","category":"247","category_name":"餐饮美食","address":"浦东新区松林路357号通茂大酒店1楼(近浦电路)"},{"poiid":"B2094757D06FA2F54298","title":"麦当劳(东方路店)","lon":"121.52743","lat":"31.22576","category":"68","category_name":"快餐厅","address":"浦东新区潍坊路162号(近东方路)"},{"poiid":"B2094757DA6EABFA479F","title":"蜀留香冷锅鱼(潍坊路店)","lon":"121.529072999998","lat":"31.2265219999997","category":"86","category_name":"火锅店","address":"浦东新区潍坊路194号(近世纪大道)"},{"poiid":"B2094752D569A1F5479D","title":"芥末日本料理","lon":"121.534682","lat":"31.226723","category":"247","category_name":"餐饮美食","address":"上海市浦东新区松林路357号通茂大酒店二楼西侧"},{"poiid":"B2094757D068A3F9449E","title":"COSTA COFFEE(向城店)","lon":"121.52895","lat":"31.22376","category":"65","category_name":"咖啡厅","address":"浦东新区向城路17号(东方路口)"},{"poiid":"B2094654DA69ABF44998","title":"竹园新村","lon":"121.5315","lat":"31.22899","category":"47","category_name":"住宅区","address":"潍坊路335弄1-3支弄"},{"poiid":"B2094752D664AAFB4499","title":"芥末日本料理","lon":"121.532582","lat":"31.22741","category":"247","category_name":"餐饮美食","address":"上海市浦东新区松林路357号通茂大酒店二楼西侧"},{"poiid":"B2094757D068A0FF4298","title":"柏雅居服务公寓","lon":"121.52984","lat":"31.22455","category":"217","category_name":"旅馆招待所","address":"浦东新区向城路29号爵士大厦C栋(近东方路)"},{"poiid":"B2094757D06FABFD429D","title":"阿拉对面碳烤鱼 福山路店","lon":"121.5284129484","lat":"31.231552680725","category":"71","category_name":"四川菜","address":"浦东新区福山路287号(近张杨路)"},{"poiid":"B2094757D068A3F44093","title":"东方大厦","lon":"121.532377958","lat":"31.224922976","category":"46","category_name":"楼宇","address":"卢湾区复兴中路369号(马当路口)"},{"poiid":"B2094757D06FA4FF4498","title":"億方砂锅粥(潍坊路店)","lon":"121.52899","lat":"31.22607","category":"72","category_name":"广东菜","address":"上海浦东新区潍坊路188号(近东方路)"},{"poiid":"B2094757D068A3FE409F","title":"振鼎鸡(潍坊路店)","lon":"121.52882773","lat":"31.225452198","category":"68","category_name":"快餐厅","address":"浦东新区潍坊路174号(近东方路)"},{"poiid":"B2094654DA6AA2FE479B","title":"上海市浦东新区国家税务局","lon":"121.532","lat":"31.22353","category":"250","category_name":"公园户外","address":"浦东新区向城路80"},{"poiid":"B2094753D36FA3FC439B","title":"世纪大道地铁站","lon":"121.52771","lat":"31.225006","category":"36","category_name":"地铁站","address":"上海市 世纪大道地铁站"},{"poiid":"B209475CD26DA0F44992","title":"糖员外私房甜品（96广场店）","lon":"121.530052","lat":"31.226718","category":"247","category_name":"餐饮美食","address":"上海市 东方路796号96广场249B"},{"poiid":"B2094752D364A3F94192","title":"辉哥海鲜火锅(松林路店)","lon":"121.53351","lat":"31.227","category":"86","category_name":"火锅店","address":"浦东新区松林路281号(近潍坊路)"},{"poiid":"B2094757D068A1F9429B","title":"干锅居(东方路店)","lon":"121.527303266","lat":"31.2256183568","category":"83","category_name":"云贵菜","address":"浦东新区潍坊路162号3幢(近东方路)"},{"poiid":"B2094757D064AAFB409A","title":"美年体检","lon":"121.52747344","lat":"31.22664526","category":"162","category_name":"医院","address":"上海崂山路523号"},{"poiid":"B2094654DA6AA3F9479E","title":"老西安","lon":"121.529323054","lat":"31.227174793","category":"84","category_name":"西北菜","address":"浦东新区潍坊路192号(近世纪大道)"},{"poiid":"B2094655D26FABFE439A","title":"盛大国际金融中心","lon":"121.53138","lat":"31.22506","category":"46","category_name":"楼宇","address":"松江区荣乐东路1133弄"},{"poiid":"B2094757D068A3F9459C","title":"85度C 潍坊店","lon":"121.527273054","lat":"31.226372793","category":"112","category_name":"糕饼店","address":"浦东新区潍坊路164号(近东方路)"},{"poiid":"B209475CDA69ABFA4192","title":"PIZZA MARZANO","lon":"121.529724","lat":"31.225532","category":"500","category_name":"未知分类","address":"上海市 上海市浦东新区九六广场"},{"poiid":"B2094654DB69A0FA4192","title":"大渔(东方店)","lon":"121.52796","lat":"31.22467","category":"87","category_name":"特色／地方风味餐厅","address":"浦东新区东方路877号嘉兴大厦3楼(近向城路)"},{"poiid":"B2094655D265A5FD459B","title":"莎琪玛港式茶餐厅","lon":"121.52894","lat":"31.23002","category":"72","category_name":"广东菜","address":"浦东新区福山路295号(近张杨路)"},{"poiid":"B2094654DA69ABF44999","title":"竹园新村(南门)","lon":"121.53131","lat":"31.22761","category":"47","category_name":"住宅区","address":"潍坊路335弄1-3支弄"},{"poiid":"B2094757D06AA0FA419D","title":"福山路世纪大道车站","lon":"121.52947","lat":"31.22856","category":"500","category_name":"未知分类","address":"上海福山路世纪大道"},{"poiid":"B2094750DA6AA3F5489B","title":"soho世纪广场","lon":"121.533538","lat":"31.22653","category":"252","category_name":"楼宇机构","address":"向城路288号"},{"poiid":"B2094757D06BA0FB4498","title":"新竹园中学","lon":"121.53334","lat":"31.228","category":"55","category_name":"中学","address":"浦东新区潍坊路357号(近松林路)"},{"poiid":"B2094655D26EA2FE409E","title":"中国移动潍坊路营业厅","lon":"121.52926","lat":"31.22657","category":"151","category_name":"电讯营业厅","address":"潍坊路198号"},{"poiid":"B2094757D66FA2FB4999","title":"扬歌ktv","lon":"121.531835738","lat":"31.2280042527","category":"170","category_name":"KTV","address":"上海昌里路历城路口"},{"poiid":"B2094757D064A1FB489C","title":"吉祥馄饨(潍坊路店)","lon":"121.52864","lat":"31.22588","category":"68","category_name":"快餐厅","address":"浦东新区潍坊路186号(近世纪大道)"},{"poiid":"B2094750DB6BABFA4399","title":"耶里夏丽","lon":"121.528411","lat":"31.224428","category":"500","category_name":"未知分类","address":null},{"poiid":"B2094751D36EA0FF459E","title":"点沁(福山路店)","lon":"121.53101","lat":"31.2241","category":"68","category_name":"快餐厅","address":"浦东新区向城路78号新天国际商厦1楼(近福山路)"},{"poiid":"B2094757D068ABFE479D","title":"will\\'s 健身会所(九六广场店)","lon":"121.52732377","lat":"31.228175696","category":"221","category_name":"健身中心","address":"上海浦东新区东方路796号96广场B1楼(近张杨路)"},{"poiid":"B209475CD468A2F9429F","title":"比萨马上诺96广场餐厅","lon":"121.529747","lat":"31.225519","category":"247","category_name":"餐饮美食","address":"东方路796号130单元，1号门"},{"poiid":"B2094752D46CA5FC4792","title":"同济大学","lon":"121.529943","lat":"31.228333","category":"671","category_name":"高校中心点","address":null},{"poiid":"B2094757D465A4FA419E","title":"邵稼楼 潍坊路店","lon":"121.527697054","lat":"31.225929793","category":"76","category_name":"上海菜","address":"浦东新区潍坊路172号(近东方路)"},{"poiid":"B2094757D068A0F54393","title":"竹园小区","lon":"121.53177549","lat":"31.2311335378","category":"47","category_name":"住宅区","address":"潍坊路238弄,252弄"},{"poiid":"B2094757D16FABF9489C","title":"蒂凡尼","lon":"121.527249738","lat":"31.2257132038","category":"500","category_name":"未知分类","address":"上海96广场"},{"poiid":"B2094655D26EA6FF439E","title":"蒂凡尼(浦东店)","lon":"121.5292","lat":"31.22821","category":"148","category_name":"美容美发店","address":"浦东新区世纪大道1211号A15-A16座"},{"poiid":"B2094655D26DA1FB4698","title":"竹园商务公寓","lon":"121.52941","lat":"31.229389","category":"47","category_name":"住宅区","address":"铁西区铁西兴华街与南十中路交处(兴华南街48号)"},{"poiid":"B209475CDB69A7FC429E","title":"纯彩","lon":"121.530143","lat":"31.225347","category":"247","category_name":"餐饮美食","address":"东方路796号96广场"},{"poiid":"B2094757D069AAF44093","title":"东方路潍坊路","lon":"121.52722773","lat":"31.225521199","category":"500","category_name":"未知分类","address":"上海东方路潍坊路"},{"poiid":"B2094757D66BA3FB4198","title":"雅园","lon":"121.5307757","lat":"31.2249032","category":"94","category_name":"西餐厅","address":"浦东新区向城路29号爵士大厦C栋柏雅居1楼(近东方路)"},{"poiid":"B2094654DB64A3FF4793","title":"竹南小区北门(潍坊路)","lon":"121.52968","lat":"31.22669","category":"47","category_name":"住宅区","address":"潍坊路168弄1-37号"},{"poiid":"B2094757D06FA1F5429D","title":"本家韩国料理","lon":"121.52953653","lat":"31.223620009","category":"96","category_name":"韩国料理","address":"浦东新区东方路971号钱江大厦2楼(近向城路)"},{"poiid":"B2094757D068AAFD409A","title":"台北吴记麻辣火锅(张扬路店))","lon":"121.529039738","lat":"31.2306723095","category":"86","category_name":"火锅店","address":"浦东新区张杨路998号(近福山路)"},{"poiid":"B2094757D06FA7F9409A","title":"浦东新区国家税务局第一税务所","lon":"121.531951","lat":"31.223319242","category":"150","category_name":"银行","address":"上海向城路80号"},{"poiid":"B2094654DA6AA3FA489A","title":"苏浙汇(东方店)","lon":"121.52799","lat":"31.22449","category":"76","category_name":"上海菜","address":"浦东新区东方路877号(近潍坊路)"},{"poiid":"B2094655D268A0FD419C","title":"满记甜品 东方店","lon":"121.528440054","lat":"31.223715793","category":"67","category_name":"甜品店","address":"浦东新区向城路17号J-08室(近东方路)"},{"poiid":"B2094757D66FA0FC4292","title":"平壤高丽饭店","lon":"121.53491673","lat":"31.226411218","category":"247","category_name":"餐饮美食","address":"浦东新区松林路357号通茂大酒店1楼(近浦电路)"},{"poiid":"B2094757D06FA2F54298","title":"麦当劳(东方路店)","lon":"121.52743","lat":"31.22576","category":"68","category_name":"快餐厅","address":"浦东新区潍坊路162号(近东方路)"},{"poiid":"B2094757DA6EABFA479F","title":"蜀留香冷锅鱼(潍坊路店)","lon":"121.529072999998","lat":"31.2265219999997","category":"86","category_name":"火锅店","address":"浦东新区潍坊路194号(近世纪大道)"},{"poiid":"B2094752D569A1F5479D","title":"芥末日本料理","lon":"121.534682","lat":"31.226723","category":"247","category_name":"餐饮美食","address":"上海市浦东新区松林路357号通茂大酒店二楼西侧"},{"poiid":"B2094757D068A3F9449E","title":"COSTA COFFEE(向城店)","lon":"121.52895","lat":"31.22376","category":"65","category_name":"咖啡厅","address":"浦东新区向城路17号(东方路口)"},{"poiid":"B2094654DA69ABF44998","title":"竹园新村","lon":"121.5315","lat":"31.22899","category":"47","category_name":"住宅区","address":"潍坊路335弄1-3支弄"},{"poiid":"B2094752D664AAFB4499","title":"芥末日本料理","lon":"121.532582","lat":"31.22741","category":"247","category_name":"餐饮美食","address":"上海市浦东新区松林路357号通茂大酒店二楼西侧"},{"poiid":"B2094757D068A0FF4298","title":"柏雅居服务公寓","lon":"121.52984","lat":"31.22455","category":"217","category_name":"旅馆招待所","address":"浦东新区向城路29号爵士大厦C栋(近东方路)"},{"poiid":"B2094757D06FABFD429D","title":"阿拉对面碳烤鱼 福山路店","lon":"121.5284129484","lat":"31.231552680725","category":"71","category_name":"四川菜","address":"浦东新区福山路287号(近张杨路)"},{"poiid":"B2094757D068A3F44093","title":"东方大厦","lon":"121.532377958","lat":"31.224922976","category":"46","category_name":"楼宇","address":"卢湾区复兴中路369号(马当路口)"},{"poiid":"B2094757D06FA4FF4498","title":"億方砂锅粥(潍坊路店)","lon":"121.52899","lat":"31.22607","category":"72","category_name":"广东菜","address":"上海浦东新区潍坊路188号(近东方路)"},{"poiid":"B2094757D068A3FE409F","title":"振鼎鸡(潍坊路店)","lon":"121.52882773","lat":"31.225452198","category":"68","category_name":"快餐厅","address":"浦东新区潍坊路174号(近东方路)"},{"poiid":"B2094654DA6AA2FE479B","title":"上海市浦东新区国家税务局","lon":"121.532","lat":"31.22353","category":"250","category_name":"公园户外","address":"浦东新区向城路80"},{"poiid":"B2094753D36FA3FC439B","title":"世纪大道地铁站","lon":"121.52771","lat":"31.225006","category":"36","category_name":"地铁站","address":"上海市 世纪大道地铁站"},{"poiid":"B209475CD26DA0F44992","title":"糖员外私房甜品（96广场店）","lon":"121.530052","lat":"31.226718","category":"247","category_name":"餐饮美食","address":"上海市 东方路796号96广场249B"},{"poiid":"B2094752D364A3F94192","title":"辉哥海鲜火锅(松林路店)","lon":"121.53351","lat":"31.227","category":"86","category_name":"火锅店","address":"浦东新区松林路281号(近潍坊路)"},{"poiid":"B2094757D068A1F9429B","title":"干锅居(东方路店)","lon":"121.527303266","lat":"31.2256183568","category":"83","category_name":"云贵菜","address":"浦东新区潍坊路162号3幢(近东方路)"},{"poiid":"B2094757D064AAFB409A","title":"美年体检","lon":"121.52747344","lat":"31.22664526","category":"162","category_name":"医院","address":"上海崂山路523号"},{"poiid":"B2094654DA6AA3F9479E","title":"老西安","lon":"121.529323054","lat":"31.227174793","category":"84","category_name":"西北菜","address":"浦东新区潍坊路192号(近世纪大道)"},{"poiid":"B2094655D26FABFE439A","title":"盛大国际金融中心","lon":"121.53138","lat":"31.22506","category":"46","category_name":"楼宇","address":"松江区荣乐东路1133弄"},{"poiid":"B2094757D068A3F9459C","title":"85度C 潍坊店","lon":"121.527273054","lat":"31.226372793","category":"112","category_name":"糕饼店","address":"浦东新区潍坊路164号(近东方路)"},{"poiid":"B209475CDA69ABFA4192","title":"PIZZA MARZANO","lon":"121.529724","lat":"31.225532","category":"500","category_name":"未知分类","address":"上海市 上海市浦东新区九六广场"},{"poiid":"B2094654DB69A0FA4192","title":"大渔(东方店)","lon":"121.52796","lat":"31.22467","category":"87","category_name":"特色／地方风味餐厅","address":"浦东新区东方路877号嘉兴大厦3楼(近向城路)"},{"poiid":"B2094655D265A5FD459B","title":"莎琪玛港式茶餐厅","lon":"121.52894","lat":"31.23002","category":"72","category_name":"广东菜","address":"浦东新区福山路295号(近张杨路)"},{"poiid":"B2094654DA69ABF44999","title":"竹园新村(南门)","lon":"121.53131","lat":"31.22761","category":"47","category_name":"住宅区","address":"潍坊路335弄1-3支弄"},{"poiid":"B2094757D06AA0FA419D","title":"福山路世纪大道车站","lon":"121.52947","lat":"31.22856","category":"500","category_name":"未知分类","address":"上海福山路世纪大道"},{"poiid":"B2094750DA6AA3F5489B","title":"soho世纪广场","lon":"121.533538","lat":"31.22653","category":"252","category_name":"楼宇机构","address":"向城路288号"},{"poiid":"B2094757D06BA0FB4498","title":"新竹园中学","lon":"121.53334","lat":"31.228","category":"55","category_name":"中学","address":"浦东新区潍坊路357号(近松林路)"},{"poiid":"B2094655D26EA2FE409E","title":"中国移动潍坊路营业厅","lon":"121.52926","lat":"31.22657","category":"151","category_name":"电讯营业厅","address":"潍坊路198号"},{"poiid":"B2094757D66FA2FB4999","title":"扬歌ktv","lon":"121.531835738","lat":"31.2280042527","category":"170","category_name":"KTV","address":"上海昌里路历城路口"},{"poiid":"B2094757D064A1FB489C","title":"吉祥馄饨(潍坊路店)","lon":"121.52864","lat":"31.22588","category":"68","category_name":"快餐厅","address":"浦东新区潍坊路186号(近世纪大道)"},{"poiid":"B2094750DB6BABFA4399","title":"耶里夏丽","lon":"121.528411","lat":"31.224428","category":"500","category_name":"未知分类","address":null},{"poiid":"B2094751D36EA0FF459E","title":"点沁(福山路店)","lon":"121.53101","lat":"31.2241","category":"68","category_name":"快餐厅","address":"浦东新区向城路78号新天国际商厦1楼(近福山路)"},{"poiid":"B2094757D068ABFE479D","title":"will\\'s 健身会所(九六广场店)","lon":"121.52732377","lat":"31.228175696","category":"221","category_name":"健身中心","address":"上海浦东新区东方路796号96广场B1楼(近张杨路)"},{"poiid":"B209475CD468A2F9429F","title":"比萨马上诺96广场餐厅","lon":"121.529747","lat":"31.225519","category":"247","category_name":"餐饮美食","address":"东方路796号130单元，1号门"},{"poiid":"B2094752D46CA5FC4792","title":"同济大学","lon":"121.529943","lat":"31.228333","category":"671","category_name":"高校中心点","address":null},{"poiid":"B2094757D465A4FA419E","title":"邵稼楼 潍坊路店","lon":"121.527697054","lat":"31.225929793","category":"76","category_name":"上海菜","address":"浦东新区潍坊路172号(近东方路)"},{"poiid":"B2094757D068A0F54393","title":"竹园小区","lon":"121.53177549","lat":"31.2311335378","category":"47","category_name":"住宅区","address":"潍坊路238弄,252弄"},{"poiid":"B2094757D16FABF9489C","title":"蒂凡尼","lon":"121.527249738","lat":"31.2257132038","category":"500","category_name":"未知分类","address":"上海96广场"},{"poiid":"B2094655D26EA6FF439E","title":"蒂凡尼(浦东店)","lon":"121.5292","lat":"31.22821","category":"148","category_name":"美容美发店","address":"浦东新区世纪大道1211号A15-A16座"},{"poiid":"B2094655D26DA1FB4698","title":"竹园商务公寓","lon":"121.52941","lat":"31.229389","category":"47","category_name":"住宅区","address":"铁西区铁西兴华街与南十中路交处(兴华南街48号)"},{"poiid":"B209475CDB69A7FC429E","title":"纯彩","lon":"121.530143","lat":"31.225347","category":"247","category_name":"餐饮美食","address":"东方路796号96广场"},{"poiid":"B2094757D069AAF44093","title":"东方路潍坊路","lon":"121.52722773","lat":"31.225521199","category":"500","category_name":"未知分类","address":"上海东方路潍坊路"},{"poiid":"B2094757D66BA3FB4198","title":"雅园","lon":"121.5307757","lat":"31.2249032","category":"94","category_name":"西餐厅","address":"浦东新区向城路29号爵士大厦C栋柏雅居1楼(近东方路)"},{"poiid":"B2094654DB64A3FF4793","title":"竹南小区北门(潍坊路)","lon":"121.52968","lat":"31.22669","category":"47","category_name":"住宅区","address":"潍坊路168弄1-37号"}]