[{"poiid":"B2094655D26CA4FB4499","title":"上海滩国际大厦","lon":"121.499","lat":"31.2502","category":"46","category_name":"楼宇","address":"丰台学城海鹰路1号,3号"},{"poiid":"B2094757D06FA7FE419F","title":"上海国际港务大厦","lon":"121.49573516","lat":"31.246837616","category":"46","category_name":"楼宇","address":"上海东大名路358号"},{"poiid":"B2094757D068A3F5469E","title":"海员医院(东长治路分院)","lon":"121.498129972","lat":"31.250511409","category":"162","category_name":"医院","address":"上海虹口区东长治路505号"},{"poiid":"B209475CD564A7F84392","title":"上海滩浦东香格里拉店","lon":"121.50058","lat":"31.23634","category":"119","category_name":"商场","address":"浦东富成路33号香格里拉酒店内大堂层"},{"poiid":"B2094654DA6FA7F8429F","title":"远洋海星旋转餐厅","lon":"121.49625","lat":"31.24696","category":"257","category_name":"中餐厅","address":"虹口区东大名路378号远洋大厦28楼(近旅顺路)"},{"poiid":"B2094757D06FA4FE4999","title":"海湾大厦","lon":"121.498","lat":"31.2499","category":"46","category_name":"楼宇","address":"虹口区黄浦路53号(近外白渡桥)"},{"poiid":"B2094757D06FA3F44092","title":"新建路隧道","lon":"121.49868207","lat":"31.25213545","category":"260","category_name":"其他","address":"上海虹口区新建路-浦东新区陆家嘴环路"},{"poiid":"B2094757D06AA1FC489E","title":"上海港","lon":"121.497051","lat":"31.247305","category":"500","category_name":"未知分类","address":"上海东大名路500号"},{"poiid":"B2094757D068A1FE499B","title":"浦江名邸","lon":"121.49659","lat":"31.255047","category":"47","category_name":"住宅区","address":"广西北路246号百米香榭商业街南区260"},{"poiid":"B2094757DB6CA4FB4993","title":"外滩公馆","lon":"121.494","lat":"31.25196","category":"76","category_name":"上海菜","address":"虹口区东余杭路275弄3号(近梧州路)"},{"poiid":"B2094654D56DABFE499C","title":"宝矿国际大厦","lon":"121.497534","lat":"31.254199","category":"46","category_name":"楼宇","address":"上海市虹口区吴淞路218号"},{"poiid":"B2094654DB6BA3F8449D","title":"定豪沈家门海鲜酒楼","lon":"121.49484","lat":"31.24854","category":"75","category_name":"浙江菜","address":"虹口区东长治路310号(近溧阳路)"},{"poiid":"B2094757D064A3F8429D","title":"上海建工集团总公司","lon":"121.501623103","lat":"31.2491349775","category":"263","category_name":"公司","address":"上海市虹口区东大名路666号"},{"poiid":"B2094757D06BA4FC459F","title":"美年体检","lon":"121.49821","lat":"31.250433","category":"162","category_name":"医院","address":"虹口区东长治路505号"},{"poiid":"B2094655D26BA2F9479E","title":"唐山路新建路","lon":"121.49753","lat":"31.25193","category":"38","category_name":"公交车站","address":""},{"poiid":"B2094655D26BABFF4098","title":"名江七星城","lon":"121.49435","lat":"31.251509","category":"47","category_name":"住宅区","address":"上海市虹口区东汉阳路309弄"},{"poiid":"B2094757D068A2F84593","title":"白金府邸","lon":"121.49451","lat":"31.250563","category":"252","category_name":"楼宇机构","address":"虹口区旅顺路199弄"},{"poiid":"B2094654DA6FA6FE429B","title":"恒升半岛国际中心","lon":"121.49564983911","lat":"31.252855823114","category":"46","category_name":"楼宇","address":"上海市虹口区吴淞路205号"},{"poiid":"B2094655D268A7FF449E","title":"上海北外滩白玉兰广场","lon":"121.49682","lat":"31.24851","category":"119","category_name":"商场","address":""},{"poiid":"B2094757D16CA7FE429E","title":"崇明私房菜","lon":"121.494195403","lat":"31.2537960749","category":"76","category_name":"上海菜","address":"虹口区周家嘴路328号(近新建路)"},{"poiid":"B2094655D36CA6FB4992","title":"东大名路旅顺路","lon":"121.49738","lat":"31.24778","category":"38","category_name":"公交车站","address":""},{"poiid":"B2094654D56DABFD499D","title":"上海海员医院体检中心","lon":"121.49774","lat":"31.25025","category":"162","category_name":"医院","address":"提篮桥"},{"poiid":"B2094757D06AA7FA409D","title":"东长治路","lon":"121.5008371","lat":"31.250816012","category":"500","category_name":"未知分类","address":"上海东长治路"},{"poiid":"B2094654D56DA4F5459B","title":"上海海员医院门急诊部","lon":"121.49723","lat":"31.25099","category":"162","category_name":"医院","address":"商邱路250"},{"poiid":"B2094654D56DA4F5429B","title":"京世造型·美容(东汉阳路)","lon":"121.49536","lat":"31.25139","category":"148","category_name":"美容美发店","address":""},{"poiid":"B2094655D26FA6FC479D","title":"章氏 唐山店","lon":"121.50104949388","lat":"31.253911762853","category":"68","category_name":"快餐厅","address":"虹口区唐山路216号(近高阳路)"},{"poiid":"B2094655D36CA6F4439C","title":"东长治路旅顺路","lon":"121.49693","lat":"31.24975","category":"38","category_name":"公交车站","address":""},{"poiid":"B2094752D069A2FF419A","title":"新白鹿","lon":"121.4996283","lat":"31.2488492","category":"247","category_name":"餐饮美食","address":"南京东路800号东方商厦9楼"},{"poiid":"B2094757D068A3F5479F","title":"和泰玫瑰园","lon":"121.50043","lat":"31.251926","category":"500","category_name":"未知分类","address":"和泰玫瑰园位于虹口东长治路655号"},{"poiid":"B2094654D56DA4F54993","title":"上海市虹口区东余杭路幼儿园","lon":"121.49711","lat":"31.2523","category":"57","category_name":"幼儿园","address":"东汉阳路453"},{"poiid":"B2094654D56DABFD499F","title":"海顺商务楼","lon":"121.49787","lat":"31.25031","category":"46","category_name":"楼宇","address":"东长治路503"},{"poiid":"B2094757D66DA4FF4692","title":"唐山路商丘路烧烤摊","lon":"121.4960231","lat":"31.251600029","category":"68","category_name":"快餐厅","address":"虹口区商丘路"},{"poiid":"B2094757D06BA3F44599","title":"英腾国际健身中心","lon":"121.4947","lat":"31.25091","category":"148","category_name":"美容美发店","address":"虹口区东汉阳路309弄17号名江七星城会所(近宇泰公寓)"},{"poiid":"B2094654D56DABFE409A","title":"光明便利(东长治路)","lon":"121.49758","lat":"31.25022","category":"117","category_name":"便民商店/便利店","address":"虹口区东长治路497号(东长治路商丘路)"},{"poiid":"B209475DDB64ABFA4993","title":"canil狗窝","lon":"121.496696","lat":"31.252607","category":"247","category_name":"餐饮美食","address":"上海市 溧阳路611号1933老场坊1-109室(近海宁路)"},{"poiid":"B2094654DB64A6FB499F","title":"如家快捷酒店(上海北外滩店)","lon":"121.49597","lat":"31.25448","category":"216","category_name":"经济型连锁酒店","address":"上海市虹口区周家嘴路345号(近金田路)"},{"poiid":"B2094757D068AAFC4698","title":"公平路唐山路","lon":"121.5008606","lat":"31.253434067","category":"500","category_name":"未知分类","address":"上海公平路唐山路"},{"poiid":"B209475DD76EA3F4489F","title":"金牌外婆家国金中心店","lon":"121.495743","lat":"31.250378","category":"257","category_name":"中餐厅","address":"浦东新区世纪大道8号上海国金中心内LG2层55号(近陆家嘴东路)"},{"poiid":"B2094654D56DABFE4099","title":"师善里","lon":"121.49681","lat":"31.25028","category":"47","category_name":"住宅区","address":"东长治路449弄1-69号"},{"poiid":"B2094654D56DA4F5469A","title":"宝华住宅小区","lon":"121.49769","lat":"31.251369","category":"47","category_name":"住宅区","address":"唐山路62弄"},{"poiid":"B2094655D26FA0F54498","title":"师善里(南门)","lon":"121.4971","lat":"31.25001","category":"47","category_name":"住宅区","address":"东长治路449弄1-69号"},{"poiid":"B2094655D26FA0F54392","title":"宝华住宅小区(北门)","lon":"121.49754","lat":"31.25169","category":"47","category_name":"住宅区","address":"唐山路62"},{"poiid":"B2094750DA64A2F4489C","title":"陆家嘴金融区","lon":"121.4972","lat":"31.253206","category":"500","category_name":"未知分类","address":null},{"poiid":"B2094752D264AAFA4999","title":"美特斯邦威总部","lon":"121.496576","lat":"31.250919","category":"500","category_name":"未知分类","address":"上海东大名路588号"},{"poiid":"B2094750D26AA2F5429E","title":"蓝村路地铁站","lon":"121.495605","lat":"31.252359","category":"36","category_name":"地铁站","address":null},{"poiid":"B209475CDA68A2FE419E","title":"五角场万达广场","lon":"121.496681","lat":"31.251993","category":"500","category_name":"未知分类","address":"上海市 翔殷路"},{"poiid":"B2094654D56DA4F5429E","title":"快客No.6606","lon":"121.49588","lat":"31.25155","category":"117","category_name":"便民商店/便利店","address":"东汉阳路343"},{"poiid":"B2094757D568A7FD4699","title":"7天上海北外滩店","lon":"121.49877035","lat":"31.2525982","category":"216","category_name":"经济型连锁酒店","address":"唐山路145号(新建路隧道口)"},{"poiid":"B2094752D165A2FB4299","title":"新华保险大厦","lon":"121.494843","lat":"31.250205","category":"252","category_name":"楼宇机构","address":"东大名路558号"},{"poiid":"B2094654D56DA4F54893","title":"建唐大楼","lon":"121.49776","lat":"31.25226","category":"47","category_name":"住宅区","address":"东汉阳路490"},{"poiid":"B2094655D26CA4FB4499","title":"上海滩国际大厦","lon":"121.499","lat":"31.2502","category":"46","category_name":"楼宇","address":"丰台学城海鹰路1号,3号"},{"poiid":"B2094757D06FA7FE419F","title":"上海国际港务大厦","lon":"121.49573516","lat":"31.246837616","category":"46","category_name":"楼宇","address":"上海东大名路358号"},{"poiid":"B2094757D068A3F5469E","title":"海员医院(东长治路分院)","lon":"121.498129972","lat":"31.250511409","category":"162","category_name":"医院","address":"上海虹口区东长治路505号"},{"poiid":"B209475CD564A7F84392","title":"上海滩浦东香格里拉店","lon":"121.50058","lat":"31.23634","category":"119","category_name":"商场","address":"浦东富成路33号香格里拉酒店内大堂层"},{"poiid":"B2094654DA6FA7F8429F","title":"远洋海星旋转餐厅","lon":"121.49625","lat":"31.24696","category":"257","category_name":"中餐厅","address":"虹口区东大名路378号远洋大厦28楼(近旅顺路)"},{"poiid":"B2094757D06FA4FE4999","title":"海湾大厦","lon":"121.498","lat":"31.2499","category":"46","category_name":"楼宇","address":"虹口区黄浦路53号(近外白渡桥)"},{"poiid":"B2094757D06FA3F44092","title":"新建路隧道","lon":"121.49868207","lat":"31.25213545","category":"260","category_name":"其他","address":"上海虹口区新建路-浦东新区陆家嘴环路"},{"poiid":"B2094757D06AA1FC489E","title":"上海港","lon":"121.497051","lat":"31.247305","category":"500","category_name":"未知分类","address":"上海东大名路500号"},{"poiid":"B2094757D068A1FE499B","title":"浦江名邸","lon":"121.49659","lat":"31.255047","category":"47","category_name":"住宅区","address":"广西北路246号百米香榭商业街南区260"},{"poiid":"B2094757DB6CA4FB4993","title":"外滩公馆","lon":"121.494","lat":"31.25196","category":"76","category_name":"上海菜","address":"虹口区东余杭路275弄3号(近梧州路)"},{"poiid":"B2094654D56DABFE499C","title":"宝矿国际大厦","lon":"121.497534","lat":"31.254199","category":"46","category_name":"楼宇","address":"上海市虹口区吴淞路218号"},{"poiid":"B2094654DB6BA3F8449D","title":"定豪沈家门海鲜酒楼","lon":"121.49484","lat":"31.24854","category":"75","category_name":"浙江菜","address":"虹口区东长治路310号(近溧阳路)"},{"poiid":"B2094757D064A3F8429D","title":"上海建工集团总公司","lon":"121.501623103","lat":"31.2491349775","category":"263","category_name":"公司","address":"上海市虹口区东大名路666号"},{"poiid":"B2094757D06BA4FC459F","title":"美年体检","lon":"121.49821","lat":"31.250433","category":"162","category_name":"医院","address":"虹口区东长治路505号"},{"poiid":"B2094655D26BA2F9479E","title":"唐山路新建路","lon":"121.49753","lat":"31.25193","category":"38","category_name":"公交车站","address":""},{"poiid":"B2094655D26BABFF4098","title":"名江七星城","lon":"121.49435","lat":"31.251509","category":"47","category_name":"住宅区","address":"上海市虹口区东汉阳路309弄"},{"poiid":"B2094757D068A2F84593","title":"白金府邸","lon":"121.49451","lat":"31.250563","category":"252","category_name":"楼宇机构","address":"虹口区旅顺路199弄"},{"poiid":"B2094654DA6FA6FE429B","title":"恒升半岛国际中心","lon":"121.49564983911","lat":"31.252855823114","category":"46","category_name":"楼宇","address":"上海市虹口区吴淞路205号"},{"poiid":"B2094655D268A7FF449E","title":"上海北外滩白玉兰广场","lon":"121.49682","lat":"31.24851","category":"119","category_name":"商场","address":""},{"poiid":"B2094757D16CA7FE429E","title":"崇明私房菜","lon":"121.494195403","lat":"31.2537960749","category":"76","category_name":"上海菜","address":"虹口区周家嘴路328号(近新建路)"},{"poiid":"B2094655D36CA6FB4992","title":"东大名路旅顺路","lon":"121.49738","lat":"31.24778","category":"38","category_name":"公交车站","address":""},{"poiid":"B2094654D56DABFD499D","title":"上海海员医院体检中心","lon":"121.49774","lat":"31.25025","category":"162","category_name":"医院","address":"提篮桥"},{"poiid":"B2094757D06AA7FA409D","title":"东长治路","lon":"121.5008371","lat":"31.250816012","category":"500","category_name":"未知分类","address":"上海东长治路"},{"poiid":"B2094654D56DA4F5459B","title":"上海海员医院门急诊部","lon":"121.49723","lat":"31.25099","category":"162","category_name":"医院","address":"商邱路250"},{"poiid":"B2094654D56DA4F5429B","title":"京世造型·美容(东汉阳路)","lon":"121.49536","lat":"31.25139","category":"148","category_name":"美容美发店","address":""},{"poiid":"B2094655D26FA6FC479D","title":"章氏 唐山店","lon":"121.50104949388","lat":"31.253911762853","category":"68","category_name":"快餐厅","address":"虹口区唐山路216号(近高阳路)"},{"poiid":"B2094655D36CA6F4439C","title":"东长治路旅顺路","lon":"121.49693","lat":"31.24975","category":"38","category_name":"公交车站","address":""},{"poiid":"B2094752D069A2FF419A","title":"新白鹿","lon":"121.4996283","lat":"31.2488492","category":"247","category_name":"餐饮美食","address":"南京东路800号东方商厦9楼"},{"poiid":"B2094757D068A3F5479F","title":"和泰玫瑰园","lon":"121.50043","lat":"31.251926","category":"500","category_name":"未知分类","address":"和泰玫瑰园位于虹口东长治路655号"},{"poiid":"B2094654D56DA4F54993","title":"上海市虹口区东余杭路幼儿园","lon":"121.49711","lat":"31.2523","category":"57","category_name":"幼儿园","address":"东汉阳路453"},{"poiid":"B2094654D56DABFD499F","title":"海顺商务楼","lon":"121.49787","lat":"31.25031","category":"46","category_name":"楼宇","address":"东长治路503"},{"poiid":"B2094757D66DA4FF4692","title":"唐山路商丘路烧烤摊","lon":"121.4960231","lat":"31.251600029","category":"68","category_name":"快餐厅","address":"虹口区商丘路"},{"poiid":"B2094757D06BA3F44599","title":"英腾国际健身中心","lon":"121.4947","lat":"31.25091","category":"148","category_name":"美容美发店","address":"虹口区东汉阳路309弄17号名江七星城会所(近宇泰公寓)"},{"poiid":"B2094654D56DABFE409A","title":"光明便利(东长治路)","lon":"121.49758","lat":"31.25022","category":"117","category_name":"便民商店/便利店","address":"虹口区东长治路497号(东长治路商丘路)"},{"poiid":"B209475DDB64ABFA4993","title":"canil狗窝","lon":"121.496696","lat":"31.252607","category":"247","category_name":"餐饮美食","address":"上海市 溧阳路611号1933老场坊1-109室(近海宁路)"},{"poiid":"B2094654DB64A6FB499F","title":"如家快捷酒店(上海北外滩店)","lon":"121.49597","lat":"31.25448","category":"216","category_name":"经济型连锁酒店","address":"上海市虹口区周家嘴路345号(近金田路)"},{"poiid":"B2094757D068AAFC4698","title":"公平路唐山路","lon":"121.5008606","lat":"31.253434067","category":"500","category_name":"未知分类","address":"上海公平路唐山路"},{"poiid":"B209475DD76EA3F4489F","title":"金牌外婆家国金中心店","lon":"121.495743","lat":"31.250378","category":"257","category_name":"中餐厅","address":"浦东新区世纪大道8号上海国金中心内LG2层55号(近陆家嘴东路)"},{"poiid":"B2094654D56DABFE4099","title":"师善里","lon":"121.49681","lat":"31.25028","category":"47","category_name":"住宅区","address":"东长治路449弄1-69号"},{"poiid":"B2094654D56DA4F5469A","title":"宝华住宅小区","lon":"121.49769","lat":"31.251369","category":"47","category_name":"住宅区","address":"唐山路62弄"},{"poiid":"B2094655D26FA0F54498","title":"师善里(南门)","lon":"121.4971","lat":"31.25001","category":"47","category_name":"住宅区","address":"东长治路449弄1-69号"},{"poiid":"B2094655D26FA0F54392","title":"宝华住宅小区(北门)","lon":"121.49754","lat":"31.25169","category":"47","category_name":"住宅区","address":"唐山路62"},{"poiid":"B2094750DA64A2F4489C","title":"陆家嘴金融区","lon":"121.4972","lat":"31.253206","category":"500","category_name":"未知分类","address":null},{"poiid":"B2094752D264AAFA4999","title":"美特斯邦威总部","lon":"121.496576","lat":"31.250919","category":"500","category_name":"未知分类","address":"上海东大名路588号"},{"poiid":"B2094750D26AA2F5429E","title":"蓝村路地铁站","lon":"121.495605","lat":"31.252359","category":"36","category_name":"地铁站","address":null},{"poiid":"B209475CDA68A2FE419E","title":"五角场万达广场","lon":"121.496681","lat":"31.251993","category":"500","category_name":"未知分类","address":"上海市 翔殷路"},{"poiid":"B2094654D56DA4F5429E","title":"快客No.6606","lon":"121.49588","lat":"31.25155","category":"117","category_name":"便民商店/便利店","address":"东汉阳路343"},{"poiid":"B2094757D568A7FD4699","title":"7天上海北外滩店","lon":"121.49877035","lat":"31.2525982","category":"216","category_name":"经济型连锁酒店","address":"唐山路145号(新建路隧道口)"},{"poiid":"B2094752D165A2FB4299","title":"新华保险大厦","lon":"121.494843","lat":"31.250205","category":"252","category_name":"楼宇机构","address":"东大名路558号"},{"poiid":"B2094654D56DA4F54893","title":"建唐大楼","lon":"121.49776","lat":"31.25226","category":"47","category_name":"住宅区","address":"东汉阳路490"},{"poiid":"B2094655D26CA4FB4499","title":"上海滩国际大厦","lon":"121.499","lat":"31.2502","category":"46","category_name":"楼宇","address":"丰台学城海鹰路1号,3号"},{"poiid":"B2094757D06FA7FE419F","title":"上海国际港务大厦","lon":"121.49573516","lat":"31.246837616","category":"46","category_name":"楼宇","address":"上海东大名路358号"},{"poiid":"B2094757D068A3F5469E","title":"海员医院(东长治路分院)","lon":"121.498129972","lat":"31.250511409","category":"162","category_name":"医院","address":"上海虹口区东长治路505号"},{"poiid":"B209475CD564A7F84392","title":"上海滩浦东香格里拉店","lon":"121.50058","lat":"31.23634","category":"119","category_name":"商场","address":"浦东富成路33号香格里拉酒店内大堂层"},{"poiid":"B2094654DA6FA7F8429F","title":"远洋海星旋转餐厅","lon":"121.49625","lat":"31.24696","category":"257","category_name":"中餐厅","address":"虹口区东大名路378号远洋大厦28楼(近旅顺路)"},{"poiid":"B2094757D06FA4FE4999","title":"海湾大厦","lon":"121.498","lat":"31.2499","category":"46","category_name":"楼宇","address":"虹口区黄浦路53号(近外白渡桥)"},{"poiid":"B2094757D06FA3F44092","title":"新建路隧道","lon":"121.49868207","lat":"31.25213545","category":"260","category_name":"其他","address":"上海虹口区新建路-浦东新区陆家嘴环路"},{"poiid":"B2094757D06AA1FC489E","title":"上海港","lon":"121.497051","lat":"31.247305","category":"500","category_name":"未知分类","address":"上海东大名路500号"},{"poiid":"B2094757D068A1FE499B","title":"浦江名邸","lon":"121.49659","lat":"31.255047","category":"47","category_name":"住宅区","address":"广西北路246号百米香榭商业街南区260"},{"poiid":"B2094757DB6CA4FB4993","title":"外滩公馆","lon":"121.494","lat":"31.25196","category":"76","category_name":"上海菜","address":"虹口区东余杭路275弄3号(近梧州路)"},{"poiid":"B2094654D56DABFE499C","title":"宝矿国际大厦","lon":"121.497534","lat":"31.254199","category":"46","category_name":"楼宇","address":"上海市虹口区吴淞路218号"},{"poiid":"B2094654DB6BA3F8449D","title":"定豪沈家门海鲜酒楼","lon":"121.49484","lat":"31.24854","category":"75","category_name":"浙江菜","address":"虹口区东长治路310号(近溧阳路)"},{"poiid":"B2094757D064A3F8429D","title":"上海建工集团总公司","lon":"121.501623103","lat":"31.2491349775","category":"263","category_name":"公司","address":"上海市虹口区东大名路666号"},{"poiid":"B2094757D06BA4FC459F","title":"美年体检","lon":"121.49821","lat":"31.250433","category":"162","category_name":"医院","address":"虹口区东长治路505号"},{"poiid":"B2094655D26BA2F9479E","title":"唐山路新建路","lon":"121.49753","lat":"31.25193","category":"38","category_name":"公交车站","address":""},{"poiid":"B2094655D26BABFF4098","title":"名江七星城","lon":"121.49435","lat":"31.251509","category":"47","category_name":"住宅区","address":"上海市虹口区东汉阳路309弄"},{"poiid":"B2094757D068A2F84593","title":"白金府邸","lon":"121.49451","lat":"31.250563","category":"252","category_name":"楼宇机构","address":"虹口区旅顺路199弄"},{"poiid":"B2094654DA6FA6FE429B","title":"恒升半岛国际中心","lon":"121.49564983911","lat":"31.252855823114","category":"46","category_name":"楼宇","address":"上海市虹口区吴淞路205号"},{"poiid":"B2094655D268A7FF449E","title":"上海北外滩白玉兰广场","lon":"121.49682","lat":"31.24851","category":"119","category_name":"商场","address":""},{"poiid":"B2094757D16CA7FE429E","title":"崇明私房菜","lon":"121.494195403","lat":"31.2537960749","category":"76","category_name":"上海菜","address":"虹口区周家嘴路328号(近新建路)"},{"poiid":"B2094655D36CA6FB4992","title":"东大名路旅顺路","lon":"121.49738","lat":"31.24778","category":"38","category_name":"公交车站","address":""},{"poiid":"B2094654D56DABFD499D","title":"上海海员医院体检中心","lon":"121.49774","lat":"31.25025","category":"162","category_name":"医院","address":"提篮桥"},{"poiid":"B2094757D06AA7FA409D","title":"东长治路","lon":"121.5008371","lat":"31.250816012","category":"500","category_name":"未知分类","address":"上海东长治路"},{"poiid":"B2094654D56DA4F5459B","title":"上海海员医院门急诊部","lon":"121.49723","lat":"31.25099","category":"162","category_name":"医院","address":"商邱路250"},{"poiid":"B2094654D56DA4F5429B","title":"京世造型·美容(东汉阳路)","lon":"121.49536","lat":"31.25139","category":"148","category_name":"美容美发店","address":""},{"poiid":"B2094655D26FA6FC479D","title":"章氏 唐山店","lon":"121.50104949388","lat":"31.253911762853","category":"68","category_name":"快餐厅","address":"虹口区唐山路216号(近高阳路)"},{"poiid":"B2094655D36CA6F4439C","title":"东长治路旅顺路","lon":"121.49693","lat":"31.24975","category":"38","category_name":"公交车站","address":""},{"poiid":"B2094752D069A2FF419A","title":"新白鹿","lon":"121.4996283","lat":"31.2488492","category":"247","category_name":"餐饮美食","address":"南京东路800号东方商厦9楼"},{"poiid":"B2094757D068A3F5479F","title":"和泰玫瑰园","lon":"121.50043","lat":"31.251926","category":"500","category_name":"未知分类","address":"和泰玫瑰园位于虹口东长治路655号"},{"poiid":"B2094654D56DA4F54993","title":"上海市虹口区东余杭路幼儿园","lon":"121.49711","lat":"31.2523","category":"57","category_name":"幼儿园","address":"东汉阳路453"},{"poiid":"B2094654D56DABFD499F","title":"海顺商务楼","lon":"121.49787","lat":"31.25031","category":"46","category_name":"楼宇","address":"东长治路503"},{"poiid":"B2094757D66DA4FF4692","title":"唐山路商丘路烧烤摊","lon":"121.4960231","lat":"31.251600029","category":"68","category_name":"快餐厅","address":"虹口区商丘路"},{"poiid":"B2094757D06BA3F44599","title":"英腾国际健身中心","lon":"121.4947","lat":"31.25091","category":"148","category_name":"美容美发店","address":"虹口区东汉阳路309弄17号名江七星城会所(近宇泰公寓)"},{"poiid":"B2094654D56DABFE409A","title":"光明便利(东长治路)","lon":"121.49758","lat":"31.25022","category":"117","category_name":"便民商店/便利店","address":"虹口区东长治路497号(东长治路商丘路)"},{"poiid":"B209475DDB64ABFA4993","title":"canil狗窝","lon":"121.496696","lat":"31.252607","category":"247","category_name":"餐饮美食","address":"上海市 溧阳路611号1933老场坊1-109室(近海宁路)"},{"poiid":"B2094654DB64A6FB499F","title":"如家快捷酒店(上海北外滩店)","lon":"121.49597","lat":"31.25448","category":"216","category_name":"经济型连锁酒店","address":"上海市虹口区周家嘴路345号(近金田路)"},{"poiid":"B2094757D068AAFC4698","title":"公平路唐山路","lon":"121.5008606","lat":"31.253434067","category":"500","category_name":"未知分类","address":"上海公平路唐山路"},{"poiid":"B209475DD76EA3F4489F","title":"金牌外婆家国金中心店","lon":"121.495743","lat":"31.250378","category":"257","category_name":"中餐厅","address":"浦东新区世纪大道8号上海国金中心内LG2层55号(近陆家嘴东路)"},{"poiid":"B2094654D56DABFE4099","title":"师善里","lon":"121.49681","lat":"31.25028","category":"47","category_name":"住宅区","address":"东长治路449弄1-69号"},{"poiid":"B2094654D56DA4F5469A","title":"宝华住宅小区","lon":"121.49769","lat":"31.251369","category":"47","category_name":"住宅区","address":"唐山路62弄"},{"poiid":"B2094655D26FA0F54498","title":"师善里(南门)","lon":"121.4971","lat":"31.25001","category":"47","category_name":"住宅区","address":"东长治路449弄1-69号"},{"poiid":"B2094655D26FA0F54392","title":"宝华住宅小区(北门)","lon":"121.49754","lat":"31.25169","category":"47","category_name":"住宅区","address":"唐山路62"},{"poiid":"B2094750DA64A2F4489C","title":"陆家嘴金融区","lon":"121.4972","lat":"31.253206","category":"500","category_name":"未知分类","address":null},{"poiid":"B2094752D264AAFA4999","title":"美特斯邦威总部","lon":"121.496576","lat":"31.250919","category":"500","category_name":"未知分类","address":"上海东大名路588号"},{"poiid":"B2094750D26AA2F5429E","title":"蓝村路地铁站","lon":"121.495605","lat":"31.252359","category":"36","category_name":"地铁站","address":null},{"poiid":"B209475CDA68A2FE419E","title":"五角场万达广场","lon":"121.496681","lat":"31.251993","category":"500","category_name":"未知分类","address":"上海市 翔殷路"},{"poiid":"B2094654D56DA4F5429E","title":"快客No.6606","lon":"121.49588","lat":"31.25155","category":"117","category_name":"便民商店/便利店","address":"东汉阳路343"},{"poiid":"B2094757D568A7FD4699","title":"7天上海北外滩店","lon":"121.49877035","lat":"31.2525982","category":"216","category_name":"经济型连锁酒店","address":"唐山路145号(新建路隧道口)"},{"poiid":"B2094752D165A2FB4299","title":"新华保险大厦","lon":"121.494843","lat":"31.250205","category":"252","category_name":"楼宇机构","address":"东大名路558号"},{"poiid":"B2094654D56DA4F54893","title":"建唐大楼","lon":"121.49776","lat":"31.25226","category":"47","category_name":"住宅区","address":"东汉阳路490"},{"poiid":"B2094655D26CA4FB4499","title":"上海滩国际大厦","lon":"121.499","lat":"31.2502","category":"46","category_name":"楼宇","address":"丰台学城海鹰路1号,3号"},{"poiid":"B2094757D06FA7FE419F","title":"上海国际港务大厦","lon":"121.49573516","lat":"31.246837616","category":"46","category_name":"楼宇","address":"上海东大名路358号"},{"poiid":"B2094757D068A3F5469E","title":"海员医院(东长治路分院)","lon":"121.498129972","lat":"31.250511409","category":"162","category_name":"医院","address":"上海虹口区东长治路505号"},{"poiid":"B209475CD564A7F84392","title":"上海滩浦东香格里拉店","lon":"121.50058","lat":"31.23634","category":"119","category_name":"商场","address":"浦东富成路33号香格里拉酒店内大堂层"},{"poiid":"B2094654DA6FA7F8429F","title":"远洋海星旋转餐厅","lon":"121.49625","lat":"31.24696","category":"257","category_name":"中餐厅","address":"虹口区东大名路378号远洋大厦28楼(近旅顺路)"},{"poiid":"B2094757D06FA4FE4999","title":"海湾大厦","lon":"121.498","lat":"31.2499","category":"46","category_name":"楼宇","address":"虹口区黄浦路53号(近外白渡桥)"},{"poiid":"B2094757D06FA3F44092","title":"新建路隧道","lon":"121.49868207","lat":"31.25213545","category":"260","category_name":"其他","address":"上海虹口区新建路-浦东新区陆家嘴环路"},{"poiid":"B2094757D06AA1FC489E","title":"上海港","lon":"121.497051","lat":"31.247305","category":"500","category_name":"未知分类","address":"上海东大名路500号"},{"poiid":"B2094757D068A1FE499B","title":"浦江名邸","lon":"121.49659","lat":"31.255047","category":"47","category_name":"住宅区","address":"广西北路246号百米香榭商业街南区260"},{"poiid":"B2094757DB6CA4FB4993","title":"外滩公馆","lon":"121.494","lat":"31.25196","category":"76","category_name":"上海菜","address":"虹口区东余杭路275弄3号(近梧州路)"},{"poiid":"B2094654D56DABFE499C","title":"宝矿国际大厦","lon":"121.497534","lat":"31.254199","category":"46","category_name":"楼宇","address":"上海市虹口区吴淞路218号"},{"poiid":"B2094654DB6BA3F8449D","title":"定豪沈家门海鲜酒楼","lon":"121.49484","lat":"31.24854","category":"75","category_name":"浙江菜","address":"虹口区东长治路310号(近溧阳路)"},{"poiid":"B2094757D064A3F8429D","title":"上海建工集团总公司","lon":"121.501623103","lat":"31.2491349775","category":"263","category_name":"公司","address":"上海市虹口区东大名路666号"},{"poiid":"B2094757D06BA4FC459F","title":"美年体检","lon":"121.49821","lat":"31.250433","category":"162","category_name":"医院","address":"虹口区东长治路505号"},{"poiid":"B2094655D26BA2F9479E","title":"唐山路新建路","lon":"121.49753","lat":"31.25193","category":"38","category_name":"公交车站","address":""},{"poiid":"B2094655D26BABFF4098","title":"名江七星城","lon":"121.49435","lat":"31.251509","category":"47","category_name":"住宅区","address":"上海市虹口区东汉阳路309弄"},{"poiid":"B2094757D068A2F84593","title":"白金府邸","lon":"121.49451","lat":"31.250563","category":"252","category_name":"楼宇机构","address":"虹口区旅顺路199弄"},{"poiid":"B2094654DA6FA6FE429B","title":"恒升半岛国际中心","lon":"121.49564983911","lat":"31.252855823114","category":"46","category_name":"楼宇","address":"上海市虹口区吴淞路205号"},{"poiid":"B2094655D268A7FF449E","title":"上海北外滩白玉兰广场","lon":"121.49682","lat":"31.24851","category":"119","category_name":"商场","address":""},{"poiid":"B2094757D16CA7FE429E","title":"崇明私房菜","lon":"121.494195403","lat":"31.2537960749","category":"76","category_name":"上海菜","address":"虹口区周家嘴路328号(近新建路)"},{"poiid":"B2094655D36CA6FB4992","title":"东大名路旅顺路","lon":"121.49738","lat":"31.24778","category":"38","category_name":"公交车站","address":""},{"poiid":"B2094654D56DABFD499D","title":"上海海员医院体检中心","lon":"121.49774","lat":"31.25025","category":"162","category_name":"医院","address":"提篮桥"},{"poiid":"B2094757D06AA7FA409D","title":"东长治路","lon":"121.5008371","lat":"31.250816012","category":"500","category_name":"未知分类","address":"上海东长治路"},{"poiid":"B2094654D56DA4F5459B","title":"上海海员医院门急诊部","lon":"121.49723","lat":"31.25099","category":"162","category_name":"医院","address":"商邱路250"},{"poiid":"B2094654D56DA4F5429B","title":"京世造型·美容(东汉阳路)","lon":"121.49536","lat":"31.25139","category":"148","category_name":"美容美发店","address":""},{"poiid":"B2094655D26FA6FC479D","title":"章氏 唐山店","lon":"121.50104949388","lat":"31.253911762853","category":"68","category_name":"快餐厅","address":"虹口区唐山路216号(近高阳路)"},{"poiid":"B2094655D36CA6F4439C","title":"东长治路旅顺路","lon":"121.49693","lat":"31.24975","category":"38","category_name":"公交车站","address":""},{"poiid":"B2094752D069A2FF419A","title":"新白鹿","lon":"121.4996283","lat":"31.2488492","category":"247","category_name":"餐饮美食","address":"南京东路800号东方商厦9楼"},{"poiid":"B2094757D068A3F5479F","title":"和泰玫瑰园","lon":"121.50043","lat":"31.251926","category":"500","category_name":"未知分类","address":"和泰玫瑰园位于虹口东长治路655号"},{"poiid":"B2094654D56DA4F54993","title":"上海市虹口区东余杭路幼儿园","lon":"121.49711","lat":"31.2523","category":"57","category_name":"幼儿园","address":"东汉阳路453"},{"poiid":"B2094654D56DABFD499F","title":"海顺商务楼","lon":"121.49787","lat":"31.25031","category":"46","category_name":"楼宇","address":"东长治路503"},{"poiid":"B2094757D66DA4FF4692","title":"唐山路商丘路烧烤摊","lon":"121.4960231","lat":"31.251600029","category":"68","category_name":"快餐厅","address":"虹口区商丘路"},{"poiid":"B2094757D06BA3F44599","title":"英腾国际健身中心","lon":"121.4947","lat":"31.25091","category":"148","category_name":"美容美发店","address":"虹口区东汉阳路309弄17号名江七星城会所(近宇泰公寓)"},{"poiid":"B2094654D56DABFE409A","title":"光明便利(东长治路)","lon":"121.49758","lat":"31.25022","category":"117","category_name":"便民商店/便利店","address":"虹口区东长治路497号(东长治路商丘路)"},{"poiid":"B209475DDB64ABFA4993","title":"canil狗窝","lon":"121.496696","lat":"31.252607","category":"247","category_name":"餐饮美食","address":"上海市 溧阳路611号1933老场坊1-109室(近海宁路)"},{"poiid":"B2094654DB64A6FB499F","title":"如家快捷酒店(上海北外滩店)","lon":"121.49597","lat":"31.25448","category":"216","category_name":"经济型连锁酒店","address":"上海市虹口区周家嘴路345号(近金田路)"},{"poiid":"B2094757D068AAFC4698","title":"公平路唐山路","lon":"121.5008606","lat":"31.253434067","category":"500","category_name":"未知分类","address":"上海公平路唐山路"},{"poiid":"B209475DD76EA3F4489F","title":"金牌外婆家国金中心店","lon":"121.495743","lat":"31.250378","category":"257","category_name":"中餐厅","address":"浦东新区世纪大道8号上海国金中心内LG2层55号(近陆家嘴东路)"},{"poiid":"B2094654D56DABFE4099","title":"师善里","lon":"121.49681","lat":"31.25028","category":"47","category_name":"住宅区","address":"东长治路449弄1-69号"},{"poiid":"B2094654D56DA4F5469A","title":"宝华住宅小区","lon":"121.49769","lat":"31.251369","category":"47","category_name":"住宅区","address":"唐山路62弄"},{"poiid":"B2094655D26FA0F54498","title":"师善里(南门)","lon":"121.4971","lat":"31.25001","category":"47","category_name":"住宅区","address":"东长治路449弄1-69号"},{"poiid":"B2094655D26FA0F54392","title":"宝华住宅小区(北门)","lon":"121.49754","lat":"31.25169","category":"47","category_name":"住宅区","address":"唐山路62"},{"poiid":"B2094750DA64A2F4489C","title":"陆家嘴金融区","lon":"121.4972","lat":"31.253206","category":"500","category_name":"未知分类","address":null},{"poiid":"B2094752D264AAFA4999","title":"美特斯邦威总部","lon":"121.496576","lat":"31.250919","category":"500","category_name":"未知分类","address":"上海东大名路588号"},{"poiid":"B2094750D26AA2F5429E","title":"蓝村路地铁站","lon":"121.495605","lat":"31.252359","category":"36","category_name":"地铁站","address":null},{"poiid":"B209475CDA68A2FE419E","title":"五角场万达广场","lon":"121.496681","lat":"31.251993","category":"500","category_name":"未知分类","address":"上海市 翔殷路"},{"poiid":"B2094654D56DA4F5429E","title":"快客No.6606","lon":"121.49588","lat":"31.25155","category":"117","category_name":"便民商店/便利店","address":"东汉阳路343"},{"poiid":"B2094757D568A7FD4699","title":"7天上海北外滩店","lon":"121.49877035","lat":"31.2525982","category":"216","category_name":"经济型连锁酒店","address":"唐山路145号(新建路隧道口)"},{"poiid":"B2094752D165A2FB4299","title":"新华保险大厦","lon":"121.494843","lat":"31.250205","category":"252","category_name":"楼宇机构","address":"东大名路558号"},{"poiid":"B2094654D56DA4F54893","title":"建唐大楼","lon":"121.49776","lat":"31.25226","category":"47","category_name":"住宅区","address":"东汉阳路490"},{"poiid":"B2094655D26CA4FB4499","title":"上海滩国际大厦","lon":"121.499","lat":"31.2502","category":"46","category_name":"楼宇","address":"丰台学城海鹰路1号,3号"},{"poiid":"B2094757D06FA7FE419F","title":"上海国际港务大厦","lon":"121.49573516","lat":"31.246837616","category":"46","category_name":"楼宇","address":"上海东大名路358号"},{"poiid":"B2094757D068A3F5469E","title":"海员医院(东长治路分院)","lon":"121.498129972","lat":"31.250511409","category":"162","category_name":"医院","address":"上海虹口区东长治路505号"},{"poiid":"B209475CD564A7F84392","title":"上海滩浦东香格里拉店","lon":"121.50058","lat":"31.23634","category":"119","category_name":"商场","address":"浦东富成路33号香格里拉酒店内大堂层"},{"poiid":"B2094654DA6FA7F8429F","title":"远洋海星旋转餐厅","lon":"121.49625","lat":"31.24696","category":"257","category_name":"中餐厅","address":"虹口区东大名路378号远洋大厦28楼(近旅顺路)"},{"poiid":"B2094757D06FA4FE4999","title":"海湾大厦","lon":"121.498","lat":"31.2499","category":"46","category_name":"楼宇","address":"虹口区黄浦路53号(近外白渡桥)"},{"poiid":"B2094757D06FA3F44092","title":"新建路隧道","lon":"121.49868207","lat":"31.25213545","category":"260","category_name":"其他","address":"上海虹口区新建路-浦东新区陆家嘴环路"},{"poiid":"B2094757D06AA1FC489E","title":"上海港","lon":"121.497051","lat":"31.247305","category":"500","category_name":"未知分类","address":"上海东大名路500号"},{"poiid":"B2094757D068A1FE499B","title":"浦江名邸","lon":"121.49659","lat":"31.255047","category":"47","category_name":"住宅区","address":"广西北路246号百米香榭商业街南区260"},{"poiid":"B2094757DB6CA4FB4993","title":"外滩公馆","lon":"121.494","lat":"31.25196","category":"76","category_name":"上海菜","address":"虹口区东余杭路275弄3号(近梧州路)"},{"poiid":"B2094654D56DABFE499C","title":"宝矿国际大厦","lon":"121.497534","lat":"31.254199","category":"46","category_name":"楼宇","address":"上海市虹口区吴淞路218号"},{"poiid":"B2094654DB6BA3F8449D","title":"定豪沈家门海鲜酒楼","lon":"121.49484","lat":"31.24854","category":"75","category_name":"浙江菜","address":"虹口区东长治路310号(近溧阳路)"},{"poiid":"B2094757D064A3F8429D","title":"上海建工集团总公司","lon":"121.501623103","lat":"31.2491349775","category":"263","category_name":"公司","address":"上海市虹口区东大名路666号"},{"poiid":"B2094757D06BA4FC459F","title":"美年体检","lon":"121.49821","lat":"31.250433","category":"162","category_name":"医院","address":"虹口区东长治路505号"},{"poiid":"B2094655D26BA2F9479E","title":"唐山路新建路","lon":"121.49753","lat":"31.25193","category":"38","category_name":"公交车站","address":""},{"poiid":"B2094655D26BABFF4098","title":"名江七星城","lon":"121.49435","lat":"31.251509","category":"47","category_name":"住宅区","address":"上海市虹口区东汉阳路309弄"},{"poiid":"B2094757D068A2F84593","title":"白金府邸","lon":"121.49451","lat":"31.250563","category":"252","category_name":"楼宇机构","address":"虹口区旅顺路199弄"},{"poiid":"B2094654DA6FA6FE429B","title":"恒升半岛国际中心","lon":"121.49564983911","lat":"31.252855823114","category":"46","category_name":"楼宇","address":"上海市虹口区吴淞路205号"},{"poiid":"B2094655D268A7FF449E","title":"上海北外滩白玉兰广场","lon":"121.49682","lat":"31.24851","category":"119","category_name":"商场","address":""},{"poiid":"B2094757D16CA7FE429E","title":"崇明私房菜","lon":"121.494195403","lat":"31.2537960749","category":"76","category_name":"上海菜","address":"虹口区周家嘴路328号(近新建路)"},{"poiid":"B2094655D36CA6FB4992","title":"东大名路旅顺路","lon":"121.49738","lat":"31.24778","category":"38","category_name":"公交车站","address":""},{"poiid":"B2094654D56DABFD499D","title":"上海海员医院体检中心","lon":"121.49774","lat":"31.25025","category":"162","category_name":"医院","address":"提篮桥"},{"poiid":"B2094757D06AA7FA409D","title":"东长治路","lon":"121.5008371","lat":"31.250816012","category":"500","category_name":"未知分类","address":"上海东长治路"},{"poiid":"B2094654D56DA4F5459B","title":"上海海员医院门急诊部","lon":"121.49723","lat":"31.25099","category":"162","category_name":"医院","address":"商邱路250"},{"poiid":"B2094654D56DA4F5429B","title":"京世造型·美容(东汉阳路)","lon":"121.49536","lat":"31.25139","category":"148","category_name":"美容美发店","address":""},{"poiid":"B2094655D26FA6FC479D","title":"章氏 唐山店","lon":"121.50104949388","lat":"31.253911762853","category":"68","category_name":"快餐厅","address":"虹口区唐山路216号(近高阳路)"},{"poiid":"B2094655D36CA6F4439C","title":"东长治路旅顺路","lon":"121.49693","lat":"31.24975","category":"38","category_name":"公交车站","address":""},{"poiid":"B2094752D069A2FF419A","title":"新白鹿","lon":"121.4996283","lat":"31.2488492","category":"247","category_name":"餐饮美食","address":"南京东路800号东方商厦9楼"},{"poiid":"B2094757D068A3F5479F","title":"和泰玫瑰园","lon":"121.50043","lat":"31.251926","category":"500","category_name":"未知分类","address":"和泰玫瑰园位于虹口东长治路655号"},{"poiid":"B2094654D56DA4F54993","title":"上海市虹口区东余杭路幼儿园","lon":"121.49711","lat":"31.2523","category":"57","category_name":"幼儿园","address":"东汉阳路453"},{"poiid":"B2094654D56DABFD499F","title":"海顺商务楼","lon":"121.49787","lat":"31.25031","category":"46","category_name":"楼宇","address":"东长治路503"},{"poiid":"B2094757D66DA4FF4692","title":"唐山路商丘路烧烤摊","lon":"121.4960231","lat":"31.251600029","category":"68","category_name":"快餐厅","address":"虹口区商丘路"},{"poiid":"B2094757D06BA3F44599","title":"英腾国际健身中心","lon":"121.4947","lat":"31.25091","category":"148","category_name":"美容美发店","address":"虹口区东汉阳路309弄17号名江七星城会所(近宇泰公寓)"},{"poiid":"B2094654D56DABFE409A","title":"光明便利(东长治路)","lon":"121.49758","lat":"31.25022","category":"117","category_name":"便民商店/便利店","address":"虹口区东长治路497号(东长治路商丘路)"},{"poiid":"B209475DDB64ABFA4993","title":"canil狗窝","lon":"121.496696","lat":"31.252607","category":"247","category_name":"餐饮美食","address":"上海市 溧阳路611号1933老场坊1-109室(近海宁路)"},{"poiid":"B2094654DB64A6FB499F","title":"如家快捷酒店(上海北外滩店)","lon":"121.49597","lat":"31.25448","category":"216","category_name":"经济型连锁酒店","address":"上海市虹口区周家嘴路345号(近金田路)"},{"poiid":"B2094757D068AAFC4698","title":"公平路唐山路","lon":"121.5008606","lat":"31.253434067","category":"500","category_name":"未知分类","address":"上海公平路唐山路"},{"poiid":"B209475DD76EA3F4489F","title":"金牌外婆家国金中心店","lon":"121.495743","lat":"31.250378","category":"257","category_name":"中餐厅","address":"浦东新区世纪大道8号上海国金中心内LG2层55号(近陆家嘴东路)"},{"poiid":"B2094654D56DABFE4099","title":"师善里","lon":"121.49681","lat":"31.25028","category":"47","category_name":"住宅区","address":"东长治路449弄1-69号"},{"poiid":"B2094654D56DA4F5469A","title":"宝华住宅小区","lon":"121.49769","lat":"31.251369","category":"47","category_name":"住宅区","address":"唐山路62弄"},{"poiid":"B2094655D26FA0F54498","title":"师善里(南门)","lon":"121.4971","lat":"31.25001","category":"47","category_name":"住宅区","address":"东长治路449弄1-69号"},{"poiid":"B2094655D26FA0F54392","title":"宝华住宅小区(北门)","lon":"121.49754","lat":"31.25169","category":"47","category_name":"住宅区","address":"唐山路62"},{"poiid":"B2094750DA64A2F4489C","title":"陆家嘴金融区","lon":"121.4972","lat":"31.253206","category":"500","category_name":"未知分类","address":null},{"poiid":"B2094752D264AAFA4999","title":"美特斯邦威总部","lon":"121.496576","lat":"31.250919","category":"500","category_name":"未知分类","address":"上海东大名路588号"},{"poiid":"B2094750D26AA2F5429E","title":"蓝村路地铁站","lon":"121.495605","lat":"31.252359","category":"36","category_name":"地铁站","address":null},{"poiid":"B209475CDA68A2FE419E","title":"五角场万达广场","lon":"121.496681","lat":"31.251993","category":"500","category_name":"未知分类","address":"上海市 翔殷路"},{"poiid":"B2094654D56DA4F5429E","title":"快客No.6606","lon":"121.49588","lat":"31.25155","category":"117","category_name":"便民商店/便利店","address":"东汉阳路343"},{"poiid":"B2094757D568A7FD4699","title":"7天上海北外滩店","lon":"121.49877035","lat":"31.2525982","category":"216","category_name":"经济型连锁酒店","address":"唐山路145号(新建路隧道口)"},{"poiid":"B2094752D165A2FB4299","title":"新华保险大厦","lon":"121.494843","lat":"31.250205","category":"252","category_name":"楼宇机构","address":"东大名路558号"},{"poiid":"B2094654D56DA4F54893","title":"建唐大楼","lon":"121.49776","lat":"31.25226","category":"47","category_name":"住宅区","address":"东汉阳路490"}]