[{"poiid":"B2094654DB65A1F54199","title":"南翔馒头店 豫园店","lon":"121.491505","lat":"31.226656","category":"68","category_name":"快餐厅","address":"黄浦区豫园路85号"},{"poiid":"B2094654DA6EA4FD459E","title":"上海城隍庙","lon":"121.476706","lat":"31.227173","category":"244","category_name":"寺庙道观","address":"上海市黄浦区方浜中路249号"},{"poiid":"B2094757D06FA1FF4799","title":"豫园","lon":"121.49209476305077","lat":"31.227224682757594","category":"240","category_name":"国家级景点","address":"上海市黄浦区安仁街218号"},{"poiid":"B2094753D76FAAFA449C","title":"上海滩国泰旗舰店","lon":"121.466011","lat":"31.216125","category":"249","category_name":"购物服务","address":"淮海中路868号"},{"poiid":"B209475CD564A7F84292","title":"上海滩新天地店","lon":"121.47463","lat":"31.22164","category":"119","category_name":"商场","address":"\"太仓路181弄新天地北里15号\r\n\""},{"poiid":"B209475CD564A7F84392","title":"上海滩浦东香格里拉店","lon":"121.50058","lat":"31.23634","category":"119","category_name":"商场","address":"浦东富成路33号香格里拉酒店内大堂层"},{"poiid":"B2094757D06FA3F5499B","title":"绿波廊(豫园路店)","lon":"121.49221","lat":"31.22628","category":"76","category_name":"上海菜","address":"黄浦区老城隍庙内豫园路115号(近九曲桥)"},{"poiid":"B2094757D468A6FE4392","title":"星巴克 豫园店 Starbucks Cafe","lon":"121.49193120286","lat":"31.226836909199","category":"65","category_name":"咖啡厅","address":"豫园路100号近福佑路"},{"poiid":"B2094757D06FA1FE439B","title":"老城隍庙小吃广场","lon":"121.49257","lat":"31.22648","category":"68","category_name":"快餐厅","address":"黄浦区福佑路238号豫园内"},{"poiid":"B2094757D06FA3F9419A","title":"上海会馆","lon":"121.492239138","lat":"31.2239696667","category":"76","category_name":"上海菜","address":"黄浦区河南南路489号香港名都5楼(近复兴东路)"},{"poiid":"B2094757D06FA6F5469A","title":"鼎泰丰(豫园店)","lon":"121.492692816","lat":"31.2247337512","category":"68","category_name":"快餐厅","address":"黄浦区方浜中路168号豫城时尚内(近三牌楼路)"},{"poiid":"B2094654DB6BA4F9449B","title":"豫园老街","lon":"121.49114","lat":"31.22713","category":"116","category_name":"特色商业街","address":"黄浦区福佑路238号豫园内(近河南南路)"},{"poiid":"B2094757D06FA1FD4093","title":"健康煮(豫城店)","lon":"121.49303673","lat":"31.224846185","category":"86","category_name":"火锅店","address":"黄浦区方浜中路168号豫城时尚3楼(近三牌楼路)"},{"poiid":"B2094757D06FA3FC419B","title":"小林煎饼 豫园店","lon":"121.490016054","lat":"31.227538793","category":"67","category_name":"甜品店","address":"黄浦区豫春路9号豫园商城内B室(近老庙黄金广场)"},{"poiid":"B2094654DB64AAF44592","title":"哈根达斯豫园店","lon":"121.49119","lat":"31.2269","category":"113","category_name":"冷饮店","address":"黄浦区方浜中路168号豫龙坊1楼L122A号商铺(近昼锦路)"},{"poiid":"B2094757D06FA1FF4693","title":"避风塘(豫园店)","lon":"121.492699","lat":"31.22484","category":"72","category_name":"广东菜","address":"黄浦区方浜中路168号豫城时尚3楼L3-01-02号商铺(近三牌楼路)"},{"poiid":"B2094757D06FA0F5449B","title":"必胜客(丽水店)","lon":"121.490532","lat":"31.228192","category":"94","category_name":"西餐厅","address":"黄浦区丽水路69号(近福佑路)"},{"poiid":"B2094757D06FABFD409A","title":"上海老街","lon":"121.49305","lat":"31.22534","category":"249","category_name":"购物服务","address":"黄浦区方浜中路"},{"poiid":"B2094757D06FA3FC439D","title":"城隍庙九曲桥","lon":"121.49238","lat":"31.22698","category":"260","category_name":"其他","address":"黄浦区福佑路238号豫园内"},{"poiid":"B2094654DA6EA5F54399","title":"小世界会所","lon":"121.4914","lat":"31.22774","category":"76","category_name":"上海菜","address":"黄浦区福佑路234号豫园3-4楼"},{"poiid":"B2094654DA6EA5F54699","title":"豫园商城","lon":"121.49107","lat":"31.22773","category":"119","category_name":"商场","address":"黄浦区方浜中路269号(近城隍庙豫龙坊)"},{"poiid":"B2094757D06FA3FF419C","title":"星巴克 STARBUCKS (豫园二店)","lon":"121.49199","lat":"31.22696","category":"260","category_name":"其他","address":"黄浦区福佑路238号豫园内"},{"poiid":"B2094757D06FA0F5499C","title":"DQ冰雪皇后(豫园店)","lon":"121.4921","lat":"31.22631","category":"113","category_name":"冷饮店","address":"黄浦区豫园路112号(安仁街梧桐路)"},{"poiid":"B2094757D06FA1F54199","title":"豫城时尚","lon":"121.4927","lat":"31.22486","category":"119","category_name":"商场","address":"黄浦区方浜中路168号豫龙坊内(近昼锦路)"},{"poiid":"B2094757D06FA4FC409A","title":"德克士(城隍庙店)","lon":"121.49132","lat":"31.22559","category":"68","category_name":"快餐厅","address":"黄浦区旧校场路125号121室(百翎路口)"},{"poiid":"B2094654DB65A1F5419F","title":"湖心亭","lon":"121.49141945573","lat":"31.227068113629","category":"260","category_name":"其他","address":"黄浦区豫园路257号(近九曲桥荷花池)"},{"poiid":"B2094655D36DA6FF489C","title":"豫-上海","lon":"121.4909","lat":"31.22678","category":"72","category_name":"广东菜","address":"黄浦区旧校场路69号悦宾楼3楼(近沉香阁路)"},{"poiid":"B2094750DA6AA7FC489A","title":"COSTA COFFEE(豫城时尚店)","lon":"121.492561","lat":"31.225528","category":"65","category_name":"咖啡厅","address":"黄浦区昼锦路63号一层"},{"poiid":"B2094757D068A2FA4192","title":"肯德基 KFC (豫园店)","lon":"121.491322","lat":"31.227603","category":"68","category_name":"快餐厅","address":"黄浦区福佑路234号豫园商城内(近旧校场路)"},{"poiid":"B2094757D068ABF4459F","title":"耕月人茶馆","lon":"121.4933","lat":"31.22533","category":"260","category_name":"其他","address":"上海黄浦区方浜中路235号豫安阁4楼(近安仁街)"},{"poiid":"B2094757D068A7F8429A","title":"老凤祥银楼(福佑路店)","lon":"121.49116","lat":"31.22737","category":"500","category_name":"未知分类","address":"黄浦区福佑路239号1-3楼(近旧校场路)查看地图"},{"poiid":"B2094757D06FA1FA449D","title":"城隍庙小商品市场","lon":"121.49124873","lat":"31.226930229","category":"249","category_name":"购物服务","address":"上海福佑路"},{"poiid":"B2094757D764A5F94099","title":"拿渡麻辣香锅 方浜中路店","lon":"121.492599","lat":"31.225421","category":"86","category_name":"火锅店","address":"黄浦区方浜中路168号豫城时尚3楼(近三牌楼路)"},{"poiid":"B2094750D76EA0FF439D","title":"争鲜回转寿司(城隍庙店)","lon":"121.491","lat":"31.2262","category":"95","category_name":"日本料理","address":"黄浦区凝晖路39号(近豫园)"},{"poiid":"B2094757D068A6FD449F","title":"味千拉面(豫龙坊店)","lon":"121.49305373","lat":"31.224894186","category":"95","category_name":"日本料理","address":"黄浦区方浜中路168号豫城时尚B1-17B室(近三牌楼路)"},{"poiid":"B2094654DA6EA5F5459A","title":"宁波汤团店","lon":"121.49182","lat":"31.22629","category":"68","category_name":"快餐厅","address":"黄浦区福佑路238号豫园内"},{"poiid":"B2094757D16CA6F9459E","title":"徐家私房菜(城隍庙店)","lon":"121.49298238","lat":"31.22507574","category":"74","category_name":"江苏菜","address":"黄浦区方浜中路168号豫城时尚3楼(近三牌楼路)"},{"poiid":"B2094654DA6EA4FE4593","title":"麦当劳(旧校场路)","lon":"121.49118","lat":"31.22537","category":"68","category_name":"快餐厅","address":"黄浦区旧校场路155号(近方浜中路)"},{"poiid":"B2094750D36EAAF44699","title":"上海话剧艺术中心","lon":"121.491188","lat":"31.2268","category":"248","category_name":"生活娱乐","address":"安福路288号"},{"poiid":"B2094757D068A0FE4493","title":"豫园时尚街","lon":"121.4915","lat":"31.22508","category":"249","category_name":"购物服务","address":"黄浦区文昌路10号城隍庙内(近方浜中路)"},{"poiid":"B2094654DA6EA4FD459D","title":"星巴克咖啡(中国工商银行豫园支行东南)","lon":"121.49185","lat":"31.22595","category":"65","category_name":"咖啡厅","address":"豫园"},{"poiid":"B2094750D568A2FB419E","title":"棒约翰比萨(方浜中路店)","lon":"121.492","lat":"31.2252","category":"94","category_name":"西餐厅","address":"黄浦区方浜中路280号金豫名品折扣中心(方浜中路旧校场路)"},{"poiid":"B2094757D06AA7FE419C","title":"风波庄(豫园店)","lon":"121.49303223","lat":"31.226140712","category":"260","category_name":"其他","address":"黄浦区光启路23号(近方浜中路)"},{"poiid":"B2094750D568A3FF499A","title":"老邻居小吃世界","lon":"121.491","lat":"31.2268","category":"68","category_name":"快餐厅","address":"黄浦区凝晖路31号(近老庙黄金)"},{"poiid":"B2094757D16BA7FE4493","title":"老邻居小吃","lon":"121.491183738","lat":"31.2266952248","category":"247","category_name":"餐饮美食","address":"上海城隍庙"},{"poiid":"B2094757D16AA1F94593","title":"云南桥香园过桥米线","lon":"121.49283373","lat":"31.225214193","category":"247","category_name":"餐饮美食","address":"上海市黄浦区吴家弄"},{"poiid":"B2094655D26AA1FF479E","title":"真功夫 方浜中路店","lon":"121.493371054","lat":"31.225660793","category":"68","category_name":"快餐厅","address":"黄浦区方浜中路235号豫安阁大厦2楼A区(近城隍庙豫龙坊)"},{"poiid":"B2094757D46AA6FF4092","title":"杰酷 豫园店 JCO DONUTS & COFFEE","lon":"121.49279","lat":"31.22496","category":"67","category_name":"甜品店","address":"黄浦区方浜中路168号豫城时尚1楼(近三牌楼路)"},{"poiid":"B2094757D068A1FF499E","title":"ZARA(城隍庙店)","lon":"121.492955627","lat":"31.224807915","category":"141","category_name":"服装鞋帽皮具店","address":"黄浦区方浜中路168号豫龙坊1-2楼(近昼锦路)"},{"poiid":"B2094757D06FABFB449F","title":"H&amp;M(豫城时尚店)","lon":"121.492246228","lat":"31.225528503","category":"141","category_name":"服装鞋帽皮具店","address":"上海黄浦区方浜中路168号豫城时尚内"},{"poiid":"B2094654DB65A1F54199","title":"南翔馒头店 豫园店","lon":"121.491505","lat":"31.226656","category":"68","category_name":"快餐厅","address":"黄浦区豫园路85号"},{"poiid":"B2094654DA6EA4FD459E","title":"上海城隍庙","lon":"121.476706","lat":"31.227173","category":"244","category_name":"寺庙道观","address":"上海市黄浦区方浜中路249号"},{"poiid":"B2094757D06FA1FF4799","title":"豫园","lon":"121.49209476305077","lat":"31.227224682757594","category":"240","category_name":"国家级景点","address":"上海市黄浦区安仁街218号"},{"poiid":"B2094753D76FAAFA449C","title":"上海滩国泰旗舰店","lon":"121.466011","lat":"31.216125","category":"249","category_name":"购物服务","address":"淮海中路868号"},{"poiid":"B209475CD564A7F84292","title":"上海滩新天地店","lon":"121.47463","lat":"31.22164","category":"119","category_name":"商场","address":"\"太仓路181弄新天地北里15号\r\n\""},{"poiid":"B209475CD564A7F84392","title":"上海滩浦东香格里拉店","lon":"121.50058","lat":"31.23634","category":"119","category_name":"商场","address":"浦东富成路33号香格里拉酒店内大堂层"},{"poiid":"B2094757D06FA3F5499B","title":"绿波廊(豫园路店)","lon":"121.49221","lat":"31.22628","category":"76","category_name":"上海菜","address":"黄浦区老城隍庙内豫园路115号(近九曲桥)"},{"poiid":"B2094757D468A6FE4392","title":"星巴克 豫园店 Starbucks Cafe","lon":"121.49193120286","lat":"31.226836909199","category":"65","category_name":"咖啡厅","address":"豫园路100号近福佑路"},{"poiid":"B2094757D06FA1FE439B","title":"老城隍庙小吃广场","lon":"121.49257","lat":"31.22648","category":"68","category_name":"快餐厅","address":"黄浦区福佑路238号豫园内"},{"poiid":"B2094757D06FA3F9419A","title":"上海会馆","lon":"121.492239138","lat":"31.2239696667","category":"76","category_name":"上海菜","address":"黄浦区河南南路489号香港名都5楼(近复兴东路)"},{"poiid":"B2094757D06FA6F5469A","title":"鼎泰丰(豫园店)","lon":"121.492692816","lat":"31.2247337512","category":"68","category_name":"快餐厅","address":"黄浦区方浜中路168号豫城时尚内(近三牌楼路)"},{"poiid":"B2094654DB6BA4F9449B","title":"豫园老街","lon":"121.49114","lat":"31.22713","category":"116","category_name":"特色商业街","address":"黄浦区福佑路238号豫园内(近河南南路)"},{"poiid":"B2094757D06FA1FD4093","title":"健康煮(豫城店)","lon":"121.49303673","lat":"31.224846185","category":"86","category_name":"火锅店","address":"黄浦区方浜中路168号豫城时尚3楼(近三牌楼路)"},{"poiid":"B2094757D06FA3FC419B","title":"小林煎饼 豫园店","lon":"121.490016054","lat":"31.227538793","category":"67","category_name":"甜品店","address":"黄浦区豫春路9号豫园商城内B室(近老庙黄金广场)"},{"poiid":"B2094654DB64AAF44592","title":"哈根达斯豫园店","lon":"121.49119","lat":"31.2269","category":"113","category_name":"冷饮店","address":"黄浦区方浜中路168号豫龙坊1楼L122A号商铺(近昼锦路)"},{"poiid":"B2094757D06FA1FF4693","title":"避风塘(豫园店)","lon":"121.492699","lat":"31.22484","category":"72","category_name":"广东菜","address":"黄浦区方浜中路168号豫城时尚3楼L3-01-02号商铺(近三牌楼路)"},{"poiid":"B2094757D06FA0F5449B","title":"必胜客(丽水店)","lon":"121.490532","lat":"31.228192","category":"94","category_name":"西餐厅","address":"黄浦区丽水路69号(近福佑路)"},{"poiid":"B2094757D06FABFD409A","title":"上海老街","lon":"121.49305","lat":"31.22534","category":"249","category_name":"购物服务","address":"黄浦区方浜中路"},{"poiid":"B2094757D06FA3FC439D","title":"城隍庙九曲桥","lon":"121.49238","lat":"31.22698","category":"260","category_name":"其他","address":"黄浦区福佑路238号豫园内"},{"poiid":"B2094654DA6EA5F54399","title":"小世界会所","lon":"121.4914","lat":"31.22774","category":"76","category_name":"上海菜","address":"黄浦区福佑路234号豫园3-4楼"},{"poiid":"B2094654DA6EA5F54699","title":"豫园商城","lon":"121.49107","lat":"31.22773","category":"119","category_name":"商场","address":"黄浦区方浜中路269号(近城隍庙豫龙坊)"},{"poiid":"B2094757D06FA3FF419C","title":"星巴克 STARBUCKS (豫园二店)","lon":"121.49199","lat":"31.22696","category":"260","category_name":"其他","address":"黄浦区福佑路238号豫园内"},{"poiid":"B2094757D06FA0F5499C","title":"DQ冰雪皇后(豫园店)","lon":"121.4921","lat":"31.22631","category":"113","category_name":"冷饮店","address":"黄浦区豫园路112号(安仁街梧桐路)"},{"poiid":"B2094757D06FA1F54199","title":"豫城时尚","lon":"121.4927","lat":"31.22486","category":"119","category_name":"商场","address":"黄浦区方浜中路168号豫龙坊内(近昼锦路)"},{"poiid":"B2094757D06FA4FC409A","title":"德克士(城隍庙店)","lon":"121.49132","lat":"31.22559","category":"68","category_name":"快餐厅","address":"黄浦区旧校场路125号121室(百翎路口)"},{"poiid":"B2094654DB65A1F5419F","title":"湖心亭","lon":"121.49141945573","lat":"31.227068113629","category":"260","category_name":"其他","address":"黄浦区豫园路257号(近九曲桥荷花池)"},{"poiid":"B2094655D36DA6FF489C","title":"豫-上海","lon":"121.4909","lat":"31.22678","category":"72","category_name":"广东菜","address":"黄浦区旧校场路69号悦宾楼3楼(近沉香阁路)"},{"poiid":"B2094750DA6AA7FC489A","title":"COSTA COFFEE(豫城时尚店)","lon":"121.492561","lat":"31.225528","category":"65","category_name":"咖啡厅","address":"黄浦区昼锦路63号一层"},{"poiid":"B2094757D068A2FA4192","title":"肯德基 KFC (豫园店)","lon":"121.491322","lat":"31.227603","category":"68","category_name":"快餐厅","address":"黄浦区福佑路234号豫园商城内(近旧校场路)"},{"poiid":"B2094757D068ABF4459F","title":"耕月人茶馆","lon":"121.4933","lat":"31.22533","category":"260","category_name":"其他","address":"上海黄浦区方浜中路235号豫安阁4楼(近安仁街)"},{"poiid":"B2094757D068A7F8429A","title":"老凤祥银楼(福佑路店)","lon":"121.49116","lat":"31.22737","category":"500","category_name":"未知分类","address":"黄浦区福佑路239号1-3楼(近旧校场路)查看地图"},{"poiid":"B2094757D06FA1FA449D","title":"城隍庙小商品市场","lon":"121.49124873","lat":"31.226930229","category":"249","category_name":"购物服务","address":"上海福佑路"},{"poiid":"B2094757D764A5F94099","title":"拿渡麻辣香锅 方浜中路店","lon":"121.492599","lat":"31.225421","category":"86","category_name":"火锅店","address":"黄浦区方浜中路168号豫城时尚3楼(近三牌楼路)"},{"poiid":"B2094750D76EA0FF439D","title":"争鲜回转寿司(城隍庙店)","lon":"121.491","lat":"31.2262","category":"95","category_name":"日本料理","address":"黄浦区凝晖路39号(近豫园)"},{"poiid":"B2094757D068A6FD449F","title":"味千拉面(豫龙坊店)","lon":"121.49305373","lat":"31.224894186","category":"95","category_name":"日本料理","address":"黄浦区方浜中路168号豫城时尚B1-17B室(近三牌楼路)"},{"poiid":"B2094654DA6EA5F5459A","title":"宁波汤团店","lon":"121.49182","lat":"31.22629","category":"68","category_name":"快餐厅","address":"黄浦区福佑路238号豫园内"},{"poiid":"B2094757D16CA6F9459E","title":"徐家私房菜(城隍庙店)","lon":"121.49298238","lat":"31.22507574","category":"74","category_name":"江苏菜","address":"黄浦区方浜中路168号豫城时尚3楼(近三牌楼路)"},{"poiid":"B2094654DA6EA4FE4593","title":"麦当劳(旧校场路)","lon":"121.49118","lat":"31.22537","category":"68","category_name":"快餐厅","address":"黄浦区旧校场路155号(近方浜中路)"},{"poiid":"B2094750D36EAAF44699","title":"上海话剧艺术中心","lon":"121.491188","lat":"31.2268","category":"248","category_name":"生活娱乐","address":"安福路288号"},{"poiid":"B2094757D068A0FE4493","title":"豫园时尚街","lon":"121.4915","lat":"31.22508","category":"249","category_name":"购物服务","address":"黄浦区文昌路10号城隍庙内(近方浜中路)"},{"poiid":"B2094654DA6EA4FD459D","title":"星巴克咖啡(中国工商银行豫园支行东南)","lon":"121.49185","lat":"31.22595","category":"65","category_name":"咖啡厅","address":"豫园"},{"poiid":"B2094750D568A2FB419E","title":"棒约翰比萨(方浜中路店)","lon":"121.492","lat":"31.2252","category":"94","category_name":"西餐厅","address":"黄浦区方浜中路280号金豫名品折扣中心(方浜中路旧校场路)"},{"poiid":"B2094757D06AA7FE419C","title":"风波庄(豫园店)","lon":"121.49303223","lat":"31.226140712","category":"260","category_name":"其他","address":"黄浦区光启路23号(近方浜中路)"},{"poiid":"B2094750D568A3FF499A","title":"老邻居小吃世界","lon":"121.491","lat":"31.2268","category":"68","category_name":"快餐厅","address":"黄浦区凝晖路31号(近老庙黄金)"},{"poiid":"B2094757D16BA7FE4493","title":"老邻居小吃","lon":"121.491183738","lat":"31.2266952248","category":"247","category_name":"餐饮美食","address":"上海城隍庙"},{"poiid":"B2094757D16AA1F94593","title":"云南桥香园过桥米线","lon":"121.49283373","lat":"31.225214193","category":"247","category_name":"餐饮美食","address":"上海市黄浦区吴家弄"},{"poiid":"B2094655D26AA1FF479E","title":"真功夫 方浜中路店","lon":"121.493371054","lat":"31.225660793","category":"68","category_name":"快餐厅","address":"黄浦区方浜中路235号豫安阁大厦2楼A区(近城隍庙豫龙坊)"},{"poiid":"B2094757D46AA6FF4092","title":"杰酷 豫园店 JCO DONUTS & COFFEE","lon":"121.49279","lat":"31.22496","category":"67","category_name":"甜品店","address":"黄浦区方浜中路168号豫城时尚1楼(近三牌楼路)"},{"poiid":"B2094757D068A1FF499E","title":"ZARA(城隍庙店)","lon":"121.492955627","lat":"31.224807915","category":"141","category_name":"服装鞋帽皮具店","address":"黄浦区方浜中路168号豫龙坊1-2楼(近昼锦路)"},{"poiid":"B2094757D06FABFB449F","title":"H&amp;M(豫城时尚店)","lon":"121.492246228","lat":"31.225528503","category":"141","category_name":"服装鞋帽皮具店","address":"上海黄浦区方浜中路168号豫城时尚内"},{"poiid":"B2094654DB65A1F54199","title":"南翔馒头店 豫园店","lon":"121.491505","lat":"31.226656","category":"68","category_name":"快餐厅","address":"黄浦区豫园路85号"},{"poiid":"B2094654DA6EA4FD459E","title":"上海城隍庙","lon":"121.476706","lat":"31.227173","category":"244","category_name":"寺庙道观","address":"上海市黄浦区方浜中路249号"},{"poiid":"B2094757D06FA1FF4799","title":"豫园","lon":"121.49209476305077","lat":"31.227224682757594","category":"240","category_name":"国家级景点","address":"上海市黄浦区安仁街218号"},{"poiid":"B2094753D76FAAFA449C","title":"上海滩国泰旗舰店","lon":"121.466011","lat":"31.216125","category":"249","category_name":"购物服务","address":"淮海中路868号"},{"poiid":"B209475CD564A7F84292","title":"上海滩新天地店","lon":"121.47463","lat":"31.22164","category":"119","category_name":"商场","address":"\"太仓路181弄新天地北里15号\r\n\""},{"poiid":"B209475CD564A7F84392","title":"上海滩浦东香格里拉店","lon":"121.50058","lat":"31.23634","category":"119","category_name":"商场","address":"浦东富成路33号香格里拉酒店内大堂层"},{"poiid":"B2094757D06FA3F5499B","title":"绿波廊(豫园路店)","lon":"121.49221","lat":"31.22628","category":"76","category_name":"上海菜","address":"黄浦区老城隍庙内豫园路115号(近九曲桥)"},{"poiid":"B2094757D468A6FE4392","title":"星巴克 豫园店 Starbucks Cafe","lon":"121.49193120286","lat":"31.226836909199","category":"65","category_name":"咖啡厅","address":"豫园路100号近福佑路"},{"poiid":"B2094757D06FA1FE439B","title":"老城隍庙小吃广场","lon":"121.49257","lat":"31.22648","category":"68","category_name":"快餐厅","address":"黄浦区福佑路238号豫园内"},{"poiid":"B2094757D06FA3F9419A","title":"上海会馆","lon":"121.492239138","lat":"31.2239696667","category":"76","category_name":"上海菜","address":"黄浦区河南南路489号香港名都5楼(近复兴东路)"},{"poiid":"B2094757D06FA6F5469A","title":"鼎泰丰(豫园店)","lon":"121.492692816","lat":"31.2247337512","category":"68","category_name":"快餐厅","address":"黄浦区方浜中路168号豫城时尚内(近三牌楼路)"},{"poiid":"B2094654DB6BA4F9449B","title":"豫园老街","lon":"121.49114","lat":"31.22713","category":"116","category_name":"特色商业街","address":"黄浦区福佑路238号豫园内(近河南南路)"},{"poiid":"B2094757D06FA1FD4093","title":"健康煮(豫城店)","lon":"121.49303673","lat":"31.224846185","category":"86","category_name":"火锅店","address":"黄浦区方浜中路168号豫城时尚3楼(近三牌楼路)"},{"poiid":"B2094757D06FA3FC419B","title":"小林煎饼 豫园店","lon":"121.490016054","lat":"31.227538793","category":"67","category_name":"甜品店","address":"黄浦区豫春路9号豫园商城内B室(近老庙黄金广场)"},{"poiid":"B2094654DB64AAF44592","title":"哈根达斯豫园店","lon":"121.49119","lat":"31.2269","category":"113","category_name":"冷饮店","address":"黄浦区方浜中路168号豫龙坊1楼L122A号商铺(近昼锦路)"},{"poiid":"B2094757D06FA1FF4693","title":"避风塘(豫园店)","lon":"121.492699","lat":"31.22484","category":"72","category_name":"广东菜","address":"黄浦区方浜中路168号豫城时尚3楼L3-01-02号商铺(近三牌楼路)"},{"poiid":"B2094757D06FA0F5449B","title":"必胜客(丽水店)","lon":"121.490532","lat":"31.228192","category":"94","category_name":"西餐厅","address":"黄浦区丽水路69号(近福佑路)"},{"poiid":"B2094757D06FABFD409A","title":"上海老街","lon":"121.49305","lat":"31.22534","category":"249","category_name":"购物服务","address":"黄浦区方浜中路"},{"poiid":"B2094757D06FA3FC439D","title":"城隍庙九曲桥","lon":"121.49238","lat":"31.22698","category":"260","category_name":"其他","address":"黄浦区福佑路238号豫园内"},{"poiid":"B2094654DA6EA5F54399","title":"小世界会所","lon":"121.4914","lat":"31.22774","category":"76","category_name":"上海菜","address":"黄浦区福佑路234号豫园3-4楼"},{"poiid":"B2094654DA6EA5F54699","title":"豫园商城","lon":"121.49107","lat":"31.22773","category":"119","category_name":"商场","address":"黄浦区方浜中路269号(近城隍庙豫龙坊)"},{"poiid":"B2094757D06FA3FF419C","title":"星巴克 STARBUCKS (豫园二店)","lon":"121.49199","lat":"31.22696","category":"260","category_name":"其他","address":"黄浦区福佑路238号豫园内"},{"poiid":"B2094757D06FA0F5499C","title":"DQ冰雪皇后(豫园店)","lon":"121.4921","lat":"31.22631","category":"113","category_name":"冷饮店","address":"黄浦区豫园路112号(安仁街梧桐路)"},{"poiid":"B2094757D06FA1F54199","title":"豫城时尚","lon":"121.4927","lat":"31.22486","category":"119","category_name":"商场","address":"黄浦区方浜中路168号豫龙坊内(近昼锦路)"},{"poiid":"B2094757D06FA4FC409A","title":"德克士(城隍庙店)","lon":"121.49132","lat":"31.22559","category":"68","category_name":"快餐厅","address":"黄浦区旧校场路125号121室(百翎路口)"},{"poiid":"B2094654DB65A1F5419F","title":"湖心亭","lon":"121.49141945573","lat":"31.227068113629","category":"260","category_name":"其他","address":"黄浦区豫园路257号(近九曲桥荷花池)"},{"poiid":"B2094655D36DA6FF489C","title":"豫-上海","lon":"121.4909","lat":"31.22678","category":"72","category_name":"广东菜","address":"黄浦区旧校场路69号悦宾楼3楼(近沉香阁路)"},{"poiid":"B2094750DA6AA7FC489A","title":"COSTA COFFEE(豫城时尚店)","lon":"121.492561","lat":"31.225528","category":"65","category_name":"咖啡厅","address":"黄浦区昼锦路63号一层"},{"poiid":"B2094757D068A2FA4192","title":"肯德基 KFC (豫园店)","lon":"121.491322","lat":"31.227603","category":"68","category_name":"快餐厅","address":"黄浦区福佑路234号豫园商城内(近旧校场路)"},{"poiid":"B2094757D068ABF4459F","title":"耕月人茶馆","lon":"121.4933","lat":"31.22533","category":"260","category_name":"其他","address":"上海黄浦区方浜中路235号豫安阁4楼(近安仁街)"},{"poiid":"B2094757D068A7F8429A","title":"老凤祥银楼(福佑路店)","lon":"121.49116","lat":"31.22737","category":"500","category_name":"未知分类","address":"黄浦区福佑路239号1-3楼(近旧校场路)查看地图"},{"poiid":"B2094757D06FA1FA449D","title":"城隍庙小商品市场","lon":"121.49124873","lat":"31.226930229","category":"249","category_name":"购物服务","address":"上海福佑路"},{"poiid":"B2094757D764A5F94099","title":"拿渡麻辣香锅 方浜中路店","lon":"121.492599","lat":"31.225421","category":"86","category_name":"火锅店","address":"黄浦区方浜中路168号豫城时尚3楼(近三牌楼路)"},{"poiid":"B2094750D76EA0FF439D","title":"争鲜回转寿司(城隍庙店)","lon":"121.491","lat":"31.2262","category":"95","category_name":"日本料理","address":"黄浦区凝晖路39号(近豫园)"},{"poiid":"B2094757D068A6FD449F","title":"味千拉面(豫龙坊店)","lon":"121.49305373","lat":"31.224894186","category":"95","category_name":"日本料理","address":"黄浦区方浜中路168号豫城时尚B1-17B室(近三牌楼路)"},{"poiid":"B2094654DA6EA5F5459A","title":"宁波汤团店","lon":"121.49182","lat":"31.22629","category":"68","category_name":"快餐厅","address":"黄浦区福佑路238号豫园内"},{"poiid":"B2094757D16CA6F9459E","title":"徐家私房菜(城隍庙店)","lon":"121.49298238","lat":"31.22507574","category":"74","category_name":"江苏菜","address":"黄浦区方浜中路168号豫城时尚3楼(近三牌楼路)"},{"poiid":"B2094654DA6EA4FE4593","title":"麦当劳(旧校场路)","lon":"121.49118","lat":"31.22537","category":"68","category_name":"快餐厅","address":"黄浦区旧校场路155号(近方浜中路)"},{"poiid":"B2094750D36EAAF44699","title":"上海话剧艺术中心","lon":"121.491188","lat":"31.2268","category":"248","category_name":"生活娱乐","address":"安福路288号"},{"poiid":"B2094757D068A0FE4493","title":"豫园时尚街","lon":"121.4915","lat":"31.22508","category":"249","category_name":"购物服务","address":"黄浦区文昌路10号城隍庙内(近方浜中路)"},{"poiid":"B2094654DA6EA4FD459D","title":"星巴克咖啡(中国工商银行豫园支行东南)","lon":"121.49185","lat":"31.22595","category":"65","category_name":"咖啡厅","address":"豫园"},{"poiid":"B2094750D568A2FB419E","title":"棒约翰比萨(方浜中路店)","lon":"121.492","lat":"31.2252","category":"94","category_name":"西餐厅","address":"黄浦区方浜中路280号金豫名品折扣中心(方浜中路旧校场路)"},{"poiid":"B2094757D06AA7FE419C","title":"风波庄(豫园店)","lon":"121.49303223","lat":"31.226140712","category":"260","category_name":"其他","address":"黄浦区光启路23号(近方浜中路)"},{"poiid":"B2094750D568A3FF499A","title":"老邻居小吃世界","lon":"121.491","lat":"31.2268","category":"68","category_name":"快餐厅","address":"黄浦区凝晖路31号(近老庙黄金)"},{"poiid":"B2094757D16BA7FE4493","title":"老邻居小吃","lon":"121.491183738","lat":"31.2266952248","category":"247","category_name":"餐饮美食","address":"上海城隍庙"},{"poiid":"B2094757D16AA1F94593","title":"云南桥香园过桥米线","lon":"121.49283373","lat":"31.225214193","category":"247","category_name":"餐饮美食","address":"上海市黄浦区吴家弄"},{"poiid":"B2094655D26AA1FF479E","title":"真功夫 方浜中路店","lon":"121.493371054","lat":"31.225660793","category":"68","category_name":"快餐厅","address":"黄浦区方浜中路235号豫安阁大厦2楼A区(近城隍庙豫龙坊)"},{"poiid":"B2094757D46AA6FF4092","title":"杰酷 豫园店 JCO DONUTS & COFFEE","lon":"121.49279","lat":"31.22496","category":"67","category_name":"甜品店","address":"黄浦区方浜中路168号豫城时尚1楼(近三牌楼路)"},{"poiid":"B2094757D068A1FF499E","title":"ZARA(城隍庙店)","lon":"121.492955627","lat":"31.224807915","category":"141","category_name":"服装鞋帽皮具店","address":"黄浦区方浜中路168号豫龙坊1-2楼(近昼锦路)"},{"poiid":"B2094757D06FABFB449F","title":"H&amp;M(豫城时尚店)","lon":"121.492246228","lat":"31.225528503","category":"141","category_name":"服装鞋帽皮具店","address":"上海黄浦区方浜中路168号豫城时尚内"},{"poiid":"B2094654DB65A1F54199","title":"南翔馒头店 豫园店","lon":"121.491505","lat":"31.226656","category":"68","category_name":"快餐厅","address":"黄浦区豫园路85号"},{"poiid":"B2094654DA6EA4FD459E","title":"上海城隍庙","lon":"121.476706","lat":"31.227173","category":"244","category_name":"寺庙道观","address":"上海市黄浦区方浜中路249号"},{"poiid":"B2094757D06FA1FF4799","title":"豫园","lon":"121.49209476305077","lat":"31.227224682757594","category":"240","category_name":"国家级景点","address":"上海市黄浦区安仁街218号"},{"poiid":"B2094753D76FAAFA449C","title":"上海滩国泰旗舰店","lon":"121.466011","lat":"31.216125","category":"249","category_name":"购物服务","address":"淮海中路868号"},{"poiid":"B209475CD564A7F84292","title":"上海滩新天地店","lon":"121.47463","lat":"31.22164","category":"119","category_name":"商场","address":"\"太仓路181弄新天地北里15号\r\n\""},{"poiid":"B209475CD564A7F84392","title":"上海滩浦东香格里拉店","lon":"121.50058","lat":"31.23634","category":"119","category_name":"商场","address":"浦东富成路33号香格里拉酒店内大堂层"},{"poiid":"B2094757D06FA3F5499B","title":"绿波廊(豫园路店)","lon":"121.49221","lat":"31.22628","category":"76","category_name":"上海菜","address":"黄浦区老城隍庙内豫园路115号(近九曲桥)"},{"poiid":"B2094757D468A6FE4392","title":"星巴克 豫园店 Starbucks Cafe","lon":"121.49193120286","lat":"31.226836909199","category":"65","category_name":"咖啡厅","address":"豫园路100号近福佑路"},{"poiid":"B2094757D06FA1FE439B","title":"老城隍庙小吃广场","lon":"121.49257","lat":"31.22648","category":"68","category_name":"快餐厅","address":"黄浦区福佑路238号豫园内"},{"poiid":"B2094757D06FA3F9419A","title":"上海会馆","lon":"121.492239138","lat":"31.2239696667","category":"76","category_name":"上海菜","address":"黄浦区河南南路489号香港名都5楼(近复兴东路)"},{"poiid":"B2094757D06FA6F5469A","title":"鼎泰丰(豫园店)","lon":"121.492692816","lat":"31.2247337512","category":"68","category_name":"快餐厅","address":"黄浦区方浜中路168号豫城时尚内(近三牌楼路)"},{"poiid":"B2094654DB6BA4F9449B","title":"豫园老街","lon":"121.49114","lat":"31.22713","category":"116","category_name":"特色商业街","address":"黄浦区福佑路238号豫园内(近河南南路)"},{"poiid":"B2094757D06FA1FD4093","title":"健康煮(豫城店)","lon":"121.49303673","lat":"31.224846185","category":"86","category_name":"火锅店","address":"黄浦区方浜中路168号豫城时尚3楼(近三牌楼路)"},{"poiid":"B2094757D06FA3FC419B","title":"小林煎饼 豫园店","lon":"121.490016054","lat":"31.227538793","category":"67","category_name":"甜品店","address":"黄浦区豫春路9号豫园商城内B室(近老庙黄金广场)"},{"poiid":"B2094654DB64AAF44592","title":"哈根达斯豫园店","lon":"121.49119","lat":"31.2269","category":"113","category_name":"冷饮店","address":"黄浦区方浜中路168号豫龙坊1楼L122A号商铺(近昼锦路)"},{"poiid":"B2094757D06FA1FF4693","title":"避风塘(豫园店)","lon":"121.492699","lat":"31.22484","category":"72","category_name":"广东菜","address":"黄浦区方浜中路168号豫城时尚3楼L3-01-02号商铺(近三牌楼路)"},{"poiid":"B2094757D06FA0F5449B","title":"必胜客(丽水店)","lon":"121.490532","lat":"31.228192","category":"94","category_name":"西餐厅","address":"黄浦区丽水路69号(近福佑路)"},{"poiid":"B2094757D06FABFD409A","title":"上海老街","lon":"121.49305","lat":"31.22534","category":"249","category_name":"购物服务","address":"黄浦区方浜中路"},{"poiid":"B2094757D06FA3FC439D","title":"城隍庙九曲桥","lon":"121.49238","lat":"31.22698","category":"260","category_name":"其他","address":"黄浦区福佑路238号豫园内"},{"poiid":"B2094654DA6EA5F54399","title":"小世界会所","lon":"121.4914","lat":"31.22774","category":"76","category_name":"上海菜","address":"黄浦区福佑路234号豫园3-4楼"},{"poiid":"B2094654DA6EA5F54699","title":"豫园商城","lon":"121.49107","lat":"31.22773","category":"119","category_name":"商场","address":"黄浦区方浜中路269号(近城隍庙豫龙坊)"},{"poiid":"B2094757D06FA3FF419C","title":"星巴克 STARBUCKS (豫园二店)","lon":"121.49199","lat":"31.22696","category":"260","category_name":"其他","address":"黄浦区福佑路238号豫园内"},{"poiid":"B2094757D06FA0F5499C","title":"DQ冰雪皇后(豫园店)","lon":"121.4921","lat":"31.22631","category":"113","category_name":"冷饮店","address":"黄浦区豫园路112号(安仁街梧桐路)"},{"poiid":"B2094757D06FA1F54199","title":"豫城时尚","lon":"121.4927","lat":"31.22486","category":"119","category_name":"商场","address":"黄浦区方浜中路168号豫龙坊内(近昼锦路)"},{"poiid":"B2094757D06FA4FC409A","title":"德克士(城隍庙店)","lon":"121.49132","lat":"31.22559","category":"68","category_name":"快餐厅","address":"黄浦区旧校场路125号121室(百翎路口)"},{"poiid":"B2094654DB65A1F5419F","title":"湖心亭","lon":"121.49141945573","lat":"31.227068113629","category":"260","category_name":"其他","address":"黄浦区豫园路257号(近九曲桥荷花池)"},{"poiid":"B2094655D36DA6FF489C","title":"豫-上海","lon":"121.4909","lat":"31.22678","category":"72","category_name":"广东菜","address":"黄浦区旧校场路69号悦宾楼3楼(近沉香阁路)"},{"poiid":"B2094750DA6AA7FC489A","title":"COSTA COFFEE(豫城时尚店)","lon":"121.492561","lat":"31.225528","category":"65","category_name":"咖啡厅","address":"黄浦区昼锦路63号一层"},{"poiid":"B2094757D068A2FA4192","title":"肯德基 KFC (豫园店)","lon":"121.491322","lat":"31.227603","category":"68","category_name":"快餐厅","address":"黄浦区福佑路234号豫园商城内(近旧校场路)"},{"poiid":"B2094757D068ABF4459F","title":"耕月人茶馆","lon":"121.4933","lat":"31.22533","category":"260","category_name":"其他","address":"上海黄浦区方浜中路235号豫安阁4楼(近安仁街)"},{"poiid":"B2094757D068A7F8429A","title":"老凤祥银楼(福佑路店)","lon":"121.49116","lat":"31.22737","category":"500","category_name":"未知分类","address":"黄浦区福佑路239号1-3楼(近旧校场路)查看地图"},{"poiid":"B2094757D06FA1FA449D","title":"城隍庙小商品市场","lon":"121.49124873","lat":"31.226930229","category":"249","category_name":"购物服务","address":"上海福佑路"},{"poiid":"B2094757D764A5F94099","title":"拿渡麻辣香锅 方浜中路店","lon":"121.492599","lat":"31.225421","category":"86","category_name":"火锅店","address":"黄浦区方浜中路168号豫城时尚3楼(近三牌楼路)"},{"poiid":"B2094750D76EA0FF439D","title":"争鲜回转寿司(城隍庙店)","lon":"121.491","lat":"31.2262","category":"95","category_name":"日本料理","address":"黄浦区凝晖路39号(近豫园)"},{"poiid":"B2094757D068A6FD449F","title":"味千拉面(豫龙坊店)","lon":"121.49305373","lat":"31.224894186","category":"95","category_name":"日本料理","address":"黄浦区方浜中路168号豫城时尚B1-17B室(近三牌楼路)"},{"poiid":"B2094654DA6EA5F5459A","title":"宁波汤团店","lon":"121.49182","lat":"31.22629","category":"68","category_name":"快餐厅","address":"黄浦区福佑路238号豫园内"},{"poiid":"B2094757D16CA6F9459E","title":"徐家私房菜(城隍庙店)","lon":"121.49298238","lat":"31.22507574","category":"74","category_name":"江苏菜","address":"黄浦区方浜中路168号豫城时尚3楼(近三牌楼路)"},{"poiid":"B2094654DA6EA4FE4593","title":"麦当劳(旧校场路)","lon":"121.49118","lat":"31.22537","category":"68","category_name":"快餐厅","address":"黄浦区旧校场路155号(近方浜中路)"},{"poiid":"B2094750D36EAAF44699","title":"上海话剧艺术中心","lon":"121.491188","lat":"31.2268","category":"248","category_name":"生活娱乐","address":"安福路288号"},{"poiid":"B2094757D068A0FE4493","title":"豫园时尚街","lon":"121.4915","lat":"31.22508","category":"249","category_name":"购物服务","address":"黄浦区文昌路10号城隍庙内(近方浜中路)"},{"poiid":"B2094654DA6EA4FD459D","title":"星巴克咖啡(中国工商银行豫园支行东南)","lon":"121.49185","lat":"31.22595","category":"65","category_name":"咖啡厅","address":"豫园"},{"poiid":"B2094750D568A2FB419E","title":"棒约翰比萨(方浜中路店)","lon":"121.492","lat":"31.2252","category":"94","category_name":"西餐厅","address":"黄浦区方浜中路280号金豫名品折扣中心(方浜中路旧校场路)"},{"poiid":"B2094757D06AA7FE419C","title":"风波庄(豫园店)","lon":"121.49303223","lat":"31.226140712","category":"260","category_name":"其他","address":"黄浦区光启路23号(近方浜中路)"},{"poiid":"B2094750D568A3FF499A","title":"老邻居小吃世界","lon":"121.491","lat":"31.2268","category":"68","category_name":"快餐厅","address":"黄浦区凝晖路31号(近老庙黄金)"},{"poiid":"B2094757D16BA7FE4493","title":"老邻居小吃","lon":"121.491183738","lat":"31.2266952248","category":"247","category_name":"餐饮美食","address":"上海城隍庙"},{"poiid":"B2094757D16AA1F94593","title":"云南桥香园过桥米线","lon":"121.49283373","lat":"31.225214193","category":"247","category_name":"餐饮美食","address":"上海市黄浦区吴家弄"},{"poiid":"B2094655D26AA1FF479E","title":"真功夫 方浜中路店","lon":"121.493371054","lat":"31.225660793","category":"68","category_name":"快餐厅","address":"黄浦区方浜中路235号豫安阁大厦2楼A区(近城隍庙豫龙坊)"},{"poiid":"B2094757D46AA6FF4092","title":"杰酷 豫园店 JCO DONUTS & COFFEE","lon":"121.49279","lat":"31.22496","category":"67","category_name":"甜品店","address":"黄浦区方浜中路168号豫城时尚1楼(近三牌楼路)"},{"poiid":"B2094757D068A1FF499E","title":"ZARA(城隍庙店)","lon":"121.492955627","lat":"31.224807915","category":"141","category_name":"服装鞋帽皮具店","address":"黄浦区方浜中路168号豫龙坊1-2楼(近昼锦路)"},{"poiid":"B2094757D06FABFB449F","title":"H&amp;M(豫城时尚店)","lon":"121.492246228","lat":"31.225528503","category":"141","category_name":"服装鞋帽皮具店","address":"上海黄浦区方浜中路168号豫城时尚内"}]