[{"poiid":"B2094757D06EAAFC4393","title":"大木桥路地铁站","lon":"121.463544","lat":"31.194251","category":"36","category_name":"地铁站","address":"上海轨道交通 四号线 轨交大木桥路站 轻轨 4"},{"poiid":"B2094757D06FA6FD489C","title":"上海市建筑建材业行政管理服务中心","lon":"121.463631","lat":"31.189351","category":"46","category_name":"楼宇","address":"上海小木桥路683号"},{"poiid":"B2094757D06FA4FC419C","title":"上海外经大厦","lon":"121.463529","lat":"31.189459","category":"46","category_name":"楼宇","address":"上海徐汇区小木桥路681号"},{"poiid":"B2094753D76FAAFA449C","title":"上海滩国泰旗舰店","lon":"121.466011","lat":"31.216125","category":"249","category_name":"购物服务","address":"淮海中路868号"},{"poiid":"B2094753DB69A7FF439B","title":"翠華餐廳（正大樂城店）","lon":"121.463157","lat":"31.184999","category":"500","category_name":"未知分类","address":"上海市 上海徐匯區中山南二路"},{"poiid":"B2094654DA6DA5F94398","title":"中粮大厦","lon":"121.46189","lat":"31.19029","category":"46","category_name":"楼宇","address":"北一环与亳州路交叉口(庐阳区政府对面)"},{"poiid":"B2094757D06FA4FF4393","title":"泡椒同学","lon":"121.45728","lat":"31.19275","category":"71","category_name":"四川菜","address":"上海徐汇区枫林路331号(近零陵路)"},{"poiid":"B2094757D068A7FD4599","title":"福岛第一核电站三号机组","lon":"121.46172857","lat":"31.190548563","category":"260","category_name":"其他","address":"日本福岛县"},{"poiid":"B2094655D36DA7F8469F","title":"中山南二路大木桥路","lon":"121.4641","lat":"31.19151","category":"38","category_name":"公交车站","address":""},{"poiid":"B2094757D66CA1FF4692","title":"南滨江","lon":"121.46897173","lat":"31.184909334","category":"500","category_name":"未知分类","address":"上海市徐汇区瑞宁路"},{"poiid":"B2094757D06FA5FB419D","title":"日晖二村","lon":"121.46533","lat":"31.193802","category":"47","category_name":"住宅区","address":"上海徐汇区大木桥路日晖二村"},{"poiid":"B2094750D26CA2FA4898","title":"徐汇滨江 west bank","lon":"121.465913885","lat":"31.19017502","category":"47","category_name":"住宅区","address":null},{"poiid":"B2094757D06BA6FF469E","title":"船厂路中山南二路","lon":"121.459764","lat":"31.18839","category":"500","category_name":"未知分类","address":"上海船厂路中山南二路"},{"poiid":"B2094757D069A0F84793","title":"斯柯达4s店","lon":"121.460461","lat":"31.188615","category":"500","category_name":"未知分类","address":"上海中山南二路555号"},{"poiid":"B2094655D26AA0F44799","title":"新偶像艺术学校","lon":"121.46105","lat":"31.18889","category":"247","category_name":"餐饮美食","address":"徐汇区中山南二路555号冠霖大楼4127室(近大木桥路)"},{"poiid":"B2094655D36DA1F54498","title":"小木桥路中山南二路","lon":"121.4611","lat":"31.19248","category":"38","category_name":"公交车站","address":""},{"poiid":"B2094750D26FA0F44898","title":"上海绿地中心","lon":"121.460937","lat":"31.186069","category":"252","category_name":"楼宇机构","address":"徐汇区 船厂路东安路"},{"poiid":"B2094654DA6DA4FE4498","title":"南洋中学(北门)","lon":"121.46522","lat":"31.19193","category":"678","category_name":"学校大门","address":"中山南二路225"},{"poiid":"B2094752D56DAAF8499C","title":"上海徐汇滨江公共开放空间","lon":"121.464986","lat":"31.190111","category":"500","category_name":"未知分类","address":"上海市徐汇区龙腾大道，瑞宁路"},{"poiid":"B2094757D16DA1FD4898","title":"海珀旭晖","lon":"121.462925","lat":"31.192106","category":"500","category_name":"未知分类","address":"徐汇区东安路800号"},{"poiid":"B2094757D16CA2F8479A","title":"零陵路小木桥路","lon":"121.462027138","lat":"31.193420016","category":"500","category_name":"未知分类","address":"上海零陵路小木桥路"},{"poiid":"B2094654DB6BA5F4459F","title":"南浦站(西门)","lon":"121.46479","lat":"31.18802","category":"22","category_name":"火车站","address":""},{"poiid":"B2094757D16DA4F5419D","title":"內環高架瑞金路","lon":"121.468390738","lat":"31.1940535295","category":"500","category_name":"未知分类","address":"上海市徐汇区零陵北路"},{"poiid":"B2094757D66DA1FC489D","title":"Marriott Shanghai Luwan","lon":"121.467268338","lat":"31.1879998007","category":"500","category_name":"未知分类","address":"上海江滨路99号"},{"poiid":"B2094757D06BAAFE409A","title":"派之星KTV","lon":"121.466360738","lat":"31.1880299013","category":"170","category_name":"KTV","address":"上海吴泾"},{"poiid":"B2094757D16CA6FC4993","title":"中山南二路大木桥路(公交车站)","lon":"121.46376918","lat":"31.191047766","category":"38","category_name":"公交车站","address":"上海中山南二路大木桥路"},{"poiid":"B209475DD468A4F5499B","title":"龙美术馆西岸馆","lon":"121.465316","lat":"31.185104","category":"248","category_name":"生活娱乐","address":"上海市 徐汇区龙腾大道3398号"},{"poiid":"B209475CD16AA7FE479E","title":"徐汇滨江","lon":"121.467231","lat":"31.188117","category":"47","category_name":"住宅区","address":"上海市 徐汇区中山南二路"},{"poiid":"B2094654DA6DA5F54192","title":"重庆鸡公煲 大木桥店","lon":"121.464362054","lat":"31.193747793","category":"71","category_name":"四川菜","address":"徐汇区大木桥路591号(近零陵路)"},{"poiid":"B2094757D168A7FB449B","title":"上海市建设工程安全质量监督总站","lon":"121.463710138","lat":"31.1895991347","category":"500","category_name":"未知分类","address":"上海小木桥路683号"},{"poiid":"B2094753DB6AA5F4499E","title":"Wagas（正大乐城）","lon":"121.461524","lat":"31.187013","category":"500","category_name":"未知分类","address":"上海市 船厂路180号"},{"poiid":"B2094654DA6DA4FE449F","title":"冠霖商务楼","lon":"121.46105","lat":"31.18889","category":"46","category_name":"楼宇","address":"中山南二路555号"},{"poiid":"B2094654DA6DA4FD489F","title":"上海徐汇区好莱坞音乐进修学校","lon":"121.46485","lat":"31.19161","category":"53","category_name":"成人教育","address":"中山南二路295-1"},{"poiid":"B2094654DB6BA5F44093","title":"上海为波宾馆凯地店","lon":"121.46143","lat":"31.19069","category":"250","category_name":"公园户外","address":"上海市徐汇区小木桥路604号(近中山南二路)"},{"poiid":"B2094654DA6DA4FE4099","title":"良友金伴No.393(中山南二路)","lon":"121.46193","lat":"31.18959","category":"117","category_name":"便民商店/便利店","address":"徐汇区中山南二路481号(近小木桥路)"},{"poiid":"B2094654DA6DA5F5409E","title":"新华书店教材书店上海No.001","lon":"121.46448","lat":"31.19195","category":"125","category_name":"书店","address":"徐汇区中山南二路260号(大木桥路路口)"},{"poiid":"B2094654DA6DA4FD499C","title":"上海市汽车修理有限公司汽车修理十厂","lon":"121.46334","lat":"31.19016","category":"159","category_name":"汽车维修","address":"中山南二路401"},{"poiid":"B2094757D66DA2FD439A","title":"江滨路","lon":"121.46807573","lat":"31.1879951","category":"500","category_name":"未知分类","address":"浦东新区江滨路(近世博园区1号门)"},{"poiid":"B2094750DA64A7FD499F","title":"西岸音乐会","lon":"121.462768","lat":"31.188514","category":"500","category_name":"未知分类","address":"滨江大道"},{"poiid":"B2094654DB6BA5F4429D","title":"良友(大木桥路)","lon":"121.46503","lat":"31.19244","category":"117","category_name":"便民商店/便利店","address":"中山南二路254"},{"poiid":"B2094752D46FA7FB439B","title":"世博大舞台","lon":"121.468461","lat":"31.194045","category":"248","category_name":"生活娱乐","address":"上海市世博大道1750号"},{"poiid":"B2094655D268A0F5489F","title":"好德No.105","lon":"121.46514","lat":"31.19245","category":"117","category_name":"便民商店/便利店","address":"中山南二路252"},{"poiid":"B209475DD468A4F54392","title":"龙美术馆西岸馆","lon":"121.463035","lat":"31.187294","category":"248","category_name":"生活娱乐","address":"上海市 徐汇区龙腾大道3398号"},{"poiid":"B2094750D26FA5FA4093","title":"dancespace_吾秀文化","lon":"121.46113026222","lat":"31.188705252005","category":"606","category_name":"社区服务","address":"中山南二路555号冠霖大楼404"},{"poiid":"B2094752D46AA2F4439E","title":"上海绿地徐盛汽车销售服务有限公司","lon":"121.466495","lat":"31.191829","category":"158","category_name":"汽车销售","address":"上海市黄浦区船厂路183号"},{"poiid":"B2094655D268ABFE419B","title":"上海乐惠食品有限公司","lon":"121.46324","lat":"31.18935","category":"263","category_name":"公司","address":"徐汇区小木桥路680号"},{"poiid":"B2094757D168A2F4449E","title":"江南二村","lon":"121.462652573","lat":"31.1907546123","category":"252","category_name":"楼宇机构","address":"上海小木桥路中山南二路"},{"poiid":"B2094654DA6DA5F94293","title":"徐汇新湖云庭(2号门)","lon":"121.4615","lat":"31.191","category":"47","category_name":"住宅区","address":""},{"poiid":"B2094757D16CA5F4409C","title":"新警集训基地","lon":"121.46265173","lat":"31.189063423","category":"253","category_name":"校园生活","address":"上海市徐汇区龙华中路"},{"poiid":"B2094655D26FA5F5409D","title":"南浦站(北门)","lon":"121.4689","lat":"31.19002","category":"22","category_name":"火车站","address":"兆丰路200"},{"poiid":"B2094757D06EAAFC4393","title":"大木桥路地铁站","lon":"121.463544","lat":"31.194251","category":"36","category_name":"地铁站","address":"上海轨道交通 四号线 轨交大木桥路站 轻轨 4"},{"poiid":"B2094757D06FA6FD489C","title":"上海市建筑建材业行政管理服务中心","lon":"121.463631","lat":"31.189351","category":"46","category_name":"楼宇","address":"上海小木桥路683号"},{"poiid":"B2094757D06FA4FC419C","title":"上海外经大厦","lon":"121.463529","lat":"31.189459","category":"46","category_name":"楼宇","address":"上海徐汇区小木桥路681号"},{"poiid":"B2094753D76FAAFA449C","title":"上海滩国泰旗舰店","lon":"121.466011","lat":"31.216125","category":"249","category_name":"购物服务","address":"淮海中路868号"},{"poiid":"B2094753DB69A7FF439B","title":"翠華餐廳（正大樂城店）","lon":"121.463157","lat":"31.184999","category":"500","category_name":"未知分类","address":"上海市 上海徐匯區中山南二路"},{"poiid":"B2094654DA6DA5F94398","title":"中粮大厦","lon":"121.46189","lat":"31.19029","category":"46","category_name":"楼宇","address":"北一环与亳州路交叉口(庐阳区政府对面)"},{"poiid":"B2094757D06FA4FF4393","title":"泡椒同学","lon":"121.45728","lat":"31.19275","category":"71","category_name":"四川菜","address":"上海徐汇区枫林路331号(近零陵路)"},{"poiid":"B2094757D068A7FD4599","title":"福岛第一核电站三号机组","lon":"121.46172857","lat":"31.190548563","category":"260","category_name":"其他","address":"日本福岛县"},{"poiid":"B2094655D36DA7F8469F","title":"中山南二路大木桥路","lon":"121.4641","lat":"31.19151","category":"38","category_name":"公交车站","address":""},{"poiid":"B2094757D66CA1FF4692","title":"南滨江","lon":"121.46897173","lat":"31.184909334","category":"500","category_name":"未知分类","address":"上海市徐汇区瑞宁路"},{"poiid":"B2094757D06FA5FB419D","title":"日晖二村","lon":"121.46533","lat":"31.193802","category":"47","category_name":"住宅区","address":"上海徐汇区大木桥路日晖二村"},{"poiid":"B2094750D26CA2FA4898","title":"徐汇滨江 west bank","lon":"121.465913885","lat":"31.19017502","category":"47","category_name":"住宅区","address":null},{"poiid":"B2094757D06BA6FF469E","title":"船厂路中山南二路","lon":"121.459764","lat":"31.18839","category":"500","category_name":"未知分类","address":"上海船厂路中山南二路"},{"poiid":"B2094757D069A0F84793","title":"斯柯达4s店","lon":"121.460461","lat":"31.188615","category":"500","category_name":"未知分类","address":"上海中山南二路555号"},{"poiid":"B2094655D26AA0F44799","title":"新偶像艺术学校","lon":"121.46105","lat":"31.18889","category":"247","category_name":"餐饮美食","address":"徐汇区中山南二路555号冠霖大楼4127室(近大木桥路)"},{"poiid":"B2094655D36DA1F54498","title":"小木桥路中山南二路","lon":"121.4611","lat":"31.19248","category":"38","category_name":"公交车站","address":""},{"poiid":"B2094750D26FA0F44898","title":"上海绿地中心","lon":"121.460937","lat":"31.186069","category":"252","category_name":"楼宇机构","address":"徐汇区 船厂路东安路"},{"poiid":"B2094654DA6DA4FE4498","title":"南洋中学(北门)","lon":"121.46522","lat":"31.19193","category":"678","category_name":"学校大门","address":"中山南二路225"},{"poiid":"B2094752D56DAAF8499C","title":"上海徐汇滨江公共开放空间","lon":"121.464986","lat":"31.190111","category":"500","category_name":"未知分类","address":"上海市徐汇区龙腾大道，瑞宁路"},{"poiid":"B2094757D16DA1FD4898","title":"海珀旭晖","lon":"121.462925","lat":"31.192106","category":"500","category_name":"未知分类","address":"徐汇区东安路800号"},{"poiid":"B2094757D16CA2F8479A","title":"零陵路小木桥路","lon":"121.462027138","lat":"31.193420016","category":"500","category_name":"未知分类","address":"上海零陵路小木桥路"},{"poiid":"B2094654DB6BA5F4459F","title":"南浦站(西门)","lon":"121.46479","lat":"31.18802","category":"22","category_name":"火车站","address":""},{"poiid":"B2094757D16DA4F5419D","title":"內環高架瑞金路","lon":"121.468390738","lat":"31.1940535295","category":"500","category_name":"未知分类","address":"上海市徐汇区零陵北路"},{"poiid":"B2094757D66DA1FC489D","title":"Marriott Shanghai Luwan","lon":"121.467268338","lat":"31.1879998007","category":"500","category_name":"未知分类","address":"上海江滨路99号"},{"poiid":"B2094757D06BAAFE409A","title":"派之星KTV","lon":"121.466360738","lat":"31.1880299013","category":"170","category_name":"KTV","address":"上海吴泾"},{"poiid":"B2094757D16CA6FC4993","title":"中山南二路大木桥路(公交车站)","lon":"121.46376918","lat":"31.191047766","category":"38","category_name":"公交车站","address":"上海中山南二路大木桥路"},{"poiid":"B209475DD468A4F5499B","title":"龙美术馆西岸馆","lon":"121.465316","lat":"31.185104","category":"248","category_name":"生活娱乐","address":"上海市 徐汇区龙腾大道3398号"},{"poiid":"B209475CD16AA7FE479E","title":"徐汇滨江","lon":"121.467231","lat":"31.188117","category":"47","category_name":"住宅区","address":"上海市 徐汇区中山南二路"},{"poiid":"B2094654DA6DA5F54192","title":"重庆鸡公煲 大木桥店","lon":"121.464362054","lat":"31.193747793","category":"71","category_name":"四川菜","address":"徐汇区大木桥路591号(近零陵路)"},{"poiid":"B2094757D168A7FB449B","title":"上海市建设工程安全质量监督总站","lon":"121.463710138","lat":"31.1895991347","category":"500","category_name":"未知分类","address":"上海小木桥路683号"},{"poiid":"B2094753DB6AA5F4499E","title":"Wagas（正大乐城）","lon":"121.461524","lat":"31.187013","category":"500","category_name":"未知分类","address":"上海市 船厂路180号"},{"poiid":"B2094654DA6DA4FE449F","title":"冠霖商务楼","lon":"121.46105","lat":"31.18889","category":"46","category_name":"楼宇","address":"中山南二路555号"},{"poiid":"B2094654DA6DA4FD489F","title":"上海徐汇区好莱坞音乐进修学校","lon":"121.46485","lat":"31.19161","category":"53","category_name":"成人教育","address":"中山南二路295-1"},{"poiid":"B2094654DB6BA5F44093","title":"上海为波宾馆凯地店","lon":"121.46143","lat":"31.19069","category":"250","category_name":"公园户外","address":"上海市徐汇区小木桥路604号(近中山南二路)"},{"poiid":"B2094654DA6DA4FE4099","title":"良友金伴No.393(中山南二路)","lon":"121.46193","lat":"31.18959","category":"117","category_name":"便民商店/便利店","address":"徐汇区中山南二路481号(近小木桥路)"},{"poiid":"B2094654DA6DA5F5409E","title":"新华书店教材书店上海No.001","lon":"121.46448","lat":"31.19195","category":"125","category_name":"书店","address":"徐汇区中山南二路260号(大木桥路路口)"},{"poiid":"B2094654DA6DA4FD499C","title":"上海市汽车修理有限公司汽车修理十厂","lon":"121.46334","lat":"31.19016","category":"159","category_name":"汽车维修","address":"中山南二路401"},{"poiid":"B2094757D66DA2FD439A","title":"江滨路","lon":"121.46807573","lat":"31.1879951","category":"500","category_name":"未知分类","address":"浦东新区江滨路(近世博园区1号门)"},{"poiid":"B2094750DA64A7FD499F","title":"西岸音乐会","lon":"121.462768","lat":"31.188514","category":"500","category_name":"未知分类","address":"滨江大道"},{"poiid":"B2094654DB6BA5F4429D","title":"良友(大木桥路)","lon":"121.46503","lat":"31.19244","category":"117","category_name":"便民商店/便利店","address":"中山南二路254"},{"poiid":"B2094752D46FA7FB439B","title":"世博大舞台","lon":"121.468461","lat":"31.194045","category":"248","category_name":"生活娱乐","address":"上海市世博大道1750号"},{"poiid":"B2094655D268A0F5489F","title":"好德No.105","lon":"121.46514","lat":"31.19245","category":"117","category_name":"便民商店/便利店","address":"中山南二路252"},{"poiid":"B209475DD468A4F54392","title":"龙美术馆西岸馆","lon":"121.463035","lat":"31.187294","category":"248","category_name":"生活娱乐","address":"上海市 徐汇区龙腾大道3398号"},{"poiid":"B2094750D26FA5FA4093","title":"dancespace_吾秀文化","lon":"121.46113026222","lat":"31.188705252005","category":"606","category_name":"社区服务","address":"中山南二路555号冠霖大楼404"},{"poiid":"B2094752D46AA2F4439E","title":"上海绿地徐盛汽车销售服务有限公司","lon":"121.466495","lat":"31.191829","category":"158","category_name":"汽车销售","address":"上海市黄浦区船厂路183号"},{"poiid":"B2094655D268ABFE419B","title":"上海乐惠食品有限公司","lon":"121.46324","lat":"31.18935","category":"263","category_name":"公司","address":"徐汇区小木桥路680号"},{"poiid":"B2094757D168A2F4449E","title":"江南二村","lon":"121.462652573","lat":"31.1907546123","category":"252","category_name":"楼宇机构","address":"上海小木桥路中山南二路"},{"poiid":"B2094654DA6DA5F94293","title":"徐汇新湖云庭(2号门)","lon":"121.4615","lat":"31.191","category":"47","category_name":"住宅区","address":""},{"poiid":"B2094757D16CA5F4409C","title":"新警集训基地","lon":"121.46265173","lat":"31.189063423","category":"253","category_name":"校园生活","address":"上海市徐汇区龙华中路"},{"poiid":"B2094655D26FA5F5409D","title":"南浦站(北门)","lon":"121.4689","lat":"31.19002","category":"22","category_name":"火车站","address":"兆丰路200"},{"poiid":"B2094757D06EAAFC4393","title":"大木桥路地铁站","lon":"121.463544","lat":"31.194251","category":"36","category_name":"地铁站","address":"上海轨道交通 四号线 轨交大木桥路站 轻轨 4"},{"poiid":"B2094757D06FA6FD489C","title":"上海市建筑建材业行政管理服务中心","lon":"121.463631","lat":"31.189351","category":"46","category_name":"楼宇","address":"上海小木桥路683号"},{"poiid":"B2094757D06FA4FC419C","title":"上海外经大厦","lon":"121.463529","lat":"31.189459","category":"46","category_name":"楼宇","address":"上海徐汇区小木桥路681号"},{"poiid":"B2094753D76FAAFA449C","title":"上海滩国泰旗舰店","lon":"121.466011","lat":"31.216125","category":"249","category_name":"购物服务","address":"淮海中路868号"},{"poiid":"B2094753DB69A7FF439B","title":"翠華餐廳（正大樂城店）","lon":"121.463157","lat":"31.184999","category":"500","category_name":"未知分类","address":"上海市 上海徐匯區中山南二路"},{"poiid":"B2094654DA6DA5F94398","title":"中粮大厦","lon":"121.46189","lat":"31.19029","category":"46","category_name":"楼宇","address":"北一环与亳州路交叉口(庐阳区政府对面)"},{"poiid":"B2094757D06FA4FF4393","title":"泡椒同学","lon":"121.45728","lat":"31.19275","category":"71","category_name":"四川菜","address":"上海徐汇区枫林路331号(近零陵路)"},{"poiid":"B2094757D068A7FD4599","title":"福岛第一核电站三号机组","lon":"121.46172857","lat":"31.190548563","category":"260","category_name":"其他","address":"日本福岛县"},{"poiid":"B2094655D36DA7F8469F","title":"中山南二路大木桥路","lon":"121.4641","lat":"31.19151","category":"38","category_name":"公交车站","address":""},{"poiid":"B2094757D66CA1FF4692","title":"南滨江","lon":"121.46897173","lat":"31.184909334","category":"500","category_name":"未知分类","address":"上海市徐汇区瑞宁路"},{"poiid":"B2094757D06FA5FB419D","title":"日晖二村","lon":"121.46533","lat":"31.193802","category":"47","category_name":"住宅区","address":"上海徐汇区大木桥路日晖二村"},{"poiid":"B2094750D26CA2FA4898","title":"徐汇滨江 west bank","lon":"121.465913885","lat":"31.19017502","category":"47","category_name":"住宅区","address":null},{"poiid":"B2094757D06BA6FF469E","title":"船厂路中山南二路","lon":"121.459764","lat":"31.18839","category":"500","category_name":"未知分类","address":"上海船厂路中山南二路"},{"poiid":"B2094757D069A0F84793","title":"斯柯达4s店","lon":"121.460461","lat":"31.188615","category":"500","category_name":"未知分类","address":"上海中山南二路555号"},{"poiid":"B2094655D26AA0F44799","title":"新偶像艺术学校","lon":"121.46105","lat":"31.18889","category":"247","category_name":"餐饮美食","address":"徐汇区中山南二路555号冠霖大楼4127室(近大木桥路)"},{"poiid":"B2094655D36DA1F54498","title":"小木桥路中山南二路","lon":"121.4611","lat":"31.19248","category":"38","category_name":"公交车站","address":""},{"poiid":"B2094750D26FA0F44898","title":"上海绿地中心","lon":"121.460937","lat":"31.186069","category":"252","category_name":"楼宇机构","address":"徐汇区 船厂路东安路"},{"poiid":"B2094654DA6DA4FE4498","title":"南洋中学(北门)","lon":"121.46522","lat":"31.19193","category":"678","category_name":"学校大门","address":"中山南二路225"},{"poiid":"B2094752D56DAAF8499C","title":"上海徐汇滨江公共开放空间","lon":"121.464986","lat":"31.190111","category":"500","category_name":"未知分类","address":"上海市徐汇区龙腾大道，瑞宁路"},{"poiid":"B2094757D16DA1FD4898","title":"海珀旭晖","lon":"121.462925","lat":"31.192106","category":"500","category_name":"未知分类","address":"徐汇区东安路800号"},{"poiid":"B2094757D16CA2F8479A","title":"零陵路小木桥路","lon":"121.462027138","lat":"31.193420016","category":"500","category_name":"未知分类","address":"上海零陵路小木桥路"},{"poiid":"B2094654DB6BA5F4459F","title":"南浦站(西门)","lon":"121.46479","lat":"31.18802","category":"22","category_name":"火车站","address":""},{"poiid":"B2094757D16DA4F5419D","title":"內環高架瑞金路","lon":"121.468390738","lat":"31.1940535295","category":"500","category_name":"未知分类","address":"上海市徐汇区零陵北路"},{"poiid":"B2094757D66DA1FC489D","title":"Marriott Shanghai Luwan","lon":"121.467268338","lat":"31.1879998007","category":"500","category_name":"未知分类","address":"上海江滨路99号"},{"poiid":"B2094757D06BAAFE409A","title":"派之星KTV","lon":"121.466360738","lat":"31.1880299013","category":"170","category_name":"KTV","address":"上海吴泾"},{"poiid":"B2094757D16CA6FC4993","title":"中山南二路大木桥路(公交车站)","lon":"121.46376918","lat":"31.191047766","category":"38","category_name":"公交车站","address":"上海中山南二路大木桥路"},{"poiid":"B209475DD468A4F5499B","title":"龙美术馆西岸馆","lon":"121.465316","lat":"31.185104","category":"248","category_name":"生活娱乐","address":"上海市 徐汇区龙腾大道3398号"},{"poiid":"B209475CD16AA7FE479E","title":"徐汇滨江","lon":"121.467231","lat":"31.188117","category":"47","category_name":"住宅区","address":"上海市 徐汇区中山南二路"},{"poiid":"B2094654DA6DA5F54192","title":"重庆鸡公煲 大木桥店","lon":"121.464362054","lat":"31.193747793","category":"71","category_name":"四川菜","address":"徐汇区大木桥路591号(近零陵路)"},{"poiid":"B2094757D168A7FB449B","title":"上海市建设工程安全质量监督总站","lon":"121.463710138","lat":"31.1895991347","category":"500","category_name":"未知分类","address":"上海小木桥路683号"},{"poiid":"B2094753DB6AA5F4499E","title":"Wagas（正大乐城）","lon":"121.461524","lat":"31.187013","category":"500","category_name":"未知分类","address":"上海市 船厂路180号"},{"poiid":"B2094654DA6DA4FE449F","title":"冠霖商务楼","lon":"121.46105","lat":"31.18889","category":"46","category_name":"楼宇","address":"中山南二路555号"},{"poiid":"B2094654DA6DA4FD489F","title":"上海徐汇区好莱坞音乐进修学校","lon":"121.46485","lat":"31.19161","category":"53","category_name":"成人教育","address":"中山南二路295-1"},{"poiid":"B2094654DB6BA5F44093","title":"上海为波宾馆凯地店","lon":"121.46143","lat":"31.19069","category":"250","category_name":"公园户外","address":"上海市徐汇区小木桥路604号(近中山南二路)"},{"poiid":"B2094654DA6DA4FE4099","title":"良友金伴No.393(中山南二路)","lon":"121.46193","lat":"31.18959","category":"117","category_name":"便民商店/便利店","address":"徐汇区中山南二路481号(近小木桥路)"},{"poiid":"B2094654DA6DA5F5409E","title":"新华书店教材书店上海No.001","lon":"121.46448","lat":"31.19195","category":"125","category_name":"书店","address":"徐汇区中山南二路260号(大木桥路路口)"},{"poiid":"B2094654DA6DA4FD499C","title":"上海市汽车修理有限公司汽车修理十厂","lon":"121.46334","lat":"31.19016","category":"159","category_name":"汽车维修","address":"中山南二路401"},{"poiid":"B2094757D66DA2FD439A","title":"江滨路","lon":"121.46807573","lat":"31.1879951","category":"500","category_name":"未知分类","address":"浦东新区江滨路(近世博园区1号门)"},{"poiid":"B2094750DA64A7FD499F","title":"西岸音乐会","lon":"121.462768","lat":"31.188514","category":"500","category_name":"未知分类","address":"滨江大道"},{"poiid":"B2094654DB6BA5F4429D","title":"良友(大木桥路)","lon":"121.46503","lat":"31.19244","category":"117","category_name":"便民商店/便利店","address":"中山南二路254"},{"poiid":"B2094752D46FA7FB439B","title":"世博大舞台","lon":"121.468461","lat":"31.194045","category":"248","category_name":"生活娱乐","address":"上海市世博大道1750号"},{"poiid":"B2094655D268A0F5489F","title":"好德No.105","lon":"121.46514","lat":"31.19245","category":"117","category_name":"便民商店/便利店","address":"中山南二路252"},{"poiid":"B209475DD468A4F54392","title":"龙美术馆西岸馆","lon":"121.463035","lat":"31.187294","category":"248","category_name":"生活娱乐","address":"上海市 徐汇区龙腾大道3398号"},{"poiid":"B2094750D26FA5FA4093","title":"dancespace_吾秀文化","lon":"121.46113026222","lat":"31.188705252005","category":"606","category_name":"社区服务","address":"中山南二路555号冠霖大楼404"},{"poiid":"B2094752D46AA2F4439E","title":"上海绿地徐盛汽车销售服务有限公司","lon":"121.466495","lat":"31.191829","category":"158","category_name":"汽车销售","address":"上海市黄浦区船厂路183号"},{"poiid":"B2094655D268ABFE419B","title":"上海乐惠食品有限公司","lon":"121.46324","lat":"31.18935","category":"263","category_name":"公司","address":"徐汇区小木桥路680号"},{"poiid":"B2094757D168A2F4449E","title":"江南二村","lon":"121.462652573","lat":"31.1907546123","category":"252","category_name":"楼宇机构","address":"上海小木桥路中山南二路"},{"poiid":"B2094654DA6DA5F94293","title":"徐汇新湖云庭(2号门)","lon":"121.4615","lat":"31.191","category":"47","category_name":"住宅区","address":""},{"poiid":"B2094757D16CA5F4409C","title":"新警集训基地","lon":"121.46265173","lat":"31.189063423","category":"253","category_name":"校园生活","address":"上海市徐汇区龙华中路"},{"poiid":"B2094655D26FA5F5409D","title":"南浦站(北门)","lon":"121.4689","lat":"31.19002","category":"22","category_name":"火车站","address":"兆丰路200"},{"poiid":"B2094757D06EAAFC4393","title":"大木桥路地铁站","lon":"121.463544","lat":"31.194251","category":"36","category_name":"地铁站","address":"上海轨道交通 四号线 轨交大木桥路站 轻轨 4"},{"poiid":"B2094757D06FA6FD489C","title":"上海市建筑建材业行政管理服务中心","lon":"121.463631","lat":"31.189351","category":"46","category_name":"楼宇","address":"上海小木桥路683号"},{"poiid":"B2094757D06FA4FC419C","title":"上海外经大厦","lon":"121.463529","lat":"31.189459","category":"46","category_name":"楼宇","address":"上海徐汇区小木桥路681号"},{"poiid":"B2094753D76FAAFA449C","title":"上海滩国泰旗舰店","lon":"121.466011","lat":"31.216125","category":"249","category_name":"购物服务","address":"淮海中路868号"},{"poiid":"B2094753DB69A7FF439B","title":"翠華餐廳（正大樂城店）","lon":"121.463157","lat":"31.184999","category":"500","category_name":"未知分类","address":"上海市 上海徐匯區中山南二路"},{"poiid":"B2094654DA6DA5F94398","title":"中粮大厦","lon":"121.46189","lat":"31.19029","category":"46","category_name":"楼宇","address":"北一环与亳州路交叉口(庐阳区政府对面)"},{"poiid":"B2094757D06FA4FF4393","title":"泡椒同学","lon":"121.45728","lat":"31.19275","category":"71","category_name":"四川菜","address":"上海徐汇区枫林路331号(近零陵路)"},{"poiid":"B2094757D068A7FD4599","title":"福岛第一核电站三号机组","lon":"121.46172857","lat":"31.190548563","category":"260","category_name":"其他","address":"日本福岛县"},{"poiid":"B2094655D36DA7F8469F","title":"中山南二路大木桥路","lon":"121.4641","lat":"31.19151","category":"38","category_name":"公交车站","address":""},{"poiid":"B2094757D66CA1FF4692","title":"南滨江","lon":"121.46897173","lat":"31.184909334","category":"500","category_name":"未知分类","address":"上海市徐汇区瑞宁路"},{"poiid":"B2094757D06FA5FB419D","title":"日晖二村","lon":"121.46533","lat":"31.193802","category":"47","category_name":"住宅区","address":"上海徐汇区大木桥路日晖二村"},{"poiid":"B2094750D26CA2FA4898","title":"徐汇滨江 west bank","lon":"121.465913885","lat":"31.19017502","category":"47","category_name":"住宅区","address":null},{"poiid":"B2094757D06BA6FF469E","title":"船厂路中山南二路","lon":"121.459764","lat":"31.18839","category":"500","category_name":"未知分类","address":"上海船厂路中山南二路"},{"poiid":"B2094757D069A0F84793","title":"斯柯达4s店","lon":"121.460461","lat":"31.188615","category":"500","category_name":"未知分类","address":"上海中山南二路555号"},{"poiid":"B2094655D26AA0F44799","title":"新偶像艺术学校","lon":"121.46105","lat":"31.18889","category":"247","category_name":"餐饮美食","address":"徐汇区中山南二路555号冠霖大楼4127室(近大木桥路)"},{"poiid":"B2094655D36DA1F54498","title":"小木桥路中山南二路","lon":"121.4611","lat":"31.19248","category":"38","category_name":"公交车站","address":""},{"poiid":"B2094750D26FA0F44898","title":"上海绿地中心","lon":"121.460937","lat":"31.186069","category":"252","category_name":"楼宇机构","address":"徐汇区 船厂路东安路"},{"poiid":"B2094654DA6DA4FE4498","title":"南洋中学(北门)","lon":"121.46522","lat":"31.19193","category":"678","category_name":"学校大门","address":"中山南二路225"},{"poiid":"B2094752D56DAAF8499C","title":"上海徐汇滨江公共开放空间","lon":"121.464986","lat":"31.190111","category":"500","category_name":"未知分类","address":"上海市徐汇区龙腾大道，瑞宁路"},{"poiid":"B2094757D16DA1FD4898","title":"海珀旭晖","lon":"121.462925","lat":"31.192106","category":"500","category_name":"未知分类","address":"徐汇区东安路800号"},{"poiid":"B2094757D16CA2F8479A","title":"零陵路小木桥路","lon":"121.462027138","lat":"31.193420016","category":"500","category_name":"未知分类","address":"上海零陵路小木桥路"},{"poiid":"B2094654DB6BA5F4459F","title":"南浦站(西门)","lon":"121.46479","lat":"31.18802","category":"22","category_name":"火车站","address":""},{"poiid":"B2094757D16DA4F5419D","title":"內環高架瑞金路","lon":"121.468390738","lat":"31.1940535295","category":"500","category_name":"未知分类","address":"上海市徐汇区零陵北路"},{"poiid":"B2094757D66DA1FC489D","title":"Marriott Shanghai Luwan","lon":"121.467268338","lat":"31.1879998007","category":"500","category_name":"未知分类","address":"上海江滨路99号"},{"poiid":"B2094757D06BAAFE409A","title":"派之星KTV","lon":"121.466360738","lat":"31.1880299013","category":"170","category_name":"KTV","address":"上海吴泾"},{"poiid":"B2094757D16CA6FC4993","title":"中山南二路大木桥路(公交车站)","lon":"121.46376918","lat":"31.191047766","category":"38","category_name":"公交车站","address":"上海中山南二路大木桥路"},{"poiid":"B209475DD468A4F5499B","title":"龙美术馆西岸馆","lon":"121.465316","lat":"31.185104","category":"248","category_name":"生活娱乐","address":"上海市 徐汇区龙腾大道3398号"},{"poiid":"B209475CD16AA7FE479E","title":"徐汇滨江","lon":"121.467231","lat":"31.188117","category":"47","category_name":"住宅区","address":"上海市 徐汇区中山南二路"},{"poiid":"B2094654DA6DA5F54192","title":"重庆鸡公煲 大木桥店","lon":"121.464362054","lat":"31.193747793","category":"71","category_name":"四川菜","address":"徐汇区大木桥路591号(近零陵路)"},{"poiid":"B2094757D168A7FB449B","title":"上海市建设工程安全质量监督总站","lon":"121.463710138","lat":"31.1895991347","category":"500","category_name":"未知分类","address":"上海小木桥路683号"},{"poiid":"B2094753DB6AA5F4499E","title":"Wagas（正大乐城）","lon":"121.461524","lat":"31.187013","category":"500","category_name":"未知分类","address":"上海市 船厂路180号"},{"poiid":"B2094654DA6DA4FE449F","title":"冠霖商务楼","lon":"121.46105","lat":"31.18889","category":"46","category_name":"楼宇","address":"中山南二路555号"},{"poiid":"B2094654DA6DA4FD489F","title":"上海徐汇区好莱坞音乐进修学校","lon":"121.46485","lat":"31.19161","category":"53","category_name":"成人教育","address":"中山南二路295-1"},{"poiid":"B2094654DB6BA5F44093","title":"上海为波宾馆凯地店","lon":"121.46143","lat":"31.19069","category":"250","category_name":"公园户外","address":"上海市徐汇区小木桥路604号(近中山南二路)"},{"poiid":"B2094654DA6DA4FE4099","title":"良友金伴No.393(中山南二路)","lon":"121.46193","lat":"31.18959","category":"117","category_name":"便民商店/便利店","address":"徐汇区中山南二路481号(近小木桥路)"},{"poiid":"B2094654DA6DA5F5409E","title":"新华书店教材书店上海No.001","lon":"121.46448","lat":"31.19195","category":"125","category_name":"书店","address":"徐汇区中山南二路260号(大木桥路路口)"},{"poiid":"B2094654DA6DA4FD499C","title":"上海市汽车修理有限公司汽车修理十厂","lon":"121.46334","lat":"31.19016","category":"159","category_name":"汽车维修","address":"中山南二路401"},{"poiid":"B2094757D66DA2FD439A","title":"江滨路","lon":"121.46807573","lat":"31.1879951","category":"500","category_name":"未知分类","address":"浦东新区江滨路(近世博园区1号门)"},{"poiid":"B2094750DA64A7FD499F","title":"西岸音乐会","lon":"121.462768","lat":"31.188514","category":"500","category_name":"未知分类","address":"滨江大道"},{"poiid":"B2094654DB6BA5F4429D","title":"良友(大木桥路)","lon":"121.46503","lat":"31.19244","category":"117","category_name":"便民商店/便利店","address":"中山南二路254"},{"poiid":"B2094752D46FA7FB439B","title":"世博大舞台","lon":"121.468461","lat":"31.194045","category":"248","category_name":"生活娱乐","address":"上海市世博大道1750号"},{"poiid":"B2094655D268A0F5489F","title":"好德No.105","lon":"121.46514","lat":"31.19245","category":"117","category_name":"便民商店/便利店","address":"中山南二路252"},{"poiid":"B209475DD468A4F54392","title":"龙美术馆西岸馆","lon":"121.463035","lat":"31.187294","category":"248","category_name":"生活娱乐","address":"上海市 徐汇区龙腾大道3398号"},{"poiid":"B2094750D26FA5FA4093","title":"dancespace_吾秀文化","lon":"121.46113026222","lat":"31.188705252005","category":"606","category_name":"社区服务","address":"中山南二路555号冠霖大楼404"},{"poiid":"B2094752D46AA2F4439E","title":"上海绿地徐盛汽车销售服务有限公司","lon":"121.466495","lat":"31.191829","category":"158","category_name":"汽车销售","address":"上海市黄浦区船厂路183号"},{"poiid":"B2094655D268ABFE419B","title":"上海乐惠食品有限公司","lon":"121.46324","lat":"31.18935","category":"263","category_name":"公司","address":"徐汇区小木桥路680号"},{"poiid":"B2094757D168A2F4449E","title":"江南二村","lon":"121.462652573","lat":"31.1907546123","category":"252","category_name":"楼宇机构","address":"上海小木桥路中山南二路"},{"poiid":"B2094654DA6DA5F94293","title":"徐汇新湖云庭(2号门)","lon":"121.4615","lat":"31.191","category":"47","category_name":"住宅区","address":""},{"poiid":"B2094757D16CA5F4409C","title":"新警集训基地","lon":"121.46265173","lat":"31.189063423","category":"253","category_name":"校园生活","address":"上海市徐汇区龙华中路"},{"poiid":"B2094655D26FA5F5409D","title":"南浦站(北门)","lon":"121.4689","lat":"31.19002","category":"22","category_name":"火车站","address":"兆丰路200"}]