[{"poiid":"B2094654DB64AAFC4699","title":"潮汕砂锅粥定西店","lon":"121.42398","lat":"31.20874","category":"72","category_name":"广东菜","address":"长宁区定西路784号(近延安西路)"},{"poiid":"B2094757D06FAAFF4198","title":"鲜芋仙(定西店)","lon":"121.423583586","lat":"31.207216981","category":"67","category_name":"甜品店","address":"长宁区定西路713号-5(近法华镇路)"},{"poiid":"B2094757D06FA0FB4498","title":"上海交通大学安泰经济与管理学院","lon":"121.4250955","lat":"31.205555045","category":"260","category_name":"其他","address":"长宁区法华镇路535号上海交通大学内(近定西路)"},{"poiid":"B2094757D06FA0F4429B","title":"尚映仓","lon":"121.423841779","lat":"31.2077904638","category":"94","category_name":"西餐厅","address":"长宁区定西路739号甲(近延安西路)"},{"poiid":"B2094654D564A7FB469D","title":"潮汕砂锅粥馆 长宁总店","lon":"121.42324823256","lat":"31.2091744206","category":"72","category_name":"广东菜","address":"长宁区定西路805号(近延安西路)"},{"poiid":"B2094757D06EAAFC489A","title":"Kaiba(定西路店)","lon":"121.423710143","lat":"31.2080453965","category":"172","category_name":"酒吧","address":"长宁区定西路739号(近延安西路)"},{"poiid":"B2094757D069A3F8459A","title":"川堂风","lon":"121.424273186","lat":"31.2069221752","category":"71","category_name":"四川菜","address":"长宁区定西路685号(近法华镇路)"},{"poiid":"B2094750D464A0FA459C","title":"十面埋伏面馆定西路店","lon":"121.424087","lat":"31.208271","category":"247","category_name":"餐饮美食","address":"长宁区定西路795号(近延安西路)"},{"poiid":"B2094654DB6AA7F4469F","title":"SUS2 MUSIC BAR","lon":"121.42369","lat":"31.20681","category":"260","category_name":"其他","address":"上海长宁区定西路685号(近法华镇路)"},{"poiid":"B2094757D06FA3FD489B","title":"CS酒吧","lon":"121.42369079","lat":"31.206811904","category":"172","category_name":"酒吧","address":"长宁区定西路685号B1楼(近法华镇路)"},{"poiid":"B2094757D06FA7FD499D","title":"好友汇土菜馆","lon":"121.42397","lat":"31.20606","category":"76","category_name":"上海菜","address":"长宁区定西路657号2-3楼(近法华镇路)"},{"poiid":"B2094757D068A3F54299","title":"清风人家(定西路店)","lon":"121.42436","lat":"31.20813","category":"260","category_name":"其他","address":"长宁区定西路776号(近延安西路)"},{"poiid":"B2094757D06FA1F5419B","title":"九龙城(定西路店)","lon":"121.42415","lat":"31.20881","category":"72","category_name":"广东菜","address":"长宁区定西路782号(近延安西路)"},{"poiid":"B2094757D068A1F4459F","title":"番禺大厦","lon":"121.42756","lat":"31.20582","category":"46","category_name":"楼宇","address":"番禺大厦位于长宁番禺路222弄"},{"poiid":"B2094757D06FA5FD4892","title":"汤司令土灶煨汤馆(定西路店)","lon":"121.423787","lat":"31.208395","category":"260","category_name":"其他","address":"长宁区定西路799号(近延安西路)"},{"poiid":"B2094750D26CA6FD439B","title":"品潮阁潮汕砂锅粥","lon":"121.42476081848","lat":"31.208066616211","category":"72","category_name":"广东菜","address":"长宁区定西路796号(近延安西路)"},{"poiid":"B2094757D068A3FB429A","title":"柏崴桌球俱乐部","lon":"121.42432","lat":"31.20795","category":"171","category_name":"台球厅","address":"长宁区定西路738号裙楼3楼(近延安西路)"},{"poiid":"B2094757D069A1FD4193","title":"邓记传菜","lon":"121.42433","lat":"31.20789","category":"71","category_name":"四川菜","address":"长宁区定西路737号(近延安西路)"},{"poiid":"B2094757D46FA0F8489E","title":"兰庭砂锅粥","lon":"121.423947","lat":"31.209003","category":"72","category_name":"广东菜","address":"长宁区定西路790号(近延安西路)"},{"poiid":"B2094757D068AAF54098","title":"其鲜生煎(定西路店)","lon":"121.42413162","lat":"31.207243727","category":"68","category_name":"快餐厅","address":"长宁区定西路738号(近法华镇路)"},{"poiid":"B2094757D068A6F94998","title":"迎龙大厦","lon":"121.425102","lat":"31.209648","category":"46","category_name":"楼宇","address":"上海市徐汇区漕东支路218弄"},{"poiid":"B2094757D169A5F54492","title":"老盛兴苏州汤包馆(定西路店)","lon":"121.42411658","lat":"31.207330983","category":"257","category_name":"中餐厅","address":"长宁区定西路713号(近法华镇路)"},{"poiid":"B2094750D464A1F9489B","title":"翔记生蚝馆","lon":"121.423812","lat":"31.208801","category":"68","category_name":"快餐厅","address":"长宁区定西路786号(近延安西路)"},{"poiid":"B2094757DA6FA2FD4599","title":"向天歌烧鹅老铺(定西路店)","lon":"121.423988342286","lat":"31.2082134365825","category":"72","category_name":"广东菜","address":"长宁区定西路825号(近延安西路)"},{"poiid":"B2094757D168AAF54592","title":"定西路法华镇路","lon":"121.424320586","lat":"31.207522987","category":"500","category_name":"未知分类","address":"上海市长宁区延安西路"},{"poiid":"B2094757D06FA0FE4998","title":"85度C(法华店)","lon":"121.423762123","lat":"31.2064997643","category":"112","category_name":"糕饼店","address":"长宁区定西路657号1幢1楼A座(近法华镇路)"},{"poiid":"B2094757D068A2F94599","title":"野味打边炉","lon":"121.42418","lat":"31.20883","category":"86","category_name":"火锅店","address":"长宁区定西路791号(近延安西路)"},{"poiid":"B2094655D26FA6FA4299","title":"达安长宁公寓","lon":"121.42593","lat":"31.207365","category":"47","category_name":"住宅区","address":"定西路710弄83-105号"},{"poiid":"B2094655D264A4F84598","title":"红村热气羊肉火锅","lon":"121.42383","lat":"31.20808","category":"86","category_name":"火锅店","address":"长宁区定西路789号(近延安西路)"},{"poiid":"B2094757D064A0FB4093","title":"王记正宗潮汕砂锅粥","lon":"121.423796086","lat":"31.2087615112","category":"500","category_name":"未知分类","address":"上海长宁区定西路792号(近延安西路)"},{"poiid":"B2094757D065ABFC4593","title":"海贝幼儿园","lon":"121.424525","lat":"31.207245","category":"57","category_name":"幼儿园","address":"上海定西路720弄5号"},{"poiid":"B2094757D068A5FF499E","title":"老盛兴汤包馆(定西路店)","lon":"121.4242066","lat":"31.207481896","category":"247","category_name":"餐饮美食","address":"上海长宁区定西路713号"},{"poiid":"B2094654DB65A3F44992","title":"开伦酒店","lon":"121.42708","lat":"31.20674","category":"250","category_name":"公园户外","address":"长宁区番禺路222弄48号(近定西路)"},{"poiid":"B2094654D564A7F4409C","title":"新华商务大楼","lon":"121.42369","lat":"31.20681","category":"46","category_name":"楼宇","address":"浦东区崂山东路410号"},{"poiid":"B2094654D564A7F44292","title":"达安长宁公寓(南门)","lon":"121.42584","lat":"31.207","category":"47","category_name":"住宅区","address":"定西路710弄83-105号"},{"poiid":"B2094655D26FA6F4469C","title":"云阳花苑","lon":"121.42516","lat":"31.207327","category":"47","category_name":"住宅区","address":"定西路710弄59,63,67"},{"poiid":"B2094750DA6EA2FF499E","title":"Secret Garden","lon":"121.424865","lat":"31.207027","category":"247","category_name":"餐饮美食","address":null},{"poiid":"B2094753D164A4FB499A","title":"上海外滩美术馆","lon":"121.425281","lat":"31.207679","category":"500","category_name":"未知分类","address":"上海市 虎丘路20号"},{"poiid":"B2094654D564A7F4429B","title":"云阳花苑(南门)","lon":"121.42532","lat":"31.20704","category":"47","category_name":"住宅区","address":"定西路710弄59、63、67"},{"poiid":"B2094751D365A6F84499","title":"Noodle Chat 谈面馆","lon":"121.4251342","lat":"31.2060753","category":"247","category_name":"餐饮美食","address":"番禺路390号，近法华镇路"},{"poiid":"B2094655D265A5FF4198","title":"巴贝拉意式休闲餐厅(果留仙定西店)","lon":"121.42385","lat":"31.20739","category":"98","category_name":"意式菜品餐厅","address":"定西路713号1楼713-2"},{"poiid":"B2094753DA6FA4FA4299","title":"纽斯汗蒸","lon":"121.426811","lat":"31.207809","category":"148","category_name":"美容美发店","address":"上海市 长宁区天山路1900号"},{"poiid":"B2094654D564A7F4429F","title":"华佳斯","lon":"121.42567","lat":"31.20703","category":"172","category_name":"酒吧","address":""},{"poiid":"B209475CD76FA7FD4392","title":"田子坊","lon":"121.426704","lat":"31.205879","category":"500","category_name":"未知分类","address":"上海市 打浦桥"},{"poiid":"B2094750D76DA5FD479F","title":"宝禄寿司(定西路店)","lon":"121.424","lat":"31.2073","category":"95","category_name":"日本料理","address":"长宁区定西路709号(近法华镇路)"},{"poiid":"B2094654D564A7F4439B","title":"新华路派出所","lon":"121.42625","lat":"31.2053","category":"609","category_name":"警察局","address":"法华镇路475"},{"poiid":"B2094757D069A2F44492","title":"丰裕生煎(定西路店)","lon":"121.42423","lat":"31.20855","category":"68","category_name":"快餐厅","address":"长宁区定西路786号(近延安西路)"},{"poiid":"B2094655D26FA6FA429E","title":"今日丽园","lon":"121.42591","lat":"31.209179","category":"47","category_name":"住宅区","address":"上海市长宁区延安西路1328弄"},{"poiid":"B2094757D169A3FF4993","title":"法华文化陈列室","lon":"121.426389586","lat":"31.2068059729","category":"500","category_name":"未知分类","address":"上海法华镇路457号"},{"poiid":"B2094654DA6DA3FA469A","title":"重庆鸡公煲(番禺路)","lon":"121.42812","lat":"31.2068","category":"86","category_name":"火锅店","address":"长宁区淮海西路272号(近番禺路)"},{"poiid":"B2094654DB64AAFC4699","title":"潮汕砂锅粥定西店","lon":"121.42398","lat":"31.20874","category":"72","category_name":"广东菜","address":"长宁区定西路784号(近延安西路)"},{"poiid":"B2094757D06FAAFF4198","title":"鲜芋仙(定西店)","lon":"121.423583586","lat":"31.207216981","category":"67","category_name":"甜品店","address":"长宁区定西路713号-5(近法华镇路)"},{"poiid":"B2094757D06FA0FB4498","title":"上海交通大学安泰经济与管理学院","lon":"121.4250955","lat":"31.205555045","category":"260","category_name":"其他","address":"长宁区法华镇路535号上海交通大学内(近定西路)"},{"poiid":"B2094757D06FA0F4429B","title":"尚映仓","lon":"121.423841779","lat":"31.2077904638","category":"94","category_name":"西餐厅","address":"长宁区定西路739号甲(近延安西路)"},{"poiid":"B2094654D564A7FB469D","title":"潮汕砂锅粥馆 长宁总店","lon":"121.42324823256","lat":"31.2091744206","category":"72","category_name":"广东菜","address":"长宁区定西路805号(近延安西路)"},{"poiid":"B2094757D06EAAFC489A","title":"Kaiba(定西路店)","lon":"121.423710143","lat":"31.2080453965","category":"172","category_name":"酒吧","address":"长宁区定西路739号(近延安西路)"},{"poiid":"B2094757D069A3F8459A","title":"川堂风","lon":"121.424273186","lat":"31.2069221752","category":"71","category_name":"四川菜","address":"长宁区定西路685号(近法华镇路)"},{"poiid":"B2094750D464A0FA459C","title":"十面埋伏面馆定西路店","lon":"121.424087","lat":"31.208271","category":"247","category_name":"餐饮美食","address":"长宁区定西路795号(近延安西路)"},{"poiid":"B2094654DB6AA7F4469F","title":"SUS2 MUSIC BAR","lon":"121.42369","lat":"31.20681","category":"260","category_name":"其他","address":"上海长宁区定西路685号(近法华镇路)"},{"poiid":"B2094757D06FA3FD489B","title":"CS酒吧","lon":"121.42369079","lat":"31.206811904","category":"172","category_name":"酒吧","address":"长宁区定西路685号B1楼(近法华镇路)"},{"poiid":"B2094757D06FA7FD499D","title":"好友汇土菜馆","lon":"121.42397","lat":"31.20606","category":"76","category_name":"上海菜","address":"长宁区定西路657号2-3楼(近法华镇路)"},{"poiid":"B2094757D068A3F54299","title":"清风人家(定西路店)","lon":"121.42436","lat":"31.20813","category":"260","category_name":"其他","address":"长宁区定西路776号(近延安西路)"},{"poiid":"B2094757D06FA1F5419B","title":"九龙城(定西路店)","lon":"121.42415","lat":"31.20881","category":"72","category_name":"广东菜","address":"长宁区定西路782号(近延安西路)"},{"poiid":"B2094757D068A1F4459F","title":"番禺大厦","lon":"121.42756","lat":"31.20582","category":"46","category_name":"楼宇","address":"番禺大厦位于长宁番禺路222弄"},{"poiid":"B2094757D06FA5FD4892","title":"汤司令土灶煨汤馆(定西路店)","lon":"121.423787","lat":"31.208395","category":"260","category_name":"其他","address":"长宁区定西路799号(近延安西路)"},{"poiid":"B2094750D26CA6FD439B","title":"品潮阁潮汕砂锅粥","lon":"121.42476081848","lat":"31.208066616211","category":"72","category_name":"广东菜","address":"长宁区定西路796号(近延安西路)"},{"poiid":"B2094757D068A3FB429A","title":"柏崴桌球俱乐部","lon":"121.42432","lat":"31.20795","category":"171","category_name":"台球厅","address":"长宁区定西路738号裙楼3楼(近延安西路)"},{"poiid":"B2094757D069A1FD4193","title":"邓记传菜","lon":"121.42433","lat":"31.20789","category":"71","category_name":"四川菜","address":"长宁区定西路737号(近延安西路)"},{"poiid":"B2094757D46FA0F8489E","title":"兰庭砂锅粥","lon":"121.423947","lat":"31.209003","category":"72","category_name":"广东菜","address":"长宁区定西路790号(近延安西路)"},{"poiid":"B2094757D068AAF54098","title":"其鲜生煎(定西路店)","lon":"121.42413162","lat":"31.207243727","category":"68","category_name":"快餐厅","address":"长宁区定西路738号(近法华镇路)"},{"poiid":"B2094757D068A6F94998","title":"迎龙大厦","lon":"121.425102","lat":"31.209648","category":"46","category_name":"楼宇","address":"上海市徐汇区漕东支路218弄"},{"poiid":"B2094757D169A5F54492","title":"老盛兴苏州汤包馆(定西路店)","lon":"121.42411658","lat":"31.207330983","category":"257","category_name":"中餐厅","address":"长宁区定西路713号(近法华镇路)"},{"poiid":"B2094750D464A1F9489B","title":"翔记生蚝馆","lon":"121.423812","lat":"31.208801","category":"68","category_name":"快餐厅","address":"长宁区定西路786号(近延安西路)"},{"poiid":"B2094757DA6FA2FD4599","title":"向天歌烧鹅老铺(定西路店)","lon":"121.423988342286","lat":"31.2082134365825","category":"72","category_name":"广东菜","address":"长宁区定西路825号(近延安西路)"},{"poiid":"B2094757D168AAF54592","title":"定西路法华镇路","lon":"121.424320586","lat":"31.207522987","category":"500","category_name":"未知分类","address":"上海市长宁区延安西路"},{"poiid":"B2094757D06FA0FE4998","title":"85度C(法华店)","lon":"121.423762123","lat":"31.2064997643","category":"112","category_name":"糕饼店","address":"长宁区定西路657号1幢1楼A座(近法华镇路)"},{"poiid":"B2094757D068A2F94599","title":"野味打边炉","lon":"121.42418","lat":"31.20883","category":"86","category_name":"火锅店","address":"长宁区定西路791号(近延安西路)"},{"poiid":"B2094655D26FA6FA4299","title":"达安长宁公寓","lon":"121.42593","lat":"31.207365","category":"47","category_name":"住宅区","address":"定西路710弄83-105号"},{"poiid":"B2094655D264A4F84598","title":"红村热气羊肉火锅","lon":"121.42383","lat":"31.20808","category":"86","category_name":"火锅店","address":"长宁区定西路789号(近延安西路)"},{"poiid":"B2094757D064A0FB4093","title":"王记正宗潮汕砂锅粥","lon":"121.423796086","lat":"31.2087615112","category":"500","category_name":"未知分类","address":"上海长宁区定西路792号(近延安西路)"},{"poiid":"B2094757D065ABFC4593","title":"海贝幼儿园","lon":"121.424525","lat":"31.207245","category":"57","category_name":"幼儿园","address":"上海定西路720弄5号"},{"poiid":"B2094757D068A5FF499E","title":"老盛兴汤包馆(定西路店)","lon":"121.4242066","lat":"31.207481896","category":"247","category_name":"餐饮美食","address":"上海长宁区定西路713号"},{"poiid":"B2094654DB65A3F44992","title":"开伦酒店","lon":"121.42708","lat":"31.20674","category":"250","category_name":"公园户外","address":"长宁区番禺路222弄48号(近定西路)"},{"poiid":"B2094654D564A7F4409C","title":"新华商务大楼","lon":"121.42369","lat":"31.20681","category":"46","category_name":"楼宇","address":"浦东区崂山东路410号"},{"poiid":"B2094654D564A7F44292","title":"达安长宁公寓(南门)","lon":"121.42584","lat":"31.207","category":"47","category_name":"住宅区","address":"定西路710弄83-105号"},{"poiid":"B2094655D26FA6F4469C","title":"云阳花苑","lon":"121.42516","lat":"31.207327","category":"47","category_name":"住宅区","address":"定西路710弄59,63,67"},{"poiid":"B2094750DA6EA2FF499E","title":"Secret Garden","lon":"121.424865","lat":"31.207027","category":"247","category_name":"餐饮美食","address":null},{"poiid":"B2094753D164A4FB499A","title":"上海外滩美术馆","lon":"121.425281","lat":"31.207679","category":"500","category_name":"未知分类","address":"上海市 虎丘路20号"},{"poiid":"B2094654D564A7F4429B","title":"云阳花苑(南门)","lon":"121.42532","lat":"31.20704","category":"47","category_name":"住宅区","address":"定西路710弄59、63、67"},{"poiid":"B2094751D365A6F84499","title":"Noodle Chat 谈面馆","lon":"121.4251342","lat":"31.2060753","category":"247","category_name":"餐饮美食","address":"番禺路390号，近法华镇路"},{"poiid":"B2094655D265A5FF4198","title":"巴贝拉意式休闲餐厅(果留仙定西店)","lon":"121.42385","lat":"31.20739","category":"98","category_name":"意式菜品餐厅","address":"定西路713号1楼713-2"},{"poiid":"B2094753DA6FA4FA4299","title":"纽斯汗蒸","lon":"121.426811","lat":"31.207809","category":"148","category_name":"美容美发店","address":"上海市 长宁区天山路1900号"},{"poiid":"B2094654D564A7F4429F","title":"华佳斯","lon":"121.42567","lat":"31.20703","category":"172","category_name":"酒吧","address":""},{"poiid":"B209475CD76FA7FD4392","title":"田子坊","lon":"121.426704","lat":"31.205879","category":"500","category_name":"未知分类","address":"上海市 打浦桥"},{"poiid":"B2094750D76DA5FD479F","title":"宝禄寿司(定西路店)","lon":"121.424","lat":"31.2073","category":"95","category_name":"日本料理","address":"长宁区定西路709号(近法华镇路)"},{"poiid":"B2094654D564A7F4439B","title":"新华路派出所","lon":"121.42625","lat":"31.2053","category":"609","category_name":"警察局","address":"法华镇路475"},{"poiid":"B2094757D069A2F44492","title":"丰裕生煎(定西路店)","lon":"121.42423","lat":"31.20855","category":"68","category_name":"快餐厅","address":"长宁区定西路786号(近延安西路)"},{"poiid":"B2094655D26FA6FA429E","title":"今日丽园","lon":"121.42591","lat":"31.209179","category":"47","category_name":"住宅区","address":"上海市长宁区延安西路1328弄"},{"poiid":"B2094757D169A3FF4993","title":"法华文化陈列室","lon":"121.426389586","lat":"31.2068059729","category":"500","category_name":"未知分类","address":"上海法华镇路457号"},{"poiid":"B2094654DA6DA3FA469A","title":"重庆鸡公煲(番禺路)","lon":"121.42812","lat":"31.2068","category":"86","category_name":"火锅店","address":"长宁区淮海西路272号(近番禺路)"},{"poiid":"B2094654DB64AAFC4699","title":"潮汕砂锅粥定西店","lon":"121.42398","lat":"31.20874","category":"72","category_name":"广东菜","address":"长宁区定西路784号(近延安西路)"},{"poiid":"B2094757D06FAAFF4198","title":"鲜芋仙(定西店)","lon":"121.423583586","lat":"31.207216981","category":"67","category_name":"甜品店","address":"长宁区定西路713号-5(近法华镇路)"},{"poiid":"B2094757D06FA0FB4498","title":"上海交通大学安泰经济与管理学院","lon":"121.4250955","lat":"31.205555045","category":"260","category_name":"其他","address":"长宁区法华镇路535号上海交通大学内(近定西路)"},{"poiid":"B2094757D06FA0F4429B","title":"尚映仓","lon":"121.423841779","lat":"31.2077904638","category":"94","category_name":"西餐厅","address":"长宁区定西路739号甲(近延安西路)"},{"poiid":"B2094654D564A7FB469D","title":"潮汕砂锅粥馆 长宁总店","lon":"121.42324823256","lat":"31.2091744206","category":"72","category_name":"广东菜","address":"长宁区定西路805号(近延安西路)"},{"poiid":"B2094757D06EAAFC489A","title":"Kaiba(定西路店)","lon":"121.423710143","lat":"31.2080453965","category":"172","category_name":"酒吧","address":"长宁区定西路739号(近延安西路)"},{"poiid":"B2094757D069A3F8459A","title":"川堂风","lon":"121.424273186","lat":"31.2069221752","category":"71","category_name":"四川菜","address":"长宁区定西路685号(近法华镇路)"},{"poiid":"B2094750D464A0FA459C","title":"十面埋伏面馆定西路店","lon":"121.424087","lat":"31.208271","category":"247","category_name":"餐饮美食","address":"长宁区定西路795号(近延安西路)"},{"poiid":"B2094654DB6AA7F4469F","title":"SUS2 MUSIC BAR","lon":"121.42369","lat":"31.20681","category":"260","category_name":"其他","address":"上海长宁区定西路685号(近法华镇路)"},{"poiid":"B2094757D06FA3FD489B","title":"CS酒吧","lon":"121.42369079","lat":"31.206811904","category":"172","category_name":"酒吧","address":"长宁区定西路685号B1楼(近法华镇路)"},{"poiid":"B2094757D06FA7FD499D","title":"好友汇土菜馆","lon":"121.42397","lat":"31.20606","category":"76","category_name":"上海菜","address":"长宁区定西路657号2-3楼(近法华镇路)"},{"poiid":"B2094757D068A3F54299","title":"清风人家(定西路店)","lon":"121.42436","lat":"31.20813","category":"260","category_name":"其他","address":"长宁区定西路776号(近延安西路)"},{"poiid":"B2094757D06FA1F5419B","title":"九龙城(定西路店)","lon":"121.42415","lat":"31.20881","category":"72","category_name":"广东菜","address":"长宁区定西路782号(近延安西路)"},{"poiid":"B2094757D068A1F4459F","title":"番禺大厦","lon":"121.42756","lat":"31.20582","category":"46","category_name":"楼宇","address":"番禺大厦位于长宁番禺路222弄"},{"poiid":"B2094757D06FA5FD4892","title":"汤司令土灶煨汤馆(定西路店)","lon":"121.423787","lat":"31.208395","category":"260","category_name":"其他","address":"长宁区定西路799号(近延安西路)"},{"poiid":"B2094750D26CA6FD439B","title":"品潮阁潮汕砂锅粥","lon":"121.42476081848","lat":"31.208066616211","category":"72","category_name":"广东菜","address":"长宁区定西路796号(近延安西路)"},{"poiid":"B2094757D068A3FB429A","title":"柏崴桌球俱乐部","lon":"121.42432","lat":"31.20795","category":"171","category_name":"台球厅","address":"长宁区定西路738号裙楼3楼(近延安西路)"},{"poiid":"B2094757D069A1FD4193","title":"邓记传菜","lon":"121.42433","lat":"31.20789","category":"71","category_name":"四川菜","address":"长宁区定西路737号(近延安西路)"},{"poiid":"B2094757D46FA0F8489E","title":"兰庭砂锅粥","lon":"121.423947","lat":"31.209003","category":"72","category_name":"广东菜","address":"长宁区定西路790号(近延安西路)"},{"poiid":"B2094757D068AAF54098","title":"其鲜生煎(定西路店)","lon":"121.42413162","lat":"31.207243727","category":"68","category_name":"快餐厅","address":"长宁区定西路738号(近法华镇路)"},{"poiid":"B2094757D068A6F94998","title":"迎龙大厦","lon":"121.425102","lat":"31.209648","category":"46","category_name":"楼宇","address":"上海市徐汇区漕东支路218弄"},{"poiid":"B2094757D169A5F54492","title":"老盛兴苏州汤包馆(定西路店)","lon":"121.42411658","lat":"31.207330983","category":"257","category_name":"中餐厅","address":"长宁区定西路713号(近法华镇路)"},{"poiid":"B2094750D464A1F9489B","title":"翔记生蚝馆","lon":"121.423812","lat":"31.208801","category":"68","category_name":"快餐厅","address":"长宁区定西路786号(近延安西路)"},{"poiid":"B2094757DA6FA2FD4599","title":"向天歌烧鹅老铺(定西路店)","lon":"121.423988342286","lat":"31.2082134365825","category":"72","category_name":"广东菜","address":"长宁区定西路825号(近延安西路)"},{"poiid":"B2094757D168AAF54592","title":"定西路法华镇路","lon":"121.424320586","lat":"31.207522987","category":"500","category_name":"未知分类","address":"上海市长宁区延安西路"},{"poiid":"B2094757D06FA0FE4998","title":"85度C(法华店)","lon":"121.423762123","lat":"31.2064997643","category":"112","category_name":"糕饼店","address":"长宁区定西路657号1幢1楼A座(近法华镇路)"},{"poiid":"B2094757D068A2F94599","title":"野味打边炉","lon":"121.42418","lat":"31.20883","category":"86","category_name":"火锅店","address":"长宁区定西路791号(近延安西路)"},{"poiid":"B2094655D26FA6FA4299","title":"达安长宁公寓","lon":"121.42593","lat":"31.207365","category":"47","category_name":"住宅区","address":"定西路710弄83-105号"},{"poiid":"B2094655D264A4F84598","title":"红村热气羊肉火锅","lon":"121.42383","lat":"31.20808","category":"86","category_name":"火锅店","address":"长宁区定西路789号(近延安西路)"},{"poiid":"B2094757D064A0FB4093","title":"王记正宗潮汕砂锅粥","lon":"121.423796086","lat":"31.2087615112","category":"500","category_name":"未知分类","address":"上海长宁区定西路792号(近延安西路)"},{"poiid":"B2094757D065ABFC4593","title":"海贝幼儿园","lon":"121.424525","lat":"31.207245","category":"57","category_name":"幼儿园","address":"上海定西路720弄5号"},{"poiid":"B2094757D068A5FF499E","title":"老盛兴汤包馆(定西路店)","lon":"121.4242066","lat":"31.207481896","category":"247","category_name":"餐饮美食","address":"上海长宁区定西路713号"},{"poiid":"B2094654DB65A3F44992","title":"开伦酒店","lon":"121.42708","lat":"31.20674","category":"250","category_name":"公园户外","address":"长宁区番禺路222弄48号(近定西路)"},{"poiid":"B2094654D564A7F4409C","title":"新华商务大楼","lon":"121.42369","lat":"31.20681","category":"46","category_name":"楼宇","address":"浦东区崂山东路410号"},{"poiid":"B2094654D564A7F44292","title":"达安长宁公寓(南门)","lon":"121.42584","lat":"31.207","category":"47","category_name":"住宅区","address":"定西路710弄83-105号"},{"poiid":"B2094655D26FA6F4469C","title":"云阳花苑","lon":"121.42516","lat":"31.207327","category":"47","category_name":"住宅区","address":"定西路710弄59,63,67"},{"poiid":"B2094750DA6EA2FF499E","title":"Secret Garden","lon":"121.424865","lat":"31.207027","category":"247","category_name":"餐饮美食","address":null},{"poiid":"B2094753D164A4FB499A","title":"上海外滩美术馆","lon":"121.425281","lat":"31.207679","category":"500","category_name":"未知分类","address":"上海市 虎丘路20号"},{"poiid":"B2094654D564A7F4429B","title":"云阳花苑(南门)","lon":"121.42532","lat":"31.20704","category":"47","category_name":"住宅区","address":"定西路710弄59、63、67"},{"poiid":"B2094751D365A6F84499","title":"Noodle Chat 谈面馆","lon":"121.4251342","lat":"31.2060753","category":"247","category_name":"餐饮美食","address":"番禺路390号，近法华镇路"},{"poiid":"B2094655D265A5FF4198","title":"巴贝拉意式休闲餐厅(果留仙定西店)","lon":"121.42385","lat":"31.20739","category":"98","category_name":"意式菜品餐厅","address":"定西路713号1楼713-2"},{"poiid":"B2094753DA6FA4FA4299","title":"纽斯汗蒸","lon":"121.426811","lat":"31.207809","category":"148","category_name":"美容美发店","address":"上海市 长宁区天山路1900号"},{"poiid":"B2094654D564A7F4429F","title":"华佳斯","lon":"121.42567","lat":"31.20703","category":"172","category_name":"酒吧","address":""},{"poiid":"B209475CD76FA7FD4392","title":"田子坊","lon":"121.426704","lat":"31.205879","category":"500","category_name":"未知分类","address":"上海市 打浦桥"},{"poiid":"B2094750D76DA5FD479F","title":"宝禄寿司(定西路店)","lon":"121.424","lat":"31.2073","category":"95","category_name":"日本料理","address":"长宁区定西路709号(近法华镇路)"},{"poiid":"B2094654D564A7F4439B","title":"新华路派出所","lon":"121.42625","lat":"31.2053","category":"609","category_name":"警察局","address":"法华镇路475"},{"poiid":"B2094757D069A2F44492","title":"丰裕生煎(定西路店)","lon":"121.42423","lat":"31.20855","category":"68","category_name":"快餐厅","address":"长宁区定西路786号(近延安西路)"},{"poiid":"B2094655D26FA6FA429E","title":"今日丽园","lon":"121.42591","lat":"31.209179","category":"47","category_name":"住宅区","address":"上海市长宁区延安西路1328弄"},{"poiid":"B2094757D169A3FF4993","title":"法华文化陈列室","lon":"121.426389586","lat":"31.2068059729","category":"500","category_name":"未知分类","address":"上海法华镇路457号"},{"poiid":"B2094654DA6DA3FA469A","title":"重庆鸡公煲(番禺路)","lon":"121.42812","lat":"31.2068","category":"86","category_name":"火锅店","address":"长宁区淮海西路272号(近番禺路)"}]