[{"poiid":"B2094757D06FA2F5469F","title":"新华路","lon":"121.418994","lat":"31.205353","category":"260","category_name":"其他","address":"上海长宁区新华路"},{"poiid":"B2094757D068AAFE4598","title":"东华大学(延安路校区)体育馆","lon":"121.41717524","lat":"31.2047678154","category":"224","category_name":"综合体育馆","address":"上海长宁区延安西路1882号东华大学延安路校区"},{"poiid":"B2094757D064A3FA4798","title":"法华镇路","lon":"121.420724586","lat":"31.2067729723","category":"250","category_name":"公园户外","address":"上海市长宁区法华镇路"},{"poiid":"B2094757D06FA1FA499E","title":"东华大学四教","lon":"121.41704558","lat":"31.202897596","category":"253","category_name":"校园生活","address":"上海东华大学四教"},{"poiid":"B2094750D76FAAF54098","title":"Perry'sCafe","lon":"121.418","lat":"31.2048","category":"111","category_name":"休闲餐饮场所","address":"长宁区凯旋路1139号3楼(近凯旋路延安西路)"},{"poiid":"B2094757D168AAFD409F","title":"富贵面馆","lon":"121.41847898","lat":"31.20206718","category":"68","category_name":"快餐厅","address":"长宁区安顺路175号(近凯旋路)"},{"poiid":"B2094757D06BA1FB4698","title":"延安西路","lon":"121.418230986","lat":"31.2073979131","category":"500","category_name":"未知分类","address":"上海市长宁区中山西路"},{"poiid":"B2094757D16CA6FC469B","title":"小捞王涮涮锅","lon":"121.419352586","lat":"31.2031629017","category":"86","category_name":"火锅店","address":"长宁区凯旋路1272号(近安顺路)"},{"poiid":"B2094750DA68A5F44898","title":"80后","lon":"121.419776","lat":"31.20656","category":"76","category_name":"上海菜","address":"长宁区杨宅路55号(近新华路)"},{"poiid":"B2094757D068A6FC409C","title":"红宝石(新华路店)","lon":"121.420175932","lat":"31.2051427339","category":"67","category_name":"甜品店","address":"长宁区新华路660号万宝国际商务中心1楼"},{"poiid":"B2094757D068A2FC429F","title":"邱记潮汕砂锅粥","lon":"121.42002","lat":"31.20663","category":"72","category_name":"广东菜","address":"长宁区杨宅路51号(西法华市场对面)"},{"poiid":"B2094750D76DAAFB479B","title":"粉家柳州螺蛳粉","lon":"121.419","lat":"31.2062","category":"68","category_name":"快餐厅","address":"长宁区杨宅路83号(近新华路)"},{"poiid":"B2094757DB68A5F4439C","title":"云之缘 Lotus Eatery","lon":"121.41898","lat":"31.205733","category":"83","category_name":"云贵菜","address":"长宁区杨宅路85号(新华路和法华镇路之间)"},{"poiid":"B2094757D465A4FA429A","title":"新加坡万宝泰国鱼翅","lon":"121.419610054","lat":"31.205157793","category":"247","category_name":"餐饮美食","address":"长宁区新华路660号万宝大酒店2楼(近定西路)"},{"poiid":"B2094757D164A5FD489A","title":"L A club","lon":"121.418955086","lat":"31.2052974434","category":"500","category_name":"未知分类","address":"上海新华路699弄2号"},{"poiid":"B2094757D06FABF9449D","title":"億方砂锅粥(延安西路店)","lon":"121.41938","lat":"31.20801","category":"72","category_name":"广东菜","address":"长宁区延安西路1590号(近法华镇路)"},{"poiid":"B2094655D26DABFF429E","title":"莫泰168连锁旅店(凯旋路店)","lon":"121.41917","lat":"31.20297","category":"216","category_name":"经济型连锁酒店","address":"长宁区凯旋路1265号(近安顺路)"},{"poiid":"B2094654D564A5FD4993","title":"虹桥银城大厦","lon":"121.42","lat":"31.2073","category":"46","category_name":"楼宇","address":"上海长宁区中山西路933号(近安顺路)"},{"poiid":"B2094654D564A7F9459F","title":"小菜一碟","lon":"121.418769054","lat":"31.205440793","category":"68","category_name":"快餐厅","address":"长宁区杨宅路91号(近新华路)"},{"poiid":"B2094654D564A7F4469C","title":"申畅国际商务楼","lon":"121.41992","lat":"31.20543","category":"46","category_name":"楼宇","address":"浦东区崂山东路410号"},{"poiid":"B2094655D26FA5FD419A","title":"新华嘉利公寓","lon":"121.41903","lat":"31.205013","category":"47","category_name":"住宅区","address":"新华嘉利公寓(现房)位于长宁新华路699号"},{"poiid":"B2094654DB69A7F9489E","title":"新华别庄","lon":"121.41841","lat":"31.20527","category":"47","category_name":"住宅区","address":"长宁区新华路凯旋路口"},{"poiid":"B2094655D268A0FC4993","title":"宽巷子","lon":"121.419476054","lat":"31.206652793","category":"71","category_name":"四川菜","address":"长宁区杨宅路(近新华路)"},{"poiid":"B2094655D26FA7F44992","title":"新梅泉苑(北门)","lon":"121.41843","lat":"31.20534","category":"47","category_name":"住宅区","address":"新华路755"},{"poiid":"B2094655D264A7FC499E","title":"北京同仁堂老字号延安西路店","lon":"121.41816","lat":"31.20816","category":"255","category_name":"专卖店","address":"长宁区延安西路1672号(近凯旋路)"},{"poiid":"B2094654DB6AA0FC499A","title":"凯新苑","lon":"121.41824","lat":"31.205257","category":"47","category_name":"住宅区","address":"新华路755号"},{"poiid":"B2094751D06EA3FC429E","title":"泷轩御膳","lon":"121.419316","lat":"31.203704","category":"76","category_name":"上海菜","address":"长宁区凯旋路1183号(近杨宅路)"},{"poiid":"B2094654D564A6F5469A","title":"福龙","lon":"121.4179099389","lat":"31.204898835669","category":"247","category_name":"餐饮美食","address":"凯旋路1139号近新华路"},{"poiid":"B2094654D564A3FD499C","title":"云都虹桥大厦","lon":"121.419","lat":"31.2068","category":"46","category_name":"楼宇","address":"上海中山西路930号"},{"poiid":"B2094654DB65A1FD4393","title":"克丽缇娜(新华路)","lon":"121.41855","lat":"31.20574","category":"148","category_name":"美容美发店","address":"长宁区新华路722号(近凯旋路)"},{"poiid":"B2094750D26DA2F8419D","title":"知爱母婴专护中心","lon":"121.41734","lat":"31.206205","category":"252","category_name":"楼宇机构","address":"长宁区长宁区新华路563号(近定西路)"},{"poiid":"B2094757D66CA4F9449D","title":"Miyako Coffee","lon":"121.41809","lat":"31.20528","category":"260","category_name":"其他","address":"长宁区新华路722号(近凯旋路)"},{"poiid":"B2094757D06BA2FA4792","title":"稻野村居酒屋","lon":"121.41996168865","lat":"31.204821570077","category":"95","category_name":"日本料理","address":"长宁区新华路607号(近万宝大酒店)"},{"poiid":"B2094654DB65A1FF4192","title":"新华阳光豪庭","lon":"121.41882","lat":"31.204424","category":"47","category_name":"住宅区","address":"凯旋路1224号"},{"poiid":"B2094655D26FA5FD4692","title":"凯旋都市花园","lon":"121.41948","lat":"31.20418","category":"47","category_name":"住宅区","address":"上海市长宁区凯旋路1222弄"},{"poiid":"B2094655D26FA6FA4998","title":"新华世纪园","lon":"121.41859","lat":"31.206577","category":"47","category_name":"住宅区","address":"上海市长宁区新华路726号"},{"poiid":"B2094757D66FA1FB449F","title":"郁舫豆捞","lon":"121.41750345","lat":"31.205012228","category":"247","category_name":"餐饮美食","address":"石家庄长安区北国先天下广场6楼"},{"poiid":"B209475CD16CA1FF479D","title":"Aroma 百香西点","lon":"121.41985","lat":"31.2051","category":"67","category_name":"甜品店","address":"新华路683号(近杨宅路)"},{"poiid":"B2094654D564A7F4469F","title":"新华社区卫生服务中心(新华路)","lon":"121.41961","lat":"31.20541","category":"162","category_name":"医院","address":"新华路668"},{"poiid":"B2094757D16EA6F4499A","title":"厦门高崎国际机场2号登机口","lon":"121.416595019","lat":"31.2059495695","category":"21","category_name":"飞机场","address":"厦门高崎国际机场"},{"poiid":"B2094655D26EA7F8489E","title":"凯旋宫商务会所","lon":"121.41856","lat":"31.20407","category":"170","category_name":"KTV","address":"凯旋路1183"},{"poiid":"B2094750DB68A1FC4898","title":"perrys","lon":"121.41822","lat":"31.20462","category":"500","category_name":"未知分类","address":null},{"poiid":"B2094654DB64A6F44198","title":"美卡商务酒店","lon":"121.42028","lat":"31.20434","category":"214","category_name":"四星级宾馆","address":"上海市长宁区新华路643号(近定西路)"},{"poiid":"B2094757D16CA4F5449A","title":"粥全潮汕砂锅粥","lon":"121.41779258","lat":"31.20512794","category":"500","category_name":"未知分类","address":"上海梅川路1275"},{"poiid":"B2094750D164A3F4479A","title":"7天连锁酒店上海延安西路地铁站店","lon":"121.4201","lat":"31.2066","category":"216","category_name":"经济型连锁酒店","address":"上海长宁区杨宅路20号"},{"poiid":"B2094654D564A6F5459E","title":"可的(新华路)","lon":"121.42003","lat":"31.20497","category":"117","category_name":"便民商店/便利店","address":"长宁区新华路675号(新华路杨宅路)"},{"poiid":"B2094757D164A7F5489E","title":"东新支路光明便利店","lon":"121.418045044","lat":"31.2057418823","category":"500","category_name":"未知分类","address":"上海东新支路凯旋路口"},{"poiid":"B2094751D464A5F9449B","title":"LA Club","lon":"121.418536","lat":"31.204336","category":"248","category_name":"生活娱乐","address":"长宁区凯旋路1153号"},{"poiid":"B2094654D564A6F5479E","title":"东风都市工业园","lon":"121.4188","lat":"31.20369","category":"45","category_name":"产业园区","address":"凯旋路1205-1"},{"poiid":"B2094757D16CA6FE429F","title":"欧风培训中心","lon":"121.41797","lat":"31.205887","category":"253","category_name":"校园生活","address":"上海淮海中路755号新华联大厦新楼6楼"},{"poiid":"B2094757D06FA2F5469F","title":"新华路","lon":"121.418994","lat":"31.205353","category":"260","category_name":"其他","address":"上海长宁区新华路"},{"poiid":"B2094757D068AAFE4598","title":"东华大学(延安路校区)体育馆","lon":"121.41717524","lat":"31.2047678154","category":"224","category_name":"综合体育馆","address":"上海长宁区延安西路1882号东华大学延安路校区"},{"poiid":"B2094757D064A3FA4798","title":"法华镇路","lon":"121.420724586","lat":"31.2067729723","category":"250","category_name":"公园户外","address":"上海市长宁区法华镇路"},{"poiid":"B2094757D06FA1FA499E","title":"东华大学四教","lon":"121.41704558","lat":"31.202897596","category":"253","category_name":"校园生活","address":"上海东华大学四教"},{"poiid":"B2094750D76FAAF54098","title":"Perry'sCafe","lon":"121.418","lat":"31.2048","category":"111","category_name":"休闲餐饮场所","address":"长宁区凯旋路1139号3楼(近凯旋路延安西路)"},{"poiid":"B2094757D168AAFD409F","title":"富贵面馆","lon":"121.41847898","lat":"31.20206718","category":"68","category_name":"快餐厅","address":"长宁区安顺路175号(近凯旋路)"},{"poiid":"B2094757D06BA1FB4698","title":"延安西路","lon":"121.418230986","lat":"31.2073979131","category":"500","category_name":"未知分类","address":"上海市长宁区中山西路"},{"poiid":"B2094757D16CA6FC469B","title":"小捞王涮涮锅","lon":"121.419352586","lat":"31.2031629017","category":"86","category_name":"火锅店","address":"长宁区凯旋路1272号(近安顺路)"},{"poiid":"B2094750DA68A5F44898","title":"80后","lon":"121.419776","lat":"31.20656","category":"76","category_name":"上海菜","address":"长宁区杨宅路55号(近新华路)"},{"poiid":"B2094757D068A6FC409C","title":"红宝石(新华路店)","lon":"121.420175932","lat":"31.2051427339","category":"67","category_name":"甜品店","address":"长宁区新华路660号万宝国际商务中心1楼"},{"poiid":"B2094757D068A2FC429F","title":"邱记潮汕砂锅粥","lon":"121.42002","lat":"31.20663","category":"72","category_name":"广东菜","address":"长宁区杨宅路51号(西法华市场对面)"},{"poiid":"B2094750D76DAAFB479B","title":"粉家柳州螺蛳粉","lon":"121.419","lat":"31.2062","category":"68","category_name":"快餐厅","address":"长宁区杨宅路83号(近新华路)"},{"poiid":"B2094757DB68A5F4439C","title":"云之缘 Lotus Eatery","lon":"121.41898","lat":"31.205733","category":"83","category_name":"云贵菜","address":"长宁区杨宅路85号(新华路和法华镇路之间)"},{"poiid":"B2094757D465A4FA429A","title":"新加坡万宝泰国鱼翅","lon":"121.419610054","lat":"31.205157793","category":"247","category_name":"餐饮美食","address":"长宁区新华路660号万宝大酒店2楼(近定西路)"},{"poiid":"B2094757D164A5FD489A","title":"L A club","lon":"121.418955086","lat":"31.2052974434","category":"500","category_name":"未知分类","address":"上海新华路699弄2号"},{"poiid":"B2094757D06FABF9449D","title":"億方砂锅粥(延安西路店)","lon":"121.41938","lat":"31.20801","category":"72","category_name":"广东菜","address":"长宁区延安西路1590号(近法华镇路)"},{"poiid":"B2094655D26DABFF429E","title":"莫泰168连锁旅店(凯旋路店)","lon":"121.41917","lat":"31.20297","category":"216","category_name":"经济型连锁酒店","address":"长宁区凯旋路1265号(近安顺路)"},{"poiid":"B2094654D564A5FD4993","title":"虹桥银城大厦","lon":"121.42","lat":"31.2073","category":"46","category_name":"楼宇","address":"上海长宁区中山西路933号(近安顺路)"},{"poiid":"B2094654D564A7F9459F","title":"小菜一碟","lon":"121.418769054","lat":"31.205440793","category":"68","category_name":"快餐厅","address":"长宁区杨宅路91号(近新华路)"},{"poiid":"B2094654D564A7F4469C","title":"申畅国际商务楼","lon":"121.41992","lat":"31.20543","category":"46","category_name":"楼宇","address":"浦东区崂山东路410号"},{"poiid":"B2094655D26FA5FD419A","title":"新华嘉利公寓","lon":"121.41903","lat":"31.205013","category":"47","category_name":"住宅区","address":"新华嘉利公寓(现房)位于长宁新华路699号"},{"poiid":"B2094654DB69A7F9489E","title":"新华别庄","lon":"121.41841","lat":"31.20527","category":"47","category_name":"住宅区","address":"长宁区新华路凯旋路口"},{"poiid":"B2094655D268A0FC4993","title":"宽巷子","lon":"121.419476054","lat":"31.206652793","category":"71","category_name":"四川菜","address":"长宁区杨宅路(近新华路)"},{"poiid":"B2094655D26FA7F44992","title":"新梅泉苑(北门)","lon":"121.41843","lat":"31.20534","category":"47","category_name":"住宅区","address":"新华路755"},{"poiid":"B2094655D264A7FC499E","title":"北京同仁堂老字号延安西路店","lon":"121.41816","lat":"31.20816","category":"255","category_name":"专卖店","address":"长宁区延安西路1672号(近凯旋路)"},{"poiid":"B2094654DB6AA0FC499A","title":"凯新苑","lon":"121.41824","lat":"31.205257","category":"47","category_name":"住宅区","address":"新华路755号"},{"poiid":"B2094751D06EA3FC429E","title":"泷轩御膳","lon":"121.419316","lat":"31.203704","category":"76","category_name":"上海菜","address":"长宁区凯旋路1183号(近杨宅路)"},{"poiid":"B2094654D564A6F5469A","title":"福龙","lon":"121.4179099389","lat":"31.204898835669","category":"247","category_name":"餐饮美食","address":"凯旋路1139号近新华路"},{"poiid":"B2094654D564A3FD499C","title":"云都虹桥大厦","lon":"121.419","lat":"31.2068","category":"46","category_name":"楼宇","address":"上海中山西路930号"},{"poiid":"B2094654DB65A1FD4393","title":"克丽缇娜(新华路)","lon":"121.41855","lat":"31.20574","category":"148","category_name":"美容美发店","address":"长宁区新华路722号(近凯旋路)"},{"poiid":"B2094750D26DA2F8419D","title":"知爱母婴专护中心","lon":"121.41734","lat":"31.206205","category":"252","category_name":"楼宇机构","address":"长宁区长宁区新华路563号(近定西路)"},{"poiid":"B2094757D66CA4F9449D","title":"Miyako Coffee","lon":"121.41809","lat":"31.20528","category":"260","category_name":"其他","address":"长宁区新华路722号(近凯旋路)"},{"poiid":"B2094757D06BA2FA4792","title":"稻野村居酒屋","lon":"121.41996168865","lat":"31.204821570077","category":"95","category_name":"日本料理","address":"长宁区新华路607号(近万宝大酒店)"},{"poiid":"B2094654DB65A1FF4192","title":"新华阳光豪庭","lon":"121.41882","lat":"31.204424","category":"47","category_name":"住宅区","address":"凯旋路1224号"},{"poiid":"B2094655D26FA5FD4692","title":"凯旋都市花园","lon":"121.41948","lat":"31.20418","category":"47","category_name":"住宅区","address":"上海市长宁区凯旋路1222弄"},{"poiid":"B2094655D26FA6FA4998","title":"新华世纪园","lon":"121.41859","lat":"31.206577","category":"47","category_name":"住宅区","address":"上海市长宁区新华路726号"},{"poiid":"B2094757D66FA1FB449F","title":"郁舫豆捞","lon":"121.41750345","lat":"31.205012228","category":"247","category_name":"餐饮美食","address":"石家庄长安区北国先天下广场6楼"},{"poiid":"B209475CD16CA1FF479D","title":"Aroma 百香西点","lon":"121.41985","lat":"31.2051","category":"67","category_name":"甜品店","address":"新华路683号(近杨宅路)"},{"poiid":"B2094654D564A7F4469F","title":"新华社区卫生服务中心(新华路)","lon":"121.41961","lat":"31.20541","category":"162","category_name":"医院","address":"新华路668"},{"poiid":"B2094757D16EA6F4499A","title":"厦门高崎国际机场2号登机口","lon":"121.416595019","lat":"31.2059495695","category":"21","category_name":"飞机场","address":"厦门高崎国际机场"},{"poiid":"B2094655D26EA7F8489E","title":"凯旋宫商务会所","lon":"121.41856","lat":"31.20407","category":"170","category_name":"KTV","address":"凯旋路1183"},{"poiid":"B2094750DB68A1FC4898","title":"perrys","lon":"121.41822","lat":"31.20462","category":"500","category_name":"未知分类","address":null},{"poiid":"B2094654DB64A6F44198","title":"美卡商务酒店","lon":"121.42028","lat":"31.20434","category":"214","category_name":"四星级宾馆","address":"上海市长宁区新华路643号(近定西路)"},{"poiid":"B2094757D16CA4F5449A","title":"粥全潮汕砂锅粥","lon":"121.41779258","lat":"31.20512794","category":"500","category_name":"未知分类","address":"上海梅川路1275"},{"poiid":"B2094750D164A3F4479A","title":"7天连锁酒店上海延安西路地铁站店","lon":"121.4201","lat":"31.2066","category":"216","category_name":"经济型连锁酒店","address":"上海长宁区杨宅路20号"},{"poiid":"B2094654D564A6F5459E","title":"可的(新华路)","lon":"121.42003","lat":"31.20497","category":"117","category_name":"便民商店/便利店","address":"长宁区新华路675号(新华路杨宅路)"},{"poiid":"B2094757D164A7F5489E","title":"东新支路光明便利店","lon":"121.418045044","lat":"31.2057418823","category":"500","category_name":"未知分类","address":"上海东新支路凯旋路口"},{"poiid":"B2094751D464A5F9449B","title":"LA Club","lon":"121.418536","lat":"31.204336","category":"248","category_name":"生活娱乐","address":"长宁区凯旋路1153号"},{"poiid":"B2094654D564A6F5479E","title":"东风都市工业园","lon":"121.4188","lat":"31.20369","category":"45","category_name":"产业园区","address":"凯旋路1205-1"},{"poiid":"B2094757D16CA6FE429F","title":"欧风培训中心","lon":"121.41797","lat":"31.205887","category":"253","category_name":"校园生活","address":"上海淮海中路755号新华联大厦新楼6楼"},{"poiid":"B2094757D06FA2F5469F","title":"新华路","lon":"121.418994","lat":"31.205353","category":"260","category_name":"其他","address":"上海长宁区新华路"},{"poiid":"B2094757D068AAFE4598","title":"东华大学(延安路校区)体育馆","lon":"121.41717524","lat":"31.2047678154","category":"224","category_name":"综合体育馆","address":"上海长宁区延安西路1882号东华大学延安路校区"},{"poiid":"B2094757D064A3FA4798","title":"法华镇路","lon":"121.420724586","lat":"31.2067729723","category":"250","category_name":"公园户外","address":"上海市长宁区法华镇路"},{"poiid":"B2094757D06FA1FA499E","title":"东华大学四教","lon":"121.41704558","lat":"31.202897596","category":"253","category_name":"校园生活","address":"上海东华大学四教"},{"poiid":"B2094750D76FAAF54098","title":"Perry'sCafe","lon":"121.418","lat":"31.2048","category":"111","category_name":"休闲餐饮场所","address":"长宁区凯旋路1139号3楼(近凯旋路延安西路)"},{"poiid":"B2094757D168AAFD409F","title":"富贵面馆","lon":"121.41847898","lat":"31.20206718","category":"68","category_name":"快餐厅","address":"长宁区安顺路175号(近凯旋路)"},{"poiid":"B2094757D06BA1FB4698","title":"延安西路","lon":"121.418230986","lat":"31.2073979131","category":"500","category_name":"未知分类","address":"上海市长宁区中山西路"},{"poiid":"B2094757D16CA6FC469B","title":"小捞王涮涮锅","lon":"121.419352586","lat":"31.2031629017","category":"86","category_name":"火锅店","address":"长宁区凯旋路1272号(近安顺路)"},{"poiid":"B2094750DA68A5F44898","title":"80后","lon":"121.419776","lat":"31.20656","category":"76","category_name":"上海菜","address":"长宁区杨宅路55号(近新华路)"},{"poiid":"B2094757D068A6FC409C","title":"红宝石(新华路店)","lon":"121.420175932","lat":"31.2051427339","category":"67","category_name":"甜品店","address":"长宁区新华路660号万宝国际商务中心1楼"},{"poiid":"B2094757D068A2FC429F","title":"邱记潮汕砂锅粥","lon":"121.42002","lat":"31.20663","category":"72","category_name":"广东菜","address":"长宁区杨宅路51号(西法华市场对面)"},{"poiid":"B2094750D76DAAFB479B","title":"粉家柳州螺蛳粉","lon":"121.419","lat":"31.2062","category":"68","category_name":"快餐厅","address":"长宁区杨宅路83号(近新华路)"},{"poiid":"B2094757DB68A5F4439C","title":"云之缘 Lotus Eatery","lon":"121.41898","lat":"31.205733","category":"83","category_name":"云贵菜","address":"长宁区杨宅路85号(新华路和法华镇路之间)"},{"poiid":"B2094757D465A4FA429A","title":"新加坡万宝泰国鱼翅","lon":"121.419610054","lat":"31.205157793","category":"247","category_name":"餐饮美食","address":"长宁区新华路660号万宝大酒店2楼(近定西路)"},{"poiid":"B2094757D164A5FD489A","title":"L A club","lon":"121.418955086","lat":"31.2052974434","category":"500","category_name":"未知分类","address":"上海新华路699弄2号"},{"poiid":"B2094757D06FABF9449D","title":"億方砂锅粥(延安西路店)","lon":"121.41938","lat":"31.20801","category":"72","category_name":"广东菜","address":"长宁区延安西路1590号(近法华镇路)"},{"poiid":"B2094655D26DABFF429E","title":"莫泰168连锁旅店(凯旋路店)","lon":"121.41917","lat":"31.20297","category":"216","category_name":"经济型连锁酒店","address":"长宁区凯旋路1265号(近安顺路)"},{"poiid":"B2094654D564A5FD4993","title":"虹桥银城大厦","lon":"121.42","lat":"31.2073","category":"46","category_name":"楼宇","address":"上海长宁区中山西路933号(近安顺路)"},{"poiid":"B2094654D564A7F9459F","title":"小菜一碟","lon":"121.418769054","lat":"31.205440793","category":"68","category_name":"快餐厅","address":"长宁区杨宅路91号(近新华路)"},{"poiid":"B2094654D564A7F4469C","title":"申畅国际商务楼","lon":"121.41992","lat":"31.20543","category":"46","category_name":"楼宇","address":"浦东区崂山东路410号"},{"poiid":"B2094655D26FA5FD419A","title":"新华嘉利公寓","lon":"121.41903","lat":"31.205013","category":"47","category_name":"住宅区","address":"新华嘉利公寓(现房)位于长宁新华路699号"},{"poiid":"B2094654DB69A7F9489E","title":"新华别庄","lon":"121.41841","lat":"31.20527","category":"47","category_name":"住宅区","address":"长宁区新华路凯旋路口"},{"poiid":"B2094655D268A0FC4993","title":"宽巷子","lon":"121.419476054","lat":"31.206652793","category":"71","category_name":"四川菜","address":"长宁区杨宅路(近新华路)"},{"poiid":"B2094655D26FA7F44992","title":"新梅泉苑(北门)","lon":"121.41843","lat":"31.20534","category":"47","category_name":"住宅区","address":"新华路755"},{"poiid":"B2094655D264A7FC499E","title":"北京同仁堂老字号延安西路店","lon":"121.41816","lat":"31.20816","category":"255","category_name":"专卖店","address":"长宁区延安西路1672号(近凯旋路)"},{"poiid":"B2094654DB6AA0FC499A","title":"凯新苑","lon":"121.41824","lat":"31.205257","category":"47","category_name":"住宅区","address":"新华路755号"},{"poiid":"B2094751D06EA3FC429E","title":"泷轩御膳","lon":"121.419316","lat":"31.203704","category":"76","category_name":"上海菜","address":"长宁区凯旋路1183号(近杨宅路)"},{"poiid":"B2094654D564A6F5469A","title":"福龙","lon":"121.4179099389","lat":"31.204898835669","category":"247","category_name":"餐饮美食","address":"凯旋路1139号近新华路"},{"poiid":"B2094654D564A3FD499C","title":"云都虹桥大厦","lon":"121.419","lat":"31.2068","category":"46","category_name":"楼宇","address":"上海中山西路930号"},{"poiid":"B2094654DB65A1FD4393","title":"克丽缇娜(新华路)","lon":"121.41855","lat":"31.20574","category":"148","category_name":"美容美发店","address":"长宁区新华路722号(近凯旋路)"},{"poiid":"B2094750D26DA2F8419D","title":"知爱母婴专护中心","lon":"121.41734","lat":"31.206205","category":"252","category_name":"楼宇机构","address":"长宁区长宁区新华路563号(近定西路)"},{"poiid":"B2094757D66CA4F9449D","title":"Miyako Coffee","lon":"121.41809","lat":"31.20528","category":"260","category_name":"其他","address":"长宁区新华路722号(近凯旋路)"},{"poiid":"B2094757D06BA2FA4792","title":"稻野村居酒屋","lon":"121.41996168865","lat":"31.204821570077","category":"95","category_name":"日本料理","address":"长宁区新华路607号(近万宝大酒店)"},{"poiid":"B2094654DB65A1FF4192","title":"新华阳光豪庭","lon":"121.41882","lat":"31.204424","category":"47","category_name":"住宅区","address":"凯旋路1224号"},{"poiid":"B2094655D26FA5FD4692","title":"凯旋都市花园","lon":"121.41948","lat":"31.20418","category":"47","category_name":"住宅区","address":"上海市长宁区凯旋路1222弄"},{"poiid":"B2094655D26FA6FA4998","title":"新华世纪园","lon":"121.41859","lat":"31.206577","category":"47","category_name":"住宅区","address":"上海市长宁区新华路726号"},{"poiid":"B2094757D66FA1FB449F","title":"郁舫豆捞","lon":"121.41750345","lat":"31.205012228","category":"247","category_name":"餐饮美食","address":"石家庄长安区北国先天下广场6楼"},{"poiid":"B209475CD16CA1FF479D","title":"Aroma 百香西点","lon":"121.41985","lat":"31.2051","category":"67","category_name":"甜品店","address":"新华路683号(近杨宅路)"},{"poiid":"B2094654D564A7F4469F","title":"新华社区卫生服务中心(新华路)","lon":"121.41961","lat":"31.20541","category":"162","category_name":"医院","address":"新华路668"},{"poiid":"B2094757D16EA6F4499A","title":"厦门高崎国际机场2号登机口","lon":"121.416595019","lat":"31.2059495695","category":"21","category_name":"飞机场","address":"厦门高崎国际机场"},{"poiid":"B2094655D26EA7F8489E","title":"凯旋宫商务会所","lon":"121.41856","lat":"31.20407","category":"170","category_name":"KTV","address":"凯旋路1183"},{"poiid":"B2094750DB68A1FC4898","title":"perrys","lon":"121.41822","lat":"31.20462","category":"500","category_name":"未知分类","address":null},{"poiid":"B2094654DB64A6F44198","title":"美卡商务酒店","lon":"121.42028","lat":"31.20434","category":"214","category_name":"四星级宾馆","address":"上海市长宁区新华路643号(近定西路)"},{"poiid":"B2094757D16CA4F5449A","title":"粥全潮汕砂锅粥","lon":"121.41779258","lat":"31.20512794","category":"500","category_name":"未知分类","address":"上海梅川路1275"},{"poiid":"B2094750D164A3F4479A","title":"7天连锁酒店上海延安西路地铁站店","lon":"121.4201","lat":"31.2066","category":"216","category_name":"经济型连锁酒店","address":"上海长宁区杨宅路20号"},{"poiid":"B2094654D564A6F5459E","title":"可的(新华路)","lon":"121.42003","lat":"31.20497","category":"117","category_name":"便民商店/便利店","address":"长宁区新华路675号(新华路杨宅路)"},{"poiid":"B2094757D164A7F5489E","title":"东新支路光明便利店","lon":"121.418045044","lat":"31.2057418823","category":"500","category_name":"未知分类","address":"上海东新支路凯旋路口"},{"poiid":"B2094751D464A5F9449B","title":"LA Club","lon":"121.418536","lat":"31.204336","category":"248","category_name":"生活娱乐","address":"长宁区凯旋路1153号"},{"poiid":"B2094654D564A6F5479E","title":"东风都市工业园","lon":"121.4188","lat":"31.20369","category":"45","category_name":"产业园区","address":"凯旋路1205-1"},{"poiid":"B2094757D16CA6FE429F","title":"欧风培训中心","lon":"121.41797","lat":"31.205887","category":"253","category_name":"校园生活","address":"上海淮海中路755号新华联大厦新楼6楼"},{"poiid":"B2094757D06FA2F5469F","title":"新华路","lon":"121.418994","lat":"31.205353","category":"260","category_name":"其他","address":"上海长宁区新华路"},{"poiid":"B2094757D068AAFE4598","title":"东华大学(延安路校区)体育馆","lon":"121.41717524","lat":"31.2047678154","category":"224","category_name":"综合体育馆","address":"上海长宁区延安西路1882号东华大学延安路校区"},{"poiid":"B2094757D064A3FA4798","title":"法华镇路","lon":"121.420724586","lat":"31.2067729723","category":"250","category_name":"公园户外","address":"上海市长宁区法华镇路"},{"poiid":"B2094757D06FA1FA499E","title":"东华大学四教","lon":"121.41704558","lat":"31.202897596","category":"253","category_name":"校园生活","address":"上海东华大学四教"},{"poiid":"B2094750D76FAAF54098","title":"Perry'sCafe","lon":"121.418","lat":"31.2048","category":"111","category_name":"休闲餐饮场所","address":"长宁区凯旋路1139号3楼(近凯旋路延安西路)"},{"poiid":"B2094757D168AAFD409F","title":"富贵面馆","lon":"121.41847898","lat":"31.20206718","category":"68","category_name":"快餐厅","address":"长宁区安顺路175号(近凯旋路)"},{"poiid":"B2094757D06BA1FB4698","title":"延安西路","lon":"121.418230986","lat":"31.2073979131","category":"500","category_name":"未知分类","address":"上海市长宁区中山西路"},{"poiid":"B2094757D16CA6FC469B","title":"小捞王涮涮锅","lon":"121.419352586","lat":"31.2031629017","category":"86","category_name":"火锅店","address":"长宁区凯旋路1272号(近安顺路)"},{"poiid":"B2094750DA68A5F44898","title":"80后","lon":"121.419776","lat":"31.20656","category":"76","category_name":"上海菜","address":"长宁区杨宅路55号(近新华路)"},{"poiid":"B2094757D068A6FC409C","title":"红宝石(新华路店)","lon":"121.420175932","lat":"31.2051427339","category":"67","category_name":"甜品店","address":"长宁区新华路660号万宝国际商务中心1楼"},{"poiid":"B2094757D068A2FC429F","title":"邱记潮汕砂锅粥","lon":"121.42002","lat":"31.20663","category":"72","category_name":"广东菜","address":"长宁区杨宅路51号(西法华市场对面)"},{"poiid":"B2094750D76DAAFB479B","title":"粉家柳州螺蛳粉","lon":"121.419","lat":"31.2062","category":"68","category_name":"快餐厅","address":"长宁区杨宅路83号(近新华路)"},{"poiid":"B2094757DB68A5F4439C","title":"云之缘 Lotus Eatery","lon":"121.41898","lat":"31.205733","category":"83","category_name":"云贵菜","address":"长宁区杨宅路85号(新华路和法华镇路之间)"},{"poiid":"B2094757D465A4FA429A","title":"新加坡万宝泰国鱼翅","lon":"121.419610054","lat":"31.205157793","category":"247","category_name":"餐饮美食","address":"长宁区新华路660号万宝大酒店2楼(近定西路)"},{"poiid":"B2094757D164A5FD489A","title":"L A club","lon":"121.418955086","lat":"31.2052974434","category":"500","category_name":"未知分类","address":"上海新华路699弄2号"},{"poiid":"B2094757D06FABF9449D","title":"億方砂锅粥(延安西路店)","lon":"121.41938","lat":"31.20801","category":"72","category_name":"广东菜","address":"长宁区延安西路1590号(近法华镇路)"},{"poiid":"B2094655D26DABFF429E","title":"莫泰168连锁旅店(凯旋路店)","lon":"121.41917","lat":"31.20297","category":"216","category_name":"经济型连锁酒店","address":"长宁区凯旋路1265号(近安顺路)"},{"poiid":"B2094654D564A5FD4993","title":"虹桥银城大厦","lon":"121.42","lat":"31.2073","category":"46","category_name":"楼宇","address":"上海长宁区中山西路933号(近安顺路)"},{"poiid":"B2094654D564A7F9459F","title":"小菜一碟","lon":"121.418769054","lat":"31.205440793","category":"68","category_name":"快餐厅","address":"长宁区杨宅路91号(近新华路)"},{"poiid":"B2094654D564A7F4469C","title":"申畅国际商务楼","lon":"121.41992","lat":"31.20543","category":"46","category_name":"楼宇","address":"浦东区崂山东路410号"},{"poiid":"B2094655D26FA5FD419A","title":"新华嘉利公寓","lon":"121.41903","lat":"31.205013","category":"47","category_name":"住宅区","address":"新华嘉利公寓(现房)位于长宁新华路699号"},{"poiid":"B2094654DB69A7F9489E","title":"新华别庄","lon":"121.41841","lat":"31.20527","category":"47","category_name":"住宅区","address":"长宁区新华路凯旋路口"},{"poiid":"B2094655D268A0FC4993","title":"宽巷子","lon":"121.419476054","lat":"31.206652793","category":"71","category_name":"四川菜","address":"长宁区杨宅路(近新华路)"},{"poiid":"B2094655D26FA7F44992","title":"新梅泉苑(北门)","lon":"121.41843","lat":"31.20534","category":"47","category_name":"住宅区","address":"新华路755"},{"poiid":"B2094655D264A7FC499E","title":"北京同仁堂老字号延安西路店","lon":"121.41816","lat":"31.20816","category":"255","category_name":"专卖店","address":"长宁区延安西路1672号(近凯旋路)"},{"poiid":"B2094654DB6AA0FC499A","title":"凯新苑","lon":"121.41824","lat":"31.205257","category":"47","category_name":"住宅区","address":"新华路755号"},{"poiid":"B2094751D06EA3FC429E","title":"泷轩御膳","lon":"121.419316","lat":"31.203704","category":"76","category_name":"上海菜","address":"长宁区凯旋路1183号(近杨宅路)"},{"poiid":"B2094654D564A6F5469A","title":"福龙","lon":"121.4179099389","lat":"31.204898835669","category":"247","category_name":"餐饮美食","address":"凯旋路1139号近新华路"},{"poiid":"B2094654D564A3FD499C","title":"云都虹桥大厦","lon":"121.419","lat":"31.2068","category":"46","category_name":"楼宇","address":"上海中山西路930号"},{"poiid":"B2094654DB65A1FD4393","title":"克丽缇娜(新华路)","lon":"121.41855","lat":"31.20574","category":"148","category_name":"美容美发店","address":"长宁区新华路722号(近凯旋路)"},{"poiid":"B2094750D26DA2F8419D","title":"知爱母婴专护中心","lon":"121.41734","lat":"31.206205","category":"252","category_name":"楼宇机构","address":"长宁区长宁区新华路563号(近定西路)"},{"poiid":"B2094757D66CA4F9449D","title":"Miyako Coffee","lon":"121.41809","lat":"31.20528","category":"260","category_name":"其他","address":"长宁区新华路722号(近凯旋路)"},{"poiid":"B2094757D06BA2FA4792","title":"稻野村居酒屋","lon":"121.41996168865","lat":"31.204821570077","category":"95","category_name":"日本料理","address":"长宁区新华路607号(近万宝大酒店)"},{"poiid":"B2094654DB65A1FF4192","title":"新华阳光豪庭","lon":"121.41882","lat":"31.204424","category":"47","category_name":"住宅区","address":"凯旋路1224号"},{"poiid":"B2094655D26FA5FD4692","title":"凯旋都市花园","lon":"121.41948","lat":"31.20418","category":"47","category_name":"住宅区","address":"上海市长宁区凯旋路1222弄"},{"poiid":"B2094655D26FA6FA4998","title":"新华世纪园","lon":"121.41859","lat":"31.206577","category":"47","category_name":"住宅区","address":"上海市长宁区新华路726号"},{"poiid":"B2094757D66FA1FB449F","title":"郁舫豆捞","lon":"121.41750345","lat":"31.205012228","category":"247","category_name":"餐饮美食","address":"石家庄长安区北国先天下广场6楼"},{"poiid":"B209475CD16CA1FF479D","title":"Aroma 百香西点","lon":"121.41985","lat":"31.2051","category":"67","category_name":"甜品店","address":"新华路683号(近杨宅路)"},{"poiid":"B2094654D564A7F4469F","title":"新华社区卫生服务中心(新华路)","lon":"121.41961","lat":"31.20541","category":"162","category_name":"医院","address":"新华路668"},{"poiid":"B2094757D16EA6F4499A","title":"厦门高崎国际机场2号登机口","lon":"121.416595019","lat":"31.2059495695","category":"21","category_name":"飞机场","address":"厦门高崎国际机场"},{"poiid":"B2094655D26EA7F8489E","title":"凯旋宫商务会所","lon":"121.41856","lat":"31.20407","category":"170","category_name":"KTV","address":"凯旋路1183"},{"poiid":"B2094750DB68A1FC4898","title":"perrys","lon":"121.41822","lat":"31.20462","category":"500","category_name":"未知分类","address":null},{"poiid":"B2094654DB64A6F44198","title":"美卡商务酒店","lon":"121.42028","lat":"31.20434","category":"214","category_name":"四星级宾馆","address":"上海市长宁区新华路643号(近定西路)"},{"poiid":"B2094757D16CA4F5449A","title":"粥全潮汕砂锅粥","lon":"121.41779258","lat":"31.20512794","category":"500","category_name":"未知分类","address":"上海梅川路1275"},{"poiid":"B2094750D164A3F4479A","title":"7天连锁酒店上海延安西路地铁站店","lon":"121.4201","lat":"31.2066","category":"216","category_name":"经济型连锁酒店","address":"上海长宁区杨宅路20号"},{"poiid":"B2094654D564A6F5459E","title":"可的(新华路)","lon":"121.42003","lat":"31.20497","category":"117","category_name":"便民商店/便利店","address":"长宁区新华路675号(新华路杨宅路)"},{"poiid":"B2094757D164A7F5489E","title":"东新支路光明便利店","lon":"121.418045044","lat":"31.2057418823","category":"500","category_name":"未知分类","address":"上海东新支路凯旋路口"},{"poiid":"B2094751D464A5F9449B","title":"LA Club","lon":"121.418536","lat":"31.204336","category":"248","category_name":"生活娱乐","address":"长宁区凯旋路1153号"},{"poiid":"B2094654D564A6F5479E","title":"东风都市工业园","lon":"121.4188","lat":"31.20369","category":"45","category_name":"产业园区","address":"凯旋路1205-1"},{"poiid":"B2094757D16CA6FE429F","title":"欧风培训中心","lon":"121.41797","lat":"31.205887","category":"253","category_name":"校园生活","address":"上海淮海中路755号新华联大厦新楼6楼"}]