[{"poiid":"B2094757D069A4F84393","title":"东方菲尼克斯国际乡村俱乐部","lon":"121.02136","lat":"30.95776","category":"260","category_name":"其他","address":"青浦区蒸淀镇老朱枫公路6800弄青浦现代农业园区168号(近枫泾古镇)"},{"poiid":"B2094757D16EA2FF459F","title":"蒸淀镇","lon":"121.026599","lat":"30.975898","category":"500","category_name":"未知分类","address":"上海青浦区蒸淀镇"},{"poiid":"B2094655D36DA7FF429E","title":"蒸淀","lon":"121.02871","lat":"30.9712","category":"38","category_name":"公交车站","address":""},{"poiid":"B2094654DB6FABFC4292","title":"上海富民羊毛衫市场","lon":"121.02785","lat":"30.97175","category":"141","category_name":"服装鞋帽皮具店","address":""},{"poiid":"B2094655D36DA7FF4292","title":"蒸俞路菱浜村","lon":"121.02324","lat":"30.97138","category":"38","category_name":"公交车站","address":""},{"poiid":"B2094654DB6FABFC4293","title":"蒸淀华联针缝设备商店","lon":"121.02624","lat":"30.97161","category":"117","category_name":"便民商店/便利店","address":""},{"poiid":"B2094654DB6FABFC4192","title":"青浦练塘开业园区","lon":"121.02982","lat":"30.97152","category":"47","category_name":"住宅区","address":""},{"poiid":"B2094655D26FA5F4449E","title":"庄严寺","lon":"121.03148","lat":"30.95839","category":"250","category_name":"公园户外","address":"青浦区蒸淀镇"},{"poiid":"B2094654DB6FABFC419C","title":"和合大酒店","lon":"121.029","lat":"30.97281","category":"70","category_name":"综合酒楼","address":"蒸发路18号"},{"poiid":"B2094654DB6FA4F54599","title":"农耕庄园","lon":"121.02275","lat":"30.96241","category":"248","category_name":"生活娱乐","address":""},{"poiid":"B2094654DB6FABFC4198","title":"富民小区","lon":"121.02867","lat":"30.974951","category":"47","category_name":"住宅区","address":"富民小区"},{"poiid":"B2094655D26FA1FD409E","title":"富民私营经济开发区","lon":"121.03258","lat":"30.97336","category":"45","category_name":"产业园区","address":""},{"poiid":"B2094654DB6FABFC4193","title":"科球公寓","lon":"121.03156","lat":"30.97368","category":"47","category_name":"住宅区","address":""},{"poiid":"B2094757D66EA4F4419D","title":"徐南","lon":"121.03440177","lat":"30.971032212","category":"500","category_name":"未知分类","address":"上海市青浦区练塘镇"},{"poiid":"B2094654DB6FABFC409F","title":"福来登商厦","lon":"121.02774","lat":"30.97613","category":"119","category_name":"商场","address":""},{"poiid":"B2094654DB6FABFC409C","title":"蒸淀钟楼小区","lon":"121.02803","lat":"30.975542","category":"47","category_name":"住宅区","address":"蒸兴路199号"},{"poiid":"B2094654DB6FABFC429A","title":"上海丽乐电器有限公司","lon":"121.03163","lat":"30.97269","category":"263","category_name":"公司","address":""},{"poiid":"B2094654DB6FABFC4098","title":"青浦区蒸淀镇中心幼儿园","lon":"121.02609","lat":"30.97579","category":"57","category_name":"幼儿园","address":""},{"poiid":"B2094654DB6FABFC409D","title":"富民小区3号门","lon":"121.02848","lat":"30.97576","category":"47","category_name":"住宅区","address":""},{"poiid":"B2094654DB6FABFC4092","title":"富民小区4号门","lon":"121.02919","lat":"30.97601","category":"47","category_name":"住宅区","address":""},{"poiid":"B2094654DB6FA4F4499F","title":"青浦区蒸淀中学","lon":"121.0252","lat":"30.97684","category":"55","category_name":"中学","address":""},{"poiid":"B2094654DB6FABFC419A","title":"裕科集团富民园区","lon":"121.03082","lat":"30.97705","category":"45","category_name":"产业园区","address":""},{"poiid":"B2094757D66EA1FE469F","title":"名悦轩","lon":"121.02200317","lat":"30.955499649","category":"247","category_name":"餐饮美食","address":"上海近郊青浦区老朱枫公路青浦现代农业园区内  "},{"poiid":"B2094654DB6FABFC419B","title":"蒸淀农贸市场","lon":"121.02776","lat":"30.977","category":"117","category_name":"便民商店/便利店","address":"蒸淀镇蒸新路"},{"poiid":"B2094654DB6FA4F54698","title":"蒸淀影剧院","lon":"121.026514","lat":"30.978314","category":"178","category_name":"电影院","address":"蒸淀镇蒸富路120号"},{"poiid":"B2094655D36DA7FF429D","title":"蒸俞路东淇村","lon":"121.01204","lat":"30.97184","category":"38","category_name":"公交车站","address":""},{"poiid":"B2094655D26BA0FF4899","title":"S32朱枫公路收费站","lon":"121.02864","lat":"30.94909","category":"267","category_name":"收费站","address":""},{"poiid":"B2094655D268ABF84793","title":"Ａ１５高速朱枫公路收费站","lon":"121.02864","lat":"30.94908","category":"267","category_name":"收费站","address":""}]