[{"poiid":"B2094757D06FA7F5479E","title":"中国航海博物馆","lon":"121.9194127","lat":"30.89597387","category":"182","category_name":"博物馆","address":"浦东新区申港大道197号(近南汇区行政中心)"},{"poiid":"B2094757DB68A5FA4392","title":"宜浩佳园","lon":"121.9061252941985","lat":"30.90408517010784","category":"47","category_name":"住宅区","address":"临港新城竹柏路"},{"poiid":"B2094655D26DA0F44899","title":"锦江之星临港新城店","lon":"121.92385","lat":"30.90291","category":"216","category_name":"经济型连锁酒店","address":"上海市浦东新区临港新城环湖西二路960号"},{"poiid":"B2094757D569A3FE4193","title":"上海中学东校","lon":"121.91951714","lat":"30.90659288","category":"55","category_name":"中学","address":"中国上海市浦东新区环湖南三路"},{"poiid":"B2094655D265A0F84598","title":"港城滴水湖馨苑","lon":"121.91343171228","lat":"30.903565927704","category":"47","category_name":"住宅区","address":"浦东临港新城主城区方竹路222号"},{"poiid":"B2094757D76DA7FE4793","title":"普露湾野鲜馆农家菜","lon":"121.89431","lat":"30.92128","category":"76","category_name":"上海菜","address":"浦东新区临港新城临港大道塘下路3825号"},{"poiid":"B2094757D66EA2FB499F","title":"临港大道铃兰路站(公交三港线)","lon":"121.913120781","lat":"30.9213416579","category":"38","category_name":"公交车站","address":"上海市浦东新区临港大道"},{"poiid":"B2094757D568A0FA499D","title":"临港新城综合服务楼","lon":"121.91288","lat":"30.90134056","category":"47","category_name":"住宅区","address":"浦东临港新城主城区申港大道200号"},{"poiid":"B2094757D66CABFA4292","title":"临港大道两港大道","lon":"121.919881058","lat":"30.9060084208","category":"260","category_name":"其他","address":"上海临港大道两港大道"},{"poiid":"B2094757D065A0FE479E","title":"锦江大厨(临港新城店)","lon":"121.92134","lat":"30.89823","category":"76","category_name":"上海菜","address":"浦东新区环湖西二路960号锦江之星临港新城店内(环湖西二路申港大道)"},{"poiid":"B2094757D169A5F5459D","title":"南汇区办公中心","lon":"121.908038","lat":"30.898071","category":"500","category_name":"未知分类","address":"上海申港大道200号"},{"poiid":"B2094757D065A5FB409A","title":"滴水湖馨苑","lon":"121.90813","lat":"30.895124","category":"47","category_name":"住宅区","address":"上海市浦东新区茉莉路"},{"poiid":"B2094655D264A7F94298","title":"领港中心","lon":"121.92175","lat":"30.89798","category":"47","category_name":"住宅区","address":"上海市长宁区延安西路2077号"},{"poiid":"B2094757D66CA3FA4798","title":"申港大道街道","lon":"121.925635571","lat":"30.9033117558","category":"47","category_name":"住宅区","address":"上海市浦东新区申港街道"},{"poiid":"B2094655D36CA0F44799","title":"环湖西二路申港大道","lon":"121.92223","lat":"30.89955","category":"38","category_name":"公交车站","address":""},{"poiid":"B2094757D16BABF9439E","title":"美食林","lon":"121.92527095","lat":"30.901232902","category":"500","category_name":"未知分类","address":"上海市浦东新区环湖西一路99号7号楼"}]