[{"poiid":"B2094757D168A7F5429B","title":"江边城外巫山烤全鱼(南京西路店)","lon":"121.460719078","lat":"31.2302828712","category":"71","category_name":"四川菜","address":"静安区南京西路819号中创大厦5楼(近地铁2号线南京西路站)"},{"poiid":"B2094757D06EAAFA4799","title":"吴江路美食街","lon":"121.45953","lat":"31.22911","category":"68","category_name":"快餐厅","address":"静安区吴江路美食休闲购物(近石门一路)"},{"poiid":"B2094757D06EAAF9449E","title":"掌上韩品 吴江路店","lon":"121.4598384","lat":"31.2297555","category":"96","category_name":"韩国料理","address":"静安区吴江路200号(近南京西路)"},{"poiid":"B2094753D76FAAFA449C","title":"上海滩国泰旗舰店","lon":"121.466011","lat":"31.216125","category":"249","category_name":"购物服务","address":"淮海中路868号"},{"poiid":"B209475CD564A7F84292","title":"上海滩新天地店","lon":"121.47463","lat":"31.22164","category":"119","category_name":"商场","address":"\"太仓路181弄新天地北里15号\r\n\""},{"poiid":"B209475CD564A7F8439E","title":"上海滩中信泰富店","lon":"121.45602","lat":"31.22851","category":"119","category_name":"商场","address":"\"南京西路1168号中信泰富广场，店铺号221.\r\n\""},{"poiid":"B2094655D268ABFC4792","title":"吴江路休闲街","lon":"121.46067","lat":"31.22994","category":"116","category_name":"特色商业街","address":"上海吴江路休闲街"},{"poiid":"B2094654DA6CA1F5459E","title":"满记甜品 吴江路店","lon":"121.4610946","lat":"31.2301023","category":"67","category_name":"甜品店","address":"静安区吴江路169号四季坊商场1楼102号单元(近南京西路)"},{"poiid":"B2094654DB69A4F84299","title":"星巴克(吴江路店)","lon":"121.461502","lat":"31.230398","category":"65","category_name":"咖啡厅","address":"静安区吴江路128号(近石门一路)"},{"poiid":"B2094750D66CABF94899","title":"幸福131","lon":"121.4608","lat":"31.230554","category":"71","category_name":"四川菜","address":"静安区南京西路819号中创大厦4楼(近吴江路)"},{"poiid":"B2094655D268A3FB479D","title":"葡京茶餐厅(吴江路店)","lon":"121.45934","lat":"31.22889","category":"72","category_name":"广东菜","address":"静安区吴江路269号湟普汇303号商铺(近茂名北路)"},{"poiid":"B2094655D26FABFF419D","title":"静安小亭麻辣烫 吴江路店","lon":"121.459811054","lat":"31.229479793","category":"68","category_name":"快餐厅","address":"静安区吴江路269号湟普汇2楼(近茂名北路)"},{"poiid":"B2094757D06EABF5459E","title":"Awfully Chocolate(吴江路店)","lon":"121.46056","lat":"31.22957","category":"67","category_name":"甜品店","address":"静安区吴江路169号四季坊1楼(近石门一路)"},{"poiid":"B2094757D06FABFD4793","title":"wagas","lon":"121.460855738","lat":"31.2299632944","category":"500","category_name":"未知分类","address":"上海吴江路"},{"poiid":"B2094757D465A4FA489B","title":"牛阵日式火锅 四季坊店","lon":"121.46003","lat":"31.22982","category":"95","category_name":"日本料理","address":"静安区吴江路169号四季坊242单元(近石门一路)"},{"poiid":"B2094757D06FA0FB4998","title":"半山小馆","lon":"121.46059521","lat":"31.230252198","category":"91","category_name":"台湾菜","address":"静安区南京西路818号818广场6楼(石门一路口)"},{"poiid":"B2094750DA6BA1F54598","title":"斯利美SLM","lon":"121.45935","lat":"31.229806","category":"112","category_name":"糕饼店","address":"静安区吴江路169号四季坊149单元(近地铁2号线南京西路站)"},{"poiid":"B2094757D06EAAFF4298","title":"南京西路地铁站","lon":"121.459723","lat":"31.229734","category":"36","category_name":"地铁站","address":"上海轨道交通 二号线 轨交南京西路站 2"},{"poiid":"B2094757D06EABF54199","title":"洋面屋五右卫门 吴江路店","lon":"121.4595113","lat":"31.2295151","category":"98","category_name":"意式菜品餐厅","address":"静安区吴江路169号四季坊2楼(近吴江路美食街)"},{"poiid":"B2094757D06EAAF44799","title":"马莎百货(南京西路店)","lon":"121.46058","lat":"31.23005","category":"119","category_name":"商场","address":"静安区南京西路863号(近石门一路)"},{"poiid":"B2094655D268A3FB479C","title":"小杨生煎 湟普汇店","lon":"121.459811054","lat":"31.229479793","category":"68","category_name":"快餐厅","address":"静安区吴江路269号2楼(近茂名北路)"},{"poiid":"B2094757D06FA6FC4093","title":"藏珑云海","lon":"121.46067198","lat":"31.230039417","category":"260","category_name":"其他","address":"静安区南京西路818号818广场6楼(石门一路口)"},{"poiid":"B2094757D06AA5FE429E","title":"滋滋星","lon":"121.46021973","lat":"31.229662288","category":"99","category_name":"泰国／越南菜品餐厅","address":"静安区吴江路200号2楼(近南京西路)"},{"poiid":"B2094757D06FA2FC439E","title":"南翔馒头店(吴江路店)","lon":"121.46085","lat":"31.22968","category":"68","category_name":"快餐厅","address":"静安区吴江路269号湟普汇2楼(近茂名北路)"},{"poiid":"B2094757DA6EA6FB419A","title":"合点寿司(南京西路店)","lon":"121.461213999998","lat":"31.2304790000002","category":"95","category_name":"日本料理","address":"静安区南京西路818号818广场B1楼(近石门一路)"},{"poiid":"B2094757D06FA3F9429F","title":"权味 吴江路店","lon":"121.461074","lat":"31.230026","category":"96","category_name":"韩国料理","address":"静安区吴江路169号四季坊商场2楼(近石门一路)"},{"poiid":"B2094655D26FA5FC489A","title":"四季坊","lon":"121.46162","lat":"31.22993","category":"119","category_name":"商场","address":"静安区吴江路169号2楼(近南京西路)"},{"poiid":"B2094757D06FAAF94793","title":"乡音书苑","lon":"121.460323154","lat":"31.2307423837","category":"260","category_name":"其他","address":"静安区南京西路860弄1号(近石门一路)"},{"poiid":"B2094757D06FA6FF429B","title":"泰意Lapis Cafe","lon":"121.460911738","lat":"31.2306823097","category":"94","category_name":"西餐厅","address":"静安区南京西路818号818广场6楼(近石门一路)"},{"poiid":"B2094757D76AA1FF469F","title":"拉面玩家 四季坊店","lon":"121.461104","lat":"31.229991","category":"68","category_name":"快餐厅","address":"静安区吴江路153号四季坊242单位(近石门一路)"},{"poiid":"B2094757D469A2F9449D","title":"锅品面吧 吴江路店 Noodle Bar","lon":"121.460099","lat":"31.229882","category":"68","category_name":"快餐厅","address":"静安区吴江路202号(近泰兴路)"},{"poiid":"B2094752D56DAAF9469B","title":"点点心茶餐厅","lon":"121.459487","lat":"31.230247","category":"247","category_name":"餐饮美食","address":"南京西路889号2楼"},{"poiid":"B2094757D065AAFC419E","title":"力士相撲焼肉","lon":"121.459747738","lat":"31.2295532857","category":"500","category_name":"未知分类","address":"上海静安区江宁路四季坊"},{"poiid":"B2094757D06FA2FA449F","title":"西北郎烧烤(吴江路店)","lon":"121.46028","lat":"31.22956","category":"68","category_name":"快餐厅","address":"静安区吴江路休闲街200号2楼(近泰兴路)"},{"poiid":"B2094654D564ABFA419B","title":"东方海外大厦","lon":"121.461","lat":"31.2295","category":"46","category_name":"楼宇","address":"上海,上海市,延安中路841号"},{"poiid":"B2094757D06FA1F84492","title":"棒约翰比萨(四季坊店)","lon":"121.460259767","lat":"31.2294456435","category":"94","category_name":"西餐厅","address":"静安区吴江路169号四季坊108(泰兴路吴江路)"},{"poiid":"B2094750DA68A2F54792","title":"LA PASTA 義面屋","lon":"121.460853","lat":"31.230667","category":"247","category_name":"餐饮美食","address":null},{"poiid":"B2094757D06FA0F5479D","title":"蝶园(吴江路店)","lon":"121.45954","lat":"31.22913","category":"76","category_name":"上海菜","address":"静安区吴江路269号301-302室(近茂名北路)"},{"poiid":"B2094757D56CABFB419A","title":"顺风港湾","lon":"121.45971","lat":"31.229015","category":"76","category_name":"上海菜","address":"静安区泰兴路175号经典茂名裙房4楼(近吴江路)"},{"poiid":"B2094757D66FA6FA469F","title":"GAP(南京西路店)","lon":"121.46075169","lat":"31.230473985","category":"141","category_name":"服装鞋帽皮具店","address":"静安区南京西路819号中创大厦1-2楼(石门一路口)"},{"poiid":"B2094757D06FA2F84198","title":"早安巴黎(吴江路店)","lon":"121.45957","lat":"31.22929","category":"112","category_name":"糕饼店","address":"静安区吴江路169号四季坊1楼114号单元(近石门一路)"},{"poiid":"B2094757D06FA3F4499D","title":"DQ冰雪皇后(吴江店)","lon":"121.46162","lat":"31.229935","category":"113","category_name":"冷饮店","address":"静安区吴江路169号四季坊1楼(近石门一路)"},{"poiid":"B2094757D06FA2FE499B","title":"红宝石(吴江店)","lon":"121.46073","lat":"31.22963","category":"67","category_name":"甜品店","address":"静安区吴江路198号(近泰兴路)"},{"poiid":"B2094654DA6CA1F5469A","title":"香啡缤 吴江路店 Coffee Bean&Tea Leaf","lon":"121.461022054","lat":"31.229906793","category":"65","category_name":"咖啡厅","address":"静安区吴江路169号静安四季坊145-146单元(近石门一路)"},{"poiid":"B2094757D06FA2FE499A","title":"麦当劳(四季坊店)","lon":"121.46101","lat":"31.22957","category":"68","category_name":"快餐厅","address":"静安区吴江路169号四季坊B1楼B101号铺(近南京西路地铁站3号出口)"},{"poiid":"B2094757D06FA7FD449D","title":"阿拉丁麻辣烫(四季坊店)","lon":"121.46058397","lat":"31.229648747","category":"68","category_name":"快餐厅","address":"静安区吴江路169号四季坊B1109号商铺(近石门一路)"},{"poiid":"B2094750D565A1FA489A","title":"花の舞","lon":"121.460815","lat":"31.230707","category":"95","category_name":"日本料理","address":"静安区南京西路819号中创大厦5楼(近吴江路)"},{"poiid":"B2094757D06FA1FD459B","title":"芭斯罗缤(四季坊店)","lon":"121.4603","lat":"31.22955","category":"67","category_name":"甜品店","address":"静安区吴江路169号四季坊111号(近石门一路)"},{"poiid":"B2094757D06FA2FD4392","title":"卡卡圈坊","lon":"121.46009198","lat":"31.229713623","category":"67","category_name":"甜品店","address":"上海吴江路169号四季坊142单元"},{"poiid":"B2094655D26DA6FA479B","title":"一兆韦德健身(吴江路)","lon":"121.46054","lat":"31.22963","category":"221","category_name":"健身中心","address":"静安区吴江路169号四季坊B1楼15号(近石门一路)"},{"poiid":"B2094757D168A7F5429B","title":"江边城外巫山烤全鱼(南京西路店)","lon":"121.460719078","lat":"31.2302828712","category":"71","category_name":"四川菜","address":"静安区南京西路819号中创大厦5楼(近地铁2号线南京西路站)"},{"poiid":"B2094757D06EAAFA4799","title":"吴江路美食街","lon":"121.45953","lat":"31.22911","category":"68","category_name":"快餐厅","address":"静安区吴江路美食休闲购物(近石门一路)"},{"poiid":"B2094757D06EAAF9449E","title":"掌上韩品 吴江路店","lon":"121.4598384","lat":"31.2297555","category":"96","category_name":"韩国料理","address":"静安区吴江路200号(近南京西路)"},{"poiid":"B2094753D76FAAFA449C","title":"上海滩国泰旗舰店","lon":"121.466011","lat":"31.216125","category":"249","category_name":"购物服务","address":"淮海中路868号"},{"poiid":"B209475CD564A7F84292","title":"上海滩新天地店","lon":"121.47463","lat":"31.22164","category":"119","category_name":"商场","address":"\"太仓路181弄新天地北里15号\r\n\""},{"poiid":"B209475CD564A7F8439E","title":"上海滩中信泰富店","lon":"121.45602","lat":"31.22851","category":"119","category_name":"商场","address":"\"南京西路1168号中信泰富广场，店铺号221.\r\n\""},{"poiid":"B2094655D268ABFC4792","title":"吴江路休闲街","lon":"121.46067","lat":"31.22994","category":"116","category_name":"特色商业街","address":"上海吴江路休闲街"},{"poiid":"B2094654DA6CA1F5459E","title":"满记甜品 吴江路店","lon":"121.4610946","lat":"31.2301023","category":"67","category_name":"甜品店","address":"静安区吴江路169号四季坊商场1楼102号单元(近南京西路)"},{"poiid":"B2094654DB69A4F84299","title":"星巴克(吴江路店)","lon":"121.461502","lat":"31.230398","category":"65","category_name":"咖啡厅","address":"静安区吴江路128号(近石门一路)"},{"poiid":"B2094750D66CABF94899","title":"幸福131","lon":"121.4608","lat":"31.230554","category":"71","category_name":"四川菜","address":"静安区南京西路819号中创大厦4楼(近吴江路)"},{"poiid":"B2094655D268A3FB479D","title":"葡京茶餐厅(吴江路店)","lon":"121.45934","lat":"31.22889","category":"72","category_name":"广东菜","address":"静安区吴江路269号湟普汇303号商铺(近茂名北路)"},{"poiid":"B2094655D26FABFF419D","title":"静安小亭麻辣烫 吴江路店","lon":"121.459811054","lat":"31.229479793","category":"68","category_name":"快餐厅","address":"静安区吴江路269号湟普汇2楼(近茂名北路)"},{"poiid":"B2094757D06EABF5459E","title":"Awfully Chocolate(吴江路店)","lon":"121.46056","lat":"31.22957","category":"67","category_name":"甜品店","address":"静安区吴江路169号四季坊1楼(近石门一路)"},{"poiid":"B2094757D06FABFD4793","title":"wagas","lon":"121.460855738","lat":"31.2299632944","category":"500","category_name":"未知分类","address":"上海吴江路"},{"poiid":"B2094757D465A4FA489B","title":"牛阵日式火锅 四季坊店","lon":"121.46003","lat":"31.22982","category":"95","category_name":"日本料理","address":"静安区吴江路169号四季坊242单元(近石门一路)"},{"poiid":"B2094757D06FA0FB4998","title":"半山小馆","lon":"121.46059521","lat":"31.230252198","category":"91","category_name":"台湾菜","address":"静安区南京西路818号818广场6楼(石门一路口)"},{"poiid":"B2094750DA6BA1F54598","title":"斯利美SLM","lon":"121.45935","lat":"31.229806","category":"112","category_name":"糕饼店","address":"静安区吴江路169号四季坊149单元(近地铁2号线南京西路站)"},{"poiid":"B2094757D06EAAFF4298","title":"南京西路地铁站","lon":"121.459723","lat":"31.229734","category":"36","category_name":"地铁站","address":"上海轨道交通 二号线 轨交南京西路站 2"},{"poiid":"B2094757D06EABF54199","title":"洋面屋五右卫门 吴江路店","lon":"121.4595113","lat":"31.2295151","category":"98","category_name":"意式菜品餐厅","address":"静安区吴江路169号四季坊2楼(近吴江路美食街)"},{"poiid":"B2094757D06EAAF44799","title":"马莎百货(南京西路店)","lon":"121.46058","lat":"31.23005","category":"119","category_name":"商场","address":"静安区南京西路863号(近石门一路)"},{"poiid":"B2094655D268A3FB479C","title":"小杨生煎 湟普汇店","lon":"121.459811054","lat":"31.229479793","category":"68","category_name":"快餐厅","address":"静安区吴江路269号2楼(近茂名北路)"},{"poiid":"B2094757D06FA6FC4093","title":"藏珑云海","lon":"121.46067198","lat":"31.230039417","category":"260","category_name":"其他","address":"静安区南京西路818号818广场6楼(石门一路口)"},{"poiid":"B2094757D06AA5FE429E","title":"滋滋星","lon":"121.46021973","lat":"31.229662288","category":"99","category_name":"泰国／越南菜品餐厅","address":"静安区吴江路200号2楼(近南京西路)"},{"poiid":"B2094757D06FA2FC439E","title":"南翔馒头店(吴江路店)","lon":"121.46085","lat":"31.22968","category":"68","category_name":"快餐厅","address":"静安区吴江路269号湟普汇2楼(近茂名北路)"},{"poiid":"B2094757DA6EA6FB419A","title":"合点寿司(南京西路店)","lon":"121.461213999998","lat":"31.2304790000002","category":"95","category_name":"日本料理","address":"静安区南京西路818号818广场B1楼(近石门一路)"},{"poiid":"B2094757D06FA3F9429F","title":"权味 吴江路店","lon":"121.461074","lat":"31.230026","category":"96","category_name":"韩国料理","address":"静安区吴江路169号四季坊商场2楼(近石门一路)"},{"poiid":"B2094655D26FA5FC489A","title":"四季坊","lon":"121.46162","lat":"31.22993","category":"119","category_name":"商场","address":"静安区吴江路169号2楼(近南京西路)"},{"poiid":"B2094757D06FAAF94793","title":"乡音书苑","lon":"121.460323154","lat":"31.2307423837","category":"260","category_name":"其他","address":"静安区南京西路860弄1号(近石门一路)"},{"poiid":"B2094757D06FA6FF429B","title":"泰意Lapis Cafe","lon":"121.460911738","lat":"31.2306823097","category":"94","category_name":"西餐厅","address":"静安区南京西路818号818广场6楼(近石门一路)"},{"poiid":"B2094757D76AA1FF469F","title":"拉面玩家 四季坊店","lon":"121.461104","lat":"31.229991","category":"68","category_name":"快餐厅","address":"静安区吴江路153号四季坊242单位(近石门一路)"},{"poiid":"B2094757D469A2F9449D","title":"锅品面吧 吴江路店 Noodle Bar","lon":"121.460099","lat":"31.229882","category":"68","category_name":"快餐厅","address":"静安区吴江路202号(近泰兴路)"},{"poiid":"B2094752D56DAAF9469B","title":"点点心茶餐厅","lon":"121.459487","lat":"31.230247","category":"247","category_name":"餐饮美食","address":"南京西路889号2楼"},{"poiid":"B2094757D065AAFC419E","title":"力士相撲焼肉","lon":"121.459747738","lat":"31.2295532857","category":"500","category_name":"未知分类","address":"上海静安区江宁路四季坊"},{"poiid":"B2094757D06FA2FA449F","title":"西北郎烧烤(吴江路店)","lon":"121.46028","lat":"31.22956","category":"68","category_name":"快餐厅","address":"静安区吴江路休闲街200号2楼(近泰兴路)"},{"poiid":"B2094654D564ABFA419B","title":"东方海外大厦","lon":"121.461","lat":"31.2295","category":"46","category_name":"楼宇","address":"上海,上海市,延安中路841号"},{"poiid":"B2094757D06FA1F84492","title":"棒约翰比萨(四季坊店)","lon":"121.460259767","lat":"31.2294456435","category":"94","category_name":"西餐厅","address":"静安区吴江路169号四季坊108(泰兴路吴江路)"},{"poiid":"B2094750DA68A2F54792","title":"LA PASTA 義面屋","lon":"121.460853","lat":"31.230667","category":"247","category_name":"餐饮美食","address":null},{"poiid":"B2094757D06FA0F5479D","title":"蝶园(吴江路店)","lon":"121.45954","lat":"31.22913","category":"76","category_name":"上海菜","address":"静安区吴江路269号301-302室(近茂名北路)"},{"poiid":"B2094757D56CABFB419A","title":"顺风港湾","lon":"121.45971","lat":"31.229015","category":"76","category_name":"上海菜","address":"静安区泰兴路175号经典茂名裙房4楼(近吴江路)"},{"poiid":"B2094757D66FA6FA469F","title":"GAP(南京西路店)","lon":"121.46075169","lat":"31.230473985","category":"141","category_name":"服装鞋帽皮具店","address":"静安区南京西路819号中创大厦1-2楼(石门一路口)"},{"poiid":"B2094757D06FA2F84198","title":"早安巴黎(吴江路店)","lon":"121.45957","lat":"31.22929","category":"112","category_name":"糕饼店","address":"静安区吴江路169号四季坊1楼114号单元(近石门一路)"},{"poiid":"B2094757D06FA3F4499D","title":"DQ冰雪皇后(吴江店)","lon":"121.46162","lat":"31.229935","category":"113","category_name":"冷饮店","address":"静安区吴江路169号四季坊1楼(近石门一路)"},{"poiid":"B2094757D06FA2FE499B","title":"红宝石(吴江店)","lon":"121.46073","lat":"31.22963","category":"67","category_name":"甜品店","address":"静安区吴江路198号(近泰兴路)"},{"poiid":"B2094654DA6CA1F5469A","title":"香啡缤 吴江路店 Coffee Bean&Tea Leaf","lon":"121.461022054","lat":"31.229906793","category":"65","category_name":"咖啡厅","address":"静安区吴江路169号静安四季坊145-146单元(近石门一路)"},{"poiid":"B2094757D06FA2FE499A","title":"麦当劳(四季坊店)","lon":"121.46101","lat":"31.22957","category":"68","category_name":"快餐厅","address":"静安区吴江路169号四季坊B1楼B101号铺(近南京西路地铁站3号出口)"},{"poiid":"B2094757D06FA7FD449D","title":"阿拉丁麻辣烫(四季坊店)","lon":"121.46058397","lat":"31.229648747","category":"68","category_name":"快餐厅","address":"静安区吴江路169号四季坊B1109号商铺(近石门一路)"},{"poiid":"B2094750D565A1FA489A","title":"花の舞","lon":"121.460815","lat":"31.230707","category":"95","category_name":"日本料理","address":"静安区南京西路819号中创大厦5楼(近吴江路)"},{"poiid":"B2094757D06FA1FD459B","title":"芭斯罗缤(四季坊店)","lon":"121.4603","lat":"31.22955","category":"67","category_name":"甜品店","address":"静安区吴江路169号四季坊111号(近石门一路)"},{"poiid":"B2094757D06FA2FD4392","title":"卡卡圈坊","lon":"121.46009198","lat":"31.229713623","category":"67","category_name":"甜品店","address":"上海吴江路169号四季坊142单元"},{"poiid":"B2094655D26DA6FA479B","title":"一兆韦德健身(吴江路)","lon":"121.46054","lat":"31.22963","category":"221","category_name":"健身中心","address":"静安区吴江路169号四季坊B1楼15号(近石门一路)"},{"poiid":"B2094757D168A7F5429B","title":"江边城外巫山烤全鱼(南京西路店)","lon":"121.460719078","lat":"31.2302828712","category":"71","category_name":"四川菜","address":"静安区南京西路819号中创大厦5楼(近地铁2号线南京西路站)"},{"poiid":"B2094757D06EAAFA4799","title":"吴江路美食街","lon":"121.45953","lat":"31.22911","category":"68","category_name":"快餐厅","address":"静安区吴江路美食休闲购物(近石门一路)"},{"poiid":"B2094757D06EAAF9449E","title":"掌上韩品 吴江路店","lon":"121.4598384","lat":"31.2297555","category":"96","category_name":"韩国料理","address":"静安区吴江路200号(近南京西路)"},{"poiid":"B2094753D76FAAFA449C","title":"上海滩国泰旗舰店","lon":"121.466011","lat":"31.216125","category":"249","category_name":"购物服务","address":"淮海中路868号"},{"poiid":"B209475CD564A7F84292","title":"上海滩新天地店","lon":"121.47463","lat":"31.22164","category":"119","category_name":"商场","address":"\"太仓路181弄新天地北里15号\r\n\""},{"poiid":"B209475CD564A7F8439E","title":"上海滩中信泰富店","lon":"121.45602","lat":"31.22851","category":"119","category_name":"商场","address":"\"南京西路1168号中信泰富广场，店铺号221.\r\n\""},{"poiid":"B2094655D268ABFC4792","title":"吴江路休闲街","lon":"121.46067","lat":"31.22994","category":"116","category_name":"特色商业街","address":"上海吴江路休闲街"},{"poiid":"B2094654DA6CA1F5459E","title":"满记甜品 吴江路店","lon":"121.4610946","lat":"31.2301023","category":"67","category_name":"甜品店","address":"静安区吴江路169号四季坊商场1楼102号单元(近南京西路)"},{"poiid":"B2094654DB69A4F84299","title":"星巴克(吴江路店)","lon":"121.461502","lat":"31.230398","category":"65","category_name":"咖啡厅","address":"静安区吴江路128号(近石门一路)"},{"poiid":"B2094750D66CABF94899","title":"幸福131","lon":"121.4608","lat":"31.230554","category":"71","category_name":"四川菜","address":"静安区南京西路819号中创大厦4楼(近吴江路)"},{"poiid":"B2094655D268A3FB479D","title":"葡京茶餐厅(吴江路店)","lon":"121.45934","lat":"31.22889","category":"72","category_name":"广东菜","address":"静安区吴江路269号湟普汇303号商铺(近茂名北路)"},{"poiid":"B2094655D26FABFF419D","title":"静安小亭麻辣烫 吴江路店","lon":"121.459811054","lat":"31.229479793","category":"68","category_name":"快餐厅","address":"静安区吴江路269号湟普汇2楼(近茂名北路)"},{"poiid":"B2094757D06EABF5459E","title":"Awfully Chocolate(吴江路店)","lon":"121.46056","lat":"31.22957","category":"67","category_name":"甜品店","address":"静安区吴江路169号四季坊1楼(近石门一路)"},{"poiid":"B2094757D06FABFD4793","title":"wagas","lon":"121.460855738","lat":"31.2299632944","category":"500","category_name":"未知分类","address":"上海吴江路"},{"poiid":"B2094757D465A4FA489B","title":"牛阵日式火锅 四季坊店","lon":"121.46003","lat":"31.22982","category":"95","category_name":"日本料理","address":"静安区吴江路169号四季坊242单元(近石门一路)"},{"poiid":"B2094757D06FA0FB4998","title":"半山小馆","lon":"121.46059521","lat":"31.230252198","category":"91","category_name":"台湾菜","address":"静安区南京西路818号818广场6楼(石门一路口)"},{"poiid":"B2094750DA6BA1F54598","title":"斯利美SLM","lon":"121.45935","lat":"31.229806","category":"112","category_name":"糕饼店","address":"静安区吴江路169号四季坊149单元(近地铁2号线南京西路站)"},{"poiid":"B2094757D06EAAFF4298","title":"南京西路地铁站","lon":"121.459723","lat":"31.229734","category":"36","category_name":"地铁站","address":"上海轨道交通 二号线 轨交南京西路站 2"},{"poiid":"B2094757D06EABF54199","title":"洋面屋五右卫门 吴江路店","lon":"121.4595113","lat":"31.2295151","category":"98","category_name":"意式菜品餐厅","address":"静安区吴江路169号四季坊2楼(近吴江路美食街)"},{"poiid":"B2094757D06EAAF44799","title":"马莎百货(南京西路店)","lon":"121.46058","lat":"31.23005","category":"119","category_name":"商场","address":"静安区南京西路863号(近石门一路)"},{"poiid":"B2094655D268A3FB479C","title":"小杨生煎 湟普汇店","lon":"121.459811054","lat":"31.229479793","category":"68","category_name":"快餐厅","address":"静安区吴江路269号2楼(近茂名北路)"},{"poiid":"B2094757D06FA6FC4093","title":"藏珑云海","lon":"121.46067198","lat":"31.230039417","category":"260","category_name":"其他","address":"静安区南京西路818号818广场6楼(石门一路口)"},{"poiid":"B2094757D06AA5FE429E","title":"滋滋星","lon":"121.46021973","lat":"31.229662288","category":"99","category_name":"泰国／越南菜品餐厅","address":"静安区吴江路200号2楼(近南京西路)"},{"poiid":"B2094757D06FA2FC439E","title":"南翔馒头店(吴江路店)","lon":"121.46085","lat":"31.22968","category":"68","category_name":"快餐厅","address":"静安区吴江路269号湟普汇2楼(近茂名北路)"},{"poiid":"B2094757DA6EA6FB419A","title":"合点寿司(南京西路店)","lon":"121.461213999998","lat":"31.2304790000002","category":"95","category_name":"日本料理","address":"静安区南京西路818号818广场B1楼(近石门一路)"},{"poiid":"B2094757D06FA3F9429F","title":"权味 吴江路店","lon":"121.461074","lat":"31.230026","category":"96","category_name":"韩国料理","address":"静安区吴江路169号四季坊商场2楼(近石门一路)"},{"poiid":"B2094655D26FA5FC489A","title":"四季坊","lon":"121.46162","lat":"31.22993","category":"119","category_name":"商场","address":"静安区吴江路169号2楼(近南京西路)"},{"poiid":"B2094757D06FAAF94793","title":"乡音书苑","lon":"121.460323154","lat":"31.2307423837","category":"260","category_name":"其他","address":"静安区南京西路860弄1号(近石门一路)"},{"poiid":"B2094757D06FA6FF429B","title":"泰意Lapis Cafe","lon":"121.460911738","lat":"31.2306823097","category":"94","category_name":"西餐厅","address":"静安区南京西路818号818广场6楼(近石门一路)"},{"poiid":"B2094757D76AA1FF469F","title":"拉面玩家 四季坊店","lon":"121.461104","lat":"31.229991","category":"68","category_name":"快餐厅","address":"静安区吴江路153号四季坊242单位(近石门一路)"},{"poiid":"B2094757D469A2F9449D","title":"锅品面吧 吴江路店 Noodle Bar","lon":"121.460099","lat":"31.229882","category":"68","category_name":"快餐厅","address":"静安区吴江路202号(近泰兴路)"},{"poiid":"B2094752D56DAAF9469B","title":"点点心茶餐厅","lon":"121.459487","lat":"31.230247","category":"247","category_name":"餐饮美食","address":"南京西路889号2楼"},{"poiid":"B2094757D065AAFC419E","title":"力士相撲焼肉","lon":"121.459747738","lat":"31.2295532857","category":"500","category_name":"未知分类","address":"上海静安区江宁路四季坊"},{"poiid":"B2094757D06FA2FA449F","title":"西北郎烧烤(吴江路店)","lon":"121.46028","lat":"31.22956","category":"68","category_name":"快餐厅","address":"静安区吴江路休闲街200号2楼(近泰兴路)"},{"poiid":"B2094654D564ABFA419B","title":"东方海外大厦","lon":"121.461","lat":"31.2295","category":"46","category_name":"楼宇","address":"上海,上海市,延安中路841号"},{"poiid":"B2094757D06FA1F84492","title":"棒约翰比萨(四季坊店)","lon":"121.460259767","lat":"31.2294456435","category":"94","category_name":"西餐厅","address":"静安区吴江路169号四季坊108(泰兴路吴江路)"},{"poiid":"B2094750DA68A2F54792","title":"LA PASTA 義面屋","lon":"121.460853","lat":"31.230667","category":"247","category_name":"餐饮美食","address":null},{"poiid":"B2094757D06FA0F5479D","title":"蝶园(吴江路店)","lon":"121.45954","lat":"31.22913","category":"76","category_name":"上海菜","address":"静安区吴江路269号301-302室(近茂名北路)"},{"poiid":"B2094757D56CABFB419A","title":"顺风港湾","lon":"121.45971","lat":"31.229015","category":"76","category_name":"上海菜","address":"静安区泰兴路175号经典茂名裙房4楼(近吴江路)"},{"poiid":"B2094757D66FA6FA469F","title":"GAP(南京西路店)","lon":"121.46075169","lat":"31.230473985","category":"141","category_name":"服装鞋帽皮具店","address":"静安区南京西路819号中创大厦1-2楼(石门一路口)"},{"poiid":"B2094757D06FA2F84198","title":"早安巴黎(吴江路店)","lon":"121.45957","lat":"31.22929","category":"112","category_name":"糕饼店","address":"静安区吴江路169号四季坊1楼114号单元(近石门一路)"},{"poiid":"B2094757D06FA3F4499D","title":"DQ冰雪皇后(吴江店)","lon":"121.46162","lat":"31.229935","category":"113","category_name":"冷饮店","address":"静安区吴江路169号四季坊1楼(近石门一路)"},{"poiid":"B2094757D06FA2FE499B","title":"红宝石(吴江店)","lon":"121.46073","lat":"31.22963","category":"67","category_name":"甜品店","address":"静安区吴江路198号(近泰兴路)"},{"poiid":"B2094654DA6CA1F5469A","title":"香啡缤 吴江路店 Coffee Bean&Tea Leaf","lon":"121.461022054","lat":"31.229906793","category":"65","category_name":"咖啡厅","address":"静安区吴江路169号静安四季坊145-146单元(近石门一路)"},{"poiid":"B2094757D06FA2FE499A","title":"麦当劳(四季坊店)","lon":"121.46101","lat":"31.22957","category":"68","category_name":"快餐厅","address":"静安区吴江路169号四季坊B1楼B101号铺(近南京西路地铁站3号出口)"},{"poiid":"B2094757D06FA7FD449D","title":"阿拉丁麻辣烫(四季坊店)","lon":"121.46058397","lat":"31.229648747","category":"68","category_name":"快餐厅","address":"静安区吴江路169号四季坊B1109号商铺(近石门一路)"},{"poiid":"B2094750D565A1FA489A","title":"花の舞","lon":"121.460815","lat":"31.230707","category":"95","category_name":"日本料理","address":"静安区南京西路819号中创大厦5楼(近吴江路)"},{"poiid":"B2094757D06FA1FD459B","title":"芭斯罗缤(四季坊店)","lon":"121.4603","lat":"31.22955","category":"67","category_name":"甜品店","address":"静安区吴江路169号四季坊111号(近石门一路)"},{"poiid":"B2094757D06FA2FD4392","title":"卡卡圈坊","lon":"121.46009198","lat":"31.229713623","category":"67","category_name":"甜品店","address":"上海吴江路169号四季坊142单元"},{"poiid":"B2094655D26DA6FA479B","title":"一兆韦德健身(吴江路)","lon":"121.46054","lat":"31.22963","category":"221","category_name":"健身中心","address":"静安区吴江路169号四季坊B1楼15号(近石门一路)"},{"poiid":"B2094757D168A7F5429B","title":"江边城外巫山烤全鱼(南京西路店)","lon":"121.460719078","lat":"31.2302828712","category":"71","category_name":"四川菜","address":"静安区南京西路819号中创大厦5楼(近地铁2号线南京西路站)"},{"poiid":"B2094757D06EAAFA4799","title":"吴江路美食街","lon":"121.45953","lat":"31.22911","category":"68","category_name":"快餐厅","address":"静安区吴江路美食休闲购物(近石门一路)"},{"poiid":"B2094757D06EAAF9449E","title":"掌上韩品 吴江路店","lon":"121.4598384","lat":"31.2297555","category":"96","category_name":"韩国料理","address":"静安区吴江路200号(近南京西路)"},{"poiid":"B2094753D76FAAFA449C","title":"上海滩国泰旗舰店","lon":"121.466011","lat":"31.216125","category":"249","category_name":"购物服务","address":"淮海中路868号"},{"poiid":"B209475CD564A7F84292","title":"上海滩新天地店","lon":"121.47463","lat":"31.22164","category":"119","category_name":"商场","address":"\"太仓路181弄新天地北里15号\r\n\""},{"poiid":"B209475CD564A7F8439E","title":"上海滩中信泰富店","lon":"121.45602","lat":"31.22851","category":"119","category_name":"商场","address":"\"南京西路1168号中信泰富广场，店铺号221.\r\n\""},{"poiid":"B2094655D268ABFC4792","title":"吴江路休闲街","lon":"121.46067","lat":"31.22994","category":"116","category_name":"特色商业街","address":"上海吴江路休闲街"},{"poiid":"B2094654DA6CA1F5459E","title":"满记甜品 吴江路店","lon":"121.4610946","lat":"31.2301023","category":"67","category_name":"甜品店","address":"静安区吴江路169号四季坊商场1楼102号单元(近南京西路)"},{"poiid":"B2094654DB69A4F84299","title":"星巴克(吴江路店)","lon":"121.461502","lat":"31.230398","category":"65","category_name":"咖啡厅","address":"静安区吴江路128号(近石门一路)"},{"poiid":"B2094750D66CABF94899","title":"幸福131","lon":"121.4608","lat":"31.230554","category":"71","category_name":"四川菜","address":"静安区南京西路819号中创大厦4楼(近吴江路)"},{"poiid":"B2094655D268A3FB479D","title":"葡京茶餐厅(吴江路店)","lon":"121.45934","lat":"31.22889","category":"72","category_name":"广东菜","address":"静安区吴江路269号湟普汇303号商铺(近茂名北路)"},{"poiid":"B2094655D26FABFF419D","title":"静安小亭麻辣烫 吴江路店","lon":"121.459811054","lat":"31.229479793","category":"68","category_name":"快餐厅","address":"静安区吴江路269号湟普汇2楼(近茂名北路)"},{"poiid":"B2094757D06EABF5459E","title":"Awfully Chocolate(吴江路店)","lon":"121.46056","lat":"31.22957","category":"67","category_name":"甜品店","address":"静安区吴江路169号四季坊1楼(近石门一路)"},{"poiid":"B2094757D06FABFD4793","title":"wagas","lon":"121.460855738","lat":"31.2299632944","category":"500","category_name":"未知分类","address":"上海吴江路"},{"poiid":"B2094757D465A4FA489B","title":"牛阵日式火锅 四季坊店","lon":"121.46003","lat":"31.22982","category":"95","category_name":"日本料理","address":"静安区吴江路169号四季坊242单元(近石门一路)"},{"poiid":"B2094757D06FA0FB4998","title":"半山小馆","lon":"121.46059521","lat":"31.230252198","category":"91","category_name":"台湾菜","address":"静安区南京西路818号818广场6楼(石门一路口)"},{"poiid":"B2094750DA6BA1F54598","title":"斯利美SLM","lon":"121.45935","lat":"31.229806","category":"112","category_name":"糕饼店","address":"静安区吴江路169号四季坊149单元(近地铁2号线南京西路站)"},{"poiid":"B2094757D06EAAFF4298","title":"南京西路地铁站","lon":"121.459723","lat":"31.229734","category":"36","category_name":"地铁站","address":"上海轨道交通 二号线 轨交南京西路站 2"},{"poiid":"B2094757D06EABF54199","title":"洋面屋五右卫门 吴江路店","lon":"121.4595113","lat":"31.2295151","category":"98","category_name":"意式菜品餐厅","address":"静安区吴江路169号四季坊2楼(近吴江路美食街)"},{"poiid":"B2094757D06EAAF44799","title":"马莎百货(南京西路店)","lon":"121.46058","lat":"31.23005","category":"119","category_name":"商场","address":"静安区南京西路863号(近石门一路)"},{"poiid":"B2094655D268A3FB479C","title":"小杨生煎 湟普汇店","lon":"121.459811054","lat":"31.229479793","category":"68","category_name":"快餐厅","address":"静安区吴江路269号2楼(近茂名北路)"},{"poiid":"B2094757D06FA6FC4093","title":"藏珑云海","lon":"121.46067198","lat":"31.230039417","category":"260","category_name":"其他","address":"静安区南京西路818号818广场6楼(石门一路口)"},{"poiid":"B2094757D06AA5FE429E","title":"滋滋星","lon":"121.46021973","lat":"31.229662288","category":"99","category_name":"泰国／越南菜品餐厅","address":"静安区吴江路200号2楼(近南京西路)"},{"poiid":"B2094757D06FA2FC439E","title":"南翔馒头店(吴江路店)","lon":"121.46085","lat":"31.22968","category":"68","category_name":"快餐厅","address":"静安区吴江路269号湟普汇2楼(近茂名北路)"},{"poiid":"B2094757DA6EA6FB419A","title":"合点寿司(南京西路店)","lon":"121.461213999998","lat":"31.2304790000002","category":"95","category_name":"日本料理","address":"静安区南京西路818号818广场B1楼(近石门一路)"},{"poiid":"B2094757D06FA3F9429F","title":"权味 吴江路店","lon":"121.461074","lat":"31.230026","category":"96","category_name":"韩国料理","address":"静安区吴江路169号四季坊商场2楼(近石门一路)"},{"poiid":"B2094655D26FA5FC489A","title":"四季坊","lon":"121.46162","lat":"31.22993","category":"119","category_name":"商场","address":"静安区吴江路169号2楼(近南京西路)"},{"poiid":"B2094757D06FAAF94793","title":"乡音书苑","lon":"121.460323154","lat":"31.2307423837","category":"260","category_name":"其他","address":"静安区南京西路860弄1号(近石门一路)"},{"poiid":"B2094757D06FA6FF429B","title":"泰意Lapis Cafe","lon":"121.460911738","lat":"31.2306823097","category":"94","category_name":"西餐厅","address":"静安区南京西路818号818广场6楼(近石门一路)"},{"poiid":"B2094757D76AA1FF469F","title":"拉面玩家 四季坊店","lon":"121.461104","lat":"31.229991","category":"68","category_name":"快餐厅","address":"静安区吴江路153号四季坊242单位(近石门一路)"},{"poiid":"B2094757D469A2F9449D","title":"锅品面吧 吴江路店 Noodle Bar","lon":"121.460099","lat":"31.229882","category":"68","category_name":"快餐厅","address":"静安区吴江路202号(近泰兴路)"},{"poiid":"B2094752D56DAAF9469B","title":"点点心茶餐厅","lon":"121.459487","lat":"31.230247","category":"247","category_name":"餐饮美食","address":"南京西路889号2楼"},{"poiid":"B2094757D065AAFC419E","title":"力士相撲焼肉","lon":"121.459747738","lat":"31.2295532857","category":"500","category_name":"未知分类","address":"上海静安区江宁路四季坊"},{"poiid":"B2094757D06FA2FA449F","title":"西北郎烧烤(吴江路店)","lon":"121.46028","lat":"31.22956","category":"68","category_name":"快餐厅","address":"静安区吴江路休闲街200号2楼(近泰兴路)"},{"poiid":"B2094654D564ABFA419B","title":"东方海外大厦","lon":"121.461","lat":"31.2295","category":"46","category_name":"楼宇","address":"上海,上海市,延安中路841号"},{"poiid":"B2094757D06FA1F84492","title":"棒约翰比萨(四季坊店)","lon":"121.460259767","lat":"31.2294456435","category":"94","category_name":"西餐厅","address":"静安区吴江路169号四季坊108(泰兴路吴江路)"},{"poiid":"B2094750DA68A2F54792","title":"LA PASTA 義面屋","lon":"121.460853","lat":"31.230667","category":"247","category_name":"餐饮美食","address":null},{"poiid":"B2094757D06FA0F5479D","title":"蝶园(吴江路店)","lon":"121.45954","lat":"31.22913","category":"76","category_name":"上海菜","address":"静安区吴江路269号301-302室(近茂名北路)"},{"poiid":"B2094757D56CABFB419A","title":"顺风港湾","lon":"121.45971","lat":"31.229015","category":"76","category_name":"上海菜","address":"静安区泰兴路175号经典茂名裙房4楼(近吴江路)"},{"poiid":"B2094757D66FA6FA469F","title":"GAP(南京西路店)","lon":"121.46075169","lat":"31.230473985","category":"141","category_name":"服装鞋帽皮具店","address":"静安区南京西路819号中创大厦1-2楼(石门一路口)"},{"poiid":"B2094757D06FA2F84198","title":"早安巴黎(吴江路店)","lon":"121.45957","lat":"31.22929","category":"112","category_name":"糕饼店","address":"静安区吴江路169号四季坊1楼114号单元(近石门一路)"},{"poiid":"B2094757D06FA3F4499D","title":"DQ冰雪皇后(吴江店)","lon":"121.46162","lat":"31.229935","category":"113","category_name":"冷饮店","address":"静安区吴江路169号四季坊1楼(近石门一路)"},{"poiid":"B2094757D06FA2FE499B","title":"红宝石(吴江店)","lon":"121.46073","lat":"31.22963","category":"67","category_name":"甜品店","address":"静安区吴江路198号(近泰兴路)"},{"poiid":"B2094654DA6CA1F5469A","title":"香啡缤 吴江路店 Coffee Bean&Tea Leaf","lon":"121.461022054","lat":"31.229906793","category":"65","category_name":"咖啡厅","address":"静安区吴江路169号静安四季坊145-146单元(近石门一路)"},{"poiid":"B2094757D06FA2FE499A","title":"麦当劳(四季坊店)","lon":"121.46101","lat":"31.22957","category":"68","category_name":"快餐厅","address":"静安区吴江路169号四季坊B1楼B101号铺(近南京西路地铁站3号出口)"},{"poiid":"B2094757D06FA7FD449D","title":"阿拉丁麻辣烫(四季坊店)","lon":"121.46058397","lat":"31.229648747","category":"68","category_name":"快餐厅","address":"静安区吴江路169号四季坊B1109号商铺(近石门一路)"},{"poiid":"B2094750D565A1FA489A","title":"花の舞","lon":"121.460815","lat":"31.230707","category":"95","category_name":"日本料理","address":"静安区南京西路819号中创大厦5楼(近吴江路)"},{"poiid":"B2094757D06FA1FD459B","title":"芭斯罗缤(四季坊店)","lon":"121.4603","lat":"31.22955","category":"67","category_name":"甜品店","address":"静安区吴江路169号四季坊111号(近石门一路)"},{"poiid":"B2094757D06FA2FD4392","title":"卡卡圈坊","lon":"121.46009198","lat":"31.229713623","category":"67","category_name":"甜品店","address":"上海吴江路169号四季坊142单元"},{"poiid":"B2094655D26DA6FA479B","title":"一兆韦德健身(吴江路)","lon":"121.46054","lat":"31.22963","category":"221","category_name":"健身中心","address":"静安区吴江路169号四季坊B1楼15号(近石门一路)"},{"poiid":"B2094757D168A7F5429B","title":"江边城外巫山烤全鱼(南京西路店)","lon":"121.460719078","lat":"31.2302828712","category":"71","category_name":"四川菜","address":"静安区南京西路819号中创大厦5楼(近地铁2号线南京西路站)"},{"poiid":"B2094757D06EAAFA4799","title":"吴江路美食街","lon":"121.45953","lat":"31.22911","category":"68","category_name":"快餐厅","address":"静安区吴江路美食休闲购物(近石门一路)"},{"poiid":"B2094757D06EAAF9449E","title":"掌上韩品 吴江路店","lon":"121.4598384","lat":"31.2297555","category":"96","category_name":"韩国料理","address":"静安区吴江路200号(近南京西路)"},{"poiid":"B2094753D76FAAFA449C","title":"上海滩国泰旗舰店","lon":"121.466011","lat":"31.216125","category":"249","category_name":"购物服务","address":"淮海中路868号"},{"poiid":"B209475CD564A7F84292","title":"上海滩新天地店","lon":"121.47463","lat":"31.22164","category":"119","category_name":"商场","address":"\"太仓路181弄新天地北里15号\r\n\""},{"poiid":"B209475CD564A7F8439E","title":"上海滩中信泰富店","lon":"121.45602","lat":"31.22851","category":"119","category_name":"商场","address":"\"南京西路1168号中信泰富广场，店铺号221.\r\n\""},{"poiid":"B2094655D268ABFC4792","title":"吴江路休闲街","lon":"121.46067","lat":"31.22994","category":"116","category_name":"特色商业街","address":"上海吴江路休闲街"},{"poiid":"B2094654DA6CA1F5459E","title":"满记甜品 吴江路店","lon":"121.4610946","lat":"31.2301023","category":"67","category_name":"甜品店","address":"静安区吴江路169号四季坊商场1楼102号单元(近南京西路)"},{"poiid":"B2094654DB69A4F84299","title":"星巴克(吴江路店)","lon":"121.461502","lat":"31.230398","category":"65","category_name":"咖啡厅","address":"静安区吴江路128号(近石门一路)"},{"poiid":"B2094750D66CABF94899","title":"幸福131","lon":"121.4608","lat":"31.230554","category":"71","category_name":"四川菜","address":"静安区南京西路819号中创大厦4楼(近吴江路)"},{"poiid":"B2094655D268A3FB479D","title":"葡京茶餐厅(吴江路店)","lon":"121.45934","lat":"31.22889","category":"72","category_name":"广东菜","address":"静安区吴江路269号湟普汇303号商铺(近茂名北路)"},{"poiid":"B2094655D26FABFF419D","title":"静安小亭麻辣烫 吴江路店","lon":"121.459811054","lat":"31.229479793","category":"68","category_name":"快餐厅","address":"静安区吴江路269号湟普汇2楼(近茂名北路)"},{"poiid":"B2094757D06EABF5459E","title":"Awfully Chocolate(吴江路店)","lon":"121.46056","lat":"31.22957","category":"67","category_name":"甜品店","address":"静安区吴江路169号四季坊1楼(近石门一路)"},{"poiid":"B2094757D06FABFD4793","title":"wagas","lon":"121.460855738","lat":"31.2299632944","category":"500","category_name":"未知分类","address":"上海吴江路"},{"poiid":"B2094757D465A4FA489B","title":"牛阵日式火锅 四季坊店","lon":"121.46003","lat":"31.22982","category":"95","category_name":"日本料理","address":"静安区吴江路169号四季坊242单元(近石门一路)"},{"poiid":"B2094757D06FA0FB4998","title":"半山小馆","lon":"121.46059521","lat":"31.230252198","category":"91","category_name":"台湾菜","address":"静安区南京西路818号818广场6楼(石门一路口)"},{"poiid":"B2094750DA6BA1F54598","title":"斯利美SLM","lon":"121.45935","lat":"31.229806","category":"112","category_name":"糕饼店","address":"静安区吴江路169号四季坊149单元(近地铁2号线南京西路站)"},{"poiid":"B2094757D06EAAFF4298","title":"南京西路地铁站","lon":"121.459723","lat":"31.229734","category":"36","category_name":"地铁站","address":"上海轨道交通 二号线 轨交南京西路站 2"},{"poiid":"B2094757D06EABF54199","title":"洋面屋五右卫门 吴江路店","lon":"121.4595113","lat":"31.2295151","category":"98","category_name":"意式菜品餐厅","address":"静安区吴江路169号四季坊2楼(近吴江路美食街)"},{"poiid":"B2094757D06EAAF44799","title":"马莎百货(南京西路店)","lon":"121.46058","lat":"31.23005","category":"119","category_name":"商场","address":"静安区南京西路863号(近石门一路)"},{"poiid":"B2094655D268A3FB479C","title":"小杨生煎 湟普汇店","lon":"121.459811054","lat":"31.229479793","category":"68","category_name":"快餐厅","address":"静安区吴江路269号2楼(近茂名北路)"},{"poiid":"B2094757D06FA6FC4093","title":"藏珑云海","lon":"121.46067198","lat":"31.230039417","category":"260","category_name":"其他","address":"静安区南京西路818号818广场6楼(石门一路口)"},{"poiid":"B2094757D06AA5FE429E","title":"滋滋星","lon":"121.46021973","lat":"31.229662288","category":"99","category_name":"泰国／越南菜品餐厅","address":"静安区吴江路200号2楼(近南京西路)"},{"poiid":"B2094757D06FA2FC439E","title":"南翔馒头店(吴江路店)","lon":"121.46085","lat":"31.22968","category":"68","category_name":"快餐厅","address":"静安区吴江路269号湟普汇2楼(近茂名北路)"},{"poiid":"B2094757DA6EA6FB419A","title":"合点寿司(南京西路店)","lon":"121.461213999998","lat":"31.2304790000002","category":"95","category_name":"日本料理","address":"静安区南京西路818号818广场B1楼(近石门一路)"},{"poiid":"B2094757D06FA3F9429F","title":"权味 吴江路店","lon":"121.461074","lat":"31.230026","category":"96","category_name":"韩国料理","address":"静安区吴江路169号四季坊商场2楼(近石门一路)"},{"poiid":"B2094655D26FA5FC489A","title":"四季坊","lon":"121.46162","lat":"31.22993","category":"119","category_name":"商场","address":"静安区吴江路169号2楼(近南京西路)"},{"poiid":"B2094757D06FAAF94793","title":"乡音书苑","lon":"121.460323154","lat":"31.2307423837","category":"260","category_name":"其他","address":"静安区南京西路860弄1号(近石门一路)"},{"poiid":"B2094757D06FA6FF429B","title":"泰意Lapis Cafe","lon":"121.460911738","lat":"31.2306823097","category":"94","category_name":"西餐厅","address":"静安区南京西路818号818广场6楼(近石门一路)"},{"poiid":"B2094757D76AA1FF469F","title":"拉面玩家 四季坊店","lon":"121.461104","lat":"31.229991","category":"68","category_name":"快餐厅","address":"静安区吴江路153号四季坊242单位(近石门一路)"},{"poiid":"B2094757D469A2F9449D","title":"锅品面吧 吴江路店 Noodle Bar","lon":"121.460099","lat":"31.229882","category":"68","category_name":"快餐厅","address":"静安区吴江路202号(近泰兴路)"},{"poiid":"B2094752D56DAAF9469B","title":"点点心茶餐厅","lon":"121.459487","lat":"31.230247","category":"247","category_name":"餐饮美食","address":"南京西路889号2楼"},{"poiid":"B2094757D065AAFC419E","title":"力士相撲焼肉","lon":"121.459747738","lat":"31.2295532857","category":"500","category_name":"未知分类","address":"上海静安区江宁路四季坊"},{"poiid":"B2094757D06FA2FA449F","title":"西北郎烧烤(吴江路店)","lon":"121.46028","lat":"31.22956","category":"68","category_name":"快餐厅","address":"静安区吴江路休闲街200号2楼(近泰兴路)"},{"poiid":"B2094654D564ABFA419B","title":"东方海外大厦","lon":"121.461","lat":"31.2295","category":"46","category_name":"楼宇","address":"上海,上海市,延安中路841号"},{"poiid":"B2094757D06FA1F84492","title":"棒约翰比萨(四季坊店)","lon":"121.460259767","lat":"31.2294456435","category":"94","category_name":"西餐厅","address":"静安区吴江路169号四季坊108(泰兴路吴江路)"},{"poiid":"B2094750DA68A2F54792","title":"LA PASTA 義面屋","lon":"121.460853","lat":"31.230667","category":"247","category_name":"餐饮美食","address":null},{"poiid":"B2094757D06FA0F5479D","title":"蝶园(吴江路店)","lon":"121.45954","lat":"31.22913","category":"76","category_name":"上海菜","address":"静安区吴江路269号301-302室(近茂名北路)"},{"poiid":"B2094757D56CABFB419A","title":"顺风港湾","lon":"121.45971","lat":"31.229015","category":"76","category_name":"上海菜","address":"静安区泰兴路175号经典茂名裙房4楼(近吴江路)"},{"poiid":"B2094757D66FA6FA469F","title":"GAP(南京西路店)","lon":"121.46075169","lat":"31.230473985","category":"141","category_name":"服装鞋帽皮具店","address":"静安区南京西路819号中创大厦1-2楼(石门一路口)"},{"poiid":"B2094757D06FA2F84198","title":"早安巴黎(吴江路店)","lon":"121.45957","lat":"31.22929","category":"112","category_name":"糕饼店","address":"静安区吴江路169号四季坊1楼114号单元(近石门一路)"},{"poiid":"B2094757D06FA3F4499D","title":"DQ冰雪皇后(吴江店)","lon":"121.46162","lat":"31.229935","category":"113","category_name":"冷饮店","address":"静安区吴江路169号四季坊1楼(近石门一路)"},{"poiid":"B2094757D06FA2FE499B","title":"红宝石(吴江店)","lon":"121.46073","lat":"31.22963","category":"67","category_name":"甜品店","address":"静安区吴江路198号(近泰兴路)"},{"poiid":"B2094654DA6CA1F5469A","title":"香啡缤 吴江路店 Coffee Bean&Tea Leaf","lon":"121.461022054","lat":"31.229906793","category":"65","category_name":"咖啡厅","address":"静安区吴江路169号静安四季坊145-146单元(近石门一路)"},{"poiid":"B2094757D06FA2FE499A","title":"麦当劳(四季坊店)","lon":"121.46101","lat":"31.22957","category":"68","category_name":"快餐厅","address":"静安区吴江路169号四季坊B1楼B101号铺(近南京西路地铁站3号出口)"},{"poiid":"B2094757D06FA7FD449D","title":"阿拉丁麻辣烫(四季坊店)","lon":"121.46058397","lat":"31.229648747","category":"68","category_name":"快餐厅","address":"静安区吴江路169号四季坊B1109号商铺(近石门一路)"},{"poiid":"B2094750D565A1FA489A","title":"花の舞","lon":"121.460815","lat":"31.230707","category":"95","category_name":"日本料理","address":"静安区南京西路819号中创大厦5楼(近吴江路)"},{"poiid":"B2094757D06FA1FD459B","title":"芭斯罗缤(四季坊店)","lon":"121.4603","lat":"31.22955","category":"67","category_name":"甜品店","address":"静安区吴江路169号四季坊111号(近石门一路)"},{"poiid":"B2094757D06FA2FD4392","title":"卡卡圈坊","lon":"121.46009198","lat":"31.229713623","category":"67","category_name":"甜品店","address":"上海吴江路169号四季坊142单元"},{"poiid":"B2094655D26DA6FA479B","title":"一兆韦德健身(吴江路)","lon":"121.46054","lat":"31.22963","category":"221","category_name":"健身中心","address":"静安区吴江路169号四季坊B1楼15号(近石门一路)"}]