[{"poiid":"B2094757D06FA2FD4399","title":"吉祥草","lon":"121.47559","lat":"31.21365","category":"89","category_name":"中式素餐馆","address":"卢湾区马当路428号2楼(近合肥路)"},{"poiid":"B2094757D06FA3FC459D","title":"COSTA COFFEE(马当路店)","lon":"121.47564265","lat":"31.2161755734","category":"65","category_name":"咖啡厅","address":"卢湾区马当路245号新天地时尚购物广场L117、L220、L243室(近复兴中路)"},{"poiid":"B2094757D06FA4FA4192","title":"SMUDGEstore(林俊杰SMG)","lon":"121.47483764","lat":"31.215852575","category":"141","category_name":"服装鞋帽皮具店","address":"上海市卢湾区马当路新天地时尚B108号"},{"poiid":"B2094753D76FAAFA449C","title":"上海滩国泰旗舰店","lon":"121.466011","lat":"31.216125","category":"249","category_name":"购物服务","address":"淮海中路868号"},{"poiid":"B209475CD564A7F84292","title":"上海滩新天地店","lon":"121.47463","lat":"31.22164","category":"119","category_name":"商场","address":"\"太仓路181弄新天地北里15号\r\n\""},{"poiid":"B209475CD564A7F8439E","title":"上海滩中信泰富店","lon":"121.45602","lat":"31.22851","category":"119","category_name":"商场","address":"\"南京西路1168号中信泰富广场，店铺号221.\r\n\""},{"poiid":"B2094751D56BA1F44893","title":"壹品饼家（新天地店）","lon":"121.47524","lat":"31.21418","category":"67","category_name":"甜品店","address":"卢湾区卢湾区马当路245号新天地时尚B1楼(近复兴中路)"},{"poiid":"B2094757D06FA4F44098","title":"何师傅面馆","lon":"121.47698","lat":"31.21536","category":"68","category_name":"快餐厅","address":"卢湾区黄陂南路618号(近合肥路)"},{"poiid":"B2094654DA6DA5FC459A","title":"宝鼎大厦","lon":"121.477","lat":"31.212","category":"46","category_name":"楼宇","address":"闸北区共和新路3703,3737号"},{"poiid":"B2094757D06EAAFB4592","title":"新天地地铁站","lon":"121.47513982","lat":"31.216345887","category":"36","category_name":"地铁站","address":"上海轨道交通 十号线 轨交新天地站 10"},{"poiid":"B2094750D26EABFA499F","title":"吉祥草素食馆 Lucky  Zen&Veg  Restaurant","lon":"121.47517238998","lat":"31.213610898688","category":"89","category_name":"中式素餐馆","address":"马当路428号2楼近合肥路"},{"poiid":"B2094655D26EA5F4429B","title":"夜上海(新天地店)","lon":"121.47749","lat":"31.21282","category":"248","category_name":"生活娱乐","address":"卢湾区黄陂南路338号"},{"poiid":"B2094757D069ABFA409C","title":"上海市基督教诸圣堂","lon":"121.473615","lat":"31.215621","category":"245","category_name":"教堂","address":"上海复兴中路425号(近淡水路)"},{"poiid":"B2094757D16EA4F44398","title":"黃陂南路751號創意園區","lon":"121.47749573","lat":"31.213613946","category":"500","category_name":"未知分类","address":"上海黃陂南路751"},{"poiid":"B2094654DB6BA4FB469F","title":"卓维700上海创意产业集聚区","lon":"121.47692","lat":"31.21411","category":"45","category_name":"产业园区","address":"黄陂南路700"},{"poiid":"B2094654DA6FA3FF409E","title":"沧浪亭(马当路)","lon":"121.47561","lat":"31.21362","category":"87","category_name":"特色／地方风味餐厅","address":"卢湾区马当路355号(近合肥路)"},{"poiid":"B2094654DB6BA4FB469D","title":"豪享来中西餐厅(马当路)","lon":"121.47533","lat":"31.21392","category":"94","category_name":"西餐厅","address":"卢湾区马当路428号(近合肥路)"},{"poiid":"B2094654DA6FA3FF409F","title":"马当小区","lon":"121.47568","lat":"31.21344","category":"47","category_name":"住宅区","address":"马当路357弄1-8号"},{"poiid":"B2094757D06EAAFD4992","title":"地铁十号线","lon":"121.47509765","lat":"31.216314315","category":"36","category_name":"地铁站","address":"上海虹桥火车站/航中路- 新江湾城 轨道交通十号线 轨交 10"},{"poiid":"B2094757D06AA4F5499E","title":"central studios奂镜","lon":"121.477864","lat":"31.213331","category":"500","category_name":"未知分类","address":"上海市黄陂南路751号1号楼1楼"},{"poiid":"B2094750D565A1F4469D","title":"CASA700","lon":"121.476936","lat":"31.215234","category":"247","category_name":"餐饮美食","address":"黄陂南路700号"},{"poiid":"B2094655D26CA4F54592","title":"建德坊","lon":"121.47675","lat":"31.212887","category":"47","category_name":"住宅区","address":"建国东路328弄1-22号"},{"poiid":"B2094757D06BA4FF4299","title":"卢湾区第一中心小学","lon":"121.47419","lat":"31.21231","category":"56","category_name":"小学","address":"卢湾区淡水路416号(淡水路建国东路)"},{"poiid":"B2094654DA6FA3FF429A","title":"邦德造型设计","lon":"121.47606","lat":"31.21234","category":"148","category_name":"美容美发店","address":"卢湾区建国东路342号(近马当路)"},{"poiid":"B2094757D069A1FE4999","title":"宝宝文具店","lon":"121.475321","lat":"31.213992","category":"139","category_name":"文化用品店","address":"卢湾区马当路420号(近合肥路)"},{"poiid":"B2094654DA6FA3FD489E","title":"福悦楼酒家","lon":"121.47520771349","lat":"31.214405676936","category":"76","category_name":"上海菜","address":"卢湾区马当路408号(近合肥路)"},{"poiid":"B2094654DA6FA3FF409C","title":"丰裕马南油豆腐细粉汤专卖马当店","lon":"121.47567","lat":"31.21329","category":"257","category_name":"中餐厅","address":"卢湾区马当路359号(近合肥路)"},{"poiid":"B2094757D16DAAFA479F","title":"FRANC franc","lon":"121.475682","lat":"31.213448","category":"500","category_name":"未知分类","address":"上海马当路"},{"poiid":"B2094655D26CA4F4469B","title":"健乐小区","lon":"121.47493","lat":"31.2132","category":"47","category_name":"住宅区","address":"淡水路345弄1-32号"},{"poiid":"B2094654DA6FA3FC499D","title":"上海市卢湾区人民法院","lon":"121.47657","lat":"31.21483","category":"608","category_name":"法院","address":"合肥路213"},{"poiid":"B2094757D16DA1F54699","title":"京世造型","lon":"121.476757","lat":"31.212887","category":"148","category_name":"美容美发店","address":"上海卢湾区建国东路318号"},{"poiid":"B2094757D064A4F94598","title":"复兴苑","lon":"121.47475","lat":"31.213816","category":"252","category_name":"楼宇机构","address":"上海合肥路淡水路"},{"poiid":"B2094654DA6FA3FF4093","title":"M·D发型创作中心","lon":"121.4757","lat":"31.21312","category":"148","category_name":"美容美发店","address":"马当路365"},{"poiid":"B209475DD66BA6FE449B","title":"韵阁","lon":"121.475058","lat":"31.213829","category":"94","category_name":"西餐厅","address":"上海黄浦区合肥路374号(近黄陂南路）"},{"poiid":"B2094655D264A7F4409B","title":"好德便利(马当店)","lon":"121.4757","lat":"31.21303","category":"117","category_name":"便民商店/便利店","address":"马当路369号"},{"poiid":"B2094654DA6FA3FF4198","title":"光明便利No.234","lon":"121.47571","lat":"31.21303","category":"117","category_name":"便民商店/便利店","address":"马当路369"},{"poiid":"B2094750D76CA3FF4098","title":"3Q脆皮鸡排","lon":"121.474","lat":"31.2144","category":"68","category_name":"快餐厅","address":"卢湾区合肥路297号(近淡水路)"},{"poiid":"B209475CD06BA7F9479B","title":"Small Spice","lon":"121.474174","lat":"31.213106","category":"75","category_name":"浙江菜","address":"淡水路250号"},{"poiid":"B2094654DA6FA3FE4299","title":"淡水公寓","lon":"121.47429","lat":"31.212645","category":"47","category_name":"住宅区","address":"上海市卢湾区淡水路361号"},{"poiid":"B2094757D06AA3FD489C","title":"YAMADO(泰康路店)","lon":"121.475171","lat":"31.213657","category":"141","category_name":"服装鞋帽皮具店","address":"卢湾区泰康路254号(近瑞金二路)"},{"poiid":"B2094757D065ABF5469D","title":"均瑶国际广场上海歌城","lon":"121.47569473","lat":"31.213731948","category":"500","category_name":"未知分类","address":"上海肇加浜路789"},{"poiid":"B2094654DA6FA3FF4098","title":"淮海社区文化活动中心","lon":"121.47554","lat":"31.21393","category":"248","category_name":"生活娱乐","address":"卢湾区马当路349号(近合肥路)"},{"poiid":"B2094655D36CA0F9499C","title":"建国东路重庆南路","lon":"121.47568","lat":"31.21249","category":"38","category_name":"公交车站","address":""},{"poiid":"B2094757D16FA6FC4698","title":"黄陂南路700号","lon":"121.47647673","lat":"31.214120956","category":"500","category_name":"未知分类","address":"上海市卢湾区复兴中路"},{"poiid":"B2094757D16BA7F5499A","title":"东方童画","lon":"121.475249738","lat":"31.2139889541","category":"253","category_name":"校园生活","address":"上海市卢湾区黄陂南路"},{"poiid":"B2094655D26AA2F9499E","title":"新雅粤菜馆食品连锁合肥路店","lon":"121.4748","lat":"31.21433","category":"247","category_name":"餐饮美食","address":"卢湾区合肥路271号(马当路口)"},{"poiid":"B2094654DA6DA6F5499F","title":"华仑大厦","lon":"121.476","lat":"31.2124","category":"46","category_name":"楼宇","address":"徐家汇路560号"},{"poiid":"B2094654DA6FA3FD4999","title":"上海市市政工程建设发展有限公司","lon":"121.47535","lat":"31.2136","category":"263","category_name":"公司","address":"马当路430"},{"poiid":"B2094757D06BA6FA459C","title":"邦德造型 建国东路","lon":"121.47539","lat":"31.213984","category":"148","category_name":"美容美发店","address":"上海建国东路马当路"},{"poiid":"B2094757D16EA6FF449E","title":"卢湾区淮海路街道社区事物办理中心","lon":"121.475542","lat":"31.213934","category":"500","category_name":"未知分类","address":"上海马当路349号"},{"poiid":"B2094757D06FA2FD4399","title":"吉祥草","lon":"121.47559","lat":"31.21365","category":"89","category_name":"中式素餐馆","address":"卢湾区马当路428号2楼(近合肥路)"},{"poiid":"B2094757D06FA3FC459D","title":"COSTA COFFEE(马当路店)","lon":"121.47564265","lat":"31.2161755734","category":"65","category_name":"咖啡厅","address":"卢湾区马当路245号新天地时尚购物广场L117、L220、L243室(近复兴中路)"},{"poiid":"B2094757D06FA4FA4192","title":"SMUDGEstore(林俊杰SMG)","lon":"121.47483764","lat":"31.215852575","category":"141","category_name":"服装鞋帽皮具店","address":"上海市卢湾区马当路新天地时尚B108号"},{"poiid":"B2094753D76FAAFA449C","title":"上海滩国泰旗舰店","lon":"121.466011","lat":"31.216125","category":"249","category_name":"购物服务","address":"淮海中路868号"},{"poiid":"B209475CD564A7F84292","title":"上海滩新天地店","lon":"121.47463","lat":"31.22164","category":"119","category_name":"商场","address":"\"太仓路181弄新天地北里15号\r\n\""},{"poiid":"B209475CD564A7F8439E","title":"上海滩中信泰富店","lon":"121.45602","lat":"31.22851","category":"119","category_name":"商场","address":"\"南京西路1168号中信泰富广场，店铺号221.\r\n\""},{"poiid":"B2094751D56BA1F44893","title":"壹品饼家（新天地店）","lon":"121.47524","lat":"31.21418","category":"67","category_name":"甜品店","address":"卢湾区卢湾区马当路245号新天地时尚B1楼(近复兴中路)"},{"poiid":"B2094757D06FA4F44098","title":"何师傅面馆","lon":"121.47698","lat":"31.21536","category":"68","category_name":"快餐厅","address":"卢湾区黄陂南路618号(近合肥路)"},{"poiid":"B2094654DA6DA5FC459A","title":"宝鼎大厦","lon":"121.477","lat":"31.212","category":"46","category_name":"楼宇","address":"闸北区共和新路3703,3737号"},{"poiid":"B2094757D06EAAFB4592","title":"新天地地铁站","lon":"121.47513982","lat":"31.216345887","category":"36","category_name":"地铁站","address":"上海轨道交通 十号线 轨交新天地站 10"},{"poiid":"B2094750D26EABFA499F","title":"吉祥草素食馆 Lucky  Zen&Veg  Restaurant","lon":"121.47517238998","lat":"31.213610898688","category":"89","category_name":"中式素餐馆","address":"马当路428号2楼近合肥路"},{"poiid":"B2094655D26EA5F4429B","title":"夜上海(新天地店)","lon":"121.47749","lat":"31.21282","category":"248","category_name":"生活娱乐","address":"卢湾区黄陂南路338号"},{"poiid":"B2094757D069ABFA409C","title":"上海市基督教诸圣堂","lon":"121.473615","lat":"31.215621","category":"245","category_name":"教堂","address":"上海复兴中路425号(近淡水路)"},{"poiid":"B2094757D16EA4F44398","title":"黃陂南路751號創意園區","lon":"121.47749573","lat":"31.213613946","category":"500","category_name":"未知分类","address":"上海黃陂南路751"},{"poiid":"B2094654DB6BA4FB469F","title":"卓维700上海创意产业集聚区","lon":"121.47692","lat":"31.21411","category":"45","category_name":"产业园区","address":"黄陂南路700"},{"poiid":"B2094654DA6FA3FF409E","title":"沧浪亭(马当路)","lon":"121.47561","lat":"31.21362","category":"87","category_name":"特色／地方风味餐厅","address":"卢湾区马当路355号(近合肥路)"},{"poiid":"B2094654DB6BA4FB469D","title":"豪享来中西餐厅(马当路)","lon":"121.47533","lat":"31.21392","category":"94","category_name":"西餐厅","address":"卢湾区马当路428号(近合肥路)"},{"poiid":"B2094654DA6FA3FF409F","title":"马当小区","lon":"121.47568","lat":"31.21344","category":"47","category_name":"住宅区","address":"马当路357弄1-8号"},{"poiid":"B2094757D06EAAFD4992","title":"地铁十号线","lon":"121.47509765","lat":"31.216314315","category":"36","category_name":"地铁站","address":"上海虹桥火车站/航中路- 新江湾城 轨道交通十号线 轨交 10"},{"poiid":"B2094757D06AA4F5499E","title":"central studios奂镜","lon":"121.477864","lat":"31.213331","category":"500","category_name":"未知分类","address":"上海市黄陂南路751号1号楼1楼"},{"poiid":"B2094750D565A1F4469D","title":"CASA700","lon":"121.476936","lat":"31.215234","category":"247","category_name":"餐饮美食","address":"黄陂南路700号"},{"poiid":"B2094655D26CA4F54592","title":"建德坊","lon":"121.47675","lat":"31.212887","category":"47","category_name":"住宅区","address":"建国东路328弄1-22号"},{"poiid":"B2094757D06BA4FF4299","title":"卢湾区第一中心小学","lon":"121.47419","lat":"31.21231","category":"56","category_name":"小学","address":"卢湾区淡水路416号(淡水路建国东路)"},{"poiid":"B2094654DA6FA3FF429A","title":"邦德造型设计","lon":"121.47606","lat":"31.21234","category":"148","category_name":"美容美发店","address":"卢湾区建国东路342号(近马当路)"},{"poiid":"B2094757D069A1FE4999","title":"宝宝文具店","lon":"121.475321","lat":"31.213992","category":"139","category_name":"文化用品店","address":"卢湾区马当路420号(近合肥路)"},{"poiid":"B2094654DA6FA3FD489E","title":"福悦楼酒家","lon":"121.47520771349","lat":"31.214405676936","category":"76","category_name":"上海菜","address":"卢湾区马当路408号(近合肥路)"},{"poiid":"B2094654DA6FA3FF409C","title":"丰裕马南油豆腐细粉汤专卖马当店","lon":"121.47567","lat":"31.21329","category":"257","category_name":"中餐厅","address":"卢湾区马当路359号(近合肥路)"},{"poiid":"B2094757D16DAAFA479F","title":"FRANC franc","lon":"121.475682","lat":"31.213448","category":"500","category_name":"未知分类","address":"上海马当路"},{"poiid":"B2094655D26CA4F4469B","title":"健乐小区","lon":"121.47493","lat":"31.2132","category":"47","category_name":"住宅区","address":"淡水路345弄1-32号"},{"poiid":"B2094654DA6FA3FC499D","title":"上海市卢湾区人民法院","lon":"121.47657","lat":"31.21483","category":"608","category_name":"法院","address":"合肥路213"},{"poiid":"B2094757D16DA1F54699","title":"京世造型","lon":"121.476757","lat":"31.212887","category":"148","category_name":"美容美发店","address":"上海卢湾区建国东路318号"},{"poiid":"B2094757D064A4F94598","title":"复兴苑","lon":"121.47475","lat":"31.213816","category":"252","category_name":"楼宇机构","address":"上海合肥路淡水路"},{"poiid":"B2094654DA6FA3FF4093","title":"M·D发型创作中心","lon":"121.4757","lat":"31.21312","category":"148","category_name":"美容美发店","address":"马当路365"},{"poiid":"B209475DD66BA6FE449B","title":"韵阁","lon":"121.475058","lat":"31.213829","category":"94","category_name":"西餐厅","address":"上海黄浦区合肥路374号(近黄陂南路）"},{"poiid":"B2094655D264A7F4409B","title":"好德便利(马当店)","lon":"121.4757","lat":"31.21303","category":"117","category_name":"便民商店/便利店","address":"马当路369号"},{"poiid":"B2094654DA6FA3FF4198","title":"光明便利No.234","lon":"121.47571","lat":"31.21303","category":"117","category_name":"便民商店/便利店","address":"马当路369"},{"poiid":"B2094750D76CA3FF4098","title":"3Q脆皮鸡排","lon":"121.474","lat":"31.2144","category":"68","category_name":"快餐厅","address":"卢湾区合肥路297号(近淡水路)"},{"poiid":"B209475CD06BA7F9479B","title":"Small Spice","lon":"121.474174","lat":"31.213106","category":"75","category_name":"浙江菜","address":"淡水路250号"},{"poiid":"B2094654DA6FA3FE4299","title":"淡水公寓","lon":"121.47429","lat":"31.212645","category":"47","category_name":"住宅区","address":"上海市卢湾区淡水路361号"},{"poiid":"B2094757D06AA3FD489C","title":"YAMADO(泰康路店)","lon":"121.475171","lat":"31.213657","category":"141","category_name":"服装鞋帽皮具店","address":"卢湾区泰康路254号(近瑞金二路)"},{"poiid":"B2094757D065ABF5469D","title":"均瑶国际广场上海歌城","lon":"121.47569473","lat":"31.213731948","category":"500","category_name":"未知分类","address":"上海肇加浜路789"},{"poiid":"B2094654DA6FA3FF4098","title":"淮海社区文化活动中心","lon":"121.47554","lat":"31.21393","category":"248","category_name":"生活娱乐","address":"卢湾区马当路349号(近合肥路)"},{"poiid":"B2094655D36CA0F9499C","title":"建国东路重庆南路","lon":"121.47568","lat":"31.21249","category":"38","category_name":"公交车站","address":""},{"poiid":"B2094757D16FA6FC4698","title":"黄陂南路700号","lon":"121.47647673","lat":"31.214120956","category":"500","category_name":"未知分类","address":"上海市卢湾区复兴中路"},{"poiid":"B2094757D16BA7F5499A","title":"东方童画","lon":"121.475249738","lat":"31.2139889541","category":"253","category_name":"校园生活","address":"上海市卢湾区黄陂南路"},{"poiid":"B2094655D26AA2F9499E","title":"新雅粤菜馆食品连锁合肥路店","lon":"121.4748","lat":"31.21433","category":"247","category_name":"餐饮美食","address":"卢湾区合肥路271号(马当路口)"},{"poiid":"B2094654DA6DA6F5499F","title":"华仑大厦","lon":"121.476","lat":"31.2124","category":"46","category_name":"楼宇","address":"徐家汇路560号"},{"poiid":"B2094654DA6FA3FD4999","title":"上海市市政工程建设发展有限公司","lon":"121.47535","lat":"31.2136","category":"263","category_name":"公司","address":"马当路430"},{"poiid":"B2094757D06BA6FA459C","title":"邦德造型 建国东路","lon":"121.47539","lat":"31.213984","category":"148","category_name":"美容美发店","address":"上海建国东路马当路"},{"poiid":"B2094757D16EA6FF449E","title":"卢湾区淮海路街道社区事物办理中心","lon":"121.475542","lat":"31.213934","category":"500","category_name":"未知分类","address":"上海马当路349号"},{"poiid":"B2094757D06FA2FD4399","title":"吉祥草","lon":"121.47559","lat":"31.21365","category":"89","category_name":"中式素餐馆","address":"卢湾区马当路428号2楼(近合肥路)"},{"poiid":"B2094757D06FA3FC459D","title":"COSTA COFFEE(马当路店)","lon":"121.47564265","lat":"31.2161755734","category":"65","category_name":"咖啡厅","address":"卢湾区马当路245号新天地时尚购物广场L117、L220、L243室(近复兴中路)"},{"poiid":"B2094757D06FA4FA4192","title":"SMUDGEstore(林俊杰SMG)","lon":"121.47483764","lat":"31.215852575","category":"141","category_name":"服装鞋帽皮具店","address":"上海市卢湾区马当路新天地时尚B108号"},{"poiid":"B2094753D76FAAFA449C","title":"上海滩国泰旗舰店","lon":"121.466011","lat":"31.216125","category":"249","category_name":"购物服务","address":"淮海中路868号"},{"poiid":"B209475CD564A7F84292","title":"上海滩新天地店","lon":"121.47463","lat":"31.22164","category":"119","category_name":"商场","address":"\"太仓路181弄新天地北里15号\r\n\""},{"poiid":"B209475CD564A7F8439E","title":"上海滩中信泰富店","lon":"121.45602","lat":"31.22851","category":"119","category_name":"商场","address":"\"南京西路1168号中信泰富广场，店铺号221.\r\n\""},{"poiid":"B2094751D56BA1F44893","title":"壹品饼家（新天地店）","lon":"121.47524","lat":"31.21418","category":"67","category_name":"甜品店","address":"卢湾区卢湾区马当路245号新天地时尚B1楼(近复兴中路)"},{"poiid":"B2094757D06FA4F44098","title":"何师傅面馆","lon":"121.47698","lat":"31.21536","category":"68","category_name":"快餐厅","address":"卢湾区黄陂南路618号(近合肥路)"},{"poiid":"B2094654DA6DA5FC459A","title":"宝鼎大厦","lon":"121.477","lat":"31.212","category":"46","category_name":"楼宇","address":"闸北区共和新路3703,3737号"},{"poiid":"B2094757D06EAAFB4592","title":"新天地地铁站","lon":"121.47513982","lat":"31.216345887","category":"36","category_name":"地铁站","address":"上海轨道交通 十号线 轨交新天地站 10"},{"poiid":"B2094750D26EABFA499F","title":"吉祥草素食馆 Lucky  Zen&Veg  Restaurant","lon":"121.47517238998","lat":"31.213610898688","category":"89","category_name":"中式素餐馆","address":"马当路428号2楼近合肥路"},{"poiid":"B2094655D26EA5F4429B","title":"夜上海(新天地店)","lon":"121.47749","lat":"31.21282","category":"248","category_name":"生活娱乐","address":"卢湾区黄陂南路338号"},{"poiid":"B2094757D069ABFA409C","title":"上海市基督教诸圣堂","lon":"121.473615","lat":"31.215621","category":"245","category_name":"教堂","address":"上海复兴中路425号(近淡水路)"},{"poiid":"B2094757D16EA4F44398","title":"黃陂南路751號創意園區","lon":"121.47749573","lat":"31.213613946","category":"500","category_name":"未知分类","address":"上海黃陂南路751"},{"poiid":"B2094654DB6BA4FB469F","title":"卓维700上海创意产业集聚区","lon":"121.47692","lat":"31.21411","category":"45","category_name":"产业园区","address":"黄陂南路700"},{"poiid":"B2094654DA6FA3FF409E","title":"沧浪亭(马当路)","lon":"121.47561","lat":"31.21362","category":"87","category_name":"特色／地方风味餐厅","address":"卢湾区马当路355号(近合肥路)"},{"poiid":"B2094654DB6BA4FB469D","title":"豪享来中西餐厅(马当路)","lon":"121.47533","lat":"31.21392","category":"94","category_name":"西餐厅","address":"卢湾区马当路428号(近合肥路)"},{"poiid":"B2094654DA6FA3FF409F","title":"马当小区","lon":"121.47568","lat":"31.21344","category":"47","category_name":"住宅区","address":"马当路357弄1-8号"},{"poiid":"B2094757D06EAAFD4992","title":"地铁十号线","lon":"121.47509765","lat":"31.216314315","category":"36","category_name":"地铁站","address":"上海虹桥火车站/航中路- 新江湾城 轨道交通十号线 轨交 10"},{"poiid":"B2094757D06AA4F5499E","title":"central studios奂镜","lon":"121.477864","lat":"31.213331","category":"500","category_name":"未知分类","address":"上海市黄陂南路751号1号楼1楼"},{"poiid":"B2094750D565A1F4469D","title":"CASA700","lon":"121.476936","lat":"31.215234","category":"247","category_name":"餐饮美食","address":"黄陂南路700号"},{"poiid":"B2094655D26CA4F54592","title":"建德坊","lon":"121.47675","lat":"31.212887","category":"47","category_name":"住宅区","address":"建国东路328弄1-22号"},{"poiid":"B2094757D06BA4FF4299","title":"卢湾区第一中心小学","lon":"121.47419","lat":"31.21231","category":"56","category_name":"小学","address":"卢湾区淡水路416号(淡水路建国东路)"},{"poiid":"B2094654DA6FA3FF429A","title":"邦德造型设计","lon":"121.47606","lat":"31.21234","category":"148","category_name":"美容美发店","address":"卢湾区建国东路342号(近马当路)"},{"poiid":"B2094757D069A1FE4999","title":"宝宝文具店","lon":"121.475321","lat":"31.213992","category":"139","category_name":"文化用品店","address":"卢湾区马当路420号(近合肥路)"},{"poiid":"B2094654DA6FA3FD489E","title":"福悦楼酒家","lon":"121.47520771349","lat":"31.214405676936","category":"76","category_name":"上海菜","address":"卢湾区马当路408号(近合肥路)"},{"poiid":"B2094654DA6FA3FF409C","title":"丰裕马南油豆腐细粉汤专卖马当店","lon":"121.47567","lat":"31.21329","category":"257","category_name":"中餐厅","address":"卢湾区马当路359号(近合肥路)"},{"poiid":"B2094757D16DAAFA479F","title":"FRANC franc","lon":"121.475682","lat":"31.213448","category":"500","category_name":"未知分类","address":"上海马当路"},{"poiid":"B2094655D26CA4F4469B","title":"健乐小区","lon":"121.47493","lat":"31.2132","category":"47","category_name":"住宅区","address":"淡水路345弄1-32号"},{"poiid":"B2094654DA6FA3FC499D","title":"上海市卢湾区人民法院","lon":"121.47657","lat":"31.21483","category":"608","category_name":"法院","address":"合肥路213"},{"poiid":"B2094757D16DA1F54699","title":"京世造型","lon":"121.476757","lat":"31.212887","category":"148","category_name":"美容美发店","address":"上海卢湾区建国东路318号"},{"poiid":"B2094757D064A4F94598","title":"复兴苑","lon":"121.47475","lat":"31.213816","category":"252","category_name":"楼宇机构","address":"上海合肥路淡水路"},{"poiid":"B2094654DA6FA3FF4093","title":"M·D发型创作中心","lon":"121.4757","lat":"31.21312","category":"148","category_name":"美容美发店","address":"马当路365"},{"poiid":"B209475DD66BA6FE449B","title":"韵阁","lon":"121.475058","lat":"31.213829","category":"94","category_name":"西餐厅","address":"上海黄浦区合肥路374号(近黄陂南路）"},{"poiid":"B2094655D264A7F4409B","title":"好德便利(马当店)","lon":"121.4757","lat":"31.21303","category":"117","category_name":"便民商店/便利店","address":"马当路369号"},{"poiid":"B2094654DA6FA3FF4198","title":"光明便利No.234","lon":"121.47571","lat":"31.21303","category":"117","category_name":"便民商店/便利店","address":"马当路369"},{"poiid":"B2094750D76CA3FF4098","title":"3Q脆皮鸡排","lon":"121.474","lat":"31.2144","category":"68","category_name":"快餐厅","address":"卢湾区合肥路297号(近淡水路)"},{"poiid":"B209475CD06BA7F9479B","title":"Small Spice","lon":"121.474174","lat":"31.213106","category":"75","category_name":"浙江菜","address":"淡水路250号"},{"poiid":"B2094654DA6FA3FE4299","title":"淡水公寓","lon":"121.47429","lat":"31.212645","category":"47","category_name":"住宅区","address":"上海市卢湾区淡水路361号"},{"poiid":"B2094757D06AA3FD489C","title":"YAMADO(泰康路店)","lon":"121.475171","lat":"31.213657","category":"141","category_name":"服装鞋帽皮具店","address":"卢湾区泰康路254号(近瑞金二路)"},{"poiid":"B2094757D065ABF5469D","title":"均瑶国际广场上海歌城","lon":"121.47569473","lat":"31.213731948","category":"500","category_name":"未知分类","address":"上海肇加浜路789"},{"poiid":"B2094654DA6FA3FF4098","title":"淮海社区文化活动中心","lon":"121.47554","lat":"31.21393","category":"248","category_name":"生活娱乐","address":"卢湾区马当路349号(近合肥路)"},{"poiid":"B2094655D36CA0F9499C","title":"建国东路重庆南路","lon":"121.47568","lat":"31.21249","category":"38","category_name":"公交车站","address":""},{"poiid":"B2094757D16FA6FC4698","title":"黄陂南路700号","lon":"121.47647673","lat":"31.214120956","category":"500","category_name":"未知分类","address":"上海市卢湾区复兴中路"},{"poiid":"B2094757D16BA7F5499A","title":"东方童画","lon":"121.475249738","lat":"31.2139889541","category":"253","category_name":"校园生活","address":"上海市卢湾区黄陂南路"},{"poiid":"B2094655D26AA2F9499E","title":"新雅粤菜馆食品连锁合肥路店","lon":"121.4748","lat":"31.21433","category":"247","category_name":"餐饮美食","address":"卢湾区合肥路271号(马当路口)"},{"poiid":"B2094654DA6DA6F5499F","title":"华仑大厦","lon":"121.476","lat":"31.2124","category":"46","category_name":"楼宇","address":"徐家汇路560号"},{"poiid":"B2094654DA6FA3FD4999","title":"上海市市政工程建设发展有限公司","lon":"121.47535","lat":"31.2136","category":"263","category_name":"公司","address":"马当路430"},{"poiid":"B2094757D06BA6FA459C","title":"邦德造型 建国东路","lon":"121.47539","lat":"31.213984","category":"148","category_name":"美容美发店","address":"上海建国东路马当路"},{"poiid":"B2094757D16EA6FF449E","title":"卢湾区淮海路街道社区事物办理中心","lon":"121.475542","lat":"31.213934","category":"500","category_name":"未知分类","address":"上海马当路349号"},{"poiid":"B2094757D06FA2FD4399","title":"吉祥草","lon":"121.47559","lat":"31.21365","category":"89","category_name":"中式素餐馆","address":"卢湾区马当路428号2楼(近合肥路)"},{"poiid":"B2094757D06FA3FC459D","title":"COSTA COFFEE(马当路店)","lon":"121.47564265","lat":"31.2161755734","category":"65","category_name":"咖啡厅","address":"卢湾区马当路245号新天地时尚购物广场L117、L220、L243室(近复兴中路)"},{"poiid":"B2094757D06FA4FA4192","title":"SMUDGEstore(林俊杰SMG)","lon":"121.47483764","lat":"31.215852575","category":"141","category_name":"服装鞋帽皮具店","address":"上海市卢湾区马当路新天地时尚B108号"},{"poiid":"B2094753D76FAAFA449C","title":"上海滩国泰旗舰店","lon":"121.466011","lat":"31.216125","category":"249","category_name":"购物服务","address":"淮海中路868号"},{"poiid":"B209475CD564A7F84292","title":"上海滩新天地店","lon":"121.47463","lat":"31.22164","category":"119","category_name":"商场","address":"\"太仓路181弄新天地北里15号\r\n\""},{"poiid":"B209475CD564A7F8439E","title":"上海滩中信泰富店","lon":"121.45602","lat":"31.22851","category":"119","category_name":"商场","address":"\"南京西路1168号中信泰富广场，店铺号221.\r\n\""},{"poiid":"B2094751D56BA1F44893","title":"壹品饼家（新天地店）","lon":"121.47524","lat":"31.21418","category":"67","category_name":"甜品店","address":"卢湾区卢湾区马当路245号新天地时尚B1楼(近复兴中路)"},{"poiid":"B2094757D06FA4F44098","title":"何师傅面馆","lon":"121.47698","lat":"31.21536","category":"68","category_name":"快餐厅","address":"卢湾区黄陂南路618号(近合肥路)"},{"poiid":"B2094654DA6DA5FC459A","title":"宝鼎大厦","lon":"121.477","lat":"31.212","category":"46","category_name":"楼宇","address":"闸北区共和新路3703,3737号"},{"poiid":"B2094757D06EAAFB4592","title":"新天地地铁站","lon":"121.47513982","lat":"31.216345887","category":"36","category_name":"地铁站","address":"上海轨道交通 十号线 轨交新天地站 10"},{"poiid":"B2094750D26EABFA499F","title":"吉祥草素食馆 Lucky  Zen&Veg  Restaurant","lon":"121.47517238998","lat":"31.213610898688","category":"89","category_name":"中式素餐馆","address":"马当路428号2楼近合肥路"},{"poiid":"B2094655D26EA5F4429B","title":"夜上海(新天地店)","lon":"121.47749","lat":"31.21282","category":"248","category_name":"生活娱乐","address":"卢湾区黄陂南路338号"},{"poiid":"B2094757D069ABFA409C","title":"上海市基督教诸圣堂","lon":"121.473615","lat":"31.215621","category":"245","category_name":"教堂","address":"上海复兴中路425号(近淡水路)"},{"poiid":"B2094757D16EA4F44398","title":"黃陂南路751號創意園區","lon":"121.47749573","lat":"31.213613946","category":"500","category_name":"未知分类","address":"上海黃陂南路751"},{"poiid":"B2094654DB6BA4FB469F","title":"卓维700上海创意产业集聚区","lon":"121.47692","lat":"31.21411","category":"45","category_name":"产业园区","address":"黄陂南路700"},{"poiid":"B2094654DA6FA3FF409E","title":"沧浪亭(马当路)","lon":"121.47561","lat":"31.21362","category":"87","category_name":"特色／地方风味餐厅","address":"卢湾区马当路355号(近合肥路)"},{"poiid":"B2094654DB6BA4FB469D","title":"豪享来中西餐厅(马当路)","lon":"121.47533","lat":"31.21392","category":"94","category_name":"西餐厅","address":"卢湾区马当路428号(近合肥路)"},{"poiid":"B2094654DA6FA3FF409F","title":"马当小区","lon":"121.47568","lat":"31.21344","category":"47","category_name":"住宅区","address":"马当路357弄1-8号"},{"poiid":"B2094757D06EAAFD4992","title":"地铁十号线","lon":"121.47509765","lat":"31.216314315","category":"36","category_name":"地铁站","address":"上海虹桥火车站/航中路- 新江湾城 轨道交通十号线 轨交 10"},{"poiid":"B2094757D06AA4F5499E","title":"central studios奂镜","lon":"121.477864","lat":"31.213331","category":"500","category_name":"未知分类","address":"上海市黄陂南路751号1号楼1楼"},{"poiid":"B2094750D565A1F4469D","title":"CASA700","lon":"121.476936","lat":"31.215234","category":"247","category_name":"餐饮美食","address":"黄陂南路700号"},{"poiid":"B2094655D26CA4F54592","title":"建德坊","lon":"121.47675","lat":"31.212887","category":"47","category_name":"住宅区","address":"建国东路328弄1-22号"},{"poiid":"B2094757D06BA4FF4299","title":"卢湾区第一中心小学","lon":"121.47419","lat":"31.21231","category":"56","category_name":"小学","address":"卢湾区淡水路416号(淡水路建国东路)"},{"poiid":"B2094654DA6FA3FF429A","title":"邦德造型设计","lon":"121.47606","lat":"31.21234","category":"148","category_name":"美容美发店","address":"卢湾区建国东路342号(近马当路)"},{"poiid":"B2094757D069A1FE4999","title":"宝宝文具店","lon":"121.475321","lat":"31.213992","category":"139","category_name":"文化用品店","address":"卢湾区马当路420号(近合肥路)"},{"poiid":"B2094654DA6FA3FD489E","title":"福悦楼酒家","lon":"121.47520771349","lat":"31.214405676936","category":"76","category_name":"上海菜","address":"卢湾区马当路408号(近合肥路)"},{"poiid":"B2094654DA6FA3FF409C","title":"丰裕马南油豆腐细粉汤专卖马当店","lon":"121.47567","lat":"31.21329","category":"257","category_name":"中餐厅","address":"卢湾区马当路359号(近合肥路)"},{"poiid":"B2094757D16DAAFA479F","title":"FRANC franc","lon":"121.475682","lat":"31.213448","category":"500","category_name":"未知分类","address":"上海马当路"},{"poiid":"B2094655D26CA4F4469B","title":"健乐小区","lon":"121.47493","lat":"31.2132","category":"47","category_name":"住宅区","address":"淡水路345弄1-32号"},{"poiid":"B2094654DA6FA3FC499D","title":"上海市卢湾区人民法院","lon":"121.47657","lat":"31.21483","category":"608","category_name":"法院","address":"合肥路213"},{"poiid":"B2094757D16DA1F54699","title":"京世造型","lon":"121.476757","lat":"31.212887","category":"148","category_name":"美容美发店","address":"上海卢湾区建国东路318号"},{"poiid":"B2094757D064A4F94598","title":"复兴苑","lon":"121.47475","lat":"31.213816","category":"252","category_name":"楼宇机构","address":"上海合肥路淡水路"},{"poiid":"B2094654DA6FA3FF4093","title":"M·D发型创作中心","lon":"121.4757","lat":"31.21312","category":"148","category_name":"美容美发店","address":"马当路365"},{"poiid":"B209475DD66BA6FE449B","title":"韵阁","lon":"121.475058","lat":"31.213829","category":"94","category_name":"西餐厅","address":"上海黄浦区合肥路374号(近黄陂南路）"},{"poiid":"B2094655D264A7F4409B","title":"好德便利(马当店)","lon":"121.4757","lat":"31.21303","category":"117","category_name":"便民商店/便利店","address":"马当路369号"},{"poiid":"B2094654DA6FA3FF4198","title":"光明便利No.234","lon":"121.47571","lat":"31.21303","category":"117","category_name":"便民商店/便利店","address":"马当路369"},{"poiid":"B2094750D76CA3FF4098","title":"3Q脆皮鸡排","lon":"121.474","lat":"31.2144","category":"68","category_name":"快餐厅","address":"卢湾区合肥路297号(近淡水路)"},{"poiid":"B209475CD06BA7F9479B","title":"Small Spice","lon":"121.474174","lat":"31.213106","category":"75","category_name":"浙江菜","address":"淡水路250号"},{"poiid":"B2094654DA6FA3FE4299","title":"淡水公寓","lon":"121.47429","lat":"31.212645","category":"47","category_name":"住宅区","address":"上海市卢湾区淡水路361号"},{"poiid":"B2094757D06AA3FD489C","title":"YAMADO(泰康路店)","lon":"121.475171","lat":"31.213657","category":"141","category_name":"服装鞋帽皮具店","address":"卢湾区泰康路254号(近瑞金二路)"},{"poiid":"B2094757D065ABF5469D","title":"均瑶国际广场上海歌城","lon":"121.47569473","lat":"31.213731948","category":"500","category_name":"未知分类","address":"上海肇加浜路789"},{"poiid":"B2094654DA6FA3FF4098","title":"淮海社区文化活动中心","lon":"121.47554","lat":"31.21393","category":"248","category_name":"生活娱乐","address":"卢湾区马当路349号(近合肥路)"},{"poiid":"B2094655D36CA0F9499C","title":"建国东路重庆南路","lon":"121.47568","lat":"31.21249","category":"38","category_name":"公交车站","address":""},{"poiid":"B2094757D16FA6FC4698","title":"黄陂南路700号","lon":"121.47647673","lat":"31.214120956","category":"500","category_name":"未知分类","address":"上海市卢湾区复兴中路"},{"poiid":"B2094757D16BA7F5499A","title":"东方童画","lon":"121.475249738","lat":"31.2139889541","category":"253","category_name":"校园生活","address":"上海市卢湾区黄陂南路"},{"poiid":"B2094655D26AA2F9499E","title":"新雅粤菜馆食品连锁合肥路店","lon":"121.4748","lat":"31.21433","category":"247","category_name":"餐饮美食","address":"卢湾区合肥路271号(马当路口)"},{"poiid":"B2094654DA6DA6F5499F","title":"华仑大厦","lon":"121.476","lat":"31.2124","category":"46","category_name":"楼宇","address":"徐家汇路560号"},{"poiid":"B2094654DA6FA3FD4999","title":"上海市市政工程建设发展有限公司","lon":"121.47535","lat":"31.2136","category":"263","category_name":"公司","address":"马当路430"},{"poiid":"B2094757D06BA6FA459C","title":"邦德造型 建国东路","lon":"121.47539","lat":"31.213984","category":"148","category_name":"美容美发店","address":"上海建国东路马当路"},{"poiid":"B2094757D16EA6FF449E","title":"卢湾区淮海路街道社区事物办理中心","lon":"121.475542","lat":"31.213934","category":"500","category_name":"未知分类","address":"上海马当路349号"}]