[{"poiid":"B2094757D06FABF8469E","title":"长阳公馆","lon":"121.530209","lat":"31.267362","category":"76","category_name":"上海菜","address":"杨浦区长阳路1568号(近宁国路)"},{"poiid":"B2094655D36CA5F84698","title":"长阳路兰州路","lon":"121.52899","lat":"31.26702","category":"38","category_name":"公交车站","address":"上海长阳路兰州路"},{"poiid":"B2094654DB6BA2FD4692","title":"长阳新苑","lon":"121.52985","lat":"31.265314","category":"47","category_name":"住宅区","address":"长阳新苑位于杨浦长阳路1318号"},{"poiid":"B2094757D468A4FC4898","title":"小绍兴 长阳店","lon":"121.53008311795","lat":"31.268363145559","category":"68","category_name":"快餐厅","address":"杨浦区长阳路1527号(近眉州路)"},{"poiid":"B2094757D069A3FC459C","title":"杨浦区人民法院","lon":"121.530405","lat":"31.263854","category":"608","category_name":"法院","address":"上海河间路29号"},{"poiid":"B2094757D068A5FA439A","title":"豪享来上海平凉店","lon":"121.532","lat":"31.267","category":"247","category_name":"餐饮美食","address":"上海杨浦区平凉路1055号一楼"},{"poiid":"B2094655D26CA6F94398","title":"金鹏花园","lon":"121.52672","lat":"31.267475","category":"47","category_name":"住宅区","address":"上海兰州路1100弄"},{"poiid":"B2094757D068A4F94692","title":"荣丰花园","lon":"121.53181","lat":"31.265228","category":"47","category_name":"住宅区","address":"上海市杨浦区长阳路1440弄内"},{"poiid":"B2094757D069A6F54593","title":"新亚大包 长阳店","lon":"121.52780610744","lat":"31.266921213091","category":"68","category_name":"快餐厅","address":"杨浦区长阳路1297号(近兰州路)"},{"poiid":"B2094757D069A3FD4493","title":"婚姻登记处(杨浦区登记处)","lon":"121.52590489","lat":"31.26505761","category":"46","category_name":"楼宇","address":"上海杨浦区齐齐哈尔路828号(近长阳路)"},{"poiid":"B2094757D069A0FC489C","title":"MD酒吧","lon":"121.53183","lat":"31.26777","category":"260","category_name":"其他","address":"杨浦区长阳路1514号(近黄兴路)"},{"poiid":"B2094654D56FA3FC499B","title":"申通公寓","lon":"121.5284","lat":"31.267103","category":"47","category_name":"住宅区","address":"上海市杨浦区长阳路1315弄"},{"poiid":"B2094752D565A0FE419A","title":"大光明电影院","lon":"121.529238","lat":"31.264976","category":"178","category_name":"电影院","address":"南京西路"},{"poiid":"B2094654DB6BA2FD479F","title":"中国建设银行上海杨浦支行","lon":"121.52812","lat":"31.26619","category":"150","category_name":"银行","address":"杨浦区长阳路1288号(长阳路兰州路)"},{"poiid":"B2094750D664A1F5449E","title":"老火粥庄","lon":"121.531","lat":"31.268","category":"68","category_name":"快餐厅","address":"杨浦区长阳路1514号(近四季广场)"},{"poiid":"B2094655D26CA6FE429F","title":"霍兰公寓","lon":"121.52663","lat":"31.26543","category":"47","category_name":"住宅区","address":"长阳路1220弄"},{"poiid":"B2094757D064ABF9409C","title":"重庆鸡公煲(长阳路店)","lon":"121.53106","lat":"31.26656","category":"71","category_name":"四川菜","address":"宝山区牡丹江路294弄1-18号(近同济支路)"},{"poiid":"B2094654D56EA5FA429F","title":"华申大楼","lon":"121.528","lat":"31.2639","category":"46","category_name":"楼宇","address":"铁西区铁西兴华街与南十中路交处(兴华南街48号)"},{"poiid":"B2094654DB6BA2FD459B","title":"海运大厦","lon":"121.5301","lat":"31.26769","category":"46","category_name":"楼宇","address":"铁西区铁西兴华街与南十中路交处(兴华南街48号)"},{"poiid":"B2094654D56FA3FC4893","title":"交通银行上海杨浦支行","lon":"121.52857","lat":"31.267","category":"150","category_name":"银行","address":"杨浦区长阳路1317号"},{"poiid":"B2094757D06AA5FF489C","title":"锦杨苑","lon":"121.52838","lat":"31.262629","category":"252","category_name":"楼宇机构","address":"上海市杨浦区齐齐哈尔路598弄35号(惠民路口)"},{"poiid":"B2094654D56FA3FF4692","title":"食家庄长阳店","lon":"121.52935","lat":"31.26682","category":"257","category_name":"中餐厅","address":"杨浦区长阳路1384号(近眉州路)"},{"poiid":"B2094654D56FA3FC479B","title":"城隍庙特色小吃 长阳路店","lon":"121.530049054","lat":"31.267661793","category":"68","category_name":"快餐厅","address":"杨浦区长阳路1435号(近眉州路)"},{"poiid":"B2094655D26DA4F84092","title":"兰馨广场","lon":"121.5278","lat":"31.26495","category":"201","category_name":"城市广场","address":"杨浦区兰州路(长阳路兰州路)"},{"poiid":"B2094654D56EA7F4419F","title":"界龙商务大楼","lon":"121.53094003078","lat":"31.262950574602","category":"46","category_name":"楼宇","address":"海淀区城府路,中关村东路交叉处西北方向"},{"poiid":"B2094654D56FA3F8459C","title":"霍兰小区","lon":"121.52777","lat":"31.264074","category":"47","category_name":"住宅区","address":"霍山路1200弄"},{"poiid":"B2094757D16EAAFF4498","title":"长阳路烧烤摊","lon":"121.52753579","lat":"31.266374824","category":"257","category_name":"中餐厅","address":"上海杨浦区长阳路兰州路路口"},{"poiid":"B2094757D16EA6F84192","title":"小旋枫火锅城","lon":"121.53129","lat":"31.26679","category":"86","category_name":"火锅店","address":"杨浦区眉州路758号(近长阳路)"},{"poiid":"B2094752D264A0FC4299","title":"杨浦区中医院","lon":"121.529702","lat":"31.263891","category":"162","category_name":"医院","address":"眉州路185号"},{"poiid":"B2094654D56FA3FC479C","title":"长眉小区","lon":"121.52877","lat":"31.267405","category":"47","category_name":"住宅区","address":"长阳路1389弄1-4号"},{"poiid":"B2094655D26CA6FB499E","title":"兰州路873弄小区(北门)","lon":"121.52819","lat":"31.26436","category":"47","category_name":"住宅区","address":"兰州路873弄"},{"poiid":"B2094750D665A0FF4793","title":"齐齐哈尔路烧烤摊","lon":"121.526","lat":"31.2652","category":"68","category_name":"快餐厅","address":"杨浦区齐齐哈尔路(近长阳路)"},{"poiid":"B2094757DB68A2FC449E","title":"新招鲜","lon":"121.5278967005401","lat":"31.26254789999804","category":"500","category_name":"未知分类","address":"平凉路"},{"poiid":"B2094655D265A0FC419A","title":"嘉禄新苑二期","lon":"121.527618","lat":"31.266656","category":"47","category_name":"住宅区","address":"上海市杨浦区通北路500号"},{"poiid":"B2094654D56FA3F84593","title":"兰桂坊","lon":"121.52802","lat":"31.26401","category":"47","category_name":"住宅区","address":"兰州路857弄"},{"poiid":"B2094654D56FA3F8469A","title":"兰桂坊(东门)","lon":"121.52838","lat":"31.26412","category":"47","category_name":"住宅区","address":"兰州路857弄"},{"poiid":"B2094655D26CA6FB499F","title":"兰州路873弄小区","lon":"121.52811","lat":"31.26429","category":"47","category_name":"住宅区","address":"兰州路873弄"},{"poiid":"B2094750D76FA1FE419D","title":"潮汕砂煲粥","lon":"121.526","lat":"31.2661","category":"68","category_name":"快餐厅","address":"杨浦区长阳路1183号(长阳欧尚超市对面)"},{"poiid":"B2094654D56FA3FC4998","title":"申通公寓(南门)","lon":"121.52831","lat":"31.2669","category":"47","category_name":"住宅区","address":"长阳路1315弄"},{"poiid":"B2094654D56FA3FC489C","title":"雪芳美容美发SPA","lon":"121.52893","lat":"31.26712","category":"148","category_name":"美容美发店","address":"长阳路1383"},{"poiid":"B2094757D16FA1F84298","title":"齐齐哈尔路第一小学","lon":"121.52707","lat":"31.26276","category":"56","category_name":"小学","address":"上海杨浦区齐齐哈尔路669号(近霍山路)  "},{"poiid":"B2094655D264A0FE4793","title":"海运影都","lon":"121.52933","lat":"31.26732","category":"178","category_name":"电影院","address":"长阳路1427-1"},{"poiid":"B2094654D56EAAFD4398","title":"霍新小区","lon":"121.52704","lat":"31.264717","category":"47","category_name":"住宅区","address":"上海霍山路1191弄"},{"poiid":"B2094757D469A7FC4093","title":"静安面包房 长阳店 JING AN BAKERY","lon":"121.525222054","lat":"31.265359793","category":"112","category_name":"糕饼店","address":"杨浦区长阳路1161号(近江浦路)"},{"poiid":"B2094655D26EA3FE469D","title":"济宁路523弄小区(东门)","lon":"121.52854","lat":"31.26392","category":"47","category_name":"住宅区","address":"济宁路523弄"},{"poiid":"B2094757D76CA7FB419E","title":"良子烧烤","lon":"121.52563","lat":"31.2651","category":"68","category_name":"快餐厅","address":"杨浦区齐齐哈尔路835号(近长阳路)"},{"poiid":"B2094655D265A2FE499E","title":"杨浦区妇幼保健所(前门)","lon":"121.52864","lat":"31.2682","category":"162","category_name":"医院","address":"杨浦区长阳路1389弄75号"},{"poiid":"B2094654D56FA3F8459D","title":"霍兰小区(北门)","lon":"121.52769","lat":"31.2643","category":"47","category_name":"住宅区","address":""},{"poiid":"B2094757D06AA6F44893","title":"申之春美容美发(长阳路店)","lon":"121.52978","lat":"31.26714","category":"148","category_name":"美容美发店","address":"杨浦区长阳路1687号(近临青路)"},{"poiid":"B2094654D56FA3FC4398","title":"招商银行上海分行长阳支行","lon":"121.53015","lat":"31.26785","category":"150","category_name":"银行","address":"长阳路1441号"},{"poiid":"B2094757D06FABF8469E","title":"长阳公馆","lon":"121.530209","lat":"31.267362","category":"76","category_name":"上海菜","address":"杨浦区长阳路1568号(近宁国路)"},{"poiid":"B2094655D36CA5F84698","title":"长阳路兰州路","lon":"121.52899","lat":"31.26702","category":"38","category_name":"公交车站","address":"上海长阳路兰州路"},{"poiid":"B2094654DB6BA2FD4692","title":"长阳新苑","lon":"121.52985","lat":"31.265314","category":"47","category_name":"住宅区","address":"长阳新苑位于杨浦长阳路1318号"},{"poiid":"B2094757D468A4FC4898","title":"小绍兴 长阳店","lon":"121.53008311795","lat":"31.268363145559","category":"68","category_name":"快餐厅","address":"杨浦区长阳路1527号(近眉州路)"},{"poiid":"B2094757D069A3FC459C","title":"杨浦区人民法院","lon":"121.530405","lat":"31.263854","category":"608","category_name":"法院","address":"上海河间路29号"},{"poiid":"B2094757D068A5FA439A","title":"豪享来上海平凉店","lon":"121.532","lat":"31.267","category":"247","category_name":"餐饮美食","address":"上海杨浦区平凉路1055号一楼"},{"poiid":"B2094655D26CA6F94398","title":"金鹏花园","lon":"121.52672","lat":"31.267475","category":"47","category_name":"住宅区","address":"上海兰州路1100弄"},{"poiid":"B2094757D068A4F94692","title":"荣丰花园","lon":"121.53181","lat":"31.265228","category":"47","category_name":"住宅区","address":"上海市杨浦区长阳路1440弄内"},{"poiid":"B2094757D069A6F54593","title":"新亚大包 长阳店","lon":"121.52780610744","lat":"31.266921213091","category":"68","category_name":"快餐厅","address":"杨浦区长阳路1297号(近兰州路)"},{"poiid":"B2094757D069A3FD4493","title":"婚姻登记处(杨浦区登记处)","lon":"121.52590489","lat":"31.26505761","category":"46","category_name":"楼宇","address":"上海杨浦区齐齐哈尔路828号(近长阳路)"},{"poiid":"B2094757D069A0FC489C","title":"MD酒吧","lon":"121.53183","lat":"31.26777","category":"260","category_name":"其他","address":"杨浦区长阳路1514号(近黄兴路)"},{"poiid":"B2094654D56FA3FC499B","title":"申通公寓","lon":"121.5284","lat":"31.267103","category":"47","category_name":"住宅区","address":"上海市杨浦区长阳路1315弄"},{"poiid":"B2094752D565A0FE419A","title":"大光明电影院","lon":"121.529238","lat":"31.264976","category":"178","category_name":"电影院","address":"南京西路"},{"poiid":"B2094654DB6BA2FD479F","title":"中国建设银行上海杨浦支行","lon":"121.52812","lat":"31.26619","category":"150","category_name":"银行","address":"杨浦区长阳路1288号(长阳路兰州路)"},{"poiid":"B2094750D664A1F5449E","title":"老火粥庄","lon":"121.531","lat":"31.268","category":"68","category_name":"快餐厅","address":"杨浦区长阳路1514号(近四季广场)"},{"poiid":"B2094655D26CA6FE429F","title":"霍兰公寓","lon":"121.52663","lat":"31.26543","category":"47","category_name":"住宅区","address":"长阳路1220弄"},{"poiid":"B2094757D064ABF9409C","title":"重庆鸡公煲(长阳路店)","lon":"121.53106","lat":"31.26656","category":"71","category_name":"四川菜","address":"宝山区牡丹江路294弄1-18号(近同济支路)"},{"poiid":"B2094654D56EA5FA429F","title":"华申大楼","lon":"121.528","lat":"31.2639","category":"46","category_name":"楼宇","address":"铁西区铁西兴华街与南十中路交处(兴华南街48号)"},{"poiid":"B2094654DB6BA2FD459B","title":"海运大厦","lon":"121.5301","lat":"31.26769","category":"46","category_name":"楼宇","address":"铁西区铁西兴华街与南十中路交处(兴华南街48号)"},{"poiid":"B2094654D56FA3FC4893","title":"交通银行上海杨浦支行","lon":"121.52857","lat":"31.267","category":"150","category_name":"银行","address":"杨浦区长阳路1317号"},{"poiid":"B2094757D06AA5FF489C","title":"锦杨苑","lon":"121.52838","lat":"31.262629","category":"252","category_name":"楼宇机构","address":"上海市杨浦区齐齐哈尔路598弄35号(惠民路口)"},{"poiid":"B2094654D56FA3FF4692","title":"食家庄长阳店","lon":"121.52935","lat":"31.26682","category":"257","category_name":"中餐厅","address":"杨浦区长阳路1384号(近眉州路)"},{"poiid":"B2094654D56FA3FC479B","title":"城隍庙特色小吃 长阳路店","lon":"121.530049054","lat":"31.267661793","category":"68","category_name":"快餐厅","address":"杨浦区长阳路1435号(近眉州路)"},{"poiid":"B2094655D26DA4F84092","title":"兰馨广场","lon":"121.5278","lat":"31.26495","category":"201","category_name":"城市广场","address":"杨浦区兰州路(长阳路兰州路)"},{"poiid":"B2094654D56EA7F4419F","title":"界龙商务大楼","lon":"121.53094003078","lat":"31.262950574602","category":"46","category_name":"楼宇","address":"海淀区城府路,中关村东路交叉处西北方向"},{"poiid":"B2094654D56FA3F8459C","title":"霍兰小区","lon":"121.52777","lat":"31.264074","category":"47","category_name":"住宅区","address":"霍山路1200弄"},{"poiid":"B2094757D16EAAFF4498","title":"长阳路烧烤摊","lon":"121.52753579","lat":"31.266374824","category":"257","category_name":"中餐厅","address":"上海杨浦区长阳路兰州路路口"},{"poiid":"B2094757D16EA6F84192","title":"小旋枫火锅城","lon":"121.53129","lat":"31.26679","category":"86","category_name":"火锅店","address":"杨浦区眉州路758号(近长阳路)"},{"poiid":"B2094752D264A0FC4299","title":"杨浦区中医院","lon":"121.529702","lat":"31.263891","category":"162","category_name":"医院","address":"眉州路185号"},{"poiid":"B2094654D56FA3FC479C","title":"长眉小区","lon":"121.52877","lat":"31.267405","category":"47","category_name":"住宅区","address":"长阳路1389弄1-4号"},{"poiid":"B2094655D26CA6FB499E","title":"兰州路873弄小区(北门)","lon":"121.52819","lat":"31.26436","category":"47","category_name":"住宅区","address":"兰州路873弄"},{"poiid":"B2094750D665A0FF4793","title":"齐齐哈尔路烧烤摊","lon":"121.526","lat":"31.2652","category":"68","category_name":"快餐厅","address":"杨浦区齐齐哈尔路(近长阳路)"},{"poiid":"B2094757DB68A2FC449E","title":"新招鲜","lon":"121.5278967005401","lat":"31.26254789999804","category":"500","category_name":"未知分类","address":"平凉路"},{"poiid":"B2094655D265A0FC419A","title":"嘉禄新苑二期","lon":"121.527618","lat":"31.266656","category":"47","category_name":"住宅区","address":"上海市杨浦区通北路500号"},{"poiid":"B2094654D56FA3F84593","title":"兰桂坊","lon":"121.52802","lat":"31.26401","category":"47","category_name":"住宅区","address":"兰州路857弄"},{"poiid":"B2094654D56FA3F8469A","title":"兰桂坊(东门)","lon":"121.52838","lat":"31.26412","category":"47","category_name":"住宅区","address":"兰州路857弄"},{"poiid":"B2094655D26CA6FB499F","title":"兰州路873弄小区","lon":"121.52811","lat":"31.26429","category":"47","category_name":"住宅区","address":"兰州路873弄"},{"poiid":"B2094750D76FA1FE419D","title":"潮汕砂煲粥","lon":"121.526","lat":"31.2661","category":"68","category_name":"快餐厅","address":"杨浦区长阳路1183号(长阳欧尚超市对面)"},{"poiid":"B2094654D56FA3FC4998","title":"申通公寓(南门)","lon":"121.52831","lat":"31.2669","category":"47","category_name":"住宅区","address":"长阳路1315弄"},{"poiid":"B2094654D56FA3FC489C","title":"雪芳美容美发SPA","lon":"121.52893","lat":"31.26712","category":"148","category_name":"美容美发店","address":"长阳路1383"},{"poiid":"B2094757D16FA1F84298","title":"齐齐哈尔路第一小学","lon":"121.52707","lat":"31.26276","category":"56","category_name":"小学","address":"上海杨浦区齐齐哈尔路669号(近霍山路)  "},{"poiid":"B2094655D264A0FE4793","title":"海运影都","lon":"121.52933","lat":"31.26732","category":"178","category_name":"电影院","address":"长阳路1427-1"},{"poiid":"B2094654D56EAAFD4398","title":"霍新小区","lon":"121.52704","lat":"31.264717","category":"47","category_name":"住宅区","address":"上海霍山路1191弄"},{"poiid":"B2094757D469A7FC4093","title":"静安面包房 长阳店 JING AN BAKERY","lon":"121.525222054","lat":"31.265359793","category":"112","category_name":"糕饼店","address":"杨浦区长阳路1161号(近江浦路)"},{"poiid":"B2094655D26EA3FE469D","title":"济宁路523弄小区(东门)","lon":"121.52854","lat":"31.26392","category":"47","category_name":"住宅区","address":"济宁路523弄"},{"poiid":"B2094757D76CA7FB419E","title":"良子烧烤","lon":"121.52563","lat":"31.2651","category":"68","category_name":"快餐厅","address":"杨浦区齐齐哈尔路835号(近长阳路)"},{"poiid":"B2094655D265A2FE499E","title":"杨浦区妇幼保健所(前门)","lon":"121.52864","lat":"31.2682","category":"162","category_name":"医院","address":"杨浦区长阳路1389弄75号"},{"poiid":"B2094654D56FA3F8459D","title":"霍兰小区(北门)","lon":"121.52769","lat":"31.2643","category":"47","category_name":"住宅区","address":""},{"poiid":"B2094757D06AA6F44893","title":"申之春美容美发(长阳路店)","lon":"121.52978","lat":"31.26714","category":"148","category_name":"美容美发店","address":"杨浦区长阳路1687号(近临青路)"},{"poiid":"B2094654D56FA3FC4398","title":"招商银行上海分行长阳支行","lon":"121.53015","lat":"31.26785","category":"150","category_name":"银行","address":"长阳路1441号"},{"poiid":"B2094757D06FABF8469E","title":"长阳公馆","lon":"121.530209","lat":"31.267362","category":"76","category_name":"上海菜","address":"杨浦区长阳路1568号(近宁国路)"},{"poiid":"B2094655D36CA5F84698","title":"长阳路兰州路","lon":"121.52899","lat":"31.26702","category":"38","category_name":"公交车站","address":"上海长阳路兰州路"},{"poiid":"B2094654DB6BA2FD4692","title":"长阳新苑","lon":"121.52985","lat":"31.265314","category":"47","category_name":"住宅区","address":"长阳新苑位于杨浦长阳路1318号"},{"poiid":"B2094757D468A4FC4898","title":"小绍兴 长阳店","lon":"121.53008311795","lat":"31.268363145559","category":"68","category_name":"快餐厅","address":"杨浦区长阳路1527号(近眉州路)"},{"poiid":"B2094757D069A3FC459C","title":"杨浦区人民法院","lon":"121.530405","lat":"31.263854","category":"608","category_name":"法院","address":"上海河间路29号"},{"poiid":"B2094757D068A5FA439A","title":"豪享来上海平凉店","lon":"121.532","lat":"31.267","category":"247","category_name":"餐饮美食","address":"上海杨浦区平凉路1055号一楼"},{"poiid":"B2094655D26CA6F94398","title":"金鹏花园","lon":"121.52672","lat":"31.267475","category":"47","category_name":"住宅区","address":"上海兰州路1100弄"},{"poiid":"B2094757D068A4F94692","title":"荣丰花园","lon":"121.53181","lat":"31.265228","category":"47","category_name":"住宅区","address":"上海市杨浦区长阳路1440弄内"},{"poiid":"B2094757D069A6F54593","title":"新亚大包 长阳店","lon":"121.52780610744","lat":"31.266921213091","category":"68","category_name":"快餐厅","address":"杨浦区长阳路1297号(近兰州路)"},{"poiid":"B2094757D069A3FD4493","title":"婚姻登记处(杨浦区登记处)","lon":"121.52590489","lat":"31.26505761","category":"46","category_name":"楼宇","address":"上海杨浦区齐齐哈尔路828号(近长阳路)"},{"poiid":"B2094757D069A0FC489C","title":"MD酒吧","lon":"121.53183","lat":"31.26777","category":"260","category_name":"其他","address":"杨浦区长阳路1514号(近黄兴路)"},{"poiid":"B2094654D56FA3FC499B","title":"申通公寓","lon":"121.5284","lat":"31.267103","category":"47","category_name":"住宅区","address":"上海市杨浦区长阳路1315弄"},{"poiid":"B2094752D565A0FE419A","title":"大光明电影院","lon":"121.529238","lat":"31.264976","category":"178","category_name":"电影院","address":"南京西路"},{"poiid":"B2094654DB6BA2FD479F","title":"中国建设银行上海杨浦支行","lon":"121.52812","lat":"31.26619","category":"150","category_name":"银行","address":"杨浦区长阳路1288号(长阳路兰州路)"},{"poiid":"B2094750D664A1F5449E","title":"老火粥庄","lon":"121.531","lat":"31.268","category":"68","category_name":"快餐厅","address":"杨浦区长阳路1514号(近四季广场)"},{"poiid":"B2094655D26CA6FE429F","title":"霍兰公寓","lon":"121.52663","lat":"31.26543","category":"47","category_name":"住宅区","address":"长阳路1220弄"},{"poiid":"B2094757D064ABF9409C","title":"重庆鸡公煲(长阳路店)","lon":"121.53106","lat":"31.26656","category":"71","category_name":"四川菜","address":"宝山区牡丹江路294弄1-18号(近同济支路)"},{"poiid":"B2094654D56EA5FA429F","title":"华申大楼","lon":"121.528","lat":"31.2639","category":"46","category_name":"楼宇","address":"铁西区铁西兴华街与南十中路交处(兴华南街48号)"},{"poiid":"B2094654DB6BA2FD459B","title":"海运大厦","lon":"121.5301","lat":"31.26769","category":"46","category_name":"楼宇","address":"铁西区铁西兴华街与南十中路交处(兴华南街48号)"},{"poiid":"B2094654D56FA3FC4893","title":"交通银行上海杨浦支行","lon":"121.52857","lat":"31.267","category":"150","category_name":"银行","address":"杨浦区长阳路1317号"},{"poiid":"B2094757D06AA5FF489C","title":"锦杨苑","lon":"121.52838","lat":"31.262629","category":"252","category_name":"楼宇机构","address":"上海市杨浦区齐齐哈尔路598弄35号(惠民路口)"},{"poiid":"B2094654D56FA3FF4692","title":"食家庄长阳店","lon":"121.52935","lat":"31.26682","category":"257","category_name":"中餐厅","address":"杨浦区长阳路1384号(近眉州路)"},{"poiid":"B2094654D56FA3FC479B","title":"城隍庙特色小吃 长阳路店","lon":"121.530049054","lat":"31.267661793","category":"68","category_name":"快餐厅","address":"杨浦区长阳路1435号(近眉州路)"},{"poiid":"B2094655D26DA4F84092","title":"兰馨广场","lon":"121.5278","lat":"31.26495","category":"201","category_name":"城市广场","address":"杨浦区兰州路(长阳路兰州路)"},{"poiid":"B2094654D56EA7F4419F","title":"界龙商务大楼","lon":"121.53094003078","lat":"31.262950574602","category":"46","category_name":"楼宇","address":"海淀区城府路,中关村东路交叉处西北方向"},{"poiid":"B2094654D56FA3F8459C","title":"霍兰小区","lon":"121.52777","lat":"31.264074","category":"47","category_name":"住宅区","address":"霍山路1200弄"},{"poiid":"B2094757D16EAAFF4498","title":"长阳路烧烤摊","lon":"121.52753579","lat":"31.266374824","category":"257","category_name":"中餐厅","address":"上海杨浦区长阳路兰州路路口"},{"poiid":"B2094757D16EA6F84192","title":"小旋枫火锅城","lon":"121.53129","lat":"31.26679","category":"86","category_name":"火锅店","address":"杨浦区眉州路758号(近长阳路)"},{"poiid":"B2094752D264A0FC4299","title":"杨浦区中医院","lon":"121.529702","lat":"31.263891","category":"162","category_name":"医院","address":"眉州路185号"},{"poiid":"B2094654D56FA3FC479C","title":"长眉小区","lon":"121.52877","lat":"31.267405","category":"47","category_name":"住宅区","address":"长阳路1389弄1-4号"},{"poiid":"B2094655D26CA6FB499E","title":"兰州路873弄小区(北门)","lon":"121.52819","lat":"31.26436","category":"47","category_name":"住宅区","address":"兰州路873弄"},{"poiid":"B2094750D665A0FF4793","title":"齐齐哈尔路烧烤摊","lon":"121.526","lat":"31.2652","category":"68","category_name":"快餐厅","address":"杨浦区齐齐哈尔路(近长阳路)"},{"poiid":"B2094757DB68A2FC449E","title":"新招鲜","lon":"121.5278967005401","lat":"31.26254789999804","category":"500","category_name":"未知分类","address":"平凉路"},{"poiid":"B2094655D265A0FC419A","title":"嘉禄新苑二期","lon":"121.527618","lat":"31.266656","category":"47","category_name":"住宅区","address":"上海市杨浦区通北路500号"},{"poiid":"B2094654D56FA3F84593","title":"兰桂坊","lon":"121.52802","lat":"31.26401","category":"47","category_name":"住宅区","address":"兰州路857弄"},{"poiid":"B2094654D56FA3F8469A","title":"兰桂坊(东门)","lon":"121.52838","lat":"31.26412","category":"47","category_name":"住宅区","address":"兰州路857弄"},{"poiid":"B2094655D26CA6FB499F","title":"兰州路873弄小区","lon":"121.52811","lat":"31.26429","category":"47","category_name":"住宅区","address":"兰州路873弄"},{"poiid":"B2094750D76FA1FE419D","title":"潮汕砂煲粥","lon":"121.526","lat":"31.2661","category":"68","category_name":"快餐厅","address":"杨浦区长阳路1183号(长阳欧尚超市对面)"},{"poiid":"B2094654D56FA3FC4998","title":"申通公寓(南门)","lon":"121.52831","lat":"31.2669","category":"47","category_name":"住宅区","address":"长阳路1315弄"},{"poiid":"B2094654D56FA3FC489C","title":"雪芳美容美发SPA","lon":"121.52893","lat":"31.26712","category":"148","category_name":"美容美发店","address":"长阳路1383"},{"poiid":"B2094757D16FA1F84298","title":"齐齐哈尔路第一小学","lon":"121.52707","lat":"31.26276","category":"56","category_name":"小学","address":"上海杨浦区齐齐哈尔路669号(近霍山路)  "},{"poiid":"B2094655D264A0FE4793","title":"海运影都","lon":"121.52933","lat":"31.26732","category":"178","category_name":"电影院","address":"长阳路1427-1"},{"poiid":"B2094654D56EAAFD4398","title":"霍新小区","lon":"121.52704","lat":"31.264717","category":"47","category_name":"住宅区","address":"上海霍山路1191弄"},{"poiid":"B2094757D469A7FC4093","title":"静安面包房 长阳店 JING AN BAKERY","lon":"121.525222054","lat":"31.265359793","category":"112","category_name":"糕饼店","address":"杨浦区长阳路1161号(近江浦路)"},{"poiid":"B2094655D26EA3FE469D","title":"济宁路523弄小区(东门)","lon":"121.52854","lat":"31.26392","category":"47","category_name":"住宅区","address":"济宁路523弄"},{"poiid":"B2094757D76CA7FB419E","title":"良子烧烤","lon":"121.52563","lat":"31.2651","category":"68","category_name":"快餐厅","address":"杨浦区齐齐哈尔路835号(近长阳路)"},{"poiid":"B2094655D265A2FE499E","title":"杨浦区妇幼保健所(前门)","lon":"121.52864","lat":"31.2682","category":"162","category_name":"医院","address":"杨浦区长阳路1389弄75号"},{"poiid":"B2094654D56FA3F8459D","title":"霍兰小区(北门)","lon":"121.52769","lat":"31.2643","category":"47","category_name":"住宅区","address":""},{"poiid":"B2094757D06AA6F44893","title":"申之春美容美发(长阳路店)","lon":"121.52978","lat":"31.26714","category":"148","category_name":"美容美发店","address":"杨浦区长阳路1687号(近临青路)"},{"poiid":"B2094654D56FA3FC4398","title":"招商银行上海分行长阳支行","lon":"121.53015","lat":"31.26785","category":"150","category_name":"银行","address":"长阳路1441号"},{"poiid":"B2094757D06FABF8469E","title":"长阳公馆","lon":"121.530209","lat":"31.267362","category":"76","category_name":"上海菜","address":"杨浦区长阳路1568号(近宁国路)"},{"poiid":"B2094655D36CA5F84698","title":"长阳路兰州路","lon":"121.52899","lat":"31.26702","category":"38","category_name":"公交车站","address":"上海长阳路兰州路"},{"poiid":"B2094654DB6BA2FD4692","title":"长阳新苑","lon":"121.52985","lat":"31.265314","category":"47","category_name":"住宅区","address":"长阳新苑位于杨浦长阳路1318号"},{"poiid":"B2094757D468A4FC4898","title":"小绍兴 长阳店","lon":"121.53008311795","lat":"31.268363145559","category":"68","category_name":"快餐厅","address":"杨浦区长阳路1527号(近眉州路)"},{"poiid":"B2094757D069A3FC459C","title":"杨浦区人民法院","lon":"121.530405","lat":"31.263854","category":"608","category_name":"法院","address":"上海河间路29号"},{"poiid":"B2094757D068A5FA439A","title":"豪享来上海平凉店","lon":"121.532","lat":"31.267","category":"247","category_name":"餐饮美食","address":"上海杨浦区平凉路1055号一楼"},{"poiid":"B2094655D26CA6F94398","title":"金鹏花园","lon":"121.52672","lat":"31.267475","category":"47","category_name":"住宅区","address":"上海兰州路1100弄"},{"poiid":"B2094757D068A4F94692","title":"荣丰花园","lon":"121.53181","lat":"31.265228","category":"47","category_name":"住宅区","address":"上海市杨浦区长阳路1440弄内"},{"poiid":"B2094757D069A6F54593","title":"新亚大包 长阳店","lon":"121.52780610744","lat":"31.266921213091","category":"68","category_name":"快餐厅","address":"杨浦区长阳路1297号(近兰州路)"},{"poiid":"B2094757D069A3FD4493","title":"婚姻登记处(杨浦区登记处)","lon":"121.52590489","lat":"31.26505761","category":"46","category_name":"楼宇","address":"上海杨浦区齐齐哈尔路828号(近长阳路)"},{"poiid":"B2094757D069A0FC489C","title":"MD酒吧","lon":"121.53183","lat":"31.26777","category":"260","category_name":"其他","address":"杨浦区长阳路1514号(近黄兴路)"},{"poiid":"B2094654D56FA3FC499B","title":"申通公寓","lon":"121.5284","lat":"31.267103","category":"47","category_name":"住宅区","address":"上海市杨浦区长阳路1315弄"},{"poiid":"B2094752D565A0FE419A","title":"大光明电影院","lon":"121.529238","lat":"31.264976","category":"178","category_name":"电影院","address":"南京西路"},{"poiid":"B2094654DB6BA2FD479F","title":"中国建设银行上海杨浦支行","lon":"121.52812","lat":"31.26619","category":"150","category_name":"银行","address":"杨浦区长阳路1288号(长阳路兰州路)"},{"poiid":"B2094750D664A1F5449E","title":"老火粥庄","lon":"121.531","lat":"31.268","category":"68","category_name":"快餐厅","address":"杨浦区长阳路1514号(近四季广场)"},{"poiid":"B2094655D26CA6FE429F","title":"霍兰公寓","lon":"121.52663","lat":"31.26543","category":"47","category_name":"住宅区","address":"长阳路1220弄"},{"poiid":"B2094757D064ABF9409C","title":"重庆鸡公煲(长阳路店)","lon":"121.53106","lat":"31.26656","category":"71","category_name":"四川菜","address":"宝山区牡丹江路294弄1-18号(近同济支路)"},{"poiid":"B2094654D56EA5FA429F","title":"华申大楼","lon":"121.528","lat":"31.2639","category":"46","category_name":"楼宇","address":"铁西区铁西兴华街与南十中路交处(兴华南街48号)"},{"poiid":"B2094654DB6BA2FD459B","title":"海运大厦","lon":"121.5301","lat":"31.26769","category":"46","category_name":"楼宇","address":"铁西区铁西兴华街与南十中路交处(兴华南街48号)"},{"poiid":"B2094654D56FA3FC4893","title":"交通银行上海杨浦支行","lon":"121.52857","lat":"31.267","category":"150","category_name":"银行","address":"杨浦区长阳路1317号"},{"poiid":"B2094757D06AA5FF489C","title":"锦杨苑","lon":"121.52838","lat":"31.262629","category":"252","category_name":"楼宇机构","address":"上海市杨浦区齐齐哈尔路598弄35号(惠民路口)"},{"poiid":"B2094654D56FA3FF4692","title":"食家庄长阳店","lon":"121.52935","lat":"31.26682","category":"257","category_name":"中餐厅","address":"杨浦区长阳路1384号(近眉州路)"},{"poiid":"B2094654D56FA3FC479B","title":"城隍庙特色小吃 长阳路店","lon":"121.530049054","lat":"31.267661793","category":"68","category_name":"快餐厅","address":"杨浦区长阳路1435号(近眉州路)"},{"poiid":"B2094655D26DA4F84092","title":"兰馨广场","lon":"121.5278","lat":"31.26495","category":"201","category_name":"城市广场","address":"杨浦区兰州路(长阳路兰州路)"},{"poiid":"B2094654D56EA7F4419F","title":"界龙商务大楼","lon":"121.53094003078","lat":"31.262950574602","category":"46","category_name":"楼宇","address":"海淀区城府路,中关村东路交叉处西北方向"},{"poiid":"B2094654D56FA3F8459C","title":"霍兰小区","lon":"121.52777","lat":"31.264074","category":"47","category_name":"住宅区","address":"霍山路1200弄"},{"poiid":"B2094757D16EAAFF4498","title":"长阳路烧烤摊","lon":"121.52753579","lat":"31.266374824","category":"257","category_name":"中餐厅","address":"上海杨浦区长阳路兰州路路口"},{"poiid":"B2094757D16EA6F84192","title":"小旋枫火锅城","lon":"121.53129","lat":"31.26679","category":"86","category_name":"火锅店","address":"杨浦区眉州路758号(近长阳路)"},{"poiid":"B2094752D264A0FC4299","title":"杨浦区中医院","lon":"121.529702","lat":"31.263891","category":"162","category_name":"医院","address":"眉州路185号"},{"poiid":"B2094654D56FA3FC479C","title":"长眉小区","lon":"121.52877","lat":"31.267405","category":"47","category_name":"住宅区","address":"长阳路1389弄1-4号"},{"poiid":"B2094655D26CA6FB499E","title":"兰州路873弄小区(北门)","lon":"121.52819","lat":"31.26436","category":"47","category_name":"住宅区","address":"兰州路873弄"},{"poiid":"B2094750D665A0FF4793","title":"齐齐哈尔路烧烤摊","lon":"121.526","lat":"31.2652","category":"68","category_name":"快餐厅","address":"杨浦区齐齐哈尔路(近长阳路)"},{"poiid":"B2094757DB68A2FC449E","title":"新招鲜","lon":"121.5278967005401","lat":"31.26254789999804","category":"500","category_name":"未知分类","address":"平凉路"},{"poiid":"B2094655D265A0FC419A","title":"嘉禄新苑二期","lon":"121.527618","lat":"31.266656","category":"47","category_name":"住宅区","address":"上海市杨浦区通北路500号"},{"poiid":"B2094654D56FA3F84593","title":"兰桂坊","lon":"121.52802","lat":"31.26401","category":"47","category_name":"住宅区","address":"兰州路857弄"},{"poiid":"B2094654D56FA3F8469A","title":"兰桂坊(东门)","lon":"121.52838","lat":"31.26412","category":"47","category_name":"住宅区","address":"兰州路857弄"},{"poiid":"B2094655D26CA6FB499F","title":"兰州路873弄小区","lon":"121.52811","lat":"31.26429","category":"47","category_name":"住宅区","address":"兰州路873弄"},{"poiid":"B2094750D76FA1FE419D","title":"潮汕砂煲粥","lon":"121.526","lat":"31.2661","category":"68","category_name":"快餐厅","address":"杨浦区长阳路1183号(长阳欧尚超市对面)"},{"poiid":"B2094654D56FA3FC4998","title":"申通公寓(南门)","lon":"121.52831","lat":"31.2669","category":"47","category_name":"住宅区","address":"长阳路1315弄"},{"poiid":"B2094654D56FA3FC489C","title":"雪芳美容美发SPA","lon":"121.52893","lat":"31.26712","category":"148","category_name":"美容美发店","address":"长阳路1383"},{"poiid":"B2094757D16FA1F84298","title":"齐齐哈尔路第一小学","lon":"121.52707","lat":"31.26276","category":"56","category_name":"小学","address":"上海杨浦区齐齐哈尔路669号(近霍山路)  "},{"poiid":"B2094655D264A0FE4793","title":"海运影都","lon":"121.52933","lat":"31.26732","category":"178","category_name":"电影院","address":"长阳路1427-1"},{"poiid":"B2094654D56EAAFD4398","title":"霍新小区","lon":"121.52704","lat":"31.264717","category":"47","category_name":"住宅区","address":"上海霍山路1191弄"},{"poiid":"B2094757D469A7FC4093","title":"静安面包房 长阳店 JING AN BAKERY","lon":"121.525222054","lat":"31.265359793","category":"112","category_name":"糕饼店","address":"杨浦区长阳路1161号(近江浦路)"},{"poiid":"B2094655D26EA3FE469D","title":"济宁路523弄小区(东门)","lon":"121.52854","lat":"31.26392","category":"47","category_name":"住宅区","address":"济宁路523弄"},{"poiid":"B2094757D76CA7FB419E","title":"良子烧烤","lon":"121.52563","lat":"31.2651","category":"68","category_name":"快餐厅","address":"杨浦区齐齐哈尔路835号(近长阳路)"},{"poiid":"B2094655D265A2FE499E","title":"杨浦区妇幼保健所(前门)","lon":"121.52864","lat":"31.2682","category":"162","category_name":"医院","address":"杨浦区长阳路1389弄75号"},{"poiid":"B2094654D56FA3F8459D","title":"霍兰小区(北门)","lon":"121.52769","lat":"31.2643","category":"47","category_name":"住宅区","address":""},{"poiid":"B2094757D06AA6F44893","title":"申之春美容美发(长阳路店)","lon":"121.52978","lat":"31.26714","category":"148","category_name":"美容美发店","address":"杨浦区长阳路1687号(近临青路)"},{"poiid":"B2094654D56FA3FC4398","title":"招商银行上海分行长阳支行","lon":"121.53015","lat":"31.26785","category":"150","category_name":"银行","address":"长阳路1441号"}]