[{"poiid":"B2094757D06EAAFF4793","title":"上海国际体操中心","lon":"121.41346669","lat":"31.213709584","category":"220","category_name":"运动场所","address":"长宁区武夷路777号国际体操中心游泳馆内(近中山西路)"},{"poiid":"B2094654D565A5F9429F","title":"上海市长宁区妇幼保健院(上海妇孺医院)","lon":"121.41479","lat":"31.21307","category":"162","category_name":"医院","address":"长宁区武夷路773号(近中山西路)"},{"poiid":"B2094655D26AA0F9419B","title":"地铁中山公园站","lon":"121.41569","lat":"31.21817","category":"36","category_name":"地铁站","address":""},{"poiid":"B2094654D565A5F94293","title":"上海国际体操中心游泳馆","lon":"121.41432","lat":"31.21341","category":"231","category_name":"游泳馆","address":"上海长宁区武夷路777号上海国际体操中心内(近中山西路)"},{"poiid":"B2094757D06FABFD429A","title":"美仑大酒店","lon":"121.41327064","lat":"31.214548775","category":"217","category_name":"旅馆招待所","address":"上海长宁区武夷路789号(近中山西路)"},{"poiid":"B2094757D06FA7FA4393","title":"华师大","lon":"121.413307586","lat":"31.2167411672","category":"52","category_name":"高等院校","address":"上海市中山北路"},{"poiid":"B2094757D06FA2FB419F","title":"家顺寿司","lon":"121.41635","lat":"31.21819","category":"269","category_name":"烧烤","address":"长宁区长宁路1018号龙之梦购物中心7楼(近凯旋路)"},{"poiid":"B2094757D16EA5FB409E","title":"中山西路长宁路","lon":"121.411937586","lat":"31.2175041821","category":"500","category_name":"未知分类","address":"上海市长宁区长宁路"},{"poiid":"B2094757D06FA7F4409C","title":"上海国际体操中心羽毛球馆","lon":"121.41341304","lat":"31.213108572","category":"220","category_name":"运动场所","address":"上海长宁区武夷路777号(近中山西路)"},{"poiid":"B2094757D068A4FA469E","title":"绿洲大厦","lon":"121.412556","lat":"31.213812","category":"46","category_name":"楼宇","address":"石景山区阜石路与杨庄东街交叉口西北角"},{"poiid":"B2094654D565A5F9439B","title":"乐购(长宁店)","lon":"121.41323","lat":"31.21296","category":"118","category_name":"超级市场","address":"长宁区武夷路777号国际体操中心游泳馆1楼(近中山西路)"},{"poiid":"B2094757D16CA2FD429D","title":"上海新视界眼科医院","lon":"121.414183586","lat":"31.2162461575","category":"162","category_name":"医院","address":"长宁区汇川路18号(近中山公园)"},{"poiid":"B2094654D565A5F9499A","title":"中山公寓","lon":"121.41261","lat":"31.216496","category":"47","category_name":"住宅区","address":"上海市长宁区长宁路1277弄"},{"poiid":"B2094757D06EAAF8419C","title":"地铁三号线","lon":"121.41582616","lat":"31.218028282","category":"36","category_name":"地铁站","address":"上海南站 - 江杨北路 轨道交通三号线 轨交 3"},{"poiid":"B2094757D064A6FF4092","title":"堡德佳西班牙餐厅","lon":"121.4136","lat":"31.21384","category":"94","category_name":"西餐厅","address":"长宁区武夷路789号美仑大酒店1楼(近中山西路)"},{"poiid":"B2094757D16DA7FE4398","title":"食之密","lon":"121.414020586","lat":"31.2164781621","category":"500","category_name":"未知分类","address":"上海龙之梦B1层"},{"poiid":"B2094757D66DA4FC4399","title":"3号线中山公园站","lon":"121.416488586","lat":"31.2164881623","category":"500","category_name":"未知分类","address":"上海市长宁区长宁路"},{"poiid":"B2094757D064A4FB489F","title":"美仑大酒店皇冠厅","lon":"121.41416","lat":"31.2143","category":"72","category_name":"广东菜","address":"上海长宁区武夷路789号美仑大酒店5楼  "},{"poiid":"B2094750D464ABFE4693","title":"思迈乐咖喱","lon":"121.411499","lat":"31.215938","category":"95","category_name":"日本料理","address":"长宁区长宁路999号光一百货B1楼B204号铺(近中山公园地铁站)"},{"poiid":"B2094757D66FA2F4439A","title":"爆爆椒中山公园店","lon":"121.413293586","lat":"31.2159511518","category":"196","category_name":"公园","address":"上海定西路1550号"},{"poiid":"B2094757D06EAAF44399","title":"上海消防博物馆","lon":"121.41157","lat":"31.21739","category":"182","category_name":"博物馆","address":"上海市长宁区中山西路"},{"poiid":"B2094757D069ABFA479D","title":"四海游龙(武夷路店)","lon":"121.41464","lat":"31.21254","category":"68","category_name":"快餐厅","address":"长宁区武夷路774号(近国际体操中心)"},{"poiid":"B2094757D06FAAF4469D","title":"招商银行(长宁支行)","lon":"121.413010017","lat":"31.2177561137","category":"150","category_name":"银行","address":"长宁区长宁路1302号(近中山西路)"},{"poiid":"B2094654D56BA0F5459E","title":"安泰大楼","lon":"121.413","lat":"31.2129","category":"46","category_name":"楼宇","address":"上海市长宁区遵义路107号"},{"poiid":"B209475CD66AA1FB4793","title":"桂满陇","lon":"121.415298","lat":"31.216562","category":"500","category_name":"未知分类","address":"上海市 长宁路1018号龙之梦购物中心8楼蓝中庭(近凯旋路)"},{"poiid":"B2094654D565A5F9479F","title":"上海天大医疗美容医院","lon":"121.41148","lat":"31.21614","category":"162","category_name":"医院","address":"长宁区中山西路339号(长宁路口)"},{"poiid":"B2094757D66DA7F54193","title":"中山公园地下商城","lon":"121.41290408","lat":"31.217456681","category":"196","category_name":"公园","address":"上海第一次驾到此处~"},{"poiid":"B2094655D269AAFC4993","title":"美仑大酒店宴会厅","lon":"121.41389","lat":"31.21457","category":"247","category_name":"餐饮美食","address":"长宁区武夷路789号美仑大酒店内(近中山西路)查看地图"},{"poiid":"B2094757D16FAAFE429A","title":"上海市长宁区妇幼保健医院9楼佳佳母婴天地！","lon":"121.414710586","lat":"31.2133331006","category":"162","category_name":"医院","address":"上海市长宁区武夷路773号9楼。"},{"poiid":"B2094757D464AAFB4292","title":"真功夫 中山公园店","lon":"121.415321054","lat":"31.218157793","category":"68","category_name":"快餐厅","address":"长宁区凯旋路422号轻轨三号线中山公园站南厅1楼ZS108号商铺(近长宁路)"},{"poiid":"B2094757D76EA7F8439E","title":"必胜宅急送 长宁路店 Pizza Hut","lon":"121.412877054","lat":"31.216883793","category":"94","category_name":"西餐厅","address":"长宁区长宁路1164号(近凯旋路)"},{"poiid":"B2094757D069A1FE409C","title":"知音琴行(贝多芬广场店)","lon":"121.414075802","lat":"31.2178771276","category":"260","category_name":"其他","address":"长宁区长宁路1200号贝多芬广场B座2楼(近轻轨中山公园站)"},{"poiid":"B2094751D26CA0FC479A","title":"长宁龙之梦","lon":"121.413887","lat":"31.216493","category":"500","category_name":"未知分类","address":null},{"poiid":"B2094757D16BA6FE4993","title":"花吉日式料理","lon":"121.412840586","lat":"31.2164781621","category":"247","category_name":"餐饮美食","address":"上海汇川路460号"},{"poiid":"B2094757D16BA3F94999","title":"家味螺蛳粉 (中山公园店)","lon":"121.416516586","lat":"31.2161011547","category":"68","category_name":"快餐厅","address":"长宁区凯旋路安化路口(三泾庙旁)"},{"poiid":"B2094752DA6DA3FE4193","title":"同济医院","lon":"121.413233","lat":"31.216933","category":"162","category_name":"医院","address":"新村路"},{"poiid":"B2094750DA6DA4FC429E","title":"新世界眼科医院","lon":"121.414146","lat":"31.216936","category":"162","category_name":"医院","address":null},{"poiid":"B2094757D16EA3F8459B","title":"芋圆仙","lon":"121.414753586","lat":"31.2176791855","category":"113","category_name":"冷饮店","address":"长宁区凯旋路口"},{"poiid":"B2094757D16EA4FE409F","title":"三泾庙","lon":"121.414215","lat":"31.214636","category":"245","category_name":"教堂","address":"长宁区长宁路三泾北宅244号(安化路凯旋路)"},{"poiid":"B2094757D66DA0FA4498","title":"吴中路虹井路","lon":"121.413548086","lat":"31.2152277376","category":"500","category_name":"未知分类","address":"上海吴中路虹井路"},{"poiid":"B2094757D069A5F5429D","title":"天山路","lon":"121.414787292","lat":"31.2130813599","category":"260","category_name":"其他","address":"上海长宁区天山路"},{"poiid":"B2094757D16FA3F94392","title":"必瘦站(龙之梦店)","lon":"121.41329658","lat":"31.216507162","category":"500","category_name":"未知分类","address":"长宁区长宁路1018号龙之梦购物中心9楼9006号铺(近凯旋路)"},{"poiid":"B2094654DB64A6F9499E","title":"汉庭快捷(中山西路店)","lon":"121.41239","lat":"31.2138","category":"216","category_name":"经济型连锁酒店","address":"上海闵行区吴中路638号(近虹许路)  "},{"poiid":"B2094757DB69ABF94393","title":"新视界眼科医院","lon":"121.412992","lat":"31.217041","category":"162","category_name":"医院","address":"汇川路18号"},{"poiid":"B2094757D06AA1FE4898","title":"九龙男子医院","lon":"121.41185","lat":"31.21616","category":"162","category_name":"医院","address":"上海长宁区中山西路333号"},{"poiid":"B2094654D565A5F94992","title":"快客(长宁路)","lon":"121.41312","lat":"31.21709","category":"117","category_name":"便民商店/便利店","address":"长宁路1253"},{"poiid":"B209475CD46CA3F8489E","title":"长宁区妇幼保健院","lon":"121.412048","lat":"31.216499","category":"162","category_name":"医院","address":"上海市 长宁区武夷路773号"},{"poiid":"B2094655D26CABF8499D","title":"绿洲大厦商务楼","lon":"121.41255","lat":"31.2138","category":"46","category_name":"楼宇","address":"中山西路555"},{"poiid":"B2094757D16AA6F4419F","title":"盘古烤肉","lon":"121.413155903","lat":"31.2179442407","category":"247","category_name":"餐饮美食","address":"上海龙之梦七楼"},{"poiid":"B2094654D565A5F9479B","title":"碧云公寓","lon":"121.41278","lat":"31.214733","category":"47","category_name":"住宅区","address":"中山西路483号"},{"poiid":"B2094757D06EAAFF4793","title":"上海国际体操中心","lon":"121.41346669","lat":"31.213709584","category":"220","category_name":"运动场所","address":"长宁区武夷路777号国际体操中心游泳馆内(近中山西路)"},{"poiid":"B2094654D565A5F9429F","title":"上海市长宁区妇幼保健院(上海妇孺医院)","lon":"121.41479","lat":"31.21307","category":"162","category_name":"医院","address":"长宁区武夷路773号(近中山西路)"},{"poiid":"B2094655D26AA0F9419B","title":"地铁中山公园站","lon":"121.41569","lat":"31.21817","category":"36","category_name":"地铁站","address":""},{"poiid":"B2094654D565A5F94293","title":"上海国际体操中心游泳馆","lon":"121.41432","lat":"31.21341","category":"231","category_name":"游泳馆","address":"上海长宁区武夷路777号上海国际体操中心内(近中山西路)"},{"poiid":"B2094757D06FABFD429A","title":"美仑大酒店","lon":"121.41327064","lat":"31.214548775","category":"217","category_name":"旅馆招待所","address":"上海长宁区武夷路789号(近中山西路)"},{"poiid":"B2094757D06FA7FA4393","title":"华师大","lon":"121.413307586","lat":"31.2167411672","category":"52","category_name":"高等院校","address":"上海市中山北路"},{"poiid":"B2094757D06FA2FB419F","title":"家顺寿司","lon":"121.41635","lat":"31.21819","category":"269","category_name":"烧烤","address":"长宁区长宁路1018号龙之梦购物中心7楼(近凯旋路)"},{"poiid":"B2094757D16EA5FB409E","title":"中山西路长宁路","lon":"121.411937586","lat":"31.2175041821","category":"500","category_name":"未知分类","address":"上海市长宁区长宁路"},{"poiid":"B2094757D06FA7F4409C","title":"上海国际体操中心羽毛球馆","lon":"121.41341304","lat":"31.213108572","category":"220","category_name":"运动场所","address":"上海长宁区武夷路777号(近中山西路)"},{"poiid":"B2094757D068A4FA469E","title":"绿洲大厦","lon":"121.412556","lat":"31.213812","category":"46","category_name":"楼宇","address":"石景山区阜石路与杨庄东街交叉口西北角"},{"poiid":"B2094654D565A5F9439B","title":"乐购(长宁店)","lon":"121.41323","lat":"31.21296","category":"118","category_name":"超级市场","address":"长宁区武夷路777号国际体操中心游泳馆1楼(近中山西路)"},{"poiid":"B2094757D16CA2FD429D","title":"上海新视界眼科医院","lon":"121.414183586","lat":"31.2162461575","category":"162","category_name":"医院","address":"长宁区汇川路18号(近中山公园)"},{"poiid":"B2094654D565A5F9499A","title":"中山公寓","lon":"121.41261","lat":"31.216496","category":"47","category_name":"住宅区","address":"上海市长宁区长宁路1277弄"},{"poiid":"B2094757D06EAAF8419C","title":"地铁三号线","lon":"121.41582616","lat":"31.218028282","category":"36","category_name":"地铁站","address":"上海南站 - 江杨北路 轨道交通三号线 轨交 3"},{"poiid":"B2094757D064A6FF4092","title":"堡德佳西班牙餐厅","lon":"121.4136","lat":"31.21384","category":"94","category_name":"西餐厅","address":"长宁区武夷路789号美仑大酒店1楼(近中山西路)"},{"poiid":"B2094757D16DA7FE4398","title":"食之密","lon":"121.414020586","lat":"31.2164781621","category":"500","category_name":"未知分类","address":"上海龙之梦B1层"},{"poiid":"B2094757D66DA4FC4399","title":"3号线中山公园站","lon":"121.416488586","lat":"31.2164881623","category":"500","category_name":"未知分类","address":"上海市长宁区长宁路"},{"poiid":"B2094757D064A4FB489F","title":"美仑大酒店皇冠厅","lon":"121.41416","lat":"31.2143","category":"72","category_name":"广东菜","address":"上海长宁区武夷路789号美仑大酒店5楼  "},{"poiid":"B2094750D464ABFE4693","title":"思迈乐咖喱","lon":"121.411499","lat":"31.215938","category":"95","category_name":"日本料理","address":"长宁区长宁路999号光一百货B1楼B204号铺(近中山公园地铁站)"},{"poiid":"B2094757D66FA2F4439A","title":"爆爆椒中山公园店","lon":"121.413293586","lat":"31.2159511518","category":"196","category_name":"公园","address":"上海定西路1550号"},{"poiid":"B2094757D06EAAF44399","title":"上海消防博物馆","lon":"121.41157","lat":"31.21739","category":"182","category_name":"博物馆","address":"上海市长宁区中山西路"},{"poiid":"B2094757D069ABFA479D","title":"四海游龙(武夷路店)","lon":"121.41464","lat":"31.21254","category":"68","category_name":"快餐厅","address":"长宁区武夷路774号(近国际体操中心)"},{"poiid":"B2094757D06FAAF4469D","title":"招商银行(长宁支行)","lon":"121.413010017","lat":"31.2177561137","category":"150","category_name":"银行","address":"长宁区长宁路1302号(近中山西路)"},{"poiid":"B2094654D56BA0F5459E","title":"安泰大楼","lon":"121.413","lat":"31.2129","category":"46","category_name":"楼宇","address":"上海市长宁区遵义路107号"},{"poiid":"B209475CD66AA1FB4793","title":"桂满陇","lon":"121.415298","lat":"31.216562","category":"500","category_name":"未知分类","address":"上海市 长宁路1018号龙之梦购物中心8楼蓝中庭(近凯旋路)"},{"poiid":"B2094654D565A5F9479F","title":"上海天大医疗美容医院","lon":"121.41148","lat":"31.21614","category":"162","category_name":"医院","address":"长宁区中山西路339号(长宁路口)"},{"poiid":"B2094757D66DA7F54193","title":"中山公园地下商城","lon":"121.41290408","lat":"31.217456681","category":"196","category_name":"公园","address":"上海第一次驾到此处~"},{"poiid":"B2094655D269AAFC4993","title":"美仑大酒店宴会厅","lon":"121.41389","lat":"31.21457","category":"247","category_name":"餐饮美食","address":"长宁区武夷路789号美仑大酒店内(近中山西路)查看地图"},{"poiid":"B2094757D16FAAFE429A","title":"上海市长宁区妇幼保健医院9楼佳佳母婴天地！","lon":"121.414710586","lat":"31.2133331006","category":"162","category_name":"医院","address":"上海市长宁区武夷路773号9楼。"},{"poiid":"B2094757D464AAFB4292","title":"真功夫 中山公园店","lon":"121.415321054","lat":"31.218157793","category":"68","category_name":"快餐厅","address":"长宁区凯旋路422号轻轨三号线中山公园站南厅1楼ZS108号商铺(近长宁路)"},{"poiid":"B2094757D76EA7F8439E","title":"必胜宅急送 长宁路店 Pizza Hut","lon":"121.412877054","lat":"31.216883793","category":"94","category_name":"西餐厅","address":"长宁区长宁路1164号(近凯旋路)"},{"poiid":"B2094757D069A1FE409C","title":"知音琴行(贝多芬广场店)","lon":"121.414075802","lat":"31.2178771276","category":"260","category_name":"其他","address":"长宁区长宁路1200号贝多芬广场B座2楼(近轻轨中山公园站)"},{"poiid":"B2094751D26CA0FC479A","title":"长宁龙之梦","lon":"121.413887","lat":"31.216493","category":"500","category_name":"未知分类","address":null},{"poiid":"B2094757D16BA6FE4993","title":"花吉日式料理","lon":"121.412840586","lat":"31.2164781621","category":"247","category_name":"餐饮美食","address":"上海汇川路460号"},{"poiid":"B2094757D16BA3F94999","title":"家味螺蛳粉 (中山公园店)","lon":"121.416516586","lat":"31.2161011547","category":"68","category_name":"快餐厅","address":"长宁区凯旋路安化路口(三泾庙旁)"},{"poiid":"B2094752DA6DA3FE4193","title":"同济医院","lon":"121.413233","lat":"31.216933","category":"162","category_name":"医院","address":"新村路"},{"poiid":"B2094750DA6DA4FC429E","title":"新世界眼科医院","lon":"121.414146","lat":"31.216936","category":"162","category_name":"医院","address":null},{"poiid":"B2094757D16EA3F8459B","title":"芋圆仙","lon":"121.414753586","lat":"31.2176791855","category":"113","category_name":"冷饮店","address":"长宁区凯旋路口"},{"poiid":"B2094757D16EA4FE409F","title":"三泾庙","lon":"121.414215","lat":"31.214636","category":"245","category_name":"教堂","address":"长宁区长宁路三泾北宅244号(安化路凯旋路)"},{"poiid":"B2094757D66DA0FA4498","title":"吴中路虹井路","lon":"121.413548086","lat":"31.2152277376","category":"500","category_name":"未知分类","address":"上海吴中路虹井路"},{"poiid":"B2094757D069A5F5429D","title":"天山路","lon":"121.414787292","lat":"31.2130813599","category":"260","category_name":"其他","address":"上海长宁区天山路"},{"poiid":"B2094757D16FA3F94392","title":"必瘦站(龙之梦店)","lon":"121.41329658","lat":"31.216507162","category":"500","category_name":"未知分类","address":"长宁区长宁路1018号龙之梦购物中心9楼9006号铺(近凯旋路)"},{"poiid":"B2094654DB64A6F9499E","title":"汉庭快捷(中山西路店)","lon":"121.41239","lat":"31.2138","category":"216","category_name":"经济型连锁酒店","address":"上海闵行区吴中路638号(近虹许路)  "},{"poiid":"B2094757DB69ABF94393","title":"新视界眼科医院","lon":"121.412992","lat":"31.217041","category":"162","category_name":"医院","address":"汇川路18号"},{"poiid":"B2094757D06AA1FE4898","title":"九龙男子医院","lon":"121.41185","lat":"31.21616","category":"162","category_name":"医院","address":"上海长宁区中山西路333号"},{"poiid":"B2094654D565A5F94992","title":"快客(长宁路)","lon":"121.41312","lat":"31.21709","category":"117","category_name":"便民商店/便利店","address":"长宁路1253"},{"poiid":"B209475CD46CA3F8489E","title":"长宁区妇幼保健院","lon":"121.412048","lat":"31.216499","category":"162","category_name":"医院","address":"上海市 长宁区武夷路773号"},{"poiid":"B2094655D26CABF8499D","title":"绿洲大厦商务楼","lon":"121.41255","lat":"31.2138","category":"46","category_name":"楼宇","address":"中山西路555"},{"poiid":"B2094757D16AA6F4419F","title":"盘古烤肉","lon":"121.413155903","lat":"31.2179442407","category":"247","category_name":"餐饮美食","address":"上海龙之梦七楼"},{"poiid":"B2094654D565A5F9479B","title":"碧云公寓","lon":"121.41278","lat":"31.214733","category":"47","category_name":"住宅区","address":"中山西路483号"},{"poiid":"B2094757D06EAAFF4793","title":"上海国际体操中心","lon":"121.41346669","lat":"31.213709584","category":"220","category_name":"运动场所","address":"长宁区武夷路777号国际体操中心游泳馆内(近中山西路)"},{"poiid":"B2094654D565A5F9429F","title":"上海市长宁区妇幼保健院(上海妇孺医院)","lon":"121.41479","lat":"31.21307","category":"162","category_name":"医院","address":"长宁区武夷路773号(近中山西路)"},{"poiid":"B2094655D26AA0F9419B","title":"地铁中山公园站","lon":"121.41569","lat":"31.21817","category":"36","category_name":"地铁站","address":""},{"poiid":"B2094654D565A5F94293","title":"上海国际体操中心游泳馆","lon":"121.41432","lat":"31.21341","category":"231","category_name":"游泳馆","address":"上海长宁区武夷路777号上海国际体操中心内(近中山西路)"},{"poiid":"B2094757D06FABFD429A","title":"美仑大酒店","lon":"121.41327064","lat":"31.214548775","category":"217","category_name":"旅馆招待所","address":"上海长宁区武夷路789号(近中山西路)"},{"poiid":"B2094757D06FA7FA4393","title":"华师大","lon":"121.413307586","lat":"31.2167411672","category":"52","category_name":"高等院校","address":"上海市中山北路"},{"poiid":"B2094757D06FA2FB419F","title":"家顺寿司","lon":"121.41635","lat":"31.21819","category":"269","category_name":"烧烤","address":"长宁区长宁路1018号龙之梦购物中心7楼(近凯旋路)"},{"poiid":"B2094757D16EA5FB409E","title":"中山西路长宁路","lon":"121.411937586","lat":"31.2175041821","category":"500","category_name":"未知分类","address":"上海市长宁区长宁路"},{"poiid":"B2094757D06FA7F4409C","title":"上海国际体操中心羽毛球馆","lon":"121.41341304","lat":"31.213108572","category":"220","category_name":"运动场所","address":"上海长宁区武夷路777号(近中山西路)"},{"poiid":"B2094757D068A4FA469E","title":"绿洲大厦","lon":"121.412556","lat":"31.213812","category":"46","category_name":"楼宇","address":"石景山区阜石路与杨庄东街交叉口西北角"},{"poiid":"B2094654D565A5F9439B","title":"乐购(长宁店)","lon":"121.41323","lat":"31.21296","category":"118","category_name":"超级市场","address":"长宁区武夷路777号国际体操中心游泳馆1楼(近中山西路)"},{"poiid":"B2094757D16CA2FD429D","title":"上海新视界眼科医院","lon":"121.414183586","lat":"31.2162461575","category":"162","category_name":"医院","address":"长宁区汇川路18号(近中山公园)"},{"poiid":"B2094654D565A5F9499A","title":"中山公寓","lon":"121.41261","lat":"31.216496","category":"47","category_name":"住宅区","address":"上海市长宁区长宁路1277弄"},{"poiid":"B2094757D06EAAF8419C","title":"地铁三号线","lon":"121.41582616","lat":"31.218028282","category":"36","category_name":"地铁站","address":"上海南站 - 江杨北路 轨道交通三号线 轨交 3"},{"poiid":"B2094757D064A6FF4092","title":"堡德佳西班牙餐厅","lon":"121.4136","lat":"31.21384","category":"94","category_name":"西餐厅","address":"长宁区武夷路789号美仑大酒店1楼(近中山西路)"},{"poiid":"B2094757D16DA7FE4398","title":"食之密","lon":"121.414020586","lat":"31.2164781621","category":"500","category_name":"未知分类","address":"上海龙之梦B1层"},{"poiid":"B2094757D66DA4FC4399","title":"3号线中山公园站","lon":"121.416488586","lat":"31.2164881623","category":"500","category_name":"未知分类","address":"上海市长宁区长宁路"},{"poiid":"B2094757D064A4FB489F","title":"美仑大酒店皇冠厅","lon":"121.41416","lat":"31.2143","category":"72","category_name":"广东菜","address":"上海长宁区武夷路789号美仑大酒店5楼  "},{"poiid":"B2094750D464ABFE4693","title":"思迈乐咖喱","lon":"121.411499","lat":"31.215938","category":"95","category_name":"日本料理","address":"长宁区长宁路999号光一百货B1楼B204号铺(近中山公园地铁站)"},{"poiid":"B2094757D66FA2F4439A","title":"爆爆椒中山公园店","lon":"121.413293586","lat":"31.2159511518","category":"196","category_name":"公园","address":"上海定西路1550号"},{"poiid":"B2094757D06EAAF44399","title":"上海消防博物馆","lon":"121.41157","lat":"31.21739","category":"182","category_name":"博物馆","address":"上海市长宁区中山西路"},{"poiid":"B2094757D069ABFA479D","title":"四海游龙(武夷路店)","lon":"121.41464","lat":"31.21254","category":"68","category_name":"快餐厅","address":"长宁区武夷路774号(近国际体操中心)"},{"poiid":"B2094757D06FAAF4469D","title":"招商银行(长宁支行)","lon":"121.413010017","lat":"31.2177561137","category":"150","category_name":"银行","address":"长宁区长宁路1302号(近中山西路)"},{"poiid":"B2094654D56BA0F5459E","title":"安泰大楼","lon":"121.413","lat":"31.2129","category":"46","category_name":"楼宇","address":"上海市长宁区遵义路107号"},{"poiid":"B209475CD66AA1FB4793","title":"桂满陇","lon":"121.415298","lat":"31.216562","category":"500","category_name":"未知分类","address":"上海市 长宁路1018号龙之梦购物中心8楼蓝中庭(近凯旋路)"},{"poiid":"B2094654D565A5F9479F","title":"上海天大医疗美容医院","lon":"121.41148","lat":"31.21614","category":"162","category_name":"医院","address":"长宁区中山西路339号(长宁路口)"},{"poiid":"B2094757D66DA7F54193","title":"中山公园地下商城","lon":"121.41290408","lat":"31.217456681","category":"196","category_name":"公园","address":"上海第一次驾到此处~"},{"poiid":"B2094655D269AAFC4993","title":"美仑大酒店宴会厅","lon":"121.41389","lat":"31.21457","category":"247","category_name":"餐饮美食","address":"长宁区武夷路789号美仑大酒店内(近中山西路)查看地图"},{"poiid":"B2094757D16FAAFE429A","title":"上海市长宁区妇幼保健医院9楼佳佳母婴天地！","lon":"121.414710586","lat":"31.2133331006","category":"162","category_name":"医院","address":"上海市长宁区武夷路773号9楼。"},{"poiid":"B2094757D464AAFB4292","title":"真功夫 中山公园店","lon":"121.415321054","lat":"31.218157793","category":"68","category_name":"快餐厅","address":"长宁区凯旋路422号轻轨三号线中山公园站南厅1楼ZS108号商铺(近长宁路)"},{"poiid":"B2094757D76EA7F8439E","title":"必胜宅急送 长宁路店 Pizza Hut","lon":"121.412877054","lat":"31.216883793","category":"94","category_name":"西餐厅","address":"长宁区长宁路1164号(近凯旋路)"},{"poiid":"B2094757D069A1FE409C","title":"知音琴行(贝多芬广场店)","lon":"121.414075802","lat":"31.2178771276","category":"260","category_name":"其他","address":"长宁区长宁路1200号贝多芬广场B座2楼(近轻轨中山公园站)"},{"poiid":"B2094751D26CA0FC479A","title":"长宁龙之梦","lon":"121.413887","lat":"31.216493","category":"500","category_name":"未知分类","address":null},{"poiid":"B2094757D16BA6FE4993","title":"花吉日式料理","lon":"121.412840586","lat":"31.2164781621","category":"247","category_name":"餐饮美食","address":"上海汇川路460号"},{"poiid":"B2094757D16BA3F94999","title":"家味螺蛳粉 (中山公园店)","lon":"121.416516586","lat":"31.2161011547","category":"68","category_name":"快餐厅","address":"长宁区凯旋路安化路口(三泾庙旁)"},{"poiid":"B2094752DA6DA3FE4193","title":"同济医院","lon":"121.413233","lat":"31.216933","category":"162","category_name":"医院","address":"新村路"},{"poiid":"B2094750DA6DA4FC429E","title":"新世界眼科医院","lon":"121.414146","lat":"31.216936","category":"162","category_name":"医院","address":null},{"poiid":"B2094757D16EA3F8459B","title":"芋圆仙","lon":"121.414753586","lat":"31.2176791855","category":"113","category_name":"冷饮店","address":"长宁区凯旋路口"},{"poiid":"B2094757D16EA4FE409F","title":"三泾庙","lon":"121.414215","lat":"31.214636","category":"245","category_name":"教堂","address":"长宁区长宁路三泾北宅244号(安化路凯旋路)"},{"poiid":"B2094757D66DA0FA4498","title":"吴中路虹井路","lon":"121.413548086","lat":"31.2152277376","category":"500","category_name":"未知分类","address":"上海吴中路虹井路"},{"poiid":"B2094757D069A5F5429D","title":"天山路","lon":"121.414787292","lat":"31.2130813599","category":"260","category_name":"其他","address":"上海长宁区天山路"},{"poiid":"B2094757D16FA3F94392","title":"必瘦站(龙之梦店)","lon":"121.41329658","lat":"31.216507162","category":"500","category_name":"未知分类","address":"长宁区长宁路1018号龙之梦购物中心9楼9006号铺(近凯旋路)"},{"poiid":"B2094654DB64A6F9499E","title":"汉庭快捷(中山西路店)","lon":"121.41239","lat":"31.2138","category":"216","category_name":"经济型连锁酒店","address":"上海闵行区吴中路638号(近虹许路)  "},{"poiid":"B2094757DB69ABF94393","title":"新视界眼科医院","lon":"121.412992","lat":"31.217041","category":"162","category_name":"医院","address":"汇川路18号"},{"poiid":"B2094757D06AA1FE4898","title":"九龙男子医院","lon":"121.41185","lat":"31.21616","category":"162","category_name":"医院","address":"上海长宁区中山西路333号"},{"poiid":"B2094654D565A5F94992","title":"快客(长宁路)","lon":"121.41312","lat":"31.21709","category":"117","category_name":"便民商店/便利店","address":"长宁路1253"},{"poiid":"B209475CD46CA3F8489E","title":"长宁区妇幼保健院","lon":"121.412048","lat":"31.216499","category":"162","category_name":"医院","address":"上海市 长宁区武夷路773号"},{"poiid":"B2094655D26CABF8499D","title":"绿洲大厦商务楼","lon":"121.41255","lat":"31.2138","category":"46","category_name":"楼宇","address":"中山西路555"},{"poiid":"B2094757D16AA6F4419F","title":"盘古烤肉","lon":"121.413155903","lat":"31.2179442407","category":"247","category_name":"餐饮美食","address":"上海龙之梦七楼"},{"poiid":"B2094654D565A5F9479B","title":"碧云公寓","lon":"121.41278","lat":"31.214733","category":"47","category_name":"住宅区","address":"中山西路483号"}]