[{"poiid":"B2094654DA6FA7FD459E","title":"上海海洋水族馆","lon":"121.50194","lat":"31.24064","category":"199","category_name":"水族馆","address":"上海市浦东新区陆家嘴环路1388号"},{"poiid":"B2094655D36DA6FE409E","title":"陆家嘴","lon":"121.50163","lat":"31.23807","category":"38","category_name":"公交车站","address":"时代金融中心"},{"poiid":"B2094757D06EAAFF449F","title":"食尚港丽(国金店)","lon":"121.50596","lat":"31.23591","category":"72","category_name":"广东菜","address":"浦东新区世纪大道8号国金中心商场LG1-20号商铺(近东泰路)"},{"poiid":"B209475CD564A7F84392","title":"上海滩浦东香格里拉店","lon":"121.50058","lat":"31.23634","category":"119","category_name":"商场","address":"浦东富成路33号香格里拉酒店内大堂层"},{"poiid":"B2094757D06FA5FB4493","title":"东方明珠旋转餐厅","lon":"121.50184","lat":"31.23831","category":"268","category_name":"自助","address":"浦东新区世纪大道1号东方明珠电视塔(近二号线陆家嘴站)"},{"poiid":"B2094757D165A0FC4793","title":"东方明珠","lon":"121.501606738","lat":"31.2372364494","category":"500","category_name":"未知分类","address":"浦东世纪大道1号，坐落于黄浦江畔浦东陆家嘴嘴尖上，与外滩的万国建筑博览群隔江相望"},{"poiid":"B2094757D06FA3FE429D","title":"鹿港小镇 陆家嘴店 Bellagio Cuisine","lon":"121.503279","lat":"31.241373","category":"91","category_name":"台湾菜","address":"浦东新区陆家嘴环路1318号星展银行大厦B1楼06室(东园路陆家嘴环路)"},{"poiid":"B2094757D06FA3FC4392","title":"中银大厦","lon":"121.502753258","lat":"31.2385470983","category":"46","category_name":"楼宇","address":"上海浦东新区银城中路200号"},{"poiid":"B2094757D06FA2FF4398","title":"天家(国金中心店)","lon":"121.50596","lat":"31.23591","category":"95","category_name":"日本料理","address":"浦东新区世纪大道8号国金中心商场4楼(近东泰路)"},{"poiid":"B2094655D26BA1F4419B","title":"陆家嘴地铁站","lon":"121.50161","lat":"31.23788","category":"36","category_name":"地铁站","address":"上海轨道交通 二号线 轨交陆家嘴站"},{"poiid":"B2094757D06FA4F54099","title":"炉匠(炉端烧•酒)","lon":"121.50304973","lat":"31.236487433","category":"269","category_name":"烧烤","address":"浦东新区世纪大道8号国金中心商场L4-22号商铺(近银城西路)"},{"poiid":"B2094757D06FA1FB489B","title":"Haiku by Hatsune(国金中心店)","lon":"121.50596","lat":"31.23591","category":"95","category_name":"日本料理","address":"浦东新区世纪大道8号国金中心商场LG1楼36号铺(近东泰路)"},{"poiid":"B2094757D06FA2FC4593","title":"hoF(陆家嘴店)","lon":"121.503866724","lat":"31.2410764887","category":"260","category_name":"其他","address":"浦东新区陆家嘴环路1318号星展银行大厦下沉式广场8号商铺(近东园路)"},{"poiid":"B2094757D164A3FD419A","title":"Baker&Spice(国金中心店)","lon":"121.50242473","lat":"31.237036445","category":"67","category_name":"甜品店","address":"浦东新区世纪大道8号国金中心IFC商场LG层16室(近浦东大道)"},{"poiid":"B2094757D068ABF54492","title":"星美正大影城六號廳","lon":"121.501231968","lat":"31.2374576441","category":"500","category_name":"未知分类","address":"上海浦东新区陆家嘴西路168号正大广场8楼"},{"poiid":"B2094757D06FA5FD499E","title":"星巴克Starbucks(东方浮庭店)","lon":"121.501809489","lat":"31.2383870977","category":"260","category_name":"其他","address":"浦东新区世纪大道55号东方浮庭2楼(近陆家嘴东路)"},{"poiid":"B2094757D06FA6F9479A","title":"交银金融大厦","lon":"121.50331115","lat":"31.238565444","category":"46","category_name":"楼宇","address":"碧云东壹栋位于浦东金藏路51号(浙桥路口)"},{"poiid":"B2094655D26FABFB4093","title":"中国平安金融大厦","lon":"121.50234","lat":"31.23947","category":"46","category_name":"楼宇","address":""},{"poiid":"B2094757D068A1F8459D","title":"La Verbena","lon":"121.49765","lat":"31.24109","category":"94","category_name":"西餐厅","address":"浦东新区陆家嘴西路2967号北滨江E座(近国际会议中心)"},{"poiid":"B2094757D06FABFC439E","title":"Aura","lon":"121.501827738","lat":"31.2367564392","category":"260","category_name":"其他","address":"浦东新区世纪大道8号上海国金中心丽思卡尔顿酒店52楼(东泰路世纪大道)"},{"poiid":"B2094757D068A6FF4099","title":"Whittard of Chelsea","lon":"121.502784738","lat":"31.2368724417","category":"113","category_name":"冷饮店","address":"陆家嘴世纪大道8号上海国金中心D座四层L4-12室"},{"poiid":"B2094757D06FA3FA419E","title":"瓢六(国金中心店)","lon":"121.50596","lat":"31.23591","category":"95","category_name":"日本料理","address":"浦东新区世纪大道8号国金中心商场B2楼C-2号商铺(近东泰路)"},{"poiid":"B2094750D165A1FA4193","title":"小杨生煎","lon":"121.501","lat":"31.2401","category":"68","category_name":"快餐厅","address":"浦东新区陆家嘴环路1396号陆家嘴景庭1楼(海洋水族馆旁)"},{"poiid":"B2094757D068A0F84099","title":"老上海餐厅(老上海捌号)","lon":"121.500544738","lat":"31.2385504774","category":"500","category_name":"未知分类","address":"上海浦东新区世纪大道1号东方明珠8号门国际新闻中心1楼(近二号线陆家嘴站)"},{"poiid":"B2094757D66CABFF4198","title":"蘇浙總會(国金中心店)","lon":"121.502735738","lat":"31.2373164511","category":"248","category_name":"生活娱乐","address":"上海浦东新区世纪大道8号国金中心L4"},{"poiid":"B2094757D16FA6FA459F","title":"陸家嘴","lon":"121.502214738","lat":"31.2382874718","category":"500","category_name":"未知分类","address":"上海市浦东新区丰和路"},{"poiid":"B2094757D06FA7FB409A","title":"东方既白(小陆家嘴店)","lon":"121.50165713","lat":"31.238781115","category":"68","category_name":"快餐厅","address":"浦东新区世纪大道55号东方浮庭1楼(近东方明珠)"},{"poiid":"B2094757D06FA7FD4799","title":"圣久代","lon":"121.502195738","lat":"31.2372974507","category":"113","category_name":"冷饮店","address":"浦东新区世纪大道8号国金中心IFC商场LG2(近CitySuper)"},{"poiid":"B2094757D06FA7FA459A","title":"宝寿司(陆家嘴店)","lon":"121.503959724","lat":"31.2409894884","category":"95","category_name":"日本料理","address":"浦东新区陆家嘴环路1318号星展银行大厦B1楼5号铺(近东园路)"},{"poiid":"B2094757D065A0FD459A","title":"星巴克 STARBICKS (汇亚大厦店)","lon":"121.503237538","lat":"31.2409458285","category":"65","category_name":"咖啡厅","address":"浦东新区陆家嘴环路1233号汇亚大厦1楼大厅(近海族馆)"},{"poiid":"B2094757D16EABFB4793","title":"Latina","lon":"121.50173373","lat":"31.237477454","category":"500","category_name":"未知分类","address":"上海陆家嘴环路165号"},{"poiid":"B2094757D16DAAFB4693","title":"ifc俏江南","lon":"121.503631738","lat":"31.2372784503","category":"500","category_name":"未知分类","address":"上海市浦东新区世纪大道"},{"poiid":"B2094757D66EA5F9469A","title":"唐宫海鲜坊","lon":"121.50139373","lat":"31.237452454","category":"247","category_name":"餐饮美食","address":"上海浦东新区规二路"},{"poiid":"B2094750D365ABF94092","title":"正大广场星美国际影城3号厅","lon":"121.501655","lat":"31.237243","category":"500","category_name":"未知分类","address":null},{"poiid":"B2094655D26AA0FA469F","title":"地铁陆家嘴站","lon":"121.50163","lat":"31.23807","category":"36","category_name":"地铁站","address":""},{"poiid":"B2094654DB6BA4F5499C","title":"禾绿回转寿司(明珠店)","lon":"121.50121","lat":"31.23975","category":"95","category_name":"日本料理","address":"上海浦东新区陆家嘴环路1406-1414号2楼(近海洋水族馆)"},{"poiid":"B2094654DB6BA4F5499E","title":"味千拉面","lon":"121.5011","lat":"31.23962","category":"95","category_name":"日本料理","address":"陆家嘴环路1416号"},{"poiid":"B2094757D06AABF4439D","title":"釜山料理","lon":"121.50271673","lat":"31.236967443","category":"247","category_name":"餐饮美食","address":"上海世纪大道8号国金中心商场4楼"},{"poiid":"B2094757D16AA5FC469C","title":"上海板长寿司（国金中心店）","lon":"121.50117573","lat":"31.237380452","category":"247","category_name":"餐饮美食","address":"浦东新区世纪大道8号国金中心LG1-18号商铺(近东泰路)"},{"poiid":"B2094757D069A7FB489E","title":"苹果店","lon":"121.501245738","lat":"31.237543456","category":"249","category_name":"购物服务","address":"上海IFC"},{"poiid":"B2094757D068A1FA439D","title":"伊藤家(明珠店)","lon":"121.50153","lat":"31.23946","category":"95","category_name":"日本料理","address":"浦东新区陆家嘴环路1402号(近海洋水族馆)"},{"poiid":"B2094757D66DA3F84099","title":"麦当劳(东方浮庭店)","lon":"121.50247573","lat":"31.24010151","category":"68","category_name":"快餐厅","address":"浦东新区世纪大道55号世纪浮庭世纪天桥2楼(近陆家嘴环路)"},{"poiid":"B2094757D16CA2FA439B","title":"品面","lon":"121.502659738","lat":"31.2365974358","category":"68","category_name":"快餐厅","address":"浦东新区世纪大道8号国金中心商场LG2楼B座11号(近正大广场)"},{"poiid":"B2094757D06FA5F9419A","title":"可颂坊(陆家嘴店)","lon":"121.501476","lat":"31.238862","category":"112","category_name":"糕饼店","address":"浦东新区世纪大道55号(近陆家嘴地铁站2出口)"},{"poiid":"B2094757D16BABFB489A","title":"上海海洋水族馆(极地馆区)","lon":"121.501246","lat":"31.239975","category":"249","category_name":"购物服务","address":"上海市浦东新区陆家嘴环路1388号"},{"poiid":"B2094752D264A7FB4798","title":"isola上海国金中心IFC","lon":"121.501307","lat":"31.23788","category":"247","category_name":"餐饮美食","address":"上海国金中心"},{"poiid":"B2094757D06FA1FB429E","title":"鱿鱼烧みなせん","lon":"121.50348773","lat":"31.237087446","category":"95","category_name":"日本料理","address":"浦东新区世纪大道8号国金中心LG2-B2商铺(近东泰路)"},{"poiid":"B2094757D16AA0FB419D","title":"交通银行总行（交银金融大厦）","lon":"121.503625","lat":"31.238935","category":"150","category_name":"银行","address":"浦东新区银城中路188号交银金融大厦(近东园路)"},{"poiid":"B2094757D068A7FD459F","title":"會津まる家(环球金融店)","lon":"121.501646738","lat":"31.2373394516","category":"95","category_name":"日本料理","address":"上海环球金融中心B1"},{"poiid":"B2094757D069A1FE419A","title":"烹大师涮涮锅(陆家嘴店)","lon":"121.50086","lat":"31.23849","category":"86","category_name":"火锅店","address":"浦东新区陆家嘴环路1398号(近东方明珠)"},{"poiid":"B2094654DA6FA7FD459E","title":"上海海洋水族馆","lon":"121.50194","lat":"31.24064","category":"199","category_name":"水族馆","address":"上海市浦东新区陆家嘴环路1388号"},{"poiid":"B2094655D36DA6FE409E","title":"陆家嘴","lon":"121.50163","lat":"31.23807","category":"38","category_name":"公交车站","address":"时代金融中心"},{"poiid":"B2094757D06EAAFF449F","title":"食尚港丽(国金店)","lon":"121.50596","lat":"31.23591","category":"72","category_name":"广东菜","address":"浦东新区世纪大道8号国金中心商场LG1-20号商铺(近东泰路)"},{"poiid":"B209475CD564A7F84392","title":"上海滩浦东香格里拉店","lon":"121.50058","lat":"31.23634","category":"119","category_name":"商场","address":"浦东富成路33号香格里拉酒店内大堂层"},{"poiid":"B2094757D06FA5FB4493","title":"东方明珠旋转餐厅","lon":"121.50184","lat":"31.23831","category":"268","category_name":"自助","address":"浦东新区世纪大道1号东方明珠电视塔(近二号线陆家嘴站)"},{"poiid":"B2094757D165A0FC4793","title":"东方明珠","lon":"121.501606738","lat":"31.2372364494","category":"500","category_name":"未知分类","address":"浦东世纪大道1号，坐落于黄浦江畔浦东陆家嘴嘴尖上，与外滩的万国建筑博览群隔江相望"},{"poiid":"B2094757D06FA3FE429D","title":"鹿港小镇 陆家嘴店 Bellagio Cuisine","lon":"121.503279","lat":"31.241373","category":"91","category_name":"台湾菜","address":"浦东新区陆家嘴环路1318号星展银行大厦B1楼06室(东园路陆家嘴环路)"},{"poiid":"B2094757D06FA3FC4392","title":"中银大厦","lon":"121.502753258","lat":"31.2385470983","category":"46","category_name":"楼宇","address":"上海浦东新区银城中路200号"},{"poiid":"B2094757D06FA2FF4398","title":"天家(国金中心店)","lon":"121.50596","lat":"31.23591","category":"95","category_name":"日本料理","address":"浦东新区世纪大道8号国金中心商场4楼(近东泰路)"},{"poiid":"B2094655D26BA1F4419B","title":"陆家嘴地铁站","lon":"121.50161","lat":"31.23788","category":"36","category_name":"地铁站","address":"上海轨道交通 二号线 轨交陆家嘴站"},{"poiid":"B2094757D06FA4F54099","title":"炉匠(炉端烧•酒)","lon":"121.50304973","lat":"31.236487433","category":"269","category_name":"烧烤","address":"浦东新区世纪大道8号国金中心商场L4-22号商铺(近银城西路)"},{"poiid":"B2094757D06FA1FB489B","title":"Haiku by Hatsune(国金中心店)","lon":"121.50596","lat":"31.23591","category":"95","category_name":"日本料理","address":"浦东新区世纪大道8号国金中心商场LG1楼36号铺(近东泰路)"},{"poiid":"B2094757D06FA2FC4593","title":"hoF(陆家嘴店)","lon":"121.503866724","lat":"31.2410764887","category":"260","category_name":"其他","address":"浦东新区陆家嘴环路1318号星展银行大厦下沉式广场8号商铺(近东园路)"},{"poiid":"B2094757D164A3FD419A","title":"Baker&Spice(国金中心店)","lon":"121.50242473","lat":"31.237036445","category":"67","category_name":"甜品店","address":"浦东新区世纪大道8号国金中心IFC商场LG层16室(近浦东大道)"},{"poiid":"B2094757D068ABF54492","title":"星美正大影城六號廳","lon":"121.501231968","lat":"31.2374576441","category":"500","category_name":"未知分类","address":"上海浦东新区陆家嘴西路168号正大广场8楼"},{"poiid":"B2094757D06FA5FD499E","title":"星巴克Starbucks(东方浮庭店)","lon":"121.501809489","lat":"31.2383870977","category":"260","category_name":"其他","address":"浦东新区世纪大道55号东方浮庭2楼(近陆家嘴东路)"},{"poiid":"B2094757D06FA6F9479A","title":"交银金融大厦","lon":"121.50331115","lat":"31.238565444","category":"46","category_name":"楼宇","address":"碧云东壹栋位于浦东金藏路51号(浙桥路口)"},{"poiid":"B2094655D26FABFB4093","title":"中国平安金融大厦","lon":"121.50234","lat":"31.23947","category":"46","category_name":"楼宇","address":""},{"poiid":"B2094757D068A1F8459D","title":"La Verbena","lon":"121.49765","lat":"31.24109","category":"94","category_name":"西餐厅","address":"浦东新区陆家嘴西路2967号北滨江E座(近国际会议中心)"},{"poiid":"B2094757D06FABFC439E","title":"Aura","lon":"121.501827738","lat":"31.2367564392","category":"260","category_name":"其他","address":"浦东新区世纪大道8号上海国金中心丽思卡尔顿酒店52楼(东泰路世纪大道)"},{"poiid":"B2094757D068A6FF4099","title":"Whittard of Chelsea","lon":"121.502784738","lat":"31.2368724417","category":"113","category_name":"冷饮店","address":"陆家嘴世纪大道8号上海国金中心D座四层L4-12室"},{"poiid":"B2094757D06FA3FA419E","title":"瓢六(国金中心店)","lon":"121.50596","lat":"31.23591","category":"95","category_name":"日本料理","address":"浦东新区世纪大道8号国金中心商场B2楼C-2号商铺(近东泰路)"},{"poiid":"B2094750D165A1FA4193","title":"小杨生煎","lon":"121.501","lat":"31.2401","category":"68","category_name":"快餐厅","address":"浦东新区陆家嘴环路1396号陆家嘴景庭1楼(海洋水族馆旁)"},{"poiid":"B2094757D068A0F84099","title":"老上海餐厅(老上海捌号)","lon":"121.500544738","lat":"31.2385504774","category":"500","category_name":"未知分类","address":"上海浦东新区世纪大道1号东方明珠8号门国际新闻中心1楼(近二号线陆家嘴站)"},{"poiid":"B2094757D66CABFF4198","title":"蘇浙總會(国金中心店)","lon":"121.502735738","lat":"31.2373164511","category":"248","category_name":"生活娱乐","address":"上海浦东新区世纪大道8号国金中心L4"},{"poiid":"B2094757D16FA6FA459F","title":"陸家嘴","lon":"121.502214738","lat":"31.2382874718","category":"500","category_name":"未知分类","address":"上海市浦东新区丰和路"},{"poiid":"B2094757D06FA7FB409A","title":"东方既白(小陆家嘴店)","lon":"121.50165713","lat":"31.238781115","category":"68","category_name":"快餐厅","address":"浦东新区世纪大道55号东方浮庭1楼(近东方明珠)"},{"poiid":"B2094757D06FA7FD4799","title":"圣久代","lon":"121.502195738","lat":"31.2372974507","category":"113","category_name":"冷饮店","address":"浦东新区世纪大道8号国金中心IFC商场LG2(近CitySuper)"},{"poiid":"B2094757D06FA7FA459A","title":"宝寿司(陆家嘴店)","lon":"121.503959724","lat":"31.2409894884","category":"95","category_name":"日本料理","address":"浦东新区陆家嘴环路1318号星展银行大厦B1楼5号铺(近东园路)"},{"poiid":"B2094757D065A0FD459A","title":"星巴克 STARBICKS (汇亚大厦店)","lon":"121.503237538","lat":"31.2409458285","category":"65","category_name":"咖啡厅","address":"浦东新区陆家嘴环路1233号汇亚大厦1楼大厅(近海族馆)"},{"poiid":"B2094757D16EABFB4793","title":"Latina","lon":"121.50173373","lat":"31.237477454","category":"500","category_name":"未知分类","address":"上海陆家嘴环路165号"},{"poiid":"B2094757D16DAAFB4693","title":"ifc俏江南","lon":"121.503631738","lat":"31.2372784503","category":"500","category_name":"未知分类","address":"上海市浦东新区世纪大道"},{"poiid":"B2094757D66EA5F9469A","title":"唐宫海鲜坊","lon":"121.50139373","lat":"31.237452454","category":"247","category_name":"餐饮美食","address":"上海浦东新区规二路"},{"poiid":"B2094750D365ABF94092","title":"正大广场星美国际影城3号厅","lon":"121.501655","lat":"31.237243","category":"500","category_name":"未知分类","address":null},{"poiid":"B2094655D26AA0FA469F","title":"地铁陆家嘴站","lon":"121.50163","lat":"31.23807","category":"36","category_name":"地铁站","address":""},{"poiid":"B2094654DB6BA4F5499C","title":"禾绿回转寿司(明珠店)","lon":"121.50121","lat":"31.23975","category":"95","category_name":"日本料理","address":"上海浦东新区陆家嘴环路1406-1414号2楼(近海洋水族馆)"},{"poiid":"B2094654DB6BA4F5499E","title":"味千拉面","lon":"121.5011","lat":"31.23962","category":"95","category_name":"日本料理","address":"陆家嘴环路1416号"},{"poiid":"B2094757D06AABF4439D","title":"釜山料理","lon":"121.50271673","lat":"31.236967443","category":"247","category_name":"餐饮美食","address":"上海世纪大道8号国金中心商场4楼"},{"poiid":"B2094757D16AA5FC469C","title":"上海板长寿司（国金中心店）","lon":"121.50117573","lat":"31.237380452","category":"247","category_name":"餐饮美食","address":"浦东新区世纪大道8号国金中心LG1-18号商铺(近东泰路)"},{"poiid":"B2094757D069A7FB489E","title":"苹果店","lon":"121.501245738","lat":"31.237543456","category":"249","category_name":"购物服务","address":"上海IFC"},{"poiid":"B2094757D068A1FA439D","title":"伊藤家(明珠店)","lon":"121.50153","lat":"31.23946","category":"95","category_name":"日本料理","address":"浦东新区陆家嘴环路1402号(近海洋水族馆)"},{"poiid":"B2094757D66DA3F84099","title":"麦当劳(东方浮庭店)","lon":"121.50247573","lat":"31.24010151","category":"68","category_name":"快餐厅","address":"浦东新区世纪大道55号世纪浮庭世纪天桥2楼(近陆家嘴环路)"},{"poiid":"B2094757D16CA2FA439B","title":"品面","lon":"121.502659738","lat":"31.2365974358","category":"68","category_name":"快餐厅","address":"浦东新区世纪大道8号国金中心商场LG2楼B座11号(近正大广场)"},{"poiid":"B2094757D06FA5F9419A","title":"可颂坊(陆家嘴店)","lon":"121.501476","lat":"31.238862","category":"112","category_name":"糕饼店","address":"浦东新区世纪大道55号(近陆家嘴地铁站2出口)"},{"poiid":"B2094757D16BABFB489A","title":"上海海洋水族馆(极地馆区)","lon":"121.501246","lat":"31.239975","category":"249","category_name":"购物服务","address":"上海市浦东新区陆家嘴环路1388号"},{"poiid":"B2094752D264A7FB4798","title":"isola上海国金中心IFC","lon":"121.501307","lat":"31.23788","category":"247","category_name":"餐饮美食","address":"上海国金中心"},{"poiid":"B2094757D06FA1FB429E","title":"鱿鱼烧みなせん","lon":"121.50348773","lat":"31.237087446","category":"95","category_name":"日本料理","address":"浦东新区世纪大道8号国金中心LG2-B2商铺(近东泰路)"},{"poiid":"B2094757D16AA0FB419D","title":"交通银行总行（交银金融大厦）","lon":"121.503625","lat":"31.238935","category":"150","category_name":"银行","address":"浦东新区银城中路188号交银金融大厦(近东园路)"},{"poiid":"B2094757D068A7FD459F","title":"會津まる家(环球金融店)","lon":"121.501646738","lat":"31.2373394516","category":"95","category_name":"日本料理","address":"上海环球金融中心B1"},{"poiid":"B2094757D069A1FE419A","title":"烹大师涮涮锅(陆家嘴店)","lon":"121.50086","lat":"31.23849","category":"86","category_name":"火锅店","address":"浦东新区陆家嘴环路1398号(近东方明珠)"},{"poiid":"B2094654DA6FA7FD459E","title":"上海海洋水族馆","lon":"121.50194","lat":"31.24064","category":"199","category_name":"水族馆","address":"上海市浦东新区陆家嘴环路1388号"},{"poiid":"B2094655D36DA6FE409E","title":"陆家嘴","lon":"121.50163","lat":"31.23807","category":"38","category_name":"公交车站","address":"时代金融中心"},{"poiid":"B2094757D06EAAFF449F","title":"食尚港丽(国金店)","lon":"121.50596","lat":"31.23591","category":"72","category_name":"广东菜","address":"浦东新区世纪大道8号国金中心商场LG1-20号商铺(近东泰路)"},{"poiid":"B209475CD564A7F84392","title":"上海滩浦东香格里拉店","lon":"121.50058","lat":"31.23634","category":"119","category_name":"商场","address":"浦东富成路33号香格里拉酒店内大堂层"},{"poiid":"B2094757D06FA5FB4493","title":"东方明珠旋转餐厅","lon":"121.50184","lat":"31.23831","category":"268","category_name":"自助","address":"浦东新区世纪大道1号东方明珠电视塔(近二号线陆家嘴站)"},{"poiid":"B2094757D165A0FC4793","title":"东方明珠","lon":"121.501606738","lat":"31.2372364494","category":"500","category_name":"未知分类","address":"浦东世纪大道1号，坐落于黄浦江畔浦东陆家嘴嘴尖上，与外滩的万国建筑博览群隔江相望"},{"poiid":"B2094757D06FA3FE429D","title":"鹿港小镇 陆家嘴店 Bellagio Cuisine","lon":"121.503279","lat":"31.241373","category":"91","category_name":"台湾菜","address":"浦东新区陆家嘴环路1318号星展银行大厦B1楼06室(东园路陆家嘴环路)"},{"poiid":"B2094757D06FA3FC4392","title":"中银大厦","lon":"121.502753258","lat":"31.2385470983","category":"46","category_name":"楼宇","address":"上海浦东新区银城中路200号"},{"poiid":"B2094757D06FA2FF4398","title":"天家(国金中心店)","lon":"121.50596","lat":"31.23591","category":"95","category_name":"日本料理","address":"浦东新区世纪大道8号国金中心商场4楼(近东泰路)"},{"poiid":"B2094655D26BA1F4419B","title":"陆家嘴地铁站","lon":"121.50161","lat":"31.23788","category":"36","category_name":"地铁站","address":"上海轨道交通 二号线 轨交陆家嘴站"},{"poiid":"B2094757D06FA4F54099","title":"炉匠(炉端烧•酒)","lon":"121.50304973","lat":"31.236487433","category":"269","category_name":"烧烤","address":"浦东新区世纪大道8号国金中心商场L4-22号商铺(近银城西路)"},{"poiid":"B2094757D06FA1FB489B","title":"Haiku by Hatsune(国金中心店)","lon":"121.50596","lat":"31.23591","category":"95","category_name":"日本料理","address":"浦东新区世纪大道8号国金中心商场LG1楼36号铺(近东泰路)"},{"poiid":"B2094757D06FA2FC4593","title":"hoF(陆家嘴店)","lon":"121.503866724","lat":"31.2410764887","category":"260","category_name":"其他","address":"浦东新区陆家嘴环路1318号星展银行大厦下沉式广场8号商铺(近东园路)"},{"poiid":"B2094757D164A3FD419A","title":"Baker&Spice(国金中心店)","lon":"121.50242473","lat":"31.237036445","category":"67","category_name":"甜品店","address":"浦东新区世纪大道8号国金中心IFC商场LG层16室(近浦东大道)"},{"poiid":"B2094757D068ABF54492","title":"星美正大影城六號廳","lon":"121.501231968","lat":"31.2374576441","category":"500","category_name":"未知分类","address":"上海浦东新区陆家嘴西路168号正大广场8楼"},{"poiid":"B2094757D06FA5FD499E","title":"星巴克Starbucks(东方浮庭店)","lon":"121.501809489","lat":"31.2383870977","category":"260","category_name":"其他","address":"浦东新区世纪大道55号东方浮庭2楼(近陆家嘴东路)"},{"poiid":"B2094757D06FA6F9479A","title":"交银金融大厦","lon":"121.50331115","lat":"31.238565444","category":"46","category_name":"楼宇","address":"碧云东壹栋位于浦东金藏路51号(浙桥路口)"},{"poiid":"B2094655D26FABFB4093","title":"中国平安金融大厦","lon":"121.50234","lat":"31.23947","category":"46","category_name":"楼宇","address":""},{"poiid":"B2094757D068A1F8459D","title":"La Verbena","lon":"121.49765","lat":"31.24109","category":"94","category_name":"西餐厅","address":"浦东新区陆家嘴西路2967号北滨江E座(近国际会议中心)"},{"poiid":"B2094757D06FABFC439E","title":"Aura","lon":"121.501827738","lat":"31.2367564392","category":"260","category_name":"其他","address":"浦东新区世纪大道8号上海国金中心丽思卡尔顿酒店52楼(东泰路世纪大道)"},{"poiid":"B2094757D068A6FF4099","title":"Whittard of Chelsea","lon":"121.502784738","lat":"31.2368724417","category":"113","category_name":"冷饮店","address":"陆家嘴世纪大道8号上海国金中心D座四层L4-12室"},{"poiid":"B2094757D06FA3FA419E","title":"瓢六(国金中心店)","lon":"121.50596","lat":"31.23591","category":"95","category_name":"日本料理","address":"浦东新区世纪大道8号国金中心商场B2楼C-2号商铺(近东泰路)"},{"poiid":"B2094750D165A1FA4193","title":"小杨生煎","lon":"121.501","lat":"31.2401","category":"68","category_name":"快餐厅","address":"浦东新区陆家嘴环路1396号陆家嘴景庭1楼(海洋水族馆旁)"},{"poiid":"B2094757D068A0F84099","title":"老上海餐厅(老上海捌号)","lon":"121.500544738","lat":"31.2385504774","category":"500","category_name":"未知分类","address":"上海浦东新区世纪大道1号东方明珠8号门国际新闻中心1楼(近二号线陆家嘴站)"},{"poiid":"B2094757D66CABFF4198","title":"蘇浙總會(国金中心店)","lon":"121.502735738","lat":"31.2373164511","category":"248","category_name":"生活娱乐","address":"上海浦东新区世纪大道8号国金中心L4"},{"poiid":"B2094757D16FA6FA459F","title":"陸家嘴","lon":"121.502214738","lat":"31.2382874718","category":"500","category_name":"未知分类","address":"上海市浦东新区丰和路"},{"poiid":"B2094757D06FA7FB409A","title":"东方既白(小陆家嘴店)","lon":"121.50165713","lat":"31.238781115","category":"68","category_name":"快餐厅","address":"浦东新区世纪大道55号东方浮庭1楼(近东方明珠)"},{"poiid":"B2094757D06FA7FD4799","title":"圣久代","lon":"121.502195738","lat":"31.2372974507","category":"113","category_name":"冷饮店","address":"浦东新区世纪大道8号国金中心IFC商场LG2(近CitySuper)"},{"poiid":"B2094757D06FA7FA459A","title":"宝寿司(陆家嘴店)","lon":"121.503959724","lat":"31.2409894884","category":"95","category_name":"日本料理","address":"浦东新区陆家嘴环路1318号星展银行大厦B1楼5号铺(近东园路)"},{"poiid":"B2094757D065A0FD459A","title":"星巴克 STARBICKS (汇亚大厦店)","lon":"121.503237538","lat":"31.2409458285","category":"65","category_name":"咖啡厅","address":"浦东新区陆家嘴环路1233号汇亚大厦1楼大厅(近海族馆)"},{"poiid":"B2094757D16EABFB4793","title":"Latina","lon":"121.50173373","lat":"31.237477454","category":"500","category_name":"未知分类","address":"上海陆家嘴环路165号"},{"poiid":"B2094757D16DAAFB4693","title":"ifc俏江南","lon":"121.503631738","lat":"31.2372784503","category":"500","category_name":"未知分类","address":"上海市浦东新区世纪大道"},{"poiid":"B2094757D66EA5F9469A","title":"唐宫海鲜坊","lon":"121.50139373","lat":"31.237452454","category":"247","category_name":"餐饮美食","address":"上海浦东新区规二路"},{"poiid":"B2094750D365ABF94092","title":"正大广场星美国际影城3号厅","lon":"121.501655","lat":"31.237243","category":"500","category_name":"未知分类","address":null},{"poiid":"B2094655D26AA0FA469F","title":"地铁陆家嘴站","lon":"121.50163","lat":"31.23807","category":"36","category_name":"地铁站","address":""},{"poiid":"B2094654DB6BA4F5499C","title":"禾绿回转寿司(明珠店)","lon":"121.50121","lat":"31.23975","category":"95","category_name":"日本料理","address":"上海浦东新区陆家嘴环路1406-1414号2楼(近海洋水族馆)"},{"poiid":"B2094654DB6BA4F5499E","title":"味千拉面","lon":"121.5011","lat":"31.23962","category":"95","category_name":"日本料理","address":"陆家嘴环路1416号"},{"poiid":"B2094757D06AABF4439D","title":"釜山料理","lon":"121.50271673","lat":"31.236967443","category":"247","category_name":"餐饮美食","address":"上海世纪大道8号国金中心商场4楼"},{"poiid":"B2094757D16AA5FC469C","title":"上海板长寿司（国金中心店）","lon":"121.50117573","lat":"31.237380452","category":"247","category_name":"餐饮美食","address":"浦东新区世纪大道8号国金中心LG1-18号商铺(近东泰路)"},{"poiid":"B2094757D069A7FB489E","title":"苹果店","lon":"121.501245738","lat":"31.237543456","category":"249","category_name":"购物服务","address":"上海IFC"},{"poiid":"B2094757D068A1FA439D","title":"伊藤家(明珠店)","lon":"121.50153","lat":"31.23946","category":"95","category_name":"日本料理","address":"浦东新区陆家嘴环路1402号(近海洋水族馆)"},{"poiid":"B2094757D66DA3F84099","title":"麦当劳(东方浮庭店)","lon":"121.50247573","lat":"31.24010151","category":"68","category_name":"快餐厅","address":"浦东新区世纪大道55号世纪浮庭世纪天桥2楼(近陆家嘴环路)"},{"poiid":"B2094757D16CA2FA439B","title":"品面","lon":"121.502659738","lat":"31.2365974358","category":"68","category_name":"快餐厅","address":"浦东新区世纪大道8号国金中心商场LG2楼B座11号(近正大广场)"},{"poiid":"B2094757D06FA5F9419A","title":"可颂坊(陆家嘴店)","lon":"121.501476","lat":"31.238862","category":"112","category_name":"糕饼店","address":"浦东新区世纪大道55号(近陆家嘴地铁站2出口)"},{"poiid":"B2094757D16BABFB489A","title":"上海海洋水族馆(极地馆区)","lon":"121.501246","lat":"31.239975","category":"249","category_name":"购物服务","address":"上海市浦东新区陆家嘴环路1388号"},{"poiid":"B2094752D264A7FB4798","title":"isola上海国金中心IFC","lon":"121.501307","lat":"31.23788","category":"247","category_name":"餐饮美食","address":"上海国金中心"},{"poiid":"B2094757D06FA1FB429E","title":"鱿鱼烧みなせん","lon":"121.50348773","lat":"31.237087446","category":"95","category_name":"日本料理","address":"浦东新区世纪大道8号国金中心LG2-B2商铺(近东泰路)"},{"poiid":"B2094757D16AA0FB419D","title":"交通银行总行（交银金融大厦）","lon":"121.503625","lat":"31.238935","category":"150","category_name":"银行","address":"浦东新区银城中路188号交银金融大厦(近东园路)"},{"poiid":"B2094757D068A7FD459F","title":"會津まる家(环球金融店)","lon":"121.501646738","lat":"31.2373394516","category":"95","category_name":"日本料理","address":"上海环球金融中心B1"},{"poiid":"B2094757D069A1FE419A","title":"烹大师涮涮锅(陆家嘴店)","lon":"121.50086","lat":"31.23849","category":"86","category_name":"火锅店","address":"浦东新区陆家嘴环路1398号(近东方明珠)"},{"poiid":"B2094654DA6FA7FD459E","title":"上海海洋水族馆","lon":"121.50194","lat":"31.24064","category":"199","category_name":"水族馆","address":"上海市浦东新区陆家嘴环路1388号"},{"poiid":"B2094655D36DA6FE409E","title":"陆家嘴","lon":"121.50163","lat":"31.23807","category":"38","category_name":"公交车站","address":"时代金融中心"},{"poiid":"B2094757D06EAAFF449F","title":"食尚港丽(国金店)","lon":"121.50596","lat":"31.23591","category":"72","category_name":"广东菜","address":"浦东新区世纪大道8号国金中心商场LG1-20号商铺(近东泰路)"},{"poiid":"B209475CD564A7F84392","title":"上海滩浦东香格里拉店","lon":"121.50058","lat":"31.23634","category":"119","category_name":"商场","address":"浦东富成路33号香格里拉酒店内大堂层"},{"poiid":"B2094757D06FA5FB4493","title":"东方明珠旋转餐厅","lon":"121.50184","lat":"31.23831","category":"268","category_name":"自助","address":"浦东新区世纪大道1号东方明珠电视塔(近二号线陆家嘴站)"},{"poiid":"B2094757D165A0FC4793","title":"东方明珠","lon":"121.501606738","lat":"31.2372364494","category":"500","category_name":"未知分类","address":"浦东世纪大道1号，坐落于黄浦江畔浦东陆家嘴嘴尖上，与外滩的万国建筑博览群隔江相望"},{"poiid":"B2094757D06FA3FE429D","title":"鹿港小镇 陆家嘴店 Bellagio Cuisine","lon":"121.503279","lat":"31.241373","category":"91","category_name":"台湾菜","address":"浦东新区陆家嘴环路1318号星展银行大厦B1楼06室(东园路陆家嘴环路)"},{"poiid":"B2094757D06FA3FC4392","title":"中银大厦","lon":"121.502753258","lat":"31.2385470983","category":"46","category_name":"楼宇","address":"上海浦东新区银城中路200号"},{"poiid":"B2094757D06FA2FF4398","title":"天家(国金中心店)","lon":"121.50596","lat":"31.23591","category":"95","category_name":"日本料理","address":"浦东新区世纪大道8号国金中心商场4楼(近东泰路)"},{"poiid":"B2094655D26BA1F4419B","title":"陆家嘴地铁站","lon":"121.50161","lat":"31.23788","category":"36","category_name":"地铁站","address":"上海轨道交通 二号线 轨交陆家嘴站"},{"poiid":"B2094757D06FA4F54099","title":"炉匠(炉端烧•酒)","lon":"121.50304973","lat":"31.236487433","category":"269","category_name":"烧烤","address":"浦东新区世纪大道8号国金中心商场L4-22号商铺(近银城西路)"},{"poiid":"B2094757D06FA1FB489B","title":"Haiku by Hatsune(国金中心店)","lon":"121.50596","lat":"31.23591","category":"95","category_name":"日本料理","address":"浦东新区世纪大道8号国金中心商场LG1楼36号铺(近东泰路)"},{"poiid":"B2094757D06FA2FC4593","title":"hoF(陆家嘴店)","lon":"121.503866724","lat":"31.2410764887","category":"260","category_name":"其他","address":"浦东新区陆家嘴环路1318号星展银行大厦下沉式广场8号商铺(近东园路)"},{"poiid":"B2094757D164A3FD419A","title":"Baker&Spice(国金中心店)","lon":"121.50242473","lat":"31.237036445","category":"67","category_name":"甜品店","address":"浦东新区世纪大道8号国金中心IFC商场LG层16室(近浦东大道)"},{"poiid":"B2094757D068ABF54492","title":"星美正大影城六號廳","lon":"121.501231968","lat":"31.2374576441","category":"500","category_name":"未知分类","address":"上海浦东新区陆家嘴西路168号正大广场8楼"},{"poiid":"B2094757D06FA5FD499E","title":"星巴克Starbucks(东方浮庭店)","lon":"121.501809489","lat":"31.2383870977","category":"260","category_name":"其他","address":"浦东新区世纪大道55号东方浮庭2楼(近陆家嘴东路)"},{"poiid":"B2094757D06FA6F9479A","title":"交银金融大厦","lon":"121.50331115","lat":"31.238565444","category":"46","category_name":"楼宇","address":"碧云东壹栋位于浦东金藏路51号(浙桥路口)"},{"poiid":"B2094655D26FABFB4093","title":"中国平安金融大厦","lon":"121.50234","lat":"31.23947","category":"46","category_name":"楼宇","address":""},{"poiid":"B2094757D068A1F8459D","title":"La Verbena","lon":"121.49765","lat":"31.24109","category":"94","category_name":"西餐厅","address":"浦东新区陆家嘴西路2967号北滨江E座(近国际会议中心)"},{"poiid":"B2094757D06FABFC439E","title":"Aura","lon":"121.501827738","lat":"31.2367564392","category":"260","category_name":"其他","address":"浦东新区世纪大道8号上海国金中心丽思卡尔顿酒店52楼(东泰路世纪大道)"},{"poiid":"B2094757D068A6FF4099","title":"Whittard of Chelsea","lon":"121.502784738","lat":"31.2368724417","category":"113","category_name":"冷饮店","address":"陆家嘴世纪大道8号上海国金中心D座四层L4-12室"},{"poiid":"B2094757D06FA3FA419E","title":"瓢六(国金中心店)","lon":"121.50596","lat":"31.23591","category":"95","category_name":"日本料理","address":"浦东新区世纪大道8号国金中心商场B2楼C-2号商铺(近东泰路)"},{"poiid":"B2094750D165A1FA4193","title":"小杨生煎","lon":"121.501","lat":"31.2401","category":"68","category_name":"快餐厅","address":"浦东新区陆家嘴环路1396号陆家嘴景庭1楼(海洋水族馆旁)"},{"poiid":"B2094757D068A0F84099","title":"老上海餐厅(老上海捌号)","lon":"121.500544738","lat":"31.2385504774","category":"500","category_name":"未知分类","address":"上海浦东新区世纪大道1号东方明珠8号门国际新闻中心1楼(近二号线陆家嘴站)"},{"poiid":"B2094757D66CABFF4198","title":"蘇浙總會(国金中心店)","lon":"121.502735738","lat":"31.2373164511","category":"248","category_name":"生活娱乐","address":"上海浦东新区世纪大道8号国金中心L4"},{"poiid":"B2094757D16FA6FA459F","title":"陸家嘴","lon":"121.502214738","lat":"31.2382874718","category":"500","category_name":"未知分类","address":"上海市浦东新区丰和路"},{"poiid":"B2094757D06FA7FB409A","title":"东方既白(小陆家嘴店)","lon":"121.50165713","lat":"31.238781115","category":"68","category_name":"快餐厅","address":"浦东新区世纪大道55号东方浮庭1楼(近东方明珠)"},{"poiid":"B2094757D06FA7FD4799","title":"圣久代","lon":"121.502195738","lat":"31.2372974507","category":"113","category_name":"冷饮店","address":"浦东新区世纪大道8号国金中心IFC商场LG2(近CitySuper)"},{"poiid":"B2094757D06FA7FA459A","title":"宝寿司(陆家嘴店)","lon":"121.503959724","lat":"31.2409894884","category":"95","category_name":"日本料理","address":"浦东新区陆家嘴环路1318号星展银行大厦B1楼5号铺(近东园路)"},{"poiid":"B2094757D065A0FD459A","title":"星巴克 STARBICKS (汇亚大厦店)","lon":"121.503237538","lat":"31.2409458285","category":"65","category_name":"咖啡厅","address":"浦东新区陆家嘴环路1233号汇亚大厦1楼大厅(近海族馆)"},{"poiid":"B2094757D16EABFB4793","title":"Latina","lon":"121.50173373","lat":"31.237477454","category":"500","category_name":"未知分类","address":"上海陆家嘴环路165号"},{"poiid":"B2094757D16DAAFB4693","title":"ifc俏江南","lon":"121.503631738","lat":"31.2372784503","category":"500","category_name":"未知分类","address":"上海市浦东新区世纪大道"},{"poiid":"B2094757D66EA5F9469A","title":"唐宫海鲜坊","lon":"121.50139373","lat":"31.237452454","category":"247","category_name":"餐饮美食","address":"上海浦东新区规二路"},{"poiid":"B2094750D365ABF94092","title":"正大广场星美国际影城3号厅","lon":"121.501655","lat":"31.237243","category":"500","category_name":"未知分类","address":null},{"poiid":"B2094655D26AA0FA469F","title":"地铁陆家嘴站","lon":"121.50163","lat":"31.23807","category":"36","category_name":"地铁站","address":""},{"poiid":"B2094654DB6BA4F5499C","title":"禾绿回转寿司(明珠店)","lon":"121.50121","lat":"31.23975","category":"95","category_name":"日本料理","address":"上海浦东新区陆家嘴环路1406-1414号2楼(近海洋水族馆)"},{"poiid":"B2094654DB6BA4F5499E","title":"味千拉面","lon":"121.5011","lat":"31.23962","category":"95","category_name":"日本料理","address":"陆家嘴环路1416号"},{"poiid":"B2094757D06AABF4439D","title":"釜山料理","lon":"121.50271673","lat":"31.236967443","category":"247","category_name":"餐饮美食","address":"上海世纪大道8号国金中心商场4楼"},{"poiid":"B2094757D16AA5FC469C","title":"上海板长寿司（国金中心店）","lon":"121.50117573","lat":"31.237380452","category":"247","category_name":"餐饮美食","address":"浦东新区世纪大道8号国金中心LG1-18号商铺(近东泰路)"},{"poiid":"B2094757D069A7FB489E","title":"苹果店","lon":"121.501245738","lat":"31.237543456","category":"249","category_name":"购物服务","address":"上海IFC"},{"poiid":"B2094757D068A1FA439D","title":"伊藤家(明珠店)","lon":"121.50153","lat":"31.23946","category":"95","category_name":"日本料理","address":"浦东新区陆家嘴环路1402号(近海洋水族馆)"},{"poiid":"B2094757D66DA3F84099","title":"麦当劳(东方浮庭店)","lon":"121.50247573","lat":"31.24010151","category":"68","category_name":"快餐厅","address":"浦东新区世纪大道55号世纪浮庭世纪天桥2楼(近陆家嘴环路)"},{"poiid":"B2094757D16CA2FA439B","title":"品面","lon":"121.502659738","lat":"31.2365974358","category":"68","category_name":"快餐厅","address":"浦东新区世纪大道8号国金中心商场LG2楼B座11号(近正大广场)"},{"poiid":"B2094757D06FA5F9419A","title":"可颂坊(陆家嘴店)","lon":"121.501476","lat":"31.238862","category":"112","category_name":"糕饼店","address":"浦东新区世纪大道55号(近陆家嘴地铁站2出口)"},{"poiid":"B2094757D16BABFB489A","title":"上海海洋水族馆(极地馆区)","lon":"121.501246","lat":"31.239975","category":"249","category_name":"购物服务","address":"上海市浦东新区陆家嘴环路1388号"},{"poiid":"B2094752D264A7FB4798","title":"isola上海国金中心IFC","lon":"121.501307","lat":"31.23788","category":"247","category_name":"餐饮美食","address":"上海国金中心"},{"poiid":"B2094757D06FA1FB429E","title":"鱿鱼烧みなせん","lon":"121.50348773","lat":"31.237087446","category":"95","category_name":"日本料理","address":"浦东新区世纪大道8号国金中心LG2-B2商铺(近东泰路)"},{"poiid":"B2094757D16AA0FB419D","title":"交通银行总行（交银金融大厦）","lon":"121.503625","lat":"31.238935","category":"150","category_name":"银行","address":"浦东新区银城中路188号交银金融大厦(近东园路)"},{"poiid":"B2094757D068A7FD459F","title":"會津まる家(环球金融店)","lon":"121.501646738","lat":"31.2373394516","category":"95","category_name":"日本料理","address":"上海环球金融中心B1"},{"poiid":"B2094757D069A1FE419A","title":"烹大师涮涮锅(陆家嘴店)","lon":"121.50086","lat":"31.23849","category":"86","category_name":"火锅店","address":"浦东新区陆家嘴环路1398号(近东方明珠)"},{"poiid":"B2094654DA6FA7FD459E","title":"上海海洋水族馆","lon":"121.50194","lat":"31.24064","category":"199","category_name":"水族馆","address":"上海市浦东新区陆家嘴环路1388号"},{"poiid":"B2094655D36DA6FE409E","title":"陆家嘴","lon":"121.50163","lat":"31.23807","category":"38","category_name":"公交车站","address":"时代金融中心"},{"poiid":"B2094757D06EAAFF449F","title":"食尚港丽(国金店)","lon":"121.50596","lat":"31.23591","category":"72","category_name":"广东菜","address":"浦东新区世纪大道8号国金中心商场LG1-20号商铺(近东泰路)"},{"poiid":"B209475CD564A7F84392","title":"上海滩浦东香格里拉店","lon":"121.50058","lat":"31.23634","category":"119","category_name":"商场","address":"浦东富成路33号香格里拉酒店内大堂层"},{"poiid":"B2094757D06FA5FB4493","title":"东方明珠旋转餐厅","lon":"121.50184","lat":"31.23831","category":"268","category_name":"自助","address":"浦东新区世纪大道1号东方明珠电视塔(近二号线陆家嘴站)"},{"poiid":"B2094757D165A0FC4793","title":"东方明珠","lon":"121.501606738","lat":"31.2372364494","category":"500","category_name":"未知分类","address":"浦东世纪大道1号，坐落于黄浦江畔浦东陆家嘴嘴尖上，与外滩的万国建筑博览群隔江相望"},{"poiid":"B2094757D06FA3FE429D","title":"鹿港小镇 陆家嘴店 Bellagio Cuisine","lon":"121.503279","lat":"31.241373","category":"91","category_name":"台湾菜","address":"浦东新区陆家嘴环路1318号星展银行大厦B1楼06室(东园路陆家嘴环路)"},{"poiid":"B2094757D06FA3FC4392","title":"中银大厦","lon":"121.502753258","lat":"31.2385470983","category":"46","category_name":"楼宇","address":"上海浦东新区银城中路200号"},{"poiid":"B2094757D06FA2FF4398","title":"天家(国金中心店)","lon":"121.50596","lat":"31.23591","category":"95","category_name":"日本料理","address":"浦东新区世纪大道8号国金中心商场4楼(近东泰路)"},{"poiid":"B2094655D26BA1F4419B","title":"陆家嘴地铁站","lon":"121.50161","lat":"31.23788","category":"36","category_name":"地铁站","address":"上海轨道交通 二号线 轨交陆家嘴站"},{"poiid":"B2094757D06FA4F54099","title":"炉匠(炉端烧•酒)","lon":"121.50304973","lat":"31.236487433","category":"269","category_name":"烧烤","address":"浦东新区世纪大道8号国金中心商场L4-22号商铺(近银城西路)"},{"poiid":"B2094757D06FA1FB489B","title":"Haiku by Hatsune(国金中心店)","lon":"121.50596","lat":"31.23591","category":"95","category_name":"日本料理","address":"浦东新区世纪大道8号国金中心商场LG1楼36号铺(近东泰路)"},{"poiid":"B2094757D06FA2FC4593","title":"hoF(陆家嘴店)","lon":"121.503866724","lat":"31.2410764887","category":"260","category_name":"其他","address":"浦东新区陆家嘴环路1318号星展银行大厦下沉式广场8号商铺(近东园路)"},{"poiid":"B2094757D164A3FD419A","title":"Baker&Spice(国金中心店)","lon":"121.50242473","lat":"31.237036445","category":"67","category_name":"甜品店","address":"浦东新区世纪大道8号国金中心IFC商场LG层16室(近浦东大道)"},{"poiid":"B2094757D068ABF54492","title":"星美正大影城六號廳","lon":"121.501231968","lat":"31.2374576441","category":"500","category_name":"未知分类","address":"上海浦东新区陆家嘴西路168号正大广场8楼"},{"poiid":"B2094757D06FA5FD499E","title":"星巴克Starbucks(东方浮庭店)","lon":"121.501809489","lat":"31.2383870977","category":"260","category_name":"其他","address":"浦东新区世纪大道55号东方浮庭2楼(近陆家嘴东路)"},{"poiid":"B2094757D06FA6F9479A","title":"交银金融大厦","lon":"121.50331115","lat":"31.238565444","category":"46","category_name":"楼宇","address":"碧云东壹栋位于浦东金藏路51号(浙桥路口)"},{"poiid":"B2094655D26FABFB4093","title":"中国平安金融大厦","lon":"121.50234","lat":"31.23947","category":"46","category_name":"楼宇","address":""},{"poiid":"B2094757D068A1F8459D","title":"La Verbena","lon":"121.49765","lat":"31.24109","category":"94","category_name":"西餐厅","address":"浦东新区陆家嘴西路2967号北滨江E座(近国际会议中心)"},{"poiid":"B2094757D06FABFC439E","title":"Aura","lon":"121.501827738","lat":"31.2367564392","category":"260","category_name":"其他","address":"浦东新区世纪大道8号上海国金中心丽思卡尔顿酒店52楼(东泰路世纪大道)"},{"poiid":"B2094757D068A6FF4099","title":"Whittard of Chelsea","lon":"121.502784738","lat":"31.2368724417","category":"113","category_name":"冷饮店","address":"陆家嘴世纪大道8号上海国金中心D座四层L4-12室"},{"poiid":"B2094757D06FA3FA419E","title":"瓢六(国金中心店)","lon":"121.50596","lat":"31.23591","category":"95","category_name":"日本料理","address":"浦东新区世纪大道8号国金中心商场B2楼C-2号商铺(近东泰路)"},{"poiid":"B2094750D165A1FA4193","title":"小杨生煎","lon":"121.501","lat":"31.2401","category":"68","category_name":"快餐厅","address":"浦东新区陆家嘴环路1396号陆家嘴景庭1楼(海洋水族馆旁)"},{"poiid":"B2094757D068A0F84099","title":"老上海餐厅(老上海捌号)","lon":"121.500544738","lat":"31.2385504774","category":"500","category_name":"未知分类","address":"上海浦东新区世纪大道1号东方明珠8号门国际新闻中心1楼(近二号线陆家嘴站)"},{"poiid":"B2094757D66CABFF4198","title":"蘇浙總會(国金中心店)","lon":"121.502735738","lat":"31.2373164511","category":"248","category_name":"生活娱乐","address":"上海浦东新区世纪大道8号国金中心L4"},{"poiid":"B2094757D16FA6FA459F","title":"陸家嘴","lon":"121.502214738","lat":"31.2382874718","category":"500","category_name":"未知分类","address":"上海市浦东新区丰和路"},{"poiid":"B2094757D06FA7FB409A","title":"东方既白(小陆家嘴店)","lon":"121.50165713","lat":"31.238781115","category":"68","category_name":"快餐厅","address":"浦东新区世纪大道55号东方浮庭1楼(近东方明珠)"},{"poiid":"B2094757D06FA7FD4799","title":"圣久代","lon":"121.502195738","lat":"31.2372974507","category":"113","category_name":"冷饮店","address":"浦东新区世纪大道8号国金中心IFC商场LG2(近CitySuper)"},{"poiid":"B2094757D06FA7FA459A","title":"宝寿司(陆家嘴店)","lon":"121.503959724","lat":"31.2409894884","category":"95","category_name":"日本料理","address":"浦东新区陆家嘴环路1318号星展银行大厦B1楼5号铺(近东园路)"},{"poiid":"B2094757D065A0FD459A","title":"星巴克 STARBICKS (汇亚大厦店)","lon":"121.503237538","lat":"31.2409458285","category":"65","category_name":"咖啡厅","address":"浦东新区陆家嘴环路1233号汇亚大厦1楼大厅(近海族馆)"},{"poiid":"B2094757D16EABFB4793","title":"Latina","lon":"121.50173373","lat":"31.237477454","category":"500","category_name":"未知分类","address":"上海陆家嘴环路165号"},{"poiid":"B2094757D16DAAFB4693","title":"ifc俏江南","lon":"121.503631738","lat":"31.2372784503","category":"500","category_name":"未知分类","address":"上海市浦东新区世纪大道"},{"poiid":"B2094757D66EA5F9469A","title":"唐宫海鲜坊","lon":"121.50139373","lat":"31.237452454","category":"247","category_name":"餐饮美食","address":"上海浦东新区规二路"},{"poiid":"B2094750D365ABF94092","title":"正大广场星美国际影城3号厅","lon":"121.501655","lat":"31.237243","category":"500","category_name":"未知分类","address":null},{"poiid":"B2094655D26AA0FA469F","title":"地铁陆家嘴站","lon":"121.50163","lat":"31.23807","category":"36","category_name":"地铁站","address":""},{"poiid":"B2094654DB6BA4F5499C","title":"禾绿回转寿司(明珠店)","lon":"121.50121","lat":"31.23975","category":"95","category_name":"日本料理","address":"上海浦东新区陆家嘴环路1406-1414号2楼(近海洋水族馆)"},{"poiid":"B2094654DB6BA4F5499E","title":"味千拉面","lon":"121.5011","lat":"31.23962","category":"95","category_name":"日本料理","address":"陆家嘴环路1416号"},{"poiid":"B2094757D06AABF4439D","title":"釜山料理","lon":"121.50271673","lat":"31.236967443","category":"247","category_name":"餐饮美食","address":"上海世纪大道8号国金中心商场4楼"},{"poiid":"B2094757D16AA5FC469C","title":"上海板长寿司（国金中心店）","lon":"121.50117573","lat":"31.237380452","category":"247","category_name":"餐饮美食","address":"浦东新区世纪大道8号国金中心LG1-18号商铺(近东泰路)"},{"poiid":"B2094757D069A7FB489E","title":"苹果店","lon":"121.501245738","lat":"31.237543456","category":"249","category_name":"购物服务","address":"上海IFC"},{"poiid":"B2094757D068A1FA439D","title":"伊藤家(明珠店)","lon":"121.50153","lat":"31.23946","category":"95","category_name":"日本料理","address":"浦东新区陆家嘴环路1402号(近海洋水族馆)"},{"poiid":"B2094757D66DA3F84099","title":"麦当劳(东方浮庭店)","lon":"121.50247573","lat":"31.24010151","category":"68","category_name":"快餐厅","address":"浦东新区世纪大道55号世纪浮庭世纪天桥2楼(近陆家嘴环路)"},{"poiid":"B2094757D16CA2FA439B","title":"品面","lon":"121.502659738","lat":"31.2365974358","category":"68","category_name":"快餐厅","address":"浦东新区世纪大道8号国金中心商场LG2楼B座11号(近正大广场)"},{"poiid":"B2094757D06FA5F9419A","title":"可颂坊(陆家嘴店)","lon":"121.501476","lat":"31.238862","category":"112","category_name":"糕饼店","address":"浦东新区世纪大道55号(近陆家嘴地铁站2出口)"},{"poiid":"B2094757D16BABFB489A","title":"上海海洋水族馆(极地馆区)","lon":"121.501246","lat":"31.239975","category":"249","category_name":"购物服务","address":"上海市浦东新区陆家嘴环路1388号"},{"poiid":"B2094752D264A7FB4798","title":"isola上海国金中心IFC","lon":"121.501307","lat":"31.23788","category":"247","category_name":"餐饮美食","address":"上海国金中心"},{"poiid":"B2094757D06FA1FB429E","title":"鱿鱼烧みなせん","lon":"121.50348773","lat":"31.237087446","category":"95","category_name":"日本料理","address":"浦东新区世纪大道8号国金中心LG2-B2商铺(近东泰路)"},{"poiid":"B2094757D16AA0FB419D","title":"交通银行总行（交银金融大厦）","lon":"121.503625","lat":"31.238935","category":"150","category_name":"银行","address":"浦东新区银城中路188号交银金融大厦(近东园路)"},{"poiid":"B2094757D068A7FD459F","title":"會津まる家(环球金融店)","lon":"121.501646738","lat":"31.2373394516","category":"95","category_name":"日本料理","address":"上海环球金融中心B1"},{"poiid":"B2094757D069A1FE419A","title":"烹大师涮涮锅(陆家嘴店)","lon":"121.50086","lat":"31.23849","category":"86","category_name":"火锅店","address":"浦东新区陆家嘴环路1398号(近东方明珠)"}]