[{"poiid":"B2094757D06FA6FE489A","title":"浦东张江高科软件园","lon":"121.6044558","lat":"31.1999323","category":"500","category_name":"未知分类","address":"上海博霞路11号"},{"poiid":"B2094757D069A4F4489E","title":"台北有间牛排馆","lon":"121.61252","lat":"31.20133","category":"91","category_name":"台湾菜","address":"浦东新区张江镇建中路290号(近高斯路)"},{"poiid":"B2094757D06FA3F9469D","title":"星巴克(蔡伦路店)","lon":"121.606942","lat":"31.193842","category":"260","category_name":"其他","address":"浦东新区蔡伦路780号1楼"},{"poiid":"B2094757D068A2FD449D","title":"张江药谷","lon":"121.606046","lat":"31.193313","category":"500","category_name":"未知分类","address":"上海蔡伦路哈雷路"},{"poiid":"B2094757D068A0F94098","title":"紫薇公园","lon":"121.61446866","lat":"31.200783664","category":"196","category_name":"公园","address":"浦东新区紫薇路60号(近古桐南路)"},{"poiid":"B2094757D068A0FE479D","title":"霍尼韦尔(中国)有限公司","lon":"121.61346859","lat":"31.1958801994","category":"263","category_name":"公司","address":"上海市浦东新区张江高科技园区李冰路430号"},{"poiid":"B2094654DA6AA6F84698","title":"张江润和国际总部园","lon":"121.60652","lat":"31.19021","category":"45","category_name":"产业园区","address":"杨浦区大学路33号"},{"poiid":"B2094757D06AA2F4439B","title":"上海市计量测试技术研究院","lon":"121.606126","lat":"31.190951","category":"500","category_name":"未知分类","address":"上海张衡路1500号"},{"poiid":"B2094757D06FA1FB4098","title":"COSTA COFFEE(张江店)","lon":"121.6057431","lat":"31.2029256","category":"65","category_name":"咖啡厅","address":"浦东新区博云路2号浦软大厦1楼104区"},{"poiid":"B2094757DB68A4F8479A","title":"川香1号","lon":"121.61487579346","lat":"31.199899374106","category":"71","category_name":"四川菜","address":"浦东新区高斯路1112-1116号(近紫薇路)"},{"poiid":"B2094757D16CA1FF4199","title":"汉庭快捷酒店(蔡伦路店)","lon":"121.6165","lat":"31.19327","category":"217","category_name":"旅馆招待所","address":"浦东新区蔡伦路333号(近伽利略路)"},{"poiid":"B2094757D068ABFC4793","title":"桃花源酒家 张江店","lon":"121.61640151289748","lat":"31.19982168307144","category":"77","category_name":"湖南菜","address":"浦东新区高斯路1252号(近紫薇路)"},{"poiid":"B2094655D36CA6FD499A","title":"高斯路建中路","lon":"121.61114","lat":"31.2016","category":"38","category_name":"公交车站","address":""},{"poiid":"B2094757D064A7FE4799","title":"Honeywell 霍尼韦尔(中国)","lon":"121.614191","lat":"31.196908","category":"46","category_name":"楼宇","address":"上海李冰路430号"},{"poiid":"B2094757D16CA2FA4192","title":"惠生科技园","lon":"121.609063","lat":"31.191914","category":"46","category_name":"楼宇","address":"上海浦东张江张衡路1399号惠生科技园"},{"poiid":"B2094757D16CA2F8439F","title":"杜邦(中国)研发中心","lon":"121.60900697","lat":"31.194236219","category":"46","category_name":"楼宇","address":"上海市浦东新区张江高科技园区蔡伦路600号"},{"poiid":"B2094655D36CA1FB4992","title":"李冰路爱迪生路","lon":"121.60796","lat":"31.19583","category":"38","category_name":"公交车站","address":""},{"poiid":"B2094757D06AA5F94693","title":"帝斯曼中国园区","lon":"121.60405731","lat":"31.194208145","category":"500","category_name":"未知分类","address":"上海李冰路476号"},{"poiid":"B2094655D36CA6FD489B","title":"哥白尼路李冰路","lon":"121.61221","lat":"31.19688","category":"38","category_name":"公交车站","address":""},{"poiid":"B2094757D065A7F4459E","title":"湘音土菜馆","lon":"121.612984049","lat":"31.1993806399","category":"77","category_name":"湖南菜","address":"浦东新区紫薇路8号(近高斯路)"},{"poiid":"B2094757DB6EA5F8409D","title":"风波庄","lon":"121.6108208680295","lat":"31.20195413547734","category":"247","category_name":"餐饮美食","address":"浦东新区高斯路1268号(近古桐南路)"},{"poiid":"B2094654DB64A5FD4492","title":"如家快捷酒店(上海张江和美店)","lon":"121.60661","lat":"31.19363","category":"216","category_name":"经济型连锁酒店","address":"浦东新区蔡伦路782号(哈雷路蔡伦路)"},{"poiid":"B2094757D069A3F4469A","title":"IRIS甜品店","lon":"121.6029567","lat":"31.200627598","category":"67","category_name":"甜品店","address":"浦东新区博霞路21号罗森便利后侧(近盛大文学)"},{"poiid":"B2094757D06AA6F5489B","title":"The Corner","lon":"121.61320641","lat":"31.199833896","category":"500","category_name":"未知分类","address":"上海高斯路1070号(紫薇路口)"},{"poiid":"B2094757D16DA1FB4398","title":"满香饺子","lon":"121.613726054","lat":"31.200214793","category":"68","category_name":"快餐厅","address":"浦东新区高斯路1060号(紫薇路口)"},{"poiid":"B2094654DA6AA6FE4499","title":"张江药谷大厦","lon":"121.60694","lat":"31.19384","category":"46","category_name":"楼宇","address":"蔡伦路780"},{"poiid":"B2094757D068A1F4429B","title":"张衡路1000弄","lon":"121.606522","lat":"31.190217","category":"500","category_name":"未知分类","address":"上海润和国际总部园"},{"poiid":"B2094757D06BABF5429A","title":"药谷健身中心","lon":"121.60451","lat":"31.19639","category":"221","category_name":"健身中心","address":"浦东新区哈雷路899号(近李冰路)"},{"poiid":"B2094757D16DA2FA4898","title":"张江半岛酒楼","lon":"121.61651","lat":"31.19404","category":"72","category_name":"广东菜","address":"浦东新区蔡伦路333号(近伽利略路)"},{"poiid":"B2094750D768A4FC4993","title":"老北京羊蝎子涮锅","lon":"121.612","lat":"31.2016","category":"86","category_name":"火锅店","address":"浦东新区建中路286号"},{"poiid":"B2094757D06FA7FC4293","title":"国家电网上海市电力公司浦东供电公司张江基地","lon":"121.61714172","lat":"31.196594238","category":"46","category_name":"楼宇","address":"上海李冰路251号"},{"poiid":"B2094757D06BA7FE449A","title":"葛兰素史克研发中心","lon":"121.604609069","lat":"31.1960911943","category":"46","category_name":"楼宇","address":"上海哈雷路917弄"},{"poiid":"B2094751D56EA5FA4593","title":"牧羊传奇火锅店","lon":"121.613295","lat":"31.199798","category":"247","category_name":"餐饮美食","address":"紫薇路17号"},{"poiid":"B2094750D76FA2FA479F","title":"潘朵拉城市行动咖啡店(张江二店)","lon":"121.607","lat":"31.2007","category":"113","category_name":"冷饮店","address":"浦东新区亮秀路112号Y2-106室(近晨辉路)"},{"poiid":"B2094757D164A1FE4193","title":"新招鲜","lon":"121.611023875","lat":"31.1988885277","category":"86","category_name":"火锅店","address":"浦东新区紫薇路16号(近高斯路)"},{"poiid":"B2094750DA6FA2F44099","title":"SLATE岩石","lon":"121.602778","lat":"31.201933","category":"94","category_name":"西餐厅","address":"浦东新区博霞路22号软件园三期1楼"},{"poiid":"B2094750D76FA4F5439F","title":"李记农家菜","lon":"121.613","lat":"31.1992","category":"77","category_name":"湖南菜","address":"浦东新区张江镇紫薇路216-218号(近张江路)"},{"poiid":"B2094757D169A2FB4099","title":"上海生物芯片SBC","lon":"121.608051725","lat":"31.1959953934","category":"500","category_name":"未知分类","address":"上海李冰路151号"},{"poiid":"B2094654DA6AA6FE409F","title":"张江药谷孵化基地","lon":"121.60812","lat":"31.19402","category":"45","category_name":"产业园区","address":"蔡伦路720弄1-7号"},{"poiid":"B2094655D36CA7FB4698","title":"哈雷路李冰路","lon":"121.60347","lat":"31.19772","category":"38","category_name":"公交车站","address":""},{"poiid":"B2094757D16AA4FE4799","title":"古桐五村","lon":"121.61243","lat":"31.199644","category":"252","category_name":"楼宇机构","address":"上海紫薇公园"},{"poiid":"B2094654DA6AA6F5469D","title":"张江新苑","lon":"121.61301","lat":"31.200815","category":"47","category_name":"住宅区","address":"紫薇路35弄"},{"poiid":"B2094655D26EA4FF409C","title":"Starbucks Coffee","lon":"121.60707","lat":"31.19382","category":"65","category_name":"咖啡厅","address":"浦东新区蔡伦路780号1楼"},{"poiid":"B2094654DA6AA6FE4099","title":"和记黄埔医药","lon":"121.607","lat":"31.19493","category":"162","category_name":"医院","address":""},{"poiid":"B2094654DA6AA5FC4492","title":"古桐四村","lon":"121.61433","lat":"31.199333","category":"47","category_name":"住宅区","address":"高斯路1122弄1-32号"},{"poiid":"B2094757D065A4F44992","title":"银联商务","lon":"121.60742","lat":"31.190872","category":"500","category_name":"未知分类","address":"上海张衡路哈雷路"},{"poiid":"B2094757D168A3FE419B","title":"张江有轨电车1路哥白尼路李冰路站","lon":"121.612388975","lat":"31.19588377","category":"500","category_name":"未知分类","address":"上海哥白尼路李冰路"},{"poiid":"B2094654DA6AA6FE449C","title":"浦东国际科技合作孵化基地","lon":"121.60693","lat":"31.19383","category":"45","category_name":"产业园区","address":"蔡伦路780"},{"poiid":"B2094757D164A0FD499F","title":"有间牛排","lon":"121.61248779","lat":"31.198751449","category":"247","category_name":"餐饮美食","address":"上海张江镇建中路290号(近高斯里路)"},{"poiid":"B2094757D46EA2FD4099","title":"东池便当 张江店","lon":"121.613622","lat":"31.199925","category":"68","category_name":"快餐厅","address":"浦东新区张江镇高斯路1128号(近好德便利店)"},{"poiid":"B2094757D06FA6FE489A","title":"浦东张江高科软件园","lon":"121.6044558","lat":"31.1999323","category":"500","category_name":"未知分类","address":"上海博霞路11号"},{"poiid":"B2094757D069A4F4489E","title":"台北有间牛排馆","lon":"121.61252","lat":"31.20133","category":"91","category_name":"台湾菜","address":"浦东新区张江镇建中路290号(近高斯路)"},{"poiid":"B2094757D06FA3F9469D","title":"星巴克(蔡伦路店)","lon":"121.606942","lat":"31.193842","category":"260","category_name":"其他","address":"浦东新区蔡伦路780号1楼"},{"poiid":"B2094757D068A2FD449D","title":"张江药谷","lon":"121.606046","lat":"31.193313","category":"500","category_name":"未知分类","address":"上海蔡伦路哈雷路"},{"poiid":"B2094757D068A0F94098","title":"紫薇公园","lon":"121.61446866","lat":"31.200783664","category":"196","category_name":"公园","address":"浦东新区紫薇路60号(近古桐南路)"},{"poiid":"B2094757D068A0FE479D","title":"霍尼韦尔(中国)有限公司","lon":"121.61346859","lat":"31.1958801994","category":"263","category_name":"公司","address":"上海市浦东新区张江高科技园区李冰路430号"},{"poiid":"B2094654DA6AA6F84698","title":"张江润和国际总部园","lon":"121.60652","lat":"31.19021","category":"45","category_name":"产业园区","address":"杨浦区大学路33号"},{"poiid":"B2094757D06AA2F4439B","title":"上海市计量测试技术研究院","lon":"121.606126","lat":"31.190951","category":"500","category_name":"未知分类","address":"上海张衡路1500号"},{"poiid":"B2094757D06FA1FB4098","title":"COSTA COFFEE(张江店)","lon":"121.6057431","lat":"31.2029256","category":"65","category_name":"咖啡厅","address":"浦东新区博云路2号浦软大厦1楼104区"},{"poiid":"B2094757DB68A4F8479A","title":"川香1号","lon":"121.61487579346","lat":"31.199899374106","category":"71","category_name":"四川菜","address":"浦东新区高斯路1112-1116号(近紫薇路)"},{"poiid":"B2094757D16CA1FF4199","title":"汉庭快捷酒店(蔡伦路店)","lon":"121.6165","lat":"31.19327","category":"217","category_name":"旅馆招待所","address":"浦东新区蔡伦路333号(近伽利略路)"},{"poiid":"B2094757D068ABFC4793","title":"桃花源酒家 张江店","lon":"121.61640151289748","lat":"31.19982168307144","category":"77","category_name":"湖南菜","address":"浦东新区高斯路1252号(近紫薇路)"},{"poiid":"B2094655D36CA6FD499A","title":"高斯路建中路","lon":"121.61114","lat":"31.2016","category":"38","category_name":"公交车站","address":""},{"poiid":"B2094757D064A7FE4799","title":"Honeywell 霍尼韦尔(中国)","lon":"121.614191","lat":"31.196908","category":"46","category_name":"楼宇","address":"上海李冰路430号"},{"poiid":"B2094757D16CA2FA4192","title":"惠生科技园","lon":"121.609063","lat":"31.191914","category":"46","category_name":"楼宇","address":"上海浦东张江张衡路1399号惠生科技园"},{"poiid":"B2094757D16CA2F8439F","title":"杜邦(中国)研发中心","lon":"121.60900697","lat":"31.194236219","category":"46","category_name":"楼宇","address":"上海市浦东新区张江高科技园区蔡伦路600号"},{"poiid":"B2094655D36CA1FB4992","title":"李冰路爱迪生路","lon":"121.60796","lat":"31.19583","category":"38","category_name":"公交车站","address":""},{"poiid":"B2094757D06AA5F94693","title":"帝斯曼中国园区","lon":"121.60405731","lat":"31.194208145","category":"500","category_name":"未知分类","address":"上海李冰路476号"},{"poiid":"B2094655D36CA6FD489B","title":"哥白尼路李冰路","lon":"121.61221","lat":"31.19688","category":"38","category_name":"公交车站","address":""},{"poiid":"B2094757D065A7F4459E","title":"湘音土菜馆","lon":"121.612984049","lat":"31.1993806399","category":"77","category_name":"湖南菜","address":"浦东新区紫薇路8号(近高斯路)"},{"poiid":"B2094757DB6EA5F8409D","title":"风波庄","lon":"121.6108208680295","lat":"31.20195413547734","category":"247","category_name":"餐饮美食","address":"浦东新区高斯路1268号(近古桐南路)"},{"poiid":"B2094654DB64A5FD4492","title":"如家快捷酒店(上海张江和美店)","lon":"121.60661","lat":"31.19363","category":"216","category_name":"经济型连锁酒店","address":"浦东新区蔡伦路782号(哈雷路蔡伦路)"},{"poiid":"B2094757D069A3F4469A","title":"IRIS甜品店","lon":"121.6029567","lat":"31.200627598","category":"67","category_name":"甜品店","address":"浦东新区博霞路21号罗森便利后侧(近盛大文学)"},{"poiid":"B2094757D06AA6F5489B","title":"The Corner","lon":"121.61320641","lat":"31.199833896","category":"500","category_name":"未知分类","address":"上海高斯路1070号(紫薇路口)"},{"poiid":"B2094757D16DA1FB4398","title":"满香饺子","lon":"121.613726054","lat":"31.200214793","category":"68","category_name":"快餐厅","address":"浦东新区高斯路1060号(紫薇路口)"},{"poiid":"B2094654DA6AA6FE4499","title":"张江药谷大厦","lon":"121.60694","lat":"31.19384","category":"46","category_name":"楼宇","address":"蔡伦路780"},{"poiid":"B2094757D068A1F4429B","title":"张衡路1000弄","lon":"121.606522","lat":"31.190217","category":"500","category_name":"未知分类","address":"上海润和国际总部园"},{"poiid":"B2094757D06BABF5429A","title":"药谷健身中心","lon":"121.60451","lat":"31.19639","category":"221","category_name":"健身中心","address":"浦东新区哈雷路899号(近李冰路)"},{"poiid":"B2094757D16DA2FA4898","title":"张江半岛酒楼","lon":"121.61651","lat":"31.19404","category":"72","category_name":"广东菜","address":"浦东新区蔡伦路333号(近伽利略路)"},{"poiid":"B2094750D768A4FC4993","title":"老北京羊蝎子涮锅","lon":"121.612","lat":"31.2016","category":"86","category_name":"火锅店","address":"浦东新区建中路286号"},{"poiid":"B2094757D06FA7FC4293","title":"国家电网上海市电力公司浦东供电公司张江基地","lon":"121.61714172","lat":"31.196594238","category":"46","category_name":"楼宇","address":"上海李冰路251号"},{"poiid":"B2094757D06BA7FE449A","title":"葛兰素史克研发中心","lon":"121.604609069","lat":"31.1960911943","category":"46","category_name":"楼宇","address":"上海哈雷路917弄"},{"poiid":"B2094751D56EA5FA4593","title":"牧羊传奇火锅店","lon":"121.613295","lat":"31.199798","category":"247","category_name":"餐饮美食","address":"紫薇路17号"},{"poiid":"B2094750D76FA2FA479F","title":"潘朵拉城市行动咖啡店(张江二店)","lon":"121.607","lat":"31.2007","category":"113","category_name":"冷饮店","address":"浦东新区亮秀路112号Y2-106室(近晨辉路)"},{"poiid":"B2094757D164A1FE4193","title":"新招鲜","lon":"121.611023875","lat":"31.1988885277","category":"86","category_name":"火锅店","address":"浦东新区紫薇路16号(近高斯路)"},{"poiid":"B2094750DA6FA2F44099","title":"SLATE岩石","lon":"121.602778","lat":"31.201933","category":"94","category_name":"西餐厅","address":"浦东新区博霞路22号软件园三期1楼"},{"poiid":"B2094750D76FA4F5439F","title":"李记农家菜","lon":"121.613","lat":"31.1992","category":"77","category_name":"湖南菜","address":"浦东新区张江镇紫薇路216-218号(近张江路)"},{"poiid":"B2094757D169A2FB4099","title":"上海生物芯片SBC","lon":"121.608051725","lat":"31.1959953934","category":"500","category_name":"未知分类","address":"上海李冰路151号"},{"poiid":"B2094654DA6AA6FE409F","title":"张江药谷孵化基地","lon":"121.60812","lat":"31.19402","category":"45","category_name":"产业园区","address":"蔡伦路720弄1-7号"},{"poiid":"B2094655D36CA7FB4698","title":"哈雷路李冰路","lon":"121.60347","lat":"31.19772","category":"38","category_name":"公交车站","address":""},{"poiid":"B2094757D16AA4FE4799","title":"古桐五村","lon":"121.61243","lat":"31.199644","category":"252","category_name":"楼宇机构","address":"上海紫薇公园"},{"poiid":"B2094654DA6AA6F5469D","title":"张江新苑","lon":"121.61301","lat":"31.200815","category":"47","category_name":"住宅区","address":"紫薇路35弄"},{"poiid":"B2094655D26EA4FF409C","title":"Starbucks Coffee","lon":"121.60707","lat":"31.19382","category":"65","category_name":"咖啡厅","address":"浦东新区蔡伦路780号1楼"},{"poiid":"B2094654DA6AA6FE4099","title":"和记黄埔医药","lon":"121.607","lat":"31.19493","category":"162","category_name":"医院","address":""},{"poiid":"B2094654DA6AA5FC4492","title":"古桐四村","lon":"121.61433","lat":"31.199333","category":"47","category_name":"住宅区","address":"高斯路1122弄1-32号"},{"poiid":"B2094757D065A4F44992","title":"银联商务","lon":"121.60742","lat":"31.190872","category":"500","category_name":"未知分类","address":"上海张衡路哈雷路"},{"poiid":"B2094757D168A3FE419B","title":"张江有轨电车1路哥白尼路李冰路站","lon":"121.612388975","lat":"31.19588377","category":"500","category_name":"未知分类","address":"上海哥白尼路李冰路"},{"poiid":"B2094654DA6AA6FE449C","title":"浦东国际科技合作孵化基地","lon":"121.60693","lat":"31.19383","category":"45","category_name":"产业园区","address":"蔡伦路780"},{"poiid":"B2094757D164A0FD499F","title":"有间牛排","lon":"121.61248779","lat":"31.198751449","category":"247","category_name":"餐饮美食","address":"上海张江镇建中路290号(近高斯里路)"},{"poiid":"B2094757D46EA2FD4099","title":"东池便当 张江店","lon":"121.613622","lat":"31.199925","category":"68","category_name":"快餐厅","address":"浦东新区张江镇高斯路1128号(近好德便利店)"},{"poiid":"B2094757D06FA6FE489A","title":"浦东张江高科软件园","lon":"121.6044558","lat":"31.1999323","category":"500","category_name":"未知分类","address":"上海博霞路11号"},{"poiid":"B2094757D069A4F4489E","title":"台北有间牛排馆","lon":"121.61252","lat":"31.20133","category":"91","category_name":"台湾菜","address":"浦东新区张江镇建中路290号(近高斯路)"},{"poiid":"B2094757D06FA3F9469D","title":"星巴克(蔡伦路店)","lon":"121.606942","lat":"31.193842","category":"260","category_name":"其他","address":"浦东新区蔡伦路780号1楼"},{"poiid":"B2094757D068A2FD449D","title":"张江药谷","lon":"121.606046","lat":"31.193313","category":"500","category_name":"未知分类","address":"上海蔡伦路哈雷路"},{"poiid":"B2094757D068A0F94098","title":"紫薇公园","lon":"121.61446866","lat":"31.200783664","category":"196","category_name":"公园","address":"浦东新区紫薇路60号(近古桐南路)"},{"poiid":"B2094757D068A0FE479D","title":"霍尼韦尔(中国)有限公司","lon":"121.61346859","lat":"31.1958801994","category":"263","category_name":"公司","address":"上海市浦东新区张江高科技园区李冰路430号"},{"poiid":"B2094654DA6AA6F84698","title":"张江润和国际总部园","lon":"121.60652","lat":"31.19021","category":"45","category_name":"产业园区","address":"杨浦区大学路33号"},{"poiid":"B2094757D06AA2F4439B","title":"上海市计量测试技术研究院","lon":"121.606126","lat":"31.190951","category":"500","category_name":"未知分类","address":"上海张衡路1500号"},{"poiid":"B2094757D06FA1FB4098","title":"COSTA COFFEE(张江店)","lon":"121.6057431","lat":"31.2029256","category":"65","category_name":"咖啡厅","address":"浦东新区博云路2号浦软大厦1楼104区"},{"poiid":"B2094757DB68A4F8479A","title":"川香1号","lon":"121.61487579346","lat":"31.199899374106","category":"71","category_name":"四川菜","address":"浦东新区高斯路1112-1116号(近紫薇路)"},{"poiid":"B2094757D16CA1FF4199","title":"汉庭快捷酒店(蔡伦路店)","lon":"121.6165","lat":"31.19327","category":"217","category_name":"旅馆招待所","address":"浦东新区蔡伦路333号(近伽利略路)"},{"poiid":"B2094757D068ABFC4793","title":"桃花源酒家 张江店","lon":"121.61640151289748","lat":"31.19982168307144","category":"77","category_name":"湖南菜","address":"浦东新区高斯路1252号(近紫薇路)"},{"poiid":"B2094655D36CA6FD499A","title":"高斯路建中路","lon":"121.61114","lat":"31.2016","category":"38","category_name":"公交车站","address":""},{"poiid":"B2094757D064A7FE4799","title":"Honeywell 霍尼韦尔(中国)","lon":"121.614191","lat":"31.196908","category":"46","category_name":"楼宇","address":"上海李冰路430号"},{"poiid":"B2094757D16CA2FA4192","title":"惠生科技园","lon":"121.609063","lat":"31.191914","category":"46","category_name":"楼宇","address":"上海浦东张江张衡路1399号惠生科技园"},{"poiid":"B2094757D16CA2F8439F","title":"杜邦(中国)研发中心","lon":"121.60900697","lat":"31.194236219","category":"46","category_name":"楼宇","address":"上海市浦东新区张江高科技园区蔡伦路600号"},{"poiid":"B2094655D36CA1FB4992","title":"李冰路爱迪生路","lon":"121.60796","lat":"31.19583","category":"38","category_name":"公交车站","address":""},{"poiid":"B2094757D06AA5F94693","title":"帝斯曼中国园区","lon":"121.60405731","lat":"31.194208145","category":"500","category_name":"未知分类","address":"上海李冰路476号"},{"poiid":"B2094655D36CA6FD489B","title":"哥白尼路李冰路","lon":"121.61221","lat":"31.19688","category":"38","category_name":"公交车站","address":""},{"poiid":"B2094757D065A7F4459E","title":"湘音土菜馆","lon":"121.612984049","lat":"31.1993806399","category":"77","category_name":"湖南菜","address":"浦东新区紫薇路8号(近高斯路)"},{"poiid":"B2094757DB6EA5F8409D","title":"风波庄","lon":"121.6108208680295","lat":"31.20195413547734","category":"247","category_name":"餐饮美食","address":"浦东新区高斯路1268号(近古桐南路)"},{"poiid":"B2094654DB64A5FD4492","title":"如家快捷酒店(上海张江和美店)","lon":"121.60661","lat":"31.19363","category":"216","category_name":"经济型连锁酒店","address":"浦东新区蔡伦路782号(哈雷路蔡伦路)"},{"poiid":"B2094757D069A3F4469A","title":"IRIS甜品店","lon":"121.6029567","lat":"31.200627598","category":"67","category_name":"甜品店","address":"浦东新区博霞路21号罗森便利后侧(近盛大文学)"},{"poiid":"B2094757D06AA6F5489B","title":"The Corner","lon":"121.61320641","lat":"31.199833896","category":"500","category_name":"未知分类","address":"上海高斯路1070号(紫薇路口)"},{"poiid":"B2094757D16DA1FB4398","title":"满香饺子","lon":"121.613726054","lat":"31.200214793","category":"68","category_name":"快餐厅","address":"浦东新区高斯路1060号(紫薇路口)"},{"poiid":"B2094654DA6AA6FE4499","title":"张江药谷大厦","lon":"121.60694","lat":"31.19384","category":"46","category_name":"楼宇","address":"蔡伦路780"},{"poiid":"B2094757D068A1F4429B","title":"张衡路1000弄","lon":"121.606522","lat":"31.190217","category":"500","category_name":"未知分类","address":"上海润和国际总部园"},{"poiid":"B2094757D06BABF5429A","title":"药谷健身中心","lon":"121.60451","lat":"31.19639","category":"221","category_name":"健身中心","address":"浦东新区哈雷路899号(近李冰路)"},{"poiid":"B2094757D16DA2FA4898","title":"张江半岛酒楼","lon":"121.61651","lat":"31.19404","category":"72","category_name":"广东菜","address":"浦东新区蔡伦路333号(近伽利略路)"},{"poiid":"B2094750D768A4FC4993","title":"老北京羊蝎子涮锅","lon":"121.612","lat":"31.2016","category":"86","category_name":"火锅店","address":"浦东新区建中路286号"},{"poiid":"B2094757D06FA7FC4293","title":"国家电网上海市电力公司浦东供电公司张江基地","lon":"121.61714172","lat":"31.196594238","category":"46","category_name":"楼宇","address":"上海李冰路251号"},{"poiid":"B2094757D06BA7FE449A","title":"葛兰素史克研发中心","lon":"121.604609069","lat":"31.1960911943","category":"46","category_name":"楼宇","address":"上海哈雷路917弄"},{"poiid":"B2094751D56EA5FA4593","title":"牧羊传奇火锅店","lon":"121.613295","lat":"31.199798","category":"247","category_name":"餐饮美食","address":"紫薇路17号"},{"poiid":"B2094750D76FA2FA479F","title":"潘朵拉城市行动咖啡店(张江二店)","lon":"121.607","lat":"31.2007","category":"113","category_name":"冷饮店","address":"浦东新区亮秀路112号Y2-106室(近晨辉路)"},{"poiid":"B2094757D164A1FE4193","title":"新招鲜","lon":"121.611023875","lat":"31.1988885277","category":"86","category_name":"火锅店","address":"浦东新区紫薇路16号(近高斯路)"},{"poiid":"B2094750DA6FA2F44099","title":"SLATE岩石","lon":"121.602778","lat":"31.201933","category":"94","category_name":"西餐厅","address":"浦东新区博霞路22号软件园三期1楼"},{"poiid":"B2094750D76FA4F5439F","title":"李记农家菜","lon":"121.613","lat":"31.1992","category":"77","category_name":"湖南菜","address":"浦东新区张江镇紫薇路216-218号(近张江路)"},{"poiid":"B2094757D169A2FB4099","title":"上海生物芯片SBC","lon":"121.608051725","lat":"31.1959953934","category":"500","category_name":"未知分类","address":"上海李冰路151号"},{"poiid":"B2094654DA6AA6FE409F","title":"张江药谷孵化基地","lon":"121.60812","lat":"31.19402","category":"45","category_name":"产业园区","address":"蔡伦路720弄1-7号"},{"poiid":"B2094655D36CA7FB4698","title":"哈雷路李冰路","lon":"121.60347","lat":"31.19772","category":"38","category_name":"公交车站","address":""},{"poiid":"B2094757D16AA4FE4799","title":"古桐五村","lon":"121.61243","lat":"31.199644","category":"252","category_name":"楼宇机构","address":"上海紫薇公园"},{"poiid":"B2094654DA6AA6F5469D","title":"张江新苑","lon":"121.61301","lat":"31.200815","category":"47","category_name":"住宅区","address":"紫薇路35弄"},{"poiid":"B2094655D26EA4FF409C","title":"Starbucks Coffee","lon":"121.60707","lat":"31.19382","category":"65","category_name":"咖啡厅","address":"浦东新区蔡伦路780号1楼"},{"poiid":"B2094654DA6AA6FE4099","title":"和记黄埔医药","lon":"121.607","lat":"31.19493","category":"162","category_name":"医院","address":""},{"poiid":"B2094654DA6AA5FC4492","title":"古桐四村","lon":"121.61433","lat":"31.199333","category":"47","category_name":"住宅区","address":"高斯路1122弄1-32号"},{"poiid":"B2094757D065A4F44992","title":"银联商务","lon":"121.60742","lat":"31.190872","category":"500","category_name":"未知分类","address":"上海张衡路哈雷路"},{"poiid":"B2094757D168A3FE419B","title":"张江有轨电车1路哥白尼路李冰路站","lon":"121.612388975","lat":"31.19588377","category":"500","category_name":"未知分类","address":"上海哥白尼路李冰路"},{"poiid":"B2094654DA6AA6FE449C","title":"浦东国际科技合作孵化基地","lon":"121.60693","lat":"31.19383","category":"45","category_name":"产业园区","address":"蔡伦路780"},{"poiid":"B2094757D164A0FD499F","title":"有间牛排","lon":"121.61248779","lat":"31.198751449","category":"247","category_name":"餐饮美食","address":"上海张江镇建中路290号(近高斯里路)"},{"poiid":"B2094757D46EA2FD4099","title":"东池便当 张江店","lon":"121.613622","lat":"31.199925","category":"68","category_name":"快餐厅","address":"浦东新区张江镇高斯路1128号(近好德便利店)"},{"poiid":"B2094757D06FA6FE489A","title":"浦东张江高科软件园","lon":"121.6044558","lat":"31.1999323","category":"500","category_name":"未知分类","address":"上海博霞路11号"},{"poiid":"B2094757D069A4F4489E","title":"台北有间牛排馆","lon":"121.61252","lat":"31.20133","category":"91","category_name":"台湾菜","address":"浦东新区张江镇建中路290号(近高斯路)"},{"poiid":"B2094757D06FA3F9469D","title":"星巴克(蔡伦路店)","lon":"121.606942","lat":"31.193842","category":"260","category_name":"其他","address":"浦东新区蔡伦路780号1楼"},{"poiid":"B2094757D068A2FD449D","title":"张江药谷","lon":"121.606046","lat":"31.193313","category":"500","category_name":"未知分类","address":"上海蔡伦路哈雷路"},{"poiid":"B2094757D068A0F94098","title":"紫薇公园","lon":"121.61446866","lat":"31.200783664","category":"196","category_name":"公园","address":"浦东新区紫薇路60号(近古桐南路)"},{"poiid":"B2094757D068A0FE479D","title":"霍尼韦尔(中国)有限公司","lon":"121.61346859","lat":"31.1958801994","category":"263","category_name":"公司","address":"上海市浦东新区张江高科技园区李冰路430号"},{"poiid":"B2094654DA6AA6F84698","title":"张江润和国际总部园","lon":"121.60652","lat":"31.19021","category":"45","category_name":"产业园区","address":"杨浦区大学路33号"},{"poiid":"B2094757D06AA2F4439B","title":"上海市计量测试技术研究院","lon":"121.606126","lat":"31.190951","category":"500","category_name":"未知分类","address":"上海张衡路1500号"},{"poiid":"B2094757D06FA1FB4098","title":"COSTA COFFEE(张江店)","lon":"121.6057431","lat":"31.2029256","category":"65","category_name":"咖啡厅","address":"浦东新区博云路2号浦软大厦1楼104区"},{"poiid":"B2094757DB68A4F8479A","title":"川香1号","lon":"121.61487579346","lat":"31.199899374106","category":"71","category_name":"四川菜","address":"浦东新区高斯路1112-1116号(近紫薇路)"},{"poiid":"B2094757D16CA1FF4199","title":"汉庭快捷酒店(蔡伦路店)","lon":"121.6165","lat":"31.19327","category":"217","category_name":"旅馆招待所","address":"浦东新区蔡伦路333号(近伽利略路)"},{"poiid":"B2094757D068ABFC4793","title":"桃花源酒家 张江店","lon":"121.61640151289748","lat":"31.19982168307144","category":"77","category_name":"湖南菜","address":"浦东新区高斯路1252号(近紫薇路)"},{"poiid":"B2094655D36CA6FD499A","title":"高斯路建中路","lon":"121.61114","lat":"31.2016","category":"38","category_name":"公交车站","address":""},{"poiid":"B2094757D064A7FE4799","title":"Honeywell 霍尼韦尔(中国)","lon":"121.614191","lat":"31.196908","category":"46","category_name":"楼宇","address":"上海李冰路430号"},{"poiid":"B2094757D16CA2FA4192","title":"惠生科技园","lon":"121.609063","lat":"31.191914","category":"46","category_name":"楼宇","address":"上海浦东张江张衡路1399号惠生科技园"},{"poiid":"B2094757D16CA2F8439F","title":"杜邦(中国)研发中心","lon":"121.60900697","lat":"31.194236219","category":"46","category_name":"楼宇","address":"上海市浦东新区张江高科技园区蔡伦路600号"},{"poiid":"B2094655D36CA1FB4992","title":"李冰路爱迪生路","lon":"121.60796","lat":"31.19583","category":"38","category_name":"公交车站","address":""},{"poiid":"B2094757D06AA5F94693","title":"帝斯曼中国园区","lon":"121.60405731","lat":"31.194208145","category":"500","category_name":"未知分类","address":"上海李冰路476号"},{"poiid":"B2094655D36CA6FD489B","title":"哥白尼路李冰路","lon":"121.61221","lat":"31.19688","category":"38","category_name":"公交车站","address":""},{"poiid":"B2094757D065A7F4459E","title":"湘音土菜馆","lon":"121.612984049","lat":"31.1993806399","category":"77","category_name":"湖南菜","address":"浦东新区紫薇路8号(近高斯路)"},{"poiid":"B2094757DB6EA5F8409D","title":"风波庄","lon":"121.6108208680295","lat":"31.20195413547734","category":"247","category_name":"餐饮美食","address":"浦东新区高斯路1268号(近古桐南路)"},{"poiid":"B2094654DB64A5FD4492","title":"如家快捷酒店(上海张江和美店)","lon":"121.60661","lat":"31.19363","category":"216","category_name":"经济型连锁酒店","address":"浦东新区蔡伦路782号(哈雷路蔡伦路)"},{"poiid":"B2094757D069A3F4469A","title":"IRIS甜品店","lon":"121.6029567","lat":"31.200627598","category":"67","category_name":"甜品店","address":"浦东新区博霞路21号罗森便利后侧(近盛大文学)"},{"poiid":"B2094757D06AA6F5489B","title":"The Corner","lon":"121.61320641","lat":"31.199833896","category":"500","category_name":"未知分类","address":"上海高斯路1070号(紫薇路口)"},{"poiid":"B2094757D16DA1FB4398","title":"满香饺子","lon":"121.613726054","lat":"31.200214793","category":"68","category_name":"快餐厅","address":"浦东新区高斯路1060号(紫薇路口)"},{"poiid":"B2094654DA6AA6FE4499","title":"张江药谷大厦","lon":"121.60694","lat":"31.19384","category":"46","category_name":"楼宇","address":"蔡伦路780"},{"poiid":"B2094757D068A1F4429B","title":"张衡路1000弄","lon":"121.606522","lat":"31.190217","category":"500","category_name":"未知分类","address":"上海润和国际总部园"},{"poiid":"B2094757D06BABF5429A","title":"药谷健身中心","lon":"121.60451","lat":"31.19639","category":"221","category_name":"健身中心","address":"浦东新区哈雷路899号(近李冰路)"},{"poiid":"B2094757D16DA2FA4898","title":"张江半岛酒楼","lon":"121.61651","lat":"31.19404","category":"72","category_name":"广东菜","address":"浦东新区蔡伦路333号(近伽利略路)"},{"poiid":"B2094750D768A4FC4993","title":"老北京羊蝎子涮锅","lon":"121.612","lat":"31.2016","category":"86","category_name":"火锅店","address":"浦东新区建中路286号"},{"poiid":"B2094757D06FA7FC4293","title":"国家电网上海市电力公司浦东供电公司张江基地","lon":"121.61714172","lat":"31.196594238","category":"46","category_name":"楼宇","address":"上海李冰路251号"},{"poiid":"B2094757D06BA7FE449A","title":"葛兰素史克研发中心","lon":"121.604609069","lat":"31.1960911943","category":"46","category_name":"楼宇","address":"上海哈雷路917弄"},{"poiid":"B2094751D56EA5FA4593","title":"牧羊传奇火锅店","lon":"121.613295","lat":"31.199798","category":"247","category_name":"餐饮美食","address":"紫薇路17号"},{"poiid":"B2094750D76FA2FA479F","title":"潘朵拉城市行动咖啡店(张江二店)","lon":"121.607","lat":"31.2007","category":"113","category_name":"冷饮店","address":"浦东新区亮秀路112号Y2-106室(近晨辉路)"},{"poiid":"B2094757D164A1FE4193","title":"新招鲜","lon":"121.611023875","lat":"31.1988885277","category":"86","category_name":"火锅店","address":"浦东新区紫薇路16号(近高斯路)"},{"poiid":"B2094750DA6FA2F44099","title":"SLATE岩石","lon":"121.602778","lat":"31.201933","category":"94","category_name":"西餐厅","address":"浦东新区博霞路22号软件园三期1楼"},{"poiid":"B2094750D76FA4F5439F","title":"李记农家菜","lon":"121.613","lat":"31.1992","category":"77","category_name":"湖南菜","address":"浦东新区张江镇紫薇路216-218号(近张江路)"},{"poiid":"B2094757D169A2FB4099","title":"上海生物芯片SBC","lon":"121.608051725","lat":"31.1959953934","category":"500","category_name":"未知分类","address":"上海李冰路151号"},{"poiid":"B2094654DA6AA6FE409F","title":"张江药谷孵化基地","lon":"121.60812","lat":"31.19402","category":"45","category_name":"产业园区","address":"蔡伦路720弄1-7号"},{"poiid":"B2094655D36CA7FB4698","title":"哈雷路李冰路","lon":"121.60347","lat":"31.19772","category":"38","category_name":"公交车站","address":""},{"poiid":"B2094757D16AA4FE4799","title":"古桐五村","lon":"121.61243","lat":"31.199644","category":"252","category_name":"楼宇机构","address":"上海紫薇公园"},{"poiid":"B2094654DA6AA6F5469D","title":"张江新苑","lon":"121.61301","lat":"31.200815","category":"47","category_name":"住宅区","address":"紫薇路35弄"},{"poiid":"B2094655D26EA4FF409C","title":"Starbucks Coffee","lon":"121.60707","lat":"31.19382","category":"65","category_name":"咖啡厅","address":"浦东新区蔡伦路780号1楼"},{"poiid":"B2094654DA6AA6FE4099","title":"和记黄埔医药","lon":"121.607","lat":"31.19493","category":"162","category_name":"医院","address":""},{"poiid":"B2094654DA6AA5FC4492","title":"古桐四村","lon":"121.61433","lat":"31.199333","category":"47","category_name":"住宅区","address":"高斯路1122弄1-32号"},{"poiid":"B2094757D065A4F44992","title":"银联商务","lon":"121.60742","lat":"31.190872","category":"500","category_name":"未知分类","address":"上海张衡路哈雷路"},{"poiid":"B2094757D168A3FE419B","title":"张江有轨电车1路哥白尼路李冰路站","lon":"121.612388975","lat":"31.19588377","category":"500","category_name":"未知分类","address":"上海哥白尼路李冰路"},{"poiid":"B2094654DA6AA6FE449C","title":"浦东国际科技合作孵化基地","lon":"121.60693","lat":"31.19383","category":"45","category_name":"产业园区","address":"蔡伦路780"},{"poiid":"B2094757D164A0FD499F","title":"有间牛排","lon":"121.61248779","lat":"31.198751449","category":"247","category_name":"餐饮美食","address":"上海张江镇建中路290号(近高斯里路)"},{"poiid":"B2094757D46EA2FD4099","title":"东池便当 张江店","lon":"121.613622","lat":"31.199925","category":"68","category_name":"快餐厅","address":"浦东新区张江镇高斯路1128号(近好德便利店)"}]