[{"poiid":"B2094654DB68A2FA439C","title":"上海中华职业技术学院","lon":"121.50714","lat":"30.97792","category":"671","category_name":"高校中心点","address":"近郊大叶公路5225号(近浦星公路)"},{"poiid":"B2094757D06BA7FF4192","title":"铭园会所","lon":"121.47627839","lat":"30.970548097","category":"217","category_name":"旅馆招待所","address":"上海汇丰北路"},{"poiid":"B2094654DB64AAFB439F","title":"金汇中街小区","lon":"121.50148","lat":"30.98596","category":"47","category_name":"住宅区","address":"金汇镇"},{"poiid":"B2094655D265A5FB449A","title":"金碧汇虹苑","lon":"121.5097","lat":"30.97368","category":"47","category_name":"住宅区","address":"奉贤区金碧路1980弄"},{"poiid":"B2094655D36CA0FE4993","title":"金钱公路","lon":"121.50233","lat":"30.97769","category":"38","category_name":"公交车站","address":""},{"poiid":"B2094655D36CA0FF449F","title":"金汇加油站","lon":"121.5019","lat":"30.97767","category":"38","category_name":"公交车站","address":"上海市奉贤区金汇镇汇中路68号(近金钱公路)"},{"poiid":"B2094654DB64AAFB439C","title":"上海金汇剧院","lon":"121.50174","lat":"30.98806","category":"180","category_name":"剧场","address":""},{"poiid":"B2094655D36CA0FF4693","title":"金海公路","lon":"121.47837","lat":"30.97544","category":"38","category_name":"公交车站","address":""},{"poiid":"B2094655D26FA4F9419D","title":"上海中华学院(南门)","lon":"121.50634","lat":"30.97725","category":"52","category_name":"高等院校","address":""},{"poiid":"B2094757D164AAFD479B","title":"中国菇菌博物馆","lon":"121.47726564","lat":"30.973965073","category":"500","category_name":"未知分类","address":"近郊奉贤金海公路7299号"},{"poiid":"B2094655D26DA6FD489E","title":"金汇东街小区(金汇·东街)","lon":"121.50548","lat":"30.98745","category":"47","category_name":"住宅区","address":""},{"poiid":"B2094654DB69A7F84498","title":"金汇派出所","lon":"121.50329","lat":"30.97991","category":"609","category_name":"警察局","address":"奉贤区金闸公路111号"},{"poiid":"B2094655D26BA7F84599","title":"大山合集团","lon":"121.48051","lat":"30.97362","category":"263","category_name":"公司","address":"奉贤现代农业园区金海路7229号"},{"poiid":"B2094654DB65A2FD4693","title":"金汇学校","lon":"121.50328","lat":"30.98763","category":"56","category_name":"小学","address":"近郊奉贤区金汇镇中学路1号"},{"poiid":"B2094757D56EA6FE4398","title":"釜山料理(金汇店)","lon":"121.501253","lat":"30.989461","category":"247","category_name":"餐饮美食","address":"金汇路528号世贸虹桥购物中心1楼"},{"poiid":"B2094757D069A5FC479D","title":"上海市特种设备监督检验技术研究院港口起重机械型式试验中心","lon":"121.50108","lat":"30.988927","category":"52","category_name":"高等院校","address":"上海奉贤区金汇镇金碧路665号"},{"poiid":"B2094654DB64ABF54998","title":"上海农村商业商业银行金汇支行","lon":"121.49881","lat":"30.98837","category":"150","category_name":"银行","address":"金汇镇"},{"poiid":"B2094654DB6AA1FA499D","title":"奉贤区金汇中学","lon":"121.50442","lat":"30.98747","category":"55","category_name":"中学","address":"奉贤区金汇镇中学路1号"},{"poiid":"B2094655D26EA0FA499E","title":"上海农村商业商业银行金汇支行ATM取款机","lon":"121.49881","lat":"30.98837","category":"152","category_name":"ATM","address":""},{"poiid":"B2094757D56EA4F4419D","title":"奕婷(金汇店)","lon":"121.5011756","lat":"30.9883312","category":"249","category_name":"购物服务","address":"奉贤区金汇镇中街222号"},{"poiid":"B2094654DB69A6FC4299","title":"上海市泰日红十字护理院","lon":"121.50655","lat":"30.97011","category":"265","category_name":"知名企业","address":"奉贤区金汇镇齐金路99号"}]