[{"poiid":"B2094654DB69ABF9469D","title":"上海歌城(四川北路店)","lon":"121.48368","lat":"31.26186","category":"170","category_name":"KTV","address":"虹口区四川北路1885号多伦生活广场5楼(近多伦路)"},{"poiid":"B2094654D56CA7FA489F","title":"上海市第一人民医院分院","lon":"121.48416","lat":"31.2611","category":"162","category_name":"医院","address":"虹口区四川北路1878号2号楼7楼(近荣欣大酒店)"},{"poiid":"B2094757D06FA3F84392","title":"南华火锅(四川路店)","lon":"121.48408","lat":"31.26301","category":"86","category_name":"火锅店","address":"虹口区四川北路1975-1985号(长春路口)"},{"poiid":"B2094757D06FA5FF469A","title":"普乐迪量贩KTV","lon":"121.483738206","lat":"31.2622111583","category":"170","category_name":"KTV","address":"虹口区四川北路1915号时装大厦7楼(近多伦路)"},{"poiid":"B2094757D068A1F8499E","title":"独门冲炭火自助烤肉","lon":"121.4837534","lat":"31.26218585","category":"268","category_name":"自助","address":"虹口区四川北路1885号多伦生活广场B1楼"},{"poiid":"B2094757D06FA6F94392","title":"四新食苑","lon":"121.48449","lat":"31.26215","category":"68","category_name":"快餐厅","address":"虹口区四川北路1908号(近多伦路)"},{"poiid":"B2094654D56CA7FA459D","title":"四川北路营业厅","lon":"121.48413","lat":"31.26351","category":"151","category_name":"电讯营业厅","address":"虹口区四川北路1970号"},{"poiid":"B2094757D168A3FA449B","title":"避风塘","lon":"121.484212703","lat":"31.2602332094","category":"500","category_name":"未知分类","address":"上海市虹口区四川北路1885号"},{"poiid":"B2094757D068A3FA4398","title":"呷哺呷哺(虹口区多伦路店)","lon":"121.484077603","lat":"31.2612013296","category":"86","category_name":"火锅店","address":"虹口区四川北路1885号1楼101B室"},{"poiid":"B2094757D06FA0F94298","title":"望湘园(四川北路店)","lon":"121.48399","lat":"31.26204","category":"77","category_name":"湖南菜","address":"虹口区四川北路1941号金海岸大厦4楼(近多伦路)"},{"poiid":"B2094757D06FA5FF4893","title":"溧园咖啡","lon":"121.487339","lat":"31.262971","category":"260","category_name":"其他","address":"虹口区溧阳路1208弄5号老洋房花园内(四川北路四平路间)"},{"poiid":"B2094757D06FAAFE479D","title":"三商巧福(四川北路店)","lon":"121.48457","lat":"31.26162","category":"68","category_name":"快餐厅","address":"虹口区四川北路1840号(近海伦路)"},{"poiid":"B2094757D06FA4F84993","title":"振鼎鸡(溧阳路店)","lon":"121.48465","lat":"31.26335","category":"68","category_name":"快餐厅","address":"虹口区溧阳路1400号(近四川北路)"},{"poiid":"B2094654DB6AAAF9429A","title":"傣妹(四川路二店)","lon":"121.48404","lat":"31.26201","category":"87","category_name":"特色／地方风味餐厅","address":"虹口区四川北路1898号3楼(近多伦路)"},{"poiid":"B2094654DB65A5F9429C","title":"和中堂足道(多伦路文化名人街)","lon":"121.48358","lat":"31.26229","category":"149","category_name":"洗浴推拿场所","address":"虹口区多伦路8号4楼(近四川北路)"},{"poiid":"B2094757D06FA6F54193","title":"巴贝拉(四川北路店)","lon":"121.483688659","lat":"31.2617686525","category":"94","category_name":"西餐厅","address":"虹口区四川北路1885号多伦生活广场2楼(近多伦路)"},{"poiid":"B2094757D16AABFB449F","title":"溧阳路","lon":"121.486091","lat":"31.263604","category":"500","category_name":"未知分类","address":"上海溧阳路四川北路"},{"poiid":"B2094757D068AAF5469B","title":"美豪酒店多伦路店","lon":"121.4841961","lat":"31.262308252","category":"214","category_name":"四星级宾馆","address":"上海市虹口区四川北路1885号(近多伦路)"},{"poiid":"B2094654D56CA7FA4793","title":"维纳斯婚纱(四川北路)","lon":"121.48404","lat":"31.26183","category":"141","category_name":"服装鞋帽皮具店","address":"虹口区四川北路1888号(近多伦路)查看地图"},{"poiid":"B2094757D06AA0FB4992","title":"重庆鸡公煲 东泰广场店","lon":"121.483622054","lat":"31.263378793","category":"71","category_name":"四川菜","address":"虹口区四川北路2005号(东泰广场对面)"},{"poiid":"B2094757D06FABF8439F","title":"虹叶花苑","lon":"121.48671","lat":"31.261433","category":"47","category_name":"住宅区","address":"上海虹口区长春路158号"},{"poiid":"B2094750D76EA3FE489F","title":"富源春鸡汤面(四川北路店)","lon":"121.484","lat":"31.2622","category":"68","category_name":"快餐厅","address":"虹口区四川北路1906弄100号(近多伦路)"},{"poiid":"B2094654D56CA7FA499B","title":"上海市虹口区教育学院实验中学","lon":"121.48423","lat":"31.26054","category":"55","category_name":"中学","address":"虹口区四川北路1838号(近海伦路)"},{"poiid":"B2094757D06AA3F4459F","title":"多伦路粥摊","lon":"121.48199","lat":"31.2648","category":"68","category_name":"快餐厅","address":"虹口区多伦路250号对面(东江湾路口)"},{"poiid":"B2094750D269A1FC4493","title":"荣欣大酒店","lon":"121.483675","lat":"31.261341","category":"76","category_name":"上海菜","address":"虹口区四川北路1851号5楼(近多伦路)"},{"poiid":"B2094654DB6AA6FF449D","title":"上海虹叶酒店","lon":"121.48644","lat":"31.26183","category":"215","category_name":"三星级宾馆","address":"上海虹口区长春路158号(近溧阳路)"},{"poiid":"B2094757D469A5FF4699","title":"煲煲赞广东煲仔饭","lon":"121.486095","lat":"31.260743","category":"72","category_name":"广东菜","address":"虹口区长春路152号(近四川北路)"},{"poiid":"B2094750D768ABFE4999","title":"巴黎贝甜(四川北路店)","lon":"121.484","lat":"31.2619","category":"68","category_name":"快餐厅","address":"虹口区四川北路1885号多伦生活广场内(近多伦路)"},{"poiid":"B2094757D069ABF54899","title":"Barba-baba台球馆","lon":"121.483850786","lat":"31.2615875487","category":"171","category_name":"台球厅","address":"上海多伦路"},{"poiid":"B2094757D66FA2FC4099","title":"鱼林港","lon":"121.484525103","lat":"31.2620422471","category":"500","category_name":"未知分类","address":"上海四川北路东泰休闲广场"},{"poiid":"B2094750D565A4FC469B","title":"丰庭私房菜","lon":"121.484443","lat":"31.263837","category":"76","category_name":"上海菜","address":"虹口区四川北路2002弄12号东泰休闲广场3楼(近鲁迅公园)"},{"poiid":"B2094757D068A4FB459D","title":"莉莲蛋挞(四川北路店)","lon":"121.48418","lat":"31.2606","category":"67","category_name":"甜品店","address":"虹口区四川北路1846号(近海伦路)"},{"poiid":"B2094757D068A6F4479E","title":"招商银行(川北支行)","lon":"121.48377719","lat":"31.261439893","category":"150","category_name":"银行","address":"上海虹口区四川北路1689号"},{"poiid":"B2094757D46EA2FC489F","title":"85度C 四川北路店","lon":"121.484003054","lat":"31.263574793","category":"112","category_name":"糕饼店","address":"虹口区四川北路1861号荣欣大厦31室(近多伦路)"},{"poiid":"B2094757D06FABFE459F","title":"fox桌球俱乐部","lon":"121.48362973","lat":"31.262007139","category":"171","category_name":"台球厅","address":"上海四川北路1885号"},{"poiid":"B2094757D068A7FB4999","title":"面大王","lon":"121.48809","lat":"31.26132","category":"68","category_name":"快餐厅","address":"虹口区溧阳路1114弄4号(近四平路)"},{"poiid":"B2094654D56CA7F4429D","title":"米果乐园","lon":"121.48368","lat":"31.26186","category":"173","category_name":"游戏厅","address":"虹口区四川北路1885号多伦生活广场4楼(近多伦路)"},{"poiid":"B2094654D56EA2F8429E","title":"宝山路499弄小区","lon":"121.48427916226","lat":"31.263691881371","category":"47","category_name":"住宅区","address":"宝山路499弄"},{"poiid":"B2094750D665AAF84399","title":"上海歌城自助餐(四川北路店)","lon":"121.484","lat":"31.2619","category":"268","category_name":"自助","address":"虹口区四川北路1885号多伦生活广场内(近多伦路)"},{"poiid":"B2094757D464A7F5419D","title":"真老大房 四川北路店","lon":"121.483875054","lat":"31.263172793","category":"68","category_name":"快餐厅","address":"虹口区四川北路1979号新海食品商城内(近溧阳路)"},{"poiid":"B2094654DB6AAAF9449B","title":"上海时装商厦","lon":"121.48358","lat":"31.26229","category":"46","category_name":"楼宇","address":"虹口区四川北路1915号"},{"poiid":"B2094654D56CA7FA4598","title":"吉祥馄饨 海伦店 Gll Wonton","lon":"121.4837","lat":"31.25921","category":"68","category_name":"快餐厅","address":"虹口区海伦西路89号(近四川北路横浜桥)"},{"poiid":"B2094757D06FA4FA4193","title":"亥酉缘港式餐厅","lon":"121.48397","lat":"31.26231","category":"72","category_name":"广东菜","address":"虹口区四川北路1941号金海岸商厦3楼(近多伦路)"},{"poiid":"B2094750D568A1F94693","title":"吉祥馄饨(溧阳路店)","lon":"121.484","lat":"31.2636","category":"68","category_name":"快餐厅","address":"虹口区溧阳路1400号(近四川北路)"},{"poiid":"B2094757D06BA5FB479C","title":"21路四川北路横浜桥站","lon":"121.48387424","lat":"31.261336429","category":"38","category_name":"公交车站","address":"上海四川北路(近多伦路)"},{"poiid":"B2094757D16CA3FE4299","title":"四川北路街道办事处","lon":"121.485604","lat":"31.263318","category":"500","category_name":"未知分类","address":"上海溧阳路1338号"},{"poiid":"B2094757D068A0FE419E","title":"一品香辣蟹四川北路","lon":"121.4835741","lat":"31.26172424","category":"71","category_name":"四川菜","address":"虹口区四川北路1885号多伦生活广场3楼"},{"poiid":"B2094757D06EABF5439A","title":"爱舍空间(四川北路店)","lon":"121.483945","lat":"31.263237","category":"217","category_name":"旅馆招待所","address":"上海虹口区四川北路1969号"},{"poiid":"B2094757D16FA1FD479C","title":"御品坊宫廷桃酥 四川北路店","lon":"121.483055","lat":"31.259574","category":"68","category_name":"快餐厅","address":"虹口区四川北路1834号(近海伦路)"},{"poiid":"B2094757D569A3FD499B","title":"小胖子烧烤摊","lon":"121.4877469","lat":"31.26159194","category":"87","category_name":"特色／地方风味餐厅","address":"虹口区溧阳路1114号麦当劳门口(近四平路)"},{"poiid":"B2094654DB69ABF9469D","title":"上海歌城(四川北路店)","lon":"121.48368","lat":"31.26186","category":"170","category_name":"KTV","address":"虹口区四川北路1885号多伦生活广场5楼(近多伦路)"},{"poiid":"B2094654D56CA7FA489F","title":"上海市第一人民医院分院","lon":"121.48416","lat":"31.2611","category":"162","category_name":"医院","address":"虹口区四川北路1878号2号楼7楼(近荣欣大酒店)"},{"poiid":"B2094757D06FA3F84392","title":"南华火锅(四川路店)","lon":"121.48408","lat":"31.26301","category":"86","category_name":"火锅店","address":"虹口区四川北路1975-1985号(长春路口)"},{"poiid":"B2094757D06FA5FF469A","title":"普乐迪量贩KTV","lon":"121.483738206","lat":"31.2622111583","category":"170","category_name":"KTV","address":"虹口区四川北路1915号时装大厦7楼(近多伦路)"},{"poiid":"B2094757D068A1F8499E","title":"独门冲炭火自助烤肉","lon":"121.4837534","lat":"31.26218585","category":"268","category_name":"自助","address":"虹口区四川北路1885号多伦生活广场B1楼"},{"poiid":"B2094757D06FA6F94392","title":"四新食苑","lon":"121.48449","lat":"31.26215","category":"68","category_name":"快餐厅","address":"虹口区四川北路1908号(近多伦路)"},{"poiid":"B2094654D56CA7FA459D","title":"四川北路营业厅","lon":"121.48413","lat":"31.26351","category":"151","category_name":"电讯营业厅","address":"虹口区四川北路1970号"},{"poiid":"B2094757D168A3FA449B","title":"避风塘","lon":"121.484212703","lat":"31.2602332094","category":"500","category_name":"未知分类","address":"上海市虹口区四川北路1885号"},{"poiid":"B2094757D068A3FA4398","title":"呷哺呷哺(虹口区多伦路店)","lon":"121.484077603","lat":"31.2612013296","category":"86","category_name":"火锅店","address":"虹口区四川北路1885号1楼101B室"},{"poiid":"B2094757D06FA0F94298","title":"望湘园(四川北路店)","lon":"121.48399","lat":"31.26204","category":"77","category_name":"湖南菜","address":"虹口区四川北路1941号金海岸大厦4楼(近多伦路)"},{"poiid":"B2094757D06FA5FF4893","title":"溧园咖啡","lon":"121.487339","lat":"31.262971","category":"260","category_name":"其他","address":"虹口区溧阳路1208弄5号老洋房花园内(四川北路四平路间)"},{"poiid":"B2094757D06FAAFE479D","title":"三商巧福(四川北路店)","lon":"121.48457","lat":"31.26162","category":"68","category_name":"快餐厅","address":"虹口区四川北路1840号(近海伦路)"},{"poiid":"B2094757D06FA4F84993","title":"振鼎鸡(溧阳路店)","lon":"121.48465","lat":"31.26335","category":"68","category_name":"快餐厅","address":"虹口区溧阳路1400号(近四川北路)"},{"poiid":"B2094654DB6AAAF9429A","title":"傣妹(四川路二店)","lon":"121.48404","lat":"31.26201","category":"87","category_name":"特色／地方风味餐厅","address":"虹口区四川北路1898号3楼(近多伦路)"},{"poiid":"B2094654DB65A5F9429C","title":"和中堂足道(多伦路文化名人街)","lon":"121.48358","lat":"31.26229","category":"149","category_name":"洗浴推拿场所","address":"虹口区多伦路8号4楼(近四川北路)"},{"poiid":"B2094757D06FA6F54193","title":"巴贝拉(四川北路店)","lon":"121.483688659","lat":"31.2617686525","category":"94","category_name":"西餐厅","address":"虹口区四川北路1885号多伦生活广场2楼(近多伦路)"},{"poiid":"B2094757D16AABFB449F","title":"溧阳路","lon":"121.486091","lat":"31.263604","category":"500","category_name":"未知分类","address":"上海溧阳路四川北路"},{"poiid":"B2094757D068AAF5469B","title":"美豪酒店多伦路店","lon":"121.4841961","lat":"31.262308252","category":"214","category_name":"四星级宾馆","address":"上海市虹口区四川北路1885号(近多伦路)"},{"poiid":"B2094654D56CA7FA4793","title":"维纳斯婚纱(四川北路)","lon":"121.48404","lat":"31.26183","category":"141","category_name":"服装鞋帽皮具店","address":"虹口区四川北路1888号(近多伦路)查看地图"},{"poiid":"B2094757D06AA0FB4992","title":"重庆鸡公煲 东泰广场店","lon":"121.483622054","lat":"31.263378793","category":"71","category_name":"四川菜","address":"虹口区四川北路2005号(东泰广场对面)"},{"poiid":"B2094757D06FABF8439F","title":"虹叶花苑","lon":"121.48671","lat":"31.261433","category":"47","category_name":"住宅区","address":"上海虹口区长春路158号"},{"poiid":"B2094750D76EA3FE489F","title":"富源春鸡汤面(四川北路店)","lon":"121.484","lat":"31.2622","category":"68","category_name":"快餐厅","address":"虹口区四川北路1906弄100号(近多伦路)"},{"poiid":"B2094654D56CA7FA499B","title":"上海市虹口区教育学院实验中学","lon":"121.48423","lat":"31.26054","category":"55","category_name":"中学","address":"虹口区四川北路1838号(近海伦路)"},{"poiid":"B2094757D06AA3F4459F","title":"多伦路粥摊","lon":"121.48199","lat":"31.2648","category":"68","category_name":"快餐厅","address":"虹口区多伦路250号对面(东江湾路口)"},{"poiid":"B2094750D269A1FC4493","title":"荣欣大酒店","lon":"121.483675","lat":"31.261341","category":"76","category_name":"上海菜","address":"虹口区四川北路1851号5楼(近多伦路)"},{"poiid":"B2094654DB6AA6FF449D","title":"上海虹叶酒店","lon":"121.48644","lat":"31.26183","category":"215","category_name":"三星级宾馆","address":"上海虹口区长春路158号(近溧阳路)"},{"poiid":"B2094757D469A5FF4699","title":"煲煲赞广东煲仔饭","lon":"121.486095","lat":"31.260743","category":"72","category_name":"广东菜","address":"虹口区长春路152号(近四川北路)"},{"poiid":"B2094750D768ABFE4999","title":"巴黎贝甜(四川北路店)","lon":"121.484","lat":"31.2619","category":"68","category_name":"快餐厅","address":"虹口区四川北路1885号多伦生活广场内(近多伦路)"},{"poiid":"B2094757D069ABF54899","title":"Barba-baba台球馆","lon":"121.483850786","lat":"31.2615875487","category":"171","category_name":"台球厅","address":"上海多伦路"},{"poiid":"B2094757D66FA2FC4099","title":"鱼林港","lon":"121.484525103","lat":"31.2620422471","category":"500","category_name":"未知分类","address":"上海四川北路东泰休闲广场"},{"poiid":"B2094750D565A4FC469B","title":"丰庭私房菜","lon":"121.484443","lat":"31.263837","category":"76","category_name":"上海菜","address":"虹口区四川北路2002弄12号东泰休闲广场3楼(近鲁迅公园)"},{"poiid":"B2094757D068A4FB459D","title":"莉莲蛋挞(四川北路店)","lon":"121.48418","lat":"31.2606","category":"67","category_name":"甜品店","address":"虹口区四川北路1846号(近海伦路)"},{"poiid":"B2094757D068A6F4479E","title":"招商银行(川北支行)","lon":"121.48377719","lat":"31.261439893","category":"150","category_name":"银行","address":"上海虹口区四川北路1689号"},{"poiid":"B2094757D46EA2FC489F","title":"85度C 四川北路店","lon":"121.484003054","lat":"31.263574793","category":"112","category_name":"糕饼店","address":"虹口区四川北路1861号荣欣大厦31室(近多伦路)"},{"poiid":"B2094757D06FABFE459F","title":"fox桌球俱乐部","lon":"121.48362973","lat":"31.262007139","category":"171","category_name":"台球厅","address":"上海四川北路1885号"},{"poiid":"B2094757D068A7FB4999","title":"面大王","lon":"121.48809","lat":"31.26132","category":"68","category_name":"快餐厅","address":"虹口区溧阳路1114弄4号(近四平路)"},{"poiid":"B2094654D56CA7F4429D","title":"米果乐园","lon":"121.48368","lat":"31.26186","category":"173","category_name":"游戏厅","address":"虹口区四川北路1885号多伦生活广场4楼(近多伦路)"},{"poiid":"B2094654D56EA2F8429E","title":"宝山路499弄小区","lon":"121.48427916226","lat":"31.263691881371","category":"47","category_name":"住宅区","address":"宝山路499弄"},{"poiid":"B2094750D665AAF84399","title":"上海歌城自助餐(四川北路店)","lon":"121.484","lat":"31.2619","category":"268","category_name":"自助","address":"虹口区四川北路1885号多伦生活广场内(近多伦路)"},{"poiid":"B2094757D464A7F5419D","title":"真老大房 四川北路店","lon":"121.483875054","lat":"31.263172793","category":"68","category_name":"快餐厅","address":"虹口区四川北路1979号新海食品商城内(近溧阳路)"},{"poiid":"B2094654DB6AAAF9449B","title":"上海时装商厦","lon":"121.48358","lat":"31.26229","category":"46","category_name":"楼宇","address":"虹口区四川北路1915号"},{"poiid":"B2094654D56CA7FA4598","title":"吉祥馄饨 海伦店 Gll Wonton","lon":"121.4837","lat":"31.25921","category":"68","category_name":"快餐厅","address":"虹口区海伦西路89号(近四川北路横浜桥)"},{"poiid":"B2094757D06FA4FA4193","title":"亥酉缘港式餐厅","lon":"121.48397","lat":"31.26231","category":"72","category_name":"广东菜","address":"虹口区四川北路1941号金海岸商厦3楼(近多伦路)"},{"poiid":"B2094750D568A1F94693","title":"吉祥馄饨(溧阳路店)","lon":"121.484","lat":"31.2636","category":"68","category_name":"快餐厅","address":"虹口区溧阳路1400号(近四川北路)"},{"poiid":"B2094757D06BA5FB479C","title":"21路四川北路横浜桥站","lon":"121.48387424","lat":"31.261336429","category":"38","category_name":"公交车站","address":"上海四川北路(近多伦路)"},{"poiid":"B2094757D16CA3FE4299","title":"四川北路街道办事处","lon":"121.485604","lat":"31.263318","category":"500","category_name":"未知分类","address":"上海溧阳路1338号"},{"poiid":"B2094757D068A0FE419E","title":"一品香辣蟹四川北路","lon":"121.4835741","lat":"31.26172424","category":"71","category_name":"四川菜","address":"虹口区四川北路1885号多伦生活广场3楼"},{"poiid":"B2094757D06EABF5439A","title":"爱舍空间(四川北路店)","lon":"121.483945","lat":"31.263237","category":"217","category_name":"旅馆招待所","address":"上海虹口区四川北路1969号"},{"poiid":"B2094757D16FA1FD479C","title":"御品坊宫廷桃酥 四川北路店","lon":"121.483055","lat":"31.259574","category":"68","category_name":"快餐厅","address":"虹口区四川北路1834号(近海伦路)"},{"poiid":"B2094757D569A3FD499B","title":"小胖子烧烤摊","lon":"121.4877469","lat":"31.26159194","category":"87","category_name":"特色／地方风味餐厅","address":"虹口区溧阳路1114号麦当劳门口(近四平路)"},{"poiid":"B2094654DB69ABF9469D","title":"上海歌城(四川北路店)","lon":"121.48368","lat":"31.26186","category":"170","category_name":"KTV","address":"虹口区四川北路1885号多伦生活广场5楼(近多伦路)"},{"poiid":"B2094654D56CA7FA489F","title":"上海市第一人民医院分院","lon":"121.48416","lat":"31.2611","category":"162","category_name":"医院","address":"虹口区四川北路1878号2号楼7楼(近荣欣大酒店)"},{"poiid":"B2094757D06FA3F84392","title":"南华火锅(四川路店)","lon":"121.48408","lat":"31.26301","category":"86","category_name":"火锅店","address":"虹口区四川北路1975-1985号(长春路口)"},{"poiid":"B2094757D06FA5FF469A","title":"普乐迪量贩KTV","lon":"121.483738206","lat":"31.2622111583","category":"170","category_name":"KTV","address":"虹口区四川北路1915号时装大厦7楼(近多伦路)"},{"poiid":"B2094757D068A1F8499E","title":"独门冲炭火自助烤肉","lon":"121.4837534","lat":"31.26218585","category":"268","category_name":"自助","address":"虹口区四川北路1885号多伦生活广场B1楼"},{"poiid":"B2094757D06FA6F94392","title":"四新食苑","lon":"121.48449","lat":"31.26215","category":"68","category_name":"快餐厅","address":"虹口区四川北路1908号(近多伦路)"},{"poiid":"B2094654D56CA7FA459D","title":"四川北路营业厅","lon":"121.48413","lat":"31.26351","category":"151","category_name":"电讯营业厅","address":"虹口区四川北路1970号"},{"poiid":"B2094757D168A3FA449B","title":"避风塘","lon":"121.484212703","lat":"31.2602332094","category":"500","category_name":"未知分类","address":"上海市虹口区四川北路1885号"},{"poiid":"B2094757D068A3FA4398","title":"呷哺呷哺(虹口区多伦路店)","lon":"121.484077603","lat":"31.2612013296","category":"86","category_name":"火锅店","address":"虹口区四川北路1885号1楼101B室"},{"poiid":"B2094757D06FA0F94298","title":"望湘园(四川北路店)","lon":"121.48399","lat":"31.26204","category":"77","category_name":"湖南菜","address":"虹口区四川北路1941号金海岸大厦4楼(近多伦路)"},{"poiid":"B2094757D06FA5FF4893","title":"溧园咖啡","lon":"121.487339","lat":"31.262971","category":"260","category_name":"其他","address":"虹口区溧阳路1208弄5号老洋房花园内(四川北路四平路间)"},{"poiid":"B2094757D06FAAFE479D","title":"三商巧福(四川北路店)","lon":"121.48457","lat":"31.26162","category":"68","category_name":"快餐厅","address":"虹口区四川北路1840号(近海伦路)"},{"poiid":"B2094757D06FA4F84993","title":"振鼎鸡(溧阳路店)","lon":"121.48465","lat":"31.26335","category":"68","category_name":"快餐厅","address":"虹口区溧阳路1400号(近四川北路)"},{"poiid":"B2094654DB6AAAF9429A","title":"傣妹(四川路二店)","lon":"121.48404","lat":"31.26201","category":"87","category_name":"特色／地方风味餐厅","address":"虹口区四川北路1898号3楼(近多伦路)"},{"poiid":"B2094654DB65A5F9429C","title":"和中堂足道(多伦路文化名人街)","lon":"121.48358","lat":"31.26229","category":"149","category_name":"洗浴推拿场所","address":"虹口区多伦路8号4楼(近四川北路)"},{"poiid":"B2094757D06FA6F54193","title":"巴贝拉(四川北路店)","lon":"121.483688659","lat":"31.2617686525","category":"94","category_name":"西餐厅","address":"虹口区四川北路1885号多伦生活广场2楼(近多伦路)"},{"poiid":"B2094757D16AABFB449F","title":"溧阳路","lon":"121.486091","lat":"31.263604","category":"500","category_name":"未知分类","address":"上海溧阳路四川北路"},{"poiid":"B2094757D068AAF5469B","title":"美豪酒店多伦路店","lon":"121.4841961","lat":"31.262308252","category":"214","category_name":"四星级宾馆","address":"上海市虹口区四川北路1885号(近多伦路)"},{"poiid":"B2094654D56CA7FA4793","title":"维纳斯婚纱(四川北路)","lon":"121.48404","lat":"31.26183","category":"141","category_name":"服装鞋帽皮具店","address":"虹口区四川北路1888号(近多伦路)查看地图"},{"poiid":"B2094757D06AA0FB4992","title":"重庆鸡公煲 东泰广场店","lon":"121.483622054","lat":"31.263378793","category":"71","category_name":"四川菜","address":"虹口区四川北路2005号(东泰广场对面)"},{"poiid":"B2094757D06FABF8439F","title":"虹叶花苑","lon":"121.48671","lat":"31.261433","category":"47","category_name":"住宅区","address":"上海虹口区长春路158号"},{"poiid":"B2094750D76EA3FE489F","title":"富源春鸡汤面(四川北路店)","lon":"121.484","lat":"31.2622","category":"68","category_name":"快餐厅","address":"虹口区四川北路1906弄100号(近多伦路)"},{"poiid":"B2094654D56CA7FA499B","title":"上海市虹口区教育学院实验中学","lon":"121.48423","lat":"31.26054","category":"55","category_name":"中学","address":"虹口区四川北路1838号(近海伦路)"},{"poiid":"B2094757D06AA3F4459F","title":"多伦路粥摊","lon":"121.48199","lat":"31.2648","category":"68","category_name":"快餐厅","address":"虹口区多伦路250号对面(东江湾路口)"},{"poiid":"B2094750D269A1FC4493","title":"荣欣大酒店","lon":"121.483675","lat":"31.261341","category":"76","category_name":"上海菜","address":"虹口区四川北路1851号5楼(近多伦路)"},{"poiid":"B2094654DB6AA6FF449D","title":"上海虹叶酒店","lon":"121.48644","lat":"31.26183","category":"215","category_name":"三星级宾馆","address":"上海虹口区长春路158号(近溧阳路)"},{"poiid":"B2094757D469A5FF4699","title":"煲煲赞广东煲仔饭","lon":"121.486095","lat":"31.260743","category":"72","category_name":"广东菜","address":"虹口区长春路152号(近四川北路)"},{"poiid":"B2094750D768ABFE4999","title":"巴黎贝甜(四川北路店)","lon":"121.484","lat":"31.2619","category":"68","category_name":"快餐厅","address":"虹口区四川北路1885号多伦生活广场内(近多伦路)"},{"poiid":"B2094757D069ABF54899","title":"Barba-baba台球馆","lon":"121.483850786","lat":"31.2615875487","category":"171","category_name":"台球厅","address":"上海多伦路"},{"poiid":"B2094757D66FA2FC4099","title":"鱼林港","lon":"121.484525103","lat":"31.2620422471","category":"500","category_name":"未知分类","address":"上海四川北路东泰休闲广场"},{"poiid":"B2094750D565A4FC469B","title":"丰庭私房菜","lon":"121.484443","lat":"31.263837","category":"76","category_name":"上海菜","address":"虹口区四川北路2002弄12号东泰休闲广场3楼(近鲁迅公园)"},{"poiid":"B2094757D068A4FB459D","title":"莉莲蛋挞(四川北路店)","lon":"121.48418","lat":"31.2606","category":"67","category_name":"甜品店","address":"虹口区四川北路1846号(近海伦路)"},{"poiid":"B2094757D068A6F4479E","title":"招商银行(川北支行)","lon":"121.48377719","lat":"31.261439893","category":"150","category_name":"银行","address":"上海虹口区四川北路1689号"},{"poiid":"B2094757D46EA2FC489F","title":"85度C 四川北路店","lon":"121.484003054","lat":"31.263574793","category":"112","category_name":"糕饼店","address":"虹口区四川北路1861号荣欣大厦31室(近多伦路)"},{"poiid":"B2094757D06FABFE459F","title":"fox桌球俱乐部","lon":"121.48362973","lat":"31.262007139","category":"171","category_name":"台球厅","address":"上海四川北路1885号"},{"poiid":"B2094757D068A7FB4999","title":"面大王","lon":"121.48809","lat":"31.26132","category":"68","category_name":"快餐厅","address":"虹口区溧阳路1114弄4号(近四平路)"},{"poiid":"B2094654D56CA7F4429D","title":"米果乐园","lon":"121.48368","lat":"31.26186","category":"173","category_name":"游戏厅","address":"虹口区四川北路1885号多伦生活广场4楼(近多伦路)"},{"poiid":"B2094654D56EA2F8429E","title":"宝山路499弄小区","lon":"121.48427916226","lat":"31.263691881371","category":"47","category_name":"住宅区","address":"宝山路499弄"},{"poiid":"B2094750D665AAF84399","title":"上海歌城自助餐(四川北路店)","lon":"121.484","lat":"31.2619","category":"268","category_name":"自助","address":"虹口区四川北路1885号多伦生活广场内(近多伦路)"},{"poiid":"B2094757D464A7F5419D","title":"真老大房 四川北路店","lon":"121.483875054","lat":"31.263172793","category":"68","category_name":"快餐厅","address":"虹口区四川北路1979号新海食品商城内(近溧阳路)"},{"poiid":"B2094654DB6AAAF9449B","title":"上海时装商厦","lon":"121.48358","lat":"31.26229","category":"46","category_name":"楼宇","address":"虹口区四川北路1915号"},{"poiid":"B2094654D56CA7FA4598","title":"吉祥馄饨 海伦店 Gll Wonton","lon":"121.4837","lat":"31.25921","category":"68","category_name":"快餐厅","address":"虹口区海伦西路89号(近四川北路横浜桥)"},{"poiid":"B2094757D06FA4FA4193","title":"亥酉缘港式餐厅","lon":"121.48397","lat":"31.26231","category":"72","category_name":"广东菜","address":"虹口区四川北路1941号金海岸商厦3楼(近多伦路)"},{"poiid":"B2094750D568A1F94693","title":"吉祥馄饨(溧阳路店)","lon":"121.484","lat":"31.2636","category":"68","category_name":"快餐厅","address":"虹口区溧阳路1400号(近四川北路)"},{"poiid":"B2094757D06BA5FB479C","title":"21路四川北路横浜桥站","lon":"121.48387424","lat":"31.261336429","category":"38","category_name":"公交车站","address":"上海四川北路(近多伦路)"},{"poiid":"B2094757D16CA3FE4299","title":"四川北路街道办事处","lon":"121.485604","lat":"31.263318","category":"500","category_name":"未知分类","address":"上海溧阳路1338号"},{"poiid":"B2094757D068A0FE419E","title":"一品香辣蟹四川北路","lon":"121.4835741","lat":"31.26172424","category":"71","category_name":"四川菜","address":"虹口区四川北路1885号多伦生活广场3楼"},{"poiid":"B2094757D06EABF5439A","title":"爱舍空间(四川北路店)","lon":"121.483945","lat":"31.263237","category":"217","category_name":"旅馆招待所","address":"上海虹口区四川北路1969号"},{"poiid":"B2094757D16FA1FD479C","title":"御品坊宫廷桃酥 四川北路店","lon":"121.483055","lat":"31.259574","category":"68","category_name":"快餐厅","address":"虹口区四川北路1834号(近海伦路)"},{"poiid":"B2094757D569A3FD499B","title":"小胖子烧烤摊","lon":"121.4877469","lat":"31.26159194","category":"87","category_name":"特色／地方风味餐厅","address":"虹口区溧阳路1114号麦当劳门口(近四平路)"},{"poiid":"B2094654DB69ABF9469D","title":"上海歌城(四川北路店)","lon":"121.48368","lat":"31.26186","category":"170","category_name":"KTV","address":"虹口区四川北路1885号多伦生活广场5楼(近多伦路)"},{"poiid":"B2094654D56CA7FA489F","title":"上海市第一人民医院分院","lon":"121.48416","lat":"31.2611","category":"162","category_name":"医院","address":"虹口区四川北路1878号2号楼7楼(近荣欣大酒店)"},{"poiid":"B2094757D06FA3F84392","title":"南华火锅(四川路店)","lon":"121.48408","lat":"31.26301","category":"86","category_name":"火锅店","address":"虹口区四川北路1975-1985号(长春路口)"},{"poiid":"B2094757D06FA5FF469A","title":"普乐迪量贩KTV","lon":"121.483738206","lat":"31.2622111583","category":"170","category_name":"KTV","address":"虹口区四川北路1915号时装大厦7楼(近多伦路)"},{"poiid":"B2094757D068A1F8499E","title":"独门冲炭火自助烤肉","lon":"121.4837534","lat":"31.26218585","category":"268","category_name":"自助","address":"虹口区四川北路1885号多伦生活广场B1楼"},{"poiid":"B2094757D06FA6F94392","title":"四新食苑","lon":"121.48449","lat":"31.26215","category":"68","category_name":"快餐厅","address":"虹口区四川北路1908号(近多伦路)"},{"poiid":"B2094654D56CA7FA459D","title":"四川北路营业厅","lon":"121.48413","lat":"31.26351","category":"151","category_name":"电讯营业厅","address":"虹口区四川北路1970号"},{"poiid":"B2094757D168A3FA449B","title":"避风塘","lon":"121.484212703","lat":"31.2602332094","category":"500","category_name":"未知分类","address":"上海市虹口区四川北路1885号"},{"poiid":"B2094757D068A3FA4398","title":"呷哺呷哺(虹口区多伦路店)","lon":"121.484077603","lat":"31.2612013296","category":"86","category_name":"火锅店","address":"虹口区四川北路1885号1楼101B室"},{"poiid":"B2094757D06FA0F94298","title":"望湘园(四川北路店)","lon":"121.48399","lat":"31.26204","category":"77","category_name":"湖南菜","address":"虹口区四川北路1941号金海岸大厦4楼(近多伦路)"},{"poiid":"B2094757D06FA5FF4893","title":"溧园咖啡","lon":"121.487339","lat":"31.262971","category":"260","category_name":"其他","address":"虹口区溧阳路1208弄5号老洋房花园内(四川北路四平路间)"},{"poiid":"B2094757D06FAAFE479D","title":"三商巧福(四川北路店)","lon":"121.48457","lat":"31.26162","category":"68","category_name":"快餐厅","address":"虹口区四川北路1840号(近海伦路)"},{"poiid":"B2094757D06FA4F84993","title":"振鼎鸡(溧阳路店)","lon":"121.48465","lat":"31.26335","category":"68","category_name":"快餐厅","address":"虹口区溧阳路1400号(近四川北路)"},{"poiid":"B2094654DB6AAAF9429A","title":"傣妹(四川路二店)","lon":"121.48404","lat":"31.26201","category":"87","category_name":"特色／地方风味餐厅","address":"虹口区四川北路1898号3楼(近多伦路)"},{"poiid":"B2094654DB65A5F9429C","title":"和中堂足道(多伦路文化名人街)","lon":"121.48358","lat":"31.26229","category":"149","category_name":"洗浴推拿场所","address":"虹口区多伦路8号4楼(近四川北路)"},{"poiid":"B2094757D06FA6F54193","title":"巴贝拉(四川北路店)","lon":"121.483688659","lat":"31.2617686525","category":"94","category_name":"西餐厅","address":"虹口区四川北路1885号多伦生活广场2楼(近多伦路)"},{"poiid":"B2094757D16AABFB449F","title":"溧阳路","lon":"121.486091","lat":"31.263604","category":"500","category_name":"未知分类","address":"上海溧阳路四川北路"},{"poiid":"B2094757D068AAF5469B","title":"美豪酒店多伦路店","lon":"121.4841961","lat":"31.262308252","category":"214","category_name":"四星级宾馆","address":"上海市虹口区四川北路1885号(近多伦路)"},{"poiid":"B2094654D56CA7FA4793","title":"维纳斯婚纱(四川北路)","lon":"121.48404","lat":"31.26183","category":"141","category_name":"服装鞋帽皮具店","address":"虹口区四川北路1888号(近多伦路)查看地图"},{"poiid":"B2094757D06AA0FB4992","title":"重庆鸡公煲 东泰广场店","lon":"121.483622054","lat":"31.263378793","category":"71","category_name":"四川菜","address":"虹口区四川北路2005号(东泰广场对面)"},{"poiid":"B2094757D06FABF8439F","title":"虹叶花苑","lon":"121.48671","lat":"31.261433","category":"47","category_name":"住宅区","address":"上海虹口区长春路158号"},{"poiid":"B2094750D76EA3FE489F","title":"富源春鸡汤面(四川北路店)","lon":"121.484","lat":"31.2622","category":"68","category_name":"快餐厅","address":"虹口区四川北路1906弄100号(近多伦路)"},{"poiid":"B2094654D56CA7FA499B","title":"上海市虹口区教育学院实验中学","lon":"121.48423","lat":"31.26054","category":"55","category_name":"中学","address":"虹口区四川北路1838号(近海伦路)"},{"poiid":"B2094757D06AA3F4459F","title":"多伦路粥摊","lon":"121.48199","lat":"31.2648","category":"68","category_name":"快餐厅","address":"虹口区多伦路250号对面(东江湾路口)"},{"poiid":"B2094750D269A1FC4493","title":"荣欣大酒店","lon":"121.483675","lat":"31.261341","category":"76","category_name":"上海菜","address":"虹口区四川北路1851号5楼(近多伦路)"},{"poiid":"B2094654DB6AA6FF449D","title":"上海虹叶酒店","lon":"121.48644","lat":"31.26183","category":"215","category_name":"三星级宾馆","address":"上海虹口区长春路158号(近溧阳路)"},{"poiid":"B2094757D469A5FF4699","title":"煲煲赞广东煲仔饭","lon":"121.486095","lat":"31.260743","category":"72","category_name":"广东菜","address":"虹口区长春路152号(近四川北路)"},{"poiid":"B2094750D768ABFE4999","title":"巴黎贝甜(四川北路店)","lon":"121.484","lat":"31.2619","category":"68","category_name":"快餐厅","address":"虹口区四川北路1885号多伦生活广场内(近多伦路)"},{"poiid":"B2094757D069ABF54899","title":"Barba-baba台球馆","lon":"121.483850786","lat":"31.2615875487","category":"171","category_name":"台球厅","address":"上海多伦路"},{"poiid":"B2094757D66FA2FC4099","title":"鱼林港","lon":"121.484525103","lat":"31.2620422471","category":"500","category_name":"未知分类","address":"上海四川北路东泰休闲广场"},{"poiid":"B2094750D565A4FC469B","title":"丰庭私房菜","lon":"121.484443","lat":"31.263837","category":"76","category_name":"上海菜","address":"虹口区四川北路2002弄12号东泰休闲广场3楼(近鲁迅公园)"},{"poiid":"B2094757D068A4FB459D","title":"莉莲蛋挞(四川北路店)","lon":"121.48418","lat":"31.2606","category":"67","category_name":"甜品店","address":"虹口区四川北路1846号(近海伦路)"},{"poiid":"B2094757D068A6F4479E","title":"招商银行(川北支行)","lon":"121.48377719","lat":"31.261439893","category":"150","category_name":"银行","address":"上海虹口区四川北路1689号"},{"poiid":"B2094757D46EA2FC489F","title":"85度C 四川北路店","lon":"121.484003054","lat":"31.263574793","category":"112","category_name":"糕饼店","address":"虹口区四川北路1861号荣欣大厦31室(近多伦路)"},{"poiid":"B2094757D06FABFE459F","title":"fox桌球俱乐部","lon":"121.48362973","lat":"31.262007139","category":"171","category_name":"台球厅","address":"上海四川北路1885号"},{"poiid":"B2094757D068A7FB4999","title":"面大王","lon":"121.48809","lat":"31.26132","category":"68","category_name":"快餐厅","address":"虹口区溧阳路1114弄4号(近四平路)"},{"poiid":"B2094654D56CA7F4429D","title":"米果乐园","lon":"121.48368","lat":"31.26186","category":"173","category_name":"游戏厅","address":"虹口区四川北路1885号多伦生活广场4楼(近多伦路)"},{"poiid":"B2094654D56EA2F8429E","title":"宝山路499弄小区","lon":"121.48427916226","lat":"31.263691881371","category":"47","category_name":"住宅区","address":"宝山路499弄"},{"poiid":"B2094750D665AAF84399","title":"上海歌城自助餐(四川北路店)","lon":"121.484","lat":"31.2619","category":"268","category_name":"自助","address":"虹口区四川北路1885号多伦生活广场内(近多伦路)"},{"poiid":"B2094757D464A7F5419D","title":"真老大房 四川北路店","lon":"121.483875054","lat":"31.263172793","category":"68","category_name":"快餐厅","address":"虹口区四川北路1979号新海食品商城内(近溧阳路)"},{"poiid":"B2094654DB6AAAF9449B","title":"上海时装商厦","lon":"121.48358","lat":"31.26229","category":"46","category_name":"楼宇","address":"虹口区四川北路1915号"},{"poiid":"B2094654D56CA7FA4598","title":"吉祥馄饨 海伦店 Gll Wonton","lon":"121.4837","lat":"31.25921","category":"68","category_name":"快餐厅","address":"虹口区海伦西路89号(近四川北路横浜桥)"},{"poiid":"B2094757D06FA4FA4193","title":"亥酉缘港式餐厅","lon":"121.48397","lat":"31.26231","category":"72","category_name":"广东菜","address":"虹口区四川北路1941号金海岸商厦3楼(近多伦路)"},{"poiid":"B2094750D568A1F94693","title":"吉祥馄饨(溧阳路店)","lon":"121.484","lat":"31.2636","category":"68","category_name":"快餐厅","address":"虹口区溧阳路1400号(近四川北路)"},{"poiid":"B2094757D06BA5FB479C","title":"21路四川北路横浜桥站","lon":"121.48387424","lat":"31.261336429","category":"38","category_name":"公交车站","address":"上海四川北路(近多伦路)"},{"poiid":"B2094757D16CA3FE4299","title":"四川北路街道办事处","lon":"121.485604","lat":"31.263318","category":"500","category_name":"未知分类","address":"上海溧阳路1338号"},{"poiid":"B2094757D068A0FE419E","title":"一品香辣蟹四川北路","lon":"121.4835741","lat":"31.26172424","category":"71","category_name":"四川菜","address":"虹口区四川北路1885号多伦生活广场3楼"},{"poiid":"B2094757D06EABF5439A","title":"爱舍空间(四川北路店)","lon":"121.483945","lat":"31.263237","category":"217","category_name":"旅馆招待所","address":"上海虹口区四川北路1969号"},{"poiid":"B2094757D16FA1FD479C","title":"御品坊宫廷桃酥 四川北路店","lon":"121.483055","lat":"31.259574","category":"68","category_name":"快餐厅","address":"虹口区四川北路1834号(近海伦路)"},{"poiid":"B2094757D569A3FD499B","title":"小胖子烧烤摊","lon":"121.4877469","lat":"31.26159194","category":"87","category_name":"特色／地方风味餐厅","address":"虹口区溧阳路1114号麦当劳门口(近四平路)"}]