[{"poiid":"B2094757D06FA2FE499F","title":"上海师范大学(奉贤校区)","lon":"121.52111","lat":"30.83437","category":"52","category_name":"高等院校","address":"上海近郊奉贤区海思路100号"},{"poiid":"B2094757D068A7FC409F","title":"奉贤海湾","lon":"121.516909","lat":"30.816803","category":"242","category_name":"海滩","address":"上海近碧海金沙"},{"poiid":"B2094757D068A1F4479B","title":"豪生棕榈滩大酒店","lon":"121.52115133","lat":"30.814700623","category":"94","category_name":"西餐厅","address":"近郊奉贤海湾旅游区海鸥路1888号"},{"poiid":"B2094757D06FA5F54698","title":"上海师范大学(奉贤校区)图书馆","lon":"121.51958704","lat":"30.837477779","category":"181","category_name":"图书馆","address":"近郊奉贤区奉炮公路553号上海师范大学内(近海思路)"},{"poiid":"B2094757D168A7FA489F","title":"上师大女人村","lon":"121.514662387","lat":"30.8320111656","category":"500","category_name":"未知分类","address":"上海师范大学女生宿舍园区"},{"poiid":"B2094757D064A3FB499E","title":"海湾旅游区","lon":"121.519107","lat":"30.817654","category":"500","category_name":"未知分类","address":"上海奉贤海湾"},{"poiid":"B2094757D068ABFA4693","title":"海湾园","lon":"121.512079369","lat":"30.8155421671","category":"250","category_name":"公园户外","address":"近郊奉贤海乐路200号(近浦星公路)"},{"poiid":"B2094757D06AA7F5409F","title":"秦臻酒家(海鸥路店)","lon":"121.52858","lat":"30.82491","category":"76","category_name":"上海菜","address":"近郊奉贤区海湾旅游区海鸥路128号"},{"poiid":"B2094757D16FA6FA499D","title":"棕榈滩别墅","lon":"121.52845203437","lat":"30.823450001029","category":"47","category_name":"住宅区","address":"上海市奉贤区海马路4199弄116"},{"poiid":"B2094757D06BA2FF429D","title":"上师大第四教学楼","lon":"121.51810746","lat":"30.837016736","category":"253","category_name":"校园生活","address":"上海学海路"},{"poiid":"B2094757D06FA4FE459C","title":"上海师范大学四教（奉贤校区）","lon":"121.520858765","lat":"30.8346538544","category":"253","category_name":"校园生活","address":"上海师范大学（奉贤校区）内"},{"poiid":"B2094757D16EA2FD439E","title":"海湾浪音酒店","lon":"121.52777513","lat":"30.822470142","category":"217","category_name":"旅馆招待所","address":"上海近郊奉贤区金汇塘路2-4号(近海鸥路)  "},{"poiid":"B2094757D068ABFB4692","title":"上海师范大学 第五教学楼","lon":"121.52171818","lat":"30.836788877","category":"500","category_name":"未知分类","address":"上海市奉贤区玉兰路"},{"poiid":"B2094654DB68AAFB459D","title":"海潮KTV","lon":"121.52907","lat":"30.8226","category":"170","category_name":"KTV","address":"近郊海鸥路148号"},{"poiid":"B2094655D26EA4FA459D","title":"海阔星空海鲜大排档","lon":"121.5209207597","lat":"30.823464171959","category":"257","category_name":"中餐厅","address":"近郊奉贤区海湾旅游区海湾路4981-4989号(近海鸥路)"},{"poiid":"B2094757D66FA6F9469E","title":"蓝箭训练中心","lon":"121.53924488","lat":"30.833810407","category":"500","category_name":"未知分类","address":"上海人民塘东路"},{"poiid":"B2094654DB68AAFB449E","title":"海湾边防派出所","lon":"121.52919","lat":"30.82202","category":"609","category_name":"警察局","address":""},{"poiid":"B2094655D36CA7FA499D","title":"海湾镇","lon":"121.52704","lat":"30.82992","category":"38","category_name":"公交车站","address":""},{"poiid":"B2094750D76EA5FF419A","title":"紫藤苑","lon":"121.528","lat":"30.8279","category":"68","category_name":"快餐厅","address":"近郊奉贤区奉炮公路100号上海师范大学内"},{"poiid":"B2094655D26DA0F5439F","title":"海上皇宫金海湾别墅(金汇塘路)","lon":"121.53602","lat":"30.82181","category":"47","category_name":"住宅区","address":"金海湾别墅位于奉贤奉新镇"},{"poiid":"B2094757D568A2FA4698","title":"东海观音寺","lon":"121.514145","lat":"30.815844","category":"244","category_name":"寺庙道观","address":"近郊奉贤区金汇塘路999号(近海乐路)"},{"poiid":"B2094750DB6EABFB449B","title":"海湾艺墅","lon":"121.524904","lat":"30.824791","category":"47","category_name":"住宅区","address":"奉贤区海马路5699弄"},{"poiid":"B2094654DB68AAFB449F","title":"福岛海鲜酒楼","lon":"121.52991","lat":"30.82058","category":"260","category_name":"其他","address":"近郊奉贤海湾旅游区客运码头"},{"poiid":"B2094654DB68AAFB479A","title":"海上皇宫假日酒店","lon":"121.53625","lat":"30.82237","category":"260","category_name":"其他","address":"近郊奉贤区海湾旅游区金汇塘东路1888号"},{"poiid":"B2094757D568A4FF499D","title":"海湾艺墅(一期二期)","lon":"121.5238178","lat":"30.823865","category":"47","category_name":"住宅区","address":"上海市奉贤区海乐路88号"},{"poiid":"B2094757D66DABFD479E","title":"棕榈滩海景大排档","lon":"121.52160518","lat":"30.814570358","category":"247","category_name":"餐饮美食","address":"上海奉贤区海湾区海鸥路1888号东南侧"},{"poiid":"B2094757D16EA6F9459C","title":"绿地海语墅","lon":"121.520938","lat":"30.830109","category":"500","category_name":"未知分类","address":"松江区佘山镇泗陈公路4388号"},{"poiid":"B2094655D36DA7FB439D","title":"棕榈沙滩","lon":"121.52058","lat":"30.81782","category":"38","category_name":"公交车站","address":""},{"poiid":"B2094654DB68AAFB429C","title":"奉贤海湾医院","lon":"121.52722","lat":"30.82818","category":"162","category_name":"医院","address":"奉贤区奉炮公路87号"},{"poiid":"B2094757D66CAAF94193","title":"王记麻辣烫","lon":"121.527952","lat":"30.827868","category":"247","category_name":"餐饮美食","address":"上海奉贤区奉炮公路"},{"poiid":"B2094654DB68AAFB4299","title":"中国奉新国际风筝放飞场","lon":"121.53538","lat":"30.82607","category":"250","category_name":"公园户外","address":"奉新镇"},{"poiid":"B2094757D06BA6FA459E","title":"松声马术俱乐部","lon":"121.53272","lat":"30.83384","category":"220","category_name":"运动场所","address":"近郊奉贤区人民塘东路621号"},{"poiid":"B2094655D264A1FC439E","title":"佳兆业珊瑚湾","lon":"121.54269","lat":"30.82572","category":"47","category_name":"住宅区","address":"海马路4333弄"},{"poiid":"B2094757D068A2FC409E","title":"上海师范大学 二教","lon":"121.520813","lat":"30.834614","category":"253","category_name":"校园生活","address":"上海市奉贤区海思路100号上海师范大学二号教学楼"},{"poiid":"B2094757D06BA1FE449D","title":"上师大东门","lon":"121.52672","lat":"30.831939","category":"500","category_name":"未知分类","address":"上海奉贤区奉炮公路"},{"poiid":"B2094757D66BA7FD499A","title":"三只熊韩国料理餐厅","lon":"121.52085","lat":"30.83465","category":"96","category_name":"韩国料理","address":"近郊奉贤区海思路100号上海师范大学金桂苑2楼"},{"poiid":"B2094757D569A2FF4799","title":"金海湾五期","lon":"121.5264583","lat":"30.83135944","category":"47","category_name":"住宅区","address":"康惠苑位于徐汇康健路16弄(沪闵路)"},{"poiid":"B2094655D26EAAF9459D","title":"上海日海酒店","lon":"121.51857","lat":"30.81685","category":"250","category_name":"公园户外","address":"近郊奉贤区海湾旅游区海湾路155弄1-6号"},{"poiid":"B2094757D16CA2F8449D","title":"莘海线","lon":"121.519104","lat":"30.817653656","category":"38","category_name":"公交车站","address":"上海莘庄地铁南广场－奉贤海湾"},{"poiid":"B2094654DB68AAFB4593","title":"中国海湾风筝放飞场","lon":"121.51831","lat":"30.81983","category":"250","category_name":"公园户外","address":""},{"poiid":"B2094655D264A0F84392","title":"招商海廷","lon":"121.51771","lat":"30.83","category":"47","category_name":"住宅区","address":"奉贤海湾旅游区人民塘路1019弄"},{"poiid":"B2094757D165A2FD459B","title":"上海國際風箏放飛場","lon":"121.519665787","lat":"30.8160159919","category":"500","category_name":"未知分类","address":"上海市奉賢區海灣路"},{"poiid":"B2094757D16CAAFB499A","title":"上师大体育馆","lon":"121.518633","lat":"30.816788","category":"253","category_name":"校园生活","address":"上海奉贤上师大"},{"poiid":"B2094757D568ABF44392","title":"东方熟女","lon":"121.5194931","lat":"30.82033694","category":"249","category_name":"购物服务","address":"地铁2号线世纪公园站地下商城"},{"poiid":"B2094757D16AAAFE479D","title":"安图医院急诊室","lon":"121.521212057","lat":"30.8131676954","category":"162","category_name":"医院","address":"上海杨浦区延吉路安图路"},{"poiid":"B2094654DB69A7FF479B","title":"阳光海岸","lon":"121.51571","lat":"30.820677","category":"47","category_name":"住宅区","address":"奉贤区莘奉公路4588弄"},{"poiid":"B2094654DB68AAFB469D","title":"包晼蓉中国京剧服饰艺术馆","lon":"121.51941","lat":"30.81399","category":"183","category_name":"展览馆","address":"海鸥路1988"},{"poiid":"B2094654DB69A4FB4898","title":"重庆鸡公煲(师范大学奉贤店)","lon":"121.52085","lat":"30.83465","category":"257","category_name":"中餐厅","address":"近郊奉贤区奉炮公路1255号应技大一食堂2楼(奉炮公路海阔路)"},{"poiid":"B2094757D06BA1F5449E","title":"上海师范大学大学生活动中心(奉贤校区)","lon":"121.516135146","lat":"30.8356749585","category":"249","category_name":"购物服务","address":"上海奉贤区海思路100号上海师范大学内"},{"poiid":"B2094757D06FA4FD499B","title":"圆味烧烤","lon":"121.52374","lat":"30.8363814","category":"68","category_name":"快餐厅","address":"近郊奉贤区奉炮公路378弄125号(近上海师范大学奉贤校区)"},{"poiid":"B2094757D06FA2FE499F","title":"上海师范大学(奉贤校区)","lon":"121.52111","lat":"30.83437","category":"52","category_name":"高等院校","address":"上海近郊奉贤区海思路100号"},{"poiid":"B2094757D068A7FC409F","title":"奉贤海湾","lon":"121.516909","lat":"30.816803","category":"242","category_name":"海滩","address":"上海近碧海金沙"},{"poiid":"B2094757D068A1F4479B","title":"豪生棕榈滩大酒店","lon":"121.52115133","lat":"30.814700623","category":"94","category_name":"西餐厅","address":"近郊奉贤海湾旅游区海鸥路1888号"},{"poiid":"B2094757D06FA5F54698","title":"上海师范大学(奉贤校区)图书馆","lon":"121.51958704","lat":"30.837477779","category":"181","category_name":"图书馆","address":"近郊奉贤区奉炮公路553号上海师范大学内(近海思路)"},{"poiid":"B2094757D168A7FA489F","title":"上师大女人村","lon":"121.514662387","lat":"30.8320111656","category":"500","category_name":"未知分类","address":"上海师范大学女生宿舍园区"},{"poiid":"B2094757D064A3FB499E","title":"海湾旅游区","lon":"121.519107","lat":"30.817654","category":"500","category_name":"未知分类","address":"上海奉贤海湾"},{"poiid":"B2094757D068ABFA4693","title":"海湾园","lon":"121.512079369","lat":"30.8155421671","category":"250","category_name":"公园户外","address":"近郊奉贤海乐路200号(近浦星公路)"},{"poiid":"B2094757D06AA7F5409F","title":"秦臻酒家(海鸥路店)","lon":"121.52858","lat":"30.82491","category":"76","category_name":"上海菜","address":"近郊奉贤区海湾旅游区海鸥路128号"},{"poiid":"B2094757D16FA6FA499D","title":"棕榈滩别墅","lon":"121.52845203437","lat":"30.823450001029","category":"47","category_name":"住宅区","address":"上海市奉贤区海马路4199弄116"},{"poiid":"B2094757D06BA2FF429D","title":"上师大第四教学楼","lon":"121.51810746","lat":"30.837016736","category":"253","category_name":"校园生活","address":"上海学海路"},{"poiid":"B2094757D06FA4FE459C","title":"上海师范大学四教（奉贤校区）","lon":"121.520858765","lat":"30.8346538544","category":"253","category_name":"校园生活","address":"上海师范大学（奉贤校区）内"},{"poiid":"B2094757D16EA2FD439E","title":"海湾浪音酒店","lon":"121.52777513","lat":"30.822470142","category":"217","category_name":"旅馆招待所","address":"上海近郊奉贤区金汇塘路2-4号(近海鸥路)  "},{"poiid":"B2094757D068ABFB4692","title":"上海师范大学 第五教学楼","lon":"121.52171818","lat":"30.836788877","category":"500","category_name":"未知分类","address":"上海市奉贤区玉兰路"},{"poiid":"B2094654DB68AAFB459D","title":"海潮KTV","lon":"121.52907","lat":"30.8226","category":"170","category_name":"KTV","address":"近郊海鸥路148号"},{"poiid":"B2094655D26EA4FA459D","title":"海阔星空海鲜大排档","lon":"121.5209207597","lat":"30.823464171959","category":"257","category_name":"中餐厅","address":"近郊奉贤区海湾旅游区海湾路4981-4989号(近海鸥路)"},{"poiid":"B2094757D66FA6F9469E","title":"蓝箭训练中心","lon":"121.53924488","lat":"30.833810407","category":"500","category_name":"未知分类","address":"上海人民塘东路"},{"poiid":"B2094654DB68AAFB449E","title":"海湾边防派出所","lon":"121.52919","lat":"30.82202","category":"609","category_name":"警察局","address":""},{"poiid":"B2094655D36CA7FA499D","title":"海湾镇","lon":"121.52704","lat":"30.82992","category":"38","category_name":"公交车站","address":""},{"poiid":"B2094750D76EA5FF419A","title":"紫藤苑","lon":"121.528","lat":"30.8279","category":"68","category_name":"快餐厅","address":"近郊奉贤区奉炮公路100号上海师范大学内"},{"poiid":"B2094655D26DA0F5439F","title":"海上皇宫金海湾别墅(金汇塘路)","lon":"121.53602","lat":"30.82181","category":"47","category_name":"住宅区","address":"金海湾别墅位于奉贤奉新镇"},{"poiid":"B2094757D568A2FA4698","title":"东海观音寺","lon":"121.514145","lat":"30.815844","category":"244","category_name":"寺庙道观","address":"近郊奉贤区金汇塘路999号(近海乐路)"},{"poiid":"B2094750DB6EABFB449B","title":"海湾艺墅","lon":"121.524904","lat":"30.824791","category":"47","category_name":"住宅区","address":"奉贤区海马路5699弄"},{"poiid":"B2094654DB68AAFB449F","title":"福岛海鲜酒楼","lon":"121.52991","lat":"30.82058","category":"260","category_name":"其他","address":"近郊奉贤海湾旅游区客运码头"},{"poiid":"B2094654DB68AAFB479A","title":"海上皇宫假日酒店","lon":"121.53625","lat":"30.82237","category":"260","category_name":"其他","address":"近郊奉贤区海湾旅游区金汇塘东路1888号"},{"poiid":"B2094757D568A4FF499D","title":"海湾艺墅(一期二期)","lon":"121.5238178","lat":"30.823865","category":"47","category_name":"住宅区","address":"上海市奉贤区海乐路88号"},{"poiid":"B2094757D66DABFD479E","title":"棕榈滩海景大排档","lon":"121.52160518","lat":"30.814570358","category":"247","category_name":"餐饮美食","address":"上海奉贤区海湾区海鸥路1888号东南侧"},{"poiid":"B2094757D16EA6F9459C","title":"绿地海语墅","lon":"121.520938","lat":"30.830109","category":"500","category_name":"未知分类","address":"松江区佘山镇泗陈公路4388号"},{"poiid":"B2094655D36DA7FB439D","title":"棕榈沙滩","lon":"121.52058","lat":"30.81782","category":"38","category_name":"公交车站","address":""},{"poiid":"B2094654DB68AAFB429C","title":"奉贤海湾医院","lon":"121.52722","lat":"30.82818","category":"162","category_name":"医院","address":"奉贤区奉炮公路87号"},{"poiid":"B2094757D66CAAF94193","title":"王记麻辣烫","lon":"121.527952","lat":"30.827868","category":"247","category_name":"餐饮美食","address":"上海奉贤区奉炮公路"},{"poiid":"B2094654DB68AAFB4299","title":"中国奉新国际风筝放飞场","lon":"121.53538","lat":"30.82607","category":"250","category_name":"公园户外","address":"奉新镇"},{"poiid":"B2094757D06BA6FA459E","title":"松声马术俱乐部","lon":"121.53272","lat":"30.83384","category":"220","category_name":"运动场所","address":"近郊奉贤区人民塘东路621号"},{"poiid":"B2094655D264A1FC439E","title":"佳兆业珊瑚湾","lon":"121.54269","lat":"30.82572","category":"47","category_name":"住宅区","address":"海马路4333弄"},{"poiid":"B2094757D068A2FC409E","title":"上海师范大学 二教","lon":"121.520813","lat":"30.834614","category":"253","category_name":"校园生活","address":"上海市奉贤区海思路100号上海师范大学二号教学楼"},{"poiid":"B2094757D06BA1FE449D","title":"上师大东门","lon":"121.52672","lat":"30.831939","category":"500","category_name":"未知分类","address":"上海奉贤区奉炮公路"},{"poiid":"B2094757D66BA7FD499A","title":"三只熊韩国料理餐厅","lon":"121.52085","lat":"30.83465","category":"96","category_name":"韩国料理","address":"近郊奉贤区海思路100号上海师范大学金桂苑2楼"},{"poiid":"B2094757D569A2FF4799","title":"金海湾五期","lon":"121.5264583","lat":"30.83135944","category":"47","category_name":"住宅区","address":"康惠苑位于徐汇康健路16弄(沪闵路)"},{"poiid":"B2094655D26EAAF9459D","title":"上海日海酒店","lon":"121.51857","lat":"30.81685","category":"250","category_name":"公园户外","address":"近郊奉贤区海湾旅游区海湾路155弄1-6号"},{"poiid":"B2094757D16CA2F8449D","title":"莘海线","lon":"121.519104","lat":"30.817653656","category":"38","category_name":"公交车站","address":"上海莘庄地铁南广场－奉贤海湾"},{"poiid":"B2094654DB68AAFB4593","title":"中国海湾风筝放飞场","lon":"121.51831","lat":"30.81983","category":"250","category_name":"公园户外","address":""},{"poiid":"B2094655D264A0F84392","title":"招商海廷","lon":"121.51771","lat":"30.83","category":"47","category_name":"住宅区","address":"奉贤海湾旅游区人民塘路1019弄"},{"poiid":"B2094757D165A2FD459B","title":"上海國際風箏放飛場","lon":"121.519665787","lat":"30.8160159919","category":"500","category_name":"未知分类","address":"上海市奉賢區海灣路"},{"poiid":"B2094757D16CAAFB499A","title":"上师大体育馆","lon":"121.518633","lat":"30.816788","category":"253","category_name":"校园生活","address":"上海奉贤上师大"},{"poiid":"B2094757D568ABF44392","title":"东方熟女","lon":"121.5194931","lat":"30.82033694","category":"249","category_name":"购物服务","address":"地铁2号线世纪公园站地下商城"},{"poiid":"B2094757D16AAAFE479D","title":"安图医院急诊室","lon":"121.521212057","lat":"30.8131676954","category":"162","category_name":"医院","address":"上海杨浦区延吉路安图路"},{"poiid":"B2094654DB69A7FF479B","title":"阳光海岸","lon":"121.51571","lat":"30.820677","category":"47","category_name":"住宅区","address":"奉贤区莘奉公路4588弄"},{"poiid":"B2094654DB68AAFB469D","title":"包晼蓉中国京剧服饰艺术馆","lon":"121.51941","lat":"30.81399","category":"183","category_name":"展览馆","address":"海鸥路1988"},{"poiid":"B2094654DB69A4FB4898","title":"重庆鸡公煲(师范大学奉贤店)","lon":"121.52085","lat":"30.83465","category":"257","category_name":"中餐厅","address":"近郊奉贤区奉炮公路1255号应技大一食堂2楼(奉炮公路海阔路)"},{"poiid":"B2094757D06BA1F5449E","title":"上海师范大学大学生活动中心(奉贤校区)","lon":"121.516135146","lat":"30.8356749585","category":"249","category_name":"购物服务","address":"上海奉贤区海思路100号上海师范大学内"},{"poiid":"B2094757D06FA4FD499B","title":"圆味烧烤","lon":"121.52374","lat":"30.8363814","category":"68","category_name":"快餐厅","address":"近郊奉贤区奉炮公路378弄125号(近上海师范大学奉贤校区)"}]