[{"poiid":"B2094654DB6FA0F4499E","title":"上海野生动物园","lon":"121.712745","lat":"31.061231","category":"68","category_name":"快餐厅","address":"上海市南汇区南六公路178号"},{"poiid":"B2094757D06EABF5479E","title":"南汇区中心医院","lon":"121.73745267","lat":"31.05833135","category":"162","category_name":"医院","address":"浦东新区惠南镇拱为路2800号"},{"poiid":"B2094757D068A2FC449B","title":"欧尚(南汇店)","lon":"121.7353084","lat":"31.049049949","category":"118","category_name":"超级市场","address":"浦东新区惠南镇人民西路955号(近南汇中心医院)"},{"poiid":"B2094757D06AA7F44398","title":"沈家花园(南汇店)","lon":"121.71406","lat":"31.03715","category":"47","category_name":"住宅区","address":"浦东新区沪南公路9356弄1号(近南芦公路)"},{"poiid":"B2094757D16EA2F4489F","title":"华山医院附属南汇中心医院","lon":"121.736958022","lat":"31.0592949002","category":"162","category_name":"医院","address":"上海市浦东新区惠南镇拱为路2800号。"},{"poiid":"B2094757D06BA2FC4793","title":"韶梦酒店(南六公路店)","lon":"121.71694","lat":"31.04472","category":"76","category_name":"上海菜","address":"浦东新区南六公路188号(枫丹白露会所旁)"},{"poiid":"B2094655D26DAAFB429C","title":"艺泰安邦花园(南季路)","lon":"121.71056","lat":"31.05892","category":"47","category_name":"住宅区","address":""},{"poiid":"B2094654DB6FA7FD4393","title":"上海南汇工业园区","lon":"121.7153","lat":"31.03392","category":"45","category_name":"产业园区","address":"南汇区沪南公路9458号"},{"poiid":"B2094757D66EA7FC4198","title":"听潮路","lon":"121.742124628","lat":"31.0465143486","category":"500","category_name":"未知分类","address":"上海南汇听潮路"},{"poiid":"B2094654DB6FA0F44892","title":"桃城度假村","lon":"121.71375","lat":"31.03866","category":"215","category_name":"三星级宾馆","address":"上海市浦东新区南汇沪南公路9191号(近南六公路)"},{"poiid":"B2094757D168A0F84698","title":"老宅里农家菜","lon":"121.73727562","lat":"31.047234365","category":"76","category_name":"上海菜","address":"浦东新区惠南镇西门路430号(近大川公路)"},{"poiid":"B2094757D16EA3FD4999","title":"南匯房地產交易中心","lon":"121.74149912","lat":"31.047771377","category":"500","category_name":"未知分类","address":"上海听潮路101弄1号"},{"poiid":"B2094757D06AA7F8439A","title":"艺泰安邦","lon":"121.7142847","lat":"31.0560212","category":"500","category_name":"未知分类","address":"上海南汇区三灶镇南六公路399弄"},{"poiid":"B2094655D265ABF94998","title":"上海野生动物园(正门)","lon":"121.71458","lat":"31.05408","category":"680","category_name":"楼宇机构","address":""},{"poiid":"B2094655D265A7FB499F","title":"上海永达汽车南汇销售服务有限公司","lon":"121.73489","lat":"31.04702","category":"159","category_name":"汽车维修","address":"惠南镇大川公路3099号"},{"poiid":"B2094757D464A7FE439E","title":"沪华海鲜大酒楼 南汇店","lon":"121.71684","lat":"31.0341","category":"76","category_name":"上海菜","address":"浦东新区沪南公路9356弄3-5号汇展国际商务广场"},{"poiid":"B2094757D16DA2FD449C","title":"南美水疗","lon":"121.716122628","lat":"31.0362881135","category":"148","category_name":"美容美发店","address":"上海市浦东新区沪南公路"},{"poiid":"B2094655D265ABFC4992","title":"东方听潮豪园","lon":"121.74175","lat":"31.03713","category":"47","category_name":"住宅区","address":"浦东新区惠南镇听潮南路2号"},{"poiid":"B2094757D164A6F4459A","title":"清风人家(薛家宅店)","lon":"121.71367172","lat":"31.036383115","category":"247","category_name":"餐饮美食","address":"沪南公路9356弄汇展商务广场5幢2楼近南六公路"},{"poiid":"B2094757D66DAAFC4299","title":"观鹤楼大酒店","lon":"121.72323608","lat":"31.051803588","category":"76","category_name":"上海菜","address":"浦东新区三灶镇南六公路178号上海野生动物园内"},{"poiid":"B2094757D164AAF8409B","title":"凯迪枫丹白露","lon":"121.717674","lat":"31.044136","category":"252","category_name":"楼宇机构","address":"上海市浦东新区南六公路188号"},{"poiid":"B2094757D168ABF94099","title":"望湘园","lon":"121.739826628","lat":"31.0343020679","category":"500","category_name":"未知分类","address":"上海市浦东新区迎薰路"},{"poiid":"B2094654DB6FA7FD419C","title":"中新酒家","lon":"121.72158","lat":"31.04977","category":"257","category_name":"中餐厅","address":""},{"poiid":"B2094751D36DA0F5469B","title":"品味千岛湖酒店","lon":"121.73698","lat":"31.04033","category":"76","category_name":"上海菜","address":"浦东新区沪南公路9828号(近莫泰168)"},{"poiid":"B2094655D36CA7FE489D","title":"沪南公路南汇工业园区","lon":"121.72725","lat":"31.03892","category":"38","category_name":"公交车站","address":""},{"poiid":"B2094750D76EAAFA499C","title":"呷哺呷哺(欧尚惠南店)","lon":"121.735","lat":"31.0487","category":"86","category_name":"火锅店","address":"浦东新区惠南镇人民西路955号欧尚超市1楼NH1042号商铺(近大川公路)"},{"poiid":"B2094753D76AA0FC469E","title":"新石器烤肉(南汇欧尚店)","lon":"121.73558","lat":"31.048704","category":"96","category_name":"韩国料理","address":"上海市浦东新区人民西路955号欧尚超市1楼NH1005A室(近大川公路)"},{"poiid":"B2094757D165A7F4419E","title":"味之都欧尚店","lon":"121.735011357","lat":"31.0484225416","category":"68","category_name":"快餐厅","address":"浦东新区人民西路955号欧尚超市大门旁(近大川公路)"},{"poiid":"B2094757D168AAFE479C","title":"汇展国际商务","lon":"121.716978","lat":"31.037392","category":"500","category_name":"未知分类","address":"上海沪南公路薛家宅"},{"poiid":"B2094655D26FA2F4419B","title":"85度C(南汇欧尚店)","lon":"121.73654","lat":"31.04921","category":"112","category_name":"糕饼店","address":"浦东新区惠南镇人民西路955号欧尚(近大川公路)"},{"poiid":"B209475CD76EA2FA4293","title":"上海野生动物园","lon":"121.725975","lat":"31.052228","category":"500","category_name":"未知分类","address":"上海市 上海浦东南汇"},{"poiid":"B2094757D568A4FE4693","title":"金丝猴岛","lon":"121.718678","lat":"31.052376","category":"607","category_name":"一般景点","address":"中国上海市浦东新区"},{"poiid":"B2094654DB6FA7FE449B","title":"陶桥新村","lon":"121.72039","lat":"31.038071","category":"47","category_name":"住宅区","address":"沪南公路9439弄"},{"poiid":"B2094757D664AAF94892","title":"侬佳蒸菜馆","lon":"121.742072054","lat":"31.053287793","category":"76","category_name":"上海菜","address":"浦东新区惠南镇听潮路555号(拱极路口)"},{"poiid":"B2094757D464A7FE4498","title":"清风人家 汇展店 Chinfond Teahouse","lon":"121.716487","lat":"31.037743","category":"260","category_name":"其他","address":"浦东新区沪南公路9356弄汇展国际5幢2楼(近南芦公路)"},{"poiid":"B2094757D16EA0FF4899","title":"西门锦绣苑(西苑)","lon":"121.736051218","lat":"31.0469211279","category":"47","category_name":"住宅区","address":"上海市浦东新区惠南镇西门路588弄"},{"poiid":"B2094757D06AAAFF409A","title":"南汇工业园区","lon":"121.72476069","lat":"31.035806478","category":"252","category_name":"楼宇机构","address":"上海园中路"},{"poiid":"B2094757D568A4FC429F","title":"肯德基(西乐路)","lon":"121.73516059","lat":"31.04866509","category":"68","category_name":"快餐厅","address":"中国上海市浦东新区"},{"poiid":"B2094654DB64A5F44098","title":"水利大楼","lon":"121.73428","lat":"31.03998","category":"46","category_name":"楼宇","address":"沪南公路9800"},{"poiid":"B2094655D36DA2FC479F","title":"旧盐港桥","lon":"121.72996","lat":"31.03955","category":"250","category_name":"公园户外","address":""},{"poiid":"B2094654DB69A7FA4199","title":"九九别墅","lon":"121.71282","lat":"31.04402","category":"47","category_name":"住宅区","address":"上海市南汇区南六公路99弄"},{"poiid":"B2094655D36DA0FF469B","title":"薛家宅","lon":"121.71679","lat":"31.03732","category":"38","category_name":"公交车站","address":""},{"poiid":"B2094655D265A7FF459E","title":"复旦大学附属华山医院南汇分院","lon":"121.73746","lat":"31.05832","category":"162","category_name":"医院","address":"惠南镇拱为路2800号"},{"poiid":"B2094757D568A1FD499A","title":"火烈鸟生态区","lon":"121.718136","lat":"31.055163","category":"197","category_name":"动物园","address":"中国上海市浦东新区"},{"poiid":"B2094757D169AAF9409D","title":"爱西西里 上海野生动物园店","lon":"121.72226235","lat":"31.05508569","category":"500","category_name":"未知分类","address":"上海市浦东新区南六公路"},{"poiid":"B2094655D26FA3F54293","title":"兰州正宗牛肉拉面","lon":"121.71827","lat":"31.03751","category":"90","category_name":"清真餐馆","address":""},{"poiid":"B2094757D16DA4F9419F","title":"南汇中心医院输液大厅","lon":"121.73567635","lat":"31.059474289","category":"162","category_name":"医院","address":"上海拱为路"},{"poiid":"B2094655D26DA6FD4999","title":"桃源花苑一区(南六公路)","lon":"121.71185","lat":"31.04637","category":"47","category_name":"住宅区","address":"南六公路99弄17支弄1-131号"},{"poiid":"B2094654DB69A4FE4293","title":"莫泰168连锁旅店(南汇惠南店)","lon":"121.73721","lat":"31.04022","category":"216","category_name":"经济型连锁酒店","address":"浦东新区沪南公路9830号"},{"poiid":"B2094655D36DA1FB4592","title":"西乐路人民西路","lon":"121.73675","lat":"31.04913","category":"38","category_name":"公交车站","address":""},{"poiid":"B2094654DB6FA0F4499E","title":"上海野生动物园","lon":"121.712745","lat":"31.061231","category":"68","category_name":"快餐厅","address":"上海市南汇区南六公路178号"},{"poiid":"B2094757D06EABF5479E","title":"南汇区中心医院","lon":"121.73745267","lat":"31.05833135","category":"162","category_name":"医院","address":"浦东新区惠南镇拱为路2800号"},{"poiid":"B2094757D068A2FC449B","title":"欧尚(南汇店)","lon":"121.7353084","lat":"31.049049949","category":"118","category_name":"超级市场","address":"浦东新区惠南镇人民西路955号(近南汇中心医院)"},{"poiid":"B2094757D06AA7F44398","title":"沈家花园(南汇店)","lon":"121.71406","lat":"31.03715","category":"47","category_name":"住宅区","address":"浦东新区沪南公路9356弄1号(近南芦公路)"},{"poiid":"B2094757D16EA2F4489F","title":"华山医院附属南汇中心医院","lon":"121.736958022","lat":"31.0592949002","category":"162","category_name":"医院","address":"上海市浦东新区惠南镇拱为路2800号。"},{"poiid":"B2094757D06BA2FC4793","title":"韶梦酒店(南六公路店)","lon":"121.71694","lat":"31.04472","category":"76","category_name":"上海菜","address":"浦东新区南六公路188号(枫丹白露会所旁)"},{"poiid":"B2094655D26DAAFB429C","title":"艺泰安邦花园(南季路)","lon":"121.71056","lat":"31.05892","category":"47","category_name":"住宅区","address":""},{"poiid":"B2094654DB6FA7FD4393","title":"上海南汇工业园区","lon":"121.7153","lat":"31.03392","category":"45","category_name":"产业园区","address":"南汇区沪南公路9458号"},{"poiid":"B2094757D66EA7FC4198","title":"听潮路","lon":"121.742124628","lat":"31.0465143486","category":"500","category_name":"未知分类","address":"上海南汇听潮路"},{"poiid":"B2094654DB6FA0F44892","title":"桃城度假村","lon":"121.71375","lat":"31.03866","category":"215","category_name":"三星级宾馆","address":"上海市浦东新区南汇沪南公路9191号(近南六公路)"},{"poiid":"B2094757D168A0F84698","title":"老宅里农家菜","lon":"121.73727562","lat":"31.047234365","category":"76","category_name":"上海菜","address":"浦东新区惠南镇西门路430号(近大川公路)"},{"poiid":"B2094757D16EA3FD4999","title":"南匯房地產交易中心","lon":"121.74149912","lat":"31.047771377","category":"500","category_name":"未知分类","address":"上海听潮路101弄1号"},{"poiid":"B2094757D06AA7F8439A","title":"艺泰安邦","lon":"121.7142847","lat":"31.0560212","category":"500","category_name":"未知分类","address":"上海南汇区三灶镇南六公路399弄"},{"poiid":"B2094655D265ABF94998","title":"上海野生动物园(正门)","lon":"121.71458","lat":"31.05408","category":"680","category_name":"楼宇机构","address":""},{"poiid":"B2094655D265A7FB499F","title":"上海永达汽车南汇销售服务有限公司","lon":"121.73489","lat":"31.04702","category":"159","category_name":"汽车维修","address":"惠南镇大川公路3099号"},{"poiid":"B2094757D464A7FE439E","title":"沪华海鲜大酒楼 南汇店","lon":"121.71684","lat":"31.0341","category":"76","category_name":"上海菜","address":"浦东新区沪南公路9356弄3-5号汇展国际商务广场"},{"poiid":"B2094757D16DA2FD449C","title":"南美水疗","lon":"121.716122628","lat":"31.0362881135","category":"148","category_name":"美容美发店","address":"上海市浦东新区沪南公路"},{"poiid":"B2094655D265ABFC4992","title":"东方听潮豪园","lon":"121.74175","lat":"31.03713","category":"47","category_name":"住宅区","address":"浦东新区惠南镇听潮南路2号"},{"poiid":"B2094757D164A6F4459A","title":"清风人家(薛家宅店)","lon":"121.71367172","lat":"31.036383115","category":"247","category_name":"餐饮美食","address":"沪南公路9356弄汇展商务广场5幢2楼近南六公路"},{"poiid":"B2094757D66DAAFC4299","title":"观鹤楼大酒店","lon":"121.72323608","lat":"31.051803588","category":"76","category_name":"上海菜","address":"浦东新区三灶镇南六公路178号上海野生动物园内"},{"poiid":"B2094757D164AAF8409B","title":"凯迪枫丹白露","lon":"121.717674","lat":"31.044136","category":"252","category_name":"楼宇机构","address":"上海市浦东新区南六公路188号"},{"poiid":"B2094757D168ABF94099","title":"望湘园","lon":"121.739826628","lat":"31.0343020679","category":"500","category_name":"未知分类","address":"上海市浦东新区迎薰路"},{"poiid":"B2094654DB6FA7FD419C","title":"中新酒家","lon":"121.72158","lat":"31.04977","category":"257","category_name":"中餐厅","address":""},{"poiid":"B2094751D36DA0F5469B","title":"品味千岛湖酒店","lon":"121.73698","lat":"31.04033","category":"76","category_name":"上海菜","address":"浦东新区沪南公路9828号(近莫泰168)"},{"poiid":"B2094655D36CA7FE489D","title":"沪南公路南汇工业园区","lon":"121.72725","lat":"31.03892","category":"38","category_name":"公交车站","address":""},{"poiid":"B2094750D76EAAFA499C","title":"呷哺呷哺(欧尚惠南店)","lon":"121.735","lat":"31.0487","category":"86","category_name":"火锅店","address":"浦东新区惠南镇人民西路955号欧尚超市1楼NH1042号商铺(近大川公路)"},{"poiid":"B2094753D76AA0FC469E","title":"新石器烤肉(南汇欧尚店)","lon":"121.73558","lat":"31.048704","category":"96","category_name":"韩国料理","address":"上海市浦东新区人民西路955号欧尚超市1楼NH1005A室(近大川公路)"},{"poiid":"B2094757D165A7F4419E","title":"味之都欧尚店","lon":"121.735011357","lat":"31.0484225416","category":"68","category_name":"快餐厅","address":"浦东新区人民西路955号欧尚超市大门旁(近大川公路)"},{"poiid":"B2094757D168AAFE479C","title":"汇展国际商务","lon":"121.716978","lat":"31.037392","category":"500","category_name":"未知分类","address":"上海沪南公路薛家宅"},{"poiid":"B2094655D26FA2F4419B","title":"85度C(南汇欧尚店)","lon":"121.73654","lat":"31.04921","category":"112","category_name":"糕饼店","address":"浦东新区惠南镇人民西路955号欧尚(近大川公路)"},{"poiid":"B209475CD76EA2FA4293","title":"上海野生动物园","lon":"121.725975","lat":"31.052228","category":"500","category_name":"未知分类","address":"上海市 上海浦东南汇"},{"poiid":"B2094757D568A4FE4693","title":"金丝猴岛","lon":"121.718678","lat":"31.052376","category":"607","category_name":"一般景点","address":"中国上海市浦东新区"},{"poiid":"B2094654DB6FA7FE449B","title":"陶桥新村","lon":"121.72039","lat":"31.038071","category":"47","category_name":"住宅区","address":"沪南公路9439弄"},{"poiid":"B2094757D664AAF94892","title":"侬佳蒸菜馆","lon":"121.742072054","lat":"31.053287793","category":"76","category_name":"上海菜","address":"浦东新区惠南镇听潮路555号(拱极路口)"},{"poiid":"B2094757D464A7FE4498","title":"清风人家 汇展店 Chinfond Teahouse","lon":"121.716487","lat":"31.037743","category":"260","category_name":"其他","address":"浦东新区沪南公路9356弄汇展国际5幢2楼(近南芦公路)"},{"poiid":"B2094757D16EA0FF4899","title":"西门锦绣苑(西苑)","lon":"121.736051218","lat":"31.0469211279","category":"47","category_name":"住宅区","address":"上海市浦东新区惠南镇西门路588弄"},{"poiid":"B2094757D06AAAFF409A","title":"南汇工业园区","lon":"121.72476069","lat":"31.035806478","category":"252","category_name":"楼宇机构","address":"上海园中路"},{"poiid":"B2094757D568A4FC429F","title":"肯德基(西乐路)","lon":"121.73516059","lat":"31.04866509","category":"68","category_name":"快餐厅","address":"中国上海市浦东新区"},{"poiid":"B2094654DB64A5F44098","title":"水利大楼","lon":"121.73428","lat":"31.03998","category":"46","category_name":"楼宇","address":"沪南公路9800"},{"poiid":"B2094655D36DA2FC479F","title":"旧盐港桥","lon":"121.72996","lat":"31.03955","category":"250","category_name":"公园户外","address":""},{"poiid":"B2094654DB69A7FA4199","title":"九九别墅","lon":"121.71282","lat":"31.04402","category":"47","category_name":"住宅区","address":"上海市南汇区南六公路99弄"},{"poiid":"B2094655D36DA0FF469B","title":"薛家宅","lon":"121.71679","lat":"31.03732","category":"38","category_name":"公交车站","address":""},{"poiid":"B2094655D265A7FF459E","title":"复旦大学附属华山医院南汇分院","lon":"121.73746","lat":"31.05832","category":"162","category_name":"医院","address":"惠南镇拱为路2800号"},{"poiid":"B2094757D568A1FD499A","title":"火烈鸟生态区","lon":"121.718136","lat":"31.055163","category":"197","category_name":"动物园","address":"中国上海市浦东新区"},{"poiid":"B2094757D169AAF9409D","title":"爱西西里 上海野生动物园店","lon":"121.72226235","lat":"31.05508569","category":"500","category_name":"未知分类","address":"上海市浦东新区南六公路"},{"poiid":"B2094655D26FA3F54293","title":"兰州正宗牛肉拉面","lon":"121.71827","lat":"31.03751","category":"90","category_name":"清真餐馆","address":""},{"poiid":"B2094757D16DA4F9419F","title":"南汇中心医院输液大厅","lon":"121.73567635","lat":"31.059474289","category":"162","category_name":"医院","address":"上海拱为路"},{"poiid":"B2094655D26DA6FD4999","title":"桃源花苑一区(南六公路)","lon":"121.71185","lat":"31.04637","category":"47","category_name":"住宅区","address":"南六公路99弄17支弄1-131号"},{"poiid":"B2094654DB69A4FE4293","title":"莫泰168连锁旅店(南汇惠南店)","lon":"121.73721","lat":"31.04022","category":"216","category_name":"经济型连锁酒店","address":"浦东新区沪南公路9830号"},{"poiid":"B2094655D36DA1FB4592","title":"西乐路人民西路","lon":"121.73675","lat":"31.04913","category":"38","category_name":"公交车站","address":""},{"poiid":"B2094654DB6FA0F4499E","title":"上海野生动物园","lon":"121.712745","lat":"31.061231","category":"68","category_name":"快餐厅","address":"上海市南汇区南六公路178号"},{"poiid":"B2094757D06EABF5479E","title":"南汇区中心医院","lon":"121.73745267","lat":"31.05833135","category":"162","category_name":"医院","address":"浦东新区惠南镇拱为路2800号"},{"poiid":"B2094757D068A2FC449B","title":"欧尚(南汇店)","lon":"121.7353084","lat":"31.049049949","category":"118","category_name":"超级市场","address":"浦东新区惠南镇人民西路955号(近南汇中心医院)"},{"poiid":"B2094757D06AA7F44398","title":"沈家花园(南汇店)","lon":"121.71406","lat":"31.03715","category":"47","category_name":"住宅区","address":"浦东新区沪南公路9356弄1号(近南芦公路)"},{"poiid":"B2094757D16EA2F4489F","title":"华山医院附属南汇中心医院","lon":"121.736958022","lat":"31.0592949002","category":"162","category_name":"医院","address":"上海市浦东新区惠南镇拱为路2800号。"},{"poiid":"B2094757D06BA2FC4793","title":"韶梦酒店(南六公路店)","lon":"121.71694","lat":"31.04472","category":"76","category_name":"上海菜","address":"浦东新区南六公路188号(枫丹白露会所旁)"},{"poiid":"B2094655D26DAAFB429C","title":"艺泰安邦花园(南季路)","lon":"121.71056","lat":"31.05892","category":"47","category_name":"住宅区","address":""},{"poiid":"B2094654DB6FA7FD4393","title":"上海南汇工业园区","lon":"121.7153","lat":"31.03392","category":"45","category_name":"产业园区","address":"南汇区沪南公路9458号"},{"poiid":"B2094757D66EA7FC4198","title":"听潮路","lon":"121.742124628","lat":"31.0465143486","category":"500","category_name":"未知分类","address":"上海南汇听潮路"},{"poiid":"B2094654DB6FA0F44892","title":"桃城度假村","lon":"121.71375","lat":"31.03866","category":"215","category_name":"三星级宾馆","address":"上海市浦东新区南汇沪南公路9191号(近南六公路)"},{"poiid":"B2094757D168A0F84698","title":"老宅里农家菜","lon":"121.73727562","lat":"31.047234365","category":"76","category_name":"上海菜","address":"浦东新区惠南镇西门路430号(近大川公路)"},{"poiid":"B2094757D16EA3FD4999","title":"南匯房地產交易中心","lon":"121.74149912","lat":"31.047771377","category":"500","category_name":"未知分类","address":"上海听潮路101弄1号"},{"poiid":"B2094757D06AA7F8439A","title":"艺泰安邦","lon":"121.7142847","lat":"31.0560212","category":"500","category_name":"未知分类","address":"上海南汇区三灶镇南六公路399弄"},{"poiid":"B2094655D265ABF94998","title":"上海野生动物园(正门)","lon":"121.71458","lat":"31.05408","category":"680","category_name":"楼宇机构","address":""},{"poiid":"B2094655D265A7FB499F","title":"上海永达汽车南汇销售服务有限公司","lon":"121.73489","lat":"31.04702","category":"159","category_name":"汽车维修","address":"惠南镇大川公路3099号"},{"poiid":"B2094757D464A7FE439E","title":"沪华海鲜大酒楼 南汇店","lon":"121.71684","lat":"31.0341","category":"76","category_name":"上海菜","address":"浦东新区沪南公路9356弄3-5号汇展国际商务广场"},{"poiid":"B2094757D16DA2FD449C","title":"南美水疗","lon":"121.716122628","lat":"31.0362881135","category":"148","category_name":"美容美发店","address":"上海市浦东新区沪南公路"},{"poiid":"B2094655D265ABFC4992","title":"东方听潮豪园","lon":"121.74175","lat":"31.03713","category":"47","category_name":"住宅区","address":"浦东新区惠南镇听潮南路2号"},{"poiid":"B2094757D164A6F4459A","title":"清风人家(薛家宅店)","lon":"121.71367172","lat":"31.036383115","category":"247","category_name":"餐饮美食","address":"沪南公路9356弄汇展商务广场5幢2楼近南六公路"},{"poiid":"B2094757D66DAAFC4299","title":"观鹤楼大酒店","lon":"121.72323608","lat":"31.051803588","category":"76","category_name":"上海菜","address":"浦东新区三灶镇南六公路178号上海野生动物园内"},{"poiid":"B2094757D164AAF8409B","title":"凯迪枫丹白露","lon":"121.717674","lat":"31.044136","category":"252","category_name":"楼宇机构","address":"上海市浦东新区南六公路188号"},{"poiid":"B2094757D168ABF94099","title":"望湘园","lon":"121.739826628","lat":"31.0343020679","category":"500","category_name":"未知分类","address":"上海市浦东新区迎薰路"},{"poiid":"B2094654DB6FA7FD419C","title":"中新酒家","lon":"121.72158","lat":"31.04977","category":"257","category_name":"中餐厅","address":""},{"poiid":"B2094751D36DA0F5469B","title":"品味千岛湖酒店","lon":"121.73698","lat":"31.04033","category":"76","category_name":"上海菜","address":"浦东新区沪南公路9828号(近莫泰168)"},{"poiid":"B2094655D36CA7FE489D","title":"沪南公路南汇工业园区","lon":"121.72725","lat":"31.03892","category":"38","category_name":"公交车站","address":""},{"poiid":"B2094750D76EAAFA499C","title":"呷哺呷哺(欧尚惠南店)","lon":"121.735","lat":"31.0487","category":"86","category_name":"火锅店","address":"浦东新区惠南镇人民西路955号欧尚超市1楼NH1042号商铺(近大川公路)"},{"poiid":"B2094753D76AA0FC469E","title":"新石器烤肉(南汇欧尚店)","lon":"121.73558","lat":"31.048704","category":"96","category_name":"韩国料理","address":"上海市浦东新区人民西路955号欧尚超市1楼NH1005A室(近大川公路)"},{"poiid":"B2094757D165A7F4419E","title":"味之都欧尚店","lon":"121.735011357","lat":"31.0484225416","category":"68","category_name":"快餐厅","address":"浦东新区人民西路955号欧尚超市大门旁(近大川公路)"},{"poiid":"B2094757D168AAFE479C","title":"汇展国际商务","lon":"121.716978","lat":"31.037392","category":"500","category_name":"未知分类","address":"上海沪南公路薛家宅"},{"poiid":"B2094655D26FA2F4419B","title":"85度C(南汇欧尚店)","lon":"121.73654","lat":"31.04921","category":"112","category_name":"糕饼店","address":"浦东新区惠南镇人民西路955号欧尚(近大川公路)"},{"poiid":"B209475CD76EA2FA4293","title":"上海野生动物园","lon":"121.725975","lat":"31.052228","category":"500","category_name":"未知分类","address":"上海市 上海浦东南汇"},{"poiid":"B2094757D568A4FE4693","title":"金丝猴岛","lon":"121.718678","lat":"31.052376","category":"607","category_name":"一般景点","address":"中国上海市浦东新区"},{"poiid":"B2094654DB6FA7FE449B","title":"陶桥新村","lon":"121.72039","lat":"31.038071","category":"47","category_name":"住宅区","address":"沪南公路9439弄"},{"poiid":"B2094757D664AAF94892","title":"侬佳蒸菜馆","lon":"121.742072054","lat":"31.053287793","category":"76","category_name":"上海菜","address":"浦东新区惠南镇听潮路555号(拱极路口)"},{"poiid":"B2094757D464A7FE4498","title":"清风人家 汇展店 Chinfond Teahouse","lon":"121.716487","lat":"31.037743","category":"260","category_name":"其他","address":"浦东新区沪南公路9356弄汇展国际5幢2楼(近南芦公路)"},{"poiid":"B2094757D16EA0FF4899","title":"西门锦绣苑(西苑)","lon":"121.736051218","lat":"31.0469211279","category":"47","category_name":"住宅区","address":"上海市浦东新区惠南镇西门路588弄"},{"poiid":"B2094757D06AAAFF409A","title":"南汇工业园区","lon":"121.72476069","lat":"31.035806478","category":"252","category_name":"楼宇机构","address":"上海园中路"},{"poiid":"B2094757D568A4FC429F","title":"肯德基(西乐路)","lon":"121.73516059","lat":"31.04866509","category":"68","category_name":"快餐厅","address":"中国上海市浦东新区"},{"poiid":"B2094654DB64A5F44098","title":"水利大楼","lon":"121.73428","lat":"31.03998","category":"46","category_name":"楼宇","address":"沪南公路9800"},{"poiid":"B2094655D36DA2FC479F","title":"旧盐港桥","lon":"121.72996","lat":"31.03955","category":"250","category_name":"公园户外","address":""},{"poiid":"B2094654DB69A7FA4199","title":"九九别墅","lon":"121.71282","lat":"31.04402","category":"47","category_name":"住宅区","address":"上海市南汇区南六公路99弄"},{"poiid":"B2094655D36DA0FF469B","title":"薛家宅","lon":"121.71679","lat":"31.03732","category":"38","category_name":"公交车站","address":""},{"poiid":"B2094655D265A7FF459E","title":"复旦大学附属华山医院南汇分院","lon":"121.73746","lat":"31.05832","category":"162","category_name":"医院","address":"惠南镇拱为路2800号"},{"poiid":"B2094757D568A1FD499A","title":"火烈鸟生态区","lon":"121.718136","lat":"31.055163","category":"197","category_name":"动物园","address":"中国上海市浦东新区"},{"poiid":"B2094757D169AAF9409D","title":"爱西西里 上海野生动物园店","lon":"121.72226235","lat":"31.05508569","category":"500","category_name":"未知分类","address":"上海市浦东新区南六公路"},{"poiid":"B2094655D26FA3F54293","title":"兰州正宗牛肉拉面","lon":"121.71827","lat":"31.03751","category":"90","category_name":"清真餐馆","address":""},{"poiid":"B2094757D16DA4F9419F","title":"南汇中心医院输液大厅","lon":"121.73567635","lat":"31.059474289","category":"162","category_name":"医院","address":"上海拱为路"},{"poiid":"B2094655D26DA6FD4999","title":"桃源花苑一区(南六公路)","lon":"121.71185","lat":"31.04637","category":"47","category_name":"住宅区","address":"南六公路99弄17支弄1-131号"},{"poiid":"B2094654DB69A4FE4293","title":"莫泰168连锁旅店(南汇惠南店)","lon":"121.73721","lat":"31.04022","category":"216","category_name":"经济型连锁酒店","address":"浦东新区沪南公路9830号"},{"poiid":"B2094655D36DA1FB4592","title":"西乐路人民西路","lon":"121.73675","lat":"31.04913","category":"38","category_name":"公交车站","address":""}]