[{"poiid":"B2094757D06FA2F84498","title":"上海兴荣温德姆酒店","lon":"121.53912567915063","lat":"31.26011215378175","category":"76","category_name":"上海菜","address":"杨浦区宁国路25号兴荣温德姆酒店(近杭州路)"},{"poiid":"B2094757D06FA3FF4298","title":"上海兴荣温德姆至尊豪廷酒店","lon":"121.55508","lat":"31.25322","category":"213","category_name":"五星级宾馆","address":"浦东新区浦东大道2288号(万德路口)"},{"poiid":"B2094655D36DA0F94092","title":"杨浦大桥","lon":"121.54012","lat":"31.26137","category":"38","category_name":"公交车站","address":"浦东新区浦东大道2175弄88号(近北洋泾路)"},{"poiid":"B2094757D06FA2F54398","title":"杨浦大桥","lon":"121.545651781","lat":"31.2549775114","category":"260","category_name":"其他","address":"上海杨浦区宁国路-浦东新区罗山路"},{"poiid":"B2094757D06FA5F5439C","title":"上海财经大学附属中学","lon":"121.54641","lat":"31.26655","category":"55","category_name":"中学","address":"杨浦区宁武路151号(近平凉路)"},{"poiid":"B2094757D06FA7FB439C","title":"新新潘晓婷桌球俱乐部","lon":"121.554184","lat":"31.253674","category":"171","category_name":"台球厅","address":"上海浦东大道2311号5楼"},{"poiid":"B2094757D06FA4F44692","title":"杭州路","lon":"121.53958","lat":"31.261819","category":"500","category_name":"未知分类","address":"上海杭州路宁国路"},{"poiid":"B2094757D06FA0F8449F","title":"龙珠广场","lon":"121.557","lat":"31.2563","category":"46","category_name":"楼宇","address":"卫清西路139_149号等"},{"poiid":"B2094654D568A4FB4198","title":"景缘国际酒店","lon":"121.55422","lat":"31.25439","category":"214","category_name":"四星级宾馆","address":"上海市浦东新区浦东大道2333号(近德平路)"},{"poiid":"B2094757DB6EAAFF4692","title":"陆家嘴","lon":"121.5446194763579","lat":"31.25915212902939","category":"247","category_name":"餐饮美食","address":"星巴克"},{"poiid":"B2094753D66BA3FB499F","title":"上海时尚国际中心","lon":"121.546409","lat":"31.263299","category":"500","category_name":"未知分类","address":"上海市 杨树浦路2836号"},{"poiid":"B2094757D069ABFE439E","title":"广东人家","lon":"121.540422054","lat":"31.262050793","category":"68","category_name":"快餐厅","address":"杨浦区周家牌路109弄203号后门(三星路口)"},{"poiid":"B2094654DA69A3F4489C","title":"阳光世界","lon":"121.555","lat":"31.2539","category":"46","category_name":"楼宇","address":"虹口区海宁路,吴淞路口"},{"poiid":"B2094757D068A4F94893","title":"杨树浦路松潘路","lon":"121.540130143","lat":"31.2605108352","category":"260","category_name":"其他","address":"上海杨树浦路松潘路"},{"poiid":"B2094757D568AAFE449C","title":"上海轮渡宁国路渡口","lon":"121.542579","lat":"31.256299","category":"35","category_name":"长途汽车站","address":"宁国南路10号"},{"poiid":"B2094757D06AA6F94799","title":"DQ冰雪皇后(长阳欧尚)","lon":"121.5447781","lat":"31.267579362","category":"247","category_name":"餐饮美食","address":"上海长阳路1750号"},{"poiid":"B2094757D66FA0F8499E","title":"红房子医院","lon":"121.5439571","lat":"31.252780053","category":"162","category_name":"医院","address":"上海眉州路"},{"poiid":"B2094654D56EA7FF409A","title":"海救大楼","lon":"121.544","lat":"31.2615","category":"46","category_name":"楼宇","address":"杨树浦路1426号"},{"poiid":"B2094757DB68A0FD429D","title":"黑马酒吧 Dark House Bar","lon":"121.5509948780889","lat":"31.25457606662349","category":"247","category_name":"餐饮美食","address":"浦东新区浦东大道2402号(近德平路)"},{"poiid":"B2094757D069A5FA449A","title":"摆渡站(宁国路站)","lon":"121.54297","lat":"31.25601","category":"35","category_name":"长途汽车站","address":"杨浦区宁国南路10号"},{"poiid":"B2094654D56FA6FE469A","title":"老北京热气涮羊肉","lon":"121.540374054","lat":"31.261556793","category":"86","category_name":"火锅店","address":"杨浦区松潘路148号(853车站终点站对面)"},{"poiid":"B2094757D16CA2FB429F","title":"杨树浦路临青路","lon":"121.544576103","lat":"31.2627112611","category":"500","category_name":"未知分类","address":"上海杨树浦路1991弄"},{"poiid":"B2094654D56FA6FE489E","title":"丰泰世纪公寓","lon":"121.542213","lat":"31.258724","category":"47","category_name":"住宅区","address":"上海市杨浦区杨树浦路1780号"},{"poiid":"B2094757D06BA7F4499A","title":"滨江创意产业园区","lon":"121.54821","lat":"31.26447","category":"179","category_name":"音乐厅","address":"上海杨浦区杨树浦路2218号(临青路口)  "},{"poiid":"B2094757D06AABFD489B","title":"莫泰168(杨浦大桥店)","lon":"121.55553","lat":"31.25391","category":"500","category_name":"未知分类","address":"上海市浦东大道2330号(近罗山路)"},{"poiid":"B2094655D26DAAFA469F","title":"华忻坊(南门)","lon":"121.54436","lat":"31.26214","category":"47","category_name":"住宅区","address":"杨树浦路1991弄"},{"poiid":"B2094757D16EABFB459A","title":"阿年锅贴","lon":"121.541584803","lat":"31.2599038025","category":"68","category_name":"快餐厅","address":"杨浦区周家牌路94号-5小号(近松潘路)"},{"poiid":"B2094655D26BA7F8409B","title":"依仁里","lon":"121.54404","lat":"31.26186","category":"47","category_name":"住宅区","address":"上海杨树浦路1963弄"},{"poiid":"B2094750D76BA5F5419F","title":"上海浦东新区公利医院","lon":"121.545753","lat":"31.253696","category":"162","category_name":"医院","address":null},{"poiid":"B2094757D469A1FE419F","title":"武氏龙虾","lon":"121.540522","lat":"31.26109","category":"68","category_name":"快餐厅","address":"杨浦区松潘路138号(近杭州路)"},{"poiid":"B2094655D26CA5FA4692","title":"华忻坊","lon":"121.54409","lat":"31.26235","category":"47","category_name":"住宅区","address":"杨树浦路1991弄"},{"poiid":"B2094654DB65A3F94692","title":"白丽大厦","lon":"121.54926","lat":"31.2657","category":"46","category_name":"楼宇","address":"越秀区环市东路362-366号"},{"poiid":"B2094654D56FA6FD499B","title":"上海环球超市公司成和店","lon":"121.54479","lat":"31.26237","category":"117","category_name":"便民商店/便利店","address":"杨浦区杨树浦路2013号(秦皇岛路杨树浦路)"},{"poiid":"B2094757D568A6F94398","title":"富禄里","lon":"121.546081","lat":"31.263814","category":"47","category_name":"住宅区","address":"杨树浦路2125弄1-211号"},{"poiid":"B2094654D56FA6FE419E","title":"上海电气电站设备有限公司电站辅机厂","lon":"121.54341","lat":"31.26058","category":"263","category_name":"公司","address":""},{"poiid":"B2094757D065A7FF499B","title":"歇浦路轮渡站","lon":"121.54695015","lat":"31.252636375","category":"35","category_name":"长途汽车站","address":"上海歇浦路1号"},{"poiid":"B2094757D16EA2F5499A","title":"公交813","lon":"121.5459731","lat":"31.262251251","category":"500","category_name":"未知分类","address":"上海杨浦区松潘路至宝山区友谊路"},{"poiid":"B2094757D069A1FE469F","title":"鼎隆公寓","lon":"121.54582","lat":"31.267815","category":"47","category_name":"住宅区","address":"上海市杨浦区宁武路218弄"},{"poiid":"B2094655D26CA5F9489D","title":"上海滨江创意产业园(北门)","lon":"121.54779","lat":"31.26471","category":"45","category_name":"产业园区","address":"杨树浦路2218"},{"poiid":"B2094655D26CA5FD459D","title":"大德里(西门)","lon":"121.54497","lat":"31.26305","category":"47","category_name":"住宅区","address":"临青路26弄"},{"poiid":"B2094654D56FA6FE4099","title":"上海广德桑拿浴","lon":"121.54463","lat":"31.26134","category":"149","category_name":"洗浴推拿场所","address":""},{"poiid":"B2094655D265A2FD439D","title":"长发里","lon":"121.54288","lat":"31.26071","category":"47","category_name":"住宅区","address":"杨树浦路1877弄1-14号"},{"poiid":"B2094655D26CA5FD439F","title":"上海滨江创意产业园","lon":"121.54797","lat":"31.26447","category":"45","category_name":"产业园区","address":"杨树浦路2218"},{"poiid":"B2094655D265A1F5429D","title":"怡德里","lon":"121.54255","lat":"31.26038","category":"47","category_name":"住宅区","address":"杨树浦路1851弄"},{"poiid":"B2094757D06AA5FB439B","title":"杭州路鸡粥","lon":"121.541143674","lat":"31.2639084426","category":"68","category_name":"快餐厅","address":"杨浦区杭州路(近三星路)"},{"poiid":"B2094655D265A2FD439C","title":"润玉里","lon":"121.54228","lat":"31.26008","category":"47","category_name":"住宅区","address":"杨树浦路1825弄"},{"poiid":"B2094655D36DA0F9429B","title":"杨树浦路宁武路","lon":"121.54852","lat":"31.26553","category":"38","category_name":"公交车站","address":""},{"poiid":"B2094655D36CA3FD4192","title":"志仁里","lon":"121.54434","lat":"31.26295","category":"47","category_name":"住宅区","address":"临青路43弄、75弄"},{"poiid":"B2094757D16BA5FF409D","title":"民生码头","lon":"121.54143815","lat":"31.25883795","category":"500","category_name":"未知分类","address":"上海民生路3号"},{"poiid":"B2094757D06FA2F84498","title":"上海兴荣温德姆酒店","lon":"121.53912567915063","lat":"31.26011215378175","category":"76","category_name":"上海菜","address":"杨浦区宁国路25号兴荣温德姆酒店(近杭州路)"},{"poiid":"B2094757D06FA3FF4298","title":"上海兴荣温德姆至尊豪廷酒店","lon":"121.55508","lat":"31.25322","category":"213","category_name":"五星级宾馆","address":"浦东新区浦东大道2288号(万德路口)"},{"poiid":"B2094655D36DA0F94092","title":"杨浦大桥","lon":"121.54012","lat":"31.26137","category":"38","category_name":"公交车站","address":"浦东新区浦东大道2175弄88号(近北洋泾路)"},{"poiid":"B2094757D06FA2F54398","title":"杨浦大桥","lon":"121.545651781","lat":"31.2549775114","category":"260","category_name":"其他","address":"上海杨浦区宁国路-浦东新区罗山路"},{"poiid":"B2094757D06FA5F5439C","title":"上海财经大学附属中学","lon":"121.54641","lat":"31.26655","category":"55","category_name":"中学","address":"杨浦区宁武路151号(近平凉路)"},{"poiid":"B2094757D06FA7FB439C","title":"新新潘晓婷桌球俱乐部","lon":"121.554184","lat":"31.253674","category":"171","category_name":"台球厅","address":"上海浦东大道2311号5楼"},{"poiid":"B2094757D06FA4F44692","title":"杭州路","lon":"121.53958","lat":"31.261819","category":"500","category_name":"未知分类","address":"上海杭州路宁国路"},{"poiid":"B2094757D06FA0F8449F","title":"龙珠广场","lon":"121.557","lat":"31.2563","category":"46","category_name":"楼宇","address":"卫清西路139_149号等"},{"poiid":"B2094654D568A4FB4198","title":"景缘国际酒店","lon":"121.55422","lat":"31.25439","category":"214","category_name":"四星级宾馆","address":"上海市浦东新区浦东大道2333号(近德平路)"},{"poiid":"B2094757DB6EAAFF4692","title":"陆家嘴","lon":"121.5446194763579","lat":"31.25915212902939","category":"247","category_name":"餐饮美食","address":"星巴克"},{"poiid":"B2094753D66BA3FB499F","title":"上海时尚国际中心","lon":"121.546409","lat":"31.263299","category":"500","category_name":"未知分类","address":"上海市 杨树浦路2836号"},{"poiid":"B2094757D069ABFE439E","title":"广东人家","lon":"121.540422054","lat":"31.262050793","category":"68","category_name":"快餐厅","address":"杨浦区周家牌路109弄203号后门(三星路口)"},{"poiid":"B2094654DA69A3F4489C","title":"阳光世界","lon":"121.555","lat":"31.2539","category":"46","category_name":"楼宇","address":"虹口区海宁路,吴淞路口"},{"poiid":"B2094757D068A4F94893","title":"杨树浦路松潘路","lon":"121.540130143","lat":"31.2605108352","category":"260","category_name":"其他","address":"上海杨树浦路松潘路"},{"poiid":"B2094757D568AAFE449C","title":"上海轮渡宁国路渡口","lon":"121.542579","lat":"31.256299","category":"35","category_name":"长途汽车站","address":"宁国南路10号"},{"poiid":"B2094757D06AA6F94799","title":"DQ冰雪皇后(长阳欧尚)","lon":"121.5447781","lat":"31.267579362","category":"247","category_name":"餐饮美食","address":"上海长阳路1750号"},{"poiid":"B2094757D66FA0F8499E","title":"红房子医院","lon":"121.5439571","lat":"31.252780053","category":"162","category_name":"医院","address":"上海眉州路"},{"poiid":"B2094654D56EA7FF409A","title":"海救大楼","lon":"121.544","lat":"31.2615","category":"46","category_name":"楼宇","address":"杨树浦路1426号"},{"poiid":"B2094757DB68A0FD429D","title":"黑马酒吧 Dark House Bar","lon":"121.5509948780889","lat":"31.25457606662349","category":"247","category_name":"餐饮美食","address":"浦东新区浦东大道2402号(近德平路)"},{"poiid":"B2094757D069A5FA449A","title":"摆渡站(宁国路站)","lon":"121.54297","lat":"31.25601","category":"35","category_name":"长途汽车站","address":"杨浦区宁国南路10号"},{"poiid":"B2094654D56FA6FE469A","title":"老北京热气涮羊肉","lon":"121.540374054","lat":"31.261556793","category":"86","category_name":"火锅店","address":"杨浦区松潘路148号(853车站终点站对面)"},{"poiid":"B2094757D16CA2FB429F","title":"杨树浦路临青路","lon":"121.544576103","lat":"31.2627112611","category":"500","category_name":"未知分类","address":"上海杨树浦路1991弄"},{"poiid":"B2094654D56FA6FE489E","title":"丰泰世纪公寓","lon":"121.542213","lat":"31.258724","category":"47","category_name":"住宅区","address":"上海市杨浦区杨树浦路1780号"},{"poiid":"B2094757D06BA7F4499A","title":"滨江创意产业园区","lon":"121.54821","lat":"31.26447","category":"179","category_name":"音乐厅","address":"上海杨浦区杨树浦路2218号(临青路口)  "},{"poiid":"B2094757D06AABFD489B","title":"莫泰168(杨浦大桥店)","lon":"121.55553","lat":"31.25391","category":"500","category_name":"未知分类","address":"上海市浦东大道2330号(近罗山路)"},{"poiid":"B2094655D26DAAFA469F","title":"华忻坊(南门)","lon":"121.54436","lat":"31.26214","category":"47","category_name":"住宅区","address":"杨树浦路1991弄"},{"poiid":"B2094757D16EABFB459A","title":"阿年锅贴","lon":"121.541584803","lat":"31.2599038025","category":"68","category_name":"快餐厅","address":"杨浦区周家牌路94号-5小号(近松潘路)"},{"poiid":"B2094655D26BA7F8409B","title":"依仁里","lon":"121.54404","lat":"31.26186","category":"47","category_name":"住宅区","address":"上海杨树浦路1963弄"},{"poiid":"B2094750D76BA5F5419F","title":"上海浦东新区公利医院","lon":"121.545753","lat":"31.253696","category":"162","category_name":"医院","address":null},{"poiid":"B2094757D469A1FE419F","title":"武氏龙虾","lon":"121.540522","lat":"31.26109","category":"68","category_name":"快餐厅","address":"杨浦区松潘路138号(近杭州路)"},{"poiid":"B2094655D26CA5FA4692","title":"华忻坊","lon":"121.54409","lat":"31.26235","category":"47","category_name":"住宅区","address":"杨树浦路1991弄"},{"poiid":"B2094654DB65A3F94692","title":"白丽大厦","lon":"121.54926","lat":"31.2657","category":"46","category_name":"楼宇","address":"越秀区环市东路362-366号"},{"poiid":"B2094654D56FA6FD499B","title":"上海环球超市公司成和店","lon":"121.54479","lat":"31.26237","category":"117","category_name":"便民商店/便利店","address":"杨浦区杨树浦路2013号(秦皇岛路杨树浦路)"},{"poiid":"B2094757D568A6F94398","title":"富禄里","lon":"121.546081","lat":"31.263814","category":"47","category_name":"住宅区","address":"杨树浦路2125弄1-211号"},{"poiid":"B2094654D56FA6FE419E","title":"上海电气电站设备有限公司电站辅机厂","lon":"121.54341","lat":"31.26058","category":"263","category_name":"公司","address":""},{"poiid":"B2094757D065A7FF499B","title":"歇浦路轮渡站","lon":"121.54695015","lat":"31.252636375","category":"35","category_name":"长途汽车站","address":"上海歇浦路1号"},{"poiid":"B2094757D16EA2F5499A","title":"公交813","lon":"121.5459731","lat":"31.262251251","category":"500","category_name":"未知分类","address":"上海杨浦区松潘路至宝山区友谊路"},{"poiid":"B2094757D069A1FE469F","title":"鼎隆公寓","lon":"121.54582","lat":"31.267815","category":"47","category_name":"住宅区","address":"上海市杨浦区宁武路218弄"},{"poiid":"B2094655D26CA5F9489D","title":"上海滨江创意产业园(北门)","lon":"121.54779","lat":"31.26471","category":"45","category_name":"产业园区","address":"杨树浦路2218"},{"poiid":"B2094655D26CA5FD459D","title":"大德里(西门)","lon":"121.54497","lat":"31.26305","category":"47","category_name":"住宅区","address":"临青路26弄"},{"poiid":"B2094654D56FA6FE4099","title":"上海广德桑拿浴","lon":"121.54463","lat":"31.26134","category":"149","category_name":"洗浴推拿场所","address":""},{"poiid":"B2094655D265A2FD439D","title":"长发里","lon":"121.54288","lat":"31.26071","category":"47","category_name":"住宅区","address":"杨树浦路1877弄1-14号"},{"poiid":"B2094655D26CA5FD439F","title":"上海滨江创意产业园","lon":"121.54797","lat":"31.26447","category":"45","category_name":"产业园区","address":"杨树浦路2218"},{"poiid":"B2094655D265A1F5429D","title":"怡德里","lon":"121.54255","lat":"31.26038","category":"47","category_name":"住宅区","address":"杨树浦路1851弄"},{"poiid":"B2094757D06AA5FB439B","title":"杭州路鸡粥","lon":"121.541143674","lat":"31.2639084426","category":"68","category_name":"快餐厅","address":"杨浦区杭州路(近三星路)"},{"poiid":"B2094655D265A2FD439C","title":"润玉里","lon":"121.54228","lat":"31.26008","category":"47","category_name":"住宅区","address":"杨树浦路1825弄"},{"poiid":"B2094655D36DA0F9429B","title":"杨树浦路宁武路","lon":"121.54852","lat":"31.26553","category":"38","category_name":"公交车站","address":""},{"poiid":"B2094655D36CA3FD4192","title":"志仁里","lon":"121.54434","lat":"31.26295","category":"47","category_name":"住宅区","address":"临青路43弄、75弄"},{"poiid":"B2094757D16BA5FF409D","title":"民生码头","lon":"121.54143815","lat":"31.25883795","category":"500","category_name":"未知分类","address":"上海民生路3号"},{"poiid":"B2094757D06FA2F84498","title":"上海兴荣温德姆酒店","lon":"121.53912567915063","lat":"31.26011215378175","category":"76","category_name":"上海菜","address":"杨浦区宁国路25号兴荣温德姆酒店(近杭州路)"},{"poiid":"B2094757D06FA3FF4298","title":"上海兴荣温德姆至尊豪廷酒店","lon":"121.55508","lat":"31.25322","category":"213","category_name":"五星级宾馆","address":"浦东新区浦东大道2288号(万德路口)"},{"poiid":"B2094655D36DA0F94092","title":"杨浦大桥","lon":"121.54012","lat":"31.26137","category":"38","category_name":"公交车站","address":"浦东新区浦东大道2175弄88号(近北洋泾路)"},{"poiid":"B2094757D06FA2F54398","title":"杨浦大桥","lon":"121.545651781","lat":"31.2549775114","category":"260","category_name":"其他","address":"上海杨浦区宁国路-浦东新区罗山路"},{"poiid":"B2094757D06FA5F5439C","title":"上海财经大学附属中学","lon":"121.54641","lat":"31.26655","category":"55","category_name":"中学","address":"杨浦区宁武路151号(近平凉路)"},{"poiid":"B2094757D06FA7FB439C","title":"新新潘晓婷桌球俱乐部","lon":"121.554184","lat":"31.253674","category":"171","category_name":"台球厅","address":"上海浦东大道2311号5楼"},{"poiid":"B2094757D06FA4F44692","title":"杭州路","lon":"121.53958","lat":"31.261819","category":"500","category_name":"未知分类","address":"上海杭州路宁国路"},{"poiid":"B2094757D06FA0F8449F","title":"龙珠广场","lon":"121.557","lat":"31.2563","category":"46","category_name":"楼宇","address":"卫清西路139_149号等"},{"poiid":"B2094654D568A4FB4198","title":"景缘国际酒店","lon":"121.55422","lat":"31.25439","category":"214","category_name":"四星级宾馆","address":"上海市浦东新区浦东大道2333号(近德平路)"},{"poiid":"B2094757DB6EAAFF4692","title":"陆家嘴","lon":"121.5446194763579","lat":"31.25915212902939","category":"247","category_name":"餐饮美食","address":"星巴克"},{"poiid":"B2094753D66BA3FB499F","title":"上海时尚国际中心","lon":"121.546409","lat":"31.263299","category":"500","category_name":"未知分类","address":"上海市 杨树浦路2836号"},{"poiid":"B2094757D069ABFE439E","title":"广东人家","lon":"121.540422054","lat":"31.262050793","category":"68","category_name":"快餐厅","address":"杨浦区周家牌路109弄203号后门(三星路口)"},{"poiid":"B2094654DA69A3F4489C","title":"阳光世界","lon":"121.555","lat":"31.2539","category":"46","category_name":"楼宇","address":"虹口区海宁路,吴淞路口"},{"poiid":"B2094757D068A4F94893","title":"杨树浦路松潘路","lon":"121.540130143","lat":"31.2605108352","category":"260","category_name":"其他","address":"上海杨树浦路松潘路"},{"poiid":"B2094757D568AAFE449C","title":"上海轮渡宁国路渡口","lon":"121.542579","lat":"31.256299","category":"35","category_name":"长途汽车站","address":"宁国南路10号"},{"poiid":"B2094757D06AA6F94799","title":"DQ冰雪皇后(长阳欧尚)","lon":"121.5447781","lat":"31.267579362","category":"247","category_name":"餐饮美食","address":"上海长阳路1750号"},{"poiid":"B2094757D66FA0F8499E","title":"红房子医院","lon":"121.5439571","lat":"31.252780053","category":"162","category_name":"医院","address":"上海眉州路"},{"poiid":"B2094654D56EA7FF409A","title":"海救大楼","lon":"121.544","lat":"31.2615","category":"46","category_name":"楼宇","address":"杨树浦路1426号"},{"poiid":"B2094757DB68A0FD429D","title":"黑马酒吧 Dark House Bar","lon":"121.5509948780889","lat":"31.25457606662349","category":"247","category_name":"餐饮美食","address":"浦东新区浦东大道2402号(近德平路)"},{"poiid":"B2094757D069A5FA449A","title":"摆渡站(宁国路站)","lon":"121.54297","lat":"31.25601","category":"35","category_name":"长途汽车站","address":"杨浦区宁国南路10号"},{"poiid":"B2094654D56FA6FE469A","title":"老北京热气涮羊肉","lon":"121.540374054","lat":"31.261556793","category":"86","category_name":"火锅店","address":"杨浦区松潘路148号(853车站终点站对面)"},{"poiid":"B2094757D16CA2FB429F","title":"杨树浦路临青路","lon":"121.544576103","lat":"31.2627112611","category":"500","category_name":"未知分类","address":"上海杨树浦路1991弄"},{"poiid":"B2094654D56FA6FE489E","title":"丰泰世纪公寓","lon":"121.542213","lat":"31.258724","category":"47","category_name":"住宅区","address":"上海市杨浦区杨树浦路1780号"},{"poiid":"B2094757D06BA7F4499A","title":"滨江创意产业园区","lon":"121.54821","lat":"31.26447","category":"179","category_name":"音乐厅","address":"上海杨浦区杨树浦路2218号(临青路口)  "},{"poiid":"B2094757D06AABFD489B","title":"莫泰168(杨浦大桥店)","lon":"121.55553","lat":"31.25391","category":"500","category_name":"未知分类","address":"上海市浦东大道2330号(近罗山路)"},{"poiid":"B2094655D26DAAFA469F","title":"华忻坊(南门)","lon":"121.54436","lat":"31.26214","category":"47","category_name":"住宅区","address":"杨树浦路1991弄"},{"poiid":"B2094757D16EABFB459A","title":"阿年锅贴","lon":"121.541584803","lat":"31.2599038025","category":"68","category_name":"快餐厅","address":"杨浦区周家牌路94号-5小号(近松潘路)"},{"poiid":"B2094655D26BA7F8409B","title":"依仁里","lon":"121.54404","lat":"31.26186","category":"47","category_name":"住宅区","address":"上海杨树浦路1963弄"},{"poiid":"B2094750D76BA5F5419F","title":"上海浦东新区公利医院","lon":"121.545753","lat":"31.253696","category":"162","category_name":"医院","address":null},{"poiid":"B2094757D469A1FE419F","title":"武氏龙虾","lon":"121.540522","lat":"31.26109","category":"68","category_name":"快餐厅","address":"杨浦区松潘路138号(近杭州路)"},{"poiid":"B2094655D26CA5FA4692","title":"华忻坊","lon":"121.54409","lat":"31.26235","category":"47","category_name":"住宅区","address":"杨树浦路1991弄"},{"poiid":"B2094654DB65A3F94692","title":"白丽大厦","lon":"121.54926","lat":"31.2657","category":"46","category_name":"楼宇","address":"越秀区环市东路362-366号"},{"poiid":"B2094654D56FA6FD499B","title":"上海环球超市公司成和店","lon":"121.54479","lat":"31.26237","category":"117","category_name":"便民商店/便利店","address":"杨浦区杨树浦路2013号(秦皇岛路杨树浦路)"},{"poiid":"B2094757D568A6F94398","title":"富禄里","lon":"121.546081","lat":"31.263814","category":"47","category_name":"住宅区","address":"杨树浦路2125弄1-211号"},{"poiid":"B2094654D56FA6FE419E","title":"上海电气电站设备有限公司电站辅机厂","lon":"121.54341","lat":"31.26058","category":"263","category_name":"公司","address":""},{"poiid":"B2094757D065A7FF499B","title":"歇浦路轮渡站","lon":"121.54695015","lat":"31.252636375","category":"35","category_name":"长途汽车站","address":"上海歇浦路1号"},{"poiid":"B2094757D16EA2F5499A","title":"公交813","lon":"121.5459731","lat":"31.262251251","category":"500","category_name":"未知分类","address":"上海杨浦区松潘路至宝山区友谊路"},{"poiid":"B2094757D069A1FE469F","title":"鼎隆公寓","lon":"121.54582","lat":"31.267815","category":"47","category_name":"住宅区","address":"上海市杨浦区宁武路218弄"},{"poiid":"B2094655D26CA5F9489D","title":"上海滨江创意产业园(北门)","lon":"121.54779","lat":"31.26471","category":"45","category_name":"产业园区","address":"杨树浦路2218"},{"poiid":"B2094655D26CA5FD459D","title":"大德里(西门)","lon":"121.54497","lat":"31.26305","category":"47","category_name":"住宅区","address":"临青路26弄"},{"poiid":"B2094654D56FA6FE4099","title":"上海广德桑拿浴","lon":"121.54463","lat":"31.26134","category":"149","category_name":"洗浴推拿场所","address":""},{"poiid":"B2094655D265A2FD439D","title":"长发里","lon":"121.54288","lat":"31.26071","category":"47","category_name":"住宅区","address":"杨树浦路1877弄1-14号"},{"poiid":"B2094655D26CA5FD439F","title":"上海滨江创意产业园","lon":"121.54797","lat":"31.26447","category":"45","category_name":"产业园区","address":"杨树浦路2218"},{"poiid":"B2094655D265A1F5429D","title":"怡德里","lon":"121.54255","lat":"31.26038","category":"47","category_name":"住宅区","address":"杨树浦路1851弄"},{"poiid":"B2094757D06AA5FB439B","title":"杭州路鸡粥","lon":"121.541143674","lat":"31.2639084426","category":"68","category_name":"快餐厅","address":"杨浦区杭州路(近三星路)"},{"poiid":"B2094655D265A2FD439C","title":"润玉里","lon":"121.54228","lat":"31.26008","category":"47","category_name":"住宅区","address":"杨树浦路1825弄"},{"poiid":"B2094655D36DA0F9429B","title":"杨树浦路宁武路","lon":"121.54852","lat":"31.26553","category":"38","category_name":"公交车站","address":""},{"poiid":"B2094655D36CA3FD4192","title":"志仁里","lon":"121.54434","lat":"31.26295","category":"47","category_name":"住宅区","address":"临青路43弄、75弄"},{"poiid":"B2094757D16BA5FF409D","title":"民生码头","lon":"121.54143815","lat":"31.25883795","category":"500","category_name":"未知分类","address":"上海民生路3号"},{"poiid":"B2094757D06FA2F84498","title":"上海兴荣温德姆酒店","lon":"121.53912567915063","lat":"31.26011215378175","category":"76","category_name":"上海菜","address":"杨浦区宁国路25号兴荣温德姆酒店(近杭州路)"},{"poiid":"B2094757D06FA3FF4298","title":"上海兴荣温德姆至尊豪廷酒店","lon":"121.55508","lat":"31.25322","category":"213","category_name":"五星级宾馆","address":"浦东新区浦东大道2288号(万德路口)"},{"poiid":"B2094655D36DA0F94092","title":"杨浦大桥","lon":"121.54012","lat":"31.26137","category":"38","category_name":"公交车站","address":"浦东新区浦东大道2175弄88号(近北洋泾路)"},{"poiid":"B2094757D06FA2F54398","title":"杨浦大桥","lon":"121.545651781","lat":"31.2549775114","category":"260","category_name":"其他","address":"上海杨浦区宁国路-浦东新区罗山路"},{"poiid":"B2094757D06FA5F5439C","title":"上海财经大学附属中学","lon":"121.54641","lat":"31.26655","category":"55","category_name":"中学","address":"杨浦区宁武路151号(近平凉路)"},{"poiid":"B2094757D06FA7FB439C","title":"新新潘晓婷桌球俱乐部","lon":"121.554184","lat":"31.253674","category":"171","category_name":"台球厅","address":"上海浦东大道2311号5楼"},{"poiid":"B2094757D06FA4F44692","title":"杭州路","lon":"121.53958","lat":"31.261819","category":"500","category_name":"未知分类","address":"上海杭州路宁国路"},{"poiid":"B2094757D06FA0F8449F","title":"龙珠广场","lon":"121.557","lat":"31.2563","category":"46","category_name":"楼宇","address":"卫清西路139_149号等"},{"poiid":"B2094654D568A4FB4198","title":"景缘国际酒店","lon":"121.55422","lat":"31.25439","category":"214","category_name":"四星级宾馆","address":"上海市浦东新区浦东大道2333号(近德平路)"},{"poiid":"B2094757DB6EAAFF4692","title":"陆家嘴","lon":"121.5446194763579","lat":"31.25915212902939","category":"247","category_name":"餐饮美食","address":"星巴克"},{"poiid":"B2094753D66BA3FB499F","title":"上海时尚国际中心","lon":"121.546409","lat":"31.263299","category":"500","category_name":"未知分类","address":"上海市 杨树浦路2836号"},{"poiid":"B2094757D069ABFE439E","title":"广东人家","lon":"121.540422054","lat":"31.262050793","category":"68","category_name":"快餐厅","address":"杨浦区周家牌路109弄203号后门(三星路口)"},{"poiid":"B2094654DA69A3F4489C","title":"阳光世界","lon":"121.555","lat":"31.2539","category":"46","category_name":"楼宇","address":"虹口区海宁路,吴淞路口"},{"poiid":"B2094757D068A4F94893","title":"杨树浦路松潘路","lon":"121.540130143","lat":"31.2605108352","category":"260","category_name":"其他","address":"上海杨树浦路松潘路"},{"poiid":"B2094757D568AAFE449C","title":"上海轮渡宁国路渡口","lon":"121.542579","lat":"31.256299","category":"35","category_name":"长途汽车站","address":"宁国南路10号"},{"poiid":"B2094757D06AA6F94799","title":"DQ冰雪皇后(长阳欧尚)","lon":"121.5447781","lat":"31.267579362","category":"247","category_name":"餐饮美食","address":"上海长阳路1750号"},{"poiid":"B2094757D66FA0F8499E","title":"红房子医院","lon":"121.5439571","lat":"31.252780053","category":"162","category_name":"医院","address":"上海眉州路"},{"poiid":"B2094654D56EA7FF409A","title":"海救大楼","lon":"121.544","lat":"31.2615","category":"46","category_name":"楼宇","address":"杨树浦路1426号"},{"poiid":"B2094757DB68A0FD429D","title":"黑马酒吧 Dark House Bar","lon":"121.5509948780889","lat":"31.25457606662349","category":"247","category_name":"餐饮美食","address":"浦东新区浦东大道2402号(近德平路)"},{"poiid":"B2094757D069A5FA449A","title":"摆渡站(宁国路站)","lon":"121.54297","lat":"31.25601","category":"35","category_name":"长途汽车站","address":"杨浦区宁国南路10号"},{"poiid":"B2094654D56FA6FE469A","title":"老北京热气涮羊肉","lon":"121.540374054","lat":"31.261556793","category":"86","category_name":"火锅店","address":"杨浦区松潘路148号(853车站终点站对面)"},{"poiid":"B2094757D16CA2FB429F","title":"杨树浦路临青路","lon":"121.544576103","lat":"31.2627112611","category":"500","category_name":"未知分类","address":"上海杨树浦路1991弄"},{"poiid":"B2094654D56FA6FE489E","title":"丰泰世纪公寓","lon":"121.542213","lat":"31.258724","category":"47","category_name":"住宅区","address":"上海市杨浦区杨树浦路1780号"},{"poiid":"B2094757D06BA7F4499A","title":"滨江创意产业园区","lon":"121.54821","lat":"31.26447","category":"179","category_name":"音乐厅","address":"上海杨浦区杨树浦路2218号(临青路口)  "},{"poiid":"B2094757D06AABFD489B","title":"莫泰168(杨浦大桥店)","lon":"121.55553","lat":"31.25391","category":"500","category_name":"未知分类","address":"上海市浦东大道2330号(近罗山路)"},{"poiid":"B2094655D26DAAFA469F","title":"华忻坊(南门)","lon":"121.54436","lat":"31.26214","category":"47","category_name":"住宅区","address":"杨树浦路1991弄"},{"poiid":"B2094757D16EABFB459A","title":"阿年锅贴","lon":"121.541584803","lat":"31.2599038025","category":"68","category_name":"快餐厅","address":"杨浦区周家牌路94号-5小号(近松潘路)"},{"poiid":"B2094655D26BA7F8409B","title":"依仁里","lon":"121.54404","lat":"31.26186","category":"47","category_name":"住宅区","address":"上海杨树浦路1963弄"},{"poiid":"B2094750D76BA5F5419F","title":"上海浦东新区公利医院","lon":"121.545753","lat":"31.253696","category":"162","category_name":"医院","address":null},{"poiid":"B2094757D469A1FE419F","title":"武氏龙虾","lon":"121.540522","lat":"31.26109","category":"68","category_name":"快餐厅","address":"杨浦区松潘路138号(近杭州路)"},{"poiid":"B2094655D26CA5FA4692","title":"华忻坊","lon":"121.54409","lat":"31.26235","category":"47","category_name":"住宅区","address":"杨树浦路1991弄"},{"poiid":"B2094654DB65A3F94692","title":"白丽大厦","lon":"121.54926","lat":"31.2657","category":"46","category_name":"楼宇","address":"越秀区环市东路362-366号"},{"poiid":"B2094654D56FA6FD499B","title":"上海环球超市公司成和店","lon":"121.54479","lat":"31.26237","category":"117","category_name":"便民商店/便利店","address":"杨浦区杨树浦路2013号(秦皇岛路杨树浦路)"},{"poiid":"B2094757D568A6F94398","title":"富禄里","lon":"121.546081","lat":"31.263814","category":"47","category_name":"住宅区","address":"杨树浦路2125弄1-211号"},{"poiid":"B2094654D56FA6FE419E","title":"上海电气电站设备有限公司电站辅机厂","lon":"121.54341","lat":"31.26058","category":"263","category_name":"公司","address":""},{"poiid":"B2094757D065A7FF499B","title":"歇浦路轮渡站","lon":"121.54695015","lat":"31.252636375","category":"35","category_name":"长途汽车站","address":"上海歇浦路1号"},{"poiid":"B2094757D16EA2F5499A","title":"公交813","lon":"121.5459731","lat":"31.262251251","category":"500","category_name":"未知分类","address":"上海杨浦区松潘路至宝山区友谊路"},{"poiid":"B2094757D069A1FE469F","title":"鼎隆公寓","lon":"121.54582","lat":"31.267815","category":"47","category_name":"住宅区","address":"上海市杨浦区宁武路218弄"},{"poiid":"B2094655D26CA5F9489D","title":"上海滨江创意产业园(北门)","lon":"121.54779","lat":"31.26471","category":"45","category_name":"产业园区","address":"杨树浦路2218"},{"poiid":"B2094655D26CA5FD459D","title":"大德里(西门)","lon":"121.54497","lat":"31.26305","category":"47","category_name":"住宅区","address":"临青路26弄"},{"poiid":"B2094654D56FA6FE4099","title":"上海广德桑拿浴","lon":"121.54463","lat":"31.26134","category":"149","category_name":"洗浴推拿场所","address":""},{"poiid":"B2094655D265A2FD439D","title":"长发里","lon":"121.54288","lat":"31.26071","category":"47","category_name":"住宅区","address":"杨树浦路1877弄1-14号"},{"poiid":"B2094655D26CA5FD439F","title":"上海滨江创意产业园","lon":"121.54797","lat":"31.26447","category":"45","category_name":"产业园区","address":"杨树浦路2218"},{"poiid":"B2094655D265A1F5429D","title":"怡德里","lon":"121.54255","lat":"31.26038","category":"47","category_name":"住宅区","address":"杨树浦路1851弄"},{"poiid":"B2094757D06AA5FB439B","title":"杭州路鸡粥","lon":"121.541143674","lat":"31.2639084426","category":"68","category_name":"快餐厅","address":"杨浦区杭州路(近三星路)"},{"poiid":"B2094655D265A2FD439C","title":"润玉里","lon":"121.54228","lat":"31.26008","category":"47","category_name":"住宅区","address":"杨树浦路1825弄"},{"poiid":"B2094655D36DA0F9429B","title":"杨树浦路宁武路","lon":"121.54852","lat":"31.26553","category":"38","category_name":"公交车站","address":""},{"poiid":"B2094655D36CA3FD4192","title":"志仁里","lon":"121.54434","lat":"31.26295","category":"47","category_name":"住宅区","address":"临青路43弄、75弄"},{"poiid":"B2094757D16BA5FF409D","title":"民生码头","lon":"121.54143815","lat":"31.25883795","category":"500","category_name":"未知分类","address":"上海民生路3号"}]