[{"poiid":"B2094654DB69A0FA449B","title":"萤七人间 People seven","lon":"121.45002676183","lat":"31.219220560138","category":"257","category_name":"中餐厅","address":"巨鹿路805号近富民路"},{"poiid":"B2094654DB69A0FA449C","title":"椰香天堂泰国料理","lon":"121.44991","lat":"31.22092","category":"99","category_name":"泰国／越南菜品餐厅","address":"静安区富民路38号(近延安中路)"},{"poiid":"B2094757D06FA3FB419F","title":"窩","lon":"121.44984693","lat":"31.220437979","category":"65","category_name":"咖啡厅","address":"静安区巨鹿路786弄66号1楼(近富民路)"},{"poiid":"B2094753D76FAAFA449C","title":"上海滩国泰旗舰店","lon":"121.466011","lat":"31.216125","category":"249","category_name":"购物服务","address":"淮海中路868号"},{"poiid":"B209475CD564A7F84292","title":"上海滩新天地店","lon":"121.47463","lat":"31.22164","category":"119","category_name":"商场","address":"\"太仓路181弄新天地北里15号\r\n\""},{"poiid":"B209475CD564A7F8439E","title":"上海滩中信泰富店","lon":"121.45602","lat":"31.22851","category":"119","category_name":"商场","address":"\"南京西路1168号中信泰富广场，店铺号221.\r\n\""},{"poiid":"B2094757D06FA0F44593","title":"柒寿司(富民路店)","lon":"121.45014813109981","lat":"31.221289026267844","category":"95","category_name":"日本料理","address":"上海静安寺富民路51号"},{"poiid":"B2094757D068A7FA4698","title":"Dr. Beer","lon":"121.450329386","lat":"31.2207334453","category":"500","category_name":"未知分类","address":"上海市富民路80号(巨鹿路)"},{"poiid":"B2094757D569A3F9469A","title":"香格里拉大酒店(上海静安嘉里中心店)","lon":"121.45073378","lat":"31.22310384","category":"251","category_name":"出行住宿","address":"中国上海市静安区铜仁路"},{"poiid":"B2094757D06FA3FE489A","title":"南麓.浙里","lon":"121.45108","lat":"31.21981","category":"76","category_name":"上海菜","address":"静安区巨鹿路768号巨富大厦2楼(近富民路)"},{"poiid":"B2094654D564ABFA4693","title":"辉哥火锅","lon":"121.45095","lat":"31.2199","category":"86","category_name":"火锅店","address":"静安区巨鹿路795号(近富民路)"},{"poiid":"B2094757D06FABFA459A","title":"dr.wine","lon":"121.45114394","lat":"31.219256726","category":"65","category_name":"咖啡厅","address":"上海富民路177号(近巨鹿路)"},{"poiid":"B2094757D16DA2F5419F","title":"泰籽","lon":"121.450883586","lat":"31.2201752344","category":"99","category_name":"泰国／越南菜品餐厅","address":"静安区巨鹿路768号巨富大厦G楼A-B室(近富民路)"},{"poiid":"B2094757D06FA5FC4199","title":"HOME'S私房菜","lon":"121.45154","lat":"31.2196","category":"76","category_name":"上海菜","address":"静安区巨鹿路791号(近富民路)"},{"poiid":"B2094757D06FA5FC489D","title":"Le Creme Milano(富民路店)","lon":"121.451104","lat":"31.219465","category":"67","category_name":"甜品店","address":"静安区富民路173号(富民路巨鹿路)"},{"poiid":"B2094757D06FAAFD459F","title":"Pho Asia","lon":"121.450447","lat":"31.220718","category":"99","category_name":"泰国／越南菜品餐厅","address":"静安区富民路85号巨富大厦(近巨鹿路)"},{"poiid":"B2094757D465A3FD4699","title":"阿毛餐厅 富民路店","lon":"121.45041531544","lat":"31.219963834542","category":"247","category_name":"餐饮美食","address":"静安区富民路98号(近巨鹿路)"},{"poiid":"B2094751D56EA0F9489D","title":"Antoni Restaurant","lon":"121.4503","lat":"31.21974","category":"94","category_name":"西餐厅","address":"静安区巨鹿路794号(近富民路)"},{"poiid":"B2094655D26DABF4499E","title":"上海展览中心(5号门)","lon":"121.45153","lat":"31.22291","category":"183","category_name":"展览馆","address":""},{"poiid":"B2094757D068ABF4459C","title":"香港肥杜火锅","lon":"121.45016495","lat":"31.220844179","category":"86","category_name":"火锅店","address":"静安区富民路85号巨富大厦1楼(近巨鹿路)"},{"poiid":"B2094757D064A6F54998","title":"Juice","lon":"121.450010586","lat":"31.2197952269","category":"141","category_name":"服装鞋帽皮具店","address":"上海市静安区巨鹿路832号"},{"poiid":"B2094757D068A4FB419A","title":"富民路巨鹿路","lon":"121.45020024","lat":"31.221579561","category":"260","category_name":"其他","address":"上海静安区富民路巨鹿路口"},{"poiid":"B2094757D069A6FB4599","title":"The PULI Hotel and Spa","lon":"121.45246887","lat":"31.220787048","category":"500","category_name":"未知分类","address":"上海常德路1号"},{"poiid":"B2094757D66DA5FF4798","title":"苏浙汇","lon":"121.44903058","lat":"31.221403258","category":"500","category_name":"未知分类","address":"上海延安西路"},{"poiid":"B2094757D06FA5F9459C","title":"JA Cafe (静安公园内)","lon":"121.4465","lat":"31.22271","category":"260","category_name":"其他","address":"静安区南京西路1649号静安公园内(近静安公园)"},{"poiid":"B2094757D16AA7FC439F","title":"莹七餐厅","lon":"121.449147586","lat":"31.221130253","category":"500","category_name":"未知分类","address":"上海巨鹿路805号"},{"poiid":"B2094757D068A4FF439D","title":"BALI LAGUNA","lon":"121.45022583","lat":"31.219125747","category":"172","category_name":"酒吧","address":"上海静安区南京西路1649号(静安公园内)"},{"poiid":"B2094757D069A5FC499B","title":"翠华","lon":"121.44918058","lat":"31.221185254","category":"249","category_name":"购物服务","address":"上海静安区华山路"},{"poiid":"B2094757D465A6F44093","title":"董大师金牌稻香蛙 延安中路店","lon":"121.452610054","lat":"31.222697793","category":"71","category_name":"四川菜","address":"静安区延安中路917号(近铜仁路)"},{"poiid":"B2094757D16DA3FC469C","title":"喫茶去茶社ZEN TEA ROOM","lon":"121.45004866","lat":"31.2195266501","category":"247","category_name":"餐饮美食","address":"上海卢湾区巨鹿路796号(近富民路)"},{"poiid":"B2094757D069A7F84998","title":"Q太郎","lon":"121.45101065","lat":"31.219166647","category":"95","category_name":"日本料理","address":"静安区富民路158号(近巨鹿路)"},{"poiid":"B2094757D065A3FA459D","title":"coconut paradise","lon":"121.449070586","lat":"31.2214652596","category":"500","category_name":"未知分类","address":"上海市静安区富民路38号近巨鹿路"},{"poiid":"B209475DD66DA4FA449D","title":"极食","lon":"121.452423","lat":"31.223312","category":"247","category_name":"餐饮美食","address":"上海市 静安区芮欧百货5楼"},{"poiid":"B2094750DA6AA6FF429E","title":"Le Bistro du Dr wine","lon":"121.451011","lat":"31.219398","category":"94","category_name":"西餐厅","address":"静安区富民路177号(近巨鹿路)"},{"poiid":"B2094654DA6CA0FD4999","title":"上海展览中心(4号门)","lon":"121.45215","lat":"31.22304","category":"183","category_name":"展览馆","address":"延安中路1000"},{"poiid":"B2094757D169A0F84593","title":"一哥火锅","lon":"121.449226586","lat":"31.2211502534","category":"247","category_name":"餐饮美食","address":"上海市静安区华山路"},{"poiid":"B2094757D16DA1F5419A","title":"延安高架","lon":"121.45033958","lat":"31.222230274","category":"500","category_name":"未知分类","address":"上海市静安区"},{"poiid":"B2094757D069A2FF4599","title":"华东模范中学","lon":"121.4503","lat":"31.22113","category":"55","category_name":"中学","address":"静安区富民路43号(富民路延安中路)"},{"poiid":"B2094757D068A5FF409D","title":"阿毛酒家","lon":"121.45116153","lat":"31.220067263","category":"247","category_name":"餐饮美食","address":"上海富民路98号(巨鹿路)"},{"poiid":"B2094757D56CA0F9499B","title":"B Real","lon":"121.451317","lat":"31.219085","category":"99","category_name":"泰国／越南菜品餐厅","address":"静安区富民路185号"},{"poiid":"B2094655D26EA6F4449A","title":"尼泊尔餐厅","lon":"121.45008","lat":"31.21929","category":"102","category_name":"印度风味","address":"静安区巨鹿路819弄4号"},{"poiid":"B2094654D564ABFA479A","title":"汇元坊","lon":"121.45104","lat":"31.21995","category":"76","category_name":"上海菜","address":"静安区巨鹿路793号(近富民路)"},{"poiid":"B2094654D564ABFB419A","title":"上海市逸夫职业技术学校","lon":"121.45275","lat":"31.22134","category":"54","category_name":"职业技术学校","address":"静安区巨鹿路700号"},{"poiid":"B2094750DA68A4F54699","title":"PAPAYA BAR","lon":"121.451171","lat":"31.219129","category":"260","category_name":"其他","address":"静安区富民路185号(近巨鹿路)"},{"poiid":"B2094757D16FA7FA409E","title":"嘉里中心二期(Kerry Center Phase II)","lon":"121.453365586","lat":"31.2214142586","category":"46","category_name":"楼宇","address":"上海静安区常德路安义路"},{"poiid":"B2094753DA68A2F54393","title":"七條","lon":"121.451377","lat":"31.221981","category":"500","category_name":"未知分类","address":"上海市 芮欧百货B2"},{"poiid":"B2094757D16DABFA4399","title":"玛雅","lon":"121.45352","lat":"31.22093","category":"94","category_name":"西餐厅","address":"静安区巨鹿路568弄四方新城俱乐部2楼(近襄阳北路)"},{"poiid":"B2094757D16AA1FD4398","title":"厚味香辣馆","lon":"121.449156586","lat":"31.2211242529","category":"247","category_name":"餐饮美食","address":"上海市静安区静安寺"},{"poiid":"B2094757D568A4FC4592","title":"诚居酒屋","lon":"121.4511639","lat":"31.21935611","category":"95","category_name":"日本料理","address":"静安区富民路177号(近巨鹿路)"},{"poiid":"B2094757D06BA4FD4099","title":"长鑫大厦","lon":"121.449","lat":"31.2213","category":"46","category_name":"楼宇","address":"上海市徐汇区长乐路1219号"},{"poiid":"B2094654DB69A0FA449B","title":"萤七人间 People seven","lon":"121.45002676183","lat":"31.219220560138","category":"257","category_name":"中餐厅","address":"巨鹿路805号近富民路"},{"poiid":"B2094654DB69A0FA449C","title":"椰香天堂泰国料理","lon":"121.44991","lat":"31.22092","category":"99","category_name":"泰国／越南菜品餐厅","address":"静安区富民路38号(近延安中路)"},{"poiid":"B2094757D06FA3FB419F","title":"窩","lon":"121.44984693","lat":"31.220437979","category":"65","category_name":"咖啡厅","address":"静安区巨鹿路786弄66号1楼(近富民路)"},{"poiid":"B2094753D76FAAFA449C","title":"上海滩国泰旗舰店","lon":"121.466011","lat":"31.216125","category":"249","category_name":"购物服务","address":"淮海中路868号"},{"poiid":"B209475CD564A7F84292","title":"上海滩新天地店","lon":"121.47463","lat":"31.22164","category":"119","category_name":"商场","address":"\"太仓路181弄新天地北里15号\r\n\""},{"poiid":"B209475CD564A7F8439E","title":"上海滩中信泰富店","lon":"121.45602","lat":"31.22851","category":"119","category_name":"商场","address":"\"南京西路1168号中信泰富广场，店铺号221.\r\n\""},{"poiid":"B2094757D06FA0F44593","title":"柒寿司(富民路店)","lon":"121.45014813109981","lat":"31.221289026267844","category":"95","category_name":"日本料理","address":"上海静安寺富民路51号"},{"poiid":"B2094757D068A7FA4698","title":"Dr. Beer","lon":"121.450329386","lat":"31.2207334453","category":"500","category_name":"未知分类","address":"上海市富民路80号(巨鹿路)"},{"poiid":"B2094757D569A3F9469A","title":"香格里拉大酒店(上海静安嘉里中心店)","lon":"121.45073378","lat":"31.22310384","category":"251","category_name":"出行住宿","address":"中国上海市静安区铜仁路"},{"poiid":"B2094757D06FA3FE489A","title":"南麓.浙里","lon":"121.45108","lat":"31.21981","category":"76","category_name":"上海菜","address":"静安区巨鹿路768号巨富大厦2楼(近富民路)"},{"poiid":"B2094654D564ABFA4693","title":"辉哥火锅","lon":"121.45095","lat":"31.2199","category":"86","category_name":"火锅店","address":"静安区巨鹿路795号(近富民路)"},{"poiid":"B2094757D06FABFA459A","title":"dr.wine","lon":"121.45114394","lat":"31.219256726","category":"65","category_name":"咖啡厅","address":"上海富民路177号(近巨鹿路)"},{"poiid":"B2094757D16DA2F5419F","title":"泰籽","lon":"121.450883586","lat":"31.2201752344","category":"99","category_name":"泰国／越南菜品餐厅","address":"静安区巨鹿路768号巨富大厦G楼A-B室(近富民路)"},{"poiid":"B2094757D06FA5FC4199","title":"HOME'S私房菜","lon":"121.45154","lat":"31.2196","category":"76","category_name":"上海菜","address":"静安区巨鹿路791号(近富民路)"},{"poiid":"B2094757D06FA5FC489D","title":"Le Creme Milano(富民路店)","lon":"121.451104","lat":"31.219465","category":"67","category_name":"甜品店","address":"静安区富民路173号(富民路巨鹿路)"},{"poiid":"B2094757D06FAAFD459F","title":"Pho Asia","lon":"121.450447","lat":"31.220718","category":"99","category_name":"泰国／越南菜品餐厅","address":"静安区富民路85号巨富大厦(近巨鹿路)"},{"poiid":"B2094757D465A3FD4699","title":"阿毛餐厅 富民路店","lon":"121.45041531544","lat":"31.219963834542","category":"247","category_name":"餐饮美食","address":"静安区富民路98号(近巨鹿路)"},{"poiid":"B2094751D56EA0F9489D","title":"Antoni Restaurant","lon":"121.4503","lat":"31.21974","category":"94","category_name":"西餐厅","address":"静安区巨鹿路794号(近富民路)"},{"poiid":"B2094655D26DABF4499E","title":"上海展览中心(5号门)","lon":"121.45153","lat":"31.22291","category":"183","category_name":"展览馆","address":""},{"poiid":"B2094757D068ABF4459C","title":"香港肥杜火锅","lon":"121.45016495","lat":"31.220844179","category":"86","category_name":"火锅店","address":"静安区富民路85号巨富大厦1楼(近巨鹿路)"},{"poiid":"B2094757D064A6F54998","title":"Juice","lon":"121.450010586","lat":"31.2197952269","category":"141","category_name":"服装鞋帽皮具店","address":"上海市静安区巨鹿路832号"},{"poiid":"B2094757D068A4FB419A","title":"富民路巨鹿路","lon":"121.45020024","lat":"31.221579561","category":"260","category_name":"其他","address":"上海静安区富民路巨鹿路口"},{"poiid":"B2094757D069A6FB4599","title":"The PULI Hotel and Spa","lon":"121.45246887","lat":"31.220787048","category":"500","category_name":"未知分类","address":"上海常德路1号"},{"poiid":"B2094757D66DA5FF4798","title":"苏浙汇","lon":"121.44903058","lat":"31.221403258","category":"500","category_name":"未知分类","address":"上海延安西路"},{"poiid":"B2094757D06FA5F9459C","title":"JA Cafe (静安公园内)","lon":"121.4465","lat":"31.22271","category":"260","category_name":"其他","address":"静安区南京西路1649号静安公园内(近静安公园)"},{"poiid":"B2094757D16AA7FC439F","title":"莹七餐厅","lon":"121.449147586","lat":"31.221130253","category":"500","category_name":"未知分类","address":"上海巨鹿路805号"},{"poiid":"B2094757D068A4FF439D","title":"BALI LAGUNA","lon":"121.45022583","lat":"31.219125747","category":"172","category_name":"酒吧","address":"上海静安区南京西路1649号(静安公园内)"},{"poiid":"B2094757D069A5FC499B","title":"翠华","lon":"121.44918058","lat":"31.221185254","category":"249","category_name":"购物服务","address":"上海静安区华山路"},{"poiid":"B2094757D465A6F44093","title":"董大师金牌稻香蛙 延安中路店","lon":"121.452610054","lat":"31.222697793","category":"71","category_name":"四川菜","address":"静安区延安中路917号(近铜仁路)"},{"poiid":"B2094757D16DA3FC469C","title":"喫茶去茶社ZEN TEA ROOM","lon":"121.45004866","lat":"31.2195266501","category":"247","category_name":"餐饮美食","address":"上海卢湾区巨鹿路796号(近富民路)"},{"poiid":"B2094757D069A7F84998","title":"Q太郎","lon":"121.45101065","lat":"31.219166647","category":"95","category_name":"日本料理","address":"静安区富民路158号(近巨鹿路)"},{"poiid":"B2094757D065A3FA459D","title":"coconut paradise","lon":"121.449070586","lat":"31.2214652596","category":"500","category_name":"未知分类","address":"上海市静安区富民路38号近巨鹿路"},{"poiid":"B209475DD66DA4FA449D","title":"极食","lon":"121.452423","lat":"31.223312","category":"247","category_name":"餐饮美食","address":"上海市 静安区芮欧百货5楼"},{"poiid":"B2094750DA6AA6FF429E","title":"Le Bistro du Dr wine","lon":"121.451011","lat":"31.219398","category":"94","category_name":"西餐厅","address":"静安区富民路177号(近巨鹿路)"},{"poiid":"B2094654DA6CA0FD4999","title":"上海展览中心(4号门)","lon":"121.45215","lat":"31.22304","category":"183","category_name":"展览馆","address":"延安中路1000"},{"poiid":"B2094757D169A0F84593","title":"一哥火锅","lon":"121.449226586","lat":"31.2211502534","category":"247","category_name":"餐饮美食","address":"上海市静安区华山路"},{"poiid":"B2094757D16DA1F5419A","title":"延安高架","lon":"121.45033958","lat":"31.222230274","category":"500","category_name":"未知分类","address":"上海市静安区"},{"poiid":"B2094757D069A2FF4599","title":"华东模范中学","lon":"121.4503","lat":"31.22113","category":"55","category_name":"中学","address":"静安区富民路43号(富民路延安中路)"},{"poiid":"B2094757D068A5FF409D","title":"阿毛酒家","lon":"121.45116153","lat":"31.220067263","category":"247","category_name":"餐饮美食","address":"上海富民路98号(巨鹿路)"},{"poiid":"B2094757D56CA0F9499B","title":"B Real","lon":"121.451317","lat":"31.219085","category":"99","category_name":"泰国／越南菜品餐厅","address":"静安区富民路185号"},{"poiid":"B2094655D26EA6F4449A","title":"尼泊尔餐厅","lon":"121.45008","lat":"31.21929","category":"102","category_name":"印度风味","address":"静安区巨鹿路819弄4号"},{"poiid":"B2094654D564ABFA479A","title":"汇元坊","lon":"121.45104","lat":"31.21995","category":"76","category_name":"上海菜","address":"静安区巨鹿路793号(近富民路)"},{"poiid":"B2094654D564ABFB419A","title":"上海市逸夫职业技术学校","lon":"121.45275","lat":"31.22134","category":"54","category_name":"职业技术学校","address":"静安区巨鹿路700号"},{"poiid":"B2094750DA68A4F54699","title":"PAPAYA BAR","lon":"121.451171","lat":"31.219129","category":"260","category_name":"其他","address":"静安区富民路185号(近巨鹿路)"},{"poiid":"B2094757D16FA7FA409E","title":"嘉里中心二期(Kerry Center Phase II)","lon":"121.453365586","lat":"31.2214142586","category":"46","category_name":"楼宇","address":"上海静安区常德路安义路"},{"poiid":"B2094753DA68A2F54393","title":"七條","lon":"121.451377","lat":"31.221981","category":"500","category_name":"未知分类","address":"上海市 芮欧百货B2"},{"poiid":"B2094757D16DABFA4399","title":"玛雅","lon":"121.45352","lat":"31.22093","category":"94","category_name":"西餐厅","address":"静安区巨鹿路568弄四方新城俱乐部2楼(近襄阳北路)"},{"poiid":"B2094757D16AA1FD4398","title":"厚味香辣馆","lon":"121.449156586","lat":"31.2211242529","category":"247","category_name":"餐饮美食","address":"上海市静安区静安寺"},{"poiid":"B2094757D568A4FC4592","title":"诚居酒屋","lon":"121.4511639","lat":"31.21935611","category":"95","category_name":"日本料理","address":"静安区富民路177号(近巨鹿路)"},{"poiid":"B2094757D06BA4FD4099","title":"长鑫大厦","lon":"121.449","lat":"31.2213","category":"46","category_name":"楼宇","address":"上海市徐汇区长乐路1219号"},{"poiid":"B2094654DB69A0FA449B","title":"萤七人间 People seven","lon":"121.45002676183","lat":"31.219220560138","category":"257","category_name":"中餐厅","address":"巨鹿路805号近富民路"},{"poiid":"B2094654DB69A0FA449C","title":"椰香天堂泰国料理","lon":"121.44991","lat":"31.22092","category":"99","category_name":"泰国／越南菜品餐厅","address":"静安区富民路38号(近延安中路)"},{"poiid":"B2094757D06FA3FB419F","title":"窩","lon":"121.44984693","lat":"31.220437979","category":"65","category_name":"咖啡厅","address":"静安区巨鹿路786弄66号1楼(近富民路)"},{"poiid":"B2094753D76FAAFA449C","title":"上海滩国泰旗舰店","lon":"121.466011","lat":"31.216125","category":"249","category_name":"购物服务","address":"淮海中路868号"},{"poiid":"B209475CD564A7F84292","title":"上海滩新天地店","lon":"121.47463","lat":"31.22164","category":"119","category_name":"商场","address":"\"太仓路181弄新天地北里15号\r\n\""},{"poiid":"B209475CD564A7F8439E","title":"上海滩中信泰富店","lon":"121.45602","lat":"31.22851","category":"119","category_name":"商场","address":"\"南京西路1168号中信泰富广场，店铺号221.\r\n\""},{"poiid":"B2094757D06FA0F44593","title":"柒寿司(富民路店)","lon":"121.45014813109981","lat":"31.221289026267844","category":"95","category_name":"日本料理","address":"上海静安寺富民路51号"},{"poiid":"B2094757D068A7FA4698","title":"Dr. Beer","lon":"121.450329386","lat":"31.2207334453","category":"500","category_name":"未知分类","address":"上海市富民路80号(巨鹿路)"},{"poiid":"B2094757D569A3F9469A","title":"香格里拉大酒店(上海静安嘉里中心店)","lon":"121.45073378","lat":"31.22310384","category":"251","category_name":"出行住宿","address":"中国上海市静安区铜仁路"},{"poiid":"B2094757D06FA3FE489A","title":"南麓.浙里","lon":"121.45108","lat":"31.21981","category":"76","category_name":"上海菜","address":"静安区巨鹿路768号巨富大厦2楼(近富民路)"},{"poiid":"B2094654D564ABFA4693","title":"辉哥火锅","lon":"121.45095","lat":"31.2199","category":"86","category_name":"火锅店","address":"静安区巨鹿路795号(近富民路)"},{"poiid":"B2094757D06FABFA459A","title":"dr.wine","lon":"121.45114394","lat":"31.219256726","category":"65","category_name":"咖啡厅","address":"上海富民路177号(近巨鹿路)"},{"poiid":"B2094757D16DA2F5419F","title":"泰籽","lon":"121.450883586","lat":"31.2201752344","category":"99","category_name":"泰国／越南菜品餐厅","address":"静安区巨鹿路768号巨富大厦G楼A-B室(近富民路)"},{"poiid":"B2094757D06FA5FC4199","title":"HOME'S私房菜","lon":"121.45154","lat":"31.2196","category":"76","category_name":"上海菜","address":"静安区巨鹿路791号(近富民路)"},{"poiid":"B2094757D06FA5FC489D","title":"Le Creme Milano(富民路店)","lon":"121.451104","lat":"31.219465","category":"67","category_name":"甜品店","address":"静安区富民路173号(富民路巨鹿路)"},{"poiid":"B2094757D06FAAFD459F","title":"Pho Asia","lon":"121.450447","lat":"31.220718","category":"99","category_name":"泰国／越南菜品餐厅","address":"静安区富民路85号巨富大厦(近巨鹿路)"},{"poiid":"B2094757D465A3FD4699","title":"阿毛餐厅 富民路店","lon":"121.45041531544","lat":"31.219963834542","category":"247","category_name":"餐饮美食","address":"静安区富民路98号(近巨鹿路)"},{"poiid":"B2094751D56EA0F9489D","title":"Antoni Restaurant","lon":"121.4503","lat":"31.21974","category":"94","category_name":"西餐厅","address":"静安区巨鹿路794号(近富民路)"},{"poiid":"B2094655D26DABF4499E","title":"上海展览中心(5号门)","lon":"121.45153","lat":"31.22291","category":"183","category_name":"展览馆","address":""},{"poiid":"B2094757D068ABF4459C","title":"香港肥杜火锅","lon":"121.45016495","lat":"31.220844179","category":"86","category_name":"火锅店","address":"静安区富民路85号巨富大厦1楼(近巨鹿路)"},{"poiid":"B2094757D064A6F54998","title":"Juice","lon":"121.450010586","lat":"31.2197952269","category":"141","category_name":"服装鞋帽皮具店","address":"上海市静安区巨鹿路832号"},{"poiid":"B2094757D068A4FB419A","title":"富民路巨鹿路","lon":"121.45020024","lat":"31.221579561","category":"260","category_name":"其他","address":"上海静安区富民路巨鹿路口"},{"poiid":"B2094757D069A6FB4599","title":"The PULI Hotel and Spa","lon":"121.45246887","lat":"31.220787048","category":"500","category_name":"未知分类","address":"上海常德路1号"},{"poiid":"B2094757D66DA5FF4798","title":"苏浙汇","lon":"121.44903058","lat":"31.221403258","category":"500","category_name":"未知分类","address":"上海延安西路"},{"poiid":"B2094757D06FA5F9459C","title":"JA Cafe (静安公园内)","lon":"121.4465","lat":"31.22271","category":"260","category_name":"其他","address":"静安区南京西路1649号静安公园内(近静安公园)"},{"poiid":"B2094757D16AA7FC439F","title":"莹七餐厅","lon":"121.449147586","lat":"31.221130253","category":"500","category_name":"未知分类","address":"上海巨鹿路805号"},{"poiid":"B2094757D068A4FF439D","title":"BALI LAGUNA","lon":"121.45022583","lat":"31.219125747","category":"172","category_name":"酒吧","address":"上海静安区南京西路1649号(静安公园内)"},{"poiid":"B2094757D069A5FC499B","title":"翠华","lon":"121.44918058","lat":"31.221185254","category":"249","category_name":"购物服务","address":"上海静安区华山路"},{"poiid":"B2094757D465A6F44093","title":"董大师金牌稻香蛙 延安中路店","lon":"121.452610054","lat":"31.222697793","category":"71","category_name":"四川菜","address":"静安区延安中路917号(近铜仁路)"},{"poiid":"B2094757D16DA3FC469C","title":"喫茶去茶社ZEN TEA ROOM","lon":"121.45004866","lat":"31.2195266501","category":"247","category_name":"餐饮美食","address":"上海卢湾区巨鹿路796号(近富民路)"},{"poiid":"B2094757D069A7F84998","title":"Q太郎","lon":"121.45101065","lat":"31.219166647","category":"95","category_name":"日本料理","address":"静安区富民路158号(近巨鹿路)"},{"poiid":"B2094757D065A3FA459D","title":"coconut paradise","lon":"121.449070586","lat":"31.2214652596","category":"500","category_name":"未知分类","address":"上海市静安区富民路38号近巨鹿路"},{"poiid":"B209475DD66DA4FA449D","title":"极食","lon":"121.452423","lat":"31.223312","category":"247","category_name":"餐饮美食","address":"上海市 静安区芮欧百货5楼"},{"poiid":"B2094750DA6AA6FF429E","title":"Le Bistro du Dr wine","lon":"121.451011","lat":"31.219398","category":"94","category_name":"西餐厅","address":"静安区富民路177号(近巨鹿路)"},{"poiid":"B2094654DA6CA0FD4999","title":"上海展览中心(4号门)","lon":"121.45215","lat":"31.22304","category":"183","category_name":"展览馆","address":"延安中路1000"},{"poiid":"B2094757D169A0F84593","title":"一哥火锅","lon":"121.449226586","lat":"31.2211502534","category":"247","category_name":"餐饮美食","address":"上海市静安区华山路"},{"poiid":"B2094757D16DA1F5419A","title":"延安高架","lon":"121.45033958","lat":"31.222230274","category":"500","category_name":"未知分类","address":"上海市静安区"},{"poiid":"B2094757D069A2FF4599","title":"华东模范中学","lon":"121.4503","lat":"31.22113","category":"55","category_name":"中学","address":"静安区富民路43号(富民路延安中路)"},{"poiid":"B2094757D068A5FF409D","title":"阿毛酒家","lon":"121.45116153","lat":"31.220067263","category":"247","category_name":"餐饮美食","address":"上海富民路98号(巨鹿路)"},{"poiid":"B2094757D56CA0F9499B","title":"B Real","lon":"121.451317","lat":"31.219085","category":"99","category_name":"泰国／越南菜品餐厅","address":"静安区富民路185号"},{"poiid":"B2094655D26EA6F4449A","title":"尼泊尔餐厅","lon":"121.45008","lat":"31.21929","category":"102","category_name":"印度风味","address":"静安区巨鹿路819弄4号"},{"poiid":"B2094654D564ABFA479A","title":"汇元坊","lon":"121.45104","lat":"31.21995","category":"76","category_name":"上海菜","address":"静安区巨鹿路793号(近富民路)"},{"poiid":"B2094654D564ABFB419A","title":"上海市逸夫职业技术学校","lon":"121.45275","lat":"31.22134","category":"54","category_name":"职业技术学校","address":"静安区巨鹿路700号"},{"poiid":"B2094750DA68A4F54699","title":"PAPAYA BAR","lon":"121.451171","lat":"31.219129","category":"260","category_name":"其他","address":"静安区富民路185号(近巨鹿路)"},{"poiid":"B2094757D16FA7FA409E","title":"嘉里中心二期(Kerry Center Phase II)","lon":"121.453365586","lat":"31.2214142586","category":"46","category_name":"楼宇","address":"上海静安区常德路安义路"},{"poiid":"B2094753DA68A2F54393","title":"七條","lon":"121.451377","lat":"31.221981","category":"500","category_name":"未知分类","address":"上海市 芮欧百货B2"},{"poiid":"B2094757D16DABFA4399","title":"玛雅","lon":"121.45352","lat":"31.22093","category":"94","category_name":"西餐厅","address":"静安区巨鹿路568弄四方新城俱乐部2楼(近襄阳北路)"},{"poiid":"B2094757D16AA1FD4398","title":"厚味香辣馆","lon":"121.449156586","lat":"31.2211242529","category":"247","category_name":"餐饮美食","address":"上海市静安区静安寺"},{"poiid":"B2094757D568A4FC4592","title":"诚居酒屋","lon":"121.4511639","lat":"31.21935611","category":"95","category_name":"日本料理","address":"静安区富民路177号(近巨鹿路)"},{"poiid":"B2094757D06BA4FD4099","title":"长鑫大厦","lon":"121.449","lat":"31.2213","category":"46","category_name":"楼宇","address":"上海市徐汇区长乐路1219号"},{"poiid":"B2094654DB69A0FA449B","title":"萤七人间 People seven","lon":"121.45002676183","lat":"31.219220560138","category":"257","category_name":"中餐厅","address":"巨鹿路805号近富民路"},{"poiid":"B2094654DB69A0FA449C","title":"椰香天堂泰国料理","lon":"121.44991","lat":"31.22092","category":"99","category_name":"泰国／越南菜品餐厅","address":"静安区富民路38号(近延安中路)"},{"poiid":"B2094757D06FA3FB419F","title":"窩","lon":"121.44984693","lat":"31.220437979","category":"65","category_name":"咖啡厅","address":"静安区巨鹿路786弄66号1楼(近富民路)"},{"poiid":"B2094753D76FAAFA449C","title":"上海滩国泰旗舰店","lon":"121.466011","lat":"31.216125","category":"249","category_name":"购物服务","address":"淮海中路868号"},{"poiid":"B209475CD564A7F84292","title":"上海滩新天地店","lon":"121.47463","lat":"31.22164","category":"119","category_name":"商场","address":"\"太仓路181弄新天地北里15号\r\n\""},{"poiid":"B209475CD564A7F8439E","title":"上海滩中信泰富店","lon":"121.45602","lat":"31.22851","category":"119","category_name":"商场","address":"\"南京西路1168号中信泰富广场，店铺号221.\r\n\""},{"poiid":"B2094757D06FA0F44593","title":"柒寿司(富民路店)","lon":"121.45014813109981","lat":"31.221289026267844","category":"95","category_name":"日本料理","address":"上海静安寺富民路51号"},{"poiid":"B2094757D068A7FA4698","title":"Dr. Beer","lon":"121.450329386","lat":"31.2207334453","category":"500","category_name":"未知分类","address":"上海市富民路80号(巨鹿路)"},{"poiid":"B2094757D569A3F9469A","title":"香格里拉大酒店(上海静安嘉里中心店)","lon":"121.45073378","lat":"31.22310384","category":"251","category_name":"出行住宿","address":"中国上海市静安区铜仁路"},{"poiid":"B2094757D06FA3FE489A","title":"南麓.浙里","lon":"121.45108","lat":"31.21981","category":"76","category_name":"上海菜","address":"静安区巨鹿路768号巨富大厦2楼(近富民路)"},{"poiid":"B2094654D564ABFA4693","title":"辉哥火锅","lon":"121.45095","lat":"31.2199","category":"86","category_name":"火锅店","address":"静安区巨鹿路795号(近富民路)"},{"poiid":"B2094757D06FABFA459A","title":"dr.wine","lon":"121.45114394","lat":"31.219256726","category":"65","category_name":"咖啡厅","address":"上海富民路177号(近巨鹿路)"},{"poiid":"B2094757D16DA2F5419F","title":"泰籽","lon":"121.450883586","lat":"31.2201752344","category":"99","category_name":"泰国／越南菜品餐厅","address":"静安区巨鹿路768号巨富大厦G楼A-B室(近富民路)"},{"poiid":"B2094757D06FA5FC4199","title":"HOME'S私房菜","lon":"121.45154","lat":"31.2196","category":"76","category_name":"上海菜","address":"静安区巨鹿路791号(近富民路)"},{"poiid":"B2094757D06FA5FC489D","title":"Le Creme Milano(富民路店)","lon":"121.451104","lat":"31.219465","category":"67","category_name":"甜品店","address":"静安区富民路173号(富民路巨鹿路)"},{"poiid":"B2094757D06FAAFD459F","title":"Pho Asia","lon":"121.450447","lat":"31.220718","category":"99","category_name":"泰国／越南菜品餐厅","address":"静安区富民路85号巨富大厦(近巨鹿路)"},{"poiid":"B2094757D465A3FD4699","title":"阿毛餐厅 富民路店","lon":"121.45041531544","lat":"31.219963834542","category":"247","category_name":"餐饮美食","address":"静安区富民路98号(近巨鹿路)"},{"poiid":"B2094751D56EA0F9489D","title":"Antoni Restaurant","lon":"121.4503","lat":"31.21974","category":"94","category_name":"西餐厅","address":"静安区巨鹿路794号(近富民路)"},{"poiid":"B2094655D26DABF4499E","title":"上海展览中心(5号门)","lon":"121.45153","lat":"31.22291","category":"183","category_name":"展览馆","address":""},{"poiid":"B2094757D068ABF4459C","title":"香港肥杜火锅","lon":"121.45016495","lat":"31.220844179","category":"86","category_name":"火锅店","address":"静安区富民路85号巨富大厦1楼(近巨鹿路)"},{"poiid":"B2094757D064A6F54998","title":"Juice","lon":"121.450010586","lat":"31.2197952269","category":"141","category_name":"服装鞋帽皮具店","address":"上海市静安区巨鹿路832号"},{"poiid":"B2094757D068A4FB419A","title":"富民路巨鹿路","lon":"121.45020024","lat":"31.221579561","category":"260","category_name":"其他","address":"上海静安区富民路巨鹿路口"},{"poiid":"B2094757D069A6FB4599","title":"The PULI Hotel and Spa","lon":"121.45246887","lat":"31.220787048","category":"500","category_name":"未知分类","address":"上海常德路1号"},{"poiid":"B2094757D66DA5FF4798","title":"苏浙汇","lon":"121.44903058","lat":"31.221403258","category":"500","category_name":"未知分类","address":"上海延安西路"},{"poiid":"B2094757D06FA5F9459C","title":"JA Cafe (静安公园内)","lon":"121.4465","lat":"31.22271","category":"260","category_name":"其他","address":"静安区南京西路1649号静安公园内(近静安公园)"},{"poiid":"B2094757D16AA7FC439F","title":"莹七餐厅","lon":"121.449147586","lat":"31.221130253","category":"500","category_name":"未知分类","address":"上海巨鹿路805号"},{"poiid":"B2094757D068A4FF439D","title":"BALI LAGUNA","lon":"121.45022583","lat":"31.219125747","category":"172","category_name":"酒吧","address":"上海静安区南京西路1649号(静安公园内)"},{"poiid":"B2094757D069A5FC499B","title":"翠华","lon":"121.44918058","lat":"31.221185254","category":"249","category_name":"购物服务","address":"上海静安区华山路"},{"poiid":"B2094757D465A6F44093","title":"董大师金牌稻香蛙 延安中路店","lon":"121.452610054","lat":"31.222697793","category":"71","category_name":"四川菜","address":"静安区延安中路917号(近铜仁路)"},{"poiid":"B2094757D16DA3FC469C","title":"喫茶去茶社ZEN TEA ROOM","lon":"121.45004866","lat":"31.2195266501","category":"247","category_name":"餐饮美食","address":"上海卢湾区巨鹿路796号(近富民路)"},{"poiid":"B2094757D069A7F84998","title":"Q太郎","lon":"121.45101065","lat":"31.219166647","category":"95","category_name":"日本料理","address":"静安区富民路158号(近巨鹿路)"},{"poiid":"B2094757D065A3FA459D","title":"coconut paradise","lon":"121.449070586","lat":"31.2214652596","category":"500","category_name":"未知分类","address":"上海市静安区富民路38号近巨鹿路"},{"poiid":"B209475DD66DA4FA449D","title":"极食","lon":"121.452423","lat":"31.223312","category":"247","category_name":"餐饮美食","address":"上海市 静安区芮欧百货5楼"},{"poiid":"B2094750DA6AA6FF429E","title":"Le Bistro du Dr wine","lon":"121.451011","lat":"31.219398","category":"94","category_name":"西餐厅","address":"静安区富民路177号(近巨鹿路)"},{"poiid":"B2094654DA6CA0FD4999","title":"上海展览中心(4号门)","lon":"121.45215","lat":"31.22304","category":"183","category_name":"展览馆","address":"延安中路1000"},{"poiid":"B2094757D169A0F84593","title":"一哥火锅","lon":"121.449226586","lat":"31.2211502534","category":"247","category_name":"餐饮美食","address":"上海市静安区华山路"},{"poiid":"B2094757D16DA1F5419A","title":"延安高架","lon":"121.45033958","lat":"31.222230274","category":"500","category_name":"未知分类","address":"上海市静安区"},{"poiid":"B2094757D069A2FF4599","title":"华东模范中学","lon":"121.4503","lat":"31.22113","category":"55","category_name":"中学","address":"静安区富民路43号(富民路延安中路)"},{"poiid":"B2094757D068A5FF409D","title":"阿毛酒家","lon":"121.45116153","lat":"31.220067263","category":"247","category_name":"餐饮美食","address":"上海富民路98号(巨鹿路)"},{"poiid":"B2094757D56CA0F9499B","title":"B Real","lon":"121.451317","lat":"31.219085","category":"99","category_name":"泰国／越南菜品餐厅","address":"静安区富民路185号"},{"poiid":"B2094655D26EA6F4449A","title":"尼泊尔餐厅","lon":"121.45008","lat":"31.21929","category":"102","category_name":"印度风味","address":"静安区巨鹿路819弄4号"},{"poiid":"B2094654D564ABFA479A","title":"汇元坊","lon":"121.45104","lat":"31.21995","category":"76","category_name":"上海菜","address":"静安区巨鹿路793号(近富民路)"},{"poiid":"B2094654D564ABFB419A","title":"上海市逸夫职业技术学校","lon":"121.45275","lat":"31.22134","category":"54","category_name":"职业技术学校","address":"静安区巨鹿路700号"},{"poiid":"B2094750DA68A4F54699","title":"PAPAYA BAR","lon":"121.451171","lat":"31.219129","category":"260","category_name":"其他","address":"静安区富民路185号(近巨鹿路)"},{"poiid":"B2094757D16FA7FA409E","title":"嘉里中心二期(Kerry Center Phase II)","lon":"121.453365586","lat":"31.2214142586","category":"46","category_name":"楼宇","address":"上海静安区常德路安义路"},{"poiid":"B2094753DA68A2F54393","title":"七條","lon":"121.451377","lat":"31.221981","category":"500","category_name":"未知分类","address":"上海市 芮欧百货B2"},{"poiid":"B2094757D16DABFA4399","title":"玛雅","lon":"121.45352","lat":"31.22093","category":"94","category_name":"西餐厅","address":"静安区巨鹿路568弄四方新城俱乐部2楼(近襄阳北路)"},{"poiid":"B2094757D16AA1FD4398","title":"厚味香辣馆","lon":"121.449156586","lat":"31.2211242529","category":"247","category_name":"餐饮美食","address":"上海市静安区静安寺"},{"poiid":"B2094757D568A4FC4592","title":"诚居酒屋","lon":"121.4511639","lat":"31.21935611","category":"95","category_name":"日本料理","address":"静安区富民路177号(近巨鹿路)"},{"poiid":"B2094757D06BA4FD4099","title":"长鑫大厦","lon":"121.449","lat":"31.2213","category":"46","category_name":"楼宇","address":"上海市徐汇区长乐路1219号"}]