[{"poiid":"B2094655D36DA7F4459B","title":"崧泽大道崧华路","lon":"121.17125","lat":"31.17494","category":"38","category_name":"公交车站","address":""},{"poiid":"B2094654DA6BABFA449A","title":"宜达新居","lon":"121.15015","lat":"31.163771","category":"47","category_name":"住宅区","address":"外青松公路5962号"},{"poiid":"B2094654D569A0FF4792","title":"上海青浦出口加工区","lon":"121.1526","lat":"31.18766","category":"45","category_name":"产业园区","address":"北青公路8118"},{"poiid":"B2094757D165A3F84692","title":"力康生物医疗科技控股集团","lon":"121.16577156","lat":"31.174878249","category":"263","category_name":"公司","address":"上海青浦崧泽大道6788号"},{"poiid":"B2094655D36DA7F44499","title":"崧泽大道汇金路","lon":"121.15216","lat":"31.17498","category":"38","category_name":"公交车站","address":""},{"poiid":"B2094654D569A1FA429F","title":"上海当纳利印刷有限公司","lon":"121.15653","lat":"31.17267","category":"263","category_name":"公司","address":""},{"poiid":"B2094757D06BA5FE4693","title":"崧泽大道 北青公路","lon":"121.16911","lat":"31.174588","category":"500","category_name":"未知分类","address":"上海崧泽大道7189号"},{"poiid":"B2094654D569A1F5489A","title":"上海高新建筑制品产业化基地","lon":"121.17003","lat":"31.16668","category":"45","category_name":"产业园区","address":""},{"poiid":"B2094757D065A6F8479A","title":"虹桥枢纽6路","lon":"121.15634606","lat":"31.1782440695","category":"500","category_name":"未知分类","address":"上海青浦汽车站－虹桥枢纽西交通中心"},{"poiid":"B2094654DA6BABFB419A","title":"顺驰蓝湾锦都","lon":"121.147","lat":"31.1664","category":"47","category_name":"住宅区","address":"华盈路688弄"},{"poiid":"B2094654D569A1F54793","title":"锡山实业(上海)有限公司","lon":"121.1709","lat":"31.17152","category":"263","category_name":"公司","address":""},{"poiid":"B2094655D36CA0FB489B","title":"汇金路新团路","lon":"121.15177","lat":"31.17937","category":"38","category_name":"公交车站","address":""},{"poiid":"B2094654D569A1FA4298","title":"特吕茨施勒纺织机械(上海)有限公司","lon":"121.15146","lat":"31.17381","category":"263","category_name":"公司","address":"汇金路1033号"},{"poiid":"B2094654D569A1FA4192","title":"登福机械(上海)有限公司","lon":"121.15596","lat":"31.18033","category":"263","category_name":"公司","address":""},{"poiid":"B2094655D36CA0FB489E","title":"汇金路华盈路","lon":"121.1518","lat":"31.16338","category":"38","category_name":"公交车站","address":""},{"poiid":"B2094757D568AAF5499E","title":"中华印刷办公楼","lon":"121.14584","lat":"31.16991","category":"46","category_name":"楼宇","address":"汇金路889号"},{"poiid":"B2094654D569A0F9449E","title":"高田(上海)汽车安全装置有限公司","lon":"121.14975","lat":"31.17512","category":"263","category_name":"公司","address":"崧泽大道8000"},{"poiid":"B2094757D66EA6FD459C","title":"高田(上海)汽配制造有限公司","lon":"121.14734233","lat":"31.178316016","category":"263","category_name":"公司","address":"上海青浦工业园区崧泽大道8000号"},{"poiid":"B2094655D36DA0FA449A","title":"宜达小区","lon":"121.14917","lat":"31.16128","category":"47","category_name":"住宅区","address":""},{"poiid":"B209475DD768ABF84699","title":"龙湖紫都城","lon":"121.15156168","lat":"31.16153242","category":"47","category_name":"住宅区","address":"青浦新城汇金路与盈港东路交汇处"},{"poiid":"B2094655D36CA0F54799","title":"华盈路汇金路","lon":"121.15093","lat":"31.16126","category":"38","category_name":"公交车站","address":""},{"poiid":"B2094654D569A1FA429B","title":"河村电子(上海)有限公司","lon":"121.14785","lat":"31.17468","category":"263","category_name":"公司","address":"崧泽大道7985"},{"poiid":"B2094655D36CA2F8499B","title":"秋湄泾","lon":"121.17009","lat":"31.18795","category":"38","category_name":"公交车站","address":""},{"poiid":"B2094654D569A0F9449F","title":"上海河村电器有限公司","lon":"121.14785","lat":"31.17469","category":"263","category_name":"公司","address":"崧泽大道7985"},{"poiid":"B2094654D569A1F5479A","title":"明信时装(上海)有限公司","lon":"121.17194","lat":"31.18258","category":"263","category_name":"公司","address":""},{"poiid":"B2094654DA6BA4FE4892","title":"COOLTECH","lon":"121.17079","lat":"31.1615","category":"248","category_name":"生活娱乐","address":""},{"poiid":"B2094654D569A1FB4792","title":"上海新关电子有限公司","lon":"121.15197","lat":"31.182","category":"263","category_name":"公司","address":"汇金路1338"},{"poiid":"B2094654DB6BA1FB409F","title":"威盛亚(上海)有限公司(崧华路)","lon":"121.17053","lat":"31.18409","category":"263","category_name":"公司","address":""},{"poiid":"B2094750D66FA0FC449D","title":"上海韵达货运有限公司","lon":"121.173591","lat":"31.161001","category":"263","category_name":"公司","address":"上海青浦区盈港东路6679号"},{"poiid":"B2094654DB64A2FC439C","title":"快客","lon":"121.14846","lat":"31.16212","category":"117","category_name":"便民商店/便利店","address":"宜达新居西南"},{"poiid":"B2094757D66DAAF4419E","title":"赵巷 留园","lon":"121.17910356","lat":"31.1704191556","category":"252","category_name":"楼宇机构","address":"上海市青浦区崧泽大道"},{"poiid":"B2094757D16BAAFE489E","title":"新城盛景D区","lon":"121.148878035","lat":"31.1587420339","category":"47","category_name":"住宅区","address":"上海青浦区崧文路338弄"},{"poiid":"B2094655D265A6FD4099","title":"上海怡豪假日酒店","lon":"121.1493","lat":"31.16144","category":"250","category_name":"公园户外","address":"青浦区青浦区华盈路1085号"},{"poiid":"B209475CDA69A2FF469F","title":"爱摩卡iMocha","lon":"121.151458","lat":"31.157182","category":"247","category_name":"餐饮美食","address":"青浦区华科东路180弄15号"},{"poiid":"B2094750D365A5F5429B","title":"新城盛景B区","lon":"121.148834","lat":"31.159301","category":"47","category_name":"住宅区","address":"青浦区崧文路388弄"},{"poiid":"B2094655D265A0F9459E","title":"上海晶盟硅材料办公楼","lon":"121.15169","lat":"31.18775","category":"46","category_name":"楼宇","address":"北青公路8228号2区48号"},{"poiid":"B2094654D569A0FF489B","title":"浔兴股份","lon":"121.14711","lat":"31.18025","category":"263","category_name":"公司","address":""},{"poiid":"B2094655D268ABFF479D","title":"Ａ３０北青公路收费站","lon":"121.14891","lat":"31.18493","category":"267","category_name":"收费站","address":""},{"poiid":"B2094654DA6BA4FE489C","title":"上海亚马特塑胶有限公司","lon":"121.17005","lat":"31.15807","category":"263","category_name":"公司","address":"崧华路618"},{"poiid":"B2094655D265A4FB469E","title":"G1501重固收费站","lon":"121.14892","lat":"31.18493","category":"267","category_name":"收费站","address":""},{"poiid":"B2094654D569A1FB459B","title":"亚士漆(上海)有限公司","lon":"121.144","lat":"31.17987","category":"263","category_name":"公司","address":"新涛路28"},{"poiid":"B2094757D069AAF5449B","title":"中国馆低碳行动","lon":"121.14277358","lat":"31.175412907","category":"253","category_name":"校园生活","address":"上海中国国家馆第三展区"},{"poiid":"B2094654D569A0FF489A","title":"中国银行(北青公路)","lon":"121.1526","lat":"31.18766","category":"150","category_name":"银行","address":"宝山区北青公路8118号出口加工区海关大楼"},{"poiid":"B2094654DB6BA1FB419A","title":"青浦工业园区","lon":"121.1434","lat":"31.17469","category":"263","category_name":"公司","address":"新区路409号"},{"poiid":"B2094654D569A1F5469F","title":"福泉山村","lon":"121.17243","lat":"31.18843","category":"248","category_name":"生活娱乐","address":""},{"poiid":"B2094654D569A1F4469F","title":"上海瑞泰金属表面处理工程有限公司","lon":"121.17904","lat":"31.18363","category":"263","category_name":"公司","address":""}]