[{"poiid":"B2094757D06EABF4499D","title":"外婆家 大悦城","lon":"121.47147","lat":"31.24349","category":"75","category_name":"浙江菜","address":"闸北区西藏北路166号大悦城8楼(近曲阜路)"},{"poiid":"B2094757D06EAAFD4192","title":"辛香汇(大悦城店)","lon":"121.47200866","lat":"31.242717217","category":"71","category_name":"四川菜","address":"闸北区西藏北路166号大悦城9楼(近曲阜路)"},{"poiid":"B2094757D06EABF44999","title":"大悦城·上海(Joy City)","lon":"121.47172762","lat":"31.242549348","category":"119","category_name":"商场","address":"闸北区西藏北路166号(近曲阜路)"},{"poiid":"B2094753D76FAAFA449C","title":"上海滩国泰旗舰店","lon":"121.466011","lat":"31.216125","category":"249","category_name":"购物服务","address":"淮海中路868号"},{"poiid":"B209475CD564A7F84292","title":"上海滩新天地店","lon":"121.47463","lat":"31.22164","category":"119","category_name":"商场","address":"\"太仓路181弄新天地北里15号\r\n\""},{"poiid":"B209475CD564A7F8439E","title":"上海滩中信泰富店","lon":"121.45602","lat":"31.22851","category":"119","category_name":"商场","address":"\"南京西路1168号中信泰富广场，店铺号221.\r\n\""},{"poiid":"B209475CD564A7F84392","title":"上海滩浦东香格里拉店","lon":"121.50058","lat":"31.23634","category":"119","category_name":"商场","address":"浦东富成路33号香格里拉酒店内大堂层"},{"poiid":"B2094757D06AA4F94598","title":"大悦城","lon":"121.472139","lat":"31.24326","category":"119","category_name":"商场","address":"上海市闸北区西藏北路166号"},{"poiid":"B2094757D06EAAFB4899","title":"板长寿司 大悦城店","lon":"121.472115","lat":"31.242562","category":"95","category_name":"日本料理","address":"闸北区西藏北路166号大悦城7楼7F-01店铺(近曲阜路)"},{"poiid":"B2094757D06EAAFB499A","title":"鲜芋仙(大悦城店)","lon":"121.471925538","lat":"31.2431910763","category":"67","category_name":"甜品店","address":"闸北区西藏北路166号大悦城6楼(近曲阜路)"},{"poiid":"B2094757D06EAAFB429F","title":"避风塘 大悦城店","lon":"121.472115","lat":"31.242537","category":"72","category_name":"广东菜","address":"闸北区西藏北路166号大悦城8楼(近曲阜路)"},{"poiid":"B2094757DA6FA3FB489B","title":"金逸院线新恒星影城(大悦城店)","lon":"121.472272999999","lat":"31.24237","category":"178","category_name":"电影院","address":"闸北区西藏北路166号大悦城10-11楼(近曲阜路)"},{"poiid":"B2094757D06EAAFA439A","title":"星巴克(大悦城店)","lon":"121.4724976","lat":"31.2424038","category":"65","category_name":"咖啡厅","address":"闸北区西藏北路166号大悦城3楼中厅(近曲阜路)"},{"poiid":"B2094757D06EAAFB409B","title":"权金城 大悦城","lon":"121.47142","lat":"31.24334","category":"96","category_name":"韩国料理","address":"闸北区西藏北路166号大悦城7楼(近开封路)"},{"poiid":"B2094757D06EAAFD4298","title":"雕刻时光咖啡馆(大悦城店)","lon":"121.47188073","lat":"31.242838568","category":"260","category_name":"其他","address":"闸北区西藏北路166号大悦城5楼25号(近曲阜路)"},{"poiid":"B2094757D06EAAFD479D","title":"汤姆熊(大悦城店)","lon":"121.47192173","lat":"31.242809568","category":"173","category_name":"游戏厅","address":"闸北区西藏北路166号大悦城6楼(近曲阜路)"},{"poiid":"B2094757D06FA0FD439E","title":"拿渡麻辣香锅(大悦城店)","lon":"121.47193373","lat":"31.24289357","category":"71","category_name":"四川菜","address":"闸北区西藏北路166号大悦城8楼803号铺(近曲阜路)"},{"poiid":"B2094757DB6BA0FF439F","title":"望湘园（大悦城 上海店）","lon":"121.472","lat":"31.2427","category":"77","category_name":"湖南菜","address":"上海闸北区西藏北路180号,大悦城(上海店)七层"},{"poiid":"B2094757D06FA2FD419F","title":"ABC Cooking Studio(大悦城店)","lon":"121.47190734","lat":"31.242804013","category":"67","category_name":"甜品店","address":"上海闸北区西藏北路166号大悦城4楼401室(近曲阜路)"},{"poiid":"B2094750DB65AAFB489A","title":"大悦城","lon":"121.476074","lat":"31.24032","category":"500","category_name":"未知分类","address":null},{"poiid":"B2094750DB6BA0F9439D","title":"江边城外（大悦城店）","lon":"121.474555","lat":"31.243404","category":"247","category_name":"餐饮美食","address":"大悦城"},{"poiid":"B2094757D068A4FC449A","title":"大悅城辛湘匯","lon":"121.472012738","lat":"31.2428635694","category":"500","category_name":"未知分类","address":"上海西臧北路曲阜路"},{"poiid":"B2094757D06BA5FB409B","title":"板长寿司","lon":"121.472009738","lat":"31.2428675695","category":"500","category_name":"未知分类","address":"上海市闸北区天目中路"},{"poiid":"B2094757D068A7FE419D","title":"上海滩新昌城","lon":"121.473","lat":"31.2443","category":"47","category_name":"住宅区","address":"上海市黄浦区新昌路477弄"},{"poiid":"B2094752DB6CA6F4449E","title":"半山小馆","lon":"121.472007","lat":"31.242856","category":"247","category_name":"餐饮美食","address":"上海市 大悦城"},{"poiid":"B2094750D76EAAFA4193","title":"呷哺呷哺(大悦城店)","lon":"121.472","lat":"31.2424","category":"86","category_name":"火锅店","address":"闸北区西藏北路166号大悦城9楼04号商铺"},{"poiid":"B2094757DB6BA0FF439B","title":"味千拉面（大悦城 上海店）","lon":"121.472","lat":"31.2427","category":"95","category_name":"日本料理","address":"闸北区西藏北路166号大悦城7楼(近曲阜路)"},{"poiid":"B2094757D06BAAFA4493","title":"大悦城-广州蕉叶","lon":"121.47201573","lat":"31.242783567","category":"500","category_name":"未知分类","address":"上海西藏北路"},{"poiid":"B2094757DA69A2F54493","title":"金逸院线新恒星影城","lon":"121.47467","lat":"31.24432","category":"178","category_name":"电影院","address":"西藏北路166号大悦城10-11楼"},{"poiid":"B2094757D06FA7FF4893","title":"酷圣石(大悦城店)","lon":"121.471918727","lat":"31.2420095845","category":"113","category_name":"冷饮店","address":"闸北区西藏北路166号大悦城B1楼(近曲阜路)"},{"poiid":"B2094757D664A3FD479B","title":"DQ冰雪皇后 大悦城店 Dairy Queen","lon":"121.47227","lat":"31.24237","category":"113","category_name":"冷饮店","address":"闸北区西藏北路166号大悦城"},{"poiid":"B209475CD76CA3FF469C","title":"cafe lugo","lon":"121.473312","lat":"31.243223","category":"500","category_name":"未知分类","address":"上海市 上海市闸北区西藏北路166号大悦城一楼"},{"poiid":"B2094757D06FA5FA499D","title":"薯我生活(大悦城店)","lon":"121.472085738","lat":"31.2428755696","category":"68","category_name":"快餐厅","address":"闸北区西藏北路166号大悦城B1楼(近人民广场)"},{"poiid":"B2094757D165ABFF499D","title":"华侨城苏河湾","lon":"121.473006","lat":"31.241215","category":"252","category_name":"楼宇机构","address":"廖廓北路与建宁西路交汇处"},{"poiid":"B2094752D765A5FB449C","title":"大悦城 星马殿","lon":"121.472066","lat":"31.242956","category":"247","category_name":"餐饮美食","address":"闸北区西藏北路166号大悦城7楼"},{"poiid":"B2094757D765A4FF4293","title":"沃歌斯 大悦城店","lon":"121.472273","lat":"31.24237","category":"94","category_name":"西餐厅","address":"闸北区西藏北路166号大悦城1楼(近曲阜路)"},{"poiid":"B2094751D56DA6FF4398","title":"小杨生煎(大悦城店)","lon":"121.4723","lat":"31.24237","category":"68","category_name":"快餐厅","address":"闸北区西藏北路166号大悦城9楼(近曲阜路)"},{"poiid":"B2094757D069A0F54892","title":"Caster dance studio","lon":"121.47183673","lat":"31.242802568","category":"500","category_name":"未知分类","address":"上海大悦城"},{"poiid":"B2094757D16EABFA479F","title":"黄埔剧场","lon":"121.475590538","lat":"31.2397237024","category":"248","category_name":"生活娱乐","address":"上海北京东路780号"},{"poiid":"B2094757D168ABF9409E","title":"大悦城顶楼电影院","lon":"121.471957038","lat":"31.2427158662","category":"178","category_name":"电影院","address":null},{"poiid":"B2094654DA68A3FC489B","title":"金瓯万国大厦","lon":"121.47591985314","lat":"31.240754198427","category":"46","category_name":"楼宇","address":"上海市黄浦区新昌路180号"},{"poiid":"B2094655D265A5FD4192","title":"华盛商务楼","lon":"121.473359","lat":"31.239953","category":"46","category_name":"楼宇","address":"上海市黄浦区成都北路600号"},{"poiid":"B2094757D065A7FD429A","title":"厦门路尊德里","lon":"121.475797","lat":"31.239779","category":"47","category_name":"住宅区","address":"上海厦门路靠近浙江中路"},{"poiid":"B2094757D064A4F5449A","title":"怡水豪庭","lon":"121.47475","lat":"31.240475","category":"47","category_name":"住宅区","address":"上海市松江区涞坊路599弄"},{"poiid":"B2094752D364A4FD479F","title":"COCO壱番屋(大悦城店)","lon":"121.47174","lat":"31.24247","category":"95","category_name":"日本料理","address":"闸北区西藏北路166号大悦城9楼(近大悦城)"},{"poiid":"B2094751D26BA0FA4792","title":"陆家嘴","lon":"121.47600802","lat":"31.23881901999999","category":"500","category_name":"未知分类","address":"上海"},{"poiid":"B2094757D06AAAF5449D","title":"大悦城HAOLEDI","lon":"121.47190073","lat":"31.242731566","category":"47","category_name":"住宅区","address":"上海市闸北区天目中路"},{"poiid":"B2094654DA6FA6FF459C","title":"茂联大厦","lon":"121.47277","lat":"31.24115","category":"46","category_name":"楼宇","address":"昌平区回龙观镇国际信息产业基地高新二街"},{"poiid":"B2094654DA6FA0FE409C","title":"河畔明珠","lon":"121.47536","lat":"31.240377","category":"47","category_name":"住宅区","address":"上海市黄浦区南苏州路881号"},{"poiid":"B2094757D169A7F84999","title":"韩国烧烤(大悦城权金城))","lon":"121.471982738","lat":"31.2428775697","category":"247","category_name":"餐饮美食","address":"上海市闸北区西藏路"},{"poiid":"B2094757D06EABF4499D","title":"外婆家 大悦城","lon":"121.47147","lat":"31.24349","category":"75","category_name":"浙江菜","address":"闸北区西藏北路166号大悦城8楼(近曲阜路)"},{"poiid":"B2094757D06EAAFD4192","title":"辛香汇(大悦城店)","lon":"121.47200866","lat":"31.242717217","category":"71","category_name":"四川菜","address":"闸北区西藏北路166号大悦城9楼(近曲阜路)"},{"poiid":"B2094757D06EABF44999","title":"大悦城·上海(Joy City)","lon":"121.47172762","lat":"31.242549348","category":"119","category_name":"商场","address":"闸北区西藏北路166号(近曲阜路)"},{"poiid":"B2094753D76FAAFA449C","title":"上海滩国泰旗舰店","lon":"121.466011","lat":"31.216125","category":"249","category_name":"购物服务","address":"淮海中路868号"},{"poiid":"B209475CD564A7F84292","title":"上海滩新天地店","lon":"121.47463","lat":"31.22164","category":"119","category_name":"商场","address":"\"太仓路181弄新天地北里15号\r\n\""},{"poiid":"B209475CD564A7F8439E","title":"上海滩中信泰富店","lon":"121.45602","lat":"31.22851","category":"119","category_name":"商场","address":"\"南京西路1168号中信泰富广场，店铺号221.\r\n\""},{"poiid":"B209475CD564A7F84392","title":"上海滩浦东香格里拉店","lon":"121.50058","lat":"31.23634","category":"119","category_name":"商场","address":"浦东富成路33号香格里拉酒店内大堂层"},{"poiid":"B2094757D06AA4F94598","title":"大悦城","lon":"121.472139","lat":"31.24326","category":"119","category_name":"商场","address":"上海市闸北区西藏北路166号"},{"poiid":"B2094757D06EAAFB4899","title":"板长寿司 大悦城店","lon":"121.472115","lat":"31.242562","category":"95","category_name":"日本料理","address":"闸北区西藏北路166号大悦城7楼7F-01店铺(近曲阜路)"},{"poiid":"B2094757D06EAAFB499A","title":"鲜芋仙(大悦城店)","lon":"121.471925538","lat":"31.2431910763","category":"67","category_name":"甜品店","address":"闸北区西藏北路166号大悦城6楼(近曲阜路)"},{"poiid":"B2094757D06EAAFB429F","title":"避风塘 大悦城店","lon":"121.472115","lat":"31.242537","category":"72","category_name":"广东菜","address":"闸北区西藏北路166号大悦城8楼(近曲阜路)"},{"poiid":"B2094757DA6FA3FB489B","title":"金逸院线新恒星影城(大悦城店)","lon":"121.472272999999","lat":"31.24237","category":"178","category_name":"电影院","address":"闸北区西藏北路166号大悦城10-11楼(近曲阜路)"},{"poiid":"B2094757D06EAAFA439A","title":"星巴克(大悦城店)","lon":"121.4724976","lat":"31.2424038","category":"65","category_name":"咖啡厅","address":"闸北区西藏北路166号大悦城3楼中厅(近曲阜路)"},{"poiid":"B2094757D06EAAFB409B","title":"权金城 大悦城","lon":"121.47142","lat":"31.24334","category":"96","category_name":"韩国料理","address":"闸北区西藏北路166号大悦城7楼(近开封路)"},{"poiid":"B2094757D06EAAFD4298","title":"雕刻时光咖啡馆(大悦城店)","lon":"121.47188073","lat":"31.242838568","category":"260","category_name":"其他","address":"闸北区西藏北路166号大悦城5楼25号(近曲阜路)"},{"poiid":"B2094757D06EAAFD479D","title":"汤姆熊(大悦城店)","lon":"121.47192173","lat":"31.242809568","category":"173","category_name":"游戏厅","address":"闸北区西藏北路166号大悦城6楼(近曲阜路)"},{"poiid":"B2094757D06FA0FD439E","title":"拿渡麻辣香锅(大悦城店)","lon":"121.47193373","lat":"31.24289357","category":"71","category_name":"四川菜","address":"闸北区西藏北路166号大悦城8楼803号铺(近曲阜路)"},{"poiid":"B2094757DB6BA0FF439F","title":"望湘园（大悦城 上海店）","lon":"121.472","lat":"31.2427","category":"77","category_name":"湖南菜","address":"上海闸北区西藏北路180号,大悦城(上海店)七层"},{"poiid":"B2094757D06FA2FD419F","title":"ABC Cooking Studio(大悦城店)","lon":"121.47190734","lat":"31.242804013","category":"67","category_name":"甜品店","address":"上海闸北区西藏北路166号大悦城4楼401室(近曲阜路)"},{"poiid":"B2094750DB65AAFB489A","title":"大悦城","lon":"121.476074","lat":"31.24032","category":"500","category_name":"未知分类","address":null},{"poiid":"B2094750DB6BA0F9439D","title":"江边城外（大悦城店）","lon":"121.474555","lat":"31.243404","category":"247","category_name":"餐饮美食","address":"大悦城"},{"poiid":"B2094757D068A4FC449A","title":"大悅城辛湘匯","lon":"121.472012738","lat":"31.2428635694","category":"500","category_name":"未知分类","address":"上海西臧北路曲阜路"},{"poiid":"B2094757D06BA5FB409B","title":"板长寿司","lon":"121.472009738","lat":"31.2428675695","category":"500","category_name":"未知分类","address":"上海市闸北区天目中路"},{"poiid":"B2094757D068A7FE419D","title":"上海滩新昌城","lon":"121.473","lat":"31.2443","category":"47","category_name":"住宅区","address":"上海市黄浦区新昌路477弄"},{"poiid":"B2094752DB6CA6F4449E","title":"半山小馆","lon":"121.472007","lat":"31.242856","category":"247","category_name":"餐饮美食","address":"上海市 大悦城"},{"poiid":"B2094750D76EAAFA4193","title":"呷哺呷哺(大悦城店)","lon":"121.472","lat":"31.2424","category":"86","category_name":"火锅店","address":"闸北区西藏北路166号大悦城9楼04号商铺"},{"poiid":"B2094757DB6BA0FF439B","title":"味千拉面（大悦城 上海店）","lon":"121.472","lat":"31.2427","category":"95","category_name":"日本料理","address":"闸北区西藏北路166号大悦城7楼(近曲阜路)"},{"poiid":"B2094757D06BAAFA4493","title":"大悦城-广州蕉叶","lon":"121.47201573","lat":"31.242783567","category":"500","category_name":"未知分类","address":"上海西藏北路"},{"poiid":"B2094757DA69A2F54493","title":"金逸院线新恒星影城","lon":"121.47467","lat":"31.24432","category":"178","category_name":"电影院","address":"西藏北路166号大悦城10-11楼"},{"poiid":"B2094757D06FA7FF4893","title":"酷圣石(大悦城店)","lon":"121.471918727","lat":"31.2420095845","category":"113","category_name":"冷饮店","address":"闸北区西藏北路166号大悦城B1楼(近曲阜路)"},{"poiid":"B2094757D664A3FD479B","title":"DQ冰雪皇后 大悦城店 Dairy Queen","lon":"121.47227","lat":"31.24237","category":"113","category_name":"冷饮店","address":"闸北区西藏北路166号大悦城"},{"poiid":"B209475CD76CA3FF469C","title":"cafe lugo","lon":"121.473312","lat":"31.243223","category":"500","category_name":"未知分类","address":"上海市 上海市闸北区西藏北路166号大悦城一楼"},{"poiid":"B2094757D06FA5FA499D","title":"薯我生活(大悦城店)","lon":"121.472085738","lat":"31.2428755696","category":"68","category_name":"快餐厅","address":"闸北区西藏北路166号大悦城B1楼(近人民广场)"},{"poiid":"B2094757D165ABFF499D","title":"华侨城苏河湾","lon":"121.473006","lat":"31.241215","category":"252","category_name":"楼宇机构","address":"廖廓北路与建宁西路交汇处"},{"poiid":"B2094752D765A5FB449C","title":"大悦城 星马殿","lon":"121.472066","lat":"31.242956","category":"247","category_name":"餐饮美食","address":"闸北区西藏北路166号大悦城7楼"},{"poiid":"B2094757D765A4FF4293","title":"沃歌斯 大悦城店","lon":"121.472273","lat":"31.24237","category":"94","category_name":"西餐厅","address":"闸北区西藏北路166号大悦城1楼(近曲阜路)"},{"poiid":"B2094751D56DA6FF4398","title":"小杨生煎(大悦城店)","lon":"121.4723","lat":"31.24237","category":"68","category_name":"快餐厅","address":"闸北区西藏北路166号大悦城9楼(近曲阜路)"},{"poiid":"B2094757D069A0F54892","title":"Caster dance studio","lon":"121.47183673","lat":"31.242802568","category":"500","category_name":"未知分类","address":"上海大悦城"},{"poiid":"B2094757D16EABFA479F","title":"黄埔剧场","lon":"121.475590538","lat":"31.2397237024","category":"248","category_name":"生活娱乐","address":"上海北京东路780号"},{"poiid":"B2094757D168ABF9409E","title":"大悦城顶楼电影院","lon":"121.471957038","lat":"31.2427158662","category":"178","category_name":"电影院","address":null},{"poiid":"B2094654DA68A3FC489B","title":"金瓯万国大厦","lon":"121.47591985314","lat":"31.240754198427","category":"46","category_name":"楼宇","address":"上海市黄浦区新昌路180号"},{"poiid":"B2094655D265A5FD4192","title":"华盛商务楼","lon":"121.473359","lat":"31.239953","category":"46","category_name":"楼宇","address":"上海市黄浦区成都北路600号"},{"poiid":"B2094757D065A7FD429A","title":"厦门路尊德里","lon":"121.475797","lat":"31.239779","category":"47","category_name":"住宅区","address":"上海厦门路靠近浙江中路"},{"poiid":"B2094757D064A4F5449A","title":"怡水豪庭","lon":"121.47475","lat":"31.240475","category":"47","category_name":"住宅区","address":"上海市松江区涞坊路599弄"},{"poiid":"B2094752D364A4FD479F","title":"COCO壱番屋(大悦城店)","lon":"121.47174","lat":"31.24247","category":"95","category_name":"日本料理","address":"闸北区西藏北路166号大悦城9楼(近大悦城)"},{"poiid":"B2094751D26BA0FA4792","title":"陆家嘴","lon":"121.47600802","lat":"31.23881901999999","category":"500","category_name":"未知分类","address":"上海"},{"poiid":"B2094757D06AAAF5449D","title":"大悦城HAOLEDI","lon":"121.47190073","lat":"31.242731566","category":"47","category_name":"住宅区","address":"上海市闸北区天目中路"},{"poiid":"B2094654DA6FA6FF459C","title":"茂联大厦","lon":"121.47277","lat":"31.24115","category":"46","category_name":"楼宇","address":"昌平区回龙观镇国际信息产业基地高新二街"},{"poiid":"B2094654DA6FA0FE409C","title":"河畔明珠","lon":"121.47536","lat":"31.240377","category":"47","category_name":"住宅区","address":"上海市黄浦区南苏州路881号"},{"poiid":"B2094757D169A7F84999","title":"韩国烧烤(大悦城权金城))","lon":"121.471982738","lat":"31.2428775697","category":"247","category_name":"餐饮美食","address":"上海市闸北区西藏路"},{"poiid":"B2094757D06EABF4499D","title":"外婆家 大悦城","lon":"121.47147","lat":"31.24349","category":"75","category_name":"浙江菜","address":"闸北区西藏北路166号大悦城8楼(近曲阜路)"},{"poiid":"B2094757D06EAAFD4192","title":"辛香汇(大悦城店)","lon":"121.47200866","lat":"31.242717217","category":"71","category_name":"四川菜","address":"闸北区西藏北路166号大悦城9楼(近曲阜路)"},{"poiid":"B2094757D06EABF44999","title":"大悦城·上海(Joy City)","lon":"121.47172762","lat":"31.242549348","category":"119","category_name":"商场","address":"闸北区西藏北路166号(近曲阜路)"},{"poiid":"B2094753D76FAAFA449C","title":"上海滩国泰旗舰店","lon":"121.466011","lat":"31.216125","category":"249","category_name":"购物服务","address":"淮海中路868号"},{"poiid":"B209475CD564A7F84292","title":"上海滩新天地店","lon":"121.47463","lat":"31.22164","category":"119","category_name":"商场","address":"\"太仓路181弄新天地北里15号\r\n\""},{"poiid":"B209475CD564A7F8439E","title":"上海滩中信泰富店","lon":"121.45602","lat":"31.22851","category":"119","category_name":"商场","address":"\"南京西路1168号中信泰富广场，店铺号221.\r\n\""},{"poiid":"B209475CD564A7F84392","title":"上海滩浦东香格里拉店","lon":"121.50058","lat":"31.23634","category":"119","category_name":"商场","address":"浦东富成路33号香格里拉酒店内大堂层"},{"poiid":"B2094757D06AA4F94598","title":"大悦城","lon":"121.472139","lat":"31.24326","category":"119","category_name":"商场","address":"上海市闸北区西藏北路166号"},{"poiid":"B2094757D06EAAFB4899","title":"板长寿司 大悦城店","lon":"121.472115","lat":"31.242562","category":"95","category_name":"日本料理","address":"闸北区西藏北路166号大悦城7楼7F-01店铺(近曲阜路)"},{"poiid":"B2094757D06EAAFB499A","title":"鲜芋仙(大悦城店)","lon":"121.471925538","lat":"31.2431910763","category":"67","category_name":"甜品店","address":"闸北区西藏北路166号大悦城6楼(近曲阜路)"},{"poiid":"B2094757D06EAAFB429F","title":"避风塘 大悦城店","lon":"121.472115","lat":"31.242537","category":"72","category_name":"广东菜","address":"闸北区西藏北路166号大悦城8楼(近曲阜路)"},{"poiid":"B2094757DA6FA3FB489B","title":"金逸院线新恒星影城(大悦城店)","lon":"121.472272999999","lat":"31.24237","category":"178","category_name":"电影院","address":"闸北区西藏北路166号大悦城10-11楼(近曲阜路)"},{"poiid":"B2094757D06EAAFA439A","title":"星巴克(大悦城店)","lon":"121.4724976","lat":"31.2424038","category":"65","category_name":"咖啡厅","address":"闸北区西藏北路166号大悦城3楼中厅(近曲阜路)"},{"poiid":"B2094757D06EAAFB409B","title":"权金城 大悦城","lon":"121.47142","lat":"31.24334","category":"96","category_name":"韩国料理","address":"闸北区西藏北路166号大悦城7楼(近开封路)"},{"poiid":"B2094757D06EAAFD4298","title":"雕刻时光咖啡馆(大悦城店)","lon":"121.47188073","lat":"31.242838568","category":"260","category_name":"其他","address":"闸北区西藏北路166号大悦城5楼25号(近曲阜路)"},{"poiid":"B2094757D06EAAFD479D","title":"汤姆熊(大悦城店)","lon":"121.47192173","lat":"31.242809568","category":"173","category_name":"游戏厅","address":"闸北区西藏北路166号大悦城6楼(近曲阜路)"},{"poiid":"B2094757D06FA0FD439E","title":"拿渡麻辣香锅(大悦城店)","lon":"121.47193373","lat":"31.24289357","category":"71","category_name":"四川菜","address":"闸北区西藏北路166号大悦城8楼803号铺(近曲阜路)"},{"poiid":"B2094757DB6BA0FF439F","title":"望湘园（大悦城 上海店）","lon":"121.472","lat":"31.2427","category":"77","category_name":"湖南菜","address":"上海闸北区西藏北路180号,大悦城(上海店)七层"},{"poiid":"B2094757D06FA2FD419F","title":"ABC Cooking Studio(大悦城店)","lon":"121.47190734","lat":"31.242804013","category":"67","category_name":"甜品店","address":"上海闸北区西藏北路166号大悦城4楼401室(近曲阜路)"},{"poiid":"B2094750DB65AAFB489A","title":"大悦城","lon":"121.476074","lat":"31.24032","category":"500","category_name":"未知分类","address":null},{"poiid":"B2094750DB6BA0F9439D","title":"江边城外（大悦城店）","lon":"121.474555","lat":"31.243404","category":"247","category_name":"餐饮美食","address":"大悦城"},{"poiid":"B2094757D068A4FC449A","title":"大悅城辛湘匯","lon":"121.472012738","lat":"31.2428635694","category":"500","category_name":"未知分类","address":"上海西臧北路曲阜路"},{"poiid":"B2094757D06BA5FB409B","title":"板长寿司","lon":"121.472009738","lat":"31.2428675695","category":"500","category_name":"未知分类","address":"上海市闸北区天目中路"},{"poiid":"B2094757D068A7FE419D","title":"上海滩新昌城","lon":"121.473","lat":"31.2443","category":"47","category_name":"住宅区","address":"上海市黄浦区新昌路477弄"},{"poiid":"B2094752DB6CA6F4449E","title":"半山小馆","lon":"121.472007","lat":"31.242856","category":"247","category_name":"餐饮美食","address":"上海市 大悦城"},{"poiid":"B2094750D76EAAFA4193","title":"呷哺呷哺(大悦城店)","lon":"121.472","lat":"31.2424","category":"86","category_name":"火锅店","address":"闸北区西藏北路166号大悦城9楼04号商铺"},{"poiid":"B2094757DB6BA0FF439B","title":"味千拉面（大悦城 上海店）","lon":"121.472","lat":"31.2427","category":"95","category_name":"日本料理","address":"闸北区西藏北路166号大悦城7楼(近曲阜路)"},{"poiid":"B2094757D06BAAFA4493","title":"大悦城-广州蕉叶","lon":"121.47201573","lat":"31.242783567","category":"500","category_name":"未知分类","address":"上海西藏北路"},{"poiid":"B2094757DA69A2F54493","title":"金逸院线新恒星影城","lon":"121.47467","lat":"31.24432","category":"178","category_name":"电影院","address":"西藏北路166号大悦城10-11楼"},{"poiid":"B2094757D06FA7FF4893","title":"酷圣石(大悦城店)","lon":"121.471918727","lat":"31.2420095845","category":"113","category_name":"冷饮店","address":"闸北区西藏北路166号大悦城B1楼(近曲阜路)"},{"poiid":"B2094757D664A3FD479B","title":"DQ冰雪皇后 大悦城店 Dairy Queen","lon":"121.47227","lat":"31.24237","category":"113","category_name":"冷饮店","address":"闸北区西藏北路166号大悦城"},{"poiid":"B209475CD76CA3FF469C","title":"cafe lugo","lon":"121.473312","lat":"31.243223","category":"500","category_name":"未知分类","address":"上海市 上海市闸北区西藏北路166号大悦城一楼"},{"poiid":"B2094757D06FA5FA499D","title":"薯我生活(大悦城店)","lon":"121.472085738","lat":"31.2428755696","category":"68","category_name":"快餐厅","address":"闸北区西藏北路166号大悦城B1楼(近人民广场)"},{"poiid":"B2094757D165ABFF499D","title":"华侨城苏河湾","lon":"121.473006","lat":"31.241215","category":"252","category_name":"楼宇机构","address":"廖廓北路与建宁西路交汇处"},{"poiid":"B2094752D765A5FB449C","title":"大悦城 星马殿","lon":"121.472066","lat":"31.242956","category":"247","category_name":"餐饮美食","address":"闸北区西藏北路166号大悦城7楼"},{"poiid":"B2094757D765A4FF4293","title":"沃歌斯 大悦城店","lon":"121.472273","lat":"31.24237","category":"94","category_name":"西餐厅","address":"闸北区西藏北路166号大悦城1楼(近曲阜路)"},{"poiid":"B2094751D56DA6FF4398","title":"小杨生煎(大悦城店)","lon":"121.4723","lat":"31.24237","category":"68","category_name":"快餐厅","address":"闸北区西藏北路166号大悦城9楼(近曲阜路)"},{"poiid":"B2094757D069A0F54892","title":"Caster dance studio","lon":"121.47183673","lat":"31.242802568","category":"500","category_name":"未知分类","address":"上海大悦城"},{"poiid":"B2094757D16EABFA479F","title":"黄埔剧场","lon":"121.475590538","lat":"31.2397237024","category":"248","category_name":"生活娱乐","address":"上海北京东路780号"},{"poiid":"B2094757D168ABF9409E","title":"大悦城顶楼电影院","lon":"121.471957038","lat":"31.2427158662","category":"178","category_name":"电影院","address":null},{"poiid":"B2094654DA68A3FC489B","title":"金瓯万国大厦","lon":"121.47591985314","lat":"31.240754198427","category":"46","category_name":"楼宇","address":"上海市黄浦区新昌路180号"},{"poiid":"B2094655D265A5FD4192","title":"华盛商务楼","lon":"121.473359","lat":"31.239953","category":"46","category_name":"楼宇","address":"上海市黄浦区成都北路600号"},{"poiid":"B2094757D065A7FD429A","title":"厦门路尊德里","lon":"121.475797","lat":"31.239779","category":"47","category_name":"住宅区","address":"上海厦门路靠近浙江中路"},{"poiid":"B2094757D064A4F5449A","title":"怡水豪庭","lon":"121.47475","lat":"31.240475","category":"47","category_name":"住宅区","address":"上海市松江区涞坊路599弄"},{"poiid":"B2094752D364A4FD479F","title":"COCO壱番屋(大悦城店)","lon":"121.47174","lat":"31.24247","category":"95","category_name":"日本料理","address":"闸北区西藏北路166号大悦城9楼(近大悦城)"},{"poiid":"B2094751D26BA0FA4792","title":"陆家嘴","lon":"121.47600802","lat":"31.23881901999999","category":"500","category_name":"未知分类","address":"上海"},{"poiid":"B2094757D06AAAF5449D","title":"大悦城HAOLEDI","lon":"121.47190073","lat":"31.242731566","category":"47","category_name":"住宅区","address":"上海市闸北区天目中路"},{"poiid":"B2094654DA6FA6FF459C","title":"茂联大厦","lon":"121.47277","lat":"31.24115","category":"46","category_name":"楼宇","address":"昌平区回龙观镇国际信息产业基地高新二街"},{"poiid":"B2094654DA6FA0FE409C","title":"河畔明珠","lon":"121.47536","lat":"31.240377","category":"47","category_name":"住宅区","address":"上海市黄浦区南苏州路881号"},{"poiid":"B2094757D169A7F84999","title":"韩国烧烤(大悦城权金城))","lon":"121.471982738","lat":"31.2428775697","category":"247","category_name":"餐饮美食","address":"上海市闸北区西藏路"},{"poiid":"B2094757D06EABF4499D","title":"外婆家 大悦城","lon":"121.47147","lat":"31.24349","category":"75","category_name":"浙江菜","address":"闸北区西藏北路166号大悦城8楼(近曲阜路)"},{"poiid":"B2094757D06EAAFD4192","title":"辛香汇(大悦城店)","lon":"121.47200866","lat":"31.242717217","category":"71","category_name":"四川菜","address":"闸北区西藏北路166号大悦城9楼(近曲阜路)"},{"poiid":"B2094757D06EABF44999","title":"大悦城·上海(Joy City)","lon":"121.47172762","lat":"31.242549348","category":"119","category_name":"商场","address":"闸北区西藏北路166号(近曲阜路)"},{"poiid":"B2094753D76FAAFA449C","title":"上海滩国泰旗舰店","lon":"121.466011","lat":"31.216125","category":"249","category_name":"购物服务","address":"淮海中路868号"},{"poiid":"B209475CD564A7F84292","title":"上海滩新天地店","lon":"121.47463","lat":"31.22164","category":"119","category_name":"商场","address":"\"太仓路181弄新天地北里15号\r\n\""},{"poiid":"B209475CD564A7F8439E","title":"上海滩中信泰富店","lon":"121.45602","lat":"31.22851","category":"119","category_name":"商场","address":"\"南京西路1168号中信泰富广场，店铺号221.\r\n\""},{"poiid":"B209475CD564A7F84392","title":"上海滩浦东香格里拉店","lon":"121.50058","lat":"31.23634","category":"119","category_name":"商场","address":"浦东富成路33号香格里拉酒店内大堂层"},{"poiid":"B2094757D06AA4F94598","title":"大悦城","lon":"121.472139","lat":"31.24326","category":"119","category_name":"商场","address":"上海市闸北区西藏北路166号"},{"poiid":"B2094757D06EAAFB4899","title":"板长寿司 大悦城店","lon":"121.472115","lat":"31.242562","category":"95","category_name":"日本料理","address":"闸北区西藏北路166号大悦城7楼7F-01店铺(近曲阜路)"},{"poiid":"B2094757D06EAAFB499A","title":"鲜芋仙(大悦城店)","lon":"121.471925538","lat":"31.2431910763","category":"67","category_name":"甜品店","address":"闸北区西藏北路166号大悦城6楼(近曲阜路)"},{"poiid":"B2094757D06EAAFB429F","title":"避风塘 大悦城店","lon":"121.472115","lat":"31.242537","category":"72","category_name":"广东菜","address":"闸北区西藏北路166号大悦城8楼(近曲阜路)"},{"poiid":"B2094757DA6FA3FB489B","title":"金逸院线新恒星影城(大悦城店)","lon":"121.472272999999","lat":"31.24237","category":"178","category_name":"电影院","address":"闸北区西藏北路166号大悦城10-11楼(近曲阜路)"},{"poiid":"B2094757D06EAAFA439A","title":"星巴克(大悦城店)","lon":"121.4724976","lat":"31.2424038","category":"65","category_name":"咖啡厅","address":"闸北区西藏北路166号大悦城3楼中厅(近曲阜路)"},{"poiid":"B2094757D06EAAFB409B","title":"权金城 大悦城","lon":"121.47142","lat":"31.24334","category":"96","category_name":"韩国料理","address":"闸北区西藏北路166号大悦城7楼(近开封路)"},{"poiid":"B2094757D06EAAFD4298","title":"雕刻时光咖啡馆(大悦城店)","lon":"121.47188073","lat":"31.242838568","category":"260","category_name":"其他","address":"闸北区西藏北路166号大悦城5楼25号(近曲阜路)"},{"poiid":"B2094757D06EAAFD479D","title":"汤姆熊(大悦城店)","lon":"121.47192173","lat":"31.242809568","category":"173","category_name":"游戏厅","address":"闸北区西藏北路166号大悦城6楼(近曲阜路)"},{"poiid":"B2094757D06FA0FD439E","title":"拿渡麻辣香锅(大悦城店)","lon":"121.47193373","lat":"31.24289357","category":"71","category_name":"四川菜","address":"闸北区西藏北路166号大悦城8楼803号铺(近曲阜路)"},{"poiid":"B2094757DB6BA0FF439F","title":"望湘园（大悦城 上海店）","lon":"121.472","lat":"31.2427","category":"77","category_name":"湖南菜","address":"上海闸北区西藏北路180号,大悦城(上海店)七层"},{"poiid":"B2094757D06FA2FD419F","title":"ABC Cooking Studio(大悦城店)","lon":"121.47190734","lat":"31.242804013","category":"67","category_name":"甜品店","address":"上海闸北区西藏北路166号大悦城4楼401室(近曲阜路)"},{"poiid":"B2094750DB65AAFB489A","title":"大悦城","lon":"121.476074","lat":"31.24032","category":"500","category_name":"未知分类","address":null},{"poiid":"B2094750DB6BA0F9439D","title":"江边城外（大悦城店）","lon":"121.474555","lat":"31.243404","category":"247","category_name":"餐饮美食","address":"大悦城"},{"poiid":"B2094757D068A4FC449A","title":"大悅城辛湘匯","lon":"121.472012738","lat":"31.2428635694","category":"500","category_name":"未知分类","address":"上海西臧北路曲阜路"},{"poiid":"B2094757D06BA5FB409B","title":"板长寿司","lon":"121.472009738","lat":"31.2428675695","category":"500","category_name":"未知分类","address":"上海市闸北区天目中路"},{"poiid":"B2094757D068A7FE419D","title":"上海滩新昌城","lon":"121.473","lat":"31.2443","category":"47","category_name":"住宅区","address":"上海市黄浦区新昌路477弄"},{"poiid":"B2094752DB6CA6F4449E","title":"半山小馆","lon":"121.472007","lat":"31.242856","category":"247","category_name":"餐饮美食","address":"上海市 大悦城"},{"poiid":"B2094750D76EAAFA4193","title":"呷哺呷哺(大悦城店)","lon":"121.472","lat":"31.2424","category":"86","category_name":"火锅店","address":"闸北区西藏北路166号大悦城9楼04号商铺"},{"poiid":"B2094757DB6BA0FF439B","title":"味千拉面（大悦城 上海店）","lon":"121.472","lat":"31.2427","category":"95","category_name":"日本料理","address":"闸北区西藏北路166号大悦城7楼(近曲阜路)"},{"poiid":"B2094757D06BAAFA4493","title":"大悦城-广州蕉叶","lon":"121.47201573","lat":"31.242783567","category":"500","category_name":"未知分类","address":"上海西藏北路"},{"poiid":"B2094757DA69A2F54493","title":"金逸院线新恒星影城","lon":"121.47467","lat":"31.24432","category":"178","category_name":"电影院","address":"西藏北路166号大悦城10-11楼"},{"poiid":"B2094757D06FA7FF4893","title":"酷圣石(大悦城店)","lon":"121.471918727","lat":"31.2420095845","category":"113","category_name":"冷饮店","address":"闸北区西藏北路166号大悦城B1楼(近曲阜路)"},{"poiid":"B2094757D664A3FD479B","title":"DQ冰雪皇后 大悦城店 Dairy Queen","lon":"121.47227","lat":"31.24237","category":"113","category_name":"冷饮店","address":"闸北区西藏北路166号大悦城"},{"poiid":"B209475CD76CA3FF469C","title":"cafe lugo","lon":"121.473312","lat":"31.243223","category":"500","category_name":"未知分类","address":"上海市 上海市闸北区西藏北路166号大悦城一楼"},{"poiid":"B2094757D06FA5FA499D","title":"薯我生活(大悦城店)","lon":"121.472085738","lat":"31.2428755696","category":"68","category_name":"快餐厅","address":"闸北区西藏北路166号大悦城B1楼(近人民广场)"},{"poiid":"B2094757D165ABFF499D","title":"华侨城苏河湾","lon":"121.473006","lat":"31.241215","category":"252","category_name":"楼宇机构","address":"廖廓北路与建宁西路交汇处"},{"poiid":"B2094752D765A5FB449C","title":"大悦城 星马殿","lon":"121.472066","lat":"31.242956","category":"247","category_name":"餐饮美食","address":"闸北区西藏北路166号大悦城7楼"},{"poiid":"B2094757D765A4FF4293","title":"沃歌斯 大悦城店","lon":"121.472273","lat":"31.24237","category":"94","category_name":"西餐厅","address":"闸北区西藏北路166号大悦城1楼(近曲阜路)"},{"poiid":"B2094751D56DA6FF4398","title":"小杨生煎(大悦城店)","lon":"121.4723","lat":"31.24237","category":"68","category_name":"快餐厅","address":"闸北区西藏北路166号大悦城9楼(近曲阜路)"},{"poiid":"B2094757D069A0F54892","title":"Caster dance studio","lon":"121.47183673","lat":"31.242802568","category":"500","category_name":"未知分类","address":"上海大悦城"},{"poiid":"B2094757D16EABFA479F","title":"黄埔剧场","lon":"121.475590538","lat":"31.2397237024","category":"248","category_name":"生活娱乐","address":"上海北京东路780号"},{"poiid":"B2094757D168ABF9409E","title":"大悦城顶楼电影院","lon":"121.471957038","lat":"31.2427158662","category":"178","category_name":"电影院","address":null},{"poiid":"B2094654DA68A3FC489B","title":"金瓯万国大厦","lon":"121.47591985314","lat":"31.240754198427","category":"46","category_name":"楼宇","address":"上海市黄浦区新昌路180号"},{"poiid":"B2094655D265A5FD4192","title":"华盛商务楼","lon":"121.473359","lat":"31.239953","category":"46","category_name":"楼宇","address":"上海市黄浦区成都北路600号"},{"poiid":"B2094757D065A7FD429A","title":"厦门路尊德里","lon":"121.475797","lat":"31.239779","category":"47","category_name":"住宅区","address":"上海厦门路靠近浙江中路"},{"poiid":"B2094757D064A4F5449A","title":"怡水豪庭","lon":"121.47475","lat":"31.240475","category":"47","category_name":"住宅区","address":"上海市松江区涞坊路599弄"},{"poiid":"B2094752D364A4FD479F","title":"COCO壱番屋(大悦城店)","lon":"121.47174","lat":"31.24247","category":"95","category_name":"日本料理","address":"闸北区西藏北路166号大悦城9楼(近大悦城)"},{"poiid":"B2094751D26BA0FA4792","title":"陆家嘴","lon":"121.47600802","lat":"31.23881901999999","category":"500","category_name":"未知分类","address":"上海"},{"poiid":"B2094757D06AAAF5449D","title":"大悦城HAOLEDI","lon":"121.47190073","lat":"31.242731566","category":"47","category_name":"住宅区","address":"上海市闸北区天目中路"},{"poiid":"B2094654DA6FA6FF459C","title":"茂联大厦","lon":"121.47277","lat":"31.24115","category":"46","category_name":"楼宇","address":"昌平区回龙观镇国际信息产业基地高新二街"},{"poiid":"B2094654DA6FA0FE409C","title":"河畔明珠","lon":"121.47536","lat":"31.240377","category":"47","category_name":"住宅区","address":"上海市黄浦区南苏州路881号"},{"poiid":"B2094757D169A7F84999","title":"韩国烧烤(大悦城权金城))","lon":"121.471982738","lat":"31.2428775697","category":"247","category_name":"餐饮美食","address":"上海市闸北区西藏路"},{"poiid":"B2094757D06EABF4499D","title":"外婆家 大悦城","lon":"121.47147","lat":"31.24349","category":"75","category_name":"浙江菜","address":"闸北区西藏北路166号大悦城8楼(近曲阜路)"},{"poiid":"B2094757D06EAAFD4192","title":"辛香汇(大悦城店)","lon":"121.47200866","lat":"31.242717217","category":"71","category_name":"四川菜","address":"闸北区西藏北路166号大悦城9楼(近曲阜路)"},{"poiid":"B2094757D06EABF44999","title":"大悦城·上海(Joy City)","lon":"121.47172762","lat":"31.242549348","category":"119","category_name":"商场","address":"闸北区西藏北路166号(近曲阜路)"},{"poiid":"B2094753D76FAAFA449C","title":"上海滩国泰旗舰店","lon":"121.466011","lat":"31.216125","category":"249","category_name":"购物服务","address":"淮海中路868号"},{"poiid":"B209475CD564A7F84292","title":"上海滩新天地店","lon":"121.47463","lat":"31.22164","category":"119","category_name":"商场","address":"\"太仓路181弄新天地北里15号\r\n\""},{"poiid":"B209475CD564A7F8439E","title":"上海滩中信泰富店","lon":"121.45602","lat":"31.22851","category":"119","category_name":"商场","address":"\"南京西路1168号中信泰富广场，店铺号221.\r\n\""},{"poiid":"B209475CD564A7F84392","title":"上海滩浦东香格里拉店","lon":"121.50058","lat":"31.23634","category":"119","category_name":"商场","address":"浦东富成路33号香格里拉酒店内大堂层"},{"poiid":"B2094757D06AA4F94598","title":"大悦城","lon":"121.472139","lat":"31.24326","category":"119","category_name":"商场","address":"上海市闸北区西藏北路166号"},{"poiid":"B2094757D06EAAFB4899","title":"板长寿司 大悦城店","lon":"121.472115","lat":"31.242562","category":"95","category_name":"日本料理","address":"闸北区西藏北路166号大悦城7楼7F-01店铺(近曲阜路)"},{"poiid":"B2094757D06EAAFB499A","title":"鲜芋仙(大悦城店)","lon":"121.471925538","lat":"31.2431910763","category":"67","category_name":"甜品店","address":"闸北区西藏北路166号大悦城6楼(近曲阜路)"},{"poiid":"B2094757D06EAAFB429F","title":"避风塘 大悦城店","lon":"121.472115","lat":"31.242537","category":"72","category_name":"广东菜","address":"闸北区西藏北路166号大悦城8楼(近曲阜路)"},{"poiid":"B2094757DA6FA3FB489B","title":"金逸院线新恒星影城(大悦城店)","lon":"121.472272999999","lat":"31.24237","category":"178","category_name":"电影院","address":"闸北区西藏北路166号大悦城10-11楼(近曲阜路)"},{"poiid":"B2094757D06EAAFA439A","title":"星巴克(大悦城店)","lon":"121.4724976","lat":"31.2424038","category":"65","category_name":"咖啡厅","address":"闸北区西藏北路166号大悦城3楼中厅(近曲阜路)"},{"poiid":"B2094757D06EAAFB409B","title":"权金城 大悦城","lon":"121.47142","lat":"31.24334","category":"96","category_name":"韩国料理","address":"闸北区西藏北路166号大悦城7楼(近开封路)"},{"poiid":"B2094757D06EAAFD4298","title":"雕刻时光咖啡馆(大悦城店)","lon":"121.47188073","lat":"31.242838568","category":"260","category_name":"其他","address":"闸北区西藏北路166号大悦城5楼25号(近曲阜路)"},{"poiid":"B2094757D06EAAFD479D","title":"汤姆熊(大悦城店)","lon":"121.47192173","lat":"31.242809568","category":"173","category_name":"游戏厅","address":"闸北区西藏北路166号大悦城6楼(近曲阜路)"},{"poiid":"B2094757D06FA0FD439E","title":"拿渡麻辣香锅(大悦城店)","lon":"121.47193373","lat":"31.24289357","category":"71","category_name":"四川菜","address":"闸北区西藏北路166号大悦城8楼803号铺(近曲阜路)"},{"poiid":"B2094757DB6BA0FF439F","title":"望湘园（大悦城 上海店）","lon":"121.472","lat":"31.2427","category":"77","category_name":"湖南菜","address":"上海闸北区西藏北路180号,大悦城(上海店)七层"},{"poiid":"B2094757D06FA2FD419F","title":"ABC Cooking Studio(大悦城店)","lon":"121.47190734","lat":"31.242804013","category":"67","category_name":"甜品店","address":"上海闸北区西藏北路166号大悦城4楼401室(近曲阜路)"},{"poiid":"B2094750DB65AAFB489A","title":"大悦城","lon":"121.476074","lat":"31.24032","category":"500","category_name":"未知分类","address":null},{"poiid":"B2094750DB6BA0F9439D","title":"江边城外（大悦城店）","lon":"121.474555","lat":"31.243404","category":"247","category_name":"餐饮美食","address":"大悦城"},{"poiid":"B2094757D068A4FC449A","title":"大悅城辛湘匯","lon":"121.472012738","lat":"31.2428635694","category":"500","category_name":"未知分类","address":"上海西臧北路曲阜路"},{"poiid":"B2094757D06BA5FB409B","title":"板长寿司","lon":"121.472009738","lat":"31.2428675695","category":"500","category_name":"未知分类","address":"上海市闸北区天目中路"},{"poiid":"B2094757D068A7FE419D","title":"上海滩新昌城","lon":"121.473","lat":"31.2443","category":"47","category_name":"住宅区","address":"上海市黄浦区新昌路477弄"},{"poiid":"B2094752DB6CA6F4449E","title":"半山小馆","lon":"121.472007","lat":"31.242856","category":"247","category_name":"餐饮美食","address":"上海市 大悦城"},{"poiid":"B2094750D76EAAFA4193","title":"呷哺呷哺(大悦城店)","lon":"121.472","lat":"31.2424","category":"86","category_name":"火锅店","address":"闸北区西藏北路166号大悦城9楼04号商铺"},{"poiid":"B2094757DB6BA0FF439B","title":"味千拉面（大悦城 上海店）","lon":"121.472","lat":"31.2427","category":"95","category_name":"日本料理","address":"闸北区西藏北路166号大悦城7楼(近曲阜路)"},{"poiid":"B2094757D06BAAFA4493","title":"大悦城-广州蕉叶","lon":"121.47201573","lat":"31.242783567","category":"500","category_name":"未知分类","address":"上海西藏北路"},{"poiid":"B2094757DA69A2F54493","title":"金逸院线新恒星影城","lon":"121.47467","lat":"31.24432","category":"178","category_name":"电影院","address":"西藏北路166号大悦城10-11楼"},{"poiid":"B2094757D06FA7FF4893","title":"酷圣石(大悦城店)","lon":"121.471918727","lat":"31.2420095845","category":"113","category_name":"冷饮店","address":"闸北区西藏北路166号大悦城B1楼(近曲阜路)"},{"poiid":"B2094757D664A3FD479B","title":"DQ冰雪皇后 大悦城店 Dairy Queen","lon":"121.47227","lat":"31.24237","category":"113","category_name":"冷饮店","address":"闸北区西藏北路166号大悦城"},{"poiid":"B209475CD76CA3FF469C","title":"cafe lugo","lon":"121.473312","lat":"31.243223","category":"500","category_name":"未知分类","address":"上海市 上海市闸北区西藏北路166号大悦城一楼"},{"poiid":"B2094757D06FA5FA499D","title":"薯我生活(大悦城店)","lon":"121.472085738","lat":"31.2428755696","category":"68","category_name":"快餐厅","address":"闸北区西藏北路166号大悦城B1楼(近人民广场)"},{"poiid":"B2094757D165ABFF499D","title":"华侨城苏河湾","lon":"121.473006","lat":"31.241215","category":"252","category_name":"楼宇机构","address":"廖廓北路与建宁西路交汇处"},{"poiid":"B2094752D765A5FB449C","title":"大悦城 星马殿","lon":"121.472066","lat":"31.242956","category":"247","category_name":"餐饮美食","address":"闸北区西藏北路166号大悦城7楼"},{"poiid":"B2094757D765A4FF4293","title":"沃歌斯 大悦城店","lon":"121.472273","lat":"31.24237","category":"94","category_name":"西餐厅","address":"闸北区西藏北路166号大悦城1楼(近曲阜路)"},{"poiid":"B2094751D56DA6FF4398","title":"小杨生煎(大悦城店)","lon":"121.4723","lat":"31.24237","category":"68","category_name":"快餐厅","address":"闸北区西藏北路166号大悦城9楼(近曲阜路)"},{"poiid":"B2094757D069A0F54892","title":"Caster dance studio","lon":"121.47183673","lat":"31.242802568","category":"500","category_name":"未知分类","address":"上海大悦城"},{"poiid":"B2094757D16EABFA479F","title":"黄埔剧场","lon":"121.475590538","lat":"31.2397237024","category":"248","category_name":"生活娱乐","address":"上海北京东路780号"},{"poiid":"B2094757D168ABF9409E","title":"大悦城顶楼电影院","lon":"121.471957038","lat":"31.2427158662","category":"178","category_name":"电影院","address":null},{"poiid":"B2094654DA68A3FC489B","title":"金瓯万国大厦","lon":"121.47591985314","lat":"31.240754198427","category":"46","category_name":"楼宇","address":"上海市黄浦区新昌路180号"},{"poiid":"B2094655D265A5FD4192","title":"华盛商务楼","lon":"121.473359","lat":"31.239953","category":"46","category_name":"楼宇","address":"上海市黄浦区成都北路600号"},{"poiid":"B2094757D065A7FD429A","title":"厦门路尊德里","lon":"121.475797","lat":"31.239779","category":"47","category_name":"住宅区","address":"上海厦门路靠近浙江中路"},{"poiid":"B2094757D064A4F5449A","title":"怡水豪庭","lon":"121.47475","lat":"31.240475","category":"47","category_name":"住宅区","address":"上海市松江区涞坊路599弄"},{"poiid":"B2094752D364A4FD479F","title":"COCO壱番屋(大悦城店)","lon":"121.47174","lat":"31.24247","category":"95","category_name":"日本料理","address":"闸北区西藏北路166号大悦城9楼(近大悦城)"},{"poiid":"B2094751D26BA0FA4792","title":"陆家嘴","lon":"121.47600802","lat":"31.23881901999999","category":"500","category_name":"未知分类","address":"上海"},{"poiid":"B2094757D06AAAF5449D","title":"大悦城HAOLEDI","lon":"121.47190073","lat":"31.242731566","category":"47","category_name":"住宅区","address":"上海市闸北区天目中路"},{"poiid":"B2094654DA6FA6FF459C","title":"茂联大厦","lon":"121.47277","lat":"31.24115","category":"46","category_name":"楼宇","address":"昌平区回龙观镇国际信息产业基地高新二街"},{"poiid":"B2094654DA6FA0FE409C","title":"河畔明珠","lon":"121.47536","lat":"31.240377","category":"47","category_name":"住宅区","address":"上海市黄浦区南苏州路881号"},{"poiid":"B2094757D169A7F84999","title":"韩国烧烤(大悦城权金城))","lon":"121.471982738","lat":"31.2428775697","category":"247","category_name":"餐饮美食","address":"上海市闸北区西藏路"}]