[{"poiid":"B2094757D06FA0F94599","title":"沪松公路农家乐","lon":"121.25937","lat":"31.03747","category":"257","category_name":"中餐厅","address":"松江区沪松公路6351号(近茸平路)"},{"poiid":"B2094757DA64A0FF419E","title":"松江万达广场","lon":"121.2428","lat":"31.058927","category":"252","category_name":"楼宇机构","address":"松江新城茸梅环路广富林路"},{"poiid":"B2094757D06FA4F5479F","title":"青青旅游世界","lon":"121.25654","lat":"31.06854","category":"250","category_name":"公园户外","address":"松江区洞泾镇辰花公路388号(近茸惠路)"},{"poiid":"B2094757D068A7FC439C","title":"巨人网络松江园区","lon":"121.26726483","lat":"31.056020429","category":"500","category_name":"未知分类","address":"上海市松江区中凯路988号"},{"poiid":"B2094654DB6EA6F4489E","title":"上海青青大酒店","lon":"121.25531","lat":"31.06998","category":"250","category_name":"公园户外","address":"上海松江区上海松江辰花公路388号"},{"poiid":"B2094757DB6DA5F84793","title":"上海锦丰国际大酒店","lon":"121.246227622","lat":"31.035910179","category":"76","category_name":"上海菜","address":"松江区茸梅路237号锦丰国际大酒店内(近茸平路)"},{"poiid":"B2094757D16CA1F9499D","title":"天萌羽毛球馆","lon":"121.250976793","lat":"31.048601684","category":"500","category_name":"未知分类","address":"松江区茸阳路250号(近茸兴路)"},{"poiid":"B2094654DB6EA0FE4599","title":"上海阳光康复中心","lon":"121.24295","lat":"31.06563","category":"162","category_name":"医院","address":"松江区松江新城区光星路2209号"},{"poiid":"B2094655D36CA2F94898","title":"茸惠路广富林路","lon":"121.25684","lat":"31.05527","category":"38","category_name":"公交车站","address":""},{"poiid":"B2094654DB6EA4F54199","title":"新世纪华联(梅家浜路)","lon":"121.25731","lat":"31.05047","category":"117","category_name":"便民商店/便利店","address":""},{"poiid":"B2094654DB6EA0FE459E","title":"莱顿小城高尔夫公寓","lon":"121.24435","lat":"31.0686","category":"47","category_name":"住宅区","address":"上海松江区辰花公路839弄"},{"poiid":"B2094757D16CA2F8479E","title":"中山文化苑","lon":"121.262","lat":"31.0499","category":"500","category_name":"未知分类","address":"上海茸惠路1100弄"},{"poiid":"B2094655D36DA3F5459E","title":"广富林路洞泾港桥","lon":"121.25902","lat":"31.0544","category":"250","category_name":"公园户外","address":""},{"poiid":"B2094655D36CA2F9499F","title":"茸兴路梅家浜路","lon":"121.24965","lat":"31.05058","category":"38","category_name":"公交车站","address":""},{"poiid":"B2094757D16FA7FB489B","title":"中外运敦豪松江服务中心","lon":"121.252001","lat":"31.048402","category":"46","category_name":"楼宇","address":"上海市松江区文翔路355号"},{"poiid":"B2094654DB6EA6FF459A","title":"上海日播服饰有限公司","lon":"121.25524","lat":"31.04733","category":"263","category_name":"公司","address":"茸阳路98"},{"poiid":"B2094752D66DA1FC459D","title":"上海虹桥机场二号航站楼","lon":"121.252692","lat":"31.060937","category":"500","category_name":"未知分类","address":null},{"poiid":"B2094655D36CA2F9489C","title":"茸梅路施惠路","lon":"121.24582","lat":"31.04638","category":"38","category_name":"公交车站","address":""},{"poiid":"B2094655D36CA2F9499C","title":"茸兴路施惠路","lon":"121.24955","lat":"31.04546","category":"38","category_name":"公交车站","address":""},{"poiid":"B2094654DB6DA4FF4893","title":"上海松江宝立食品有限公司","lon":"121.24956","lat":"31.04899","category":"263","category_name":"公司","address":"茸兴路433"},{"poiid":"B2094753DA65A5FF4398","title":"医院","lon":"121.246994","lat":"31.067199","category":"162","category_name":"医院","address":"上海市 松江第一人民医院"},{"poiid":"B2094654DB6EA2F4449B","title":"名庭花苑","lon":"121.24","lat":"31.0444","category":"47","category_name":"住宅区","address":"上海市松江区新松江路259弄"},{"poiid":"B2094751D469A4FA479B","title":"虹桥机场","lon":"121.2520279","lat":"31.0609116","category":"500","category_name":"未知分类","address":null},{"poiid":"B2094655D26BA1FA469A","title":"卖花桥","lon":"121.26138","lat":"31.0628","category":"38","category_name":"公交车站","address":""},{"poiid":"B2094654DB6DA4FF489D","title":"上海江州工艺品有限公司","lon":"121.24965","lat":"31.0476","category":"263","category_name":"公司","address":"茸兴路407"},{"poiid":"B2094757D66EAAFF479D","title":"农家乐","lon":"121.2590401","lat":"31.038299892","category":"500","category_name":"未知分类","address":"上海市松江区文翔路"},{"poiid":"B2094654DB6DA4F54893","title":"上海山城汽车修配有限公司","lon":"121.25033","lat":"31.04555","category":"159","category_name":"汽车维修","address":"松江区茸兴路370号"},{"poiid":"B2094654DB6DA4F4409A","title":"上海大胜口罩","lon":"121.25402","lat":"31.04472","category":"263","category_name":"公司","address":"施惠路226、228"},{"poiid":"B2094654DB6DA4F4409B","title":"上海后藤金属制品有限公司","lon":"121.25254","lat":"31.045","category":"263","category_name":"公司","address":"施惠路280"},{"poiid":"B2094654DB6DA4FB489F","title":"上海绘通印业公司","lon":"121.24596","lat":"31.04976","category":"263","category_name":"公司","address":"茸梅路1278"},{"poiid":"B2094655D268A0F44098","title":"荣御景苑","lon":"121.240938","lat":"31.05594","category":"47","category_name":"住宅区","address":"上海市松江区谷阳北路2399弄"},{"poiid":"B2094654DB6DA4F44098","title":"上海华铭智能终端设备有限公司","lon":"121.2456","lat":"31.04776","category":"263","category_name":"公司","address":"茸梅路895号"},{"poiid":"B2094757D06FAAFF4199","title":"莱顿小城","lon":"121.25373077","lat":"31.065887451","category":"252","category_name":"楼宇机构","address":"上海松江区辰花公路839弄"},{"poiid":"B2094757D665A3FC4098","title":"四海游龙 茸梅路店","lon":"121.24636","lat":"31.03946","category":"68","category_name":"快餐厅","address":"松江区茸梅路(近格林豪泰松江新城店)"},{"poiid":"B209475CD36CA6FF499F","title":"农家菜老大 松江店","lon":"121.25902","lat":"31.03914","category":"68","category_name":"快餐厅","address":"沪松公路6351号(近茸平路)"},{"poiid":"B2094454D268A5F9489B","title":"万达大歌星KTV上海松江店","lon":"121.241351","lat":"31.058821","category":"170","category_name":"KTV","address":"上海市松江区广富林路658弄松江万达广场三楼"},{"poiid":"B2094757DA64A6F9419F","title":"中山商业楼","lon":"121.25257360791","lat":"31.040642969101","category":"252","category_name":"楼宇机构","address":"松江茸梅路185号"},{"poiid":"B2094454D36FA7FE4999","title":"EAsmart上海松江万达店","lon":"121.242378","lat":"31.0571","category":"249","category_name":"购物服务","address":"上海市 上海松江区广富林路658弄万达商广场综合楼一楼"},{"poiid":"B2094654DB6DA4F54899","title":"上海唯元电器有限公司","lon":"121.25132","lat":"31.04139","category":"263","category_name":"公司","address":"中山街道文翔路228、236、238号"},{"poiid":"B2094654DB6EA5FD4999","title":"松江试点园区北部工业分区","lon":"121.2591","lat":"31.0379","category":"45","category_name":"产业园区","address":"沪松路588号"},{"poiid":"B2094751D26EA4FD4993","title":"上海第一人民医院松江分院","lon":"121.241577","lat":"31.049028","category":"500","category_name":"未知分类","address":null},{"poiid":"B2094655D36CA6FA439F","title":"洞泾港桥","lon":"121.25898","lat":"31.03735","category":"38","category_name":"公交车站","address":""},{"poiid":"B2094654DB6DA4FE469A","title":"科邦工业园(茸北路)","lon":"121.24421","lat":"31.03952","category":"45","category_name":"产业园区","address":"茸北路333弄1-10号"},{"poiid":"B2094654DB6EA6F44199","title":"松江工业搪瓷厂","lon":"121.26026","lat":"31.06531","category":"263","category_name":"公司","address":""},{"poiid":"B2094757D16DA5F5449D","title":"华东政法大学崇法楼","lon":"121.27376829","lat":"31.05190984","category":"500","category_name":"未知分类","address":"上海华东政法大学"},{"poiid":"B2094654DB6EA2F4469A","title":"裕盛豪园","lon":"121.244305","lat":"31.038462","category":"47","category_name":"住宅区","address":"上海市松江区谷阳北路166号"},{"poiid":"B2094757D16DAAFC499C","title":"辰花公路","lon":"121.251532846","lat":"31.0672592557","category":"500","category_name":"未知分类","address":"上海辰花公路"},{"poiid":"B2094654DB6DA4F54799","title":"上海科邦办公楼","lon":"121.24422","lat":"31.03952","category":"46","category_name":"楼宇","address":"茸北路333弄1-10号"},{"poiid":"B2094655D26FA6F4489F","title":"青青骑术俱乐部","lon":"121.25549","lat":"31.0706","category":"236","category_name":"马术俱乐部","address":"辰花公路388号"},{"poiid":"B2094757D568ABF44098","title":"哈里欧咖啡(茸梅路店)","lon":"121.246212","lat":"31.036325","category":"65","category_name":"咖啡厅","address":"茸梅路227号"},{"poiid":"B2094757D06FA0F94599","title":"沪松公路农家乐","lon":"121.25937","lat":"31.03747","category":"257","category_name":"中餐厅","address":"松江区沪松公路6351号(近茸平路)"},{"poiid":"B2094757DA64A0FF419E","title":"松江万达广场","lon":"121.2428","lat":"31.058927","category":"252","category_name":"楼宇机构","address":"松江新城茸梅环路广富林路"},{"poiid":"B2094757D06FA4F5479F","title":"青青旅游世界","lon":"121.25654","lat":"31.06854","category":"250","category_name":"公园户外","address":"松江区洞泾镇辰花公路388号(近茸惠路)"},{"poiid":"B2094757D068A7FC439C","title":"巨人网络松江园区","lon":"121.26726483","lat":"31.056020429","category":"500","category_name":"未知分类","address":"上海市松江区中凯路988号"},{"poiid":"B2094654DB6EA6F4489E","title":"上海青青大酒店","lon":"121.25531","lat":"31.06998","category":"250","category_name":"公园户外","address":"上海松江区上海松江辰花公路388号"},{"poiid":"B2094757DB6DA5F84793","title":"上海锦丰国际大酒店","lon":"121.246227622","lat":"31.035910179","category":"76","category_name":"上海菜","address":"松江区茸梅路237号锦丰国际大酒店内(近茸平路)"},{"poiid":"B2094757D16CA1F9499D","title":"天萌羽毛球馆","lon":"121.250976793","lat":"31.048601684","category":"500","category_name":"未知分类","address":"松江区茸阳路250号(近茸兴路)"},{"poiid":"B2094654DB6EA0FE4599","title":"上海阳光康复中心","lon":"121.24295","lat":"31.06563","category":"162","category_name":"医院","address":"松江区松江新城区光星路2209号"},{"poiid":"B2094655D36CA2F94898","title":"茸惠路广富林路","lon":"121.25684","lat":"31.05527","category":"38","category_name":"公交车站","address":""},{"poiid":"B2094654DB6EA4F54199","title":"新世纪华联(梅家浜路)","lon":"121.25731","lat":"31.05047","category":"117","category_name":"便民商店/便利店","address":""},{"poiid":"B2094654DB6EA0FE459E","title":"莱顿小城高尔夫公寓","lon":"121.24435","lat":"31.0686","category":"47","category_name":"住宅区","address":"上海松江区辰花公路839弄"},{"poiid":"B2094757D16CA2F8479E","title":"中山文化苑","lon":"121.262","lat":"31.0499","category":"500","category_name":"未知分类","address":"上海茸惠路1100弄"},{"poiid":"B2094655D36DA3F5459E","title":"广富林路洞泾港桥","lon":"121.25902","lat":"31.0544","category":"250","category_name":"公园户外","address":""},{"poiid":"B2094655D36CA2F9499F","title":"茸兴路梅家浜路","lon":"121.24965","lat":"31.05058","category":"38","category_name":"公交车站","address":""},{"poiid":"B2094757D16FA7FB489B","title":"中外运敦豪松江服务中心","lon":"121.252001","lat":"31.048402","category":"46","category_name":"楼宇","address":"上海市松江区文翔路355号"},{"poiid":"B2094654DB6EA6FF459A","title":"上海日播服饰有限公司","lon":"121.25524","lat":"31.04733","category":"263","category_name":"公司","address":"茸阳路98"},{"poiid":"B2094752D66DA1FC459D","title":"上海虹桥机场二号航站楼","lon":"121.252692","lat":"31.060937","category":"500","category_name":"未知分类","address":null},{"poiid":"B2094655D36CA2F9489C","title":"茸梅路施惠路","lon":"121.24582","lat":"31.04638","category":"38","category_name":"公交车站","address":""},{"poiid":"B2094655D36CA2F9499C","title":"茸兴路施惠路","lon":"121.24955","lat":"31.04546","category":"38","category_name":"公交车站","address":""},{"poiid":"B2094654DB6DA4FF4893","title":"上海松江宝立食品有限公司","lon":"121.24956","lat":"31.04899","category":"263","category_name":"公司","address":"茸兴路433"},{"poiid":"B2094753DA65A5FF4398","title":"医院","lon":"121.246994","lat":"31.067199","category":"162","category_name":"医院","address":"上海市 松江第一人民医院"},{"poiid":"B2094654DB6EA2F4449B","title":"名庭花苑","lon":"121.24","lat":"31.0444","category":"47","category_name":"住宅区","address":"上海市松江区新松江路259弄"},{"poiid":"B2094751D469A4FA479B","title":"虹桥机场","lon":"121.2520279","lat":"31.0609116","category":"500","category_name":"未知分类","address":null},{"poiid":"B2094655D26BA1FA469A","title":"卖花桥","lon":"121.26138","lat":"31.0628","category":"38","category_name":"公交车站","address":""},{"poiid":"B2094654DB6DA4FF489D","title":"上海江州工艺品有限公司","lon":"121.24965","lat":"31.0476","category":"263","category_name":"公司","address":"茸兴路407"},{"poiid":"B2094757D66EAAFF479D","title":"农家乐","lon":"121.2590401","lat":"31.038299892","category":"500","category_name":"未知分类","address":"上海市松江区文翔路"},{"poiid":"B2094654DB6DA4F54893","title":"上海山城汽车修配有限公司","lon":"121.25033","lat":"31.04555","category":"159","category_name":"汽车维修","address":"松江区茸兴路370号"},{"poiid":"B2094654DB6DA4F4409A","title":"上海大胜口罩","lon":"121.25402","lat":"31.04472","category":"263","category_name":"公司","address":"施惠路226、228"},{"poiid":"B2094654DB6DA4F4409B","title":"上海后藤金属制品有限公司","lon":"121.25254","lat":"31.045","category":"263","category_name":"公司","address":"施惠路280"},{"poiid":"B2094654DB6DA4FB489F","title":"上海绘通印业公司","lon":"121.24596","lat":"31.04976","category":"263","category_name":"公司","address":"茸梅路1278"},{"poiid":"B2094655D268A0F44098","title":"荣御景苑","lon":"121.240938","lat":"31.05594","category":"47","category_name":"住宅区","address":"上海市松江区谷阳北路2399弄"},{"poiid":"B2094654DB6DA4F44098","title":"上海华铭智能终端设备有限公司","lon":"121.2456","lat":"31.04776","category":"263","category_name":"公司","address":"茸梅路895号"},{"poiid":"B2094757D06FAAFF4199","title":"莱顿小城","lon":"121.25373077","lat":"31.065887451","category":"252","category_name":"楼宇机构","address":"上海松江区辰花公路839弄"},{"poiid":"B2094757D665A3FC4098","title":"四海游龙 茸梅路店","lon":"121.24636","lat":"31.03946","category":"68","category_name":"快餐厅","address":"松江区茸梅路(近格林豪泰松江新城店)"},{"poiid":"B209475CD36CA6FF499F","title":"农家菜老大 松江店","lon":"121.25902","lat":"31.03914","category":"68","category_name":"快餐厅","address":"沪松公路6351号(近茸平路)"},{"poiid":"B2094454D268A5F9489B","title":"万达大歌星KTV上海松江店","lon":"121.241351","lat":"31.058821","category":"170","category_name":"KTV","address":"上海市松江区广富林路658弄松江万达广场三楼"},{"poiid":"B2094757DA64A6F9419F","title":"中山商业楼","lon":"121.25257360791","lat":"31.040642969101","category":"252","category_name":"楼宇机构","address":"松江茸梅路185号"},{"poiid":"B2094454D36FA7FE4999","title":"EAsmart上海松江万达店","lon":"121.242378","lat":"31.0571","category":"249","category_name":"购物服务","address":"上海市 上海松江区广富林路658弄万达商广场综合楼一楼"},{"poiid":"B2094654DB6DA4F54899","title":"上海唯元电器有限公司","lon":"121.25132","lat":"31.04139","category":"263","category_name":"公司","address":"中山街道文翔路228、236、238号"},{"poiid":"B2094654DB6EA5FD4999","title":"松江试点园区北部工业分区","lon":"121.2591","lat":"31.0379","category":"45","category_name":"产业园区","address":"沪松路588号"},{"poiid":"B2094751D26EA4FD4993","title":"上海第一人民医院松江分院","lon":"121.241577","lat":"31.049028","category":"500","category_name":"未知分类","address":null},{"poiid":"B2094655D36CA6FA439F","title":"洞泾港桥","lon":"121.25898","lat":"31.03735","category":"38","category_name":"公交车站","address":""},{"poiid":"B2094654DB6DA4FE469A","title":"科邦工业园(茸北路)","lon":"121.24421","lat":"31.03952","category":"45","category_name":"产业园区","address":"茸北路333弄1-10号"},{"poiid":"B2094654DB6EA6F44199","title":"松江工业搪瓷厂","lon":"121.26026","lat":"31.06531","category":"263","category_name":"公司","address":""},{"poiid":"B2094757D16DA5F5449D","title":"华东政法大学崇法楼","lon":"121.27376829","lat":"31.05190984","category":"500","category_name":"未知分类","address":"上海华东政法大学"},{"poiid":"B2094654DB6EA2F4469A","title":"裕盛豪园","lon":"121.244305","lat":"31.038462","category":"47","category_name":"住宅区","address":"上海市松江区谷阳北路166号"},{"poiid":"B2094757D16DAAFC499C","title":"辰花公路","lon":"121.251532846","lat":"31.0672592557","category":"500","category_name":"未知分类","address":"上海辰花公路"},{"poiid":"B2094654DB6DA4F54799","title":"上海科邦办公楼","lon":"121.24422","lat":"31.03952","category":"46","category_name":"楼宇","address":"茸北路333弄1-10号"},{"poiid":"B2094655D26FA6F4489F","title":"青青骑术俱乐部","lon":"121.25549","lat":"31.0706","category":"236","category_name":"马术俱乐部","address":"辰花公路388号"},{"poiid":"B2094757D568ABF44098","title":"哈里欧咖啡(茸梅路店)","lon":"121.246212","lat":"31.036325","category":"65","category_name":"咖啡厅","address":"茸梅路227号"}]