[{"poiid":"B2094654DB6CA0F5459C","title":"麦德龙(顾戴路)","lon":"121.40747","lat":"31.14768","category":"118","category_name":"超级市场","address":"顾戴路80号"},{"poiid":"B2094757D06FA4FE439F","title":"宝燕海鲜","lon":"121.40241572","lat":"31.15091316","category":"75","category_name":"浙江菜","address":"闵行区古美路949号(古龙路口)"},{"poiid":"B2094757DB6AA1FA469C","title":"庖贰牛肉火锅","lon":"121.4024688","lat":"31.1517736","category":"86","category_name":"火锅店","address":"闵行区古美路986号"},{"poiid":"B2094757D06FA0FC4892","title":"迪卡侬(顾戴店)","lon":"121.40626704","lat":"31.146511623","category":"140","category_name":"体育用品店","address":"闵行区顾戴路108号百安居2楼1号(近麦德龙)"},{"poiid":"B2094654DA65A7FE4392","title":"康健广场","lon":"121.41161","lat":"31.15182","category":"119","category_name":"商场","address":"徐汇区桂平路188号"},{"poiid":"B2094757D068ABFC489E","title":"蔚蓝城市花园","lon":"121.40428358","lat":"31.15089688","category":"47","category_name":"住宅区","address":"闵行区古美路828号"},{"poiid":"B2094757D068A5FB469C","title":"中环高架","lon":"121.40972417","lat":"31.154925955","category":"500","category_name":"未知分类","address":"上海吴中路段"},{"poiid":"B2094654DB65A6FF409F","title":"东苑古龙城","lon":"121.40402","lat":"31.15259","category":"47","category_name":"住宅区","address":"古龙路66弄"},{"poiid":"B2094757D069A7FE409D","title":"古道村落","lon":"121.40214117","lat":"31.151654021","category":"83","category_name":"云贵菜","address":"闵行区古美路959号(近古龙路)"},{"poiid":"B2094655D36CA6FC4399","title":"古美路东兰路","lon":"121.40073","lat":"31.15588","category":"38","category_name":"公交车站","address":""},{"poiid":"B2094750DA69A2FE469E","title":"农屋里香","lon":"121.4067","lat":"31.149841","category":"87","category_name":"特色／地方风味餐厅","address":"闵行区平吉路8号(近虹梅路)"},{"poiid":"B2094654DB64A2F9409B","title":"小龙酒家","lon":"121.41129114661","lat":"31.150974175193","category":"76","category_name":"上海菜","address":"徐汇区桂平路136号(浦北路口)"},{"poiid":"B2094654DB6CA0F54592","title":"古梅苑","lon":"121.40369500752","lat":"31.145662137364","category":"75","category_name":"浙江菜","address":"闵行区古美路639号(近顾戴路)"},{"poiid":"B2094757D16EAAF44698","title":"纽斯桑拿会所(70度房)","lon":"121.400744686","lat":"31.1556668239","category":"148","category_name":"美容美发店","address":"上海纽斯桑拿会所(70度房)"},{"poiid":"B2094757D068A3FD4098","title":"攀宇健身中心(古龙路店)","lon":"121.40351","lat":"31.15195","category":"148","category_name":"美容美发店","address":"闵行区古龙路66弄11号105室(古美路口)"},{"poiid":"B2094757D16EA4FC4599","title":"望族新城","lon":"121.40275","lat":"31.146326","category":"47","category_name":"住宅区","address":"上海市闵行区古美路675弄"},{"poiid":"B2094757D06FA1FA499D","title":"新时代景庭-欧源","lon":"121.40083895","lat":"31.150031361","category":"47","category_name":"住宅区","address":"上海市闵行区古龙路287弄"},{"poiid":"B2094654DA65A5FD4098","title":"蜀香村川菜(古美路店)","lon":"121.4014","lat":"31.15481","category":"71","category_name":"四川菜","address":"闵行区古美路1058号(近平南路)"},{"poiid":"B2094655D26FA6F9409C","title":"紫薇园","lon":"121.41022","lat":"31.151243","category":"47","category_name":"住宅区","address":"桂平路123弄1-22号"},{"poiid":"B2094654DB64A2FA429D","title":"华梅花苑","lon":"121.40401","lat":"31.155571","category":"47","category_name":"住宅区","address":"上海虹梅路999弄"},{"poiid":"B2094751DA6DA2F8429C","title":"复旦大学附属儿童医院","lon":"121.404725","lat":"31.150587","category":"162","category_name":"医院","address":"上海市万源路399号"},{"poiid":"B2094757DB68A4F54293","title":"徐家汇","lon":"121.410886","lat":"31.148891","category":"500","category_name":"未知分类","address":"上海徐汇区江安路18号(近虹漕南路)"},{"poiid":"B2094757D068AAF44392","title":"金宝贝(锦江乐园)","lon":"121.411611","lat":"31.151831","category":"57","category_name":"幼儿园","address":"上海市徐汇区桂平路188号康健休闲广场2F"},{"poiid":"B2094757D76FA5F9449D","title":"永和豆浆 古美路店","lon":"121.40241","lat":"31.15136","category":"74","category_name":"江苏菜","address":"古美路977号近古龙路"},{"poiid":"B2094655D36CA6FC439E","title":"古美路古龙路","lon":"121.40251","lat":"31.15114","category":"38","category_name":"公交车站","address":""},{"poiid":"B2094654DB65A7F8409F","title":"全家便利店(古龙店)","lon":"121.40448","lat":"31.15133","category":"117","category_name":"便民商店/便利店","address":"闵行区古龙路95号"},{"poiid":"B2094757D165A0FF4193","title":"友缘茶人","lon":"121.403759086","lat":"31.1506168753","category":"260","category_name":"其他","address":"闵行区古龙路206号(近古美路)"},{"poiid":"B2094751DA65AAF4449A","title":"漫咖啡","lon":"121.405265","lat":"31.149611","category":"247","category_name":"餐饮美食","address":"金汇南路265号"},{"poiid":"B2094654DB6CA7FC419C","title":"古美体育公园","lon":"121.40653","lat":"31.15175","category":"196","category_name":"公园","address":"徐汇区虹梅路(虹梅路田林路)"},{"poiid":"B2094654DB6CA7FC4698","title":"古龙商业街","lon":"121.40267","lat":"31.15182","category":"116","category_name":"特色商业街","address":"古美路978"},{"poiid":"B2094757D168A4F9409F","title":"永和豆浆捞(古美路店)","lon":"121.40202569","lat":"31.1521066766","category":"86","category_name":"火锅店","address":"闵行区古美路979号(平南路口)"},{"poiid":"B2094757D468A4FB449E","title":"吴门人家","lon":"121.410872","lat":"31.151214","category":"76","category_name":"上海菜","address":"徐汇区浦北路1081号(近桂平路)"},{"poiid":"B2094757D06BA3FF479A","title":"康健丽都","lon":"121.40569","lat":"31.147306","category":"252","category_name":"楼宇机构","address":"康健丽都位于闵行古美路,顾戴路口"},{"poiid":"B2094757D465A0F5439D","title":"千岛湖人家","lon":"121.402282","lat":"31.151421","category":"260","category_name":"其他","address":"闵行区古美路973号(近古龙路)"},{"poiid":"B2094753DA6EA5FC439C","title":"万源城尚郡","lon":"121.40322","lat":"31.150847","category":"47","category_name":"住宅区","address":"万源路932号"},{"poiid":"B2094757D068A5FC409F","title":"百安居(顾戴路店)","lon":"121.40718","lat":"31.14586","category":"123","category_name":"家具建材市场","address":"闵行区顾戴路108号(近锦江乐园)"},{"poiid":"B2094757D16BA6FB459D","title":"上海文莱中学高中部","lon":"121.40659958","lat":"31.152993921","category":"55","category_name":"中学","address":"上海市闵行区虹莘路2166号"},{"poiid":"B2094757D16AA7FF469E","title":"旺晖火锅城(古美路店)","lon":"121.40104258","lat":"31.154623953","category":"86","category_name":"火锅店","address":"闵行区古美路1168号(东兰路口)"},{"poiid":"B2094750D76DAAFE4493","title":"吉腾の拉面","lon":"121.402","lat":"31.1536","category":"95","category_name":"日本料理","address":"徐汇区古美路1528号漕河泾开发区总业园A7号楼B1楼D6室"},{"poiid":"B2094750D76DA4FE4699","title":"乌镇面馆","lon":"121.402","lat":"31.1528","category":"68","category_name":"快餐厅","address":"闵行区古美路(东兰路口)"},{"poiid":"B2094757D66CA1F94692","title":"苗家酒楼","lon":"121.411375886","lat":"31.15239241","category":"83","category_name":"云贵菜","address":"徐汇区桂平路99-6号(近浦北路)"},{"poiid":"B2094654DB65A2FC499D","title":"玫瑰园","lon":"121.40876","lat":"31.15394","category":"47","category_name":"住宅区","address":"玫瑰园位于徐汇桂平路165弄"},{"poiid":"B2094654DA65A7FE4492","title":"米香苑韩式料理","lon":"121.41161","lat":"31.15183","category":"96","category_name":"韩国料理","address":"徐汇区桂平路188号康健休闲广场1楼118号(浦北路口)"},{"poiid":"B2094654DB65A0FD4899","title":"快客No.5187","lon":"121.40239","lat":"31.15229","category":"117","category_name":"便民商店/便利店","address":"古美路1010"},{"poiid":"B2094654DB6CA7FC419E","title":"芭芙莱泳健会","lon":"121.40686","lat":"31.14936","category":"190","category_name":"培训机构","address":"闵行区平吉路22号(近虹梅路麦德龙后门)"},{"poiid":"B2094655D26AAAFB439A","title":"欧艾姆比萨与西点古美店","lon":"121.40419","lat":"31.14801","category":"94","category_name":"西餐厅","address":"闵行区平吉路91号(古美路口)"},{"poiid":"B2094655D268A5FD429C","title":"古龙·郦都","lon":"121.40168","lat":"31.15212","category":"47","category_name":"住宅区","address":"闵行区古龙路300弄"},{"poiid":"B2094655D26EA1FE439B","title":"快乐营儿童美术创艺中心","lon":"121.40313","lat":"31.15032","category":"190","category_name":"培训机构","address":"古美路850"},{"poiid":"B2094757D16CA1FA4893","title":"桂梅别墅","lon":"121.40885323145108","lat":"31.156210351304168","category":"47","category_name":"住宅区","address":"上海市徐汇区 桂平路251弄4～41号"},{"poiid":"B2094654DA65A5FA4092","title":"欣园新邨","lon":"121.40738","lat":"31.15731","category":"47","category_name":"住宅区","address":"桂平路257弄1-52号"},{"poiid":"B2094654DB6CA0F5459C","title":"麦德龙(顾戴路)","lon":"121.40747","lat":"31.14768","category":"118","category_name":"超级市场","address":"顾戴路80号"},{"poiid":"B2094757D06FA4FE439F","title":"宝燕海鲜","lon":"121.40241572","lat":"31.15091316","category":"75","category_name":"浙江菜","address":"闵行区古美路949号(古龙路口)"},{"poiid":"B2094757DB6AA1FA469C","title":"庖贰牛肉火锅","lon":"121.4024688","lat":"31.1517736","category":"86","category_name":"火锅店","address":"闵行区古美路986号"},{"poiid":"B2094757D06FA0FC4892","title":"迪卡侬(顾戴店)","lon":"121.40626704","lat":"31.146511623","category":"140","category_name":"体育用品店","address":"闵行区顾戴路108号百安居2楼1号(近麦德龙)"},{"poiid":"B2094654DA65A7FE4392","title":"康健广场","lon":"121.41161","lat":"31.15182","category":"119","category_name":"商场","address":"徐汇区桂平路188号"},{"poiid":"B2094757D068ABFC489E","title":"蔚蓝城市花园","lon":"121.40428358","lat":"31.15089688","category":"47","category_name":"住宅区","address":"闵行区古美路828号"},{"poiid":"B2094757D068A5FB469C","title":"中环高架","lon":"121.40972417","lat":"31.154925955","category":"500","category_name":"未知分类","address":"上海吴中路段"},{"poiid":"B2094654DB65A6FF409F","title":"东苑古龙城","lon":"121.40402","lat":"31.15259","category":"47","category_name":"住宅区","address":"古龙路66弄"},{"poiid":"B2094757D069A7FE409D","title":"古道村落","lon":"121.40214117","lat":"31.151654021","category":"83","category_name":"云贵菜","address":"闵行区古美路959号(近古龙路)"},{"poiid":"B2094655D36CA6FC4399","title":"古美路东兰路","lon":"121.40073","lat":"31.15588","category":"38","category_name":"公交车站","address":""},{"poiid":"B2094750DA69A2FE469E","title":"农屋里香","lon":"121.4067","lat":"31.149841","category":"87","category_name":"特色／地方风味餐厅","address":"闵行区平吉路8号(近虹梅路)"},{"poiid":"B2094654DB64A2F9409B","title":"小龙酒家","lon":"121.41129114661","lat":"31.150974175193","category":"76","category_name":"上海菜","address":"徐汇区桂平路136号(浦北路口)"},{"poiid":"B2094654DB6CA0F54592","title":"古梅苑","lon":"121.40369500752","lat":"31.145662137364","category":"75","category_name":"浙江菜","address":"闵行区古美路639号(近顾戴路)"},{"poiid":"B2094757D16EAAF44698","title":"纽斯桑拿会所(70度房)","lon":"121.400744686","lat":"31.1556668239","category":"148","category_name":"美容美发店","address":"上海纽斯桑拿会所(70度房)"},{"poiid":"B2094757D068A3FD4098","title":"攀宇健身中心(古龙路店)","lon":"121.40351","lat":"31.15195","category":"148","category_name":"美容美发店","address":"闵行区古龙路66弄11号105室(古美路口)"},{"poiid":"B2094757D16EA4FC4599","title":"望族新城","lon":"121.40275","lat":"31.146326","category":"47","category_name":"住宅区","address":"上海市闵行区古美路675弄"},{"poiid":"B2094757D06FA1FA499D","title":"新时代景庭-欧源","lon":"121.40083895","lat":"31.150031361","category":"47","category_name":"住宅区","address":"上海市闵行区古龙路287弄"},{"poiid":"B2094654DA65A5FD4098","title":"蜀香村川菜(古美路店)","lon":"121.4014","lat":"31.15481","category":"71","category_name":"四川菜","address":"闵行区古美路1058号(近平南路)"},{"poiid":"B2094655D26FA6F9409C","title":"紫薇园","lon":"121.41022","lat":"31.151243","category":"47","category_name":"住宅区","address":"桂平路123弄1-22号"},{"poiid":"B2094654DB64A2FA429D","title":"华梅花苑","lon":"121.40401","lat":"31.155571","category":"47","category_name":"住宅区","address":"上海虹梅路999弄"},{"poiid":"B2094751DA6DA2F8429C","title":"复旦大学附属儿童医院","lon":"121.404725","lat":"31.150587","category":"162","category_name":"医院","address":"上海市万源路399号"},{"poiid":"B2094757DB68A4F54293","title":"徐家汇","lon":"121.410886","lat":"31.148891","category":"500","category_name":"未知分类","address":"上海徐汇区江安路18号(近虹漕南路)"},{"poiid":"B2094757D068AAF44392","title":"金宝贝(锦江乐园)","lon":"121.411611","lat":"31.151831","category":"57","category_name":"幼儿园","address":"上海市徐汇区桂平路188号康健休闲广场2F"},{"poiid":"B2094757D76FA5F9449D","title":"永和豆浆 古美路店","lon":"121.40241","lat":"31.15136","category":"74","category_name":"江苏菜","address":"古美路977号近古龙路"},{"poiid":"B2094655D36CA6FC439E","title":"古美路古龙路","lon":"121.40251","lat":"31.15114","category":"38","category_name":"公交车站","address":""},{"poiid":"B2094654DB65A7F8409F","title":"全家便利店(古龙店)","lon":"121.40448","lat":"31.15133","category":"117","category_name":"便民商店/便利店","address":"闵行区古龙路95号"},{"poiid":"B2094757D165A0FF4193","title":"友缘茶人","lon":"121.403759086","lat":"31.1506168753","category":"260","category_name":"其他","address":"闵行区古龙路206号(近古美路)"},{"poiid":"B2094751DA65AAF4449A","title":"漫咖啡","lon":"121.405265","lat":"31.149611","category":"247","category_name":"餐饮美食","address":"金汇南路265号"},{"poiid":"B2094654DB6CA7FC419C","title":"古美体育公园","lon":"121.40653","lat":"31.15175","category":"196","category_name":"公园","address":"徐汇区虹梅路(虹梅路田林路)"},{"poiid":"B2094654DB6CA7FC4698","title":"古龙商业街","lon":"121.40267","lat":"31.15182","category":"116","category_name":"特色商业街","address":"古美路978"},{"poiid":"B2094757D168A4F9409F","title":"永和豆浆捞(古美路店)","lon":"121.40202569","lat":"31.1521066766","category":"86","category_name":"火锅店","address":"闵行区古美路979号(平南路口)"},{"poiid":"B2094757D468A4FB449E","title":"吴门人家","lon":"121.410872","lat":"31.151214","category":"76","category_name":"上海菜","address":"徐汇区浦北路1081号(近桂平路)"},{"poiid":"B2094757D06BA3FF479A","title":"康健丽都","lon":"121.40569","lat":"31.147306","category":"252","category_name":"楼宇机构","address":"康健丽都位于闵行古美路,顾戴路口"},{"poiid":"B2094757D465A0F5439D","title":"千岛湖人家","lon":"121.402282","lat":"31.151421","category":"260","category_name":"其他","address":"闵行区古美路973号(近古龙路)"},{"poiid":"B2094753DA6EA5FC439C","title":"万源城尚郡","lon":"121.40322","lat":"31.150847","category":"47","category_name":"住宅区","address":"万源路932号"},{"poiid":"B2094757D068A5FC409F","title":"百安居(顾戴路店)","lon":"121.40718","lat":"31.14586","category":"123","category_name":"家具建材市场","address":"闵行区顾戴路108号(近锦江乐园)"},{"poiid":"B2094757D16BA6FB459D","title":"上海文莱中学高中部","lon":"121.40659958","lat":"31.152993921","category":"55","category_name":"中学","address":"上海市闵行区虹莘路2166号"},{"poiid":"B2094757D16AA7FF469E","title":"旺晖火锅城(古美路店)","lon":"121.40104258","lat":"31.154623953","category":"86","category_name":"火锅店","address":"闵行区古美路1168号(东兰路口)"},{"poiid":"B2094750D76DAAFE4493","title":"吉腾の拉面","lon":"121.402","lat":"31.1536","category":"95","category_name":"日本料理","address":"徐汇区古美路1528号漕河泾开发区总业园A7号楼B1楼D6室"},{"poiid":"B2094750D76DA4FE4699","title":"乌镇面馆","lon":"121.402","lat":"31.1528","category":"68","category_name":"快餐厅","address":"闵行区古美路(东兰路口)"},{"poiid":"B2094757D66CA1F94692","title":"苗家酒楼","lon":"121.411375886","lat":"31.15239241","category":"83","category_name":"云贵菜","address":"徐汇区桂平路99-6号(近浦北路)"},{"poiid":"B2094654DB65A2FC499D","title":"玫瑰园","lon":"121.40876","lat":"31.15394","category":"47","category_name":"住宅区","address":"玫瑰园位于徐汇桂平路165弄"},{"poiid":"B2094654DA65A7FE4492","title":"米香苑韩式料理","lon":"121.41161","lat":"31.15183","category":"96","category_name":"韩国料理","address":"徐汇区桂平路188号康健休闲广场1楼118号(浦北路口)"},{"poiid":"B2094654DB65A0FD4899","title":"快客No.5187","lon":"121.40239","lat":"31.15229","category":"117","category_name":"便民商店/便利店","address":"古美路1010"},{"poiid":"B2094654DB6CA7FC419E","title":"芭芙莱泳健会","lon":"121.40686","lat":"31.14936","category":"190","category_name":"培训机构","address":"闵行区平吉路22号(近虹梅路麦德龙后门)"},{"poiid":"B2094655D26AAAFB439A","title":"欧艾姆比萨与西点古美店","lon":"121.40419","lat":"31.14801","category":"94","category_name":"西餐厅","address":"闵行区平吉路91号(古美路口)"},{"poiid":"B2094655D268A5FD429C","title":"古龙·郦都","lon":"121.40168","lat":"31.15212","category":"47","category_name":"住宅区","address":"闵行区古龙路300弄"},{"poiid":"B2094655D26EA1FE439B","title":"快乐营儿童美术创艺中心","lon":"121.40313","lat":"31.15032","category":"190","category_name":"培训机构","address":"古美路850"},{"poiid":"B2094757D16CA1FA4893","title":"桂梅别墅","lon":"121.40885323145108","lat":"31.156210351304168","category":"47","category_name":"住宅区","address":"上海市徐汇区 桂平路251弄4～41号"},{"poiid":"B2094654DA65A5FA4092","title":"欣园新邨","lon":"121.40738","lat":"31.15731","category":"47","category_name":"住宅区","address":"桂平路257弄1-52号"},{"poiid":"B2094654DB6CA0F5459C","title":"麦德龙(顾戴路)","lon":"121.40747","lat":"31.14768","category":"118","category_name":"超级市场","address":"顾戴路80号"},{"poiid":"B2094757D06FA4FE439F","title":"宝燕海鲜","lon":"121.40241572","lat":"31.15091316","category":"75","category_name":"浙江菜","address":"闵行区古美路949号(古龙路口)"},{"poiid":"B2094757DB6AA1FA469C","title":"庖贰牛肉火锅","lon":"121.4024688","lat":"31.1517736","category":"86","category_name":"火锅店","address":"闵行区古美路986号"},{"poiid":"B2094757D06FA0FC4892","title":"迪卡侬(顾戴店)","lon":"121.40626704","lat":"31.146511623","category":"140","category_name":"体育用品店","address":"闵行区顾戴路108号百安居2楼1号(近麦德龙)"},{"poiid":"B2094654DA65A7FE4392","title":"康健广场","lon":"121.41161","lat":"31.15182","category":"119","category_name":"商场","address":"徐汇区桂平路188号"},{"poiid":"B2094757D068ABFC489E","title":"蔚蓝城市花园","lon":"121.40428358","lat":"31.15089688","category":"47","category_name":"住宅区","address":"闵行区古美路828号"},{"poiid":"B2094757D068A5FB469C","title":"中环高架","lon":"121.40972417","lat":"31.154925955","category":"500","category_name":"未知分类","address":"上海吴中路段"},{"poiid":"B2094654DB65A6FF409F","title":"东苑古龙城","lon":"121.40402","lat":"31.15259","category":"47","category_name":"住宅区","address":"古龙路66弄"},{"poiid":"B2094757D069A7FE409D","title":"古道村落","lon":"121.40214117","lat":"31.151654021","category":"83","category_name":"云贵菜","address":"闵行区古美路959号(近古龙路)"},{"poiid":"B2094655D36CA6FC4399","title":"古美路东兰路","lon":"121.40073","lat":"31.15588","category":"38","category_name":"公交车站","address":""},{"poiid":"B2094750DA69A2FE469E","title":"农屋里香","lon":"121.4067","lat":"31.149841","category":"87","category_name":"特色／地方风味餐厅","address":"闵行区平吉路8号(近虹梅路)"},{"poiid":"B2094654DB64A2F9409B","title":"小龙酒家","lon":"121.41129114661","lat":"31.150974175193","category":"76","category_name":"上海菜","address":"徐汇区桂平路136号(浦北路口)"},{"poiid":"B2094654DB6CA0F54592","title":"古梅苑","lon":"121.40369500752","lat":"31.145662137364","category":"75","category_name":"浙江菜","address":"闵行区古美路639号(近顾戴路)"},{"poiid":"B2094757D16EAAF44698","title":"纽斯桑拿会所(70度房)","lon":"121.400744686","lat":"31.1556668239","category":"148","category_name":"美容美发店","address":"上海纽斯桑拿会所(70度房)"},{"poiid":"B2094757D068A3FD4098","title":"攀宇健身中心(古龙路店)","lon":"121.40351","lat":"31.15195","category":"148","category_name":"美容美发店","address":"闵行区古龙路66弄11号105室(古美路口)"},{"poiid":"B2094757D16EA4FC4599","title":"望族新城","lon":"121.40275","lat":"31.146326","category":"47","category_name":"住宅区","address":"上海市闵行区古美路675弄"},{"poiid":"B2094757D06FA1FA499D","title":"新时代景庭-欧源","lon":"121.40083895","lat":"31.150031361","category":"47","category_name":"住宅区","address":"上海市闵行区古龙路287弄"},{"poiid":"B2094654DA65A5FD4098","title":"蜀香村川菜(古美路店)","lon":"121.4014","lat":"31.15481","category":"71","category_name":"四川菜","address":"闵行区古美路1058号(近平南路)"},{"poiid":"B2094655D26FA6F9409C","title":"紫薇园","lon":"121.41022","lat":"31.151243","category":"47","category_name":"住宅区","address":"桂平路123弄1-22号"},{"poiid":"B2094654DB64A2FA429D","title":"华梅花苑","lon":"121.40401","lat":"31.155571","category":"47","category_name":"住宅区","address":"上海虹梅路999弄"},{"poiid":"B2094751DA6DA2F8429C","title":"复旦大学附属儿童医院","lon":"121.404725","lat":"31.150587","category":"162","category_name":"医院","address":"上海市万源路399号"},{"poiid":"B2094757DB68A4F54293","title":"徐家汇","lon":"121.410886","lat":"31.148891","category":"500","category_name":"未知分类","address":"上海徐汇区江安路18号(近虹漕南路)"},{"poiid":"B2094757D068AAF44392","title":"金宝贝(锦江乐园)","lon":"121.411611","lat":"31.151831","category":"57","category_name":"幼儿园","address":"上海市徐汇区桂平路188号康健休闲广场2F"},{"poiid":"B2094757D76FA5F9449D","title":"永和豆浆 古美路店","lon":"121.40241","lat":"31.15136","category":"74","category_name":"江苏菜","address":"古美路977号近古龙路"},{"poiid":"B2094655D36CA6FC439E","title":"古美路古龙路","lon":"121.40251","lat":"31.15114","category":"38","category_name":"公交车站","address":""},{"poiid":"B2094654DB65A7F8409F","title":"全家便利店(古龙店)","lon":"121.40448","lat":"31.15133","category":"117","category_name":"便民商店/便利店","address":"闵行区古龙路95号"},{"poiid":"B2094757D165A0FF4193","title":"友缘茶人","lon":"121.403759086","lat":"31.1506168753","category":"260","category_name":"其他","address":"闵行区古龙路206号(近古美路)"},{"poiid":"B2094751DA65AAF4449A","title":"漫咖啡","lon":"121.405265","lat":"31.149611","category":"247","category_name":"餐饮美食","address":"金汇南路265号"},{"poiid":"B2094654DB6CA7FC419C","title":"古美体育公园","lon":"121.40653","lat":"31.15175","category":"196","category_name":"公园","address":"徐汇区虹梅路(虹梅路田林路)"},{"poiid":"B2094654DB6CA7FC4698","title":"古龙商业街","lon":"121.40267","lat":"31.15182","category":"116","category_name":"特色商业街","address":"古美路978"},{"poiid":"B2094757D168A4F9409F","title":"永和豆浆捞(古美路店)","lon":"121.40202569","lat":"31.1521066766","category":"86","category_name":"火锅店","address":"闵行区古美路979号(平南路口)"},{"poiid":"B2094757D468A4FB449E","title":"吴门人家","lon":"121.410872","lat":"31.151214","category":"76","category_name":"上海菜","address":"徐汇区浦北路1081号(近桂平路)"},{"poiid":"B2094757D06BA3FF479A","title":"康健丽都","lon":"121.40569","lat":"31.147306","category":"252","category_name":"楼宇机构","address":"康健丽都位于闵行古美路,顾戴路口"},{"poiid":"B2094757D465A0F5439D","title":"千岛湖人家","lon":"121.402282","lat":"31.151421","category":"260","category_name":"其他","address":"闵行区古美路973号(近古龙路)"},{"poiid":"B2094753DA6EA5FC439C","title":"万源城尚郡","lon":"121.40322","lat":"31.150847","category":"47","category_name":"住宅区","address":"万源路932号"},{"poiid":"B2094757D068A5FC409F","title":"百安居(顾戴路店)","lon":"121.40718","lat":"31.14586","category":"123","category_name":"家具建材市场","address":"闵行区顾戴路108号(近锦江乐园)"},{"poiid":"B2094757D16BA6FB459D","title":"上海文莱中学高中部","lon":"121.40659958","lat":"31.152993921","category":"55","category_name":"中学","address":"上海市闵行区虹莘路2166号"},{"poiid":"B2094757D16AA7FF469E","title":"旺晖火锅城(古美路店)","lon":"121.40104258","lat":"31.154623953","category":"86","category_name":"火锅店","address":"闵行区古美路1168号(东兰路口)"},{"poiid":"B2094750D76DAAFE4493","title":"吉腾の拉面","lon":"121.402","lat":"31.1536","category":"95","category_name":"日本料理","address":"徐汇区古美路1528号漕河泾开发区总业园A7号楼B1楼D6室"},{"poiid":"B2094750D76DA4FE4699","title":"乌镇面馆","lon":"121.402","lat":"31.1528","category":"68","category_name":"快餐厅","address":"闵行区古美路(东兰路口)"},{"poiid":"B2094757D66CA1F94692","title":"苗家酒楼","lon":"121.411375886","lat":"31.15239241","category":"83","category_name":"云贵菜","address":"徐汇区桂平路99-6号(近浦北路)"},{"poiid":"B2094654DB65A2FC499D","title":"玫瑰园","lon":"121.40876","lat":"31.15394","category":"47","category_name":"住宅区","address":"玫瑰园位于徐汇桂平路165弄"},{"poiid":"B2094654DA65A7FE4492","title":"米香苑韩式料理","lon":"121.41161","lat":"31.15183","category":"96","category_name":"韩国料理","address":"徐汇区桂平路188号康健休闲广场1楼118号(浦北路口)"},{"poiid":"B2094654DB65A0FD4899","title":"快客No.5187","lon":"121.40239","lat":"31.15229","category":"117","category_name":"便民商店/便利店","address":"古美路1010"},{"poiid":"B2094654DB6CA7FC419E","title":"芭芙莱泳健会","lon":"121.40686","lat":"31.14936","category":"190","category_name":"培训机构","address":"闵行区平吉路22号(近虹梅路麦德龙后门)"},{"poiid":"B2094655D26AAAFB439A","title":"欧艾姆比萨与西点古美店","lon":"121.40419","lat":"31.14801","category":"94","category_name":"西餐厅","address":"闵行区平吉路91号(古美路口)"},{"poiid":"B2094655D268A5FD429C","title":"古龙·郦都","lon":"121.40168","lat":"31.15212","category":"47","category_name":"住宅区","address":"闵行区古龙路300弄"},{"poiid":"B2094655D26EA1FE439B","title":"快乐营儿童美术创艺中心","lon":"121.40313","lat":"31.15032","category":"190","category_name":"培训机构","address":"古美路850"},{"poiid":"B2094757D16CA1FA4893","title":"桂梅别墅","lon":"121.40885323145108","lat":"31.156210351304168","category":"47","category_name":"住宅区","address":"上海市徐汇区 桂平路251弄4～41号"},{"poiid":"B2094654DA65A5FA4092","title":"欣园新邨","lon":"121.40738","lat":"31.15731","category":"47","category_name":"住宅区","address":"桂平路257弄1-52号"},{"poiid":"B2094654DB6CA0F5459C","title":"麦德龙(顾戴路)","lon":"121.40747","lat":"31.14768","category":"118","category_name":"超级市场","address":"顾戴路80号"},{"poiid":"B2094757D06FA4FE439F","title":"宝燕海鲜","lon":"121.40241572","lat":"31.15091316","category":"75","category_name":"浙江菜","address":"闵行区古美路949号(古龙路口)"},{"poiid":"B2094757DB6AA1FA469C","title":"庖贰牛肉火锅","lon":"121.4024688","lat":"31.1517736","category":"86","category_name":"火锅店","address":"闵行区古美路986号"},{"poiid":"B2094757D06FA0FC4892","title":"迪卡侬(顾戴店)","lon":"121.40626704","lat":"31.146511623","category":"140","category_name":"体育用品店","address":"闵行区顾戴路108号百安居2楼1号(近麦德龙)"},{"poiid":"B2094654DA65A7FE4392","title":"康健广场","lon":"121.41161","lat":"31.15182","category":"119","category_name":"商场","address":"徐汇区桂平路188号"},{"poiid":"B2094757D068ABFC489E","title":"蔚蓝城市花园","lon":"121.40428358","lat":"31.15089688","category":"47","category_name":"住宅区","address":"闵行区古美路828号"},{"poiid":"B2094757D068A5FB469C","title":"中环高架","lon":"121.40972417","lat":"31.154925955","category":"500","category_name":"未知分类","address":"上海吴中路段"},{"poiid":"B2094654DB65A6FF409F","title":"东苑古龙城","lon":"121.40402","lat":"31.15259","category":"47","category_name":"住宅区","address":"古龙路66弄"},{"poiid":"B2094757D069A7FE409D","title":"古道村落","lon":"121.40214117","lat":"31.151654021","category":"83","category_name":"云贵菜","address":"闵行区古美路959号(近古龙路)"},{"poiid":"B2094655D36CA6FC4399","title":"古美路东兰路","lon":"121.40073","lat":"31.15588","category":"38","category_name":"公交车站","address":""},{"poiid":"B2094750DA69A2FE469E","title":"农屋里香","lon":"121.4067","lat":"31.149841","category":"87","category_name":"特色／地方风味餐厅","address":"闵行区平吉路8号(近虹梅路)"},{"poiid":"B2094654DB64A2F9409B","title":"小龙酒家","lon":"121.41129114661","lat":"31.150974175193","category":"76","category_name":"上海菜","address":"徐汇区桂平路136号(浦北路口)"},{"poiid":"B2094654DB6CA0F54592","title":"古梅苑","lon":"121.40369500752","lat":"31.145662137364","category":"75","category_name":"浙江菜","address":"闵行区古美路639号(近顾戴路)"},{"poiid":"B2094757D16EAAF44698","title":"纽斯桑拿会所(70度房)","lon":"121.400744686","lat":"31.1556668239","category":"148","category_name":"美容美发店","address":"上海纽斯桑拿会所(70度房)"},{"poiid":"B2094757D068A3FD4098","title":"攀宇健身中心(古龙路店)","lon":"121.40351","lat":"31.15195","category":"148","category_name":"美容美发店","address":"闵行区古龙路66弄11号105室(古美路口)"},{"poiid":"B2094757D16EA4FC4599","title":"望族新城","lon":"121.40275","lat":"31.146326","category":"47","category_name":"住宅区","address":"上海市闵行区古美路675弄"},{"poiid":"B2094757D06FA1FA499D","title":"新时代景庭-欧源","lon":"121.40083895","lat":"31.150031361","category":"47","category_name":"住宅区","address":"上海市闵行区古龙路287弄"},{"poiid":"B2094654DA65A5FD4098","title":"蜀香村川菜(古美路店)","lon":"121.4014","lat":"31.15481","category":"71","category_name":"四川菜","address":"闵行区古美路1058号(近平南路)"},{"poiid":"B2094655D26FA6F9409C","title":"紫薇园","lon":"121.41022","lat":"31.151243","category":"47","category_name":"住宅区","address":"桂平路123弄1-22号"},{"poiid":"B2094654DB64A2FA429D","title":"华梅花苑","lon":"121.40401","lat":"31.155571","category":"47","category_name":"住宅区","address":"上海虹梅路999弄"},{"poiid":"B2094751DA6DA2F8429C","title":"复旦大学附属儿童医院","lon":"121.404725","lat":"31.150587","category":"162","category_name":"医院","address":"上海市万源路399号"},{"poiid":"B2094757DB68A4F54293","title":"徐家汇","lon":"121.410886","lat":"31.148891","category":"500","category_name":"未知分类","address":"上海徐汇区江安路18号(近虹漕南路)"},{"poiid":"B2094757D068AAF44392","title":"金宝贝(锦江乐园)","lon":"121.411611","lat":"31.151831","category":"57","category_name":"幼儿园","address":"上海市徐汇区桂平路188号康健休闲广场2F"},{"poiid":"B2094757D76FA5F9449D","title":"永和豆浆 古美路店","lon":"121.40241","lat":"31.15136","category":"74","category_name":"江苏菜","address":"古美路977号近古龙路"},{"poiid":"B2094655D36CA6FC439E","title":"古美路古龙路","lon":"121.40251","lat":"31.15114","category":"38","category_name":"公交车站","address":""},{"poiid":"B2094654DB65A7F8409F","title":"全家便利店(古龙店)","lon":"121.40448","lat":"31.15133","category":"117","category_name":"便民商店/便利店","address":"闵行区古龙路95号"},{"poiid":"B2094757D165A0FF4193","title":"友缘茶人","lon":"121.403759086","lat":"31.1506168753","category":"260","category_name":"其他","address":"闵行区古龙路206号(近古美路)"},{"poiid":"B2094751DA65AAF4449A","title":"漫咖啡","lon":"121.405265","lat":"31.149611","category":"247","category_name":"餐饮美食","address":"金汇南路265号"},{"poiid":"B2094654DB6CA7FC419C","title":"古美体育公园","lon":"121.40653","lat":"31.15175","category":"196","category_name":"公园","address":"徐汇区虹梅路(虹梅路田林路)"},{"poiid":"B2094654DB6CA7FC4698","title":"古龙商业街","lon":"121.40267","lat":"31.15182","category":"116","category_name":"特色商业街","address":"古美路978"},{"poiid":"B2094757D168A4F9409F","title":"永和豆浆捞(古美路店)","lon":"121.40202569","lat":"31.1521066766","category":"86","category_name":"火锅店","address":"闵行区古美路979号(平南路口)"},{"poiid":"B2094757D468A4FB449E","title":"吴门人家","lon":"121.410872","lat":"31.151214","category":"76","category_name":"上海菜","address":"徐汇区浦北路1081号(近桂平路)"},{"poiid":"B2094757D06BA3FF479A","title":"康健丽都","lon":"121.40569","lat":"31.147306","category":"252","category_name":"楼宇机构","address":"康健丽都位于闵行古美路,顾戴路口"},{"poiid":"B2094757D465A0F5439D","title":"千岛湖人家","lon":"121.402282","lat":"31.151421","category":"260","category_name":"其他","address":"闵行区古美路973号(近古龙路)"},{"poiid":"B2094753DA6EA5FC439C","title":"万源城尚郡","lon":"121.40322","lat":"31.150847","category":"47","category_name":"住宅区","address":"万源路932号"},{"poiid":"B2094757D068A5FC409F","title":"百安居(顾戴路店)","lon":"121.40718","lat":"31.14586","category":"123","category_name":"家具建材市场","address":"闵行区顾戴路108号(近锦江乐园)"},{"poiid":"B2094757D16BA6FB459D","title":"上海文莱中学高中部","lon":"121.40659958","lat":"31.152993921","category":"55","category_name":"中学","address":"上海市闵行区虹莘路2166号"},{"poiid":"B2094757D16AA7FF469E","title":"旺晖火锅城(古美路店)","lon":"121.40104258","lat":"31.154623953","category":"86","category_name":"火锅店","address":"闵行区古美路1168号(东兰路口)"},{"poiid":"B2094750D76DAAFE4493","title":"吉腾の拉面","lon":"121.402","lat":"31.1536","category":"95","category_name":"日本料理","address":"徐汇区古美路1528号漕河泾开发区总业园A7号楼B1楼D6室"},{"poiid":"B2094750D76DA4FE4699","title":"乌镇面馆","lon":"121.402","lat":"31.1528","category":"68","category_name":"快餐厅","address":"闵行区古美路(东兰路口)"},{"poiid":"B2094757D66CA1F94692","title":"苗家酒楼","lon":"121.411375886","lat":"31.15239241","category":"83","category_name":"云贵菜","address":"徐汇区桂平路99-6号(近浦北路)"},{"poiid":"B2094654DB65A2FC499D","title":"玫瑰园","lon":"121.40876","lat":"31.15394","category":"47","category_name":"住宅区","address":"玫瑰园位于徐汇桂平路165弄"},{"poiid":"B2094654DA65A7FE4492","title":"米香苑韩式料理","lon":"121.41161","lat":"31.15183","category":"96","category_name":"韩国料理","address":"徐汇区桂平路188号康健休闲广场1楼118号(浦北路口)"},{"poiid":"B2094654DB65A0FD4899","title":"快客No.5187","lon":"121.40239","lat":"31.15229","category":"117","category_name":"便民商店/便利店","address":"古美路1010"},{"poiid":"B2094654DB6CA7FC419E","title":"芭芙莱泳健会","lon":"121.40686","lat":"31.14936","category":"190","category_name":"培训机构","address":"闵行区平吉路22号(近虹梅路麦德龙后门)"},{"poiid":"B2094655D26AAAFB439A","title":"欧艾姆比萨与西点古美店","lon":"121.40419","lat":"31.14801","category":"94","category_name":"西餐厅","address":"闵行区平吉路91号(古美路口)"},{"poiid":"B2094655D268A5FD429C","title":"古龙·郦都","lon":"121.40168","lat":"31.15212","category":"47","category_name":"住宅区","address":"闵行区古龙路300弄"},{"poiid":"B2094655D26EA1FE439B","title":"快乐营儿童美术创艺中心","lon":"121.40313","lat":"31.15032","category":"190","category_name":"培训机构","address":"古美路850"},{"poiid":"B2094757D16CA1FA4893","title":"桂梅别墅","lon":"121.40885323145108","lat":"31.156210351304168","category":"47","category_name":"住宅区","address":"上海市徐汇区 桂平路251弄4～41号"},{"poiid":"B2094654DA65A5FA4092","title":"欣园新邨","lon":"121.40738","lat":"31.15731","category":"47","category_name":"住宅区","address":"桂平路257弄1-52号"}]