[{"poiid":"B2094654DB69A6FD4092","title":"上海港外高桥港区四期集装箱码头","lon":"121.65217","lat":"31.3242","category":"34","category_name":"港口码头","address":"港建路与越海路交叉口"},{"poiid":"B2094757D068A7FE489D","title":"外高桥五期码头","lon":"121.65494537","lat":"31.322025299","category":"500","category_name":"未知分类","address":"上海浦东新区港建路999号"},{"poiid":"B2094757D06FA1FC469C","title":"外高桥四期码头","lon":"121.65071106","lat":"31.3235397339","category":"46","category_name":"楼宇","address":"上海市浦东新区港建路1号"},{"poiid":"B2094757D069A6FC449D","title":"上海明东集装箱码头有限公司","lon":"121.654945","lat":"31.322026","category":"263","category_name":"公司","address":"上海市浦东新区港建路999号"},{"poiid":"B2094757D064ABF44698","title":"外高桥六期码头海关大楼","lon":"121.6554331","lat":"31.3204731","category":"500","category_name":"未知分类","address":"上海浦东新区港建路3988号"},{"poiid":"B2094757D064A2FD499F","title":"上海绕城高速高东收费站","lon":"121.665118229","lat":"31.3054575424","category":"267","category_name":"收费站","address":"上海绕城高速高东收费站"},{"poiid":"B2094654D569A3F9419B","title":"上海国际港务(集团)股份有限公司","lon":"121.65734","lat":"31.32","category":"266","category_name":"三甲医院","address":"港建路825"},{"poiid":"B2094655D264A4F94692","title":"G1501上海绕城高速高东收费站","lon":"121.66703","lat":"31.30552","category":"267","category_name":"收费站","address":"G1501上海绕城高速"},{"poiid":"B2094757D168AAF5469E","title":"东码头","lon":"121.654442","lat":"31.322447","category":"500","category_name":"未知分类","address":"上海杨树浦路340号 近秦皇岛路大连路"},{"poiid":"B2094757D168A2FD479F","title":"海通码头","lon":"121.654478984","lat":"31.3276760368","category":"260","category_name":"其他","address":"上海浦东新区外高桥港建路"},{"poiid":"B2094757D165A1FF4999","title":"杨园新村","lon":"121.63865730827","lat":"31.322282861356","category":"252","category_name":"楼宇机构","address":"新龙路289弄"},{"poiid":"B2094654D569A3F94092","title":"上海沪东集装箱码头有限公司2号门","lon":"121.65061","lat":"31.32366","category":"263","category_name":"公司","address":"港建路1号"},{"poiid":"B2094757DA6EAAFC4999","title":"上海外高桥出入境检验检疫局","lon":"121.650662999998","lat":"31.3236480000002","category":"248","category_name":"生活娱乐","address":"浦东新区港建路1号"},{"poiid":"B2094655D36CA6FC4699","title":"共新码头","lon":"121.66205","lat":"31.31338","category":"38","category_name":"公交车站","address":""},{"poiid":"B2094757D66CA5F44593","title":"崇启大桥","lon":"121.66493595","lat":"31.3052409838","category":"260","category_name":"其他","address":"上海崇明到启东"},{"poiid":"B2094655D36DA2F4479A","title":"浦东运河黄家湾桥","lon":"121.64405","lat":"31.32158","category":"250","category_name":"公园户外","address":""},{"poiid":"B2094757D065A6F4429F","title":"上海外高桥造船有限公司  科技楼","lon":"121.638169239","lat":"31.3302677437","category":"500","category_name":"未知分类","address":"上海洲海路3001号"},{"poiid":"B2094757D064A4FF4493","title":"华滕生态度假园","lon":"121.64938","lat":"31.30595","category":"260","category_name":"其他","address":"浦东新区高东镇龙跃路888号(上钦路口)"},{"poiid":"B2094757D66FA1F5449F","title":"意得户外运动俱乐部(高东基地)","lon":"121.64909","lat":"31.31311","category":"173","category_name":"游戏厅","address":"上海浦东新区高东镇龙跃路888号(近上钦路)  "},{"poiid":"B2094654D569A3F9409D","title":"上海华腾生态园林有限公司","lon":"121.64703","lat":"31.31235","category":"263","category_name":"公司","address":""},{"poiid":"B2094757D665A1F4419E","title":"华腾生态度假园农家菜","lon":"121.64911","lat":"31.30622","category":"76","category_name":"上海菜","address":"浦东新区龙跃路888号(近外高桥)"},{"poiid":"B2094757D16CA6FD459E","title":"上海海通国际汽车码头有限公司","lon":"121.64448742","lat":"31.333153476","category":"500","category_name":"未知分类","address":"上海洲海路3988号"},{"poiid":"B2094654D569A3FC4399","title":"上游村文化广场","lon":"121.64115","lat":"31.31074","category":"201","category_name":"城市广场","address":"上钦路168号"},{"poiid":"B2094654D569A3FD439D","title":"杨园别墅","lon":"121.638","lat":"31.316","category":"47","category_name":"住宅区","address":"赵高路968号"},{"poiid":"B2094654D569A3F9419C","title":"上海三亮绿化有限公司桃花源","lon":"121.64829","lat":"31.30881","category":"263","category_name":"公司","address":""},{"poiid":"B2094757D16BA5F5409C","title":"EastContainerTerminalCo., Ltd.","lon":"121.63746443","lat":"31.327387077","category":"500","category_name":"未知分类","address":"上海港建路1号"},{"poiid":"B2094654D569A3FF4193","title":"上海大道包装隔热材料有限公司","lon":"121.65808","lat":"31.30287","category":"263","category_name":"公司","address":"顾徐路8号"},{"poiid":"B2094757D16AA2FC419C","title":"怡世翔","lon":"121.66180595","lat":"31.3035601475","category":"500","category_name":"未知分类","address":"上海德堡路379号"},{"poiid":"B2094757D164A4F84393","title":"水玫女子SPA专业会所(中山公园店)","lon":"121.66443935","lat":"31.3050891805","category":"500","category_name":"未知分类","address":"上海长宁区武夷路777号长宁国际体操中心游泳馆2楼"}]