[{"poiid":"B2094655D26FA1F54398","title":"中远两湾城","lon":"121.44433","lat":"31.252873","category":"47","category_name":"住宅区","address":"上海中潭路100弄2～360号"},{"poiid":"B2094757D06EAAFF429B","title":"中潭路地铁站","lon":"121.441638","lat":"31.254717","category":"36","category_name":"地铁站","address":"上海轨道交通 三号线 四号线 轨交中潭路站 轻轨 3 4"},{"poiid":"B2094750D76EABFA419A","title":"星巴克(中潭路店)","lon":"121.443","lat":"31.2524","category":"260","category_name":"其他","address":"普陀区中潭路71号(近远景路)"},{"poiid":"B209475CD564A7F8439E","title":"上海滩中信泰富店","lon":"121.45602","lat":"31.22851","category":"119","category_name":"商场","address":"\"南京西路1168号中信泰富广场，店铺号221.\r\n\""},{"poiid":"B2094757D06FA4FE489A","title":"普陀山海鲜大酒店(普陀店)","lon":"121.44526","lat":"31.25736","category":"88","category_name":"海鲜酒楼","address":"普陀区骊山路16号(近中山北路)"},{"poiid":"B2094757D068A5FF4093","title":"莫干山路涂鸦墙","lon":"121.44355495","lat":"31.249478668","category":"500","category_name":"未知分类","address":"上海市普陀区莫干山路"},{"poiid":"B2094757D06FA4FD409E","title":"一兆韦德(中远两湾城店)","lon":"121.44843","lat":"31.25147","category":"221","category_name":"健身中心","address":"普陀区远景路97弄中远两湾城23号(近上海火车站)"},{"poiid":"B2094655D26FA1F44598","title":"中远两湾城西门","lon":"121.44387","lat":"31.25119","category":"48","category_name":"楼宇大门","address":"中潭路100弄176"},{"poiid":"B2094655D36DA7F8429B","title":"中山北路交通路","lon":"121.4464","lat":"31.25764","category":"38","category_name":"公交车站","address":"上海市普陀区交通路1461弄"},{"poiid":"B2094654DA6CA5FC4293","title":"富丽大厦","lon":"121.448","lat":"31.2526","category":"46","category_name":"楼宇","address":"上海市普陀区江宁路1286号或江宁路1306弄"},{"poiid":"B2094757D068A4F84899","title":"大马头香港美食","lon":"121.443324","lat":"31.251285","category":"72","category_name":"广东菜","address":"普陀区中潭路49号(近中远两湾城)"},{"poiid":"B2094757D068AAFA419D","title":"平江盛世家园","lon":"121.447951","lat":"31.256852","category":"47","category_name":"住宅区","address":"上海市闸北区交城路386弄"},{"poiid":"B2094757D069A2F54092","title":"阿拉丁清真餐厅","lon":"121.44803","lat":"31.25408","category":"90","category_name":"清真餐馆","address":"普陀区交通西路21号克拉玛依宾馆1楼(近交通路)"},{"poiid":"B2094654DB69A5F5459E","title":"格林豪泰酒店(中山沪太店)","lon":"121.44665","lat":"31.25716","category":"216","category_name":"经济型连锁酒店","address":"普陀区中山北路1228号(近骊山路)"},{"poiid":"B2094655D26EA5F94399","title":"六角形法国西餐厅 Douce France","lon":"121.44140859447","lat":"31.253440032532","category":"247","category_name":"餐饮美食","address":"中远两湾城100弄54号中潭路"},{"poiid":"B2094654DB6AABF4469C","title":"上海克拉玛依石油宾馆","lon":"121.44759","lat":"31.25407","category":"250","category_name":"公园户外","address":"上海普陀区交通路1333号(近交通路)"},{"poiid":"B2094654DB69A6FA409A","title":"中远两湾城四期(璀璨天成)","lon":"121.44374","lat":"31.24952","category":"47","category_name":"住宅区","address":"普陀区中潭路41号"},{"poiid":"B2094655D26AA0F9409D","title":"地铁中潭路站","lon":"121.44163","lat":"31.25471","category":"36","category_name":"地铁站","address":""},{"poiid":"B2094654DA6CA5FC429C","title":"三维大厦","lon":"121.448","lat":"31.2533","category":"46","category_name":"楼宇","address":"卢湾区局门路427号(邮编:200023)"},{"poiid":"B2094654D465A7FB409D","title":"智荟苑","lon":"121.44738","lat":"31.255966","category":"47","category_name":"住宅区","address":"交通西路129弄1-21"},{"poiid":"B2094750D269A3F4479F","title":"starbucks 星巴克 （中潭路店）","lon":"121.446121","lat":"31.252788","category":"247","category_name":"餐饮美食","address":"中潭路90弄"},{"poiid":"B2094752D664A0FB489A","title":"上海火车站","lon":"121.443191","lat":"31.254116","category":"500","category_name":"未知分类","address":null},{"poiid":"B2094750D664A1F8489B","title":"外婆小菜","lon":"121.444","lat":"31.2516","category":"76","category_name":"上海菜","address":"普陀区中潭路"},{"poiid":"B2094655D26CA7FE4198","title":"中远两湾城社区卫生服务站","lon":"121.44573","lat":"31.25349","category":"162","category_name":"医院","address":"中潭路100弄224"},{"poiid":"B2094654DB69AAF4419E","title":"两岸咖啡 中潭店","lon":"121.443570054","lat":"31.248886793","category":"247","category_name":"餐饮美食","address":"普陀区中潭路100弄中远两湾城内(近宜昌路)"},{"poiid":"B2094654D465A7FA419A","title":"小金捞上汤火锅料理","lon":"121.44468436778","lat":"31.247049753008","category":"86","category_name":"火锅店","address":"普陀区昌化路1200号(近莫干山路)"},{"poiid":"B2094654D465A6FC4199","title":"浅水湾养生会馆","lon":"121.44281","lat":"31.25205","category":"149","category_name":"洗浴推拿场所","address":"普陀区中潭路(清水湾路中潭路)"},{"poiid":"B2094750DA6FA6F9499E","title":"久光百货","lon":"121.447196","lat":"31.252027","category":"249","category_name":"购物服务","address":null},{"poiid":"B2094654D465A7FA4892","title":"龚家宅","lon":"121.44506","lat":"31.255194","category":"47","category_name":"住宅区","address":"交通路1459弄-1461弄"},{"poiid":"B2094654D465A7FB409C","title":"新黄浦实验学校","lon":"121.44778","lat":"31.25473","category":"56","category_name":"小学","address":"交通西路95"},{"poiid":"B2094757D66FA0F94292","title":"格林豪泰酒店集团","lon":"121.44475531","lat":"31.256250857","category":"46","category_name":"楼宇","address":"上海普陀区中山北路1238号"},{"poiid":"B2094757D16BA5FD419D","title":"莫干山路","lon":"121.45006565","lat":"31.2509608964","category":"500","category_name":"未知分类","address":"上海莫干山路"},{"poiid":"B2094757DA65A5F4419C","title":"布丁酒店连锁（上海火车站店）","lon":"121.447259","lat":"31.257248","category":"216","category_name":"经济型连锁酒店","address":"上海市普陀区中山北路1218号(近交通西路)。"},{"poiid":"B2094750DA69A7F54298","title":"星巴克中远两湾城","lon":"121.443061","lat":"31.252006","category":"247","category_name":"餐饮美食","address":"中潭路71号"},{"poiid":"B2094655D36CA0F8439D","title":"交通路交通西路","lon":"121.44655","lat":"31.2543","category":"38","category_name":"公交车站","address":""},{"poiid":"B2094757D66DA6F44393","title":"大洋小区","lon":"121.44888","lat":"31.254152","category":"47","category_name":"住宅区","address":"上海普陀区交通西路"},{"poiid":"B2094654DB65A6F4459B","title":"圣天地商务楼","lon":"121.45","lat":"31.25","category":"46","category_name":"楼宇","address":"江宁路1165号"},{"poiid":"B2094757D164AAFE4292","title":"吉祥馄饨(中潭路店)","lon":"121.44326","lat":"31.25194","category":"68","category_name":"快餐厅","address":"普陀区中潭路65号(近轻轨四号线中潭路站)"},{"poiid":"B2094757D16AA2FB419D","title":"博士娃幼儿园中远园","lon":"121.44476995","lat":"31.2538347513","category":"500","category_name":"未知分类","address":"上海中潭路100弄76号"},{"poiid":"B2094655D265A1FC4799","title":"满记甜品(中福店)","lon":"121.44788","lat":"31.25407","category":"67","category_name":"甜品店","address":"浙江中路229号123、125室"},{"poiid":"B2094751D569A3FB4298","title":"上海火車站","lon":"121.446503","lat":"31.255588","category":"627","category_name":"一般地点标志","address":null},{"poiid":"B2094654D465A7FA4993","title":"可的(交通路)","lon":"121.4465","lat":"31.25463","category":"117","category_name":"便民商店/便利店","address":"普陀区交通路1421号"},{"poiid":"B2094655D26AA7FC469C","title":"克拉玛依宾馆","lon":"121.44776","lat":"31.254","category":"247","category_name":"餐饮美食","address":"闸北区交通西路21号(交通路交通西路)"},{"poiid":"B2094654DA6CA6F5469D","title":"燕兴大厦","lon":"121.449","lat":"31.2531","category":"46","category_name":"楼宇","address":"江宁路1306弄12号"},{"poiid":"B2094655D26EA4F4499A","title":"老科曼","lon":"121.44759","lat":"31.25407","category":"247","category_name":"餐饮美食","address":"交通路1333号克拉玛依宾馆1楼近中山北路"},{"poiid":"B2094757D16DA0F54798","title":"G7010上海﹣南京","lon":"121.44396817","lat":"31.251904164","category":"500","category_name":"未知分类","address":"上海高鐵和諧號"},{"poiid":"B2094757D66DA2FB4099","title":"AMI CAFE","lon":"121.44781495","lat":"31.2525137261","category":"260","category_name":"其他","address":"普陀区远景路97弄49号(近中潭路)"},{"poiid":"B209475DD769A5FC479D","title":"世纪公园","lon":"121.448425","lat":"31.255264","category":"250","category_name":"公园户外","address":"上海市 上海市浦东新区锦绣路1001号"},{"poiid":"B2094757D464A0F8459A","title":"交通路恒悦轩","lon":"121.444893054","lat":"31.255087793","category":"76","category_name":"上海菜","address":"交通西路21号克拉玛依宾馆1楼（或交通路1333号）近交通路"},{"poiid":"B2094655D36DA7F84992","title":"中潭路远景路","lon":"121.44288","lat":"31.25242","category":"38","category_name":"公交车站","address":""},{"poiid":"B2094655D26FA1F54398","title":"中远两湾城","lon":"121.44433","lat":"31.252873","category":"47","category_name":"住宅区","address":"上海中潭路100弄2～360号"},{"poiid":"B2094757D06EAAFF429B","title":"中潭路地铁站","lon":"121.441638","lat":"31.254717","category":"36","category_name":"地铁站","address":"上海轨道交通 三号线 四号线 轨交中潭路站 轻轨 3 4"},{"poiid":"B2094750D76EABFA419A","title":"星巴克(中潭路店)","lon":"121.443","lat":"31.2524","category":"260","category_name":"其他","address":"普陀区中潭路71号(近远景路)"},{"poiid":"B209475CD564A7F8439E","title":"上海滩中信泰富店","lon":"121.45602","lat":"31.22851","category":"119","category_name":"商场","address":"\"南京西路1168号中信泰富广场，店铺号221.\r\n\""},{"poiid":"B2094757D06FA4FE489A","title":"普陀山海鲜大酒店(普陀店)","lon":"121.44526","lat":"31.25736","category":"88","category_name":"海鲜酒楼","address":"普陀区骊山路16号(近中山北路)"},{"poiid":"B2094757D068A5FF4093","title":"莫干山路涂鸦墙","lon":"121.44355495","lat":"31.249478668","category":"500","category_name":"未知分类","address":"上海市普陀区莫干山路"},{"poiid":"B2094757D06FA4FD409E","title":"一兆韦德(中远两湾城店)","lon":"121.44843","lat":"31.25147","category":"221","category_name":"健身中心","address":"普陀区远景路97弄中远两湾城23号(近上海火车站)"},{"poiid":"B2094655D26FA1F44598","title":"中远两湾城西门","lon":"121.44387","lat":"31.25119","category":"48","category_name":"楼宇大门","address":"中潭路100弄176"},{"poiid":"B2094655D36DA7F8429B","title":"中山北路交通路","lon":"121.4464","lat":"31.25764","category":"38","category_name":"公交车站","address":"上海市普陀区交通路1461弄"},{"poiid":"B2094654DA6CA5FC4293","title":"富丽大厦","lon":"121.448","lat":"31.2526","category":"46","category_name":"楼宇","address":"上海市普陀区江宁路1286号或江宁路1306弄"},{"poiid":"B2094757D068A4F84899","title":"大马头香港美食","lon":"121.443324","lat":"31.251285","category":"72","category_name":"广东菜","address":"普陀区中潭路49号(近中远两湾城)"},{"poiid":"B2094757D068AAFA419D","title":"平江盛世家园","lon":"121.447951","lat":"31.256852","category":"47","category_name":"住宅区","address":"上海市闸北区交城路386弄"},{"poiid":"B2094757D069A2F54092","title":"阿拉丁清真餐厅","lon":"121.44803","lat":"31.25408","category":"90","category_name":"清真餐馆","address":"普陀区交通西路21号克拉玛依宾馆1楼(近交通路)"},{"poiid":"B2094654DB69A5F5459E","title":"格林豪泰酒店(中山沪太店)","lon":"121.44665","lat":"31.25716","category":"216","category_name":"经济型连锁酒店","address":"普陀区中山北路1228号(近骊山路)"},{"poiid":"B2094655D26EA5F94399","title":"六角形法国西餐厅 Douce France","lon":"121.44140859447","lat":"31.253440032532","category":"247","category_name":"餐饮美食","address":"中远两湾城100弄54号中潭路"},{"poiid":"B2094654DB6AABF4469C","title":"上海克拉玛依石油宾馆","lon":"121.44759","lat":"31.25407","category":"250","category_name":"公园户外","address":"上海普陀区交通路1333号(近交通路)"},{"poiid":"B2094654DB69A6FA409A","title":"中远两湾城四期(璀璨天成)","lon":"121.44374","lat":"31.24952","category":"47","category_name":"住宅区","address":"普陀区中潭路41号"},{"poiid":"B2094655D26AA0F9409D","title":"地铁中潭路站","lon":"121.44163","lat":"31.25471","category":"36","category_name":"地铁站","address":""},{"poiid":"B2094654DA6CA5FC429C","title":"三维大厦","lon":"121.448","lat":"31.2533","category":"46","category_name":"楼宇","address":"卢湾区局门路427号(邮编:200023)"},{"poiid":"B2094654D465A7FB409D","title":"智荟苑","lon":"121.44738","lat":"31.255966","category":"47","category_name":"住宅区","address":"交通西路129弄1-21"},{"poiid":"B2094750D269A3F4479F","title":"starbucks 星巴克 （中潭路店）","lon":"121.446121","lat":"31.252788","category":"247","category_name":"餐饮美食","address":"中潭路90弄"},{"poiid":"B2094752D664A0FB489A","title":"上海火车站","lon":"121.443191","lat":"31.254116","category":"500","category_name":"未知分类","address":null},{"poiid":"B2094750D664A1F8489B","title":"外婆小菜","lon":"121.444","lat":"31.2516","category":"76","category_name":"上海菜","address":"普陀区中潭路"},{"poiid":"B2094655D26CA7FE4198","title":"中远两湾城社区卫生服务站","lon":"121.44573","lat":"31.25349","category":"162","category_name":"医院","address":"中潭路100弄224"},{"poiid":"B2094654DB69AAF4419E","title":"两岸咖啡 中潭店","lon":"121.443570054","lat":"31.248886793","category":"247","category_name":"餐饮美食","address":"普陀区中潭路100弄中远两湾城内(近宜昌路)"},{"poiid":"B2094654D465A7FA419A","title":"小金捞上汤火锅料理","lon":"121.44468436778","lat":"31.247049753008","category":"86","category_name":"火锅店","address":"普陀区昌化路1200号(近莫干山路)"},{"poiid":"B2094654D465A6FC4199","title":"浅水湾养生会馆","lon":"121.44281","lat":"31.25205","category":"149","category_name":"洗浴推拿场所","address":"普陀区中潭路(清水湾路中潭路)"},{"poiid":"B2094750DA6FA6F9499E","title":"久光百货","lon":"121.447196","lat":"31.252027","category":"249","category_name":"购物服务","address":null},{"poiid":"B2094654D465A7FA4892","title":"龚家宅","lon":"121.44506","lat":"31.255194","category":"47","category_name":"住宅区","address":"交通路1459弄-1461弄"},{"poiid":"B2094654D465A7FB409C","title":"新黄浦实验学校","lon":"121.44778","lat":"31.25473","category":"56","category_name":"小学","address":"交通西路95"},{"poiid":"B2094757D66FA0F94292","title":"格林豪泰酒店集团","lon":"121.44475531","lat":"31.256250857","category":"46","category_name":"楼宇","address":"上海普陀区中山北路1238号"},{"poiid":"B2094757D16BA5FD419D","title":"莫干山路","lon":"121.45006565","lat":"31.2509608964","category":"500","category_name":"未知分类","address":"上海莫干山路"},{"poiid":"B2094757DA65A5F4419C","title":"布丁酒店连锁（上海火车站店）","lon":"121.447259","lat":"31.257248","category":"216","category_name":"经济型连锁酒店","address":"上海市普陀区中山北路1218号(近交通西路)。"},{"poiid":"B2094750DA69A7F54298","title":"星巴克中远两湾城","lon":"121.443061","lat":"31.252006","category":"247","category_name":"餐饮美食","address":"中潭路71号"},{"poiid":"B2094655D36CA0F8439D","title":"交通路交通西路","lon":"121.44655","lat":"31.2543","category":"38","category_name":"公交车站","address":""},{"poiid":"B2094757D66DA6F44393","title":"大洋小区","lon":"121.44888","lat":"31.254152","category":"47","category_name":"住宅区","address":"上海普陀区交通西路"},{"poiid":"B2094654DB65A6F4459B","title":"圣天地商务楼","lon":"121.45","lat":"31.25","category":"46","category_name":"楼宇","address":"江宁路1165号"},{"poiid":"B2094757D164AAFE4292","title":"吉祥馄饨(中潭路店)","lon":"121.44326","lat":"31.25194","category":"68","category_name":"快餐厅","address":"普陀区中潭路65号(近轻轨四号线中潭路站)"},{"poiid":"B2094757D16AA2FB419D","title":"博士娃幼儿园中远园","lon":"121.44476995","lat":"31.2538347513","category":"500","category_name":"未知分类","address":"上海中潭路100弄76号"},{"poiid":"B2094655D265A1FC4799","title":"满记甜品(中福店)","lon":"121.44788","lat":"31.25407","category":"67","category_name":"甜品店","address":"浙江中路229号123、125室"},{"poiid":"B2094751D569A3FB4298","title":"上海火車站","lon":"121.446503","lat":"31.255588","category":"627","category_name":"一般地点标志","address":null},{"poiid":"B2094654D465A7FA4993","title":"可的(交通路)","lon":"121.4465","lat":"31.25463","category":"117","category_name":"便民商店/便利店","address":"普陀区交通路1421号"},{"poiid":"B2094655D26AA7FC469C","title":"克拉玛依宾馆","lon":"121.44776","lat":"31.254","category":"247","category_name":"餐饮美食","address":"闸北区交通西路21号(交通路交通西路)"},{"poiid":"B2094654DA6CA6F5469D","title":"燕兴大厦","lon":"121.449","lat":"31.2531","category":"46","category_name":"楼宇","address":"江宁路1306弄12号"},{"poiid":"B2094655D26EA4F4499A","title":"老科曼","lon":"121.44759","lat":"31.25407","category":"247","category_name":"餐饮美食","address":"交通路1333号克拉玛依宾馆1楼近中山北路"},{"poiid":"B2094757D16DA0F54798","title":"G7010上海﹣南京","lon":"121.44396817","lat":"31.251904164","category":"500","category_name":"未知分类","address":"上海高鐵和諧號"},{"poiid":"B2094757D66DA2FB4099","title":"AMI CAFE","lon":"121.44781495","lat":"31.2525137261","category":"260","category_name":"其他","address":"普陀区远景路97弄49号(近中潭路)"},{"poiid":"B209475DD769A5FC479D","title":"世纪公园","lon":"121.448425","lat":"31.255264","category":"250","category_name":"公园户外","address":"上海市 上海市浦东新区锦绣路1001号"},{"poiid":"B2094757D464A0F8459A","title":"交通路恒悦轩","lon":"121.444893054","lat":"31.255087793","category":"76","category_name":"上海菜","address":"交通西路21号克拉玛依宾馆1楼（或交通路1333号）近交通路"},{"poiid":"B2094655D36DA7F84992","title":"中潭路远景路","lon":"121.44288","lat":"31.25242","category":"38","category_name":"公交车站","address":""},{"poiid":"B2094655D26FA1F54398","title":"中远两湾城","lon":"121.44433","lat":"31.252873","category":"47","category_name":"住宅区","address":"上海中潭路100弄2～360号"},{"poiid":"B2094757D06EAAFF429B","title":"中潭路地铁站","lon":"121.441638","lat":"31.254717","category":"36","category_name":"地铁站","address":"上海轨道交通 三号线 四号线 轨交中潭路站 轻轨 3 4"},{"poiid":"B2094750D76EABFA419A","title":"星巴克(中潭路店)","lon":"121.443","lat":"31.2524","category":"260","category_name":"其他","address":"普陀区中潭路71号(近远景路)"},{"poiid":"B209475CD564A7F8439E","title":"上海滩中信泰富店","lon":"121.45602","lat":"31.22851","category":"119","category_name":"商场","address":"\"南京西路1168号中信泰富广场，店铺号221.\r\n\""},{"poiid":"B2094757D06FA4FE489A","title":"普陀山海鲜大酒店(普陀店)","lon":"121.44526","lat":"31.25736","category":"88","category_name":"海鲜酒楼","address":"普陀区骊山路16号(近中山北路)"},{"poiid":"B2094757D068A5FF4093","title":"莫干山路涂鸦墙","lon":"121.44355495","lat":"31.249478668","category":"500","category_name":"未知分类","address":"上海市普陀区莫干山路"},{"poiid":"B2094757D06FA4FD409E","title":"一兆韦德(中远两湾城店)","lon":"121.44843","lat":"31.25147","category":"221","category_name":"健身中心","address":"普陀区远景路97弄中远两湾城23号(近上海火车站)"},{"poiid":"B2094655D26FA1F44598","title":"中远两湾城西门","lon":"121.44387","lat":"31.25119","category":"48","category_name":"楼宇大门","address":"中潭路100弄176"},{"poiid":"B2094655D36DA7F8429B","title":"中山北路交通路","lon":"121.4464","lat":"31.25764","category":"38","category_name":"公交车站","address":"上海市普陀区交通路1461弄"},{"poiid":"B2094654DA6CA5FC4293","title":"富丽大厦","lon":"121.448","lat":"31.2526","category":"46","category_name":"楼宇","address":"上海市普陀区江宁路1286号或江宁路1306弄"},{"poiid":"B2094757D068A4F84899","title":"大马头香港美食","lon":"121.443324","lat":"31.251285","category":"72","category_name":"广东菜","address":"普陀区中潭路49号(近中远两湾城)"},{"poiid":"B2094757D068AAFA419D","title":"平江盛世家园","lon":"121.447951","lat":"31.256852","category":"47","category_name":"住宅区","address":"上海市闸北区交城路386弄"},{"poiid":"B2094757D069A2F54092","title":"阿拉丁清真餐厅","lon":"121.44803","lat":"31.25408","category":"90","category_name":"清真餐馆","address":"普陀区交通西路21号克拉玛依宾馆1楼(近交通路)"},{"poiid":"B2094654DB69A5F5459E","title":"格林豪泰酒店(中山沪太店)","lon":"121.44665","lat":"31.25716","category":"216","category_name":"经济型连锁酒店","address":"普陀区中山北路1228号(近骊山路)"},{"poiid":"B2094655D26EA5F94399","title":"六角形法国西餐厅 Douce France","lon":"121.44140859447","lat":"31.253440032532","category":"247","category_name":"餐饮美食","address":"中远两湾城100弄54号中潭路"},{"poiid":"B2094654DB6AABF4469C","title":"上海克拉玛依石油宾馆","lon":"121.44759","lat":"31.25407","category":"250","category_name":"公园户外","address":"上海普陀区交通路1333号(近交通路)"},{"poiid":"B2094654DB69A6FA409A","title":"中远两湾城四期(璀璨天成)","lon":"121.44374","lat":"31.24952","category":"47","category_name":"住宅区","address":"普陀区中潭路41号"},{"poiid":"B2094655D26AA0F9409D","title":"地铁中潭路站","lon":"121.44163","lat":"31.25471","category":"36","category_name":"地铁站","address":""},{"poiid":"B2094654DA6CA5FC429C","title":"三维大厦","lon":"121.448","lat":"31.2533","category":"46","category_name":"楼宇","address":"卢湾区局门路427号(邮编:200023)"},{"poiid":"B2094654D465A7FB409D","title":"智荟苑","lon":"121.44738","lat":"31.255966","category":"47","category_name":"住宅区","address":"交通西路129弄1-21"},{"poiid":"B2094750D269A3F4479F","title":"starbucks 星巴克 （中潭路店）","lon":"121.446121","lat":"31.252788","category":"247","category_name":"餐饮美食","address":"中潭路90弄"},{"poiid":"B2094752D664A0FB489A","title":"上海火车站","lon":"121.443191","lat":"31.254116","category":"500","category_name":"未知分类","address":null},{"poiid":"B2094750D664A1F8489B","title":"外婆小菜","lon":"121.444","lat":"31.2516","category":"76","category_name":"上海菜","address":"普陀区中潭路"},{"poiid":"B2094655D26CA7FE4198","title":"中远两湾城社区卫生服务站","lon":"121.44573","lat":"31.25349","category":"162","category_name":"医院","address":"中潭路100弄224"},{"poiid":"B2094654DB69AAF4419E","title":"两岸咖啡 中潭店","lon":"121.443570054","lat":"31.248886793","category":"247","category_name":"餐饮美食","address":"普陀区中潭路100弄中远两湾城内(近宜昌路)"},{"poiid":"B2094654D465A7FA419A","title":"小金捞上汤火锅料理","lon":"121.44468436778","lat":"31.247049753008","category":"86","category_name":"火锅店","address":"普陀区昌化路1200号(近莫干山路)"},{"poiid":"B2094654D465A6FC4199","title":"浅水湾养生会馆","lon":"121.44281","lat":"31.25205","category":"149","category_name":"洗浴推拿场所","address":"普陀区中潭路(清水湾路中潭路)"},{"poiid":"B2094750DA6FA6F9499E","title":"久光百货","lon":"121.447196","lat":"31.252027","category":"249","category_name":"购物服务","address":null},{"poiid":"B2094654D465A7FA4892","title":"龚家宅","lon":"121.44506","lat":"31.255194","category":"47","category_name":"住宅区","address":"交通路1459弄-1461弄"},{"poiid":"B2094654D465A7FB409C","title":"新黄浦实验学校","lon":"121.44778","lat":"31.25473","category":"56","category_name":"小学","address":"交通西路95"},{"poiid":"B2094757D66FA0F94292","title":"格林豪泰酒店集团","lon":"121.44475531","lat":"31.256250857","category":"46","category_name":"楼宇","address":"上海普陀区中山北路1238号"},{"poiid":"B2094757D16BA5FD419D","title":"莫干山路","lon":"121.45006565","lat":"31.2509608964","category":"500","category_name":"未知分类","address":"上海莫干山路"},{"poiid":"B2094757DA65A5F4419C","title":"布丁酒店连锁（上海火车站店）","lon":"121.447259","lat":"31.257248","category":"216","category_name":"经济型连锁酒店","address":"上海市普陀区中山北路1218号(近交通西路)。"},{"poiid":"B2094750DA69A7F54298","title":"星巴克中远两湾城","lon":"121.443061","lat":"31.252006","category":"247","category_name":"餐饮美食","address":"中潭路71号"},{"poiid":"B2094655D36CA0F8439D","title":"交通路交通西路","lon":"121.44655","lat":"31.2543","category":"38","category_name":"公交车站","address":""},{"poiid":"B2094757D66DA6F44393","title":"大洋小区","lon":"121.44888","lat":"31.254152","category":"47","category_name":"住宅区","address":"上海普陀区交通西路"},{"poiid":"B2094654DB65A6F4459B","title":"圣天地商务楼","lon":"121.45","lat":"31.25","category":"46","category_name":"楼宇","address":"江宁路1165号"},{"poiid":"B2094757D164AAFE4292","title":"吉祥馄饨(中潭路店)","lon":"121.44326","lat":"31.25194","category":"68","category_name":"快餐厅","address":"普陀区中潭路65号(近轻轨四号线中潭路站)"},{"poiid":"B2094757D16AA2FB419D","title":"博士娃幼儿园中远园","lon":"121.44476995","lat":"31.2538347513","category":"500","category_name":"未知分类","address":"上海中潭路100弄76号"},{"poiid":"B2094655D265A1FC4799","title":"满记甜品(中福店)","lon":"121.44788","lat":"31.25407","category":"67","category_name":"甜品店","address":"浙江中路229号123、125室"},{"poiid":"B2094751D569A3FB4298","title":"上海火車站","lon":"121.446503","lat":"31.255588","category":"627","category_name":"一般地点标志","address":null},{"poiid":"B2094654D465A7FA4993","title":"可的(交通路)","lon":"121.4465","lat":"31.25463","category":"117","category_name":"便民商店/便利店","address":"普陀区交通路1421号"},{"poiid":"B2094655D26AA7FC469C","title":"克拉玛依宾馆","lon":"121.44776","lat":"31.254","category":"247","category_name":"餐饮美食","address":"闸北区交通西路21号(交通路交通西路)"},{"poiid":"B2094654DA6CA6F5469D","title":"燕兴大厦","lon":"121.449","lat":"31.2531","category":"46","category_name":"楼宇","address":"江宁路1306弄12号"},{"poiid":"B2094655D26EA4F4499A","title":"老科曼","lon":"121.44759","lat":"31.25407","category":"247","category_name":"餐饮美食","address":"交通路1333号克拉玛依宾馆1楼近中山北路"},{"poiid":"B2094757D16DA0F54798","title":"G7010上海﹣南京","lon":"121.44396817","lat":"31.251904164","category":"500","category_name":"未知分类","address":"上海高鐵和諧號"},{"poiid":"B2094757D66DA2FB4099","title":"AMI CAFE","lon":"121.44781495","lat":"31.2525137261","category":"260","category_name":"其他","address":"普陀区远景路97弄49号(近中潭路)"},{"poiid":"B209475DD769A5FC479D","title":"世纪公园","lon":"121.448425","lat":"31.255264","category":"250","category_name":"公园户外","address":"上海市 上海市浦东新区锦绣路1001号"},{"poiid":"B2094757D464A0F8459A","title":"交通路恒悦轩","lon":"121.444893054","lat":"31.255087793","category":"76","category_name":"上海菜","address":"交通西路21号克拉玛依宾馆1楼（或交通路1333号）近交通路"},{"poiid":"B2094655D36DA7F84992","title":"中潭路远景路","lon":"121.44288","lat":"31.25242","category":"38","category_name":"公交车站","address":""},{"poiid":"B2094655D26FA1F54398","title":"中远两湾城","lon":"121.44433","lat":"31.252873","category":"47","category_name":"住宅区","address":"上海中潭路100弄2～360号"},{"poiid":"B2094757D06EAAFF429B","title":"中潭路地铁站","lon":"121.441638","lat":"31.254717","category":"36","category_name":"地铁站","address":"上海轨道交通 三号线 四号线 轨交中潭路站 轻轨 3 4"},{"poiid":"B2094750D76EABFA419A","title":"星巴克(中潭路店)","lon":"121.443","lat":"31.2524","category":"260","category_name":"其他","address":"普陀区中潭路71号(近远景路)"},{"poiid":"B209475CD564A7F8439E","title":"上海滩中信泰富店","lon":"121.45602","lat":"31.22851","category":"119","category_name":"商场","address":"\"南京西路1168号中信泰富广场，店铺号221.\r\n\""},{"poiid":"B2094757D06FA4FE489A","title":"普陀山海鲜大酒店(普陀店)","lon":"121.44526","lat":"31.25736","category":"88","category_name":"海鲜酒楼","address":"普陀区骊山路16号(近中山北路)"},{"poiid":"B2094757D068A5FF4093","title":"莫干山路涂鸦墙","lon":"121.44355495","lat":"31.249478668","category":"500","category_name":"未知分类","address":"上海市普陀区莫干山路"},{"poiid":"B2094757D06FA4FD409E","title":"一兆韦德(中远两湾城店)","lon":"121.44843","lat":"31.25147","category":"221","category_name":"健身中心","address":"普陀区远景路97弄中远两湾城23号(近上海火车站)"},{"poiid":"B2094655D26FA1F44598","title":"中远两湾城西门","lon":"121.44387","lat":"31.25119","category":"48","category_name":"楼宇大门","address":"中潭路100弄176"},{"poiid":"B2094655D36DA7F8429B","title":"中山北路交通路","lon":"121.4464","lat":"31.25764","category":"38","category_name":"公交车站","address":"上海市普陀区交通路1461弄"},{"poiid":"B2094654DA6CA5FC4293","title":"富丽大厦","lon":"121.448","lat":"31.2526","category":"46","category_name":"楼宇","address":"上海市普陀区江宁路1286号或江宁路1306弄"},{"poiid":"B2094757D068A4F84899","title":"大马头香港美食","lon":"121.443324","lat":"31.251285","category":"72","category_name":"广东菜","address":"普陀区中潭路49号(近中远两湾城)"},{"poiid":"B2094757D068AAFA419D","title":"平江盛世家园","lon":"121.447951","lat":"31.256852","category":"47","category_name":"住宅区","address":"上海市闸北区交城路386弄"},{"poiid":"B2094757D069A2F54092","title":"阿拉丁清真餐厅","lon":"121.44803","lat":"31.25408","category":"90","category_name":"清真餐馆","address":"普陀区交通西路21号克拉玛依宾馆1楼(近交通路)"},{"poiid":"B2094654DB69A5F5459E","title":"格林豪泰酒店(中山沪太店)","lon":"121.44665","lat":"31.25716","category":"216","category_name":"经济型连锁酒店","address":"普陀区中山北路1228号(近骊山路)"},{"poiid":"B2094655D26EA5F94399","title":"六角形法国西餐厅 Douce France","lon":"121.44140859447","lat":"31.253440032532","category":"247","category_name":"餐饮美食","address":"中远两湾城100弄54号中潭路"},{"poiid":"B2094654DB6AABF4469C","title":"上海克拉玛依石油宾馆","lon":"121.44759","lat":"31.25407","category":"250","category_name":"公园户外","address":"上海普陀区交通路1333号(近交通路)"},{"poiid":"B2094654DB69A6FA409A","title":"中远两湾城四期(璀璨天成)","lon":"121.44374","lat":"31.24952","category":"47","category_name":"住宅区","address":"普陀区中潭路41号"},{"poiid":"B2094655D26AA0F9409D","title":"地铁中潭路站","lon":"121.44163","lat":"31.25471","category":"36","category_name":"地铁站","address":""},{"poiid":"B2094654DA6CA5FC429C","title":"三维大厦","lon":"121.448","lat":"31.2533","category":"46","category_name":"楼宇","address":"卢湾区局门路427号(邮编:200023)"},{"poiid":"B2094654D465A7FB409D","title":"智荟苑","lon":"121.44738","lat":"31.255966","category":"47","category_name":"住宅区","address":"交通西路129弄1-21"},{"poiid":"B2094750D269A3F4479F","title":"starbucks 星巴克 （中潭路店）","lon":"121.446121","lat":"31.252788","category":"247","category_name":"餐饮美食","address":"中潭路90弄"},{"poiid":"B2094752D664A0FB489A","title":"上海火车站","lon":"121.443191","lat":"31.254116","category":"500","category_name":"未知分类","address":null},{"poiid":"B2094750D664A1F8489B","title":"外婆小菜","lon":"121.444","lat":"31.2516","category":"76","category_name":"上海菜","address":"普陀区中潭路"},{"poiid":"B2094655D26CA7FE4198","title":"中远两湾城社区卫生服务站","lon":"121.44573","lat":"31.25349","category":"162","category_name":"医院","address":"中潭路100弄224"},{"poiid":"B2094654DB69AAF4419E","title":"两岸咖啡 中潭店","lon":"121.443570054","lat":"31.248886793","category":"247","category_name":"餐饮美食","address":"普陀区中潭路100弄中远两湾城内(近宜昌路)"},{"poiid":"B2094654D465A7FA419A","title":"小金捞上汤火锅料理","lon":"121.44468436778","lat":"31.247049753008","category":"86","category_name":"火锅店","address":"普陀区昌化路1200号(近莫干山路)"},{"poiid":"B2094654D465A6FC4199","title":"浅水湾养生会馆","lon":"121.44281","lat":"31.25205","category":"149","category_name":"洗浴推拿场所","address":"普陀区中潭路(清水湾路中潭路)"},{"poiid":"B2094750DA6FA6F9499E","title":"久光百货","lon":"121.447196","lat":"31.252027","category":"249","category_name":"购物服务","address":null},{"poiid":"B2094654D465A7FA4892","title":"龚家宅","lon":"121.44506","lat":"31.255194","category":"47","category_name":"住宅区","address":"交通路1459弄-1461弄"},{"poiid":"B2094654D465A7FB409C","title":"新黄浦实验学校","lon":"121.44778","lat":"31.25473","category":"56","category_name":"小学","address":"交通西路95"},{"poiid":"B2094757D66FA0F94292","title":"格林豪泰酒店集团","lon":"121.44475531","lat":"31.256250857","category":"46","category_name":"楼宇","address":"上海普陀区中山北路1238号"},{"poiid":"B2094757D16BA5FD419D","title":"莫干山路","lon":"121.45006565","lat":"31.2509608964","category":"500","category_name":"未知分类","address":"上海莫干山路"},{"poiid":"B2094757DA65A5F4419C","title":"布丁酒店连锁（上海火车站店）","lon":"121.447259","lat":"31.257248","category":"216","category_name":"经济型连锁酒店","address":"上海市普陀区中山北路1218号(近交通西路)。"},{"poiid":"B2094750DA69A7F54298","title":"星巴克中远两湾城","lon":"121.443061","lat":"31.252006","category":"247","category_name":"餐饮美食","address":"中潭路71号"},{"poiid":"B2094655D36CA0F8439D","title":"交通路交通西路","lon":"121.44655","lat":"31.2543","category":"38","category_name":"公交车站","address":""},{"poiid":"B2094757D66DA6F44393","title":"大洋小区","lon":"121.44888","lat":"31.254152","category":"47","category_name":"住宅区","address":"上海普陀区交通西路"},{"poiid":"B2094654DB65A6F4459B","title":"圣天地商务楼","lon":"121.45","lat":"31.25","category":"46","category_name":"楼宇","address":"江宁路1165号"},{"poiid":"B2094757D164AAFE4292","title":"吉祥馄饨(中潭路店)","lon":"121.44326","lat":"31.25194","category":"68","category_name":"快餐厅","address":"普陀区中潭路65号(近轻轨四号线中潭路站)"},{"poiid":"B2094757D16AA2FB419D","title":"博士娃幼儿园中远园","lon":"121.44476995","lat":"31.2538347513","category":"500","category_name":"未知分类","address":"上海中潭路100弄76号"},{"poiid":"B2094655D265A1FC4799","title":"满记甜品(中福店)","lon":"121.44788","lat":"31.25407","category":"67","category_name":"甜品店","address":"浙江中路229号123、125室"},{"poiid":"B2094751D569A3FB4298","title":"上海火車站","lon":"121.446503","lat":"31.255588","category":"627","category_name":"一般地点标志","address":null},{"poiid":"B2094654D465A7FA4993","title":"可的(交通路)","lon":"121.4465","lat":"31.25463","category":"117","category_name":"便民商店/便利店","address":"普陀区交通路1421号"},{"poiid":"B2094655D26AA7FC469C","title":"克拉玛依宾馆","lon":"121.44776","lat":"31.254","category":"247","category_name":"餐饮美食","address":"闸北区交通西路21号(交通路交通西路)"},{"poiid":"B2094654DA6CA6F5469D","title":"燕兴大厦","lon":"121.449","lat":"31.2531","category":"46","category_name":"楼宇","address":"江宁路1306弄12号"},{"poiid":"B2094655D26EA4F4499A","title":"老科曼","lon":"121.44759","lat":"31.25407","category":"247","category_name":"餐饮美食","address":"交通路1333号克拉玛依宾馆1楼近中山北路"},{"poiid":"B2094757D16DA0F54798","title":"G7010上海﹣南京","lon":"121.44396817","lat":"31.251904164","category":"500","category_name":"未知分类","address":"上海高鐵和諧號"},{"poiid":"B2094757D66DA2FB4099","title":"AMI CAFE","lon":"121.44781495","lat":"31.2525137261","category":"260","category_name":"其他","address":"普陀区远景路97弄49号(近中潭路)"},{"poiid":"B209475DD769A5FC479D","title":"世纪公园","lon":"121.448425","lat":"31.255264","category":"250","category_name":"公园户外","address":"上海市 上海市浦东新区锦绣路1001号"},{"poiid":"B2094757D464A0F8459A","title":"交通路恒悦轩","lon":"121.444893054","lat":"31.255087793","category":"76","category_name":"上海菜","address":"交通西路21号克拉玛依宾馆1楼（或交通路1333号）近交通路"},{"poiid":"B2094655D36DA7F84992","title":"中潭路远景路","lon":"121.44288","lat":"31.25242","category":"38","category_name":"公交车站","address":""}]