[{"poiid":"B2094757D06FA2FF469B","title":"乐购(三门店)","lon":"121.4911","lat":"31.31117","category":"118","category_name":"超级市场","address":"宝山区三门路501号(近吉浦路)"},{"poiid":"B2094757D068A3F54198","title":"洋人阿婆 国权北路店","lon":"121.49653","lat":"31.30859","category":"76","category_name":"上海菜","address":"杨浦区国权北路3号(政立路口)"},{"poiid":"B2094757D064A0FD4593","title":"云晓光头烧烤自助","lon":"121.4927301","lat":"31.311413279","category":"68","category_name":"快餐厅","address":"杨浦区三门路497号2楼(近吉浦路)"},{"poiid":"B2094757D069A0F44299","title":"上海财经大学 会计学院","lon":"121.49037188","lat":"31.306741198","category":"253","category_name":"校园生活","address":"上海武川路111弄"},{"poiid":"B2094757D06BABF94998","title":"唛动歌城","lon":"121.493002103","lat":"31.311778287","category":"170","category_name":"KTV","address":"杨浦区三门路497号3楼(近吉浦路)"},{"poiid":"B2094757D068A6FA479A","title":"阿康烧烤(国权北路店)","lon":"121.49661","lat":"31.30796","category":"68","category_name":"快餐厅","address":"杨浦区国权北路休闲街7-8A号(近政立路)"},{"poiid":"B2094757DA65A2FC439C","title":"上海财经大学皇家图书馆","lon":"121.491082","lat":"31.307629","category":"253","category_name":"校园生活","address":"杨浦区武川路111号"},{"poiid":"B2094757D06BAAFE469A","title":"文化名园","lon":"121.49146","lat":"31.307182","category":"47","category_name":"住宅区","address":"上海市杨浦区吉浦路375号"},{"poiid":"B2094757D068ABF54398","title":"德克士(三门路店)","lon":"121.490526936","lat":"31.3117085287","category":"68","category_name":"快餐厅","address":"宝山区三门路501号乐购1楼(近吉浦路)"},{"poiid":"B2094757D06FA4FC449F","title":"正文花园二期","lon":"121.495042","lat":"31.313932","category":"47","category_name":"住宅区","address":"上海政立路1585弄"},{"poiid":"B2094757D06AA2FF409C","title":"同济北苑","lon":"121.4947","lat":"31.310532","category":"47","category_name":"住宅区","address":"上海市杨浦区三门路318弄"},{"poiid":"B2094757D064A5F84398","title":"三湘世纪花城","lon":"121.49545951341","lat":"31.305311026976","category":"500","category_name":"未知分类","address":"上海市纪念路289弄"},{"poiid":"B2094654D56CABFA4398","title":"老北京涮羊肉(三门路)","lon":"121.49232","lat":"31.31163","category":"86","category_name":"火锅店","address":""},{"poiid":"B2094757D06AA7FD479E","title":"三门路吉浦路","lon":"121.4906571","lat":"31.308799224","category":"500","category_name":"未知分类","address":"上海三门路510弄"},{"poiid":"B2094757D069A3FA439F","title":"上海财经大学新园食堂","lon":"121.496303","lat":"31.306886","category":"253","category_name":"校园生活","address":"杨浦区武川路111号上海财经大学内"},{"poiid":"B2094757D169A6F4499C","title":"光头烧烤吧","lon":"121.492504103","lat":"31.3115252817","category":"247","category_name":"餐饮美食","address":"上海市三门路吉浦路"},{"poiid":"B2094757D06AA1F84693","title":"新亚大包 三门店","lon":"121.49095981658","lat":"31.311868191055","category":"68","category_name":"快餐厅","address":"宝山区三门路519号(近吉浦路)"},{"poiid":"B2094654D56CABF9429C","title":"吉浦小区","lon":"121.49139","lat":"31.308838","category":"47","category_name":"住宅区","address":"吉浦路395弄"},{"poiid":"B2094757D16CA1F94799","title":"村夫烤鱼","lon":"121.49335","lat":"31.31103","category":"71","category_name":"四川菜","address":"杨浦区三门路356号(近国权北路)"},{"poiid":"B2094655D26AA7FB4398","title":"财经大学游泳馆","lon":"121.49578","lat":"31.30645","category":"247","category_name":"餐饮美食","address":"杨浦区武川路111号"},{"poiid":"B2094757D16DAAFD419F","title":"上海财经大学静思园","lon":"121.49751203","lat":"31.307275432","category":"500","category_name":"未知分类","address":"杨浦区杨浦区武东路321号(武川路武东路)"},{"poiid":"B2094654D56CABFB499E","title":"同济新苑","lon":"121.49459","lat":"31.30902","category":"47","category_name":"住宅区","address":"政立路817、821、825弄"},{"poiid":"B2094655D36CA7FB4892","title":"国权北路三门路","lon":"121.49393","lat":"31.31151","category":"38","category_name":"公交车站","address":""},{"poiid":"B2094655D36CA7FB489F","title":"国权北路","lon":"121.49615","lat":"31.30956","category":"38","category_name":"公交车站","address":"上海政立路"},{"poiid":"B2094757D66BA5F5489C","title":"丰裕生煎 三门路店","lon":"121.49532756168","lat":"31.311392782009","category":"68","category_name":"快餐厅","address":"杨浦区三门路382号(近吉浦路)"},{"poiid":"B209475DD269A2FB4798","title":"大学路","lon":"121.491958","lat":"31.30944","category":"500","category_name":"未知分类","address":"上海市 大学路"},{"poiid":"B2094654D56CABFA409A","title":"研究生公寓","lon":"121.49546","lat":"31.31216","category":"47","category_name":"住宅区","address":"三门路409"},{"poiid":"B2094654D56CABF94598","title":"天天来家常菜(三门路)","lon":"121.49195","lat":"31.31129","category":"76","category_name":"上海菜","address":"杨浦区三门路382号A(近吉浦路)"},{"poiid":"B2094654D56CABFA4399","title":"三门餐厅","lon":"121.49227","lat":"31.31163","category":"76","category_name":"上海菜","address":"三门路501号乐购旁(近国权北路)"},{"poiid":"B2094757D16EA0F5479B","title":"吉祥馄饨","lon":"121.493472103","lat":"31.3076492006","category":"247","category_name":"餐饮美食","address":"杨浦区国权北路7号(国权北路殷高路)"},{"poiid":"B2094757D16EA7F84399","title":"浦源农家菜(国权北路店)","lon":"121.49493","lat":"31.30778","category":"87","category_name":"特色／地方风味餐厅","address":"杨浦区国权北路7-10号1楼(近政立路)"},{"poiid":"B2094654D56CAAFE429E","title":"同济欣苑","lon":"121.49488","lat":"31.308874","category":"47","category_name":"住宅区","address":"政立路810弄"},{"poiid":"B2094655D26CA1F5449A","title":"三门路510弄小区","lon":"121.49076","lat":"31.31072","category":"47","category_name":"住宅区","address":"三门路743弄"},{"poiid":"B2094757D16BA7FB4299","title":"政立路830弄","lon":"121.494118203","lat":"31.3073561945","category":"47","category_name":"住宅区","address":"上海杨浦区政立路830弄"},{"poiid":"B2094750D76FA4FB4192","title":"崇明人家(国权北路店)","lon":"121.496","lat":"31.3114","category":"76","category_name":"上海菜","address":"杨浦区国权北路9号(近政立路)"},{"poiid":"B2094655D26DA4F44292","title":"国权北路10弄小区","lon":"121.49528","lat":"31.31015","category":"47","category_name":"住宅区","address":"上海市杨浦区国权北路"},{"poiid":"B2094757D16EA6FB459B","title":"湘里乡","lon":"121.496702054","lat":"31.308232793","category":"77","category_name":"湖南菜","address":"杨浦区国权北路33号(近政立路)"},{"poiid":"B2094757D16CA2FE429F","title":"曲阳大柏树","lon":"121.4918577","lat":"31.30956984","category":"500","category_name":"未知分类","address":"上海曲阳路腾克路"},{"poiid":"B2094655D26FA1FA4898","title":"三门路358弄小区(北门)","lon":"121.49275","lat":"31.3113","category":"47","category_name":"住宅区","address":"三门路358弄"},{"poiid":"B2094654D56CABF94392","title":"建设公寓","lon":"121.49116","lat":"31.310879","category":"47","category_name":"住宅区","address":"上海三门路480弄"},{"poiid":"B2094757D16BA5F9459A","title":"建发 江湾萃","lon":"121.495587583","lat":"31.311492011","category":"47","category_name":"住宅区","address":"上海松沪路殷高路口"},{"poiid":"B2094750DB6AA5FD409E","title":"上海老克勒炸猪排","lon":"121.49242","lat":"31.3115","category":"68","category_name":"快餐厅","address":"杨浦区三门路374号农工商超市口(近吉浦路)"},{"poiid":"B2094751D36EA0FA4692","title":"买卖提红玫瑰烤涮龙虾馆(吉浦路店)","lon":"121.49003","lat":"31.31149","category":"68","category_name":"快餐厅","address":"杨浦区吉浦路494号(近三门路)"},{"poiid":"B2094757D16CA1F8469A","title":"宝山区三门路485弄","lon":"121.492347","lat":"31.312873","category":"500","category_name":"未知分类","address":"上海宝山区三门路485弄逸仙二村"},{"poiid":"B2094757D66DA1FE4293","title":"信德祥","lon":"121.4961043","lat":"31.307869105","category":"68","category_name":"快餐厅","address":"杨浦区三门路497号(近国权北路)"},{"poiid":"B2094753D165A5F8459C","title":"上海财经大学皇后楼","lon":"121.491978","lat":"31.308407","category":"500","category_name":"未知分类","address":"上海市 国定路777号上海财经大学"},{"poiid":"B2094654D56CABF94793","title":"豪骏健足养生会所","lon":"121.49429","lat":"31.3113","category":"149","category_name":"洗浴推拿场所","address":"杨浦区三门路332(近国权北路)"},{"poiid":"B2094655D26CA1F5439C","title":"国权北路6弄小区","lon":"121.49536","lat":"31.30923","category":"47","category_name":"住宅区","address":"国权北路6弄4号、9-16号"},{"poiid":"B2094655D36CA7FB489E","title":"国权北路政立路","lon":"121.49603","lat":"31.31123","category":"38","category_name":"公交车站","address":""},{"poiid":"B2094654D56CABFA419A","title":"3D苑创意产业园区","lon":"121.49301","lat":"31.31198","category":"45","category_name":"产业园区","address":""},{"poiid":"B2094757D06FA2FF469B","title":"乐购(三门店)","lon":"121.4911","lat":"31.31117","category":"118","category_name":"超级市场","address":"宝山区三门路501号(近吉浦路)"},{"poiid":"B2094757D068A3F54198","title":"洋人阿婆 国权北路店","lon":"121.49653","lat":"31.30859","category":"76","category_name":"上海菜","address":"杨浦区国权北路3号(政立路口)"},{"poiid":"B2094757D064A0FD4593","title":"云晓光头烧烤自助","lon":"121.4927301","lat":"31.311413279","category":"68","category_name":"快餐厅","address":"杨浦区三门路497号2楼(近吉浦路)"},{"poiid":"B2094757D069A0F44299","title":"上海财经大学 会计学院","lon":"121.49037188","lat":"31.306741198","category":"253","category_name":"校园生活","address":"上海武川路111弄"},{"poiid":"B2094757D06BABF94998","title":"唛动歌城","lon":"121.493002103","lat":"31.311778287","category":"170","category_name":"KTV","address":"杨浦区三门路497号3楼(近吉浦路)"},{"poiid":"B2094757D068A6FA479A","title":"阿康烧烤(国权北路店)","lon":"121.49661","lat":"31.30796","category":"68","category_name":"快餐厅","address":"杨浦区国权北路休闲街7-8A号(近政立路)"},{"poiid":"B2094757DA65A2FC439C","title":"上海财经大学皇家图书馆","lon":"121.491082","lat":"31.307629","category":"253","category_name":"校园生活","address":"杨浦区武川路111号"},{"poiid":"B2094757D06BAAFE469A","title":"文化名园","lon":"121.49146","lat":"31.307182","category":"47","category_name":"住宅区","address":"上海市杨浦区吉浦路375号"},{"poiid":"B2094757D068ABF54398","title":"德克士(三门路店)","lon":"121.490526936","lat":"31.3117085287","category":"68","category_name":"快餐厅","address":"宝山区三门路501号乐购1楼(近吉浦路)"},{"poiid":"B2094757D06FA4FC449F","title":"正文花园二期","lon":"121.495042","lat":"31.313932","category":"47","category_name":"住宅区","address":"上海政立路1585弄"},{"poiid":"B2094757D06AA2FF409C","title":"同济北苑","lon":"121.4947","lat":"31.310532","category":"47","category_name":"住宅区","address":"上海市杨浦区三门路318弄"},{"poiid":"B2094757D064A5F84398","title":"三湘世纪花城","lon":"121.49545951341","lat":"31.305311026976","category":"500","category_name":"未知分类","address":"上海市纪念路289弄"},{"poiid":"B2094654D56CABFA4398","title":"老北京涮羊肉(三门路)","lon":"121.49232","lat":"31.31163","category":"86","category_name":"火锅店","address":""},{"poiid":"B2094757D06AA7FD479E","title":"三门路吉浦路","lon":"121.4906571","lat":"31.308799224","category":"500","category_name":"未知分类","address":"上海三门路510弄"},{"poiid":"B2094757D069A3FA439F","title":"上海财经大学新园食堂","lon":"121.496303","lat":"31.306886","category":"253","category_name":"校园生活","address":"杨浦区武川路111号上海财经大学内"},{"poiid":"B2094757D169A6F4499C","title":"光头烧烤吧","lon":"121.492504103","lat":"31.3115252817","category":"247","category_name":"餐饮美食","address":"上海市三门路吉浦路"},{"poiid":"B2094757D06AA1F84693","title":"新亚大包 三门店","lon":"121.49095981658","lat":"31.311868191055","category":"68","category_name":"快餐厅","address":"宝山区三门路519号(近吉浦路)"},{"poiid":"B2094654D56CABF9429C","title":"吉浦小区","lon":"121.49139","lat":"31.308838","category":"47","category_name":"住宅区","address":"吉浦路395弄"},{"poiid":"B2094757D16CA1F94799","title":"村夫烤鱼","lon":"121.49335","lat":"31.31103","category":"71","category_name":"四川菜","address":"杨浦区三门路356号(近国权北路)"},{"poiid":"B2094655D26AA7FB4398","title":"财经大学游泳馆","lon":"121.49578","lat":"31.30645","category":"247","category_name":"餐饮美食","address":"杨浦区武川路111号"},{"poiid":"B2094757D16DAAFD419F","title":"上海财经大学静思园","lon":"121.49751203","lat":"31.307275432","category":"500","category_name":"未知分类","address":"杨浦区杨浦区武东路321号(武川路武东路)"},{"poiid":"B2094654D56CABFB499E","title":"同济新苑","lon":"121.49459","lat":"31.30902","category":"47","category_name":"住宅区","address":"政立路817、821、825弄"},{"poiid":"B2094655D36CA7FB4892","title":"国权北路三门路","lon":"121.49393","lat":"31.31151","category":"38","category_name":"公交车站","address":""},{"poiid":"B2094655D36CA7FB489F","title":"国权北路","lon":"121.49615","lat":"31.30956","category":"38","category_name":"公交车站","address":"上海政立路"},{"poiid":"B2094757D66BA5F5489C","title":"丰裕生煎 三门路店","lon":"121.49532756168","lat":"31.311392782009","category":"68","category_name":"快餐厅","address":"杨浦区三门路382号(近吉浦路)"},{"poiid":"B209475DD269A2FB4798","title":"大学路","lon":"121.491958","lat":"31.30944","category":"500","category_name":"未知分类","address":"上海市 大学路"},{"poiid":"B2094654D56CABFA409A","title":"研究生公寓","lon":"121.49546","lat":"31.31216","category":"47","category_name":"住宅区","address":"三门路409"},{"poiid":"B2094654D56CABF94598","title":"天天来家常菜(三门路)","lon":"121.49195","lat":"31.31129","category":"76","category_name":"上海菜","address":"杨浦区三门路382号A(近吉浦路)"},{"poiid":"B2094654D56CABFA4399","title":"三门餐厅","lon":"121.49227","lat":"31.31163","category":"76","category_name":"上海菜","address":"三门路501号乐购旁(近国权北路)"},{"poiid":"B2094757D16EA0F5479B","title":"吉祥馄饨","lon":"121.493472103","lat":"31.3076492006","category":"247","category_name":"餐饮美食","address":"杨浦区国权北路7号(国权北路殷高路)"},{"poiid":"B2094757D16EA7F84399","title":"浦源农家菜(国权北路店)","lon":"121.49493","lat":"31.30778","category":"87","category_name":"特色／地方风味餐厅","address":"杨浦区国权北路7-10号1楼(近政立路)"},{"poiid":"B2094654D56CAAFE429E","title":"同济欣苑","lon":"121.49488","lat":"31.308874","category":"47","category_name":"住宅区","address":"政立路810弄"},{"poiid":"B2094655D26CA1F5449A","title":"三门路510弄小区","lon":"121.49076","lat":"31.31072","category":"47","category_name":"住宅区","address":"三门路743弄"},{"poiid":"B2094757D16BA7FB4299","title":"政立路830弄","lon":"121.494118203","lat":"31.3073561945","category":"47","category_name":"住宅区","address":"上海杨浦区政立路830弄"},{"poiid":"B2094750D76FA4FB4192","title":"崇明人家(国权北路店)","lon":"121.496","lat":"31.3114","category":"76","category_name":"上海菜","address":"杨浦区国权北路9号(近政立路)"},{"poiid":"B2094655D26DA4F44292","title":"国权北路10弄小区","lon":"121.49528","lat":"31.31015","category":"47","category_name":"住宅区","address":"上海市杨浦区国权北路"},{"poiid":"B2094757D16EA6FB459B","title":"湘里乡","lon":"121.496702054","lat":"31.308232793","category":"77","category_name":"湖南菜","address":"杨浦区国权北路33号(近政立路)"},{"poiid":"B2094757D16CA2FE429F","title":"曲阳大柏树","lon":"121.4918577","lat":"31.30956984","category":"500","category_name":"未知分类","address":"上海曲阳路腾克路"},{"poiid":"B2094655D26FA1FA4898","title":"三门路358弄小区(北门)","lon":"121.49275","lat":"31.3113","category":"47","category_name":"住宅区","address":"三门路358弄"},{"poiid":"B2094654D56CABF94392","title":"建设公寓","lon":"121.49116","lat":"31.310879","category":"47","category_name":"住宅区","address":"上海三门路480弄"},{"poiid":"B2094757D16BA5F9459A","title":"建发 江湾萃","lon":"121.495587583","lat":"31.311492011","category":"47","category_name":"住宅区","address":"上海松沪路殷高路口"},{"poiid":"B2094750DB6AA5FD409E","title":"上海老克勒炸猪排","lon":"121.49242","lat":"31.3115","category":"68","category_name":"快餐厅","address":"杨浦区三门路374号农工商超市口(近吉浦路)"},{"poiid":"B2094751D36EA0FA4692","title":"买卖提红玫瑰烤涮龙虾馆(吉浦路店)","lon":"121.49003","lat":"31.31149","category":"68","category_name":"快餐厅","address":"杨浦区吉浦路494号(近三门路)"},{"poiid":"B2094757D16CA1F8469A","title":"宝山区三门路485弄","lon":"121.492347","lat":"31.312873","category":"500","category_name":"未知分类","address":"上海宝山区三门路485弄逸仙二村"},{"poiid":"B2094757D66DA1FE4293","title":"信德祥","lon":"121.4961043","lat":"31.307869105","category":"68","category_name":"快餐厅","address":"杨浦区三门路497号(近国权北路)"},{"poiid":"B2094753D165A5F8459C","title":"上海财经大学皇后楼","lon":"121.491978","lat":"31.308407","category":"500","category_name":"未知分类","address":"上海市 国定路777号上海财经大学"},{"poiid":"B2094654D56CABF94793","title":"豪骏健足养生会所","lon":"121.49429","lat":"31.3113","category":"149","category_name":"洗浴推拿场所","address":"杨浦区三门路332(近国权北路)"},{"poiid":"B2094655D26CA1F5439C","title":"国权北路6弄小区","lon":"121.49536","lat":"31.30923","category":"47","category_name":"住宅区","address":"国权北路6弄4号、9-16号"},{"poiid":"B2094655D36CA7FB489E","title":"国权北路政立路","lon":"121.49603","lat":"31.31123","category":"38","category_name":"公交车站","address":""},{"poiid":"B2094654D56CABFA419A","title":"3D苑创意产业园区","lon":"121.49301","lat":"31.31198","category":"45","category_name":"产业园区","address":""},{"poiid":"B2094757D06FA2FF469B","title":"乐购(三门店)","lon":"121.4911","lat":"31.31117","category":"118","category_name":"超级市场","address":"宝山区三门路501号(近吉浦路)"},{"poiid":"B2094757D068A3F54198","title":"洋人阿婆 国权北路店","lon":"121.49653","lat":"31.30859","category":"76","category_name":"上海菜","address":"杨浦区国权北路3号(政立路口)"},{"poiid":"B2094757D064A0FD4593","title":"云晓光头烧烤自助","lon":"121.4927301","lat":"31.311413279","category":"68","category_name":"快餐厅","address":"杨浦区三门路497号2楼(近吉浦路)"},{"poiid":"B2094757D069A0F44299","title":"上海财经大学 会计学院","lon":"121.49037188","lat":"31.306741198","category":"253","category_name":"校园生活","address":"上海武川路111弄"},{"poiid":"B2094757D06BABF94998","title":"唛动歌城","lon":"121.493002103","lat":"31.311778287","category":"170","category_name":"KTV","address":"杨浦区三门路497号3楼(近吉浦路)"},{"poiid":"B2094757D068A6FA479A","title":"阿康烧烤(国权北路店)","lon":"121.49661","lat":"31.30796","category":"68","category_name":"快餐厅","address":"杨浦区国权北路休闲街7-8A号(近政立路)"},{"poiid":"B2094757DA65A2FC439C","title":"上海财经大学皇家图书馆","lon":"121.491082","lat":"31.307629","category":"253","category_name":"校园生活","address":"杨浦区武川路111号"},{"poiid":"B2094757D06BAAFE469A","title":"文化名园","lon":"121.49146","lat":"31.307182","category":"47","category_name":"住宅区","address":"上海市杨浦区吉浦路375号"},{"poiid":"B2094757D068ABF54398","title":"德克士(三门路店)","lon":"121.490526936","lat":"31.3117085287","category":"68","category_name":"快餐厅","address":"宝山区三门路501号乐购1楼(近吉浦路)"},{"poiid":"B2094757D06FA4FC449F","title":"正文花园二期","lon":"121.495042","lat":"31.313932","category":"47","category_name":"住宅区","address":"上海政立路1585弄"},{"poiid":"B2094757D06AA2FF409C","title":"同济北苑","lon":"121.4947","lat":"31.310532","category":"47","category_name":"住宅区","address":"上海市杨浦区三门路318弄"},{"poiid":"B2094757D064A5F84398","title":"三湘世纪花城","lon":"121.49545951341","lat":"31.305311026976","category":"500","category_name":"未知分类","address":"上海市纪念路289弄"},{"poiid":"B2094654D56CABFA4398","title":"老北京涮羊肉(三门路)","lon":"121.49232","lat":"31.31163","category":"86","category_name":"火锅店","address":""},{"poiid":"B2094757D06AA7FD479E","title":"三门路吉浦路","lon":"121.4906571","lat":"31.308799224","category":"500","category_name":"未知分类","address":"上海三门路510弄"},{"poiid":"B2094757D069A3FA439F","title":"上海财经大学新园食堂","lon":"121.496303","lat":"31.306886","category":"253","category_name":"校园生活","address":"杨浦区武川路111号上海财经大学内"},{"poiid":"B2094757D169A6F4499C","title":"光头烧烤吧","lon":"121.492504103","lat":"31.3115252817","category":"247","category_name":"餐饮美食","address":"上海市三门路吉浦路"},{"poiid":"B2094757D06AA1F84693","title":"新亚大包 三门店","lon":"121.49095981658","lat":"31.311868191055","category":"68","category_name":"快餐厅","address":"宝山区三门路519号(近吉浦路)"},{"poiid":"B2094654D56CABF9429C","title":"吉浦小区","lon":"121.49139","lat":"31.308838","category":"47","category_name":"住宅区","address":"吉浦路395弄"},{"poiid":"B2094757D16CA1F94799","title":"村夫烤鱼","lon":"121.49335","lat":"31.31103","category":"71","category_name":"四川菜","address":"杨浦区三门路356号(近国权北路)"},{"poiid":"B2094655D26AA7FB4398","title":"财经大学游泳馆","lon":"121.49578","lat":"31.30645","category":"247","category_name":"餐饮美食","address":"杨浦区武川路111号"},{"poiid":"B2094757D16DAAFD419F","title":"上海财经大学静思园","lon":"121.49751203","lat":"31.307275432","category":"500","category_name":"未知分类","address":"杨浦区杨浦区武东路321号(武川路武东路)"},{"poiid":"B2094654D56CABFB499E","title":"同济新苑","lon":"121.49459","lat":"31.30902","category":"47","category_name":"住宅区","address":"政立路817、821、825弄"},{"poiid":"B2094655D36CA7FB4892","title":"国权北路三门路","lon":"121.49393","lat":"31.31151","category":"38","category_name":"公交车站","address":""},{"poiid":"B2094655D36CA7FB489F","title":"国权北路","lon":"121.49615","lat":"31.30956","category":"38","category_name":"公交车站","address":"上海政立路"},{"poiid":"B2094757D66BA5F5489C","title":"丰裕生煎 三门路店","lon":"121.49532756168","lat":"31.311392782009","category":"68","category_name":"快餐厅","address":"杨浦区三门路382号(近吉浦路)"},{"poiid":"B209475DD269A2FB4798","title":"大学路","lon":"121.491958","lat":"31.30944","category":"500","category_name":"未知分类","address":"上海市 大学路"},{"poiid":"B2094654D56CABFA409A","title":"研究生公寓","lon":"121.49546","lat":"31.31216","category":"47","category_name":"住宅区","address":"三门路409"},{"poiid":"B2094654D56CABF94598","title":"天天来家常菜(三门路)","lon":"121.49195","lat":"31.31129","category":"76","category_name":"上海菜","address":"杨浦区三门路382号A(近吉浦路)"},{"poiid":"B2094654D56CABFA4399","title":"三门餐厅","lon":"121.49227","lat":"31.31163","category":"76","category_name":"上海菜","address":"三门路501号乐购旁(近国权北路)"},{"poiid":"B2094757D16EA0F5479B","title":"吉祥馄饨","lon":"121.493472103","lat":"31.3076492006","category":"247","category_name":"餐饮美食","address":"杨浦区国权北路7号(国权北路殷高路)"},{"poiid":"B2094757D16EA7F84399","title":"浦源农家菜(国权北路店)","lon":"121.49493","lat":"31.30778","category":"87","category_name":"特色／地方风味餐厅","address":"杨浦区国权北路7-10号1楼(近政立路)"},{"poiid":"B2094654D56CAAFE429E","title":"同济欣苑","lon":"121.49488","lat":"31.308874","category":"47","category_name":"住宅区","address":"政立路810弄"},{"poiid":"B2094655D26CA1F5449A","title":"三门路510弄小区","lon":"121.49076","lat":"31.31072","category":"47","category_name":"住宅区","address":"三门路743弄"},{"poiid":"B2094757D16BA7FB4299","title":"政立路830弄","lon":"121.494118203","lat":"31.3073561945","category":"47","category_name":"住宅区","address":"上海杨浦区政立路830弄"},{"poiid":"B2094750D76FA4FB4192","title":"崇明人家(国权北路店)","lon":"121.496","lat":"31.3114","category":"76","category_name":"上海菜","address":"杨浦区国权北路9号(近政立路)"},{"poiid":"B2094655D26DA4F44292","title":"国权北路10弄小区","lon":"121.49528","lat":"31.31015","category":"47","category_name":"住宅区","address":"上海市杨浦区国权北路"},{"poiid":"B2094757D16EA6FB459B","title":"湘里乡","lon":"121.496702054","lat":"31.308232793","category":"77","category_name":"湖南菜","address":"杨浦区国权北路33号(近政立路)"},{"poiid":"B2094757D16CA2FE429F","title":"曲阳大柏树","lon":"121.4918577","lat":"31.30956984","category":"500","category_name":"未知分类","address":"上海曲阳路腾克路"},{"poiid":"B2094655D26FA1FA4898","title":"三门路358弄小区(北门)","lon":"121.49275","lat":"31.3113","category":"47","category_name":"住宅区","address":"三门路358弄"},{"poiid":"B2094654D56CABF94392","title":"建设公寓","lon":"121.49116","lat":"31.310879","category":"47","category_name":"住宅区","address":"上海三门路480弄"},{"poiid":"B2094757D16BA5F9459A","title":"建发 江湾萃","lon":"121.495587583","lat":"31.311492011","category":"47","category_name":"住宅区","address":"上海松沪路殷高路口"},{"poiid":"B2094750DB6AA5FD409E","title":"上海老克勒炸猪排","lon":"121.49242","lat":"31.3115","category":"68","category_name":"快餐厅","address":"杨浦区三门路374号农工商超市口(近吉浦路)"},{"poiid":"B2094751D36EA0FA4692","title":"买卖提红玫瑰烤涮龙虾馆(吉浦路店)","lon":"121.49003","lat":"31.31149","category":"68","category_name":"快餐厅","address":"杨浦区吉浦路494号(近三门路)"},{"poiid":"B2094757D16CA1F8469A","title":"宝山区三门路485弄","lon":"121.492347","lat":"31.312873","category":"500","category_name":"未知分类","address":"上海宝山区三门路485弄逸仙二村"},{"poiid":"B2094757D66DA1FE4293","title":"信德祥","lon":"121.4961043","lat":"31.307869105","category":"68","category_name":"快餐厅","address":"杨浦区三门路497号(近国权北路)"},{"poiid":"B2094753D165A5F8459C","title":"上海财经大学皇后楼","lon":"121.491978","lat":"31.308407","category":"500","category_name":"未知分类","address":"上海市 国定路777号上海财经大学"},{"poiid":"B2094654D56CABF94793","title":"豪骏健足养生会所","lon":"121.49429","lat":"31.3113","category":"149","category_name":"洗浴推拿场所","address":"杨浦区三门路332(近国权北路)"},{"poiid":"B2094655D26CA1F5439C","title":"国权北路6弄小区","lon":"121.49536","lat":"31.30923","category":"47","category_name":"住宅区","address":"国权北路6弄4号、9-16号"},{"poiid":"B2094655D36CA7FB489E","title":"国权北路政立路","lon":"121.49603","lat":"31.31123","category":"38","category_name":"公交车站","address":""},{"poiid":"B2094654D56CABFA419A","title":"3D苑创意产业园区","lon":"121.49301","lat":"31.31198","category":"45","category_name":"产业园区","address":""},{"poiid":"B2094757D06FA2FF469B","title":"乐购(三门店)","lon":"121.4911","lat":"31.31117","category":"118","category_name":"超级市场","address":"宝山区三门路501号(近吉浦路)"},{"poiid":"B2094757D068A3F54198","title":"洋人阿婆 国权北路店","lon":"121.49653","lat":"31.30859","category":"76","category_name":"上海菜","address":"杨浦区国权北路3号(政立路口)"},{"poiid":"B2094757D064A0FD4593","title":"云晓光头烧烤自助","lon":"121.4927301","lat":"31.311413279","category":"68","category_name":"快餐厅","address":"杨浦区三门路497号2楼(近吉浦路)"},{"poiid":"B2094757D069A0F44299","title":"上海财经大学 会计学院","lon":"121.49037188","lat":"31.306741198","category":"253","category_name":"校园生活","address":"上海武川路111弄"},{"poiid":"B2094757D06BABF94998","title":"唛动歌城","lon":"121.493002103","lat":"31.311778287","category":"170","category_name":"KTV","address":"杨浦区三门路497号3楼(近吉浦路)"},{"poiid":"B2094757D068A6FA479A","title":"阿康烧烤(国权北路店)","lon":"121.49661","lat":"31.30796","category":"68","category_name":"快餐厅","address":"杨浦区国权北路休闲街7-8A号(近政立路)"},{"poiid":"B2094757DA65A2FC439C","title":"上海财经大学皇家图书馆","lon":"121.491082","lat":"31.307629","category":"253","category_name":"校园生活","address":"杨浦区武川路111号"},{"poiid":"B2094757D06BAAFE469A","title":"文化名园","lon":"121.49146","lat":"31.307182","category":"47","category_name":"住宅区","address":"上海市杨浦区吉浦路375号"},{"poiid":"B2094757D068ABF54398","title":"德克士(三门路店)","lon":"121.490526936","lat":"31.3117085287","category":"68","category_name":"快餐厅","address":"宝山区三门路501号乐购1楼(近吉浦路)"},{"poiid":"B2094757D06FA4FC449F","title":"正文花园二期","lon":"121.495042","lat":"31.313932","category":"47","category_name":"住宅区","address":"上海政立路1585弄"},{"poiid":"B2094757D06AA2FF409C","title":"同济北苑","lon":"121.4947","lat":"31.310532","category":"47","category_name":"住宅区","address":"上海市杨浦区三门路318弄"},{"poiid":"B2094757D064A5F84398","title":"三湘世纪花城","lon":"121.49545951341","lat":"31.305311026976","category":"500","category_name":"未知分类","address":"上海市纪念路289弄"},{"poiid":"B2094654D56CABFA4398","title":"老北京涮羊肉(三门路)","lon":"121.49232","lat":"31.31163","category":"86","category_name":"火锅店","address":""},{"poiid":"B2094757D06AA7FD479E","title":"三门路吉浦路","lon":"121.4906571","lat":"31.308799224","category":"500","category_name":"未知分类","address":"上海三门路510弄"},{"poiid":"B2094757D069A3FA439F","title":"上海财经大学新园食堂","lon":"121.496303","lat":"31.306886","category":"253","category_name":"校园生活","address":"杨浦区武川路111号上海财经大学内"},{"poiid":"B2094757D169A6F4499C","title":"光头烧烤吧","lon":"121.492504103","lat":"31.3115252817","category":"247","category_name":"餐饮美食","address":"上海市三门路吉浦路"},{"poiid":"B2094757D06AA1F84693","title":"新亚大包 三门店","lon":"121.49095981658","lat":"31.311868191055","category":"68","category_name":"快餐厅","address":"宝山区三门路519号(近吉浦路)"},{"poiid":"B2094654D56CABF9429C","title":"吉浦小区","lon":"121.49139","lat":"31.308838","category":"47","category_name":"住宅区","address":"吉浦路395弄"},{"poiid":"B2094757D16CA1F94799","title":"村夫烤鱼","lon":"121.49335","lat":"31.31103","category":"71","category_name":"四川菜","address":"杨浦区三门路356号(近国权北路)"},{"poiid":"B2094655D26AA7FB4398","title":"财经大学游泳馆","lon":"121.49578","lat":"31.30645","category":"247","category_name":"餐饮美食","address":"杨浦区武川路111号"},{"poiid":"B2094757D16DAAFD419F","title":"上海财经大学静思园","lon":"121.49751203","lat":"31.307275432","category":"500","category_name":"未知分类","address":"杨浦区杨浦区武东路321号(武川路武东路)"},{"poiid":"B2094654D56CABFB499E","title":"同济新苑","lon":"121.49459","lat":"31.30902","category":"47","category_name":"住宅区","address":"政立路817、821、825弄"},{"poiid":"B2094655D36CA7FB4892","title":"国权北路三门路","lon":"121.49393","lat":"31.31151","category":"38","category_name":"公交车站","address":""},{"poiid":"B2094655D36CA7FB489F","title":"国权北路","lon":"121.49615","lat":"31.30956","category":"38","category_name":"公交车站","address":"上海政立路"},{"poiid":"B2094757D66BA5F5489C","title":"丰裕生煎 三门路店","lon":"121.49532756168","lat":"31.311392782009","category":"68","category_name":"快餐厅","address":"杨浦区三门路382号(近吉浦路)"},{"poiid":"B209475DD269A2FB4798","title":"大学路","lon":"121.491958","lat":"31.30944","category":"500","category_name":"未知分类","address":"上海市 大学路"},{"poiid":"B2094654D56CABFA409A","title":"研究生公寓","lon":"121.49546","lat":"31.31216","category":"47","category_name":"住宅区","address":"三门路409"},{"poiid":"B2094654D56CABF94598","title":"天天来家常菜(三门路)","lon":"121.49195","lat":"31.31129","category":"76","category_name":"上海菜","address":"杨浦区三门路382号A(近吉浦路)"},{"poiid":"B2094654D56CABFA4399","title":"三门餐厅","lon":"121.49227","lat":"31.31163","category":"76","category_name":"上海菜","address":"三门路501号乐购旁(近国权北路)"},{"poiid":"B2094757D16EA0F5479B","title":"吉祥馄饨","lon":"121.493472103","lat":"31.3076492006","category":"247","category_name":"餐饮美食","address":"杨浦区国权北路7号(国权北路殷高路)"},{"poiid":"B2094757D16EA7F84399","title":"浦源农家菜(国权北路店)","lon":"121.49493","lat":"31.30778","category":"87","category_name":"特色／地方风味餐厅","address":"杨浦区国权北路7-10号1楼(近政立路)"},{"poiid":"B2094654D56CAAFE429E","title":"同济欣苑","lon":"121.49488","lat":"31.308874","category":"47","category_name":"住宅区","address":"政立路810弄"},{"poiid":"B2094655D26CA1F5449A","title":"三门路510弄小区","lon":"121.49076","lat":"31.31072","category":"47","category_name":"住宅区","address":"三门路743弄"},{"poiid":"B2094757D16BA7FB4299","title":"政立路830弄","lon":"121.494118203","lat":"31.3073561945","category":"47","category_name":"住宅区","address":"上海杨浦区政立路830弄"},{"poiid":"B2094750D76FA4FB4192","title":"崇明人家(国权北路店)","lon":"121.496","lat":"31.3114","category":"76","category_name":"上海菜","address":"杨浦区国权北路9号(近政立路)"},{"poiid":"B2094655D26DA4F44292","title":"国权北路10弄小区","lon":"121.49528","lat":"31.31015","category":"47","category_name":"住宅区","address":"上海市杨浦区国权北路"},{"poiid":"B2094757D16EA6FB459B","title":"湘里乡","lon":"121.496702054","lat":"31.308232793","category":"77","category_name":"湖南菜","address":"杨浦区国权北路33号(近政立路)"},{"poiid":"B2094757D16CA2FE429F","title":"曲阳大柏树","lon":"121.4918577","lat":"31.30956984","category":"500","category_name":"未知分类","address":"上海曲阳路腾克路"},{"poiid":"B2094655D26FA1FA4898","title":"三门路358弄小区(北门)","lon":"121.49275","lat":"31.3113","category":"47","category_name":"住宅区","address":"三门路358弄"},{"poiid":"B2094654D56CABF94392","title":"建设公寓","lon":"121.49116","lat":"31.310879","category":"47","category_name":"住宅区","address":"上海三门路480弄"},{"poiid":"B2094757D16BA5F9459A","title":"建发 江湾萃","lon":"121.495587583","lat":"31.311492011","category":"47","category_name":"住宅区","address":"上海松沪路殷高路口"},{"poiid":"B2094750DB6AA5FD409E","title":"上海老克勒炸猪排","lon":"121.49242","lat":"31.3115","category":"68","category_name":"快餐厅","address":"杨浦区三门路374号农工商超市口(近吉浦路)"},{"poiid":"B2094751D36EA0FA4692","title":"买卖提红玫瑰烤涮龙虾馆(吉浦路店)","lon":"121.49003","lat":"31.31149","category":"68","category_name":"快餐厅","address":"杨浦区吉浦路494号(近三门路)"},{"poiid":"B2094757D16CA1F8469A","title":"宝山区三门路485弄","lon":"121.492347","lat":"31.312873","category":"500","category_name":"未知分类","address":"上海宝山区三门路485弄逸仙二村"},{"poiid":"B2094757D66DA1FE4293","title":"信德祥","lon":"121.4961043","lat":"31.307869105","category":"68","category_name":"快餐厅","address":"杨浦区三门路497号(近国权北路)"},{"poiid":"B2094753D165A5F8459C","title":"上海财经大学皇后楼","lon":"121.491978","lat":"31.308407","category":"500","category_name":"未知分类","address":"上海市 国定路777号上海财经大学"},{"poiid":"B2094654D56CABF94793","title":"豪骏健足养生会所","lon":"121.49429","lat":"31.3113","category":"149","category_name":"洗浴推拿场所","address":"杨浦区三门路332(近国权北路)"},{"poiid":"B2094655D26CA1F5439C","title":"国权北路6弄小区","lon":"121.49536","lat":"31.30923","category":"47","category_name":"住宅区","address":"国权北路6弄4号、9-16号"},{"poiid":"B2094655D36CA7FB489E","title":"国权北路政立路","lon":"121.49603","lat":"31.31123","category":"38","category_name":"公交车站","address":""},{"poiid":"B2094654D56CABFA419A","title":"3D苑创意产业园区","lon":"121.49301","lat":"31.31198","category":"45","category_name":"产业园区","address":""}]