[{"poiid":"B2094757D06AABF5429E","title":"吴淞口国际邮轮港","lon":"121.50557","lat":"31.404876","category":"500","category_name":"未知分类","address":"上海市宝山区宝杨路１号"},{"poiid":"B2094757D06FA1FE4299","title":"临江公园","lon":"121.49385081","lat":"31.408717702","category":"196","category_name":"公园","address":"上海市宝山区友谊路1号"},{"poiid":"B2094757D06FA5F44392","title":"宝杨码头","lon":"121.501694","lat":"31.40562","category":"234","category_name":"海滨浴场","address":"上海宝山区宝杨支路18号"},{"poiid":"B2094757D068A4FE4693","title":"长江江堤","lon":"121.49430583","lat":"31.411120415","category":"500","category_name":"未知分类","address":"上海市宝山区盘古路"},{"poiid":"B2094757D068A7FC4592","title":"行知中学","lon":"121.49784","lat":"31.40544","category":"55","category_name":"中学","address":"宝山区宝林支路99号"},{"poiid":"B2094654D46AA6FA4693","title":"宝杨路码头候船室","lon":"121.50009","lat":"31.40575","category":"34","category_name":"港口码头","address":""},{"poiid":"B2094757D06AABFA439B","title":"淞沪抗战纪念馆","lon":"121.493002","lat":"31.408646","category":"182","category_name":"博物馆","address":"宝山区友谊路1号临江公园内(近东林路)"},{"poiid":"B2094654D46AA6F9449E","title":"祥腾国际广场","lon":"121.489","lat":"31.4136","category":"46","category_name":"楼宇","address":"上海市松江区涞坊路599弄"},{"poiid":"B2094757D66CA6FB459F","title":"黄浦江边","lon":"121.49665683","lat":"31.408402359","category":"500","category_name":"未知分类","address":"上海市宝山区东林路"},{"poiid":"B2094757D16EA7F94992","title":"宝林九村","lon":"121.504952","lat":"31.410461","category":"252","category_name":"楼宇机构","address":"上海市宝山区宝林路"},{"poiid":"B2094757D06AA1FA4199","title":"小绍兴(东林路店)","lon":"121.49421","lat":"31.40477","category":"68","category_name":"快餐厅","address":"宝山区东林路227号(近密山路)"},{"poiid":"B2094654D46AA5F5429D","title":"凯源景江苑","lon":"121.49313","lat":"31.41293","category":"47","category_name":"住宅区","address":"盘古路19弄"},{"poiid":"B2094655D265AAFF449E","title":"恺源景江苑","lon":"121.500343","lat":"31.417773","category":"47","category_name":"住宅区","address":"上海市宝山区盘古路115号"},{"poiid":"B2094757DA6FA2FC4998","title":"吴淞炮台湾湿地公园(北门)","lon":"121.501836776732","lat":"31.4026964848086","category":"250","category_name":"公园户外","address":"宝山区宝杨路(近宝杨支路)"},{"poiid":"B2094654D46AA5F5439F","title":"宝林八村","lon":"121.49574","lat":"31.407093","category":"47","category_name":"住宅区","address":"宝林八村"},{"poiid":"B2094654D46AA4F9499F","title":"宝钢一村","lon":"121.494","lat":"31.4097","category":"47","category_name":"住宅区","address":"友谊路114号"},{"poiid":"B2094654D46AA4FE4198","title":"宝山六村","lon":"121.502","lat":"31.397743","category":"47","category_name":"住宅区","address":"上海市宝山区永乐路115弄"},{"poiid":"B2094757D16BA6F9479F","title":"宝林五村","lon":"121.498","lat":"31.4109","category":"252","category_name":"楼宇机构","address":"上海宝山区宝林五村"},{"poiid":"B209475DD365A2FD469C","title":"上海吴淞国际码头","lon":"121.512001","lat":"31.40802","category":"500","category_name":"未知分类","address":"上海宝山区宝杨路"},{"poiid":"B2094654D46AA5F5439E","title":"临江佳园","lon":"121.497","lat":"31.407377","category":"47","category_name":"住宅区","address":"上海市宝山区密山东路11号"},{"poiid":"B2094757D568A5FC4293","title":"宝杨路客运码头","lon":"121.5038789","lat":"31.40380139","category":"35","category_name":"长途汽车站","address":"宝杨支路18号宝杨码头"},{"poiid":"B2094654D46AA4FC4193","title":"宝城三村(海景苑)","lon":"121.49277","lat":"31.41064","category":"47","category_name":"住宅区","address":"友谊路"},{"poiid":"B2094654D46AA6FA469B","title":"宝钢宝林九村","lon":"121.49991","lat":"31.40378","category":"47","category_name":"住宅区","address":"友谊路"},{"poiid":"B2094757D169A1FE459B","title":"宝林三村","lon":"121.499","lat":"31.4084","category":"252","category_name":"楼宇机构","address":"上海宝林三村"},{"poiid":"B2094757D16CA2F5449B","title":"杉松酒家","lon":"121.49534","lat":"31.40153","category":"76","category_name":"上海菜","address":"宝山区东林路17号(近宝杨路)"},{"poiid":"B2094654D46AA4FE439C","title":"中艺花园","lon":"121.49869","lat":"31.3999","category":"47","category_name":"住宅区","address":"中艺花园位于宝山海江路9号"},{"poiid":"B2094654D46AA6FB409B","title":"宝钢宝林六村","lon":"121.49604","lat":"31.40335","category":"47","category_name":"住宅区","address":"友谊路"},{"poiid":"B2094757D069A5FE4692","title":"宝山区人民法院","lon":"121.49107","lat":"31.408154","category":"608","category_name":"法院","address":"上海友谊路15号"},{"poiid":"B2094750D16BA2FE4598","title":"皇家加勒比游轮","lon":"121.502983","lat":"31.404596","category":"500","category_name":"未知分类","address":null},{"poiid":"B2094654DB69AAF4459B","title":"红露园","lon":"121.49168230383","lat":"31.408288477598","category":"247","category_name":"餐饮美食","address":"宝山区友谊路40号(近友谊支路)"},{"poiid":"B2094750D16BA0F84992","title":"宝山体育中心羽毛球馆","lon":"121.498832","lat":"31.398883","category":"250","category_name":"公园户外","address":"宝山区永清路700号(近海江路)"},{"poiid":"B2094655D268A5FE4998","title":"快客No.6409(炫盈数码科技西)","lon":"121.49342","lat":"31.41216","category":"117","category_name":"便民商店/便利店","address":"盘古路23"},{"poiid":"B2094757D164A4FA439B","title":"海滨五村","lon":"121.50103062728","lat":"31.401987993104","category":"46","category_name":"楼宇","address":"上海牡丹江路水产路"},{"poiid":"B2094654D46AA4FE459C","title":"上海市基督教吴淞堂","lon":"121.5013","lat":"31.40229","category":"245","category_name":"教堂","address":"宝山区宝杨路74"},{"poiid":"B2094654D46AA7FB4099","title":"宝山一村","lon":"121.509","lat":"31.4009","category":"47","category_name":"住宅区","address":"上海双城路宝东路宝山一村4号"},{"poiid":"B2094654D46AA5F5499A","title":"吴淞古炮台","lon":"121.49378","lat":"31.40902","category":"250","category_name":"公园户外","address":"临江公园内"},{"poiid":"B209475CD768A2FB479B","title":"吴淞国际码头","lon":"121.495025","lat":"31.408901","category":"500","category_name":"未知分类","address":"上海市 上海宝杨路1号"},{"poiid":"B2094750D669A4FA459A","title":"上海长江河口科技馆","lon":"121.506713","lat":"31.400457","category":"250","category_name":"公园户外","address":"宝山区塘后路206号吴淞炮台湾湿地公园(近国际邮轮码头)"},{"poiid":"B2094654D46AA5F54893","title":"陈化成纪念馆","lon":"121.49378","lat":"31.40902","category":"243","category_name":"纪念馆","address":"友谊路1号"},{"poiid":"B2094654DB69AAF84392","title":"苏北土菜馆","lon":"121.493","lat":"31.40864","category":"247","category_name":"餐饮美食","address":"上海市宝山区友谊路1号(临江公园门口)"},{"poiid":"B2094750D665A3F84899","title":"段氏龙虾(东林路店)","lon":"121.494","lat":"31.4051","category":"68","category_name":"快餐厅","address":"宝山区东林路"},{"poiid":"B2094654D46AA6FB419A","title":"晓刚面亭","lon":"121.49426744298","lat":"31.404081705949","category":"68","category_name":"快餐厅","address":"宝山区东林路69号(近宝杨路)"},{"poiid":"B2094654D46AA6FA479A","title":"宝林七村","lon":"121.49573","lat":"31.404539","category":"47","category_name":"住宅区","address":"上海市宝林路子青路"},{"poiid":"B2094655D268A4F84699","title":"宝城三村(北门)","lon":"121.49291","lat":"31.41159","category":"47","category_name":"住宅区","address":""},{"poiid":"B2094757D164A6F5489B","title":"潮州汤骨煲 东林路店","lon":"121.494951054","lat":"31.401899793","category":"86","category_name":"火锅店","address":"宝山区东林路69号(近宝杨路)"},{"poiid":"B2094750D76EA2FB449D","title":"新青年羊蝎子火锅","lon":"121.494","lat":"31.4042","category":"86","category_name":"火锅店","address":"宝山区东林路197号(近宝杨路)"},{"poiid":"B2094757D465ABF4419F","title":"和众堡","lon":"121.493725054","lat":"31.405320793","category":"68","category_name":"快餐厅","address":"宝山区东林路230号(近密山路)"},{"poiid":"B2094654DB6AA6FF489E","title":"上海君航假日酒店","lon":"121.49411","lat":"31.40555","category":"250","category_name":"公园户外","address":"上海市宝山区密山东路256号"},{"poiid":"B2094757D165ABF8439A","title":"湘村人家 宝山店","lon":"121.493932","lat":"31.404509","category":"77","category_name":"湖南菜","address":"宝山区东林路168号(近密山路)"},{"poiid":"B2094654D46AA6FA479B","title":"宝山区肃苑会计进修学校(东大门)","lon":"121.49416","lat":"31.40547","category":"678","category_name":"学校大门","address":"密山东路258号"},{"poiid":"B2094757D06AABF5429E","title":"吴淞口国际邮轮港","lon":"121.50557","lat":"31.404876","category":"500","category_name":"未知分类","address":"上海市宝山区宝杨路１号"},{"poiid":"B2094757D06FA1FE4299","title":"临江公园","lon":"121.49385081","lat":"31.408717702","category":"196","category_name":"公园","address":"上海市宝山区友谊路1号"},{"poiid":"B2094757D06FA5F44392","title":"宝杨码头","lon":"121.501694","lat":"31.40562","category":"234","category_name":"海滨浴场","address":"上海宝山区宝杨支路18号"},{"poiid":"B2094757D068A4FE4693","title":"长江江堤","lon":"121.49430583","lat":"31.411120415","category":"500","category_name":"未知分类","address":"上海市宝山区盘古路"},{"poiid":"B2094757D068A7FC4592","title":"行知中学","lon":"121.49784","lat":"31.40544","category":"55","category_name":"中学","address":"宝山区宝林支路99号"},{"poiid":"B2094654D46AA6FA4693","title":"宝杨路码头候船室","lon":"121.50009","lat":"31.40575","category":"34","category_name":"港口码头","address":""},{"poiid":"B2094757D06AABFA439B","title":"淞沪抗战纪念馆","lon":"121.493002","lat":"31.408646","category":"182","category_name":"博物馆","address":"宝山区友谊路1号临江公园内(近东林路)"},{"poiid":"B2094654D46AA6F9449E","title":"祥腾国际广场","lon":"121.489","lat":"31.4136","category":"46","category_name":"楼宇","address":"上海市松江区涞坊路599弄"},{"poiid":"B2094757D66CA6FB459F","title":"黄浦江边","lon":"121.49665683","lat":"31.408402359","category":"500","category_name":"未知分类","address":"上海市宝山区东林路"},{"poiid":"B2094757D16EA7F94992","title":"宝林九村","lon":"121.504952","lat":"31.410461","category":"252","category_name":"楼宇机构","address":"上海市宝山区宝林路"},{"poiid":"B2094757D06AA1FA4199","title":"小绍兴(东林路店)","lon":"121.49421","lat":"31.40477","category":"68","category_name":"快餐厅","address":"宝山区东林路227号(近密山路)"},{"poiid":"B2094654D46AA5F5429D","title":"凯源景江苑","lon":"121.49313","lat":"31.41293","category":"47","category_name":"住宅区","address":"盘古路19弄"},{"poiid":"B2094655D265AAFF449E","title":"恺源景江苑","lon":"121.500343","lat":"31.417773","category":"47","category_name":"住宅区","address":"上海市宝山区盘古路115号"},{"poiid":"B2094757DA6FA2FC4998","title":"吴淞炮台湾湿地公园(北门)","lon":"121.501836776732","lat":"31.4026964848086","category":"250","category_name":"公园户外","address":"宝山区宝杨路(近宝杨支路)"},{"poiid":"B2094654D46AA5F5439F","title":"宝林八村","lon":"121.49574","lat":"31.407093","category":"47","category_name":"住宅区","address":"宝林八村"},{"poiid":"B2094654D46AA4F9499F","title":"宝钢一村","lon":"121.494","lat":"31.4097","category":"47","category_name":"住宅区","address":"友谊路114号"},{"poiid":"B2094654D46AA4FE4198","title":"宝山六村","lon":"121.502","lat":"31.397743","category":"47","category_name":"住宅区","address":"上海市宝山区永乐路115弄"},{"poiid":"B2094757D16BA6F9479F","title":"宝林五村","lon":"121.498","lat":"31.4109","category":"252","category_name":"楼宇机构","address":"上海宝山区宝林五村"},{"poiid":"B209475DD365A2FD469C","title":"上海吴淞国际码头","lon":"121.512001","lat":"31.40802","category":"500","category_name":"未知分类","address":"上海宝山区宝杨路"},{"poiid":"B2094654D46AA5F5439E","title":"临江佳园","lon":"121.497","lat":"31.407377","category":"47","category_name":"住宅区","address":"上海市宝山区密山东路11号"},{"poiid":"B2094757D568A5FC4293","title":"宝杨路客运码头","lon":"121.5038789","lat":"31.40380139","category":"35","category_name":"长途汽车站","address":"宝杨支路18号宝杨码头"},{"poiid":"B2094654D46AA4FC4193","title":"宝城三村(海景苑)","lon":"121.49277","lat":"31.41064","category":"47","category_name":"住宅区","address":"友谊路"},{"poiid":"B2094654D46AA6FA469B","title":"宝钢宝林九村","lon":"121.49991","lat":"31.40378","category":"47","category_name":"住宅区","address":"友谊路"},{"poiid":"B2094757D169A1FE459B","title":"宝林三村","lon":"121.499","lat":"31.4084","category":"252","category_name":"楼宇机构","address":"上海宝林三村"},{"poiid":"B2094757D16CA2F5449B","title":"杉松酒家","lon":"121.49534","lat":"31.40153","category":"76","category_name":"上海菜","address":"宝山区东林路17号(近宝杨路)"},{"poiid":"B2094654D46AA4FE439C","title":"中艺花园","lon":"121.49869","lat":"31.3999","category":"47","category_name":"住宅区","address":"中艺花园位于宝山海江路9号"},{"poiid":"B2094654D46AA6FB409B","title":"宝钢宝林六村","lon":"121.49604","lat":"31.40335","category":"47","category_name":"住宅区","address":"友谊路"},{"poiid":"B2094757D069A5FE4692","title":"宝山区人民法院","lon":"121.49107","lat":"31.408154","category":"608","category_name":"法院","address":"上海友谊路15号"},{"poiid":"B2094750D16BA2FE4598","title":"皇家加勒比游轮","lon":"121.502983","lat":"31.404596","category":"500","category_name":"未知分类","address":null},{"poiid":"B2094654DB69AAF4459B","title":"红露园","lon":"121.49168230383","lat":"31.408288477598","category":"247","category_name":"餐饮美食","address":"宝山区友谊路40号(近友谊支路)"},{"poiid":"B2094750D16BA0F84992","title":"宝山体育中心羽毛球馆","lon":"121.498832","lat":"31.398883","category":"250","category_name":"公园户外","address":"宝山区永清路700号(近海江路)"},{"poiid":"B2094655D268A5FE4998","title":"快客No.6409(炫盈数码科技西)","lon":"121.49342","lat":"31.41216","category":"117","category_name":"便民商店/便利店","address":"盘古路23"},{"poiid":"B2094757D164A4FA439B","title":"海滨五村","lon":"121.50103062728","lat":"31.401987993104","category":"46","category_name":"楼宇","address":"上海牡丹江路水产路"},{"poiid":"B2094654D46AA4FE459C","title":"上海市基督教吴淞堂","lon":"121.5013","lat":"31.40229","category":"245","category_name":"教堂","address":"宝山区宝杨路74"},{"poiid":"B2094654D46AA7FB4099","title":"宝山一村","lon":"121.509","lat":"31.4009","category":"47","category_name":"住宅区","address":"上海双城路宝东路宝山一村4号"},{"poiid":"B2094654D46AA5F5499A","title":"吴淞古炮台","lon":"121.49378","lat":"31.40902","category":"250","category_name":"公园户外","address":"临江公园内"},{"poiid":"B209475CD768A2FB479B","title":"吴淞国际码头","lon":"121.495025","lat":"31.408901","category":"500","category_name":"未知分类","address":"上海市 上海宝杨路1号"},{"poiid":"B2094750D669A4FA459A","title":"上海长江河口科技馆","lon":"121.506713","lat":"31.400457","category":"250","category_name":"公园户外","address":"宝山区塘后路206号吴淞炮台湾湿地公园(近国际邮轮码头)"},{"poiid":"B2094654D46AA5F54893","title":"陈化成纪念馆","lon":"121.49378","lat":"31.40902","category":"243","category_name":"纪念馆","address":"友谊路1号"},{"poiid":"B2094654DB69AAF84392","title":"苏北土菜馆","lon":"121.493","lat":"31.40864","category":"247","category_name":"餐饮美食","address":"上海市宝山区友谊路1号(临江公园门口)"},{"poiid":"B2094750D665A3F84899","title":"段氏龙虾(东林路店)","lon":"121.494","lat":"31.4051","category":"68","category_name":"快餐厅","address":"宝山区东林路"},{"poiid":"B2094654D46AA6FB419A","title":"晓刚面亭","lon":"121.49426744298","lat":"31.404081705949","category":"68","category_name":"快餐厅","address":"宝山区东林路69号(近宝杨路)"},{"poiid":"B2094654D46AA6FA479A","title":"宝林七村","lon":"121.49573","lat":"31.404539","category":"47","category_name":"住宅区","address":"上海市宝林路子青路"},{"poiid":"B2094655D268A4F84699","title":"宝城三村(北门)","lon":"121.49291","lat":"31.41159","category":"47","category_name":"住宅区","address":""},{"poiid":"B2094757D164A6F5489B","title":"潮州汤骨煲 东林路店","lon":"121.494951054","lat":"31.401899793","category":"86","category_name":"火锅店","address":"宝山区东林路69号(近宝杨路)"},{"poiid":"B2094750D76EA2FB449D","title":"新青年羊蝎子火锅","lon":"121.494","lat":"31.4042","category":"86","category_name":"火锅店","address":"宝山区东林路197号(近宝杨路)"},{"poiid":"B2094757D465ABF4419F","title":"和众堡","lon":"121.493725054","lat":"31.405320793","category":"68","category_name":"快餐厅","address":"宝山区东林路230号(近密山路)"},{"poiid":"B2094654DB6AA6FF489E","title":"上海君航假日酒店","lon":"121.49411","lat":"31.40555","category":"250","category_name":"公园户外","address":"上海市宝山区密山东路256号"},{"poiid":"B2094757D165ABF8439A","title":"湘村人家 宝山店","lon":"121.493932","lat":"31.404509","category":"77","category_name":"湖南菜","address":"宝山区东林路168号(近密山路)"},{"poiid":"B2094654D46AA6FA479B","title":"宝山区肃苑会计进修学校(东大门)","lon":"121.49416","lat":"31.40547","category":"678","category_name":"学校大门","address":"密山东路258号"},{"poiid":"B2094757D06AABF5429E","title":"吴淞口国际邮轮港","lon":"121.50557","lat":"31.404876","category":"500","category_name":"未知分类","address":"上海市宝山区宝杨路１号"},{"poiid":"B2094757D06FA1FE4299","title":"临江公园","lon":"121.49385081","lat":"31.408717702","category":"196","category_name":"公园","address":"上海市宝山区友谊路1号"},{"poiid":"B2094757D06FA5F44392","title":"宝杨码头","lon":"121.501694","lat":"31.40562","category":"234","category_name":"海滨浴场","address":"上海宝山区宝杨支路18号"},{"poiid":"B2094757D068A4FE4693","title":"长江江堤","lon":"121.49430583","lat":"31.411120415","category":"500","category_name":"未知分类","address":"上海市宝山区盘古路"},{"poiid":"B2094757D068A7FC4592","title":"行知中学","lon":"121.49784","lat":"31.40544","category":"55","category_name":"中学","address":"宝山区宝林支路99号"},{"poiid":"B2094654D46AA6FA4693","title":"宝杨路码头候船室","lon":"121.50009","lat":"31.40575","category":"34","category_name":"港口码头","address":""},{"poiid":"B2094757D06AABFA439B","title":"淞沪抗战纪念馆","lon":"121.493002","lat":"31.408646","category":"182","category_name":"博物馆","address":"宝山区友谊路1号临江公园内(近东林路)"},{"poiid":"B2094654D46AA6F9449E","title":"祥腾国际广场","lon":"121.489","lat":"31.4136","category":"46","category_name":"楼宇","address":"上海市松江区涞坊路599弄"},{"poiid":"B2094757D66CA6FB459F","title":"黄浦江边","lon":"121.49665683","lat":"31.408402359","category":"500","category_name":"未知分类","address":"上海市宝山区东林路"},{"poiid":"B2094757D16EA7F94992","title":"宝林九村","lon":"121.504952","lat":"31.410461","category":"252","category_name":"楼宇机构","address":"上海市宝山区宝林路"},{"poiid":"B2094757D06AA1FA4199","title":"小绍兴(东林路店)","lon":"121.49421","lat":"31.40477","category":"68","category_name":"快餐厅","address":"宝山区东林路227号(近密山路)"},{"poiid":"B2094654D46AA5F5429D","title":"凯源景江苑","lon":"121.49313","lat":"31.41293","category":"47","category_name":"住宅区","address":"盘古路19弄"},{"poiid":"B2094655D265AAFF449E","title":"恺源景江苑","lon":"121.500343","lat":"31.417773","category":"47","category_name":"住宅区","address":"上海市宝山区盘古路115号"},{"poiid":"B2094757DA6FA2FC4998","title":"吴淞炮台湾湿地公园(北门)","lon":"121.501836776732","lat":"31.4026964848086","category":"250","category_name":"公园户外","address":"宝山区宝杨路(近宝杨支路)"},{"poiid":"B2094654D46AA5F5439F","title":"宝林八村","lon":"121.49574","lat":"31.407093","category":"47","category_name":"住宅区","address":"宝林八村"},{"poiid":"B2094654D46AA4F9499F","title":"宝钢一村","lon":"121.494","lat":"31.4097","category":"47","category_name":"住宅区","address":"友谊路114号"},{"poiid":"B2094654D46AA4FE4198","title":"宝山六村","lon":"121.502","lat":"31.397743","category":"47","category_name":"住宅区","address":"上海市宝山区永乐路115弄"},{"poiid":"B2094757D16BA6F9479F","title":"宝林五村","lon":"121.498","lat":"31.4109","category":"252","category_name":"楼宇机构","address":"上海宝山区宝林五村"},{"poiid":"B209475DD365A2FD469C","title":"上海吴淞国际码头","lon":"121.512001","lat":"31.40802","category":"500","category_name":"未知分类","address":"上海宝山区宝杨路"},{"poiid":"B2094654D46AA5F5439E","title":"临江佳园","lon":"121.497","lat":"31.407377","category":"47","category_name":"住宅区","address":"上海市宝山区密山东路11号"},{"poiid":"B2094757D568A5FC4293","title":"宝杨路客运码头","lon":"121.5038789","lat":"31.40380139","category":"35","category_name":"长途汽车站","address":"宝杨支路18号宝杨码头"},{"poiid":"B2094654D46AA4FC4193","title":"宝城三村(海景苑)","lon":"121.49277","lat":"31.41064","category":"47","category_name":"住宅区","address":"友谊路"},{"poiid":"B2094654D46AA6FA469B","title":"宝钢宝林九村","lon":"121.49991","lat":"31.40378","category":"47","category_name":"住宅区","address":"友谊路"},{"poiid":"B2094757D169A1FE459B","title":"宝林三村","lon":"121.499","lat":"31.4084","category":"252","category_name":"楼宇机构","address":"上海宝林三村"},{"poiid":"B2094757D16CA2F5449B","title":"杉松酒家","lon":"121.49534","lat":"31.40153","category":"76","category_name":"上海菜","address":"宝山区东林路17号(近宝杨路)"},{"poiid":"B2094654D46AA4FE439C","title":"中艺花园","lon":"121.49869","lat":"31.3999","category":"47","category_name":"住宅区","address":"中艺花园位于宝山海江路9号"},{"poiid":"B2094654D46AA6FB409B","title":"宝钢宝林六村","lon":"121.49604","lat":"31.40335","category":"47","category_name":"住宅区","address":"友谊路"},{"poiid":"B2094757D069A5FE4692","title":"宝山区人民法院","lon":"121.49107","lat":"31.408154","category":"608","category_name":"法院","address":"上海友谊路15号"},{"poiid":"B2094750D16BA2FE4598","title":"皇家加勒比游轮","lon":"121.502983","lat":"31.404596","category":"500","category_name":"未知分类","address":null},{"poiid":"B2094654DB69AAF4459B","title":"红露园","lon":"121.49168230383","lat":"31.408288477598","category":"247","category_name":"餐饮美食","address":"宝山区友谊路40号(近友谊支路)"},{"poiid":"B2094750D16BA0F84992","title":"宝山体育中心羽毛球馆","lon":"121.498832","lat":"31.398883","category":"250","category_name":"公园户外","address":"宝山区永清路700号(近海江路)"},{"poiid":"B2094655D268A5FE4998","title":"快客No.6409(炫盈数码科技西)","lon":"121.49342","lat":"31.41216","category":"117","category_name":"便民商店/便利店","address":"盘古路23"},{"poiid":"B2094757D164A4FA439B","title":"海滨五村","lon":"121.50103062728","lat":"31.401987993104","category":"46","category_name":"楼宇","address":"上海牡丹江路水产路"},{"poiid":"B2094654D46AA4FE459C","title":"上海市基督教吴淞堂","lon":"121.5013","lat":"31.40229","category":"245","category_name":"教堂","address":"宝山区宝杨路74"},{"poiid":"B2094654D46AA7FB4099","title":"宝山一村","lon":"121.509","lat":"31.4009","category":"47","category_name":"住宅区","address":"上海双城路宝东路宝山一村4号"},{"poiid":"B2094654D46AA5F5499A","title":"吴淞古炮台","lon":"121.49378","lat":"31.40902","category":"250","category_name":"公园户外","address":"临江公园内"},{"poiid":"B209475CD768A2FB479B","title":"吴淞国际码头","lon":"121.495025","lat":"31.408901","category":"500","category_name":"未知分类","address":"上海市 上海宝杨路1号"},{"poiid":"B2094750D669A4FA459A","title":"上海长江河口科技馆","lon":"121.506713","lat":"31.400457","category":"250","category_name":"公园户外","address":"宝山区塘后路206号吴淞炮台湾湿地公园(近国际邮轮码头)"},{"poiid":"B2094654D46AA5F54893","title":"陈化成纪念馆","lon":"121.49378","lat":"31.40902","category":"243","category_name":"纪念馆","address":"友谊路1号"},{"poiid":"B2094654DB69AAF84392","title":"苏北土菜馆","lon":"121.493","lat":"31.40864","category":"247","category_name":"餐饮美食","address":"上海市宝山区友谊路1号(临江公园门口)"},{"poiid":"B2094750D665A3F84899","title":"段氏龙虾(东林路店)","lon":"121.494","lat":"31.4051","category":"68","category_name":"快餐厅","address":"宝山区东林路"},{"poiid":"B2094654D46AA6FB419A","title":"晓刚面亭","lon":"121.49426744298","lat":"31.404081705949","category":"68","category_name":"快餐厅","address":"宝山区东林路69号(近宝杨路)"},{"poiid":"B2094654D46AA6FA479A","title":"宝林七村","lon":"121.49573","lat":"31.404539","category":"47","category_name":"住宅区","address":"上海市宝林路子青路"},{"poiid":"B2094655D268A4F84699","title":"宝城三村(北门)","lon":"121.49291","lat":"31.41159","category":"47","category_name":"住宅区","address":""},{"poiid":"B2094757D164A6F5489B","title":"潮州汤骨煲 东林路店","lon":"121.494951054","lat":"31.401899793","category":"86","category_name":"火锅店","address":"宝山区东林路69号(近宝杨路)"},{"poiid":"B2094750D76EA2FB449D","title":"新青年羊蝎子火锅","lon":"121.494","lat":"31.4042","category":"86","category_name":"火锅店","address":"宝山区东林路197号(近宝杨路)"},{"poiid":"B2094757D465ABF4419F","title":"和众堡","lon":"121.493725054","lat":"31.405320793","category":"68","category_name":"快餐厅","address":"宝山区东林路230号(近密山路)"},{"poiid":"B2094654DB6AA6FF489E","title":"上海君航假日酒店","lon":"121.49411","lat":"31.40555","category":"250","category_name":"公园户外","address":"上海市宝山区密山东路256号"},{"poiid":"B2094757D165ABF8439A","title":"湘村人家 宝山店","lon":"121.493932","lat":"31.404509","category":"77","category_name":"湖南菜","address":"宝山区东林路168号(近密山路)"},{"poiid":"B2094654D46AA6FA479B","title":"宝山区肃苑会计进修学校(东大门)","lon":"121.49416","lat":"31.40547","category":"678","category_name":"学校大门","address":"密山东路258号"}]