[{"poiid":"B2094655D26AA6FB449B","title":"星巴克(丽园路店)","lon":"121.47781","lat":"31.205943","category":"260","category_name":"其他","address":"卢湾区蒙自路169号智造局内(近丽园路)"},{"poiid":"B2094757D06FA5F44099","title":"Top Chef","lon":"121.47742498","lat":"31.2059198691","category":"94","category_name":"西餐厅","address":"卢湾区蒙自路169号智造局4-105室(近丽园路)"},{"poiid":"B2094757D06FA1FF4992","title":"鱼林王(打浦店)","lon":"121.47867","lat":"31.20636","category":"86","category_name":"火锅店","address":"卢湾区丽园路708号(近局门路)"},{"poiid":"B2094753D76FAAFA449C","title":"上海滩国泰旗舰店","lon":"121.466011","lat":"31.216125","category":"249","category_name":"购物服务","address":"淮海中路868号"},{"poiid":"B209475CD564A7F84292","title":"上海滩新天地店","lon":"121.47463","lat":"31.22164","category":"119","category_name":"商场","address":"\"太仓路181弄新天地北里15号\r\n\""},{"poiid":"B2094757D06FAAFC439B","title":"金锚传菜(丽园路店)","lon":"121.47857773","lat":"31.206662798","category":"76","category_name":"上海菜","address":"卢湾区丽园路718号(近蒙自路)"},{"poiid":"B2094757D06FA0FE4093","title":"智造局 Park Space 产业园","lon":"121.47754669","lat":"31.206863403","category":"46","category_name":"楼宇","address":"上海蒙自路169号近丽园路"},{"poiid":"B2094753D26EA7F84798","title":"香港龙凤楼","lon":"121.477286","lat":"31.207407","category":"247","category_name":"餐饮美食","address":"上海市 蒙自东路75号(丽园路)"},{"poiid":"B2094757D06FABFF4198","title":"卢湾区妇幼保健院","lon":"121.47897","lat":"31.20653","category":"902","category_name":"楼宇机构","address":"上海卢湾区丽园路712号(近局门路)  "},{"poiid":"B2094757D06FA1F84392","title":"友乐达台北精致面馆(卢湾店)","lon":"121.47766","lat":"31.20624","category":"68","category_name":"快餐厅","address":"卢湾区蒙自路169号智造局4号楼101室(近丽园路)"},{"poiid":"B2094757D06FA0FC489C","title":"丽园公园","lon":"121.478843794","lat":"31.2073611728","category":"196","category_name":"公园","address":"上海卢湾区丽园路(近局门路)  "},{"poiid":"B2094757DB6CA5F4419B","title":"mr.x迷之城堡","lon":"121.477599","lat":"31.203324","category":"248","category_name":"生活娱乐","address":"局门路550号1号楼"},{"poiid":"B2094757D068A2F94892","title":"渝香情","lon":"121.47845573","lat":"31.206635797","category":"71","category_name":"四川菜","address":"卢湾区丽园路718号(近蒙自路)"},{"poiid":"B2094750D56EA1F4429D","title":"狐咖","lon":"121.477615","lat":"31.20746","category":"247","category_name":"餐饮美食","address":"卢湾区蒙自东路65号(近智造局产业园)"},{"poiid":"B2094757D069AAFF409D","title":"华越楼(打浦店)","lon":"121.47752593","lat":"31.206280889","category":"110","category_name":"其他亚洲菜","address":"卢湾区蒙自路29号(近肯德基)"},{"poiid":"B2094757D06FABF8449C","title":"上海市税务局卢湾区分局","lon":"121.479618018","lat":"31.2051612451","category":"46","category_name":"楼宇","address":"上海斜土路313号"},{"poiid":"B2094757D06AA1FE459B","title":"丽园路","lon":"121.479852","lat":"31.206063","category":"500","category_name":"未知分类","address":"上海卢湾区斜土路80弄"},{"poiid":"B2094757D068A2FB439B","title":"打浦桥社区文化活动中心","lon":"121.478227","lat":"31.205194","category":"260","category_name":"其他","address":"上海卢湾区蒙自路223号(近丽园路)"},{"poiid":"B2094757D168A5FD489B","title":"丽园路蒙自路","lon":"121.4771682","lat":"31.2070718655","category":"500","category_name":"未知分类","address":"上海丽园路蒙自路"},{"poiid":"B2094654DA6EA3FE4099","title":"致远大厦","lon":"121.478","lat":"31.2078","category":"46","category_name":"楼宇","address":"上海斜土路768号"},{"poiid":"B2094757D16CA2FC469F","title":"鲁班路斜土路","lon":"121.47704883","lat":"31.203923439","category":"500","category_name":"未知分类","address":"上海鲁班路斜土路"},{"poiid":"B2094750D56DABF84799","title":"达美乐披萨（蒙自路店）","lon":"121.477851","lat":"31.206092","category":"247","category_name":"餐饮美食","address":"蒙自路169号智造局"},{"poiid":"B2094757D06BA7FB469B","title":"ZEN PALACE MASSAGE","lon":"121.47790073","lat":"31.207373813","category":"500","category_name":"未知分类","address":"上海市卢湾区蒙自东卢湾区41号"},{"poiid":"B2094751D26CAAFB499C","title":"粒子咖啡","lon":"121.479553","lat":"31.204935","category":"247","category_name":"餐饮美食","address":"卢湾区蒙自东路63号(近马当路地铁站3号口)"},{"poiid":"B2094655D26EA6F5449E","title":"锦江大厨(卢湾店)","lon":"121.47694","lat":"31.2071","category":"76","category_name":"上海菜","address":"卢湾区蒙自路118号(近丽园路)"},{"poiid":"B209475CD66FAAFD4498","title":"Mr.pancake house","lon":"121.477951","lat":"31.205694","category":"500","category_name":"未知分类","address":"上海市 卢湾区蒙自路207号"},{"poiid":"B2094654DB69A4FD499B","title":"锦江之星(卢湾丽园店)","lon":"121.47693","lat":"31.20724","category":"216","category_name":"经济型连锁酒店","address":"上海市黄浦区斜土路456号(近徐家汇路)"},{"poiid":"B2094753D56FA1FC4692","title":"Le Joli Bistro 周","lon":"121.478302","lat":"31.205844","category":"500","category_name":"未知分类","address":"上海市 蒙自路207号11号楼10室"},{"poiid":"B2094751D36FA4F4479C","title":"达美乐比萨(蒙自路店)","lon":"121.47781","lat":"31.20594","category":"94","category_name":"西餐厅","address":"卢湾区蒙自路169号(近丽园路)"},{"poiid":"B2094757D064A5F8429F","title":"香港丽源餐厅","lon":"121.477602938","lat":"31.206801801","category":"72","category_name":"广东菜","address":"卢湾区丽园路718号105座(近蒙自路)"},{"poiid":"B2094757D06AA4FA4999","title":"北蒙三小区","lon":"121.47663","lat":"31.205873","category":"47","category_name":"住宅区","address":"丽园路482弄20-51号"},{"poiid":"B2094757D069A6F8499C","title":"开城新苑","lon":"121.47711","lat":"31.206291","category":"47","category_name":"住宅区","address":"上海卢湾区丽园路818弄(近蒙自路)"},{"poiid":"B2094757D06FA2FE489D","title":"DDB China","lon":"121.47760009","lat":"31.206272125","category":"500","category_name":"未知分类","address":"上海蒙自路169号智造局2号楼4楼"},{"poiid":"B2094654DA68A6FF469C","title":"永和豆浆(汉盟台湾连锁加盟产业商务中心)","lon":"121.47844","lat":"31.20527","category":"68","category_name":"快餐厅","address":"卢湾区蒙自路223号(近斜土路)"},{"poiid":"B2094654DA68A6F8409E","title":"良友金伴蒙自店","lon":"121.47765","lat":"31.20572","category":"117","category_name":"便民商店/便利店","address":"蒙自路210"},{"poiid":"B209475CD364ABFC4392","title":"sitka coffee","lon":"121.477706","lat":"31.20564","category":"111","category_name":"休闲餐饮场所","address":"蒙自路207号101-1商铺(近丽园路)"},{"poiid":"B2094654DA68A6F8419B","title":"嘿呀摇茶(蒙自路)","lon":"121.47776","lat":"31.20602","category":"113","category_name":"冷饮店","address":""},{"poiid":"B2094757D16AA2F5479B","title":"翔鹰龙虾","lon":"121.47532573","lat":"31.206978804","category":"68","category_name":"快餐厅","address":"黄浦区大兴街3号(近黄家厥路)"},{"poiid":"B2094654DB65A6FD429F","title":"永琪美容美发(丽园店)","lon":"121.47702","lat":"31.20626","category":"148","category_name":"美容美发店","address":"卢湾区丽园路(近蒙自路)"},{"poiid":"B2094757D16CA3F44199","title":"陕西人家","lon":"121.477775","lat":"31.205987","category":"247","category_name":"餐饮美食","address":"上海卢湾区蒙自路169号智造局104号"},{"poiid":"B2094757D465A4FC4998","title":"丰裕生煎 达利店","lon":"121.478425054","lat":"31.204610793","category":"68","category_name":"快餐厅","address":"卢湾区蒙自路345弄10号(斜土路口)"},{"poiid":"B2094757D065A4F84398","title":"汉庭•全季酒店新天地店","lon":"121.47760766","lat":"31.20552149","category":"217","category_name":"旅馆招待所","address":"上海市徐汇区重庆南路283号"},{"poiid":"B2094654DA68A7F5469A","title":"中国移动斜土路营业厅","lon":"121.47796","lat":"31.20435","category":"151","category_name":"电讯营业厅","address":"徐汇区斜土路433号"},{"poiid":"B2094655D26AA0FF4499","title":"依达台球俱乐部","lon":"121.47611","lat":"31.20644","category":"247","category_name":"餐饮美食","address":"卢湾区丽园路826号(近蒙自路)"},{"poiid":"B2094654DB65A0FE459E","title":"国际服务外包产业园智造局","lon":"121.47772","lat":"31.20669","category":"46","category_name":"楼宇","address":"蒙自路169号"},{"poiid":"B2094757DB64A2FA4599","title":"翠华餐厅","lon":"121.477081","lat":"31.207841","category":"500","category_name":"未知分类","address":"日月光"},{"poiid":"B2094654DA68A6FD409E","title":"鹏福面馆","lon":"121.477944054","lat":"31.204142793","category":"257","category_name":"中餐厅","address":"卢湾区斜土路332号(近蒙自路)"},{"poiid":"B2094757D06AA4FC499E","title":"香港丽源茶餐厅","lon":"121.477728738","lat":"31.2063417912","category":"500","category_name":"未知分类","address":"上海市卢湾区丽园路718号"},{"poiid":"B209475CD464A5F94992","title":"星巴克（永业公寓店）","lon":"121.477645","lat":"31.206165","category":"500","category_name":"未知分类","address":"上海市 徐家汇路193-199号"},{"poiid":"B2094752DA69A1F44098","title":"香港龙凤楼","lon":"121.476228","lat":"31.207401","category":"247","category_name":"餐饮美食","address":"上海市 蒙自东路"},{"poiid":"B2094655D26AA6FB449B","title":"星巴克(丽园路店)","lon":"121.47781","lat":"31.205943","category":"260","category_name":"其他","address":"卢湾区蒙自路169号智造局内(近丽园路)"},{"poiid":"B2094757D06FA5F44099","title":"Top Chef","lon":"121.47742498","lat":"31.2059198691","category":"94","category_name":"西餐厅","address":"卢湾区蒙自路169号智造局4-105室(近丽园路)"},{"poiid":"B2094757D06FA1FF4992","title":"鱼林王(打浦店)","lon":"121.47867","lat":"31.20636","category":"86","category_name":"火锅店","address":"卢湾区丽园路708号(近局门路)"},{"poiid":"B2094753D76FAAFA449C","title":"上海滩国泰旗舰店","lon":"121.466011","lat":"31.216125","category":"249","category_name":"购物服务","address":"淮海中路868号"},{"poiid":"B209475CD564A7F84292","title":"上海滩新天地店","lon":"121.47463","lat":"31.22164","category":"119","category_name":"商场","address":"\"太仓路181弄新天地北里15号\r\n\""},{"poiid":"B2094757D06FAAFC439B","title":"金锚传菜(丽园路店)","lon":"121.47857773","lat":"31.206662798","category":"76","category_name":"上海菜","address":"卢湾区丽园路718号(近蒙自路)"},{"poiid":"B2094757D06FA0FE4093","title":"智造局 Park Space 产业园","lon":"121.47754669","lat":"31.206863403","category":"46","category_name":"楼宇","address":"上海蒙自路169号近丽园路"},{"poiid":"B2094753D26EA7F84798","title":"香港龙凤楼","lon":"121.477286","lat":"31.207407","category":"247","category_name":"餐饮美食","address":"上海市 蒙自东路75号(丽园路)"},{"poiid":"B2094757D06FABFF4198","title":"卢湾区妇幼保健院","lon":"121.47897","lat":"31.20653","category":"902","category_name":"楼宇机构","address":"上海卢湾区丽园路712号(近局门路)  "},{"poiid":"B2094757D06FA1F84392","title":"友乐达台北精致面馆(卢湾店)","lon":"121.47766","lat":"31.20624","category":"68","category_name":"快餐厅","address":"卢湾区蒙自路169号智造局4号楼101室(近丽园路)"},{"poiid":"B2094757D06FA0FC489C","title":"丽园公园","lon":"121.478843794","lat":"31.2073611728","category":"196","category_name":"公园","address":"上海卢湾区丽园路(近局门路)  "},{"poiid":"B2094757DB6CA5F4419B","title":"mr.x迷之城堡","lon":"121.477599","lat":"31.203324","category":"248","category_name":"生活娱乐","address":"局门路550号1号楼"},{"poiid":"B2094757D068A2F94892","title":"渝香情","lon":"121.47845573","lat":"31.206635797","category":"71","category_name":"四川菜","address":"卢湾区丽园路718号(近蒙自路)"},{"poiid":"B2094750D56EA1F4429D","title":"狐咖","lon":"121.477615","lat":"31.20746","category":"247","category_name":"餐饮美食","address":"卢湾区蒙自东路65号(近智造局产业园)"},{"poiid":"B2094757D069AAFF409D","title":"华越楼(打浦店)","lon":"121.47752593","lat":"31.206280889","category":"110","category_name":"其他亚洲菜","address":"卢湾区蒙自路29号(近肯德基)"},{"poiid":"B2094757D06FABF8449C","title":"上海市税务局卢湾区分局","lon":"121.479618018","lat":"31.2051612451","category":"46","category_name":"楼宇","address":"上海斜土路313号"},{"poiid":"B2094757D06AA1FE459B","title":"丽园路","lon":"121.479852","lat":"31.206063","category":"500","category_name":"未知分类","address":"上海卢湾区斜土路80弄"},{"poiid":"B2094757D068A2FB439B","title":"打浦桥社区文化活动中心","lon":"121.478227","lat":"31.205194","category":"260","category_name":"其他","address":"上海卢湾区蒙自路223号(近丽园路)"},{"poiid":"B2094757D168A5FD489B","title":"丽园路蒙自路","lon":"121.4771682","lat":"31.2070718655","category":"500","category_name":"未知分类","address":"上海丽园路蒙自路"},{"poiid":"B2094654DA6EA3FE4099","title":"致远大厦","lon":"121.478","lat":"31.2078","category":"46","category_name":"楼宇","address":"上海斜土路768号"},{"poiid":"B2094757D16CA2FC469F","title":"鲁班路斜土路","lon":"121.47704883","lat":"31.203923439","category":"500","category_name":"未知分类","address":"上海鲁班路斜土路"},{"poiid":"B2094750D56DABF84799","title":"达美乐披萨（蒙自路店）","lon":"121.477851","lat":"31.206092","category":"247","category_name":"餐饮美食","address":"蒙自路169号智造局"},{"poiid":"B2094757D06BA7FB469B","title":"ZEN PALACE MASSAGE","lon":"121.47790073","lat":"31.207373813","category":"500","category_name":"未知分类","address":"上海市卢湾区蒙自东卢湾区41号"},{"poiid":"B2094751D26CAAFB499C","title":"粒子咖啡","lon":"121.479553","lat":"31.204935","category":"247","category_name":"餐饮美食","address":"卢湾区蒙自东路63号(近马当路地铁站3号口)"},{"poiid":"B2094655D26EA6F5449E","title":"锦江大厨(卢湾店)","lon":"121.47694","lat":"31.2071","category":"76","category_name":"上海菜","address":"卢湾区蒙自路118号(近丽园路)"},{"poiid":"B209475CD66FAAFD4498","title":"Mr.pancake house","lon":"121.477951","lat":"31.205694","category":"500","category_name":"未知分类","address":"上海市 卢湾区蒙自路207号"},{"poiid":"B2094654DB69A4FD499B","title":"锦江之星(卢湾丽园店)","lon":"121.47693","lat":"31.20724","category":"216","category_name":"经济型连锁酒店","address":"上海市黄浦区斜土路456号(近徐家汇路)"},{"poiid":"B2094753D56FA1FC4692","title":"Le Joli Bistro 周","lon":"121.478302","lat":"31.205844","category":"500","category_name":"未知分类","address":"上海市 蒙自路207号11号楼10室"},{"poiid":"B2094751D36FA4F4479C","title":"达美乐比萨(蒙自路店)","lon":"121.47781","lat":"31.20594","category":"94","category_name":"西餐厅","address":"卢湾区蒙自路169号(近丽园路)"},{"poiid":"B2094757D064A5F8429F","title":"香港丽源餐厅","lon":"121.477602938","lat":"31.206801801","category":"72","category_name":"广东菜","address":"卢湾区丽园路718号105座(近蒙自路)"},{"poiid":"B2094757D06AA4FA4999","title":"北蒙三小区","lon":"121.47663","lat":"31.205873","category":"47","category_name":"住宅区","address":"丽园路482弄20-51号"},{"poiid":"B2094757D069A6F8499C","title":"开城新苑","lon":"121.47711","lat":"31.206291","category":"47","category_name":"住宅区","address":"上海卢湾区丽园路818弄(近蒙自路)"},{"poiid":"B2094757D06FA2FE489D","title":"DDB China","lon":"121.47760009","lat":"31.206272125","category":"500","category_name":"未知分类","address":"上海蒙自路169号智造局2号楼4楼"},{"poiid":"B2094654DA68A6FF469C","title":"永和豆浆(汉盟台湾连锁加盟产业商务中心)","lon":"121.47844","lat":"31.20527","category":"68","category_name":"快餐厅","address":"卢湾区蒙自路223号(近斜土路)"},{"poiid":"B2094654DA68A6F8409E","title":"良友金伴蒙自店","lon":"121.47765","lat":"31.20572","category":"117","category_name":"便民商店/便利店","address":"蒙自路210"},{"poiid":"B209475CD364ABFC4392","title":"sitka coffee","lon":"121.477706","lat":"31.20564","category":"111","category_name":"休闲餐饮场所","address":"蒙自路207号101-1商铺(近丽园路)"},{"poiid":"B2094654DA68A6F8419B","title":"嘿呀摇茶(蒙自路)","lon":"121.47776","lat":"31.20602","category":"113","category_name":"冷饮店","address":""},{"poiid":"B2094757D16AA2F5479B","title":"翔鹰龙虾","lon":"121.47532573","lat":"31.206978804","category":"68","category_name":"快餐厅","address":"黄浦区大兴街3号(近黄家厥路)"},{"poiid":"B2094654DB65A6FD429F","title":"永琪美容美发(丽园店)","lon":"121.47702","lat":"31.20626","category":"148","category_name":"美容美发店","address":"卢湾区丽园路(近蒙自路)"},{"poiid":"B2094757D16CA3F44199","title":"陕西人家","lon":"121.477775","lat":"31.205987","category":"247","category_name":"餐饮美食","address":"上海卢湾区蒙自路169号智造局104号"},{"poiid":"B2094757D465A4FC4998","title":"丰裕生煎 达利店","lon":"121.478425054","lat":"31.204610793","category":"68","category_name":"快餐厅","address":"卢湾区蒙自路345弄10号(斜土路口)"},{"poiid":"B2094757D065A4F84398","title":"汉庭•全季酒店新天地店","lon":"121.47760766","lat":"31.20552149","category":"217","category_name":"旅馆招待所","address":"上海市徐汇区重庆南路283号"},{"poiid":"B2094654DA68A7F5469A","title":"中国移动斜土路营业厅","lon":"121.47796","lat":"31.20435","category":"151","category_name":"电讯营业厅","address":"徐汇区斜土路433号"},{"poiid":"B2094655D26AA0FF4499","title":"依达台球俱乐部","lon":"121.47611","lat":"31.20644","category":"247","category_name":"餐饮美食","address":"卢湾区丽园路826号(近蒙自路)"},{"poiid":"B2094654DB65A0FE459E","title":"国际服务外包产业园智造局","lon":"121.47772","lat":"31.20669","category":"46","category_name":"楼宇","address":"蒙自路169号"},{"poiid":"B2094757DB64A2FA4599","title":"翠华餐厅","lon":"121.477081","lat":"31.207841","category":"500","category_name":"未知分类","address":"日月光"},{"poiid":"B2094654DA68A6FD409E","title":"鹏福面馆","lon":"121.477944054","lat":"31.204142793","category":"257","category_name":"中餐厅","address":"卢湾区斜土路332号(近蒙自路)"},{"poiid":"B2094757D06AA4FC499E","title":"香港丽源茶餐厅","lon":"121.477728738","lat":"31.2063417912","category":"500","category_name":"未知分类","address":"上海市卢湾区丽园路718号"},{"poiid":"B209475CD464A5F94992","title":"星巴克（永业公寓店）","lon":"121.477645","lat":"31.206165","category":"500","category_name":"未知分类","address":"上海市 徐家汇路193-199号"},{"poiid":"B2094752DA69A1F44098","title":"香港龙凤楼","lon":"121.476228","lat":"31.207401","category":"247","category_name":"餐饮美食","address":"上海市 蒙自东路"},{"poiid":"B2094655D26AA6FB449B","title":"星巴克(丽园路店)","lon":"121.47781","lat":"31.205943","category":"260","category_name":"其他","address":"卢湾区蒙自路169号智造局内(近丽园路)"},{"poiid":"B2094757D06FA5F44099","title":"Top Chef","lon":"121.47742498","lat":"31.2059198691","category":"94","category_name":"西餐厅","address":"卢湾区蒙自路169号智造局4-105室(近丽园路)"},{"poiid":"B2094757D06FA1FF4992","title":"鱼林王(打浦店)","lon":"121.47867","lat":"31.20636","category":"86","category_name":"火锅店","address":"卢湾区丽园路708号(近局门路)"},{"poiid":"B2094753D76FAAFA449C","title":"上海滩国泰旗舰店","lon":"121.466011","lat":"31.216125","category":"249","category_name":"购物服务","address":"淮海中路868号"},{"poiid":"B209475CD564A7F84292","title":"上海滩新天地店","lon":"121.47463","lat":"31.22164","category":"119","category_name":"商场","address":"\"太仓路181弄新天地北里15号\r\n\""},{"poiid":"B2094757D06FAAFC439B","title":"金锚传菜(丽园路店)","lon":"121.47857773","lat":"31.206662798","category":"76","category_name":"上海菜","address":"卢湾区丽园路718号(近蒙自路)"},{"poiid":"B2094757D06FA0FE4093","title":"智造局 Park Space 产业园","lon":"121.47754669","lat":"31.206863403","category":"46","category_name":"楼宇","address":"上海蒙自路169号近丽园路"},{"poiid":"B2094753D26EA7F84798","title":"香港龙凤楼","lon":"121.477286","lat":"31.207407","category":"247","category_name":"餐饮美食","address":"上海市 蒙自东路75号(丽园路)"},{"poiid":"B2094757D06FABFF4198","title":"卢湾区妇幼保健院","lon":"121.47897","lat":"31.20653","category":"902","category_name":"楼宇机构","address":"上海卢湾区丽园路712号(近局门路)  "},{"poiid":"B2094757D06FA1F84392","title":"友乐达台北精致面馆(卢湾店)","lon":"121.47766","lat":"31.20624","category":"68","category_name":"快餐厅","address":"卢湾区蒙自路169号智造局4号楼101室(近丽园路)"},{"poiid":"B2094757D06FA0FC489C","title":"丽园公园","lon":"121.478843794","lat":"31.2073611728","category":"196","category_name":"公园","address":"上海卢湾区丽园路(近局门路)  "},{"poiid":"B2094757DB6CA5F4419B","title":"mr.x迷之城堡","lon":"121.477599","lat":"31.203324","category":"248","category_name":"生活娱乐","address":"局门路550号1号楼"},{"poiid":"B2094757D068A2F94892","title":"渝香情","lon":"121.47845573","lat":"31.206635797","category":"71","category_name":"四川菜","address":"卢湾区丽园路718号(近蒙自路)"},{"poiid":"B2094750D56EA1F4429D","title":"狐咖","lon":"121.477615","lat":"31.20746","category":"247","category_name":"餐饮美食","address":"卢湾区蒙自东路65号(近智造局产业园)"},{"poiid":"B2094757D069AAFF409D","title":"华越楼(打浦店)","lon":"121.47752593","lat":"31.206280889","category":"110","category_name":"其他亚洲菜","address":"卢湾区蒙自路29号(近肯德基)"},{"poiid":"B2094757D06FABF8449C","title":"上海市税务局卢湾区分局","lon":"121.479618018","lat":"31.2051612451","category":"46","category_name":"楼宇","address":"上海斜土路313号"},{"poiid":"B2094757D06AA1FE459B","title":"丽园路","lon":"121.479852","lat":"31.206063","category":"500","category_name":"未知分类","address":"上海卢湾区斜土路80弄"},{"poiid":"B2094757D068A2FB439B","title":"打浦桥社区文化活动中心","lon":"121.478227","lat":"31.205194","category":"260","category_name":"其他","address":"上海卢湾区蒙自路223号(近丽园路)"},{"poiid":"B2094757D168A5FD489B","title":"丽园路蒙自路","lon":"121.4771682","lat":"31.2070718655","category":"500","category_name":"未知分类","address":"上海丽园路蒙自路"},{"poiid":"B2094654DA6EA3FE4099","title":"致远大厦","lon":"121.478","lat":"31.2078","category":"46","category_name":"楼宇","address":"上海斜土路768号"},{"poiid":"B2094757D16CA2FC469F","title":"鲁班路斜土路","lon":"121.47704883","lat":"31.203923439","category":"500","category_name":"未知分类","address":"上海鲁班路斜土路"},{"poiid":"B2094750D56DABF84799","title":"达美乐披萨（蒙自路店）","lon":"121.477851","lat":"31.206092","category":"247","category_name":"餐饮美食","address":"蒙自路169号智造局"},{"poiid":"B2094757D06BA7FB469B","title":"ZEN PALACE MASSAGE","lon":"121.47790073","lat":"31.207373813","category":"500","category_name":"未知分类","address":"上海市卢湾区蒙自东卢湾区41号"},{"poiid":"B2094751D26CAAFB499C","title":"粒子咖啡","lon":"121.479553","lat":"31.204935","category":"247","category_name":"餐饮美食","address":"卢湾区蒙自东路63号(近马当路地铁站3号口)"},{"poiid":"B2094655D26EA6F5449E","title":"锦江大厨(卢湾店)","lon":"121.47694","lat":"31.2071","category":"76","category_name":"上海菜","address":"卢湾区蒙自路118号(近丽园路)"},{"poiid":"B209475CD66FAAFD4498","title":"Mr.pancake house","lon":"121.477951","lat":"31.205694","category":"500","category_name":"未知分类","address":"上海市 卢湾区蒙自路207号"},{"poiid":"B2094654DB69A4FD499B","title":"锦江之星(卢湾丽园店)","lon":"121.47693","lat":"31.20724","category":"216","category_name":"经济型连锁酒店","address":"上海市黄浦区斜土路456号(近徐家汇路)"},{"poiid":"B2094753D56FA1FC4692","title":"Le Joli Bistro 周","lon":"121.478302","lat":"31.205844","category":"500","category_name":"未知分类","address":"上海市 蒙自路207号11号楼10室"},{"poiid":"B2094751D36FA4F4479C","title":"达美乐比萨(蒙自路店)","lon":"121.47781","lat":"31.20594","category":"94","category_name":"西餐厅","address":"卢湾区蒙自路169号(近丽园路)"},{"poiid":"B2094757D064A5F8429F","title":"香港丽源餐厅","lon":"121.477602938","lat":"31.206801801","category":"72","category_name":"广东菜","address":"卢湾区丽园路718号105座(近蒙自路)"},{"poiid":"B2094757D06AA4FA4999","title":"北蒙三小区","lon":"121.47663","lat":"31.205873","category":"47","category_name":"住宅区","address":"丽园路482弄20-51号"},{"poiid":"B2094757D069A6F8499C","title":"开城新苑","lon":"121.47711","lat":"31.206291","category":"47","category_name":"住宅区","address":"上海卢湾区丽园路818弄(近蒙自路)"},{"poiid":"B2094757D06FA2FE489D","title":"DDB China","lon":"121.47760009","lat":"31.206272125","category":"500","category_name":"未知分类","address":"上海蒙自路169号智造局2号楼4楼"},{"poiid":"B2094654DA68A6FF469C","title":"永和豆浆(汉盟台湾连锁加盟产业商务中心)","lon":"121.47844","lat":"31.20527","category":"68","category_name":"快餐厅","address":"卢湾区蒙自路223号(近斜土路)"},{"poiid":"B2094654DA68A6F8409E","title":"良友金伴蒙自店","lon":"121.47765","lat":"31.20572","category":"117","category_name":"便民商店/便利店","address":"蒙自路210"},{"poiid":"B209475CD364ABFC4392","title":"sitka coffee","lon":"121.477706","lat":"31.20564","category":"111","category_name":"休闲餐饮场所","address":"蒙自路207号101-1商铺(近丽园路)"},{"poiid":"B2094654DA68A6F8419B","title":"嘿呀摇茶(蒙自路)","lon":"121.47776","lat":"31.20602","category":"113","category_name":"冷饮店","address":""},{"poiid":"B2094757D16AA2F5479B","title":"翔鹰龙虾","lon":"121.47532573","lat":"31.206978804","category":"68","category_name":"快餐厅","address":"黄浦区大兴街3号(近黄家厥路)"},{"poiid":"B2094654DB65A6FD429F","title":"永琪美容美发(丽园店)","lon":"121.47702","lat":"31.20626","category":"148","category_name":"美容美发店","address":"卢湾区丽园路(近蒙自路)"},{"poiid":"B2094757D16CA3F44199","title":"陕西人家","lon":"121.477775","lat":"31.205987","category":"247","category_name":"餐饮美食","address":"上海卢湾区蒙自路169号智造局104号"},{"poiid":"B2094757D465A4FC4998","title":"丰裕生煎 达利店","lon":"121.478425054","lat":"31.204610793","category":"68","category_name":"快餐厅","address":"卢湾区蒙自路345弄10号(斜土路口)"},{"poiid":"B2094757D065A4F84398","title":"汉庭•全季酒店新天地店","lon":"121.47760766","lat":"31.20552149","category":"217","category_name":"旅馆招待所","address":"上海市徐汇区重庆南路283号"},{"poiid":"B2094654DA68A7F5469A","title":"中国移动斜土路营业厅","lon":"121.47796","lat":"31.20435","category":"151","category_name":"电讯营业厅","address":"徐汇区斜土路433号"},{"poiid":"B2094655D26AA0FF4499","title":"依达台球俱乐部","lon":"121.47611","lat":"31.20644","category":"247","category_name":"餐饮美食","address":"卢湾区丽园路826号(近蒙自路)"},{"poiid":"B2094654DB65A0FE459E","title":"国际服务外包产业园智造局","lon":"121.47772","lat":"31.20669","category":"46","category_name":"楼宇","address":"蒙自路169号"},{"poiid":"B2094757DB64A2FA4599","title":"翠华餐厅","lon":"121.477081","lat":"31.207841","category":"500","category_name":"未知分类","address":"日月光"},{"poiid":"B2094654DA68A6FD409E","title":"鹏福面馆","lon":"121.477944054","lat":"31.204142793","category":"257","category_name":"中餐厅","address":"卢湾区斜土路332号(近蒙自路)"},{"poiid":"B2094757D06AA4FC499E","title":"香港丽源茶餐厅","lon":"121.477728738","lat":"31.2063417912","category":"500","category_name":"未知分类","address":"上海市卢湾区丽园路718号"},{"poiid":"B209475CD464A5F94992","title":"星巴克（永业公寓店）","lon":"121.477645","lat":"31.206165","category":"500","category_name":"未知分类","address":"上海市 徐家汇路193-199号"},{"poiid":"B2094752DA69A1F44098","title":"香港龙凤楼","lon":"121.476228","lat":"31.207401","category":"247","category_name":"餐饮美食","address":"上海市 蒙自东路"},{"poiid":"B2094655D26AA6FB449B","title":"星巴克(丽园路店)","lon":"121.47781","lat":"31.205943","category":"260","category_name":"其他","address":"卢湾区蒙自路169号智造局内(近丽园路)"},{"poiid":"B2094757D06FA5F44099","title":"Top Chef","lon":"121.47742498","lat":"31.2059198691","category":"94","category_name":"西餐厅","address":"卢湾区蒙自路169号智造局4-105室(近丽园路)"},{"poiid":"B2094757D06FA1FF4992","title":"鱼林王(打浦店)","lon":"121.47867","lat":"31.20636","category":"86","category_name":"火锅店","address":"卢湾区丽园路708号(近局门路)"},{"poiid":"B2094753D76FAAFA449C","title":"上海滩国泰旗舰店","lon":"121.466011","lat":"31.216125","category":"249","category_name":"购物服务","address":"淮海中路868号"},{"poiid":"B209475CD564A7F84292","title":"上海滩新天地店","lon":"121.47463","lat":"31.22164","category":"119","category_name":"商场","address":"\"太仓路181弄新天地北里15号\r\n\""},{"poiid":"B2094757D06FAAFC439B","title":"金锚传菜(丽园路店)","lon":"121.47857773","lat":"31.206662798","category":"76","category_name":"上海菜","address":"卢湾区丽园路718号(近蒙自路)"},{"poiid":"B2094757D06FA0FE4093","title":"智造局 Park Space 产业园","lon":"121.47754669","lat":"31.206863403","category":"46","category_name":"楼宇","address":"上海蒙自路169号近丽园路"},{"poiid":"B2094753D26EA7F84798","title":"香港龙凤楼","lon":"121.477286","lat":"31.207407","category":"247","category_name":"餐饮美食","address":"上海市 蒙自东路75号(丽园路)"},{"poiid":"B2094757D06FABFF4198","title":"卢湾区妇幼保健院","lon":"121.47897","lat":"31.20653","category":"902","category_name":"楼宇机构","address":"上海卢湾区丽园路712号(近局门路)  "},{"poiid":"B2094757D06FA1F84392","title":"友乐达台北精致面馆(卢湾店)","lon":"121.47766","lat":"31.20624","category":"68","category_name":"快餐厅","address":"卢湾区蒙自路169号智造局4号楼101室(近丽园路)"},{"poiid":"B2094757D06FA0FC489C","title":"丽园公园","lon":"121.478843794","lat":"31.2073611728","category":"196","category_name":"公园","address":"上海卢湾区丽园路(近局门路)  "},{"poiid":"B2094757DB6CA5F4419B","title":"mr.x迷之城堡","lon":"121.477599","lat":"31.203324","category":"248","category_name":"生活娱乐","address":"局门路550号1号楼"},{"poiid":"B2094757D068A2F94892","title":"渝香情","lon":"121.47845573","lat":"31.206635797","category":"71","category_name":"四川菜","address":"卢湾区丽园路718号(近蒙自路)"},{"poiid":"B2094750D56EA1F4429D","title":"狐咖","lon":"121.477615","lat":"31.20746","category":"247","category_name":"餐饮美食","address":"卢湾区蒙自东路65号(近智造局产业园)"},{"poiid":"B2094757D069AAFF409D","title":"华越楼(打浦店)","lon":"121.47752593","lat":"31.206280889","category":"110","category_name":"其他亚洲菜","address":"卢湾区蒙自路29号(近肯德基)"},{"poiid":"B2094757D06FABF8449C","title":"上海市税务局卢湾区分局","lon":"121.479618018","lat":"31.2051612451","category":"46","category_name":"楼宇","address":"上海斜土路313号"},{"poiid":"B2094757D06AA1FE459B","title":"丽园路","lon":"121.479852","lat":"31.206063","category":"500","category_name":"未知分类","address":"上海卢湾区斜土路80弄"},{"poiid":"B2094757D068A2FB439B","title":"打浦桥社区文化活动中心","lon":"121.478227","lat":"31.205194","category":"260","category_name":"其他","address":"上海卢湾区蒙自路223号(近丽园路)"},{"poiid":"B2094757D168A5FD489B","title":"丽园路蒙自路","lon":"121.4771682","lat":"31.2070718655","category":"500","category_name":"未知分类","address":"上海丽园路蒙自路"},{"poiid":"B2094654DA6EA3FE4099","title":"致远大厦","lon":"121.478","lat":"31.2078","category":"46","category_name":"楼宇","address":"上海斜土路768号"},{"poiid":"B2094757D16CA2FC469F","title":"鲁班路斜土路","lon":"121.47704883","lat":"31.203923439","category":"500","category_name":"未知分类","address":"上海鲁班路斜土路"},{"poiid":"B2094750D56DABF84799","title":"达美乐披萨（蒙自路店）","lon":"121.477851","lat":"31.206092","category":"247","category_name":"餐饮美食","address":"蒙自路169号智造局"},{"poiid":"B2094757D06BA7FB469B","title":"ZEN PALACE MASSAGE","lon":"121.47790073","lat":"31.207373813","category":"500","category_name":"未知分类","address":"上海市卢湾区蒙自东卢湾区41号"},{"poiid":"B2094751D26CAAFB499C","title":"粒子咖啡","lon":"121.479553","lat":"31.204935","category":"247","category_name":"餐饮美食","address":"卢湾区蒙自东路63号(近马当路地铁站3号口)"},{"poiid":"B2094655D26EA6F5449E","title":"锦江大厨(卢湾店)","lon":"121.47694","lat":"31.2071","category":"76","category_name":"上海菜","address":"卢湾区蒙自路118号(近丽园路)"},{"poiid":"B209475CD66FAAFD4498","title":"Mr.pancake house","lon":"121.477951","lat":"31.205694","category":"500","category_name":"未知分类","address":"上海市 卢湾区蒙自路207号"},{"poiid":"B2094654DB69A4FD499B","title":"锦江之星(卢湾丽园店)","lon":"121.47693","lat":"31.20724","category":"216","category_name":"经济型连锁酒店","address":"上海市黄浦区斜土路456号(近徐家汇路)"},{"poiid":"B2094753D56FA1FC4692","title":"Le Joli Bistro 周","lon":"121.478302","lat":"31.205844","category":"500","category_name":"未知分类","address":"上海市 蒙自路207号11号楼10室"},{"poiid":"B2094751D36FA4F4479C","title":"达美乐比萨(蒙自路店)","lon":"121.47781","lat":"31.20594","category":"94","category_name":"西餐厅","address":"卢湾区蒙自路169号(近丽园路)"},{"poiid":"B2094757D064A5F8429F","title":"香港丽源餐厅","lon":"121.477602938","lat":"31.206801801","category":"72","category_name":"广东菜","address":"卢湾区丽园路718号105座(近蒙自路)"},{"poiid":"B2094757D06AA4FA4999","title":"北蒙三小区","lon":"121.47663","lat":"31.205873","category":"47","category_name":"住宅区","address":"丽园路482弄20-51号"},{"poiid":"B2094757D069A6F8499C","title":"开城新苑","lon":"121.47711","lat":"31.206291","category":"47","category_name":"住宅区","address":"上海卢湾区丽园路818弄(近蒙自路)"},{"poiid":"B2094757D06FA2FE489D","title":"DDB China","lon":"121.47760009","lat":"31.206272125","category":"500","category_name":"未知分类","address":"上海蒙自路169号智造局2号楼4楼"},{"poiid":"B2094654DA68A6FF469C","title":"永和豆浆(汉盟台湾连锁加盟产业商务中心)","lon":"121.47844","lat":"31.20527","category":"68","category_name":"快餐厅","address":"卢湾区蒙自路223号(近斜土路)"},{"poiid":"B2094654DA68A6F8409E","title":"良友金伴蒙自店","lon":"121.47765","lat":"31.20572","category":"117","category_name":"便民商店/便利店","address":"蒙自路210"},{"poiid":"B209475CD364ABFC4392","title":"sitka coffee","lon":"121.477706","lat":"31.20564","category":"111","category_name":"休闲餐饮场所","address":"蒙自路207号101-1商铺(近丽园路)"},{"poiid":"B2094654DA68A6F8419B","title":"嘿呀摇茶(蒙自路)","lon":"121.47776","lat":"31.20602","category":"113","category_name":"冷饮店","address":""},{"poiid":"B2094757D16AA2F5479B","title":"翔鹰龙虾","lon":"121.47532573","lat":"31.206978804","category":"68","category_name":"快餐厅","address":"黄浦区大兴街3号(近黄家厥路)"},{"poiid":"B2094654DB65A6FD429F","title":"永琪美容美发(丽园店)","lon":"121.47702","lat":"31.20626","category":"148","category_name":"美容美发店","address":"卢湾区丽园路(近蒙自路)"},{"poiid":"B2094757D16CA3F44199","title":"陕西人家","lon":"121.477775","lat":"31.205987","category":"247","category_name":"餐饮美食","address":"上海卢湾区蒙自路169号智造局104号"},{"poiid":"B2094757D465A4FC4998","title":"丰裕生煎 达利店","lon":"121.478425054","lat":"31.204610793","category":"68","category_name":"快餐厅","address":"卢湾区蒙自路345弄10号(斜土路口)"},{"poiid":"B2094757D065A4F84398","title":"汉庭•全季酒店新天地店","lon":"121.47760766","lat":"31.20552149","category":"217","category_name":"旅馆招待所","address":"上海市徐汇区重庆南路283号"},{"poiid":"B2094654DA68A7F5469A","title":"中国移动斜土路营业厅","lon":"121.47796","lat":"31.20435","category":"151","category_name":"电讯营业厅","address":"徐汇区斜土路433号"},{"poiid":"B2094655D26AA0FF4499","title":"依达台球俱乐部","lon":"121.47611","lat":"31.20644","category":"247","category_name":"餐饮美食","address":"卢湾区丽园路826号(近蒙自路)"},{"poiid":"B2094654DB65A0FE459E","title":"国际服务外包产业园智造局","lon":"121.47772","lat":"31.20669","category":"46","category_name":"楼宇","address":"蒙自路169号"},{"poiid":"B2094757DB64A2FA4599","title":"翠华餐厅","lon":"121.477081","lat":"31.207841","category":"500","category_name":"未知分类","address":"日月光"},{"poiid":"B2094654DA68A6FD409E","title":"鹏福面馆","lon":"121.477944054","lat":"31.204142793","category":"257","category_name":"中餐厅","address":"卢湾区斜土路332号(近蒙自路)"},{"poiid":"B2094757D06AA4FC499E","title":"香港丽源茶餐厅","lon":"121.477728738","lat":"31.2063417912","category":"500","category_name":"未知分类","address":"上海市卢湾区丽园路718号"},{"poiid":"B209475CD464A5F94992","title":"星巴克（永业公寓店）","lon":"121.477645","lat":"31.206165","category":"500","category_name":"未知分类","address":"上海市 徐家汇路193-199号"},{"poiid":"B2094752DA69A1F44098","title":"香港龙凤楼","lon":"121.476228","lat":"31.207401","category":"247","category_name":"餐饮美食","address":"上海市 蒙自东路"}]