[{"poiid":"B2094757D06FA1FE4299","title":"临江公园","lon":"121.49385081","lat":"31.408717702","category":"196","category_name":"公园","address":"上海市宝山区友谊路1号"},{"poiid":"B2094757D068A4FE4693","title":"长江江堤","lon":"121.49430583","lat":"31.411120415","category":"500","category_name":"未知分类","address":"上海市宝山区盘古路"},{"poiid":"B2094757D068A7FC4592","title":"行知中学","lon":"121.49784","lat":"31.40544","category":"55","category_name":"中学","address":"宝山区宝林支路99号"},{"poiid":"B2094757D068A0F5479C","title":"宝山区人民政府","lon":"121.48960876","lat":"31.405456543","category":"500","category_name":"未知分类","address":"上海密山路5号"},{"poiid":"B2094654DB6AA5FA409B","title":"上海红露圆宁江大酒店","lon":"121.48928","lat":"31.40715","category":"250","category_name":"公园户外","address":"上海宝山区友谊路40号"},{"poiid":"B2094757D06AABFA439B","title":"淞沪抗战纪念馆","lon":"121.493002","lat":"31.408646","category":"182","category_name":"博物馆","address":"宝山区友谊路1号临江公园内(近东林路)"},{"poiid":"B2094654D46AA5F4469C","title":"宝山中学","lon":"121.48778","lat":"31.41098","category":"55","category_name":"中学","address":"上海宝山区盘古路247弄20号(近友谊支路)"},{"poiid":"B2094757D06AA1FA4199","title":"小绍兴(东林路店)","lon":"121.49421","lat":"31.40477","category":"68","category_name":"快餐厅","address":"宝山区东林路227号(近密山路)"},{"poiid":"B2094654D46AA5F5439F","title":"宝林八村","lon":"121.49574","lat":"31.407093","category":"47","category_name":"住宅区","address":"宝林八村"},{"poiid":"B2094757D069A5FE4692","title":"宝山区人民法院","lon":"121.49107","lat":"31.408154","category":"608","category_name":"法院","address":"上海友谊路15号"},{"poiid":"B2094654DB69AAF4459B","title":"红露园","lon":"121.49168230383","lat":"31.408288477598","category":"247","category_name":"餐饮美食","address":"宝山区友谊路40号(近友谊支路)"},{"poiid":"B2094654D46AA4F9499F","title":"宝钢一村","lon":"121.494","lat":"31.4097","category":"47","category_name":"住宅区","address":"友谊路114号"},{"poiid":"B2094757D66CA6FB459F","title":"黄浦江边","lon":"121.49665683","lat":"31.408402359","category":"500","category_name":"未知分类","address":"上海市宝山区东林路"},{"poiid":"B2094757D068ABFD4099","title":"宝山影剧院","lon":"121.48856","lat":"31.40609","category":"178","category_name":"电影院","address":"上海宝山区友谊支路181号2楼(近友谊路)"},{"poiid":"B2094654D46AA5F5459F","title":"博士娃幼儿园","lon":"121.49308","lat":"31.40702","category":"57","category_name":"幼儿园","address":"上海市宝山区东林路"},{"poiid":"B2094655D36CA6FB429A","title":"东林路","lon":"121.49308","lat":"31.40649","category":"38","category_name":"公交车站","address":"上海东林路320号"},{"poiid":"B2094654DB69AAF84392","title":"苏北土菜馆","lon":"121.493","lat":"31.40864","category":"247","category_name":"餐饮美食","address":"上海市宝山区友谊路1号(临江公园门口)"},{"poiid":"B2094757D66BA3FB4192","title":"上海郊外","lon":"121.489279","lat":"31.402466","category":"76","category_name":"上海菜","address":"宝山区宝林路251号(近友谊支路)"},{"poiid":"B2094750D665A3F84899","title":"段氏龙虾(东林路店)","lon":"121.494","lat":"31.4051","category":"68","category_name":"快餐厅","address":"宝山区东林路"},{"poiid":"B2094757D465ABF4419F","title":"和众堡","lon":"121.493725054","lat":"31.405320793","category":"68","category_name":"快餐厅","address":"宝山区东林路230号(近密山路)"},{"poiid":"B2094654D46AA5F5459C","title":"宝钢宝林五村","lon":"121.49103","lat":"31.40608","category":"47","category_name":"住宅区","address":"友谊路"},{"poiid":"B2094654D46AA4FC4193","title":"宝城三村(海景苑)","lon":"121.49277","lat":"31.41064","category":"47","category_name":"住宅区","address":"友谊路"},{"poiid":"B2094655D26FAAFF4992","title":"宝林五村(东门)","lon":"121.49284","lat":"31.40641","category":"47","category_name":"住宅区","address":""},{"poiid":"B2094757D068ABFA429C","title":"952b终点站","lon":"121.4911209","lat":"31.404288142","category":"38","category_name":"公交车站","address":"上海友谊路宝钢一村门口"},{"poiid":"B2094654D46AA5F5489B","title":"风荷楼","lon":"121.49253","lat":"31.40822","category":"66","category_name":"茶艺馆","address":"宝山区东林路399号风荷茶楼(临江公园旁)"},{"poiid":"B2094654DB6AA6FF489E","title":"上海君航假日酒店","lon":"121.49411","lat":"31.40555","category":"250","category_name":"公园户外","address":"上海市宝山区密山东路256号"},{"poiid":"B2094654D46AA6FB4599","title":"宝房集团宝林四村小区","lon":"121.49162","lat":"31.40484","category":"47","category_name":"住宅区","address":"友谊路"},{"poiid":"B2094654D46AA5F5489C","title":"上海宝山民办佳雅口腔门诊部","lon":"121.4927","lat":"31.40838","category":"162","category_name":"医院","address":"东林路395弄9号"},{"poiid":"B2094654D46AA5F5499A","title":"吴淞古炮台","lon":"121.49378","lat":"31.40902","category":"250","category_name":"公园户外","address":"临江公园内"},{"poiid":"B2094757D16CA2F5449B","title":"杉松酒家","lon":"121.49534","lat":"31.40153","category":"76","category_name":"上海菜","address":"宝山区东林路17号(近宝杨路)"},{"poiid":"B2094654D46AA5F5429D","title":"凯源景江苑","lon":"121.49313","lat":"31.41293","category":"47","category_name":"住宅区","address":"盘古路19弄"},{"poiid":"B2094757D064A4F44293","title":"南翔馒头","lon":"121.48894","lat":"31.40663","category":"68","category_name":"快餐厅","address":"宝山区友谊路46号(近友谊支路)"},{"poiid":"B2094654D46AA6FA479B","title":"宝山区肃苑会计进修学校(东大门)","lon":"121.49416","lat":"31.40547","category":"678","category_name":"学校大门","address":"密山东路258号"},{"poiid":"B2094757D164A6F5489B","title":"潮州汤骨煲 东林路店","lon":"121.494951054","lat":"31.401899793","category":"86","category_name":"火锅店","address":"宝山区东林路69号(近宝杨路)"},{"poiid":"B2094655D26AA4FA429C","title":"新亚大包 友谊路店","lon":"121.488905054","lat":"31.406947793","category":"68","category_name":"快餐厅","address":"宝山区友谊路48号(近友谊支路)"},{"poiid":"B2094750D76EA2FB449D","title":"新青年羊蝎子火锅","lon":"121.494","lat":"31.4042","category":"86","category_name":"火锅店","address":"宝山区东林路197号(近宝杨路)"},{"poiid":"B2094654D46AA5F4469D","title":"临江三村","lon":"121.48779","lat":"31.410975","category":"47","category_name":"住宅区","address":"临江三村位于宝山上海宝山东林路538号"},{"poiid":"B2094757D165ABF8439A","title":"湘村人家 宝山店","lon":"121.493932","lat":"31.404509","category":"77","category_name":"湖南菜","address":"宝山区东林路168号(近密山路)"},{"poiid":"B2094654D46AA4F9449C","title":"牡丹锦苑","lon":"121.491","lat":"31.4066","category":"47","category_name":"住宅区","address":"牡丹锦苑位于宝山宝林路481"},{"poiid":"B2094654D46AA5F54893","title":"陈化成纪念馆","lon":"121.49378","lat":"31.40902","category":"243","category_name":"纪念馆","address":"友谊路1号"},{"poiid":"B2094757D16BABF84598","title":"临江汗蒸堂","lon":"121.49412183","lat":"31.405747104","category":"148","category_name":"美容美发店","address":"宝山区东林路399号2楼(近临江公园)"},{"poiid":"B2094654D46AA6FB409B","title":"宝钢宝林六村","lon":"121.49604","lat":"31.40335","category":"47","category_name":"住宅区","address":"友谊路"},{"poiid":"B2094654D46AA5F5439E","title":"临江佳园","lon":"121.497","lat":"31.407377","category":"47","category_name":"住宅区","address":"上海市宝山区密山东路11号"},{"poiid":"B2094654D46AA6FA479D","title":"可的(密山东路)","lon":"121.49383","lat":"31.40548","category":"117","category_name":"便民商店/便利店","address":"密山东路268"},{"poiid":"B2094655D36CA6FB4199","title":"东林路密山路","lon":"121.49363","lat":"31.40525","category":"38","category_name":"公交车站","address":""},{"poiid":"B2094757D16FA5FF4499","title":"寶城二村","lon":"121.48885233","lat":"31.408581263","category":"252","category_name":"楼宇机构","address":"上海市友誼路東林路"},{"poiid":"B2094655D36CA6FB4298","title":"东林路密山东路","lon":"121.49381","lat":"31.4048","category":"38","category_name":"公交车站","address":""},{"poiid":"B2094654D46AA6FB449E","title":"临江商场","lon":"121.49343","lat":"31.40519","category":"119","category_name":"商场","address":"东林路220"},{"poiid":"B2094757D16FA3FC449D","title":"赛博数码广场(宝山店)","lon":"121.49188","lat":"31.40768","category":"138","category_name":"家电电子卖场","address":"上海宝山区友谊路49号  "},{"poiid":"B2094654D46AA6FB419A","title":"晓刚面亭","lon":"121.49426744298","lat":"31.404081705949","category":"68","category_name":"快餐厅","address":"宝山区东林路69号(近宝杨路)"},{"poiid":"B2094757D06FA1FE4299","title":"临江公园","lon":"121.49385081","lat":"31.408717702","category":"196","category_name":"公园","address":"上海市宝山区友谊路1号"},{"poiid":"B2094757D068A4FE4693","title":"长江江堤","lon":"121.49430583","lat":"31.411120415","category":"500","category_name":"未知分类","address":"上海市宝山区盘古路"},{"poiid":"B2094757D068A7FC4592","title":"行知中学","lon":"121.49784","lat":"31.40544","category":"55","category_name":"中学","address":"宝山区宝林支路99号"},{"poiid":"B2094757D068A0F5479C","title":"宝山区人民政府","lon":"121.48960876","lat":"31.405456543","category":"500","category_name":"未知分类","address":"上海密山路5号"},{"poiid":"B2094654DB6AA5FA409B","title":"上海红露圆宁江大酒店","lon":"121.48928","lat":"31.40715","category":"250","category_name":"公园户外","address":"上海宝山区友谊路40号"},{"poiid":"B2094757D06AABFA439B","title":"淞沪抗战纪念馆","lon":"121.493002","lat":"31.408646","category":"182","category_name":"博物馆","address":"宝山区友谊路1号临江公园内(近东林路)"},{"poiid":"B2094654D46AA5F4469C","title":"宝山中学","lon":"121.48778","lat":"31.41098","category":"55","category_name":"中学","address":"上海宝山区盘古路247弄20号(近友谊支路)"},{"poiid":"B2094757D06AA1FA4199","title":"小绍兴(东林路店)","lon":"121.49421","lat":"31.40477","category":"68","category_name":"快餐厅","address":"宝山区东林路227号(近密山路)"},{"poiid":"B2094654D46AA5F5439F","title":"宝林八村","lon":"121.49574","lat":"31.407093","category":"47","category_name":"住宅区","address":"宝林八村"},{"poiid":"B2094757D069A5FE4692","title":"宝山区人民法院","lon":"121.49107","lat":"31.408154","category":"608","category_name":"法院","address":"上海友谊路15号"},{"poiid":"B2094654DB69AAF4459B","title":"红露园","lon":"121.49168230383","lat":"31.408288477598","category":"247","category_name":"餐饮美食","address":"宝山区友谊路40号(近友谊支路)"},{"poiid":"B2094654D46AA4F9499F","title":"宝钢一村","lon":"121.494","lat":"31.4097","category":"47","category_name":"住宅区","address":"友谊路114号"},{"poiid":"B2094757D66CA6FB459F","title":"黄浦江边","lon":"121.49665683","lat":"31.408402359","category":"500","category_name":"未知分类","address":"上海市宝山区东林路"},{"poiid":"B2094757D068ABFD4099","title":"宝山影剧院","lon":"121.48856","lat":"31.40609","category":"178","category_name":"电影院","address":"上海宝山区友谊支路181号2楼(近友谊路)"},{"poiid":"B2094654D46AA5F5459F","title":"博士娃幼儿园","lon":"121.49308","lat":"31.40702","category":"57","category_name":"幼儿园","address":"上海市宝山区东林路"},{"poiid":"B2094655D36CA6FB429A","title":"东林路","lon":"121.49308","lat":"31.40649","category":"38","category_name":"公交车站","address":"上海东林路320号"},{"poiid":"B2094654DB69AAF84392","title":"苏北土菜馆","lon":"121.493","lat":"31.40864","category":"247","category_name":"餐饮美食","address":"上海市宝山区友谊路1号(临江公园门口)"},{"poiid":"B2094757D66BA3FB4192","title":"上海郊外","lon":"121.489279","lat":"31.402466","category":"76","category_name":"上海菜","address":"宝山区宝林路251号(近友谊支路)"},{"poiid":"B2094750D665A3F84899","title":"段氏龙虾(东林路店)","lon":"121.494","lat":"31.4051","category":"68","category_name":"快餐厅","address":"宝山区东林路"},{"poiid":"B2094757D465ABF4419F","title":"和众堡","lon":"121.493725054","lat":"31.405320793","category":"68","category_name":"快餐厅","address":"宝山区东林路230号(近密山路)"},{"poiid":"B2094654D46AA5F5459C","title":"宝钢宝林五村","lon":"121.49103","lat":"31.40608","category":"47","category_name":"住宅区","address":"友谊路"},{"poiid":"B2094654D46AA4FC4193","title":"宝城三村(海景苑)","lon":"121.49277","lat":"31.41064","category":"47","category_name":"住宅区","address":"友谊路"},{"poiid":"B2094655D26FAAFF4992","title":"宝林五村(东门)","lon":"121.49284","lat":"31.40641","category":"47","category_name":"住宅区","address":""},{"poiid":"B2094757D068ABFA429C","title":"952b终点站","lon":"121.4911209","lat":"31.404288142","category":"38","category_name":"公交车站","address":"上海友谊路宝钢一村门口"},{"poiid":"B2094654D46AA5F5489B","title":"风荷楼","lon":"121.49253","lat":"31.40822","category":"66","category_name":"茶艺馆","address":"宝山区东林路399号风荷茶楼(临江公园旁)"},{"poiid":"B2094654DB6AA6FF489E","title":"上海君航假日酒店","lon":"121.49411","lat":"31.40555","category":"250","category_name":"公园户外","address":"上海市宝山区密山东路256号"},{"poiid":"B2094654D46AA6FB4599","title":"宝房集团宝林四村小区","lon":"121.49162","lat":"31.40484","category":"47","category_name":"住宅区","address":"友谊路"},{"poiid":"B2094654D46AA5F5489C","title":"上海宝山民办佳雅口腔门诊部","lon":"121.4927","lat":"31.40838","category":"162","category_name":"医院","address":"东林路395弄9号"},{"poiid":"B2094654D46AA5F5499A","title":"吴淞古炮台","lon":"121.49378","lat":"31.40902","category":"250","category_name":"公园户外","address":"临江公园内"},{"poiid":"B2094757D16CA2F5449B","title":"杉松酒家","lon":"121.49534","lat":"31.40153","category":"76","category_name":"上海菜","address":"宝山区东林路17号(近宝杨路)"},{"poiid":"B2094654D46AA5F5429D","title":"凯源景江苑","lon":"121.49313","lat":"31.41293","category":"47","category_name":"住宅区","address":"盘古路19弄"},{"poiid":"B2094757D064A4F44293","title":"南翔馒头","lon":"121.48894","lat":"31.40663","category":"68","category_name":"快餐厅","address":"宝山区友谊路46号(近友谊支路)"},{"poiid":"B2094654D46AA6FA479B","title":"宝山区肃苑会计进修学校(东大门)","lon":"121.49416","lat":"31.40547","category":"678","category_name":"学校大门","address":"密山东路258号"},{"poiid":"B2094757D164A6F5489B","title":"潮州汤骨煲 东林路店","lon":"121.494951054","lat":"31.401899793","category":"86","category_name":"火锅店","address":"宝山区东林路69号(近宝杨路)"},{"poiid":"B2094655D26AA4FA429C","title":"新亚大包 友谊路店","lon":"121.488905054","lat":"31.406947793","category":"68","category_name":"快餐厅","address":"宝山区友谊路48号(近友谊支路)"},{"poiid":"B2094750D76EA2FB449D","title":"新青年羊蝎子火锅","lon":"121.494","lat":"31.4042","category":"86","category_name":"火锅店","address":"宝山区东林路197号(近宝杨路)"},{"poiid":"B2094654D46AA5F4469D","title":"临江三村","lon":"121.48779","lat":"31.410975","category":"47","category_name":"住宅区","address":"临江三村位于宝山上海宝山东林路538号"},{"poiid":"B2094757D165ABF8439A","title":"湘村人家 宝山店","lon":"121.493932","lat":"31.404509","category":"77","category_name":"湖南菜","address":"宝山区东林路168号(近密山路)"},{"poiid":"B2094654D46AA4F9449C","title":"牡丹锦苑","lon":"121.491","lat":"31.4066","category":"47","category_name":"住宅区","address":"牡丹锦苑位于宝山宝林路481"},{"poiid":"B2094654D46AA5F54893","title":"陈化成纪念馆","lon":"121.49378","lat":"31.40902","category":"243","category_name":"纪念馆","address":"友谊路1号"},{"poiid":"B2094757D16BABF84598","title":"临江汗蒸堂","lon":"121.49412183","lat":"31.405747104","category":"148","category_name":"美容美发店","address":"宝山区东林路399号2楼(近临江公园)"},{"poiid":"B2094654D46AA6FB409B","title":"宝钢宝林六村","lon":"121.49604","lat":"31.40335","category":"47","category_name":"住宅区","address":"友谊路"},{"poiid":"B2094654D46AA5F5439E","title":"临江佳园","lon":"121.497","lat":"31.407377","category":"47","category_name":"住宅区","address":"上海市宝山区密山东路11号"},{"poiid":"B2094654D46AA6FA479D","title":"可的(密山东路)","lon":"121.49383","lat":"31.40548","category":"117","category_name":"便民商店/便利店","address":"密山东路268"},{"poiid":"B2094655D36CA6FB4199","title":"东林路密山路","lon":"121.49363","lat":"31.40525","category":"38","category_name":"公交车站","address":""},{"poiid":"B2094757D16FA5FF4499","title":"寶城二村","lon":"121.48885233","lat":"31.408581263","category":"252","category_name":"楼宇机构","address":"上海市友誼路東林路"},{"poiid":"B2094655D36CA6FB4298","title":"东林路密山东路","lon":"121.49381","lat":"31.4048","category":"38","category_name":"公交车站","address":""},{"poiid":"B2094654D46AA6FB449E","title":"临江商场","lon":"121.49343","lat":"31.40519","category":"119","category_name":"商场","address":"东林路220"},{"poiid":"B2094757D16FA3FC449D","title":"赛博数码广场(宝山店)","lon":"121.49188","lat":"31.40768","category":"138","category_name":"家电电子卖场","address":"上海宝山区友谊路49号  "},{"poiid":"B2094654D46AA6FB419A","title":"晓刚面亭","lon":"121.49426744298","lat":"31.404081705949","category":"68","category_name":"快餐厅","address":"宝山区东林路69号(近宝杨路)"},{"poiid":"B2094757D06FA1FE4299","title":"临江公园","lon":"121.49385081","lat":"31.408717702","category":"196","category_name":"公园","address":"上海市宝山区友谊路1号"},{"poiid":"B2094757D068A4FE4693","title":"长江江堤","lon":"121.49430583","lat":"31.411120415","category":"500","category_name":"未知分类","address":"上海市宝山区盘古路"},{"poiid":"B2094757D068A7FC4592","title":"行知中学","lon":"121.49784","lat":"31.40544","category":"55","category_name":"中学","address":"宝山区宝林支路99号"},{"poiid":"B2094757D068A0F5479C","title":"宝山区人民政府","lon":"121.48960876","lat":"31.405456543","category":"500","category_name":"未知分类","address":"上海密山路5号"},{"poiid":"B2094654DB6AA5FA409B","title":"上海红露圆宁江大酒店","lon":"121.48928","lat":"31.40715","category":"250","category_name":"公园户外","address":"上海宝山区友谊路40号"},{"poiid":"B2094757D06AABFA439B","title":"淞沪抗战纪念馆","lon":"121.493002","lat":"31.408646","category":"182","category_name":"博物馆","address":"宝山区友谊路1号临江公园内(近东林路)"},{"poiid":"B2094654D46AA5F4469C","title":"宝山中学","lon":"121.48778","lat":"31.41098","category":"55","category_name":"中学","address":"上海宝山区盘古路247弄20号(近友谊支路)"},{"poiid":"B2094757D06AA1FA4199","title":"小绍兴(东林路店)","lon":"121.49421","lat":"31.40477","category":"68","category_name":"快餐厅","address":"宝山区东林路227号(近密山路)"},{"poiid":"B2094654D46AA5F5439F","title":"宝林八村","lon":"121.49574","lat":"31.407093","category":"47","category_name":"住宅区","address":"宝林八村"},{"poiid":"B2094757D069A5FE4692","title":"宝山区人民法院","lon":"121.49107","lat":"31.408154","category":"608","category_name":"法院","address":"上海友谊路15号"},{"poiid":"B2094654DB69AAF4459B","title":"红露园","lon":"121.49168230383","lat":"31.408288477598","category":"247","category_name":"餐饮美食","address":"宝山区友谊路40号(近友谊支路)"},{"poiid":"B2094654D46AA4F9499F","title":"宝钢一村","lon":"121.494","lat":"31.4097","category":"47","category_name":"住宅区","address":"友谊路114号"},{"poiid":"B2094757D66CA6FB459F","title":"黄浦江边","lon":"121.49665683","lat":"31.408402359","category":"500","category_name":"未知分类","address":"上海市宝山区东林路"},{"poiid":"B2094757D068ABFD4099","title":"宝山影剧院","lon":"121.48856","lat":"31.40609","category":"178","category_name":"电影院","address":"上海宝山区友谊支路181号2楼(近友谊路)"},{"poiid":"B2094654D46AA5F5459F","title":"博士娃幼儿园","lon":"121.49308","lat":"31.40702","category":"57","category_name":"幼儿园","address":"上海市宝山区东林路"},{"poiid":"B2094655D36CA6FB429A","title":"东林路","lon":"121.49308","lat":"31.40649","category":"38","category_name":"公交车站","address":"上海东林路320号"},{"poiid":"B2094654DB69AAF84392","title":"苏北土菜馆","lon":"121.493","lat":"31.40864","category":"247","category_name":"餐饮美食","address":"上海市宝山区友谊路1号(临江公园门口)"},{"poiid":"B2094757D66BA3FB4192","title":"上海郊外","lon":"121.489279","lat":"31.402466","category":"76","category_name":"上海菜","address":"宝山区宝林路251号(近友谊支路)"},{"poiid":"B2094750D665A3F84899","title":"段氏龙虾(东林路店)","lon":"121.494","lat":"31.4051","category":"68","category_name":"快餐厅","address":"宝山区东林路"},{"poiid":"B2094757D465ABF4419F","title":"和众堡","lon":"121.493725054","lat":"31.405320793","category":"68","category_name":"快餐厅","address":"宝山区东林路230号(近密山路)"},{"poiid":"B2094654D46AA5F5459C","title":"宝钢宝林五村","lon":"121.49103","lat":"31.40608","category":"47","category_name":"住宅区","address":"友谊路"},{"poiid":"B2094654D46AA4FC4193","title":"宝城三村(海景苑)","lon":"121.49277","lat":"31.41064","category":"47","category_name":"住宅区","address":"友谊路"},{"poiid":"B2094655D26FAAFF4992","title":"宝林五村(东门)","lon":"121.49284","lat":"31.40641","category":"47","category_name":"住宅区","address":""},{"poiid":"B2094757D068ABFA429C","title":"952b终点站","lon":"121.4911209","lat":"31.404288142","category":"38","category_name":"公交车站","address":"上海友谊路宝钢一村门口"},{"poiid":"B2094654D46AA5F5489B","title":"风荷楼","lon":"121.49253","lat":"31.40822","category":"66","category_name":"茶艺馆","address":"宝山区东林路399号风荷茶楼(临江公园旁)"},{"poiid":"B2094654DB6AA6FF489E","title":"上海君航假日酒店","lon":"121.49411","lat":"31.40555","category":"250","category_name":"公园户外","address":"上海市宝山区密山东路256号"},{"poiid":"B2094654D46AA6FB4599","title":"宝房集团宝林四村小区","lon":"121.49162","lat":"31.40484","category":"47","category_name":"住宅区","address":"友谊路"},{"poiid":"B2094654D46AA5F5489C","title":"上海宝山民办佳雅口腔门诊部","lon":"121.4927","lat":"31.40838","category":"162","category_name":"医院","address":"东林路395弄9号"},{"poiid":"B2094654D46AA5F5499A","title":"吴淞古炮台","lon":"121.49378","lat":"31.40902","category":"250","category_name":"公园户外","address":"临江公园内"},{"poiid":"B2094757D16CA2F5449B","title":"杉松酒家","lon":"121.49534","lat":"31.40153","category":"76","category_name":"上海菜","address":"宝山区东林路17号(近宝杨路)"},{"poiid":"B2094654D46AA5F5429D","title":"凯源景江苑","lon":"121.49313","lat":"31.41293","category":"47","category_name":"住宅区","address":"盘古路19弄"},{"poiid":"B2094757D064A4F44293","title":"南翔馒头","lon":"121.48894","lat":"31.40663","category":"68","category_name":"快餐厅","address":"宝山区友谊路46号(近友谊支路)"},{"poiid":"B2094654D46AA6FA479B","title":"宝山区肃苑会计进修学校(东大门)","lon":"121.49416","lat":"31.40547","category":"678","category_name":"学校大门","address":"密山东路258号"},{"poiid":"B2094757D164A6F5489B","title":"潮州汤骨煲 东林路店","lon":"121.494951054","lat":"31.401899793","category":"86","category_name":"火锅店","address":"宝山区东林路69号(近宝杨路)"},{"poiid":"B2094655D26AA4FA429C","title":"新亚大包 友谊路店","lon":"121.488905054","lat":"31.406947793","category":"68","category_name":"快餐厅","address":"宝山区友谊路48号(近友谊支路)"},{"poiid":"B2094750D76EA2FB449D","title":"新青年羊蝎子火锅","lon":"121.494","lat":"31.4042","category":"86","category_name":"火锅店","address":"宝山区东林路197号(近宝杨路)"},{"poiid":"B2094654D46AA5F4469D","title":"临江三村","lon":"121.48779","lat":"31.410975","category":"47","category_name":"住宅区","address":"临江三村位于宝山上海宝山东林路538号"},{"poiid":"B2094757D165ABF8439A","title":"湘村人家 宝山店","lon":"121.493932","lat":"31.404509","category":"77","category_name":"湖南菜","address":"宝山区东林路168号(近密山路)"},{"poiid":"B2094654D46AA4F9449C","title":"牡丹锦苑","lon":"121.491","lat":"31.4066","category":"47","category_name":"住宅区","address":"牡丹锦苑位于宝山宝林路481"},{"poiid":"B2094654D46AA5F54893","title":"陈化成纪念馆","lon":"121.49378","lat":"31.40902","category":"243","category_name":"纪念馆","address":"友谊路1号"},{"poiid":"B2094757D16BABF84598","title":"临江汗蒸堂","lon":"121.49412183","lat":"31.405747104","category":"148","category_name":"美容美发店","address":"宝山区东林路399号2楼(近临江公园)"},{"poiid":"B2094654D46AA6FB409B","title":"宝钢宝林六村","lon":"121.49604","lat":"31.40335","category":"47","category_name":"住宅区","address":"友谊路"},{"poiid":"B2094654D46AA5F5439E","title":"临江佳园","lon":"121.497","lat":"31.407377","category":"47","category_name":"住宅区","address":"上海市宝山区密山东路11号"},{"poiid":"B2094654D46AA6FA479D","title":"可的(密山东路)","lon":"121.49383","lat":"31.40548","category":"117","category_name":"便民商店/便利店","address":"密山东路268"},{"poiid":"B2094655D36CA6FB4199","title":"东林路密山路","lon":"121.49363","lat":"31.40525","category":"38","category_name":"公交车站","address":""},{"poiid":"B2094757D16FA5FF4499","title":"寶城二村","lon":"121.48885233","lat":"31.408581263","category":"252","category_name":"楼宇机构","address":"上海市友誼路東林路"},{"poiid":"B2094655D36CA6FB4298","title":"东林路密山东路","lon":"121.49381","lat":"31.4048","category":"38","category_name":"公交车站","address":""},{"poiid":"B2094654D46AA6FB449E","title":"临江商场","lon":"121.49343","lat":"31.40519","category":"119","category_name":"商场","address":"东林路220"},{"poiid":"B2094757D16FA3FC449D","title":"赛博数码广场(宝山店)","lon":"121.49188","lat":"31.40768","category":"138","category_name":"家电电子卖场","address":"上海宝山区友谊路49号  "},{"poiid":"B2094654D46AA6FB419A","title":"晓刚面亭","lon":"121.49426744298","lat":"31.404081705949","category":"68","category_name":"快餐厅","address":"宝山区东林路69号(近宝杨路)"},{"poiid":"B2094757D06FA1FE4299","title":"临江公园","lon":"121.49385081","lat":"31.408717702","category":"196","category_name":"公园","address":"上海市宝山区友谊路1号"},{"poiid":"B2094757D068A4FE4693","title":"长江江堤","lon":"121.49430583","lat":"31.411120415","category":"500","category_name":"未知分类","address":"上海市宝山区盘古路"},{"poiid":"B2094757D068A7FC4592","title":"行知中学","lon":"121.49784","lat":"31.40544","category":"55","category_name":"中学","address":"宝山区宝林支路99号"},{"poiid":"B2094757D068A0F5479C","title":"宝山区人民政府","lon":"121.48960876","lat":"31.405456543","category":"500","category_name":"未知分类","address":"上海密山路5号"},{"poiid":"B2094654DB6AA5FA409B","title":"上海红露圆宁江大酒店","lon":"121.48928","lat":"31.40715","category":"250","category_name":"公园户外","address":"上海宝山区友谊路40号"},{"poiid":"B2094757D06AABFA439B","title":"淞沪抗战纪念馆","lon":"121.493002","lat":"31.408646","category":"182","category_name":"博物馆","address":"宝山区友谊路1号临江公园内(近东林路)"},{"poiid":"B2094654D46AA5F4469C","title":"宝山中学","lon":"121.48778","lat":"31.41098","category":"55","category_name":"中学","address":"上海宝山区盘古路247弄20号(近友谊支路)"},{"poiid":"B2094757D06AA1FA4199","title":"小绍兴(东林路店)","lon":"121.49421","lat":"31.40477","category":"68","category_name":"快餐厅","address":"宝山区东林路227号(近密山路)"},{"poiid":"B2094654D46AA5F5439F","title":"宝林八村","lon":"121.49574","lat":"31.407093","category":"47","category_name":"住宅区","address":"宝林八村"},{"poiid":"B2094757D069A5FE4692","title":"宝山区人民法院","lon":"121.49107","lat":"31.408154","category":"608","category_name":"法院","address":"上海友谊路15号"},{"poiid":"B2094654DB69AAF4459B","title":"红露园","lon":"121.49168230383","lat":"31.408288477598","category":"247","category_name":"餐饮美食","address":"宝山区友谊路40号(近友谊支路)"},{"poiid":"B2094654D46AA4F9499F","title":"宝钢一村","lon":"121.494","lat":"31.4097","category":"47","category_name":"住宅区","address":"友谊路114号"},{"poiid":"B2094757D66CA6FB459F","title":"黄浦江边","lon":"121.49665683","lat":"31.408402359","category":"500","category_name":"未知分类","address":"上海市宝山区东林路"},{"poiid":"B2094757D068ABFD4099","title":"宝山影剧院","lon":"121.48856","lat":"31.40609","category":"178","category_name":"电影院","address":"上海宝山区友谊支路181号2楼(近友谊路)"},{"poiid":"B2094654D46AA5F5459F","title":"博士娃幼儿园","lon":"121.49308","lat":"31.40702","category":"57","category_name":"幼儿园","address":"上海市宝山区东林路"},{"poiid":"B2094655D36CA6FB429A","title":"东林路","lon":"121.49308","lat":"31.40649","category":"38","category_name":"公交车站","address":"上海东林路320号"},{"poiid":"B2094654DB69AAF84392","title":"苏北土菜馆","lon":"121.493","lat":"31.40864","category":"247","category_name":"餐饮美食","address":"上海市宝山区友谊路1号(临江公园门口)"},{"poiid":"B2094757D66BA3FB4192","title":"上海郊外","lon":"121.489279","lat":"31.402466","category":"76","category_name":"上海菜","address":"宝山区宝林路251号(近友谊支路)"},{"poiid":"B2094750D665A3F84899","title":"段氏龙虾(东林路店)","lon":"121.494","lat":"31.4051","category":"68","category_name":"快餐厅","address":"宝山区东林路"},{"poiid":"B2094757D465ABF4419F","title":"和众堡","lon":"121.493725054","lat":"31.405320793","category":"68","category_name":"快餐厅","address":"宝山区东林路230号(近密山路)"},{"poiid":"B2094654D46AA5F5459C","title":"宝钢宝林五村","lon":"121.49103","lat":"31.40608","category":"47","category_name":"住宅区","address":"友谊路"},{"poiid":"B2094654D46AA4FC4193","title":"宝城三村(海景苑)","lon":"121.49277","lat":"31.41064","category":"47","category_name":"住宅区","address":"友谊路"},{"poiid":"B2094655D26FAAFF4992","title":"宝林五村(东门)","lon":"121.49284","lat":"31.40641","category":"47","category_name":"住宅区","address":""},{"poiid":"B2094757D068ABFA429C","title":"952b终点站","lon":"121.4911209","lat":"31.404288142","category":"38","category_name":"公交车站","address":"上海友谊路宝钢一村门口"},{"poiid":"B2094654D46AA5F5489B","title":"风荷楼","lon":"121.49253","lat":"31.40822","category":"66","category_name":"茶艺馆","address":"宝山区东林路399号风荷茶楼(临江公园旁)"},{"poiid":"B2094654DB6AA6FF489E","title":"上海君航假日酒店","lon":"121.49411","lat":"31.40555","category":"250","category_name":"公园户外","address":"上海市宝山区密山东路256号"},{"poiid":"B2094654D46AA6FB4599","title":"宝房集团宝林四村小区","lon":"121.49162","lat":"31.40484","category":"47","category_name":"住宅区","address":"友谊路"},{"poiid":"B2094654D46AA5F5489C","title":"上海宝山民办佳雅口腔门诊部","lon":"121.4927","lat":"31.40838","category":"162","category_name":"医院","address":"东林路395弄9号"},{"poiid":"B2094654D46AA5F5499A","title":"吴淞古炮台","lon":"121.49378","lat":"31.40902","category":"250","category_name":"公园户外","address":"临江公园内"},{"poiid":"B2094757D16CA2F5449B","title":"杉松酒家","lon":"121.49534","lat":"31.40153","category":"76","category_name":"上海菜","address":"宝山区东林路17号(近宝杨路)"},{"poiid":"B2094654D46AA5F5429D","title":"凯源景江苑","lon":"121.49313","lat":"31.41293","category":"47","category_name":"住宅区","address":"盘古路19弄"},{"poiid":"B2094757D064A4F44293","title":"南翔馒头","lon":"121.48894","lat":"31.40663","category":"68","category_name":"快餐厅","address":"宝山区友谊路46号(近友谊支路)"},{"poiid":"B2094654D46AA6FA479B","title":"宝山区肃苑会计进修学校(东大门)","lon":"121.49416","lat":"31.40547","category":"678","category_name":"学校大门","address":"密山东路258号"},{"poiid":"B2094757D164A6F5489B","title":"潮州汤骨煲 东林路店","lon":"121.494951054","lat":"31.401899793","category":"86","category_name":"火锅店","address":"宝山区东林路69号(近宝杨路)"},{"poiid":"B2094655D26AA4FA429C","title":"新亚大包 友谊路店","lon":"121.488905054","lat":"31.406947793","category":"68","category_name":"快餐厅","address":"宝山区友谊路48号(近友谊支路)"},{"poiid":"B2094750D76EA2FB449D","title":"新青年羊蝎子火锅","lon":"121.494","lat":"31.4042","category":"86","category_name":"火锅店","address":"宝山区东林路197号(近宝杨路)"},{"poiid":"B2094654D46AA5F4469D","title":"临江三村","lon":"121.48779","lat":"31.410975","category":"47","category_name":"住宅区","address":"临江三村位于宝山上海宝山东林路538号"},{"poiid":"B2094757D165ABF8439A","title":"湘村人家 宝山店","lon":"121.493932","lat":"31.404509","category":"77","category_name":"湖南菜","address":"宝山区东林路168号(近密山路)"},{"poiid":"B2094654D46AA4F9449C","title":"牡丹锦苑","lon":"121.491","lat":"31.4066","category":"47","category_name":"住宅区","address":"牡丹锦苑位于宝山宝林路481"},{"poiid":"B2094654D46AA5F54893","title":"陈化成纪念馆","lon":"121.49378","lat":"31.40902","category":"243","category_name":"纪念馆","address":"友谊路1号"},{"poiid":"B2094757D16BABF84598","title":"临江汗蒸堂","lon":"121.49412183","lat":"31.405747104","category":"148","category_name":"美容美发店","address":"宝山区东林路399号2楼(近临江公园)"},{"poiid":"B2094654D46AA6FB409B","title":"宝钢宝林六村","lon":"121.49604","lat":"31.40335","category":"47","category_name":"住宅区","address":"友谊路"},{"poiid":"B2094654D46AA5F5439E","title":"临江佳园","lon":"121.497","lat":"31.407377","category":"47","category_name":"住宅区","address":"上海市宝山区密山东路11号"},{"poiid":"B2094654D46AA6FA479D","title":"可的(密山东路)","lon":"121.49383","lat":"31.40548","category":"117","category_name":"便民商店/便利店","address":"密山东路268"},{"poiid":"B2094655D36CA6FB4199","title":"东林路密山路","lon":"121.49363","lat":"31.40525","category":"38","category_name":"公交车站","address":""},{"poiid":"B2094757D16FA5FF4499","title":"寶城二村","lon":"121.48885233","lat":"31.408581263","category":"252","category_name":"楼宇机构","address":"上海市友誼路東林路"},{"poiid":"B2094655D36CA6FB4298","title":"东林路密山东路","lon":"121.49381","lat":"31.4048","category":"38","category_name":"公交车站","address":""},{"poiid":"B2094654D46AA6FB449E","title":"临江商场","lon":"121.49343","lat":"31.40519","category":"119","category_name":"商场","address":"东林路220"},{"poiid":"B2094757D16FA3FC449D","title":"赛博数码广场(宝山店)","lon":"121.49188","lat":"31.40768","category":"138","category_name":"家电电子卖场","address":"上海宝山区友谊路49号  "},{"poiid":"B2094654D46AA6FB419A","title":"晓刚面亭","lon":"121.49426744298","lat":"31.404081705949","category":"68","category_name":"快餐厅","address":"宝山区东林路69号(近宝杨路)"}]