[{"poiid":"B2094757D06FA3FB459B","title":"奥林匹克花园","lon":"121.334701","lat":"31.152401","category":"47","category_name":"住宅区","address":"松江区九亭镇涞寅路106弄"},{"poiid":"B2094757D06FA7FE479B","title":"九亭大街","lon":"121.32793","lat":"31.128087","category":"500","category_name":"未知分类","address":"上海九亭大街"},{"poiid":"B2094757D06FA6F8479B","title":"中春路地铁站","lon":"121.33836508","lat":"31.149302088","category":"36","category_name":"地铁站","address":"上海轨道交通 九号线 轨交中春路站 9"},{"poiid":"B2094757D069A6F44998","title":"明谷科技园","lon":"121.347367556","lat":"31.1373735461","category":"45","category_name":"产业园区","address":"上海中春路华茂路"},{"poiid":"B2094757DB68A4F8479B","title":"农家菜老大 淞沪店","lon":"121.32611989975","lat":"31.142672211327","category":"87","category_name":"特色／地方风味餐厅","address":"松江区沪松公路1229号(近涞亭南路)"},{"poiid":"B2094757D068A2FB489A","title":"上海奥林匹克花园运动中心","lon":"121.33514404","lat":"31.145084381","category":"260","category_name":"其他","address":"上海沪淞公路"},{"poiid":"B2094757D06AA4FD4193","title":"美丽星城","lon":"121.33378356218","lat":"31.14021382595","category":"500","category_name":"未知分类","address":"上海市松江区沪亭南路188号"},{"poiid":"B2094654DA64A3F8439B","title":"万科·郎润园","lon":"121.34011","lat":"31.15338","category":"47","category_name":"住宅区","address":"新龙路1111弄"},{"poiid":"B2094655D26BABFB4499","title":"水清年华花园","lon":"121.34231","lat":"31.15116","category":"47","category_name":"住宅区","address":"上海市闵行区沪松公路565弄"},{"poiid":"B209475CDA69A2FC429A","title":"漫咖啡上海总部","lon":"121.334213","lat":"31.142847","category":"247","category_name":"餐饮美食","address":"上海市松江区松沪公路1177号佳预大厦1楼"},{"poiid":"B2094757D66EA2FA4898","title":"凯斯国际宾馆","lon":"121.345081831","lat":"31.1413402693","category":"217","category_name":"旅馆招待所","address":"闵行区中春路7228号(近联民路)"},{"poiid":"B2094757D66BA5FC4598","title":"肯德基 九亭店 KFC","lon":"121.327546054","lat":"31.128605793","category":"68","category_name":"快餐厅","address":"松江区九亭镇九亭大街370号(国亭对面)"},{"poiid":"B2094757D16DA7FD419B","title":"象屿都城","lon":"121.338","lat":"31.1295","category":"47","category_name":"住宅区","address":"上海虬泾路851弄"},{"poiid":"B2094757D568A4FB4398","title":"雅悦海鲜坊","lon":"121.3332131","lat":"31.14219","category":"72","category_name":"广东菜","address":"松江区九亭镇涞亭南路101弄(蒲汇路涞亭南路)"},{"poiid":"B2094654DA64A0FC439E","title":"上海市松江区九亭镇经济开发区","lon":"121.336","lat":"31.1429","category":"45","category_name":"产业园区","address":"伴亭东路278弄"},{"poiid":"B2094654DA64A7FB469B","title":"上海诗林","lon":"121.33868","lat":"31.13337","category":"47","category_name":"住宅区","address":"上海市松江区九亭镇九亭大街路181号"},{"poiid":"B2094655D36CA1F4409E","title":"黎明花园","lon":"121.34921","lat":"31.14632","category":"47","category_name":"住宅区","address":"上海市闵行区七莘路联明路"},{"poiid":"B2094655D264A0F4459A","title":"九亭明珠苑三期","lon":"121.337","lat":"31.1405","category":"47","category_name":"住宅区","address":"上海市松江区虬泾路99弄"},{"poiid":"B2094654DA64A6FC4499","title":"嘉和阳光城","lon":"121.32285656838","lat":"31.139977282306","category":"47","category_name":"住宅区","address":"上海市松江区九亭镇九新公路58弄"},{"poiid":"B2094757D16FA7F44899","title":"宝都江鲜菜馆","lon":"121.33517","lat":"31.13784","category":"76","category_name":"上海菜","address":"松江区九亭镇涞亭南路153-161号(近伴亭路)"},{"poiid":"B2094757D069A6FE4199","title":"威尔士健身会所(贝尚湾店)","lon":"121.31969","lat":"31.14069","category":"221","category_name":"健身中心","address":"松江区沪亭北路350弄3号"},{"poiid":"B2094654DA64A0FC439D","title":"半岛花园(涞亭南路)","lon":"121.33548","lat":"31.13747","category":"47","category_name":"住宅区","address":"涞亭南路169弄1-151号"},{"poiid":"B209475DD064A4FE4393","title":"maan coffee","lon":"121.334083","lat":"31.143043","category":"500","category_name":"未知分类","address":"上海市 沪松公路1177号佳预大厦2楼(近涞亭南路)"},{"poiid":"B2094655D36DA7FF469E","title":"中春路","lon":"121.34418","lat":"31.14329","category":"38","category_name":"公交车站","address":""},{"poiid":"B2094654DA64A7F4489E","title":"三品香","lon":"121.33066","lat":"31.13346","category":"70","category_name":"综合酒楼","address":"松江区九亭镇虬泾路102号"},{"poiid":"B2094654DB64A2FE419A","title":"天宝恬苑","lon":"121.332","lat":"31.1365","category":"47","category_name":"住宅区","address":"上海市松江区九亭镇沪亭南路71弄"},{"poiid":"B2094757D16DAAFF4399","title":"新上海花园洋房","lon":"121.33482283","lat":"31.136132156","category":"252","category_name":"楼宇机构","address":"新上海花园洋房(新上海里弄人家三期)位于松江涞亭南路290弄"},{"poiid":"B2094654DA64A4F84599","title":"快客(涞亭南路)","lon":"121.3351","lat":"31.13819","category":"117","category_name":"便民商店/便利店","address":""},{"poiid":"B2094654DB69A6F54299","title":"上岛咖啡(奥林匹克花园店)","lon":"121.32787","lat":"31.14481","category":"65","category_name":"咖啡厅","address":"松江区九亭新城奥林匹克花园旁"},{"poiid":"B2094654DA64A7F44199","title":"九亭明珠苑(九亭大街)","lon":"121.3337","lat":"31.1314","category":"47","category_name":"住宅区","address":""},{"poiid":"B2094750D664ABFF4298","title":"重庆德庄火锅(涞亭南路店)","lon":"121.336","lat":"31.1357","category":"86","category_name":"火锅店","address":"松江区涞亭南路288号(近九亭大街)"},{"poiid":"B2094757D568A1FB4993","title":"渔米之乡","lon":"121.33609","lat":"31.136178","category":"71","category_name":"四川菜","address":"松江区九亭涞亭南路191号"},{"poiid":"B2094654DA64A7F5449B","title":"周家小区","lon":"121.33011","lat":"31.140503","category":"47","category_name":"住宅区","address":"浦汇路85弄"},{"poiid":"B2094757D66DABFD479D","title":"闵行区税务局","lon":"121.33980756","lat":"31.150148358","category":"500","category_name":"未知分类","address":"上海沪松公路600号"},{"poiid":"B2094654DA64A3FC419C","title":"上海凯斯国际汽车用品博览有限公司","lon":"121.34551","lat":"31.14116","category":"248","category_name":"生活娱乐","address":"中春路7210号1幢2层"},{"poiid":"B2094654DA64A4F9499E","title":"七宝镇号上村工业区","lon":"121.34037","lat":"31.14127","category":"45","category_name":"产业园区","address":""},{"poiid":"B2094757D16CA5FA4799","title":"奇通别克","lon":"121.32966842","lat":"31.144245141","category":"158","category_name":"汽车销售","address":"上海沪松公路1225号"},{"poiid":"B2094757D169A3F84299","title":"东风标致4S","lon":"121.32953199","lat":"31.144116222","category":"158","category_name":"汽车销售","address":"上海沪松公路1225号"},{"poiid":"B2094654DA64A4F84198","title":"中储物流","lon":"121.33188","lat":"31.14328","category":"248","category_name":"生活娱乐","address":"涞亭南路38"},{"poiid":"B2094654DA64A7F4479D","title":"左邻右里食坊","lon":"121.33022","lat":"31.13416","category":"76","category_name":"上海菜","address":"松江区九亭镇虬泾路74号"},{"poiid":"B209475CD56CA1F94699","title":"maan coffee","lon":"121.329742","lat":"31.143293","category":"500","category_name":"未知分类","address":"上海市 松江区沪松公路"},{"poiid":"B2094655D265A7F44393","title":"莫泰168旅店九亭大街店","lon":"121.3347","lat":"31.13138","category":"216","category_name":"经济型连锁酒店","address":"松江区九亭镇九亭大街291-1号(近虬江路)"},{"poiid":"B209475CDA6DA2F84892","title":"Maan coffee","lon":"121.329551","lat":"31.145055","category":"500","category_name":"未知分类","address":"上海市 上海市松江区奥林匹克花园"},{"poiid":"B2094655D26BA5FE449E","title":"海上普罗旺斯","lon":"121.34116","lat":"31.14362","category":"47","category_name":"住宅区","address":"海长路1号"},{"poiid":"B2094654DA64A7F5439C","title":"绿松超市","lon":"121.32868","lat":"31.13983","category":"118","category_name":"超级市场","address":""},{"poiid":"B2094757D06AA1F9459F","title":"沪松公路","lon":"121.336916","lat":"31.149231","category":"500","category_name":"未知分类","address":"上海沪松公路中春路"},{"poiid":"B209475CD368A7FA439C","title":"婷福农家乐 九亭店","lon":"121.32712","lat":"31.14338","category":"87","category_name":"特色／地方风味餐厅","address":"沪松公路1229号(近涞亭南路)"},{"poiid":"B2094654DA64A4F84298","title":"新上海弄里人家(涞亭南路)","lon":"121.33801","lat":"31.13126","category":"47","category_name":"住宅区","address":"上海近郊松江区九亭大街(近涞亭南路)"},{"poiid":"B2094654DA64A4F84392","title":"九亭镇兴联中心村","lon":"121.338","lat":"31.135563","category":"47","category_name":"住宅区","address":"涞亭南路289弄"},{"poiid":"B2094655D36DA7FF479A","title":"中春路联明路","lon":"121.34542","lat":"31.14092","category":"38","category_name":"公交车站","address":""},{"poiid":"B2094757D06FA3FB459B","title":"奥林匹克花园","lon":"121.334701","lat":"31.152401","category":"47","category_name":"住宅区","address":"松江区九亭镇涞寅路106弄"},{"poiid":"B2094757D06FA7FE479B","title":"九亭大街","lon":"121.32793","lat":"31.128087","category":"500","category_name":"未知分类","address":"上海九亭大街"},{"poiid":"B2094757D06FA6F8479B","title":"中春路地铁站","lon":"121.33836508","lat":"31.149302088","category":"36","category_name":"地铁站","address":"上海轨道交通 九号线 轨交中春路站 9"},{"poiid":"B2094757D069A6F44998","title":"明谷科技园","lon":"121.347367556","lat":"31.1373735461","category":"45","category_name":"产业园区","address":"上海中春路华茂路"},{"poiid":"B2094757DB68A4F8479B","title":"农家菜老大 淞沪店","lon":"121.32611989975","lat":"31.142672211327","category":"87","category_name":"特色／地方风味餐厅","address":"松江区沪松公路1229号(近涞亭南路)"},{"poiid":"B2094757D068A2FB489A","title":"上海奥林匹克花园运动中心","lon":"121.33514404","lat":"31.145084381","category":"260","category_name":"其他","address":"上海沪淞公路"},{"poiid":"B2094757D06AA4FD4193","title":"美丽星城","lon":"121.33378356218","lat":"31.14021382595","category":"500","category_name":"未知分类","address":"上海市松江区沪亭南路188号"},{"poiid":"B2094654DA64A3F8439B","title":"万科·郎润园","lon":"121.34011","lat":"31.15338","category":"47","category_name":"住宅区","address":"新龙路1111弄"},{"poiid":"B2094655D26BABFB4499","title":"水清年华花园","lon":"121.34231","lat":"31.15116","category":"47","category_name":"住宅区","address":"上海市闵行区沪松公路565弄"},{"poiid":"B209475CDA69A2FC429A","title":"漫咖啡上海总部","lon":"121.334213","lat":"31.142847","category":"247","category_name":"餐饮美食","address":"上海市松江区松沪公路1177号佳预大厦1楼"},{"poiid":"B2094757D66EA2FA4898","title":"凯斯国际宾馆","lon":"121.345081831","lat":"31.1413402693","category":"217","category_name":"旅馆招待所","address":"闵行区中春路7228号(近联民路)"},{"poiid":"B2094757D66BA5FC4598","title":"肯德基 九亭店 KFC","lon":"121.327546054","lat":"31.128605793","category":"68","category_name":"快餐厅","address":"松江区九亭镇九亭大街370号(国亭对面)"},{"poiid":"B2094757D16DA7FD419B","title":"象屿都城","lon":"121.338","lat":"31.1295","category":"47","category_name":"住宅区","address":"上海虬泾路851弄"},{"poiid":"B2094757D568A4FB4398","title":"雅悦海鲜坊","lon":"121.3332131","lat":"31.14219","category":"72","category_name":"广东菜","address":"松江区九亭镇涞亭南路101弄(蒲汇路涞亭南路)"},{"poiid":"B2094654DA64A0FC439E","title":"上海市松江区九亭镇经济开发区","lon":"121.336","lat":"31.1429","category":"45","category_name":"产业园区","address":"伴亭东路278弄"},{"poiid":"B2094654DA64A7FB469B","title":"上海诗林","lon":"121.33868","lat":"31.13337","category":"47","category_name":"住宅区","address":"上海市松江区九亭镇九亭大街路181号"},{"poiid":"B2094655D36CA1F4409E","title":"黎明花园","lon":"121.34921","lat":"31.14632","category":"47","category_name":"住宅区","address":"上海市闵行区七莘路联明路"},{"poiid":"B2094655D264A0F4459A","title":"九亭明珠苑三期","lon":"121.337","lat":"31.1405","category":"47","category_name":"住宅区","address":"上海市松江区虬泾路99弄"},{"poiid":"B2094654DA64A6FC4499","title":"嘉和阳光城","lon":"121.32285656838","lat":"31.139977282306","category":"47","category_name":"住宅区","address":"上海市松江区九亭镇九新公路58弄"},{"poiid":"B2094757D16FA7F44899","title":"宝都江鲜菜馆","lon":"121.33517","lat":"31.13784","category":"76","category_name":"上海菜","address":"松江区九亭镇涞亭南路153-161号(近伴亭路)"},{"poiid":"B2094757D069A6FE4199","title":"威尔士健身会所(贝尚湾店)","lon":"121.31969","lat":"31.14069","category":"221","category_name":"健身中心","address":"松江区沪亭北路350弄3号"},{"poiid":"B2094654DA64A0FC439D","title":"半岛花园(涞亭南路)","lon":"121.33548","lat":"31.13747","category":"47","category_name":"住宅区","address":"涞亭南路169弄1-151号"},{"poiid":"B209475DD064A4FE4393","title":"maan coffee","lon":"121.334083","lat":"31.143043","category":"500","category_name":"未知分类","address":"上海市 沪松公路1177号佳预大厦2楼(近涞亭南路)"},{"poiid":"B2094655D36DA7FF469E","title":"中春路","lon":"121.34418","lat":"31.14329","category":"38","category_name":"公交车站","address":""},{"poiid":"B2094654DA64A7F4489E","title":"三品香","lon":"121.33066","lat":"31.13346","category":"70","category_name":"综合酒楼","address":"松江区九亭镇虬泾路102号"},{"poiid":"B2094654DB64A2FE419A","title":"天宝恬苑","lon":"121.332","lat":"31.1365","category":"47","category_name":"住宅区","address":"上海市松江区九亭镇沪亭南路71弄"},{"poiid":"B2094757D16DAAFF4399","title":"新上海花园洋房","lon":"121.33482283","lat":"31.136132156","category":"252","category_name":"楼宇机构","address":"新上海花园洋房(新上海里弄人家三期)位于松江涞亭南路290弄"},{"poiid":"B2094654DA64A4F84599","title":"快客(涞亭南路)","lon":"121.3351","lat":"31.13819","category":"117","category_name":"便民商店/便利店","address":""},{"poiid":"B2094654DB69A6F54299","title":"上岛咖啡(奥林匹克花园店)","lon":"121.32787","lat":"31.14481","category":"65","category_name":"咖啡厅","address":"松江区九亭新城奥林匹克花园旁"},{"poiid":"B2094654DA64A7F44199","title":"九亭明珠苑(九亭大街)","lon":"121.3337","lat":"31.1314","category":"47","category_name":"住宅区","address":""},{"poiid":"B2094750D664ABFF4298","title":"重庆德庄火锅(涞亭南路店)","lon":"121.336","lat":"31.1357","category":"86","category_name":"火锅店","address":"松江区涞亭南路288号(近九亭大街)"},{"poiid":"B2094757D568A1FB4993","title":"渔米之乡","lon":"121.33609","lat":"31.136178","category":"71","category_name":"四川菜","address":"松江区九亭涞亭南路191号"},{"poiid":"B2094654DA64A7F5449B","title":"周家小区","lon":"121.33011","lat":"31.140503","category":"47","category_name":"住宅区","address":"浦汇路85弄"},{"poiid":"B2094757D66DABFD479D","title":"闵行区税务局","lon":"121.33980756","lat":"31.150148358","category":"500","category_name":"未知分类","address":"上海沪松公路600号"},{"poiid":"B2094654DA64A3FC419C","title":"上海凯斯国际汽车用品博览有限公司","lon":"121.34551","lat":"31.14116","category":"248","category_name":"生活娱乐","address":"中春路7210号1幢2层"},{"poiid":"B2094654DA64A4F9499E","title":"七宝镇号上村工业区","lon":"121.34037","lat":"31.14127","category":"45","category_name":"产业园区","address":""},{"poiid":"B2094757D16CA5FA4799","title":"奇通别克","lon":"121.32966842","lat":"31.144245141","category":"158","category_name":"汽车销售","address":"上海沪松公路1225号"},{"poiid":"B2094757D169A3F84299","title":"东风标致4S","lon":"121.32953199","lat":"31.144116222","category":"158","category_name":"汽车销售","address":"上海沪松公路1225号"},{"poiid":"B2094654DA64A4F84198","title":"中储物流","lon":"121.33188","lat":"31.14328","category":"248","category_name":"生活娱乐","address":"涞亭南路38"},{"poiid":"B2094654DA64A7F4479D","title":"左邻右里食坊","lon":"121.33022","lat":"31.13416","category":"76","category_name":"上海菜","address":"松江区九亭镇虬泾路74号"},{"poiid":"B209475CD56CA1F94699","title":"maan coffee","lon":"121.329742","lat":"31.143293","category":"500","category_name":"未知分类","address":"上海市 松江区沪松公路"},{"poiid":"B2094655D265A7F44393","title":"莫泰168旅店九亭大街店","lon":"121.3347","lat":"31.13138","category":"216","category_name":"经济型连锁酒店","address":"松江区九亭镇九亭大街291-1号(近虬江路)"},{"poiid":"B209475CDA6DA2F84892","title":"Maan coffee","lon":"121.329551","lat":"31.145055","category":"500","category_name":"未知分类","address":"上海市 上海市松江区奥林匹克花园"},{"poiid":"B2094655D26BA5FE449E","title":"海上普罗旺斯","lon":"121.34116","lat":"31.14362","category":"47","category_name":"住宅区","address":"海长路1号"},{"poiid":"B2094654DA64A7F5439C","title":"绿松超市","lon":"121.32868","lat":"31.13983","category":"118","category_name":"超级市场","address":""},{"poiid":"B2094757D06AA1F9459F","title":"沪松公路","lon":"121.336916","lat":"31.149231","category":"500","category_name":"未知分类","address":"上海沪松公路中春路"},{"poiid":"B209475CD368A7FA439C","title":"婷福农家乐 九亭店","lon":"121.32712","lat":"31.14338","category":"87","category_name":"特色／地方风味餐厅","address":"沪松公路1229号(近涞亭南路)"},{"poiid":"B2094654DA64A4F84298","title":"新上海弄里人家(涞亭南路)","lon":"121.33801","lat":"31.13126","category":"47","category_name":"住宅区","address":"上海近郊松江区九亭大街(近涞亭南路)"},{"poiid":"B2094654DA64A4F84392","title":"九亭镇兴联中心村","lon":"121.338","lat":"31.135563","category":"47","category_name":"住宅区","address":"涞亭南路289弄"},{"poiid":"B2094655D36DA7FF479A","title":"中春路联明路","lon":"121.34542","lat":"31.14092","category":"38","category_name":"公交车站","address":""},{"poiid":"B2094757D06FA3FB459B","title":"奥林匹克花园","lon":"121.334701","lat":"31.152401","category":"47","category_name":"住宅区","address":"松江区九亭镇涞寅路106弄"},{"poiid":"B2094757D06FA7FE479B","title":"九亭大街","lon":"121.32793","lat":"31.128087","category":"500","category_name":"未知分类","address":"上海九亭大街"},{"poiid":"B2094757D06FA6F8479B","title":"中春路地铁站","lon":"121.33836508","lat":"31.149302088","category":"36","category_name":"地铁站","address":"上海轨道交通 九号线 轨交中春路站 9"},{"poiid":"B2094757D069A6F44998","title":"明谷科技园","lon":"121.347367556","lat":"31.1373735461","category":"45","category_name":"产业园区","address":"上海中春路华茂路"},{"poiid":"B2094757DB68A4F8479B","title":"农家菜老大 淞沪店","lon":"121.32611989975","lat":"31.142672211327","category":"87","category_name":"特色／地方风味餐厅","address":"松江区沪松公路1229号(近涞亭南路)"},{"poiid":"B2094757D068A2FB489A","title":"上海奥林匹克花园运动中心","lon":"121.33514404","lat":"31.145084381","category":"260","category_name":"其他","address":"上海沪淞公路"},{"poiid":"B2094757D06AA4FD4193","title":"美丽星城","lon":"121.33378356218","lat":"31.14021382595","category":"500","category_name":"未知分类","address":"上海市松江区沪亭南路188号"},{"poiid":"B2094654DA64A3F8439B","title":"万科·郎润园","lon":"121.34011","lat":"31.15338","category":"47","category_name":"住宅区","address":"新龙路1111弄"},{"poiid":"B2094655D26BABFB4499","title":"水清年华花园","lon":"121.34231","lat":"31.15116","category":"47","category_name":"住宅区","address":"上海市闵行区沪松公路565弄"},{"poiid":"B209475CDA69A2FC429A","title":"漫咖啡上海总部","lon":"121.334213","lat":"31.142847","category":"247","category_name":"餐饮美食","address":"上海市松江区松沪公路1177号佳预大厦1楼"},{"poiid":"B2094757D66EA2FA4898","title":"凯斯国际宾馆","lon":"121.345081831","lat":"31.1413402693","category":"217","category_name":"旅馆招待所","address":"闵行区中春路7228号(近联民路)"},{"poiid":"B2094757D66BA5FC4598","title":"肯德基 九亭店 KFC","lon":"121.327546054","lat":"31.128605793","category":"68","category_name":"快餐厅","address":"松江区九亭镇九亭大街370号(国亭对面)"},{"poiid":"B2094757D16DA7FD419B","title":"象屿都城","lon":"121.338","lat":"31.1295","category":"47","category_name":"住宅区","address":"上海虬泾路851弄"},{"poiid":"B2094757D568A4FB4398","title":"雅悦海鲜坊","lon":"121.3332131","lat":"31.14219","category":"72","category_name":"广东菜","address":"松江区九亭镇涞亭南路101弄(蒲汇路涞亭南路)"},{"poiid":"B2094654DA64A0FC439E","title":"上海市松江区九亭镇经济开发区","lon":"121.336","lat":"31.1429","category":"45","category_name":"产业园区","address":"伴亭东路278弄"},{"poiid":"B2094654DA64A7FB469B","title":"上海诗林","lon":"121.33868","lat":"31.13337","category":"47","category_name":"住宅区","address":"上海市松江区九亭镇九亭大街路181号"},{"poiid":"B2094655D36CA1F4409E","title":"黎明花园","lon":"121.34921","lat":"31.14632","category":"47","category_name":"住宅区","address":"上海市闵行区七莘路联明路"},{"poiid":"B2094655D264A0F4459A","title":"九亭明珠苑三期","lon":"121.337","lat":"31.1405","category":"47","category_name":"住宅区","address":"上海市松江区虬泾路99弄"},{"poiid":"B2094654DA64A6FC4499","title":"嘉和阳光城","lon":"121.32285656838","lat":"31.139977282306","category":"47","category_name":"住宅区","address":"上海市松江区九亭镇九新公路58弄"},{"poiid":"B2094757D16FA7F44899","title":"宝都江鲜菜馆","lon":"121.33517","lat":"31.13784","category":"76","category_name":"上海菜","address":"松江区九亭镇涞亭南路153-161号(近伴亭路)"},{"poiid":"B2094757D069A6FE4199","title":"威尔士健身会所(贝尚湾店)","lon":"121.31969","lat":"31.14069","category":"221","category_name":"健身中心","address":"松江区沪亭北路350弄3号"},{"poiid":"B2094654DA64A0FC439D","title":"半岛花园(涞亭南路)","lon":"121.33548","lat":"31.13747","category":"47","category_name":"住宅区","address":"涞亭南路169弄1-151号"},{"poiid":"B209475DD064A4FE4393","title":"maan coffee","lon":"121.334083","lat":"31.143043","category":"500","category_name":"未知分类","address":"上海市 沪松公路1177号佳预大厦2楼(近涞亭南路)"},{"poiid":"B2094655D36DA7FF469E","title":"中春路","lon":"121.34418","lat":"31.14329","category":"38","category_name":"公交车站","address":""},{"poiid":"B2094654DA64A7F4489E","title":"三品香","lon":"121.33066","lat":"31.13346","category":"70","category_name":"综合酒楼","address":"松江区九亭镇虬泾路102号"},{"poiid":"B2094654DB64A2FE419A","title":"天宝恬苑","lon":"121.332","lat":"31.1365","category":"47","category_name":"住宅区","address":"上海市松江区九亭镇沪亭南路71弄"},{"poiid":"B2094757D16DAAFF4399","title":"新上海花园洋房","lon":"121.33482283","lat":"31.136132156","category":"252","category_name":"楼宇机构","address":"新上海花园洋房(新上海里弄人家三期)位于松江涞亭南路290弄"},{"poiid":"B2094654DA64A4F84599","title":"快客(涞亭南路)","lon":"121.3351","lat":"31.13819","category":"117","category_name":"便民商店/便利店","address":""},{"poiid":"B2094654DB69A6F54299","title":"上岛咖啡(奥林匹克花园店)","lon":"121.32787","lat":"31.14481","category":"65","category_name":"咖啡厅","address":"松江区九亭新城奥林匹克花园旁"},{"poiid":"B2094654DA64A7F44199","title":"九亭明珠苑(九亭大街)","lon":"121.3337","lat":"31.1314","category":"47","category_name":"住宅区","address":""},{"poiid":"B2094750D664ABFF4298","title":"重庆德庄火锅(涞亭南路店)","lon":"121.336","lat":"31.1357","category":"86","category_name":"火锅店","address":"松江区涞亭南路288号(近九亭大街)"},{"poiid":"B2094757D568A1FB4993","title":"渔米之乡","lon":"121.33609","lat":"31.136178","category":"71","category_name":"四川菜","address":"松江区九亭涞亭南路191号"},{"poiid":"B2094654DA64A7F5449B","title":"周家小区","lon":"121.33011","lat":"31.140503","category":"47","category_name":"住宅区","address":"浦汇路85弄"},{"poiid":"B2094757D66DABFD479D","title":"闵行区税务局","lon":"121.33980756","lat":"31.150148358","category":"500","category_name":"未知分类","address":"上海沪松公路600号"},{"poiid":"B2094654DA64A3FC419C","title":"上海凯斯国际汽车用品博览有限公司","lon":"121.34551","lat":"31.14116","category":"248","category_name":"生活娱乐","address":"中春路7210号1幢2层"},{"poiid":"B2094654DA64A4F9499E","title":"七宝镇号上村工业区","lon":"121.34037","lat":"31.14127","category":"45","category_name":"产业园区","address":""},{"poiid":"B2094757D16CA5FA4799","title":"奇通别克","lon":"121.32966842","lat":"31.144245141","category":"158","category_name":"汽车销售","address":"上海沪松公路1225号"},{"poiid":"B2094757D169A3F84299","title":"东风标致4S","lon":"121.32953199","lat":"31.144116222","category":"158","category_name":"汽车销售","address":"上海沪松公路1225号"},{"poiid":"B2094654DA64A4F84198","title":"中储物流","lon":"121.33188","lat":"31.14328","category":"248","category_name":"生活娱乐","address":"涞亭南路38"},{"poiid":"B2094654DA64A7F4479D","title":"左邻右里食坊","lon":"121.33022","lat":"31.13416","category":"76","category_name":"上海菜","address":"松江区九亭镇虬泾路74号"},{"poiid":"B209475CD56CA1F94699","title":"maan coffee","lon":"121.329742","lat":"31.143293","category":"500","category_name":"未知分类","address":"上海市 松江区沪松公路"},{"poiid":"B2094655D265A7F44393","title":"莫泰168旅店九亭大街店","lon":"121.3347","lat":"31.13138","category":"216","category_name":"经济型连锁酒店","address":"松江区九亭镇九亭大街291-1号(近虬江路)"},{"poiid":"B209475CDA6DA2F84892","title":"Maan coffee","lon":"121.329551","lat":"31.145055","category":"500","category_name":"未知分类","address":"上海市 上海市松江区奥林匹克花园"},{"poiid":"B2094655D26BA5FE449E","title":"海上普罗旺斯","lon":"121.34116","lat":"31.14362","category":"47","category_name":"住宅区","address":"海长路1号"},{"poiid":"B2094654DA64A7F5439C","title":"绿松超市","lon":"121.32868","lat":"31.13983","category":"118","category_name":"超级市场","address":""},{"poiid":"B2094757D06AA1F9459F","title":"沪松公路","lon":"121.336916","lat":"31.149231","category":"500","category_name":"未知分类","address":"上海沪松公路中春路"},{"poiid":"B209475CD368A7FA439C","title":"婷福农家乐 九亭店","lon":"121.32712","lat":"31.14338","category":"87","category_name":"特色／地方风味餐厅","address":"沪松公路1229号(近涞亭南路)"},{"poiid":"B2094654DA64A4F84298","title":"新上海弄里人家(涞亭南路)","lon":"121.33801","lat":"31.13126","category":"47","category_name":"住宅区","address":"上海近郊松江区九亭大街(近涞亭南路)"},{"poiid":"B2094654DA64A4F84392","title":"九亭镇兴联中心村","lon":"121.338","lat":"31.135563","category":"47","category_name":"住宅区","address":"涞亭南路289弄"},{"poiid":"B2094655D36DA7FF479A","title":"中春路联明路","lon":"121.34542","lat":"31.14092","category":"38","category_name":"公交车站","address":""},{"poiid":"B2094757D06FA3FB459B","title":"奥林匹克花园","lon":"121.334701","lat":"31.152401","category":"47","category_name":"住宅区","address":"松江区九亭镇涞寅路106弄"},{"poiid":"B2094757D06FA7FE479B","title":"九亭大街","lon":"121.32793","lat":"31.128087","category":"500","category_name":"未知分类","address":"上海九亭大街"},{"poiid":"B2094757D06FA6F8479B","title":"中春路地铁站","lon":"121.33836508","lat":"31.149302088","category":"36","category_name":"地铁站","address":"上海轨道交通 九号线 轨交中春路站 9"},{"poiid":"B2094757D069A6F44998","title":"明谷科技园","lon":"121.347367556","lat":"31.1373735461","category":"45","category_name":"产业园区","address":"上海中春路华茂路"},{"poiid":"B2094757DB68A4F8479B","title":"农家菜老大 淞沪店","lon":"121.32611989975","lat":"31.142672211327","category":"87","category_name":"特色／地方风味餐厅","address":"松江区沪松公路1229号(近涞亭南路)"},{"poiid":"B2094757D068A2FB489A","title":"上海奥林匹克花园运动中心","lon":"121.33514404","lat":"31.145084381","category":"260","category_name":"其他","address":"上海沪淞公路"},{"poiid":"B2094757D06AA4FD4193","title":"美丽星城","lon":"121.33378356218","lat":"31.14021382595","category":"500","category_name":"未知分类","address":"上海市松江区沪亭南路188号"},{"poiid":"B2094654DA64A3F8439B","title":"万科·郎润园","lon":"121.34011","lat":"31.15338","category":"47","category_name":"住宅区","address":"新龙路1111弄"},{"poiid":"B2094655D26BABFB4499","title":"水清年华花园","lon":"121.34231","lat":"31.15116","category":"47","category_name":"住宅区","address":"上海市闵行区沪松公路565弄"},{"poiid":"B209475CDA69A2FC429A","title":"漫咖啡上海总部","lon":"121.334213","lat":"31.142847","category":"247","category_name":"餐饮美食","address":"上海市松江区松沪公路1177号佳预大厦1楼"},{"poiid":"B2094757D66EA2FA4898","title":"凯斯国际宾馆","lon":"121.345081831","lat":"31.1413402693","category":"217","category_name":"旅馆招待所","address":"闵行区中春路7228号(近联民路)"},{"poiid":"B2094757D66BA5FC4598","title":"肯德基 九亭店 KFC","lon":"121.327546054","lat":"31.128605793","category":"68","category_name":"快餐厅","address":"松江区九亭镇九亭大街370号(国亭对面)"},{"poiid":"B2094757D16DA7FD419B","title":"象屿都城","lon":"121.338","lat":"31.1295","category":"47","category_name":"住宅区","address":"上海虬泾路851弄"},{"poiid":"B2094757D568A4FB4398","title":"雅悦海鲜坊","lon":"121.3332131","lat":"31.14219","category":"72","category_name":"广东菜","address":"松江区九亭镇涞亭南路101弄(蒲汇路涞亭南路)"},{"poiid":"B2094654DA64A0FC439E","title":"上海市松江区九亭镇经济开发区","lon":"121.336","lat":"31.1429","category":"45","category_name":"产业园区","address":"伴亭东路278弄"},{"poiid":"B2094654DA64A7FB469B","title":"上海诗林","lon":"121.33868","lat":"31.13337","category":"47","category_name":"住宅区","address":"上海市松江区九亭镇九亭大街路181号"},{"poiid":"B2094655D36CA1F4409E","title":"黎明花园","lon":"121.34921","lat":"31.14632","category":"47","category_name":"住宅区","address":"上海市闵行区七莘路联明路"},{"poiid":"B2094655D264A0F4459A","title":"九亭明珠苑三期","lon":"121.337","lat":"31.1405","category":"47","category_name":"住宅区","address":"上海市松江区虬泾路99弄"},{"poiid":"B2094654DA64A6FC4499","title":"嘉和阳光城","lon":"121.32285656838","lat":"31.139977282306","category":"47","category_name":"住宅区","address":"上海市松江区九亭镇九新公路58弄"},{"poiid":"B2094757D16FA7F44899","title":"宝都江鲜菜馆","lon":"121.33517","lat":"31.13784","category":"76","category_name":"上海菜","address":"松江区九亭镇涞亭南路153-161号(近伴亭路)"},{"poiid":"B2094757D069A6FE4199","title":"威尔士健身会所(贝尚湾店)","lon":"121.31969","lat":"31.14069","category":"221","category_name":"健身中心","address":"松江区沪亭北路350弄3号"},{"poiid":"B2094654DA64A0FC439D","title":"半岛花园(涞亭南路)","lon":"121.33548","lat":"31.13747","category":"47","category_name":"住宅区","address":"涞亭南路169弄1-151号"},{"poiid":"B209475DD064A4FE4393","title":"maan coffee","lon":"121.334083","lat":"31.143043","category":"500","category_name":"未知分类","address":"上海市 沪松公路1177号佳预大厦2楼(近涞亭南路)"},{"poiid":"B2094655D36DA7FF469E","title":"中春路","lon":"121.34418","lat":"31.14329","category":"38","category_name":"公交车站","address":""},{"poiid":"B2094654DA64A7F4489E","title":"三品香","lon":"121.33066","lat":"31.13346","category":"70","category_name":"综合酒楼","address":"松江区九亭镇虬泾路102号"},{"poiid":"B2094654DB64A2FE419A","title":"天宝恬苑","lon":"121.332","lat":"31.1365","category":"47","category_name":"住宅区","address":"上海市松江区九亭镇沪亭南路71弄"},{"poiid":"B2094757D16DAAFF4399","title":"新上海花园洋房","lon":"121.33482283","lat":"31.136132156","category":"252","category_name":"楼宇机构","address":"新上海花园洋房(新上海里弄人家三期)位于松江涞亭南路290弄"},{"poiid":"B2094654DA64A4F84599","title":"快客(涞亭南路)","lon":"121.3351","lat":"31.13819","category":"117","category_name":"便民商店/便利店","address":""},{"poiid":"B2094654DB69A6F54299","title":"上岛咖啡(奥林匹克花园店)","lon":"121.32787","lat":"31.14481","category":"65","category_name":"咖啡厅","address":"松江区九亭新城奥林匹克花园旁"},{"poiid":"B2094654DA64A7F44199","title":"九亭明珠苑(九亭大街)","lon":"121.3337","lat":"31.1314","category":"47","category_name":"住宅区","address":""},{"poiid":"B2094750D664ABFF4298","title":"重庆德庄火锅(涞亭南路店)","lon":"121.336","lat":"31.1357","category":"86","category_name":"火锅店","address":"松江区涞亭南路288号(近九亭大街)"},{"poiid":"B2094757D568A1FB4993","title":"渔米之乡","lon":"121.33609","lat":"31.136178","category":"71","category_name":"四川菜","address":"松江区九亭涞亭南路191号"},{"poiid":"B2094654DA64A7F5449B","title":"周家小区","lon":"121.33011","lat":"31.140503","category":"47","category_name":"住宅区","address":"浦汇路85弄"},{"poiid":"B2094757D66DABFD479D","title":"闵行区税务局","lon":"121.33980756","lat":"31.150148358","category":"500","category_name":"未知分类","address":"上海沪松公路600号"},{"poiid":"B2094654DA64A3FC419C","title":"上海凯斯国际汽车用品博览有限公司","lon":"121.34551","lat":"31.14116","category":"248","category_name":"生活娱乐","address":"中春路7210号1幢2层"},{"poiid":"B2094654DA64A4F9499E","title":"七宝镇号上村工业区","lon":"121.34037","lat":"31.14127","category":"45","category_name":"产业园区","address":""},{"poiid":"B2094757D16CA5FA4799","title":"奇通别克","lon":"121.32966842","lat":"31.144245141","category":"158","category_name":"汽车销售","address":"上海沪松公路1225号"},{"poiid":"B2094757D169A3F84299","title":"东风标致4S","lon":"121.32953199","lat":"31.144116222","category":"158","category_name":"汽车销售","address":"上海沪松公路1225号"},{"poiid":"B2094654DA64A4F84198","title":"中储物流","lon":"121.33188","lat":"31.14328","category":"248","category_name":"生活娱乐","address":"涞亭南路38"},{"poiid":"B2094654DA64A7F4479D","title":"左邻右里食坊","lon":"121.33022","lat":"31.13416","category":"76","category_name":"上海菜","address":"松江区九亭镇虬泾路74号"},{"poiid":"B209475CD56CA1F94699","title":"maan coffee","lon":"121.329742","lat":"31.143293","category":"500","category_name":"未知分类","address":"上海市 松江区沪松公路"},{"poiid":"B2094655D265A7F44393","title":"莫泰168旅店九亭大街店","lon":"121.3347","lat":"31.13138","category":"216","category_name":"经济型连锁酒店","address":"松江区九亭镇九亭大街291-1号(近虬江路)"},{"poiid":"B209475CDA6DA2F84892","title":"Maan coffee","lon":"121.329551","lat":"31.145055","category":"500","category_name":"未知分类","address":"上海市 上海市松江区奥林匹克花园"},{"poiid":"B2094655D26BA5FE449E","title":"海上普罗旺斯","lon":"121.34116","lat":"31.14362","category":"47","category_name":"住宅区","address":"海长路1号"},{"poiid":"B2094654DA64A7F5439C","title":"绿松超市","lon":"121.32868","lat":"31.13983","category":"118","category_name":"超级市场","address":""},{"poiid":"B2094757D06AA1F9459F","title":"沪松公路","lon":"121.336916","lat":"31.149231","category":"500","category_name":"未知分类","address":"上海沪松公路中春路"},{"poiid":"B209475CD368A7FA439C","title":"婷福农家乐 九亭店","lon":"121.32712","lat":"31.14338","category":"87","category_name":"特色／地方风味餐厅","address":"沪松公路1229号(近涞亭南路)"},{"poiid":"B2094654DA64A4F84298","title":"新上海弄里人家(涞亭南路)","lon":"121.33801","lat":"31.13126","category":"47","category_name":"住宅区","address":"上海近郊松江区九亭大街(近涞亭南路)"},{"poiid":"B2094654DA64A4F84392","title":"九亭镇兴联中心村","lon":"121.338","lat":"31.135563","category":"47","category_name":"住宅区","address":"涞亭南路289弄"},{"poiid":"B2094655D36DA7FF479A","title":"中春路联明路","lon":"121.34542","lat":"31.14092","category":"38","category_name":"公交车站","address":""}]