[{"poiid":"B2094757D16EA1FC489E","title":"淮海东路","lon":"121.48358873","lat":"31.227366239","category":"500","category_name":"未知分类","address":"上海淮海东路"},{"poiid":"B2094757D46DABF54399","title":"甜心皇后 淮海东路店 Sweet Queen","lon":"121.482449","lat":"31.226318","category":"67","category_name":"甜品店","address":"黄浦区淮海东路49号东淮海国际大厦内(近云南南路)"},{"poiid":"B2094750DA6CA6FC4198","title":"台北纯k","lon":"121.483436","lat":"31.22928","category":"500","category_name":"未知分类","address":"浙江南路68号"},{"poiid":"B2094753D76FAAFA449C","title":"上海滩国泰旗舰店","lon":"121.466011","lat":"31.216125","category":"249","category_name":"购物服务","address":"淮海中路868号"},{"poiid":"B209475CD564A7F84292","title":"上海滩新天地店","lon":"121.47463","lat":"31.22164","category":"119","category_name":"商场","address":"\"太仓路181弄新天地北里15号\r\n\""},{"poiid":"B209475CD564A7F8439E","title":"上海滩中信泰富店","lon":"121.45602","lat":"31.22851","category":"119","category_name":"商场","address":"\"南京西路1168号中信泰富广场，店铺号221.\r\n\""},{"poiid":"B209475CD564A7F84392","title":"上海滩浦东香格里拉店","lon":"121.50058","lat":"31.23634","category":"119","category_name":"商场","address":"浦东富成路33号香格里拉酒店内大堂层"},{"poiid":"B2094757D068A4FD469A","title":"金陵东路浙江南路","lon":"121.482636","lat":"31.22811","category":"38","category_name":"公交车站","address":"上海金陵东路浙江南路"},{"poiid":"B2094757D16CA0FC4398","title":"海上旧梦西餐厅","lon":"121.486337638","lat":"31.2285204637","category":"94","category_name":"西餐厅","address":"黄浦区金陵东路229号新上海城市广场2楼(河南南路口)"},{"poiid":"B2094654DA6EA6FA409B","title":"金陵东路营业厅","lon":"121.48404","lat":"31.2287","category":"151","category_name":"电讯营业厅","address":"黄浦区金陵东路391号"},{"poiid":"B2094757D069A3F9429D","title":"人民路","lon":"121.483271","lat":"31.225704","category":"500","category_name":"未知分类","address":"上海人民路"},{"poiid":"B2094757DB6EA7FA439F","title":"上海中星君亭酒店（原上海中星大酒店）","lon":"121.4833999","lat":"31.22669372","category":"75","category_name":"浙江菜","address":"黄浦区人民路839号(近浙江南路)"},{"poiid":"B2094757D06FAAF9439A","title":"GUCCI(时代广场店)","lon":"121.484517","lat":"31.225729","category":"141","category_name":"服装鞋帽皮具店","address":"卢湾区淮海中路99号大上海时代广场大上海时代广场"},{"poiid":"B2094757D064A7FA449D","title":"群力中医门诊部","lon":"121.48233","lat":"31.22767","category":"162","category_name":"医院","address":"上海黄浦区金陵东路396号  "},{"poiid":"B2094757D068A3FE489A","title":"东淮海公寓","lon":"121.48508","lat":"31.227438","category":"47","category_name":"住宅区","address":"上海市黄浦区人民路777弄"},{"poiid":"B2094757D169A5FF489C","title":"重庆小天鹅火锅","lon":"121.48479673","lat":"31.22649922","category":"500","category_name":"未知分类","address":"上海市黄浦区云南南路"},{"poiid":"B2094654DB6AA6FF479D","title":"上海中星大酒店","lon":"121.48469","lat":"31.22758","category":"214","category_name":"四星级宾馆","address":"人民路839号"},{"poiid":"B2094750DA6DA7F4489D","title":"寿宁路23号长寿面馆","lon":"121.483512","lat":"31.227197","category":"247","category_name":"餐饮美食","address":null},{"poiid":"B2094757D068A3FD469A","title":"埃洛美甲","lon":"121.482538","lat":"31.229008","category":"149","category_name":"洗浴推拿场所","address":"上海浙江南路69号"},{"poiid":"B2094655D26AAAFA4492","title":"上游社会桌游俱乐部","lon":"121.48243","lat":"31.22873","category":"248","category_name":"生活娱乐","address":"黄浦区浙江南路88号东新大厦216商铺(近宁海东路)"},{"poiid":"B2094750D26FA5FC449E","title":"寿宁路龙虾街","lon":"121.483604","lat":"31.225391","category":"247","category_name":"餐饮美食","address":"黄浦区寿宁路9号"},{"poiid":"B2094757D16EA0F4429C","title":"彭浦第一炸(寿宁路店)","lon":"121.483581738","lat":"31.2253271956","category":"68","category_name":"快餐厅","address":"黄浦区寿宁路13号(近西藏南路)"},{"poiid":"B2094753D668A4FE499E","title":"CLUB S2","lon":"121.483741","lat":"31.225388","category":"500","category_name":"未知分类","address":"上海市 淮海路1号柳林大厦6楼"},{"poiid":"B2094654DA6EA6FA449F","title":"福星大厦","lon":"121.48196","lat":"31.22746","category":"46","category_name":"楼宇","address":"黄浦区外滩23号,中山东一路,南京东路"},{"poiid":"B2094757D065A4FC489B","title":"杏满楼","lon":"121.484336799","lat":"31.2300896628","category":"76","category_name":"上海菜","address":"黄浦区宁海东路48号1楼(近福建南路)"},{"poiid":"B2094655D36CA0F5429D","title":"淮海东路云南南路","lon":"121.48279","lat":"31.22667","category":"38","category_name":"公交车站","address":""},{"poiid":"B2094757D465A4FC469D","title":"吉昌桂林米粉 广西南路店","lon":"121.482224054","lat":"31.226701793","category":"68","category_name":"快餐厅","address":"黄浦区广西南路48号(宁海路口)"},{"poiid":"B2094757D16FA3FA4693","title":"旺比面馆","lon":"121.48369723","lat":"31.227581243","category":"68","category_name":"快餐厅","address":"黄浦区浙江南路(金陵东路口)"},{"poiid":"B2094753DB6CA5F9489B","title":"稻香","lon":"121.484268","lat":"31.227146","category":"247","category_name":"餐饮美食","address":"上海市 环贸广场iapm3楼301"},{"poiid":"B2094654DA6EA6FF4499","title":"台园圆圆香云吞(浙江南路)","lon":"121.48259","lat":"31.22893","category":"68","category_name":"快餐厅","address":"黄浦区浙江南路75号(近延安东路)"},{"poiid":"B2094655D26AA0FC439B","title":"天意婚礼购物广场","lon":"121.48555","lat":"31.22773","category":"247","category_name":"餐饮美食","address":"上海黄浦区人民路757号(近福建南路)  "},{"poiid":"B2094654DA6EA6F84793","title":"中国移动金陵东路营业厅","lon":"121.48207","lat":"31.22794","category":"151","category_name":"电讯营业厅","address":"黄浦区金陵东路396号"},{"poiid":"B2094757D664A7F8449C","title":"台湾原汁原味牛肉面","lon":"121.48246","lat":"31.22653","category":"68","category_name":"快餐厅","address":"黄浦区淮海东路30号(近广西南路)"},{"poiid":"B2094757D16DA7FC459A","title":"壽寧路18號自家小龍蝦店","lon":"121.48472573","lat":"31.225216193","category":"500","category_name":"未知分类","address":"上海黄浦区壽寧路18號"},{"poiid":"B2094757D464AAFB429A","title":"新亚大包 福建南路店","lon":"121.483850054","lat":"31.230013793","category":"68","category_name":"快餐厅","address":"黄浦区福建南路33号(近宁海东路)"},{"poiid":"B2094655D36CA0FF4098","title":"金陵东路福建南路","lon":"121.48475","lat":"31.22921","category":"38","category_name":"公交车站","address":""},{"poiid":"B2094757D065A0FF4992","title":"寿宁路魏式烧烤","lon":"121.48398445","lat":"31.229025034","category":"247","category_name":"餐饮美食","address":"上海寿宁路西藏路"},{"poiid":"B2094757D064A1F94293","title":"云南刘园过桥米线馆","lon":"121.48404","lat":"31.22937","category":"68","category_name":"快餐厅","address":"黄浦区福建南路64号(近宁海东路)"},{"poiid":"B2094750D665A0F84592","title":"必胜宅急送(人民路店)","lon":"121.483","lat":"31.2264","category":"94","category_name":"西餐厅","address":"黄浦区人民路818号(人民路永寿路)"},{"poiid":"B2094752D46DA7FA449C","title":"酒吞","lon":"121.48416","lat":"31.227901","category":"247","category_name":"餐饮美食","address":"虹井路280弄"},{"poiid":"B2094750D664AAFF449E","title":"黄鱼面","lon":"121.483","lat":"31.2294","category":"68","category_name":"快餐厅","address":"黄浦区宁海东路143号(近浙江中路)"},{"poiid":"B2094751D36AA3FC429F","title":"酩宴海鲜宵夜","lon":"121.4825","lat":"31.22627","category":"76","category_name":"上海菜","address":"黄浦区淮海东路45号1楼(近云南南路)"},{"poiid":"B2094757D569A7FC469E","title":"七号会所","lon":"121.48195557","lat":"31.22745443","category":"72","category_name":"广东菜","address":"黄浦区金陵东路507号(广西南路口)"},{"poiid":"B2094757D465A1F8429C","title":"新黄浦酒家","lon":"121.482281054","lat":"31.227978793","category":"76","category_name":"上海菜","address":"永寿路88号新黄浦公寓2楼近金陵东路"},{"poiid":"B2094757DB68A1F94798","title":"星巴克","lon":"121.4852086151499","lat":"31.22648474454025","category":"500","category_name":"未知分类","address":"江苏路"},{"poiid":"B2094655D26BAAFD479E","title":"济南路8号","lon":"121.485","lat":"31.2277","category":"47","category_name":"住宅区","address":"上海市卢湾区济南路8号"},{"poiid":"B2094757D069A4FB499A","title":"知音琴行(金陵东路店)","lon":"121.484688023","lat":"31.229039867","category":"260","category_name":"其他","address":"黄浦区金陵东路363号2楼(金陵东路永寿路)"},{"poiid":"B2094655D36DA7FE459A","title":"浙江南路","lon":"121.48255","lat":"31.22887","category":"38","category_name":"公交车站","address":""},{"poiid":"B2094750DB69A4F5419E","title":"淮海路","lon":"121.485076","lat":"31.225799","category":"500","category_name":"未知分类","address":"淮海路中段"},{"poiid":"B2094655D36CA6FF479A","title":"福建路金陵东路","lon":"121.48475","lat":"31.22866","category":"38","category_name":"公交车站","address":""},{"poiid":"B2094757D16EA1FC489E","title":"淮海东路","lon":"121.48358873","lat":"31.227366239","category":"500","category_name":"未知分类","address":"上海淮海东路"},{"poiid":"B2094757D46DABF54399","title":"甜心皇后 淮海东路店 Sweet Queen","lon":"121.482449","lat":"31.226318","category":"67","category_name":"甜品店","address":"黄浦区淮海东路49号东淮海国际大厦内(近云南南路)"},{"poiid":"B2094750DA6CA6FC4198","title":"台北纯k","lon":"121.483436","lat":"31.22928","category":"500","category_name":"未知分类","address":"浙江南路68号"},{"poiid":"B2094753D76FAAFA449C","title":"上海滩国泰旗舰店","lon":"121.466011","lat":"31.216125","category":"249","category_name":"购物服务","address":"淮海中路868号"},{"poiid":"B209475CD564A7F84292","title":"上海滩新天地店","lon":"121.47463","lat":"31.22164","category":"119","category_name":"商场","address":"\"太仓路181弄新天地北里15号\r\n\""},{"poiid":"B209475CD564A7F8439E","title":"上海滩中信泰富店","lon":"121.45602","lat":"31.22851","category":"119","category_name":"商场","address":"\"南京西路1168号中信泰富广场，店铺号221.\r\n\""},{"poiid":"B209475CD564A7F84392","title":"上海滩浦东香格里拉店","lon":"121.50058","lat":"31.23634","category":"119","category_name":"商场","address":"浦东富成路33号香格里拉酒店内大堂层"},{"poiid":"B2094757D068A4FD469A","title":"金陵东路浙江南路","lon":"121.482636","lat":"31.22811","category":"38","category_name":"公交车站","address":"上海金陵东路浙江南路"},{"poiid":"B2094757D16CA0FC4398","title":"海上旧梦西餐厅","lon":"121.486337638","lat":"31.2285204637","category":"94","category_name":"西餐厅","address":"黄浦区金陵东路229号新上海城市广场2楼(河南南路口)"},{"poiid":"B2094654DA6EA6FA409B","title":"金陵东路营业厅","lon":"121.48404","lat":"31.2287","category":"151","category_name":"电讯营业厅","address":"黄浦区金陵东路391号"},{"poiid":"B2094757D069A3F9429D","title":"人民路","lon":"121.483271","lat":"31.225704","category":"500","category_name":"未知分类","address":"上海人民路"},{"poiid":"B2094757DB6EA7FA439F","title":"上海中星君亭酒店（原上海中星大酒店）","lon":"121.4833999","lat":"31.22669372","category":"75","category_name":"浙江菜","address":"黄浦区人民路839号(近浙江南路)"},{"poiid":"B2094757D06FAAF9439A","title":"GUCCI(时代广场店)","lon":"121.484517","lat":"31.225729","category":"141","category_name":"服装鞋帽皮具店","address":"卢湾区淮海中路99号大上海时代广场大上海时代广场"},{"poiid":"B2094757D064A7FA449D","title":"群力中医门诊部","lon":"121.48233","lat":"31.22767","category":"162","category_name":"医院","address":"上海黄浦区金陵东路396号  "},{"poiid":"B2094757D068A3FE489A","title":"东淮海公寓","lon":"121.48508","lat":"31.227438","category":"47","category_name":"住宅区","address":"上海市黄浦区人民路777弄"},{"poiid":"B2094757D169A5FF489C","title":"重庆小天鹅火锅","lon":"121.48479673","lat":"31.22649922","category":"500","category_name":"未知分类","address":"上海市黄浦区云南南路"},{"poiid":"B2094654DB6AA6FF479D","title":"上海中星大酒店","lon":"121.48469","lat":"31.22758","category":"214","category_name":"四星级宾馆","address":"人民路839号"},{"poiid":"B2094750DA6DA7F4489D","title":"寿宁路23号长寿面馆","lon":"121.483512","lat":"31.227197","category":"247","category_name":"餐饮美食","address":null},{"poiid":"B2094757D068A3FD469A","title":"埃洛美甲","lon":"121.482538","lat":"31.229008","category":"149","category_name":"洗浴推拿场所","address":"上海浙江南路69号"},{"poiid":"B2094655D26AAAFA4492","title":"上游社会桌游俱乐部","lon":"121.48243","lat":"31.22873","category":"248","category_name":"生活娱乐","address":"黄浦区浙江南路88号东新大厦216商铺(近宁海东路)"},{"poiid":"B2094750D26FA5FC449E","title":"寿宁路龙虾街","lon":"121.483604","lat":"31.225391","category":"247","category_name":"餐饮美食","address":"黄浦区寿宁路9号"},{"poiid":"B2094757D16EA0F4429C","title":"彭浦第一炸(寿宁路店)","lon":"121.483581738","lat":"31.2253271956","category":"68","category_name":"快餐厅","address":"黄浦区寿宁路13号(近西藏南路)"},{"poiid":"B2094753D668A4FE499E","title":"CLUB S2","lon":"121.483741","lat":"31.225388","category":"500","category_name":"未知分类","address":"上海市 淮海路1号柳林大厦6楼"},{"poiid":"B2094654DA6EA6FA449F","title":"福星大厦","lon":"121.48196","lat":"31.22746","category":"46","category_name":"楼宇","address":"黄浦区外滩23号,中山东一路,南京东路"},{"poiid":"B2094757D065A4FC489B","title":"杏满楼","lon":"121.484336799","lat":"31.2300896628","category":"76","category_name":"上海菜","address":"黄浦区宁海东路48号1楼(近福建南路)"},{"poiid":"B2094655D36CA0F5429D","title":"淮海东路云南南路","lon":"121.48279","lat":"31.22667","category":"38","category_name":"公交车站","address":""},{"poiid":"B2094757D465A4FC469D","title":"吉昌桂林米粉 广西南路店","lon":"121.482224054","lat":"31.226701793","category":"68","category_name":"快餐厅","address":"黄浦区广西南路48号(宁海路口)"},{"poiid":"B2094757D16FA3FA4693","title":"旺比面馆","lon":"121.48369723","lat":"31.227581243","category":"68","category_name":"快餐厅","address":"黄浦区浙江南路(金陵东路口)"},{"poiid":"B2094753DB6CA5F9489B","title":"稻香","lon":"121.484268","lat":"31.227146","category":"247","category_name":"餐饮美食","address":"上海市 环贸广场iapm3楼301"},{"poiid":"B2094654DA6EA6FF4499","title":"台园圆圆香云吞(浙江南路)","lon":"121.48259","lat":"31.22893","category":"68","category_name":"快餐厅","address":"黄浦区浙江南路75号(近延安东路)"},{"poiid":"B2094655D26AA0FC439B","title":"天意婚礼购物广场","lon":"121.48555","lat":"31.22773","category":"247","category_name":"餐饮美食","address":"上海黄浦区人民路757号(近福建南路)  "},{"poiid":"B2094654DA6EA6F84793","title":"中国移动金陵东路营业厅","lon":"121.48207","lat":"31.22794","category":"151","category_name":"电讯营业厅","address":"黄浦区金陵东路396号"},{"poiid":"B2094757D664A7F8449C","title":"台湾原汁原味牛肉面","lon":"121.48246","lat":"31.22653","category":"68","category_name":"快餐厅","address":"黄浦区淮海东路30号(近广西南路)"},{"poiid":"B2094757D16DA7FC459A","title":"壽寧路18號自家小龍蝦店","lon":"121.48472573","lat":"31.225216193","category":"500","category_name":"未知分类","address":"上海黄浦区壽寧路18號"},{"poiid":"B2094757D464AAFB429A","title":"新亚大包 福建南路店","lon":"121.483850054","lat":"31.230013793","category":"68","category_name":"快餐厅","address":"黄浦区福建南路33号(近宁海东路)"},{"poiid":"B2094655D36CA0FF4098","title":"金陵东路福建南路","lon":"121.48475","lat":"31.22921","category":"38","category_name":"公交车站","address":""},{"poiid":"B2094757D065A0FF4992","title":"寿宁路魏式烧烤","lon":"121.48398445","lat":"31.229025034","category":"247","category_name":"餐饮美食","address":"上海寿宁路西藏路"},{"poiid":"B2094757D064A1F94293","title":"云南刘园过桥米线馆","lon":"121.48404","lat":"31.22937","category":"68","category_name":"快餐厅","address":"黄浦区福建南路64号(近宁海东路)"},{"poiid":"B2094750D665A0F84592","title":"必胜宅急送(人民路店)","lon":"121.483","lat":"31.2264","category":"94","category_name":"西餐厅","address":"黄浦区人民路818号(人民路永寿路)"},{"poiid":"B2094752D46DA7FA449C","title":"酒吞","lon":"121.48416","lat":"31.227901","category":"247","category_name":"餐饮美食","address":"虹井路280弄"},{"poiid":"B2094750D664AAFF449E","title":"黄鱼面","lon":"121.483","lat":"31.2294","category":"68","category_name":"快餐厅","address":"黄浦区宁海东路143号(近浙江中路)"},{"poiid":"B2094751D36AA3FC429F","title":"酩宴海鲜宵夜","lon":"121.4825","lat":"31.22627","category":"76","category_name":"上海菜","address":"黄浦区淮海东路45号1楼(近云南南路)"},{"poiid":"B2094757D569A7FC469E","title":"七号会所","lon":"121.48195557","lat":"31.22745443","category":"72","category_name":"广东菜","address":"黄浦区金陵东路507号(广西南路口)"},{"poiid":"B2094757D465A1F8429C","title":"新黄浦酒家","lon":"121.482281054","lat":"31.227978793","category":"76","category_name":"上海菜","address":"永寿路88号新黄浦公寓2楼近金陵东路"},{"poiid":"B2094757DB68A1F94798","title":"星巴克","lon":"121.4852086151499","lat":"31.22648474454025","category":"500","category_name":"未知分类","address":"江苏路"},{"poiid":"B2094655D26BAAFD479E","title":"济南路8号","lon":"121.485","lat":"31.2277","category":"47","category_name":"住宅区","address":"上海市卢湾区济南路8号"},{"poiid":"B2094757D069A4FB499A","title":"知音琴行(金陵东路店)","lon":"121.484688023","lat":"31.229039867","category":"260","category_name":"其他","address":"黄浦区金陵东路363号2楼(金陵东路永寿路)"},{"poiid":"B2094655D36DA7FE459A","title":"浙江南路","lon":"121.48255","lat":"31.22887","category":"38","category_name":"公交车站","address":""},{"poiid":"B2094750DB69A4F5419E","title":"淮海路","lon":"121.485076","lat":"31.225799","category":"500","category_name":"未知分类","address":"淮海路中段"},{"poiid":"B2094655D36CA6FF479A","title":"福建路金陵东路","lon":"121.48475","lat":"31.22866","category":"38","category_name":"公交车站","address":""},{"poiid":"B2094757D16EA1FC489E","title":"淮海东路","lon":"121.48358873","lat":"31.227366239","category":"500","category_name":"未知分类","address":"上海淮海东路"},{"poiid":"B2094757D46DABF54399","title":"甜心皇后 淮海东路店 Sweet Queen","lon":"121.482449","lat":"31.226318","category":"67","category_name":"甜品店","address":"黄浦区淮海东路49号东淮海国际大厦内(近云南南路)"},{"poiid":"B2094750DA6CA6FC4198","title":"台北纯k","lon":"121.483436","lat":"31.22928","category":"500","category_name":"未知分类","address":"浙江南路68号"},{"poiid":"B2094753D76FAAFA449C","title":"上海滩国泰旗舰店","lon":"121.466011","lat":"31.216125","category":"249","category_name":"购物服务","address":"淮海中路868号"},{"poiid":"B209475CD564A7F84292","title":"上海滩新天地店","lon":"121.47463","lat":"31.22164","category":"119","category_name":"商场","address":"\"太仓路181弄新天地北里15号\r\n\""},{"poiid":"B209475CD564A7F8439E","title":"上海滩中信泰富店","lon":"121.45602","lat":"31.22851","category":"119","category_name":"商场","address":"\"南京西路1168号中信泰富广场，店铺号221.\r\n\""},{"poiid":"B209475CD564A7F84392","title":"上海滩浦东香格里拉店","lon":"121.50058","lat":"31.23634","category":"119","category_name":"商场","address":"浦东富成路33号香格里拉酒店内大堂层"},{"poiid":"B2094757D068A4FD469A","title":"金陵东路浙江南路","lon":"121.482636","lat":"31.22811","category":"38","category_name":"公交车站","address":"上海金陵东路浙江南路"},{"poiid":"B2094757D16CA0FC4398","title":"海上旧梦西餐厅","lon":"121.486337638","lat":"31.2285204637","category":"94","category_name":"西餐厅","address":"黄浦区金陵东路229号新上海城市广场2楼(河南南路口)"},{"poiid":"B2094654DA6EA6FA409B","title":"金陵东路营业厅","lon":"121.48404","lat":"31.2287","category":"151","category_name":"电讯营业厅","address":"黄浦区金陵东路391号"},{"poiid":"B2094757D069A3F9429D","title":"人民路","lon":"121.483271","lat":"31.225704","category":"500","category_name":"未知分类","address":"上海人民路"},{"poiid":"B2094757DB6EA7FA439F","title":"上海中星君亭酒店（原上海中星大酒店）","lon":"121.4833999","lat":"31.22669372","category":"75","category_name":"浙江菜","address":"黄浦区人民路839号(近浙江南路)"},{"poiid":"B2094757D06FAAF9439A","title":"GUCCI(时代广场店)","lon":"121.484517","lat":"31.225729","category":"141","category_name":"服装鞋帽皮具店","address":"卢湾区淮海中路99号大上海时代广场大上海时代广场"},{"poiid":"B2094757D064A7FA449D","title":"群力中医门诊部","lon":"121.48233","lat":"31.22767","category":"162","category_name":"医院","address":"上海黄浦区金陵东路396号  "},{"poiid":"B2094757D068A3FE489A","title":"东淮海公寓","lon":"121.48508","lat":"31.227438","category":"47","category_name":"住宅区","address":"上海市黄浦区人民路777弄"},{"poiid":"B2094757D169A5FF489C","title":"重庆小天鹅火锅","lon":"121.48479673","lat":"31.22649922","category":"500","category_name":"未知分类","address":"上海市黄浦区云南南路"},{"poiid":"B2094654DB6AA6FF479D","title":"上海中星大酒店","lon":"121.48469","lat":"31.22758","category":"214","category_name":"四星级宾馆","address":"人民路839号"},{"poiid":"B2094750DA6DA7F4489D","title":"寿宁路23号长寿面馆","lon":"121.483512","lat":"31.227197","category":"247","category_name":"餐饮美食","address":null},{"poiid":"B2094757D068A3FD469A","title":"埃洛美甲","lon":"121.482538","lat":"31.229008","category":"149","category_name":"洗浴推拿场所","address":"上海浙江南路69号"},{"poiid":"B2094655D26AAAFA4492","title":"上游社会桌游俱乐部","lon":"121.48243","lat":"31.22873","category":"248","category_name":"生活娱乐","address":"黄浦区浙江南路88号东新大厦216商铺(近宁海东路)"},{"poiid":"B2094750D26FA5FC449E","title":"寿宁路龙虾街","lon":"121.483604","lat":"31.225391","category":"247","category_name":"餐饮美食","address":"黄浦区寿宁路9号"},{"poiid":"B2094757D16EA0F4429C","title":"彭浦第一炸(寿宁路店)","lon":"121.483581738","lat":"31.2253271956","category":"68","category_name":"快餐厅","address":"黄浦区寿宁路13号(近西藏南路)"},{"poiid":"B2094753D668A4FE499E","title":"CLUB S2","lon":"121.483741","lat":"31.225388","category":"500","category_name":"未知分类","address":"上海市 淮海路1号柳林大厦6楼"},{"poiid":"B2094654DA6EA6FA449F","title":"福星大厦","lon":"121.48196","lat":"31.22746","category":"46","category_name":"楼宇","address":"黄浦区外滩23号,中山东一路,南京东路"},{"poiid":"B2094757D065A4FC489B","title":"杏满楼","lon":"121.484336799","lat":"31.2300896628","category":"76","category_name":"上海菜","address":"黄浦区宁海东路48号1楼(近福建南路)"},{"poiid":"B2094655D36CA0F5429D","title":"淮海东路云南南路","lon":"121.48279","lat":"31.22667","category":"38","category_name":"公交车站","address":""},{"poiid":"B2094757D465A4FC469D","title":"吉昌桂林米粉 广西南路店","lon":"121.482224054","lat":"31.226701793","category":"68","category_name":"快餐厅","address":"黄浦区广西南路48号(宁海路口)"},{"poiid":"B2094757D16FA3FA4693","title":"旺比面馆","lon":"121.48369723","lat":"31.227581243","category":"68","category_name":"快餐厅","address":"黄浦区浙江南路(金陵东路口)"},{"poiid":"B2094753DB6CA5F9489B","title":"稻香","lon":"121.484268","lat":"31.227146","category":"247","category_name":"餐饮美食","address":"上海市 环贸广场iapm3楼301"},{"poiid":"B2094654DA6EA6FF4499","title":"台园圆圆香云吞(浙江南路)","lon":"121.48259","lat":"31.22893","category":"68","category_name":"快餐厅","address":"黄浦区浙江南路75号(近延安东路)"},{"poiid":"B2094655D26AA0FC439B","title":"天意婚礼购物广场","lon":"121.48555","lat":"31.22773","category":"247","category_name":"餐饮美食","address":"上海黄浦区人民路757号(近福建南路)  "},{"poiid":"B2094654DA6EA6F84793","title":"中国移动金陵东路营业厅","lon":"121.48207","lat":"31.22794","category":"151","category_name":"电讯营业厅","address":"黄浦区金陵东路396号"},{"poiid":"B2094757D664A7F8449C","title":"台湾原汁原味牛肉面","lon":"121.48246","lat":"31.22653","category":"68","category_name":"快餐厅","address":"黄浦区淮海东路30号(近广西南路)"},{"poiid":"B2094757D16DA7FC459A","title":"壽寧路18號自家小龍蝦店","lon":"121.48472573","lat":"31.225216193","category":"500","category_name":"未知分类","address":"上海黄浦区壽寧路18號"},{"poiid":"B2094757D464AAFB429A","title":"新亚大包 福建南路店","lon":"121.483850054","lat":"31.230013793","category":"68","category_name":"快餐厅","address":"黄浦区福建南路33号(近宁海东路)"},{"poiid":"B2094655D36CA0FF4098","title":"金陵东路福建南路","lon":"121.48475","lat":"31.22921","category":"38","category_name":"公交车站","address":""},{"poiid":"B2094757D065A0FF4992","title":"寿宁路魏式烧烤","lon":"121.48398445","lat":"31.229025034","category":"247","category_name":"餐饮美食","address":"上海寿宁路西藏路"},{"poiid":"B2094757D064A1F94293","title":"云南刘园过桥米线馆","lon":"121.48404","lat":"31.22937","category":"68","category_name":"快餐厅","address":"黄浦区福建南路64号(近宁海东路)"},{"poiid":"B2094750D665A0F84592","title":"必胜宅急送(人民路店)","lon":"121.483","lat":"31.2264","category":"94","category_name":"西餐厅","address":"黄浦区人民路818号(人民路永寿路)"},{"poiid":"B2094752D46DA7FA449C","title":"酒吞","lon":"121.48416","lat":"31.227901","category":"247","category_name":"餐饮美食","address":"虹井路280弄"},{"poiid":"B2094750D664AAFF449E","title":"黄鱼面","lon":"121.483","lat":"31.2294","category":"68","category_name":"快餐厅","address":"黄浦区宁海东路143号(近浙江中路)"},{"poiid":"B2094751D36AA3FC429F","title":"酩宴海鲜宵夜","lon":"121.4825","lat":"31.22627","category":"76","category_name":"上海菜","address":"黄浦区淮海东路45号1楼(近云南南路)"},{"poiid":"B2094757D569A7FC469E","title":"七号会所","lon":"121.48195557","lat":"31.22745443","category":"72","category_name":"广东菜","address":"黄浦区金陵东路507号(广西南路口)"},{"poiid":"B2094757D465A1F8429C","title":"新黄浦酒家","lon":"121.482281054","lat":"31.227978793","category":"76","category_name":"上海菜","address":"永寿路88号新黄浦公寓2楼近金陵东路"},{"poiid":"B2094757DB68A1F94798","title":"星巴克","lon":"121.4852086151499","lat":"31.22648474454025","category":"500","category_name":"未知分类","address":"江苏路"},{"poiid":"B2094655D26BAAFD479E","title":"济南路8号","lon":"121.485","lat":"31.2277","category":"47","category_name":"住宅区","address":"上海市卢湾区济南路8号"},{"poiid":"B2094757D069A4FB499A","title":"知音琴行(金陵东路店)","lon":"121.484688023","lat":"31.229039867","category":"260","category_name":"其他","address":"黄浦区金陵东路363号2楼(金陵东路永寿路)"},{"poiid":"B2094655D36DA7FE459A","title":"浙江南路","lon":"121.48255","lat":"31.22887","category":"38","category_name":"公交车站","address":""},{"poiid":"B2094750DB69A4F5419E","title":"淮海路","lon":"121.485076","lat":"31.225799","category":"500","category_name":"未知分类","address":"淮海路中段"},{"poiid":"B2094655D36CA6FF479A","title":"福建路金陵东路","lon":"121.48475","lat":"31.22866","category":"38","category_name":"公交车站","address":""},{"poiid":"B2094757D16EA1FC489E","title":"淮海东路","lon":"121.48358873","lat":"31.227366239","category":"500","category_name":"未知分类","address":"上海淮海东路"},{"poiid":"B2094757D46DABF54399","title":"甜心皇后 淮海东路店 Sweet Queen","lon":"121.482449","lat":"31.226318","category":"67","category_name":"甜品店","address":"黄浦区淮海东路49号东淮海国际大厦内(近云南南路)"},{"poiid":"B2094750DA6CA6FC4198","title":"台北纯k","lon":"121.483436","lat":"31.22928","category":"500","category_name":"未知分类","address":"浙江南路68号"},{"poiid":"B2094753D76FAAFA449C","title":"上海滩国泰旗舰店","lon":"121.466011","lat":"31.216125","category":"249","category_name":"购物服务","address":"淮海中路868号"},{"poiid":"B209475CD564A7F84292","title":"上海滩新天地店","lon":"121.47463","lat":"31.22164","category":"119","category_name":"商场","address":"\"太仓路181弄新天地北里15号\r\n\""},{"poiid":"B209475CD564A7F8439E","title":"上海滩中信泰富店","lon":"121.45602","lat":"31.22851","category":"119","category_name":"商场","address":"\"南京西路1168号中信泰富广场，店铺号221.\r\n\""},{"poiid":"B209475CD564A7F84392","title":"上海滩浦东香格里拉店","lon":"121.50058","lat":"31.23634","category":"119","category_name":"商场","address":"浦东富成路33号香格里拉酒店内大堂层"},{"poiid":"B2094757D068A4FD469A","title":"金陵东路浙江南路","lon":"121.482636","lat":"31.22811","category":"38","category_name":"公交车站","address":"上海金陵东路浙江南路"},{"poiid":"B2094757D16CA0FC4398","title":"海上旧梦西餐厅","lon":"121.486337638","lat":"31.2285204637","category":"94","category_name":"西餐厅","address":"黄浦区金陵东路229号新上海城市广场2楼(河南南路口)"},{"poiid":"B2094654DA6EA6FA409B","title":"金陵东路营业厅","lon":"121.48404","lat":"31.2287","category":"151","category_name":"电讯营业厅","address":"黄浦区金陵东路391号"},{"poiid":"B2094757D069A3F9429D","title":"人民路","lon":"121.483271","lat":"31.225704","category":"500","category_name":"未知分类","address":"上海人民路"},{"poiid":"B2094757DB6EA7FA439F","title":"上海中星君亭酒店（原上海中星大酒店）","lon":"121.4833999","lat":"31.22669372","category":"75","category_name":"浙江菜","address":"黄浦区人民路839号(近浙江南路)"},{"poiid":"B2094757D06FAAF9439A","title":"GUCCI(时代广场店)","lon":"121.484517","lat":"31.225729","category":"141","category_name":"服装鞋帽皮具店","address":"卢湾区淮海中路99号大上海时代广场大上海时代广场"},{"poiid":"B2094757D064A7FA449D","title":"群力中医门诊部","lon":"121.48233","lat":"31.22767","category":"162","category_name":"医院","address":"上海黄浦区金陵东路396号  "},{"poiid":"B2094757D068A3FE489A","title":"东淮海公寓","lon":"121.48508","lat":"31.227438","category":"47","category_name":"住宅区","address":"上海市黄浦区人民路777弄"},{"poiid":"B2094757D169A5FF489C","title":"重庆小天鹅火锅","lon":"121.48479673","lat":"31.22649922","category":"500","category_name":"未知分类","address":"上海市黄浦区云南南路"},{"poiid":"B2094654DB6AA6FF479D","title":"上海中星大酒店","lon":"121.48469","lat":"31.22758","category":"214","category_name":"四星级宾馆","address":"人民路839号"},{"poiid":"B2094750DA6DA7F4489D","title":"寿宁路23号长寿面馆","lon":"121.483512","lat":"31.227197","category":"247","category_name":"餐饮美食","address":null},{"poiid":"B2094757D068A3FD469A","title":"埃洛美甲","lon":"121.482538","lat":"31.229008","category":"149","category_name":"洗浴推拿场所","address":"上海浙江南路69号"},{"poiid":"B2094655D26AAAFA4492","title":"上游社会桌游俱乐部","lon":"121.48243","lat":"31.22873","category":"248","category_name":"生活娱乐","address":"黄浦区浙江南路88号东新大厦216商铺(近宁海东路)"},{"poiid":"B2094750D26FA5FC449E","title":"寿宁路龙虾街","lon":"121.483604","lat":"31.225391","category":"247","category_name":"餐饮美食","address":"黄浦区寿宁路9号"},{"poiid":"B2094757D16EA0F4429C","title":"彭浦第一炸(寿宁路店)","lon":"121.483581738","lat":"31.2253271956","category":"68","category_name":"快餐厅","address":"黄浦区寿宁路13号(近西藏南路)"},{"poiid":"B2094753D668A4FE499E","title":"CLUB S2","lon":"121.483741","lat":"31.225388","category":"500","category_name":"未知分类","address":"上海市 淮海路1号柳林大厦6楼"},{"poiid":"B2094654DA6EA6FA449F","title":"福星大厦","lon":"121.48196","lat":"31.22746","category":"46","category_name":"楼宇","address":"黄浦区外滩23号,中山东一路,南京东路"},{"poiid":"B2094757D065A4FC489B","title":"杏满楼","lon":"121.484336799","lat":"31.2300896628","category":"76","category_name":"上海菜","address":"黄浦区宁海东路48号1楼(近福建南路)"},{"poiid":"B2094655D36CA0F5429D","title":"淮海东路云南南路","lon":"121.48279","lat":"31.22667","category":"38","category_name":"公交车站","address":""},{"poiid":"B2094757D465A4FC469D","title":"吉昌桂林米粉 广西南路店","lon":"121.482224054","lat":"31.226701793","category":"68","category_name":"快餐厅","address":"黄浦区广西南路48号(宁海路口)"},{"poiid":"B2094757D16FA3FA4693","title":"旺比面馆","lon":"121.48369723","lat":"31.227581243","category":"68","category_name":"快餐厅","address":"黄浦区浙江南路(金陵东路口)"},{"poiid":"B2094753DB6CA5F9489B","title":"稻香","lon":"121.484268","lat":"31.227146","category":"247","category_name":"餐饮美食","address":"上海市 环贸广场iapm3楼301"},{"poiid":"B2094654DA6EA6FF4499","title":"台园圆圆香云吞(浙江南路)","lon":"121.48259","lat":"31.22893","category":"68","category_name":"快餐厅","address":"黄浦区浙江南路75号(近延安东路)"},{"poiid":"B2094655D26AA0FC439B","title":"天意婚礼购物广场","lon":"121.48555","lat":"31.22773","category":"247","category_name":"餐饮美食","address":"上海黄浦区人民路757号(近福建南路)  "},{"poiid":"B2094654DA6EA6F84793","title":"中国移动金陵东路营业厅","lon":"121.48207","lat":"31.22794","category":"151","category_name":"电讯营业厅","address":"黄浦区金陵东路396号"},{"poiid":"B2094757D664A7F8449C","title":"台湾原汁原味牛肉面","lon":"121.48246","lat":"31.22653","category":"68","category_name":"快餐厅","address":"黄浦区淮海东路30号(近广西南路)"},{"poiid":"B2094757D16DA7FC459A","title":"壽寧路18號自家小龍蝦店","lon":"121.48472573","lat":"31.225216193","category":"500","category_name":"未知分类","address":"上海黄浦区壽寧路18號"},{"poiid":"B2094757D464AAFB429A","title":"新亚大包 福建南路店","lon":"121.483850054","lat":"31.230013793","category":"68","category_name":"快餐厅","address":"黄浦区福建南路33号(近宁海东路)"},{"poiid":"B2094655D36CA0FF4098","title":"金陵东路福建南路","lon":"121.48475","lat":"31.22921","category":"38","category_name":"公交车站","address":""},{"poiid":"B2094757D065A0FF4992","title":"寿宁路魏式烧烤","lon":"121.48398445","lat":"31.229025034","category":"247","category_name":"餐饮美食","address":"上海寿宁路西藏路"},{"poiid":"B2094757D064A1F94293","title":"云南刘园过桥米线馆","lon":"121.48404","lat":"31.22937","category":"68","category_name":"快餐厅","address":"黄浦区福建南路64号(近宁海东路)"},{"poiid":"B2094750D665A0F84592","title":"必胜宅急送(人民路店)","lon":"121.483","lat":"31.2264","category":"94","category_name":"西餐厅","address":"黄浦区人民路818号(人民路永寿路)"},{"poiid":"B2094752D46DA7FA449C","title":"酒吞","lon":"121.48416","lat":"31.227901","category":"247","category_name":"餐饮美食","address":"虹井路280弄"},{"poiid":"B2094750D664AAFF449E","title":"黄鱼面","lon":"121.483","lat":"31.2294","category":"68","category_name":"快餐厅","address":"黄浦区宁海东路143号(近浙江中路)"},{"poiid":"B2094751D36AA3FC429F","title":"酩宴海鲜宵夜","lon":"121.4825","lat":"31.22627","category":"76","category_name":"上海菜","address":"黄浦区淮海东路45号1楼(近云南南路)"},{"poiid":"B2094757D569A7FC469E","title":"七号会所","lon":"121.48195557","lat":"31.22745443","category":"72","category_name":"广东菜","address":"黄浦区金陵东路507号(广西南路口)"},{"poiid":"B2094757D465A1F8429C","title":"新黄浦酒家","lon":"121.482281054","lat":"31.227978793","category":"76","category_name":"上海菜","address":"永寿路88号新黄浦公寓2楼近金陵东路"},{"poiid":"B2094757DB68A1F94798","title":"星巴克","lon":"121.4852086151499","lat":"31.22648474454025","category":"500","category_name":"未知分类","address":"江苏路"},{"poiid":"B2094655D26BAAFD479E","title":"济南路8号","lon":"121.485","lat":"31.2277","category":"47","category_name":"住宅区","address":"上海市卢湾区济南路8号"},{"poiid":"B2094757D069A4FB499A","title":"知音琴行(金陵东路店)","lon":"121.484688023","lat":"31.229039867","category":"260","category_name":"其他","address":"黄浦区金陵东路363号2楼(金陵东路永寿路)"},{"poiid":"B2094655D36DA7FE459A","title":"浙江南路","lon":"121.48255","lat":"31.22887","category":"38","category_name":"公交车站","address":""},{"poiid":"B2094750DB69A4F5419E","title":"淮海路","lon":"121.485076","lat":"31.225799","category":"500","category_name":"未知分类","address":"淮海路中段"},{"poiid":"B2094655D36CA6FF479A","title":"福建路金陵东路","lon":"121.48475","lat":"31.22866","category":"38","category_name":"公交车站","address":""},{"poiid":"B2094757D16EA1FC489E","title":"淮海东路","lon":"121.48358873","lat":"31.227366239","category":"500","category_name":"未知分类","address":"上海淮海东路"},{"poiid":"B2094757D46DABF54399","title":"甜心皇后 淮海东路店 Sweet Queen","lon":"121.482449","lat":"31.226318","category":"67","category_name":"甜品店","address":"黄浦区淮海东路49号东淮海国际大厦内(近云南南路)"},{"poiid":"B2094750DA6CA6FC4198","title":"台北纯k","lon":"121.483436","lat":"31.22928","category":"500","category_name":"未知分类","address":"浙江南路68号"},{"poiid":"B2094753D76FAAFA449C","title":"上海滩国泰旗舰店","lon":"121.466011","lat":"31.216125","category":"249","category_name":"购物服务","address":"淮海中路868号"},{"poiid":"B209475CD564A7F84292","title":"上海滩新天地店","lon":"121.47463","lat":"31.22164","category":"119","category_name":"商场","address":"\"太仓路181弄新天地北里15号\r\n\""},{"poiid":"B209475CD564A7F8439E","title":"上海滩中信泰富店","lon":"121.45602","lat":"31.22851","category":"119","category_name":"商场","address":"\"南京西路1168号中信泰富广场，店铺号221.\r\n\""},{"poiid":"B209475CD564A7F84392","title":"上海滩浦东香格里拉店","lon":"121.50058","lat":"31.23634","category":"119","category_name":"商场","address":"浦东富成路33号香格里拉酒店内大堂层"},{"poiid":"B2094757D068A4FD469A","title":"金陵东路浙江南路","lon":"121.482636","lat":"31.22811","category":"38","category_name":"公交车站","address":"上海金陵东路浙江南路"},{"poiid":"B2094757D16CA0FC4398","title":"海上旧梦西餐厅","lon":"121.486337638","lat":"31.2285204637","category":"94","category_name":"西餐厅","address":"黄浦区金陵东路229号新上海城市广场2楼(河南南路口)"},{"poiid":"B2094654DA6EA6FA409B","title":"金陵东路营业厅","lon":"121.48404","lat":"31.2287","category":"151","category_name":"电讯营业厅","address":"黄浦区金陵东路391号"},{"poiid":"B2094757D069A3F9429D","title":"人民路","lon":"121.483271","lat":"31.225704","category":"500","category_name":"未知分类","address":"上海人民路"},{"poiid":"B2094757DB6EA7FA439F","title":"上海中星君亭酒店（原上海中星大酒店）","lon":"121.4833999","lat":"31.22669372","category":"75","category_name":"浙江菜","address":"黄浦区人民路839号(近浙江南路)"},{"poiid":"B2094757D06FAAF9439A","title":"GUCCI(时代广场店)","lon":"121.484517","lat":"31.225729","category":"141","category_name":"服装鞋帽皮具店","address":"卢湾区淮海中路99号大上海时代广场大上海时代广场"},{"poiid":"B2094757D064A7FA449D","title":"群力中医门诊部","lon":"121.48233","lat":"31.22767","category":"162","category_name":"医院","address":"上海黄浦区金陵东路396号  "},{"poiid":"B2094757D068A3FE489A","title":"东淮海公寓","lon":"121.48508","lat":"31.227438","category":"47","category_name":"住宅区","address":"上海市黄浦区人民路777弄"},{"poiid":"B2094757D169A5FF489C","title":"重庆小天鹅火锅","lon":"121.48479673","lat":"31.22649922","category":"500","category_name":"未知分类","address":"上海市黄浦区云南南路"},{"poiid":"B2094654DB6AA6FF479D","title":"上海中星大酒店","lon":"121.48469","lat":"31.22758","category":"214","category_name":"四星级宾馆","address":"人民路839号"},{"poiid":"B2094750DA6DA7F4489D","title":"寿宁路23号长寿面馆","lon":"121.483512","lat":"31.227197","category":"247","category_name":"餐饮美食","address":null},{"poiid":"B2094757D068A3FD469A","title":"埃洛美甲","lon":"121.482538","lat":"31.229008","category":"149","category_name":"洗浴推拿场所","address":"上海浙江南路69号"},{"poiid":"B2094655D26AAAFA4492","title":"上游社会桌游俱乐部","lon":"121.48243","lat":"31.22873","category":"248","category_name":"生活娱乐","address":"黄浦区浙江南路88号东新大厦216商铺(近宁海东路)"},{"poiid":"B2094750D26FA5FC449E","title":"寿宁路龙虾街","lon":"121.483604","lat":"31.225391","category":"247","category_name":"餐饮美食","address":"黄浦区寿宁路9号"},{"poiid":"B2094757D16EA0F4429C","title":"彭浦第一炸(寿宁路店)","lon":"121.483581738","lat":"31.2253271956","category":"68","category_name":"快餐厅","address":"黄浦区寿宁路13号(近西藏南路)"},{"poiid":"B2094753D668A4FE499E","title":"CLUB S2","lon":"121.483741","lat":"31.225388","category":"500","category_name":"未知分类","address":"上海市 淮海路1号柳林大厦6楼"},{"poiid":"B2094654DA6EA6FA449F","title":"福星大厦","lon":"121.48196","lat":"31.22746","category":"46","category_name":"楼宇","address":"黄浦区外滩23号,中山东一路,南京东路"},{"poiid":"B2094757D065A4FC489B","title":"杏满楼","lon":"121.484336799","lat":"31.2300896628","category":"76","category_name":"上海菜","address":"黄浦区宁海东路48号1楼(近福建南路)"},{"poiid":"B2094655D36CA0F5429D","title":"淮海东路云南南路","lon":"121.48279","lat":"31.22667","category":"38","category_name":"公交车站","address":""},{"poiid":"B2094757D465A4FC469D","title":"吉昌桂林米粉 广西南路店","lon":"121.482224054","lat":"31.226701793","category":"68","category_name":"快餐厅","address":"黄浦区广西南路48号(宁海路口)"},{"poiid":"B2094757D16FA3FA4693","title":"旺比面馆","lon":"121.48369723","lat":"31.227581243","category":"68","category_name":"快餐厅","address":"黄浦区浙江南路(金陵东路口)"},{"poiid":"B2094753DB6CA5F9489B","title":"稻香","lon":"121.484268","lat":"31.227146","category":"247","category_name":"餐饮美食","address":"上海市 环贸广场iapm3楼301"},{"poiid":"B2094654DA6EA6FF4499","title":"台园圆圆香云吞(浙江南路)","lon":"121.48259","lat":"31.22893","category":"68","category_name":"快餐厅","address":"黄浦区浙江南路75号(近延安东路)"},{"poiid":"B2094655D26AA0FC439B","title":"天意婚礼购物广场","lon":"121.48555","lat":"31.22773","category":"247","category_name":"餐饮美食","address":"上海黄浦区人民路757号(近福建南路)  "},{"poiid":"B2094654DA6EA6F84793","title":"中国移动金陵东路营业厅","lon":"121.48207","lat":"31.22794","category":"151","category_name":"电讯营业厅","address":"黄浦区金陵东路396号"},{"poiid":"B2094757D664A7F8449C","title":"台湾原汁原味牛肉面","lon":"121.48246","lat":"31.22653","category":"68","category_name":"快餐厅","address":"黄浦区淮海东路30号(近广西南路)"},{"poiid":"B2094757D16DA7FC459A","title":"壽寧路18號自家小龍蝦店","lon":"121.48472573","lat":"31.225216193","category":"500","category_name":"未知分类","address":"上海黄浦区壽寧路18號"},{"poiid":"B2094757D464AAFB429A","title":"新亚大包 福建南路店","lon":"121.483850054","lat":"31.230013793","category":"68","category_name":"快餐厅","address":"黄浦区福建南路33号(近宁海东路)"},{"poiid":"B2094655D36CA0FF4098","title":"金陵东路福建南路","lon":"121.48475","lat":"31.22921","category":"38","category_name":"公交车站","address":""},{"poiid":"B2094757D065A0FF4992","title":"寿宁路魏式烧烤","lon":"121.48398445","lat":"31.229025034","category":"247","category_name":"餐饮美食","address":"上海寿宁路西藏路"},{"poiid":"B2094757D064A1F94293","title":"云南刘园过桥米线馆","lon":"121.48404","lat":"31.22937","category":"68","category_name":"快餐厅","address":"黄浦区福建南路64号(近宁海东路)"},{"poiid":"B2094750D665A0F84592","title":"必胜宅急送(人民路店)","lon":"121.483","lat":"31.2264","category":"94","category_name":"西餐厅","address":"黄浦区人民路818号(人民路永寿路)"},{"poiid":"B2094752D46DA7FA449C","title":"酒吞","lon":"121.48416","lat":"31.227901","category":"247","category_name":"餐饮美食","address":"虹井路280弄"},{"poiid":"B2094750D664AAFF449E","title":"黄鱼面","lon":"121.483","lat":"31.2294","category":"68","category_name":"快餐厅","address":"黄浦区宁海东路143号(近浙江中路)"},{"poiid":"B2094751D36AA3FC429F","title":"酩宴海鲜宵夜","lon":"121.4825","lat":"31.22627","category":"76","category_name":"上海菜","address":"黄浦区淮海东路45号1楼(近云南南路)"},{"poiid":"B2094757D569A7FC469E","title":"七号会所","lon":"121.48195557","lat":"31.22745443","category":"72","category_name":"广东菜","address":"黄浦区金陵东路507号(广西南路口)"},{"poiid":"B2094757D465A1F8429C","title":"新黄浦酒家","lon":"121.482281054","lat":"31.227978793","category":"76","category_name":"上海菜","address":"永寿路88号新黄浦公寓2楼近金陵东路"},{"poiid":"B2094757DB68A1F94798","title":"星巴克","lon":"121.4852086151499","lat":"31.22648474454025","category":"500","category_name":"未知分类","address":"江苏路"},{"poiid":"B2094655D26BAAFD479E","title":"济南路8号","lon":"121.485","lat":"31.2277","category":"47","category_name":"住宅区","address":"上海市卢湾区济南路8号"},{"poiid":"B2094757D069A4FB499A","title":"知音琴行(金陵东路店)","lon":"121.484688023","lat":"31.229039867","category":"260","category_name":"其他","address":"黄浦区金陵东路363号2楼(金陵东路永寿路)"},{"poiid":"B2094655D36DA7FE459A","title":"浙江南路","lon":"121.48255","lat":"31.22887","category":"38","category_name":"公交车站","address":""},{"poiid":"B2094750DB69A4F5419E","title":"淮海路","lon":"121.485076","lat":"31.225799","category":"500","category_name":"未知分类","address":"淮海路中段"},{"poiid":"B2094655D36CA6FF479A","title":"福建路金陵东路","lon":"121.48475","lat":"31.22866","category":"38","category_name":"公交车站","address":""}]