[{"poiid":"B2094654DA6FA7FF4699","title":"海龙海鲜舫","lon":"121.50199","lat":"31.23107","category":"72","category_name":"广东菜","address":"浦东新区东昌路1号(近富城路拾步街)"},{"poiid":"B2094757D068A3FC499B","title":"天泰餐厅(国金店)","lon":"121.502658488","lat":"31.2353811506","category":"99","category_name":"泰国／越南菜品餐厅","address":"浦东新区世纪大道8号国金中心4楼(近浦东大道)"},{"poiid":"B2094757D06FA2FC499B","title":"唐朝酒店(未来店)","lon":"121.50054","lat":"31.23481","category":"72","category_name":"广东菜","address":"浦东新区陆家嘴环路166号未来资产大厦2-3楼(近香格里拉大酒店)"},{"poiid":"B209475CD564A7F84292","title":"上海滩新天地店","lon":"121.47463","lat":"31.22164","category":"119","category_name":"商场","address":"\"太仓路181弄新天地北里15号\r\n\""},{"poiid":"B209475CD564A7F84392","title":"上海滩浦东香格里拉店","lon":"121.50058","lat":"31.23634","category":"119","category_name":"商场","address":"浦东富成路33号香格里拉酒店内大堂层"},{"poiid":"B2094757D06FA1FA4399","title":"外滩游艇会","lon":"121.50381","lat":"31.23071","category":"260","category_name":"其他","address":"浦东新区滨江大道3510号(近东昌路渡口)"},{"poiid":"B2094750D26BAAFD439C","title":"正大广场陆家嘴西路168号","lon":"121.501686","lat":"31.234832","category":"249","category_name":"购物服务","address":"正大广场陆家嘴西路168号"},{"poiid":"B2094757D06FA7FC4598","title":"东昌路轮渡站","lon":"121.50315135","lat":"31.230164847","category":"35","category_name":"长途汽车站","address":"上海浦东新区东昌路1号"},{"poiid":"B2094757D06FA0FE479A","title":"汤臣一品","lon":"121.50127","lat":"31.233383","category":"47","category_name":"住宅区","address":"朝阳区东四环慈云寺桥东北角,向东400米路南"},{"poiid":"B2094757D068ABFD489C","title":"Kaefer滨江壹号","lon":"121.50282273","lat":"31.232060339","category":"47","category_name":"住宅区","address":"浦东新区滨江大道富城路拾步街由隆花园(近花园石桥路)"},{"poiid":"B2094654DA6EABFF439B","title":"久事大厦","lon":"121.507","lat":"31.2307","category":"46","category_name":"楼宇","address":"上海市黄浦区中山南路28号"},{"poiid":"B2094757D16AA3FA449F","title":"紅磡體育館","lon":"121.50024373","lat":"31.234377388","category":"500","category_name":"未知分类","address":"香港尖沙咀東紅磡體育館"},{"poiid":"B2094750D569ABF4429A","title":"蒗葶泰式酒吧餐厅","lon":"121.501908","lat":"31.234731","category":"172","category_name":"酒吧","address":"世纪大道100号环球金融中心301室"},{"poiid":"B2094757D165A7F54999","title":"花旗银行大厦","lon":"121.500979701","lat":"31.2332134973","category":"46","category_name":"楼宇","address":"上海浦东新区花园石桥路33号"},{"poiid":"B2094751DA64A4FF489F","title":"炉边谈情","lon":"121.5009","lat":"31.234146","category":"247","category_name":"餐饮美食","address":"正大广场六楼"},{"poiid":"B2094757D06FA6FC4993","title":"晶浦会","lon":"121.49999","lat":"31.23362","category":"72","category_name":"广东菜","address":"上海浦东新区花园石桥路33号花旗集团大厦4楼(近富城路)  "},{"poiid":"B2094654DA69A7FB4792","title":"拉图餐厅 La Tour","lon":"121.50515","lat":"31.23502","category":"94","category_name":"西餐厅","address":"浦东新区世纪大道88号金茂大厦裙楼5楼(近二号线陆家嘴站)"},{"poiid":"B2094757D068A7F8459A","title":"仁恒滨江园(Yanlord Garden)","lon":"121.50641632","lat":"31.228860855","category":"47","category_name":"住宅区","address":"上海浦东新区浦明路99弄(近商城路)"},{"poiid":"B2094757D06AAAF9489E","title":"宏豪浦江一号","lon":"121.504989","lat":"31.228434","category":"72","category_name":"广东菜","address":"浦东新区滨江大道3788号(近商城路)"},{"poiid":"B2094655D36CA7FD4293","title":"花园石桥路陆家嘴环路(正大广场)","lon":"121.50115","lat":"31.23482","category":"38","category_name":"公交车站","address":""},{"poiid":"B2094750D66CAAFD4092","title":"vini angeli","lon":"121.500816","lat":"31.235115","category":"94","category_name":"西餐厅","address":"浦东新区陆家嘴西路168号正大广场8楼(近东方明珠)"},{"poiid":"B2094757D06AA1FC409E","title":"上海国金中心二期写字楼","lon":"121.502999494","lat":"31.2355211523","category":"46","category_name":"楼宇","address":"上海浦东新区世纪大道8号(近陆家嘴环路)"},{"poiid":"B2094757D068A6F4499F","title":"君悦轩(花园石桥店)","lon":"121.50239","lat":"31.23334","category":"72","category_name":"广东菜","address":"浦东新区花园石桥路66号东亚银行金融大厦3楼(近陆家嘴环路)"},{"poiid":"B2094757D16CA2F9439C","title":"浦之舟会所","lon":"121.503476638","lat":"31.2286266659","category":"500","category_name":"未知分类","address":"上海陆家嘴滨江大道3688号"},{"poiid":"B2094757D468ABF54699","title":"星巴克 花旗大厦店 Starbucks Cafe","lon":"121.500050054","lat":"31.234238793","category":"65","category_name":"咖啡厅","address":"浦东新区花园石桥路33号花旗集团大厦1楼(近富城路)"},{"poiid":"B2094757D16CAAFB489F","title":"浦东金贸君悦酒店","lon":"121.50241173","lat":"31.230401303","category":"217","category_name":"旅馆招待所","address":"上海市浦东新区富城路"},{"poiid":"B2094750D268A7F8449E","title":"滨江一号","lon":"121.501441","lat":"31.231658","category":"247","category_name":"餐饮美食","address":"浦东新区滨江一号滨江富城路拾步街由隆花园(近石桥路)"},{"poiid":"B2094757D66DA3F5479B","title":"HM","lon":"121.501574738","lat":"31.2351244044","category":"249","category_name":"购物服务","address":"上海正大广场店"},{"poiid":"B2094757D16BA4F54592","title":"STELLA LUNA(国金店)","lon":"121.501676738","lat":"31.2345953931","category":"500","category_name":"未知分类","address":"上海ifc国金商场"},{"poiid":"B2094750D669A4FA4799","title":"3D魔幻趣味馆","lon":"121.50164","lat":"31.235158","category":"248","category_name":"生活娱乐","address":"浦东新区滨江大道2789号外滩观光隧道B2楼"},{"poiid":"B2094757D06FA4F9449C","title":"轮渡线(东金线轮渡)","lon":"121.50343","lat":"31.22978","category":"260","category_name":"其他","address":"东昌路渡口－金陵东路渡口(滨江大道东昌路)"},{"poiid":"B2094655D36CA1FD429C","title":"十六铺","lon":"121.507","lat":"31.2305","category":"38","category_name":"公交车站","address":"中山东二路88弄"},{"poiid":"B2094757D065A7F9409F","title":"Pizzeria Alla Torre(陆家嘴店)","lon":"121.50102","lat":"31.23548","category":"94","category_name":"西餐厅","address":"上海浦东新区陆家嘴环路165号1楼(富城路名商路)"},{"poiid":"B2094757D06BA1FA459D","title":"上海中心","lon":"121.506470701","lat":"31.2333594809","category":"500","category_name":"未知分类","address":"上海银城中路501号"},{"poiid":"B2094757D66CA0FD479E","title":"松鹤楼游船码头","lon":"121.502754738","lat":"31.2317393323","category":"500","category_name":"未知分类","address":"上海中山东二路505号"},{"poiid":"B2094757D568A0FE499A","title":"Ben Sherman(正大广场)","lon":"121.5011139","lat":"31.23467667","category":"249","category_name":"购物服务","address":"陆家嘴环路168号正大广场1层novo内"},{"poiid":"B2094654DB6BABFC429E","title":"上海鹏利辉盛阁公寓(银城中路)","lon":"121.50334","lat":"31.23164","category":"47","category_name":"住宅区","address":"上海市浦东新区陆家嘴银城中路600弄1号（陆家嘴环路）"},{"poiid":"B2094757D069A4FB489E","title":"普京餐厅","lon":"121.50502014","lat":"31.234098434","category":"500","category_name":"未知分类","address":"上海正大广埸"},{"poiid":"B2094757D16AA1FF429E","title":"满记甜品","lon":"121.501566738","lat":"31.2345643925","category":"247","category_name":"餐饮美食","address":"上海市浦东新区陆家嘴西路"},{"poiid":"B2094757D069A3F4419C","title":"港泰风茶餐厅","lon":"121.50589822","lat":"31.230998536","category":"72","category_name":"广东菜","address":"浦东新区东昌路540号(近浦东南路)"},{"poiid":"B2094757D065A7F9469C","title":"花旗大厦花旗银行","lon":"121.50367547","lat":"31.231474696","category":"500","category_name":"未知分类","address":"上海市"},{"poiid":"B2094655D36CA6FF4198","title":"富城路东昌路(渡口)","lon":"121.50296","lat":"31.23103","category":"38","category_name":"公交车站","address":""},{"poiid":"B2094750DA68A5F4449D","title":"金贸君悦大酒店","lon":"121.502555","lat":"31.234514","category":"500","category_name":"未知分类","address":null},{"poiid":"B2094757D16EA5FA4293","title":"安薇塔","lon":"121.502328738","lat":"31.2342943867","category":"500","category_name":"未知分类","address":"上海市 国金中心 LG2"},{"poiid":"B2094757D064A7F4449D","title":"葡丽蛋挞工坊","lon":"121.50174227","lat":"31.230888794","category":"67","category_name":"甜品店","address":"浦东新区世纪大道8号国金中心商场LG2-10号商铺(近东泰路)"},{"poiid":"B2094654DB65A4FE4693","title":"轮渡广场","lon":"121.50301","lat":"31.23069","category":"201","category_name":"城市广场","address":""},{"poiid":"B2094757D168A4FD4592","title":"船长2号","lon":"121.50327773","lat":"31.23165333","category":"247","category_name":"餐饮美食","address":"黄浦区延安东路外滩船长号游轮码头(中山东二路中山东一路)"},{"poiid":"B2094753DA6BA0F8469F","title":"MIZZI CAFE","lon":"121.500015","lat":"31.234008","category":"500","category_name":"未知分类","address":"上海市 富城路182号"},{"poiid":"B2094654DA6EA4FC489D","title":"埃力生国际大厦","lon":"121.502","lat":"31.2333","category":"46","category_name":"楼宇","address":"上海市黄浦区南京东路409-459号"},{"poiid":"B2094655D36DA6FF449E","title":"东昌路","lon":"121.50382","lat":"31.23039","category":"38","category_name":"公交车站","address":""},{"poiid":"B2094654DA6FA7FF4699","title":"海龙海鲜舫","lon":"121.50199","lat":"31.23107","category":"72","category_name":"广东菜","address":"浦东新区东昌路1号(近富城路拾步街)"},{"poiid":"B2094757D068A3FC499B","title":"天泰餐厅(国金店)","lon":"121.502658488","lat":"31.2353811506","category":"99","category_name":"泰国／越南菜品餐厅","address":"浦东新区世纪大道8号国金中心4楼(近浦东大道)"},{"poiid":"B2094757D06FA2FC499B","title":"唐朝酒店(未来店)","lon":"121.50054","lat":"31.23481","category":"72","category_name":"广东菜","address":"浦东新区陆家嘴环路166号未来资产大厦2-3楼(近香格里拉大酒店)"},{"poiid":"B209475CD564A7F84292","title":"上海滩新天地店","lon":"121.47463","lat":"31.22164","category":"119","category_name":"商场","address":"\"太仓路181弄新天地北里15号\r\n\""},{"poiid":"B209475CD564A7F84392","title":"上海滩浦东香格里拉店","lon":"121.50058","lat":"31.23634","category":"119","category_name":"商场","address":"浦东富成路33号香格里拉酒店内大堂层"},{"poiid":"B2094757D06FA1FA4399","title":"外滩游艇会","lon":"121.50381","lat":"31.23071","category":"260","category_name":"其他","address":"浦东新区滨江大道3510号(近东昌路渡口)"},{"poiid":"B2094750D26BAAFD439C","title":"正大广场陆家嘴西路168号","lon":"121.501686","lat":"31.234832","category":"249","category_name":"购物服务","address":"正大广场陆家嘴西路168号"},{"poiid":"B2094757D06FA7FC4598","title":"东昌路轮渡站","lon":"121.50315135","lat":"31.230164847","category":"35","category_name":"长途汽车站","address":"上海浦东新区东昌路1号"},{"poiid":"B2094757D06FA0FE479A","title":"汤臣一品","lon":"121.50127","lat":"31.233383","category":"47","category_name":"住宅区","address":"朝阳区东四环慈云寺桥东北角,向东400米路南"},{"poiid":"B2094757D068ABFD489C","title":"Kaefer滨江壹号","lon":"121.50282273","lat":"31.232060339","category":"47","category_name":"住宅区","address":"浦东新区滨江大道富城路拾步街由隆花园(近花园石桥路)"},{"poiid":"B2094654DA6EABFF439B","title":"久事大厦","lon":"121.507","lat":"31.2307","category":"46","category_name":"楼宇","address":"上海市黄浦区中山南路28号"},{"poiid":"B2094757D16AA3FA449F","title":"紅磡體育館","lon":"121.50024373","lat":"31.234377388","category":"500","category_name":"未知分类","address":"香港尖沙咀東紅磡體育館"},{"poiid":"B2094750D569ABF4429A","title":"蒗葶泰式酒吧餐厅","lon":"121.501908","lat":"31.234731","category":"172","category_name":"酒吧","address":"世纪大道100号环球金融中心301室"},{"poiid":"B2094757D165A7F54999","title":"花旗银行大厦","lon":"121.500979701","lat":"31.2332134973","category":"46","category_name":"楼宇","address":"上海浦东新区花园石桥路33号"},{"poiid":"B2094751DA64A4FF489F","title":"炉边谈情","lon":"121.5009","lat":"31.234146","category":"247","category_name":"餐饮美食","address":"正大广场六楼"},{"poiid":"B2094757D06FA6FC4993","title":"晶浦会","lon":"121.49999","lat":"31.23362","category":"72","category_name":"广东菜","address":"上海浦东新区花园石桥路33号花旗集团大厦4楼(近富城路)  "},{"poiid":"B2094654DA69A7FB4792","title":"拉图餐厅 La Tour","lon":"121.50515","lat":"31.23502","category":"94","category_name":"西餐厅","address":"浦东新区世纪大道88号金茂大厦裙楼5楼(近二号线陆家嘴站)"},{"poiid":"B2094757D068A7F8459A","title":"仁恒滨江园(Yanlord Garden)","lon":"121.50641632","lat":"31.228860855","category":"47","category_name":"住宅区","address":"上海浦东新区浦明路99弄(近商城路)"},{"poiid":"B2094757D06AAAF9489E","title":"宏豪浦江一号","lon":"121.504989","lat":"31.228434","category":"72","category_name":"广东菜","address":"浦东新区滨江大道3788号(近商城路)"},{"poiid":"B2094655D36CA7FD4293","title":"花园石桥路陆家嘴环路(正大广场)","lon":"121.50115","lat":"31.23482","category":"38","category_name":"公交车站","address":""},{"poiid":"B2094750D66CAAFD4092","title":"vini angeli","lon":"121.500816","lat":"31.235115","category":"94","category_name":"西餐厅","address":"浦东新区陆家嘴西路168号正大广场8楼(近东方明珠)"},{"poiid":"B2094757D06AA1FC409E","title":"上海国金中心二期写字楼","lon":"121.502999494","lat":"31.2355211523","category":"46","category_name":"楼宇","address":"上海浦东新区世纪大道8号(近陆家嘴环路)"},{"poiid":"B2094757D068A6F4499F","title":"君悦轩(花园石桥店)","lon":"121.50239","lat":"31.23334","category":"72","category_name":"广东菜","address":"浦东新区花园石桥路66号东亚银行金融大厦3楼(近陆家嘴环路)"},{"poiid":"B2094757D16CA2F9439C","title":"浦之舟会所","lon":"121.503476638","lat":"31.2286266659","category":"500","category_name":"未知分类","address":"上海陆家嘴滨江大道3688号"},{"poiid":"B2094757D468ABF54699","title":"星巴克 花旗大厦店 Starbucks Cafe","lon":"121.500050054","lat":"31.234238793","category":"65","category_name":"咖啡厅","address":"浦东新区花园石桥路33号花旗集团大厦1楼(近富城路)"},{"poiid":"B2094757D16CAAFB489F","title":"浦东金贸君悦酒店","lon":"121.50241173","lat":"31.230401303","category":"217","category_name":"旅馆招待所","address":"上海市浦东新区富城路"},{"poiid":"B2094750D268A7F8449E","title":"滨江一号","lon":"121.501441","lat":"31.231658","category":"247","category_name":"餐饮美食","address":"浦东新区滨江一号滨江富城路拾步街由隆花园(近石桥路)"},{"poiid":"B2094757D66DA3F5479B","title":"HM","lon":"121.501574738","lat":"31.2351244044","category":"249","category_name":"购物服务","address":"上海正大广场店"},{"poiid":"B2094757D16BA4F54592","title":"STELLA LUNA(国金店)","lon":"121.501676738","lat":"31.2345953931","category":"500","category_name":"未知分类","address":"上海ifc国金商场"},{"poiid":"B2094750D669A4FA4799","title":"3D魔幻趣味馆","lon":"121.50164","lat":"31.235158","category":"248","category_name":"生活娱乐","address":"浦东新区滨江大道2789号外滩观光隧道B2楼"},{"poiid":"B2094757D06FA4F9449C","title":"轮渡线(东金线轮渡)","lon":"121.50343","lat":"31.22978","category":"260","category_name":"其他","address":"东昌路渡口－金陵东路渡口(滨江大道东昌路)"},{"poiid":"B2094655D36CA1FD429C","title":"十六铺","lon":"121.507","lat":"31.2305","category":"38","category_name":"公交车站","address":"中山东二路88弄"},{"poiid":"B2094757D065A7F9409F","title":"Pizzeria Alla Torre(陆家嘴店)","lon":"121.50102","lat":"31.23548","category":"94","category_name":"西餐厅","address":"上海浦东新区陆家嘴环路165号1楼(富城路名商路)"},{"poiid":"B2094757D06BA1FA459D","title":"上海中心","lon":"121.506470701","lat":"31.2333594809","category":"500","category_name":"未知分类","address":"上海银城中路501号"},{"poiid":"B2094757D66CA0FD479E","title":"松鹤楼游船码头","lon":"121.502754738","lat":"31.2317393323","category":"500","category_name":"未知分类","address":"上海中山东二路505号"},{"poiid":"B2094757D568A0FE499A","title":"Ben Sherman(正大广场)","lon":"121.5011139","lat":"31.23467667","category":"249","category_name":"购物服务","address":"陆家嘴环路168号正大广场1层novo内"},{"poiid":"B2094654DB6BABFC429E","title":"上海鹏利辉盛阁公寓(银城中路)","lon":"121.50334","lat":"31.23164","category":"47","category_name":"住宅区","address":"上海市浦东新区陆家嘴银城中路600弄1号（陆家嘴环路）"},{"poiid":"B2094757D069A4FB489E","title":"普京餐厅","lon":"121.50502014","lat":"31.234098434","category":"500","category_name":"未知分类","address":"上海正大广埸"},{"poiid":"B2094757D16AA1FF429E","title":"满记甜品","lon":"121.501566738","lat":"31.2345643925","category":"247","category_name":"餐饮美食","address":"上海市浦东新区陆家嘴西路"},{"poiid":"B2094757D069A3F4419C","title":"港泰风茶餐厅","lon":"121.50589822","lat":"31.230998536","category":"72","category_name":"广东菜","address":"浦东新区东昌路540号(近浦东南路)"},{"poiid":"B2094757D065A7F9469C","title":"花旗大厦花旗银行","lon":"121.50367547","lat":"31.231474696","category":"500","category_name":"未知分类","address":"上海市"},{"poiid":"B2094655D36CA6FF4198","title":"富城路东昌路(渡口)","lon":"121.50296","lat":"31.23103","category":"38","category_name":"公交车站","address":""},{"poiid":"B2094750DA68A5F4449D","title":"金贸君悦大酒店","lon":"121.502555","lat":"31.234514","category":"500","category_name":"未知分类","address":null},{"poiid":"B2094757D16EA5FA4293","title":"安薇塔","lon":"121.502328738","lat":"31.2342943867","category":"500","category_name":"未知分类","address":"上海市 国金中心 LG2"},{"poiid":"B2094757D064A7F4449D","title":"葡丽蛋挞工坊","lon":"121.50174227","lat":"31.230888794","category":"67","category_name":"甜品店","address":"浦东新区世纪大道8号国金中心商场LG2-10号商铺(近东泰路)"},{"poiid":"B2094654DB65A4FE4693","title":"轮渡广场","lon":"121.50301","lat":"31.23069","category":"201","category_name":"城市广场","address":""},{"poiid":"B2094757D168A4FD4592","title":"船长2号","lon":"121.50327773","lat":"31.23165333","category":"247","category_name":"餐饮美食","address":"黄浦区延安东路外滩船长号游轮码头(中山东二路中山东一路)"},{"poiid":"B2094753DA6BA0F8469F","title":"MIZZI CAFE","lon":"121.500015","lat":"31.234008","category":"500","category_name":"未知分类","address":"上海市 富城路182号"},{"poiid":"B2094654DA6EA4FC489D","title":"埃力生国际大厦","lon":"121.502","lat":"31.2333","category":"46","category_name":"楼宇","address":"上海市黄浦区南京东路409-459号"},{"poiid":"B2094655D36DA6FF449E","title":"东昌路","lon":"121.50382","lat":"31.23039","category":"38","category_name":"公交车站","address":""},{"poiid":"B2094654DA6FA7FF4699","title":"海龙海鲜舫","lon":"121.50199","lat":"31.23107","category":"72","category_name":"广东菜","address":"浦东新区东昌路1号(近富城路拾步街)"},{"poiid":"B2094757D068A3FC499B","title":"天泰餐厅(国金店)","lon":"121.502658488","lat":"31.2353811506","category":"99","category_name":"泰国／越南菜品餐厅","address":"浦东新区世纪大道8号国金中心4楼(近浦东大道)"},{"poiid":"B2094757D06FA2FC499B","title":"唐朝酒店(未来店)","lon":"121.50054","lat":"31.23481","category":"72","category_name":"广东菜","address":"浦东新区陆家嘴环路166号未来资产大厦2-3楼(近香格里拉大酒店)"},{"poiid":"B209475CD564A7F84292","title":"上海滩新天地店","lon":"121.47463","lat":"31.22164","category":"119","category_name":"商场","address":"\"太仓路181弄新天地北里15号\r\n\""},{"poiid":"B209475CD564A7F84392","title":"上海滩浦东香格里拉店","lon":"121.50058","lat":"31.23634","category":"119","category_name":"商场","address":"浦东富成路33号香格里拉酒店内大堂层"},{"poiid":"B2094757D06FA1FA4399","title":"外滩游艇会","lon":"121.50381","lat":"31.23071","category":"260","category_name":"其他","address":"浦东新区滨江大道3510号(近东昌路渡口)"},{"poiid":"B2094750D26BAAFD439C","title":"正大广场陆家嘴西路168号","lon":"121.501686","lat":"31.234832","category":"249","category_name":"购物服务","address":"正大广场陆家嘴西路168号"},{"poiid":"B2094757D06FA7FC4598","title":"东昌路轮渡站","lon":"121.50315135","lat":"31.230164847","category":"35","category_name":"长途汽车站","address":"上海浦东新区东昌路1号"},{"poiid":"B2094757D06FA0FE479A","title":"汤臣一品","lon":"121.50127","lat":"31.233383","category":"47","category_name":"住宅区","address":"朝阳区东四环慈云寺桥东北角,向东400米路南"},{"poiid":"B2094757D068ABFD489C","title":"Kaefer滨江壹号","lon":"121.50282273","lat":"31.232060339","category":"47","category_name":"住宅区","address":"浦东新区滨江大道富城路拾步街由隆花园(近花园石桥路)"},{"poiid":"B2094654DA6EABFF439B","title":"久事大厦","lon":"121.507","lat":"31.2307","category":"46","category_name":"楼宇","address":"上海市黄浦区中山南路28号"},{"poiid":"B2094757D16AA3FA449F","title":"紅磡體育館","lon":"121.50024373","lat":"31.234377388","category":"500","category_name":"未知分类","address":"香港尖沙咀東紅磡體育館"},{"poiid":"B2094750D569ABF4429A","title":"蒗葶泰式酒吧餐厅","lon":"121.501908","lat":"31.234731","category":"172","category_name":"酒吧","address":"世纪大道100号环球金融中心301室"},{"poiid":"B2094757D165A7F54999","title":"花旗银行大厦","lon":"121.500979701","lat":"31.2332134973","category":"46","category_name":"楼宇","address":"上海浦东新区花园石桥路33号"},{"poiid":"B2094751DA64A4FF489F","title":"炉边谈情","lon":"121.5009","lat":"31.234146","category":"247","category_name":"餐饮美食","address":"正大广场六楼"},{"poiid":"B2094757D06FA6FC4993","title":"晶浦会","lon":"121.49999","lat":"31.23362","category":"72","category_name":"广东菜","address":"上海浦东新区花园石桥路33号花旗集团大厦4楼(近富城路)  "},{"poiid":"B2094654DA69A7FB4792","title":"拉图餐厅 La Tour","lon":"121.50515","lat":"31.23502","category":"94","category_name":"西餐厅","address":"浦东新区世纪大道88号金茂大厦裙楼5楼(近二号线陆家嘴站)"},{"poiid":"B2094757D068A7F8459A","title":"仁恒滨江园(Yanlord Garden)","lon":"121.50641632","lat":"31.228860855","category":"47","category_name":"住宅区","address":"上海浦东新区浦明路99弄(近商城路)"},{"poiid":"B2094757D06AAAF9489E","title":"宏豪浦江一号","lon":"121.504989","lat":"31.228434","category":"72","category_name":"广东菜","address":"浦东新区滨江大道3788号(近商城路)"},{"poiid":"B2094655D36CA7FD4293","title":"花园石桥路陆家嘴环路(正大广场)","lon":"121.50115","lat":"31.23482","category":"38","category_name":"公交车站","address":""},{"poiid":"B2094750D66CAAFD4092","title":"vini angeli","lon":"121.500816","lat":"31.235115","category":"94","category_name":"西餐厅","address":"浦东新区陆家嘴西路168号正大广场8楼(近东方明珠)"},{"poiid":"B2094757D06AA1FC409E","title":"上海国金中心二期写字楼","lon":"121.502999494","lat":"31.2355211523","category":"46","category_name":"楼宇","address":"上海浦东新区世纪大道8号(近陆家嘴环路)"},{"poiid":"B2094757D068A6F4499F","title":"君悦轩(花园石桥店)","lon":"121.50239","lat":"31.23334","category":"72","category_name":"广东菜","address":"浦东新区花园石桥路66号东亚银行金融大厦3楼(近陆家嘴环路)"},{"poiid":"B2094757D16CA2F9439C","title":"浦之舟会所","lon":"121.503476638","lat":"31.2286266659","category":"500","category_name":"未知分类","address":"上海陆家嘴滨江大道3688号"},{"poiid":"B2094757D468ABF54699","title":"星巴克 花旗大厦店 Starbucks Cafe","lon":"121.500050054","lat":"31.234238793","category":"65","category_name":"咖啡厅","address":"浦东新区花园石桥路33号花旗集团大厦1楼(近富城路)"},{"poiid":"B2094757D16CAAFB489F","title":"浦东金贸君悦酒店","lon":"121.50241173","lat":"31.230401303","category":"217","category_name":"旅馆招待所","address":"上海市浦东新区富城路"},{"poiid":"B2094750D268A7F8449E","title":"滨江一号","lon":"121.501441","lat":"31.231658","category":"247","category_name":"餐饮美食","address":"浦东新区滨江一号滨江富城路拾步街由隆花园(近石桥路)"},{"poiid":"B2094757D66DA3F5479B","title":"HM","lon":"121.501574738","lat":"31.2351244044","category":"249","category_name":"购物服务","address":"上海正大广场店"},{"poiid":"B2094757D16BA4F54592","title":"STELLA LUNA(国金店)","lon":"121.501676738","lat":"31.2345953931","category":"500","category_name":"未知分类","address":"上海ifc国金商场"},{"poiid":"B2094750D669A4FA4799","title":"3D魔幻趣味馆","lon":"121.50164","lat":"31.235158","category":"248","category_name":"生活娱乐","address":"浦东新区滨江大道2789号外滩观光隧道B2楼"},{"poiid":"B2094757D06FA4F9449C","title":"轮渡线(东金线轮渡)","lon":"121.50343","lat":"31.22978","category":"260","category_name":"其他","address":"东昌路渡口－金陵东路渡口(滨江大道东昌路)"},{"poiid":"B2094655D36CA1FD429C","title":"十六铺","lon":"121.507","lat":"31.2305","category":"38","category_name":"公交车站","address":"中山东二路88弄"},{"poiid":"B2094757D065A7F9409F","title":"Pizzeria Alla Torre(陆家嘴店)","lon":"121.50102","lat":"31.23548","category":"94","category_name":"西餐厅","address":"上海浦东新区陆家嘴环路165号1楼(富城路名商路)"},{"poiid":"B2094757D06BA1FA459D","title":"上海中心","lon":"121.506470701","lat":"31.2333594809","category":"500","category_name":"未知分类","address":"上海银城中路501号"},{"poiid":"B2094757D66CA0FD479E","title":"松鹤楼游船码头","lon":"121.502754738","lat":"31.2317393323","category":"500","category_name":"未知分类","address":"上海中山东二路505号"},{"poiid":"B2094757D568A0FE499A","title":"Ben Sherman(正大广场)","lon":"121.5011139","lat":"31.23467667","category":"249","category_name":"购物服务","address":"陆家嘴环路168号正大广场1层novo内"},{"poiid":"B2094654DB6BABFC429E","title":"上海鹏利辉盛阁公寓(银城中路)","lon":"121.50334","lat":"31.23164","category":"47","category_name":"住宅区","address":"上海市浦东新区陆家嘴银城中路600弄1号（陆家嘴环路）"},{"poiid":"B2094757D069A4FB489E","title":"普京餐厅","lon":"121.50502014","lat":"31.234098434","category":"500","category_name":"未知分类","address":"上海正大广埸"},{"poiid":"B2094757D16AA1FF429E","title":"满记甜品","lon":"121.501566738","lat":"31.2345643925","category":"247","category_name":"餐饮美食","address":"上海市浦东新区陆家嘴西路"},{"poiid":"B2094757D069A3F4419C","title":"港泰风茶餐厅","lon":"121.50589822","lat":"31.230998536","category":"72","category_name":"广东菜","address":"浦东新区东昌路540号(近浦东南路)"},{"poiid":"B2094757D065A7F9469C","title":"花旗大厦花旗银行","lon":"121.50367547","lat":"31.231474696","category":"500","category_name":"未知分类","address":"上海市"},{"poiid":"B2094655D36CA6FF4198","title":"富城路东昌路(渡口)","lon":"121.50296","lat":"31.23103","category":"38","category_name":"公交车站","address":""},{"poiid":"B2094750DA68A5F4449D","title":"金贸君悦大酒店","lon":"121.502555","lat":"31.234514","category":"500","category_name":"未知分类","address":null},{"poiid":"B2094757D16EA5FA4293","title":"安薇塔","lon":"121.502328738","lat":"31.2342943867","category":"500","category_name":"未知分类","address":"上海市 国金中心 LG2"},{"poiid":"B2094757D064A7F4449D","title":"葡丽蛋挞工坊","lon":"121.50174227","lat":"31.230888794","category":"67","category_name":"甜品店","address":"浦东新区世纪大道8号国金中心商场LG2-10号商铺(近东泰路)"},{"poiid":"B2094654DB65A4FE4693","title":"轮渡广场","lon":"121.50301","lat":"31.23069","category":"201","category_name":"城市广场","address":""},{"poiid":"B2094757D168A4FD4592","title":"船长2号","lon":"121.50327773","lat":"31.23165333","category":"247","category_name":"餐饮美食","address":"黄浦区延安东路外滩船长号游轮码头(中山东二路中山东一路)"},{"poiid":"B2094753DA6BA0F8469F","title":"MIZZI CAFE","lon":"121.500015","lat":"31.234008","category":"500","category_name":"未知分类","address":"上海市 富城路182号"},{"poiid":"B2094654DA6EA4FC489D","title":"埃力生国际大厦","lon":"121.502","lat":"31.2333","category":"46","category_name":"楼宇","address":"上海市黄浦区南京东路409-459号"},{"poiid":"B2094655D36DA6FF449E","title":"东昌路","lon":"121.50382","lat":"31.23039","category":"38","category_name":"公交车站","address":""},{"poiid":"B2094654DA6FA7FF4699","title":"海龙海鲜舫","lon":"121.50199","lat":"31.23107","category":"72","category_name":"广东菜","address":"浦东新区东昌路1号(近富城路拾步街)"},{"poiid":"B2094757D068A3FC499B","title":"天泰餐厅(国金店)","lon":"121.502658488","lat":"31.2353811506","category":"99","category_name":"泰国／越南菜品餐厅","address":"浦东新区世纪大道8号国金中心4楼(近浦东大道)"},{"poiid":"B2094757D06FA2FC499B","title":"唐朝酒店(未来店)","lon":"121.50054","lat":"31.23481","category":"72","category_name":"广东菜","address":"浦东新区陆家嘴环路166号未来资产大厦2-3楼(近香格里拉大酒店)"},{"poiid":"B209475CD564A7F84292","title":"上海滩新天地店","lon":"121.47463","lat":"31.22164","category":"119","category_name":"商场","address":"\"太仓路181弄新天地北里15号\r\n\""},{"poiid":"B209475CD564A7F84392","title":"上海滩浦东香格里拉店","lon":"121.50058","lat":"31.23634","category":"119","category_name":"商场","address":"浦东富成路33号香格里拉酒店内大堂层"},{"poiid":"B2094757D06FA1FA4399","title":"外滩游艇会","lon":"121.50381","lat":"31.23071","category":"260","category_name":"其他","address":"浦东新区滨江大道3510号(近东昌路渡口)"},{"poiid":"B2094750D26BAAFD439C","title":"正大广场陆家嘴西路168号","lon":"121.501686","lat":"31.234832","category":"249","category_name":"购物服务","address":"正大广场陆家嘴西路168号"},{"poiid":"B2094757D06FA7FC4598","title":"东昌路轮渡站","lon":"121.50315135","lat":"31.230164847","category":"35","category_name":"长途汽车站","address":"上海浦东新区东昌路1号"},{"poiid":"B2094757D06FA0FE479A","title":"汤臣一品","lon":"121.50127","lat":"31.233383","category":"47","category_name":"住宅区","address":"朝阳区东四环慈云寺桥东北角,向东400米路南"},{"poiid":"B2094757D068ABFD489C","title":"Kaefer滨江壹号","lon":"121.50282273","lat":"31.232060339","category":"47","category_name":"住宅区","address":"浦东新区滨江大道富城路拾步街由隆花园(近花园石桥路)"},{"poiid":"B2094654DA6EABFF439B","title":"久事大厦","lon":"121.507","lat":"31.2307","category":"46","category_name":"楼宇","address":"上海市黄浦区中山南路28号"},{"poiid":"B2094757D16AA3FA449F","title":"紅磡體育館","lon":"121.50024373","lat":"31.234377388","category":"500","category_name":"未知分类","address":"香港尖沙咀東紅磡體育館"},{"poiid":"B2094750D569ABF4429A","title":"蒗葶泰式酒吧餐厅","lon":"121.501908","lat":"31.234731","category":"172","category_name":"酒吧","address":"世纪大道100号环球金融中心301室"},{"poiid":"B2094757D165A7F54999","title":"花旗银行大厦","lon":"121.500979701","lat":"31.2332134973","category":"46","category_name":"楼宇","address":"上海浦东新区花园石桥路33号"},{"poiid":"B2094751DA64A4FF489F","title":"炉边谈情","lon":"121.5009","lat":"31.234146","category":"247","category_name":"餐饮美食","address":"正大广场六楼"},{"poiid":"B2094757D06FA6FC4993","title":"晶浦会","lon":"121.49999","lat":"31.23362","category":"72","category_name":"广东菜","address":"上海浦东新区花园石桥路33号花旗集团大厦4楼(近富城路)  "},{"poiid":"B2094654DA69A7FB4792","title":"拉图餐厅 La Tour","lon":"121.50515","lat":"31.23502","category":"94","category_name":"西餐厅","address":"浦东新区世纪大道88号金茂大厦裙楼5楼(近二号线陆家嘴站)"},{"poiid":"B2094757D068A7F8459A","title":"仁恒滨江园(Yanlord Garden)","lon":"121.50641632","lat":"31.228860855","category":"47","category_name":"住宅区","address":"上海浦东新区浦明路99弄(近商城路)"},{"poiid":"B2094757D06AAAF9489E","title":"宏豪浦江一号","lon":"121.504989","lat":"31.228434","category":"72","category_name":"广东菜","address":"浦东新区滨江大道3788号(近商城路)"},{"poiid":"B2094655D36CA7FD4293","title":"花园石桥路陆家嘴环路(正大广场)","lon":"121.50115","lat":"31.23482","category":"38","category_name":"公交车站","address":""},{"poiid":"B2094750D66CAAFD4092","title":"vini angeli","lon":"121.500816","lat":"31.235115","category":"94","category_name":"西餐厅","address":"浦东新区陆家嘴西路168号正大广场8楼(近东方明珠)"},{"poiid":"B2094757D06AA1FC409E","title":"上海国金中心二期写字楼","lon":"121.502999494","lat":"31.2355211523","category":"46","category_name":"楼宇","address":"上海浦东新区世纪大道8号(近陆家嘴环路)"},{"poiid":"B2094757D068A6F4499F","title":"君悦轩(花园石桥店)","lon":"121.50239","lat":"31.23334","category":"72","category_name":"广东菜","address":"浦东新区花园石桥路66号东亚银行金融大厦3楼(近陆家嘴环路)"},{"poiid":"B2094757D16CA2F9439C","title":"浦之舟会所","lon":"121.503476638","lat":"31.2286266659","category":"500","category_name":"未知分类","address":"上海陆家嘴滨江大道3688号"},{"poiid":"B2094757D468ABF54699","title":"星巴克 花旗大厦店 Starbucks Cafe","lon":"121.500050054","lat":"31.234238793","category":"65","category_name":"咖啡厅","address":"浦东新区花园石桥路33号花旗集团大厦1楼(近富城路)"},{"poiid":"B2094757D16CAAFB489F","title":"浦东金贸君悦酒店","lon":"121.50241173","lat":"31.230401303","category":"217","category_name":"旅馆招待所","address":"上海市浦东新区富城路"},{"poiid":"B2094750D268A7F8449E","title":"滨江一号","lon":"121.501441","lat":"31.231658","category":"247","category_name":"餐饮美食","address":"浦东新区滨江一号滨江富城路拾步街由隆花园(近石桥路)"},{"poiid":"B2094757D66DA3F5479B","title":"HM","lon":"121.501574738","lat":"31.2351244044","category":"249","category_name":"购物服务","address":"上海正大广场店"},{"poiid":"B2094757D16BA4F54592","title":"STELLA LUNA(国金店)","lon":"121.501676738","lat":"31.2345953931","category":"500","category_name":"未知分类","address":"上海ifc国金商场"},{"poiid":"B2094750D669A4FA4799","title":"3D魔幻趣味馆","lon":"121.50164","lat":"31.235158","category":"248","category_name":"生活娱乐","address":"浦东新区滨江大道2789号外滩观光隧道B2楼"},{"poiid":"B2094757D06FA4F9449C","title":"轮渡线(东金线轮渡)","lon":"121.50343","lat":"31.22978","category":"260","category_name":"其他","address":"东昌路渡口－金陵东路渡口(滨江大道东昌路)"},{"poiid":"B2094655D36CA1FD429C","title":"十六铺","lon":"121.507","lat":"31.2305","category":"38","category_name":"公交车站","address":"中山东二路88弄"},{"poiid":"B2094757D065A7F9409F","title":"Pizzeria Alla Torre(陆家嘴店)","lon":"121.50102","lat":"31.23548","category":"94","category_name":"西餐厅","address":"上海浦东新区陆家嘴环路165号1楼(富城路名商路)"},{"poiid":"B2094757D06BA1FA459D","title":"上海中心","lon":"121.506470701","lat":"31.2333594809","category":"500","category_name":"未知分类","address":"上海银城中路501号"},{"poiid":"B2094757D66CA0FD479E","title":"松鹤楼游船码头","lon":"121.502754738","lat":"31.2317393323","category":"500","category_name":"未知分类","address":"上海中山东二路505号"},{"poiid":"B2094757D568A0FE499A","title":"Ben Sherman(正大广场)","lon":"121.5011139","lat":"31.23467667","category":"249","category_name":"购物服务","address":"陆家嘴环路168号正大广场1层novo内"},{"poiid":"B2094654DB6BABFC429E","title":"上海鹏利辉盛阁公寓(银城中路)","lon":"121.50334","lat":"31.23164","category":"47","category_name":"住宅区","address":"上海市浦东新区陆家嘴银城中路600弄1号（陆家嘴环路）"},{"poiid":"B2094757D069A4FB489E","title":"普京餐厅","lon":"121.50502014","lat":"31.234098434","category":"500","category_name":"未知分类","address":"上海正大广埸"},{"poiid":"B2094757D16AA1FF429E","title":"满记甜品","lon":"121.501566738","lat":"31.2345643925","category":"247","category_name":"餐饮美食","address":"上海市浦东新区陆家嘴西路"},{"poiid":"B2094757D069A3F4419C","title":"港泰风茶餐厅","lon":"121.50589822","lat":"31.230998536","category":"72","category_name":"广东菜","address":"浦东新区东昌路540号(近浦东南路)"},{"poiid":"B2094757D065A7F9469C","title":"花旗大厦花旗银行","lon":"121.50367547","lat":"31.231474696","category":"500","category_name":"未知分类","address":"上海市"},{"poiid":"B2094655D36CA6FF4198","title":"富城路东昌路(渡口)","lon":"121.50296","lat":"31.23103","category":"38","category_name":"公交车站","address":""},{"poiid":"B2094750DA68A5F4449D","title":"金贸君悦大酒店","lon":"121.502555","lat":"31.234514","category":"500","category_name":"未知分类","address":null},{"poiid":"B2094757D16EA5FA4293","title":"安薇塔","lon":"121.502328738","lat":"31.2342943867","category":"500","category_name":"未知分类","address":"上海市 国金中心 LG2"},{"poiid":"B2094757D064A7F4449D","title":"葡丽蛋挞工坊","lon":"121.50174227","lat":"31.230888794","category":"67","category_name":"甜品店","address":"浦东新区世纪大道8号国金中心商场LG2-10号商铺(近东泰路)"},{"poiid":"B2094654DB65A4FE4693","title":"轮渡广场","lon":"121.50301","lat":"31.23069","category":"201","category_name":"城市广场","address":""},{"poiid":"B2094757D168A4FD4592","title":"船长2号","lon":"121.50327773","lat":"31.23165333","category":"247","category_name":"餐饮美食","address":"黄浦区延安东路外滩船长号游轮码头(中山东二路中山东一路)"},{"poiid":"B2094753DA6BA0F8469F","title":"MIZZI CAFE","lon":"121.500015","lat":"31.234008","category":"500","category_name":"未知分类","address":"上海市 富城路182号"},{"poiid":"B2094654DA6EA4FC489D","title":"埃力生国际大厦","lon":"121.502","lat":"31.2333","category":"46","category_name":"楼宇","address":"上海市黄浦区南京东路409-459号"},{"poiid":"B2094655D36DA6FF449E","title":"东昌路","lon":"121.50382","lat":"31.23039","category":"38","category_name":"公交车站","address":""},{"poiid":"B2094654DA6FA7FF4699","title":"海龙海鲜舫","lon":"121.50199","lat":"31.23107","category":"72","category_name":"广东菜","address":"浦东新区东昌路1号(近富城路拾步街)"},{"poiid":"B2094757D068A3FC499B","title":"天泰餐厅(国金店)","lon":"121.502658488","lat":"31.2353811506","category":"99","category_name":"泰国／越南菜品餐厅","address":"浦东新区世纪大道8号国金中心4楼(近浦东大道)"},{"poiid":"B2094757D06FA2FC499B","title":"唐朝酒店(未来店)","lon":"121.50054","lat":"31.23481","category":"72","category_name":"广东菜","address":"浦东新区陆家嘴环路166号未来资产大厦2-3楼(近香格里拉大酒店)"},{"poiid":"B209475CD564A7F84292","title":"上海滩新天地店","lon":"121.47463","lat":"31.22164","category":"119","category_name":"商场","address":"\"太仓路181弄新天地北里15号\r\n\""},{"poiid":"B209475CD564A7F84392","title":"上海滩浦东香格里拉店","lon":"121.50058","lat":"31.23634","category":"119","category_name":"商场","address":"浦东富成路33号香格里拉酒店内大堂层"},{"poiid":"B2094757D06FA1FA4399","title":"外滩游艇会","lon":"121.50381","lat":"31.23071","category":"260","category_name":"其他","address":"浦东新区滨江大道3510号(近东昌路渡口)"},{"poiid":"B2094750D26BAAFD439C","title":"正大广场陆家嘴西路168号","lon":"121.501686","lat":"31.234832","category":"249","category_name":"购物服务","address":"正大广场陆家嘴西路168号"},{"poiid":"B2094757D06FA7FC4598","title":"东昌路轮渡站","lon":"121.50315135","lat":"31.230164847","category":"35","category_name":"长途汽车站","address":"上海浦东新区东昌路1号"},{"poiid":"B2094757D06FA0FE479A","title":"汤臣一品","lon":"121.50127","lat":"31.233383","category":"47","category_name":"住宅区","address":"朝阳区东四环慈云寺桥东北角,向东400米路南"},{"poiid":"B2094757D068ABFD489C","title":"Kaefer滨江壹号","lon":"121.50282273","lat":"31.232060339","category":"47","category_name":"住宅区","address":"浦东新区滨江大道富城路拾步街由隆花园(近花园石桥路)"},{"poiid":"B2094654DA6EABFF439B","title":"久事大厦","lon":"121.507","lat":"31.2307","category":"46","category_name":"楼宇","address":"上海市黄浦区中山南路28号"},{"poiid":"B2094757D16AA3FA449F","title":"紅磡體育館","lon":"121.50024373","lat":"31.234377388","category":"500","category_name":"未知分类","address":"香港尖沙咀東紅磡體育館"},{"poiid":"B2094750D569ABF4429A","title":"蒗葶泰式酒吧餐厅","lon":"121.501908","lat":"31.234731","category":"172","category_name":"酒吧","address":"世纪大道100号环球金融中心301室"},{"poiid":"B2094757D165A7F54999","title":"花旗银行大厦","lon":"121.500979701","lat":"31.2332134973","category":"46","category_name":"楼宇","address":"上海浦东新区花园石桥路33号"},{"poiid":"B2094751DA64A4FF489F","title":"炉边谈情","lon":"121.5009","lat":"31.234146","category":"247","category_name":"餐饮美食","address":"正大广场六楼"},{"poiid":"B2094757D06FA6FC4993","title":"晶浦会","lon":"121.49999","lat":"31.23362","category":"72","category_name":"广东菜","address":"上海浦东新区花园石桥路33号花旗集团大厦4楼(近富城路)  "},{"poiid":"B2094654DA69A7FB4792","title":"拉图餐厅 La Tour","lon":"121.50515","lat":"31.23502","category":"94","category_name":"西餐厅","address":"浦东新区世纪大道88号金茂大厦裙楼5楼(近二号线陆家嘴站)"},{"poiid":"B2094757D068A7F8459A","title":"仁恒滨江园(Yanlord Garden)","lon":"121.50641632","lat":"31.228860855","category":"47","category_name":"住宅区","address":"上海浦东新区浦明路99弄(近商城路)"},{"poiid":"B2094757D06AAAF9489E","title":"宏豪浦江一号","lon":"121.504989","lat":"31.228434","category":"72","category_name":"广东菜","address":"浦东新区滨江大道3788号(近商城路)"},{"poiid":"B2094655D36CA7FD4293","title":"花园石桥路陆家嘴环路(正大广场)","lon":"121.50115","lat":"31.23482","category":"38","category_name":"公交车站","address":""},{"poiid":"B2094750D66CAAFD4092","title":"vini angeli","lon":"121.500816","lat":"31.235115","category":"94","category_name":"西餐厅","address":"浦东新区陆家嘴西路168号正大广场8楼(近东方明珠)"},{"poiid":"B2094757D06AA1FC409E","title":"上海国金中心二期写字楼","lon":"121.502999494","lat":"31.2355211523","category":"46","category_name":"楼宇","address":"上海浦东新区世纪大道8号(近陆家嘴环路)"},{"poiid":"B2094757D068A6F4499F","title":"君悦轩(花园石桥店)","lon":"121.50239","lat":"31.23334","category":"72","category_name":"广东菜","address":"浦东新区花园石桥路66号东亚银行金融大厦3楼(近陆家嘴环路)"},{"poiid":"B2094757D16CA2F9439C","title":"浦之舟会所","lon":"121.503476638","lat":"31.2286266659","category":"500","category_name":"未知分类","address":"上海陆家嘴滨江大道3688号"},{"poiid":"B2094757D468ABF54699","title":"星巴克 花旗大厦店 Starbucks Cafe","lon":"121.500050054","lat":"31.234238793","category":"65","category_name":"咖啡厅","address":"浦东新区花园石桥路33号花旗集团大厦1楼(近富城路)"},{"poiid":"B2094757D16CAAFB489F","title":"浦东金贸君悦酒店","lon":"121.50241173","lat":"31.230401303","category":"217","category_name":"旅馆招待所","address":"上海市浦东新区富城路"},{"poiid":"B2094750D268A7F8449E","title":"滨江一号","lon":"121.501441","lat":"31.231658","category":"247","category_name":"餐饮美食","address":"浦东新区滨江一号滨江富城路拾步街由隆花园(近石桥路)"},{"poiid":"B2094757D66DA3F5479B","title":"HM","lon":"121.501574738","lat":"31.2351244044","category":"249","category_name":"购物服务","address":"上海正大广场店"},{"poiid":"B2094757D16BA4F54592","title":"STELLA LUNA(国金店)","lon":"121.501676738","lat":"31.2345953931","category":"500","category_name":"未知分类","address":"上海ifc国金商场"},{"poiid":"B2094750D669A4FA4799","title":"3D魔幻趣味馆","lon":"121.50164","lat":"31.235158","category":"248","category_name":"生活娱乐","address":"浦东新区滨江大道2789号外滩观光隧道B2楼"},{"poiid":"B2094757D06FA4F9449C","title":"轮渡线(东金线轮渡)","lon":"121.50343","lat":"31.22978","category":"260","category_name":"其他","address":"东昌路渡口－金陵东路渡口(滨江大道东昌路)"},{"poiid":"B2094655D36CA1FD429C","title":"十六铺","lon":"121.507","lat":"31.2305","category":"38","category_name":"公交车站","address":"中山东二路88弄"},{"poiid":"B2094757D065A7F9409F","title":"Pizzeria Alla Torre(陆家嘴店)","lon":"121.50102","lat":"31.23548","category":"94","category_name":"西餐厅","address":"上海浦东新区陆家嘴环路165号1楼(富城路名商路)"},{"poiid":"B2094757D06BA1FA459D","title":"上海中心","lon":"121.506470701","lat":"31.2333594809","category":"500","category_name":"未知分类","address":"上海银城中路501号"},{"poiid":"B2094757D66CA0FD479E","title":"松鹤楼游船码头","lon":"121.502754738","lat":"31.2317393323","category":"500","category_name":"未知分类","address":"上海中山东二路505号"},{"poiid":"B2094757D568A0FE499A","title":"Ben Sherman(正大广场)","lon":"121.5011139","lat":"31.23467667","category":"249","category_name":"购物服务","address":"陆家嘴环路168号正大广场1层novo内"},{"poiid":"B2094654DB6BABFC429E","title":"上海鹏利辉盛阁公寓(银城中路)","lon":"121.50334","lat":"31.23164","category":"47","category_name":"住宅区","address":"上海市浦东新区陆家嘴银城中路600弄1号（陆家嘴环路）"},{"poiid":"B2094757D069A4FB489E","title":"普京餐厅","lon":"121.50502014","lat":"31.234098434","category":"500","category_name":"未知分类","address":"上海正大广埸"},{"poiid":"B2094757D16AA1FF429E","title":"满记甜品","lon":"121.501566738","lat":"31.2345643925","category":"247","category_name":"餐饮美食","address":"上海市浦东新区陆家嘴西路"},{"poiid":"B2094757D069A3F4419C","title":"港泰风茶餐厅","lon":"121.50589822","lat":"31.230998536","category":"72","category_name":"广东菜","address":"浦东新区东昌路540号(近浦东南路)"},{"poiid":"B2094757D065A7F9469C","title":"花旗大厦花旗银行","lon":"121.50367547","lat":"31.231474696","category":"500","category_name":"未知分类","address":"上海市"},{"poiid":"B2094655D36CA6FF4198","title":"富城路东昌路(渡口)","lon":"121.50296","lat":"31.23103","category":"38","category_name":"公交车站","address":""},{"poiid":"B2094750DA68A5F4449D","title":"金贸君悦大酒店","lon":"121.502555","lat":"31.234514","category":"500","category_name":"未知分类","address":null},{"poiid":"B2094757D16EA5FA4293","title":"安薇塔","lon":"121.502328738","lat":"31.2342943867","category":"500","category_name":"未知分类","address":"上海市 国金中心 LG2"},{"poiid":"B2094757D064A7F4449D","title":"葡丽蛋挞工坊","lon":"121.50174227","lat":"31.230888794","category":"67","category_name":"甜品店","address":"浦东新区世纪大道8号国金中心商场LG2-10号商铺(近东泰路)"},{"poiid":"B2094654DB65A4FE4693","title":"轮渡广场","lon":"121.50301","lat":"31.23069","category":"201","category_name":"城市广场","address":""},{"poiid":"B2094757D168A4FD4592","title":"船长2号","lon":"121.50327773","lat":"31.23165333","category":"247","category_name":"餐饮美食","address":"黄浦区延安东路外滩船长号游轮码头(中山东二路中山东一路)"},{"poiid":"B2094753DA6BA0F8469F","title":"MIZZI CAFE","lon":"121.500015","lat":"31.234008","category":"500","category_name":"未知分类","address":"上海市 富城路182号"},{"poiid":"B2094654DA6EA4FC489D","title":"埃力生国际大厦","lon":"121.502","lat":"31.2333","category":"46","category_name":"楼宇","address":"上海市黄浦区南京东路409-459号"},{"poiid":"B2094655D36DA6FF449E","title":"东昌路","lon":"121.50382","lat":"31.23039","category":"38","category_name":"公交车站","address":""}]