[{"poiid":"B2094654DA68A3FD419B","title":"佳家汤包 黄河店","lon":"121.47105017344","lat":"31.233958297842","category":"68","category_name":"快餐厅","address":"黄浦区黄河路90号(近凤阳路)"},{"poiid":"B2094655D36CA2FC439A","title":"雅居乐国际广场","lon":"121.47251","lat":"31.23629","category":"46","category_name":"楼宇","address":"黄浦区西藏中路525号(近凤阳路)"},{"poiid":"B2094757D06AA2FA4992","title":"黄河路","lon":"121.470752","lat":"31.236218","category":"500","category_name":"未知分类","address":"上海黄河路北京西路路口"},{"poiid":"B2094753D76FAAFA449C","title":"上海滩国泰旗舰店","lon":"121.466011","lat":"31.216125","category":"249","category_name":"购物服务","address":"淮海中路868号"},{"poiid":"B209475CD564A7F84292","title":"上海滩新天地店","lon":"121.47463","lat":"31.22164","category":"119","category_name":"商场","address":"\"太仓路181弄新天地北里15号\r\n\""},{"poiid":"B209475CD564A7F8439E","title":"上海滩中信泰富店","lon":"121.45602","lat":"31.22851","category":"119","category_name":"商场","address":"\"南京西路1168号中信泰富广场，店铺号221.\r\n\""},{"poiid":"B209475CD564A7F84392","title":"上海滩浦东香格里拉店","lon":"121.50058","lat":"31.23634","category":"119","category_name":"商场","address":"浦东富成路33号香格里拉酒店内大堂层"},{"poiid":"B2094757D06FA3F5439B","title":"香港仔码头茶餐厅(凤阳店)","lon":"121.47068","lat":"31.23366","category":"72","category_name":"广东菜","address":"黄浦区凤阳路280号(近黄河路)"},{"poiid":"B2094757D06FA3F94293","title":"悦来酒家","lon":"121.47086","lat":"31.23386","category":"76","category_name":"上海菜","address":"黄浦区黄河路81号(近凤阳路)"},{"poiid":"B2094654DA6FAAF54499","title":"苔圣园(黄浦店)","lon":"121.47105","lat":"31.23409","category":"76","category_name":"上海菜","address":"黄浦区黄河路50号(近凤阳路)"},{"poiid":"B2094655D269AAFC429C","title":"金门大酒店","lon":"121.47235","lat":"31.23405","category":"247","category_name":"餐饮美食","address":"南京西路108号金门大酒店8楼近西藏中路西北角"},{"poiid":"B2094752D06DA1FA4499","title":"新白鹿南东店","lon":"121.470271","lat":"31.236491","category":"247","category_name":"餐饮美食","address":"上海市南京东路800号东方商厦九楼"},{"poiid":"B2094752D265A3FE4892","title":"伊秀手握寿司","lon":"121.471898","lat":"31.236862","category":"247","category_name":"餐饮美食","address":"上海市黄浦区南京东路720号第一食品商厦4楼(近贵州路)"},{"poiid":"B2094757D06FA1F4489F","title":"黄河路美食街","lon":"121.47142","lat":"31.23348","category":"68","category_name":"快餐厅","address":"黄浦区黄河路(近新闸路)"},{"poiid":"B2094757D06FA5FF4098","title":"金八仙","lon":"121.47112","lat":"31.23428","category":"76","category_name":"上海菜","address":"上海黄浦区黄河路96-98号(近凤阳路)"},{"poiid":"B2094757D06FA7F9469B","title":"粤味馆(黃河路店)","lon":"121.47027","lat":"31.23506","category":"72","category_name":"广东菜","address":"黄浦区黄河路147号(近北京西路)"},{"poiid":"B2094757D06FA1F9479C","title":"国际饭店西饼屋(黄河路店)","lon":"121.471436532","lat":"31.233682045","category":"112","category_name":"糕饼店","address":"黄浦区黄河路28号国际饭店内"},{"poiid":"B2094751D56FA7FC4393","title":"吉朝 寿喜锅","lon":"121.47175","lat":"31.23349","category":"268","category_name":"自助","address":"黄浦区黄河路82号(近国际饭店)"},{"poiid":"B2094757D06FA4F84298","title":"许留山(新世界店)","lon":"121.47317173","lat":"31.235074403","category":"67","category_name":"甜品店","address":"黄浦区南京西路2-68号新世纪城12楼(近西藏中路)"},{"poiid":"B2094750D669A6F5409F","title":"新世界电影城","lon":"121.471672","lat":"31.236904","category":"178","category_name":"电影院","address":"南京西路2～68号新世界城12楼"},{"poiid":"B2094654DA68A3FD409C","title":"乾隆美食","lon":"121.4711458394","lat":"31.234298079704","category":"76","category_name":"上海菜","address":"黄浦区黄河路72-76号(凤阳路口)"},{"poiid":"B2094757D06EAAFB499D","title":"麦当劳(新世界店)","lon":"121.47294998","lat":"31.234666089","category":"68","category_name":"快餐厅","address":"黄浦区南京西路2-68号新世纪城B1楼(近西藏中路)"},{"poiid":"B2094654DA68A3FD4398","title":"香港仔码头靓汤馆","lon":"121.4703","lat":"31.23564","category":"72","category_name":"广东菜","address":"黄浦区黄河路158号(近北京西路)"},{"poiid":"B2094750D568A3FE4098","title":"星巴克(西藏中路二店)","lon":"121.47","lat":"31.2353","category":"260","category_name":"其他","address":"黄浦区西藏中路289号(近九江路)"},{"poiid":"B2094757D664A6F9459E","title":"沪上一家辣肉面馆 黄河路店","lon":"121.470459054","lat":"31.235120793","category":"68","category_name":"快餐厅","address":"黄浦区黄河路142号(近牯岭路)"},{"poiid":"B2094654DB64A7F9419C","title":"大富豪 黄浦店","lon":"121.46970399676","lat":"31.235602779757","category":"76","category_name":"上海菜","address":"虹口区山西北路388号(近河南北路)"},{"poiid":"B2094654DA68A3FD4593","title":"半岛酒楼(黄河路)","lon":"121.47071","lat":"31.23435","category":"76","category_name":"上海菜","address":"黄浦区黄河路95号(近凤阳路)"},{"poiid":"B2094757D56CA0F4469B","title":"燕云楼 南京店","lon":"121.47063371349","lat":"31.236846725643","category":"247","category_name":"餐饮美食","address":"南京东路755号8-9楼"},{"poiid":"B2094750DB65A7F84993","title":"几分甜黄河店","lon":"121.472358","lat":"31.234579","category":"112","category_name":"糕饼店","address":"黄浦区黄河路37号(近凤阳路)"},{"poiid":"B2094750D664ABFD409A","title":"功德林素食餐厅","lon":"121.471","lat":"31.2335","category":"89","category_name":"中式素餐馆","address":"黄浦区黄河路21号鸿祥大厦1楼"},{"poiid":"B2094654DA6FAAF5429E","title":"上海市格致初级中学","lon":"121.47212","lat":"31.23566","category":"55","category_name":"中学","address":"黄浦区长沙路35号(近北京西路)"},{"poiid":"B2094750D565A6F9489E","title":"雅乐居万豪","lon":"121.471992","lat":"31.234666","category":"247","category_name":"餐饮美食","address":"西藏中路555号"},{"poiid":"B2094752D069A0FF4993","title":"耶里夏丽新疆餐厅（南京东路店）","lon":"121.471674","lat":"31.23686","category":"247","category_name":"餐饮美食","address":"南京东路819号百联世茂国际广场7楼"},{"poiid":"B2094757D069A6F94492","title":"月星苏州羊肉面馆","lon":"121.46972985789","lat":"31.236689665784","category":"68","category_name":"快餐厅","address":"黄浦区黄河路207号(近北京西路)"},{"poiid":"B2094654DA68A3FA4799","title":"新加坡泰国村鱼翅 黄浦店","lon":"121.47261142731","lat":"31.236839052649","category":"72","category_name":"广东菜","address":"黄浦区北京西路61号新金桥广场(近西藏中路)"},{"poiid":"B2094757D66DA6F94798","title":"瑞美体检","lon":"121.471805738","lat":"31.2343413877","category":"500","category_name":"未知分类","address":"黄浦区新昌路80号智富广场5楼(近南京西路)"},{"poiid":"B2094655D265A0F8459D","title":"老克勒","lon":"121.471","lat":"31.23423","category":"86","category_name":"火锅店","address":"黄河路82"},{"poiid":"B2094750DA6FA0FE469C","title":"外灘","lon":"121.471649","lat":"31.234191","category":"500","category_name":"未知分类","address":"外灘"},{"poiid":"B2094655D26DA3FF409E","title":"上海馨乐庭金桥服务公寓","lon":"121.47241","lat":"31.23686","category":"250","category_name":"公园户外","address":"黄浦区北京西路55号(牯岭路西藏中路)"},{"poiid":"B2094750DB6AA3F54999","title":"人民大舞台","lon":"121.4705","lat":"31.23635","category":"500","category_name":"未知分类","address":null},{"poiid":"B2094757D068A1FE409A","title":"超级鸡车 黄河路店 Super Gcar","lon":"121.470598","lat":"31.234792","category":"68","category_name":"快餐厅","address":"黄浦区黄河路108号(近北京西路)"},{"poiid":"B2094750D16BA5F8499A","title":"星巴克（百联世贸店）","lon":"121.470243","lat":"31.236355","category":"247","category_name":"餐饮美食","address":"南京东路819号（近西藏中路）"},{"poiid":"B2094757D069AAFC439D","title":"蜀千鸡公煲","lon":"121.47117","lat":"31.23415","category":"71","category_name":"四川菜","address":"黄浦区黄河路84号(近凤阳路)"},{"poiid":"B2094757D069A6F9479A","title":"兴泰小吃","lon":"121.470393","lat":"31.235161","category":"76","category_name":"上海菜","address":"黄浦区黄河路137号(定兴路黄河路)"},{"poiid":"B2094757D069A3F4439E","title":"永顺和苏州汤包馆(黄河路店)","lon":"121.470466","lat":"31.234799","category":"68","category_name":"快餐厅","address":"黄浦区黄河路111号(定兴路黄河路)"},{"poiid":"B2094753DB65ABF5479E","title":"小杨生煎","lon":"121.472236","lat":"31.23454","category":"247","category_name":"餐饮美食","address":"上海市 上海市黄浦区黄河路97号"},{"poiid":"B2094752D66FAAF8479B","title":"耶里夏利","lon":"121.470243","lat":"31.236355","category":"163","category_name":"4S店","address":"南京东路819号百联世茂7楼(近西藏中路)"},{"poiid":"B2094654DA68A3FD469C","title":"体育大厦","lon":"121.47194","lat":"31.23369","category":"46","category_name":"楼宇","address":"黄浦区南京西路150号(近人民广场地铁站)"},{"poiid":"B2094757D16EA3F5499E","title":"包旺锅贴黄河路店","lon":"121.46999043","lat":"31.235496912","category":"68","category_name":"快餐厅","address":"黄浦区黄河路120号(近北京西路)"},{"poiid":"B2094654DA68A3FD4698","title":"黄腾酒家","lon":"121.47060436151","lat":"31.234015382097","category":"76","category_name":"上海菜","address":"黄浦区黄河路69-73号(近凤阳路)"},{"poiid":"B2094654DA68A3FD419B","title":"佳家汤包 黄河店","lon":"121.47105017344","lat":"31.233958297842","category":"68","category_name":"快餐厅","address":"黄浦区黄河路90号(近凤阳路)"},{"poiid":"B2094655D36CA2FC439A","title":"雅居乐国际广场","lon":"121.47251","lat":"31.23629","category":"46","category_name":"楼宇","address":"黄浦区西藏中路525号(近凤阳路)"},{"poiid":"B2094757D06AA2FA4992","title":"黄河路","lon":"121.470752","lat":"31.236218","category":"500","category_name":"未知分类","address":"上海黄河路北京西路路口"},{"poiid":"B2094753D76FAAFA449C","title":"上海滩国泰旗舰店","lon":"121.466011","lat":"31.216125","category":"249","category_name":"购物服务","address":"淮海中路868号"},{"poiid":"B209475CD564A7F84292","title":"上海滩新天地店","lon":"121.47463","lat":"31.22164","category":"119","category_name":"商场","address":"\"太仓路181弄新天地北里15号\r\n\""},{"poiid":"B209475CD564A7F8439E","title":"上海滩中信泰富店","lon":"121.45602","lat":"31.22851","category":"119","category_name":"商场","address":"\"南京西路1168号中信泰富广场，店铺号221.\r\n\""},{"poiid":"B209475CD564A7F84392","title":"上海滩浦东香格里拉店","lon":"121.50058","lat":"31.23634","category":"119","category_name":"商场","address":"浦东富成路33号香格里拉酒店内大堂层"},{"poiid":"B2094757D06FA3F5439B","title":"香港仔码头茶餐厅(凤阳店)","lon":"121.47068","lat":"31.23366","category":"72","category_name":"广东菜","address":"黄浦区凤阳路280号(近黄河路)"},{"poiid":"B2094757D06FA3F94293","title":"悦来酒家","lon":"121.47086","lat":"31.23386","category":"76","category_name":"上海菜","address":"黄浦区黄河路81号(近凤阳路)"},{"poiid":"B2094654DA6FAAF54499","title":"苔圣园(黄浦店)","lon":"121.47105","lat":"31.23409","category":"76","category_name":"上海菜","address":"黄浦区黄河路50号(近凤阳路)"},{"poiid":"B2094655D269AAFC429C","title":"金门大酒店","lon":"121.47235","lat":"31.23405","category":"247","category_name":"餐饮美食","address":"南京西路108号金门大酒店8楼近西藏中路西北角"},{"poiid":"B2094752D06DA1FA4499","title":"新白鹿南东店","lon":"121.470271","lat":"31.236491","category":"247","category_name":"餐饮美食","address":"上海市南京东路800号东方商厦九楼"},{"poiid":"B2094752D265A3FE4892","title":"伊秀手握寿司","lon":"121.471898","lat":"31.236862","category":"247","category_name":"餐饮美食","address":"上海市黄浦区南京东路720号第一食品商厦4楼(近贵州路)"},{"poiid":"B2094757D06FA1F4489F","title":"黄河路美食街","lon":"121.47142","lat":"31.23348","category":"68","category_name":"快餐厅","address":"黄浦区黄河路(近新闸路)"},{"poiid":"B2094757D06FA5FF4098","title":"金八仙","lon":"121.47112","lat":"31.23428","category":"76","category_name":"上海菜","address":"上海黄浦区黄河路96-98号(近凤阳路)"},{"poiid":"B2094757D06FA7F9469B","title":"粤味馆(黃河路店)","lon":"121.47027","lat":"31.23506","category":"72","category_name":"广东菜","address":"黄浦区黄河路147号(近北京西路)"},{"poiid":"B2094757D06FA1F9479C","title":"国际饭店西饼屋(黄河路店)","lon":"121.471436532","lat":"31.233682045","category":"112","category_name":"糕饼店","address":"黄浦区黄河路28号国际饭店内"},{"poiid":"B2094751D56FA7FC4393","title":"吉朝 寿喜锅","lon":"121.47175","lat":"31.23349","category":"268","category_name":"自助","address":"黄浦区黄河路82号(近国际饭店)"},{"poiid":"B2094757D06FA4F84298","title":"许留山(新世界店)","lon":"121.47317173","lat":"31.235074403","category":"67","category_name":"甜品店","address":"黄浦区南京西路2-68号新世纪城12楼(近西藏中路)"},{"poiid":"B2094750D669A6F5409F","title":"新世界电影城","lon":"121.471672","lat":"31.236904","category":"178","category_name":"电影院","address":"南京西路2～68号新世界城12楼"},{"poiid":"B2094654DA68A3FD409C","title":"乾隆美食","lon":"121.4711458394","lat":"31.234298079704","category":"76","category_name":"上海菜","address":"黄浦区黄河路72-76号(凤阳路口)"},{"poiid":"B2094757D06EAAFB499D","title":"麦当劳(新世界店)","lon":"121.47294998","lat":"31.234666089","category":"68","category_name":"快餐厅","address":"黄浦区南京西路2-68号新世纪城B1楼(近西藏中路)"},{"poiid":"B2094654DA68A3FD4398","title":"香港仔码头靓汤馆","lon":"121.4703","lat":"31.23564","category":"72","category_name":"广东菜","address":"黄浦区黄河路158号(近北京西路)"},{"poiid":"B2094750D568A3FE4098","title":"星巴克(西藏中路二店)","lon":"121.47","lat":"31.2353","category":"260","category_name":"其他","address":"黄浦区西藏中路289号(近九江路)"},{"poiid":"B2094757D664A6F9459E","title":"沪上一家辣肉面馆 黄河路店","lon":"121.470459054","lat":"31.235120793","category":"68","category_name":"快餐厅","address":"黄浦区黄河路142号(近牯岭路)"},{"poiid":"B2094654DB64A7F9419C","title":"大富豪 黄浦店","lon":"121.46970399676","lat":"31.235602779757","category":"76","category_name":"上海菜","address":"虹口区山西北路388号(近河南北路)"},{"poiid":"B2094654DA68A3FD4593","title":"半岛酒楼(黄河路)","lon":"121.47071","lat":"31.23435","category":"76","category_name":"上海菜","address":"黄浦区黄河路95号(近凤阳路)"},{"poiid":"B2094757D56CA0F4469B","title":"燕云楼 南京店","lon":"121.47063371349","lat":"31.236846725643","category":"247","category_name":"餐饮美食","address":"南京东路755号8-9楼"},{"poiid":"B2094750DB65A7F84993","title":"几分甜黄河店","lon":"121.472358","lat":"31.234579","category":"112","category_name":"糕饼店","address":"黄浦区黄河路37号(近凤阳路)"},{"poiid":"B2094750D664ABFD409A","title":"功德林素食餐厅","lon":"121.471","lat":"31.2335","category":"89","category_name":"中式素餐馆","address":"黄浦区黄河路21号鸿祥大厦1楼"},{"poiid":"B2094654DA6FAAF5429E","title":"上海市格致初级中学","lon":"121.47212","lat":"31.23566","category":"55","category_name":"中学","address":"黄浦区长沙路35号(近北京西路)"},{"poiid":"B2094750D565A6F9489E","title":"雅乐居万豪","lon":"121.471992","lat":"31.234666","category":"247","category_name":"餐饮美食","address":"西藏中路555号"},{"poiid":"B2094752D069A0FF4993","title":"耶里夏丽新疆餐厅（南京东路店）","lon":"121.471674","lat":"31.23686","category":"247","category_name":"餐饮美食","address":"南京东路819号百联世茂国际广场7楼"},{"poiid":"B2094757D069A6F94492","title":"月星苏州羊肉面馆","lon":"121.46972985789","lat":"31.236689665784","category":"68","category_name":"快餐厅","address":"黄浦区黄河路207号(近北京西路)"},{"poiid":"B2094654DA68A3FA4799","title":"新加坡泰国村鱼翅 黄浦店","lon":"121.47261142731","lat":"31.236839052649","category":"72","category_name":"广东菜","address":"黄浦区北京西路61号新金桥广场(近西藏中路)"},{"poiid":"B2094757D66DA6F94798","title":"瑞美体检","lon":"121.471805738","lat":"31.2343413877","category":"500","category_name":"未知分类","address":"黄浦区新昌路80号智富广场5楼(近南京西路)"},{"poiid":"B2094655D265A0F8459D","title":"老克勒","lon":"121.471","lat":"31.23423","category":"86","category_name":"火锅店","address":"黄河路82"},{"poiid":"B2094750DA6FA0FE469C","title":"外灘","lon":"121.471649","lat":"31.234191","category":"500","category_name":"未知分类","address":"外灘"},{"poiid":"B2094655D26DA3FF409E","title":"上海馨乐庭金桥服务公寓","lon":"121.47241","lat":"31.23686","category":"250","category_name":"公园户外","address":"黄浦区北京西路55号(牯岭路西藏中路)"},{"poiid":"B2094750DB6AA3F54999","title":"人民大舞台","lon":"121.4705","lat":"31.23635","category":"500","category_name":"未知分类","address":null},{"poiid":"B2094757D068A1FE409A","title":"超级鸡车 黄河路店 Super Gcar","lon":"121.470598","lat":"31.234792","category":"68","category_name":"快餐厅","address":"黄浦区黄河路108号(近北京西路)"},{"poiid":"B2094750D16BA5F8499A","title":"星巴克（百联世贸店）","lon":"121.470243","lat":"31.236355","category":"247","category_name":"餐饮美食","address":"南京东路819号（近西藏中路）"},{"poiid":"B2094757D069AAFC439D","title":"蜀千鸡公煲","lon":"121.47117","lat":"31.23415","category":"71","category_name":"四川菜","address":"黄浦区黄河路84号(近凤阳路)"},{"poiid":"B2094757D069A6F9479A","title":"兴泰小吃","lon":"121.470393","lat":"31.235161","category":"76","category_name":"上海菜","address":"黄浦区黄河路137号(定兴路黄河路)"},{"poiid":"B2094757D069A3F4439E","title":"永顺和苏州汤包馆(黄河路店)","lon":"121.470466","lat":"31.234799","category":"68","category_name":"快餐厅","address":"黄浦区黄河路111号(定兴路黄河路)"},{"poiid":"B2094753DB65ABF5479E","title":"小杨生煎","lon":"121.472236","lat":"31.23454","category":"247","category_name":"餐饮美食","address":"上海市 上海市黄浦区黄河路97号"},{"poiid":"B2094752D66FAAF8479B","title":"耶里夏利","lon":"121.470243","lat":"31.236355","category":"163","category_name":"4S店","address":"南京东路819号百联世茂7楼(近西藏中路)"},{"poiid":"B2094654DA68A3FD469C","title":"体育大厦","lon":"121.47194","lat":"31.23369","category":"46","category_name":"楼宇","address":"黄浦区南京西路150号(近人民广场地铁站)"},{"poiid":"B2094757D16EA3F5499E","title":"包旺锅贴黄河路店","lon":"121.46999043","lat":"31.235496912","category":"68","category_name":"快餐厅","address":"黄浦区黄河路120号(近北京西路)"},{"poiid":"B2094654DA68A3FD4698","title":"黄腾酒家","lon":"121.47060436151","lat":"31.234015382097","category":"76","category_name":"上海菜","address":"黄浦区黄河路69-73号(近凤阳路)"},{"poiid":"B2094654DA68A3FD419B","title":"佳家汤包 黄河店","lon":"121.47105017344","lat":"31.233958297842","category":"68","category_name":"快餐厅","address":"黄浦区黄河路90号(近凤阳路)"},{"poiid":"B2094655D36CA2FC439A","title":"雅居乐国际广场","lon":"121.47251","lat":"31.23629","category":"46","category_name":"楼宇","address":"黄浦区西藏中路525号(近凤阳路)"},{"poiid":"B2094757D06AA2FA4992","title":"黄河路","lon":"121.470752","lat":"31.236218","category":"500","category_name":"未知分类","address":"上海黄河路北京西路路口"},{"poiid":"B2094753D76FAAFA449C","title":"上海滩国泰旗舰店","lon":"121.466011","lat":"31.216125","category":"249","category_name":"购物服务","address":"淮海中路868号"},{"poiid":"B209475CD564A7F84292","title":"上海滩新天地店","lon":"121.47463","lat":"31.22164","category":"119","category_name":"商场","address":"\"太仓路181弄新天地北里15号\r\n\""},{"poiid":"B209475CD564A7F8439E","title":"上海滩中信泰富店","lon":"121.45602","lat":"31.22851","category":"119","category_name":"商场","address":"\"南京西路1168号中信泰富广场，店铺号221.\r\n\""},{"poiid":"B209475CD564A7F84392","title":"上海滩浦东香格里拉店","lon":"121.50058","lat":"31.23634","category":"119","category_name":"商场","address":"浦东富成路33号香格里拉酒店内大堂层"},{"poiid":"B2094757D06FA3F5439B","title":"香港仔码头茶餐厅(凤阳店)","lon":"121.47068","lat":"31.23366","category":"72","category_name":"广东菜","address":"黄浦区凤阳路280号(近黄河路)"},{"poiid":"B2094757D06FA3F94293","title":"悦来酒家","lon":"121.47086","lat":"31.23386","category":"76","category_name":"上海菜","address":"黄浦区黄河路81号(近凤阳路)"},{"poiid":"B2094654DA6FAAF54499","title":"苔圣园(黄浦店)","lon":"121.47105","lat":"31.23409","category":"76","category_name":"上海菜","address":"黄浦区黄河路50号(近凤阳路)"},{"poiid":"B2094655D269AAFC429C","title":"金门大酒店","lon":"121.47235","lat":"31.23405","category":"247","category_name":"餐饮美食","address":"南京西路108号金门大酒店8楼近西藏中路西北角"},{"poiid":"B2094752D06DA1FA4499","title":"新白鹿南东店","lon":"121.470271","lat":"31.236491","category":"247","category_name":"餐饮美食","address":"上海市南京东路800号东方商厦九楼"},{"poiid":"B2094752D265A3FE4892","title":"伊秀手握寿司","lon":"121.471898","lat":"31.236862","category":"247","category_name":"餐饮美食","address":"上海市黄浦区南京东路720号第一食品商厦4楼(近贵州路)"},{"poiid":"B2094757D06FA1F4489F","title":"黄河路美食街","lon":"121.47142","lat":"31.23348","category":"68","category_name":"快餐厅","address":"黄浦区黄河路(近新闸路)"},{"poiid":"B2094757D06FA5FF4098","title":"金八仙","lon":"121.47112","lat":"31.23428","category":"76","category_name":"上海菜","address":"上海黄浦区黄河路96-98号(近凤阳路)"},{"poiid":"B2094757D06FA7F9469B","title":"粤味馆(黃河路店)","lon":"121.47027","lat":"31.23506","category":"72","category_name":"广东菜","address":"黄浦区黄河路147号(近北京西路)"},{"poiid":"B2094757D06FA1F9479C","title":"国际饭店西饼屋(黄河路店)","lon":"121.471436532","lat":"31.233682045","category":"112","category_name":"糕饼店","address":"黄浦区黄河路28号国际饭店内"},{"poiid":"B2094751D56FA7FC4393","title":"吉朝 寿喜锅","lon":"121.47175","lat":"31.23349","category":"268","category_name":"自助","address":"黄浦区黄河路82号(近国际饭店)"},{"poiid":"B2094757D06FA4F84298","title":"许留山(新世界店)","lon":"121.47317173","lat":"31.235074403","category":"67","category_name":"甜品店","address":"黄浦区南京西路2-68号新世纪城12楼(近西藏中路)"},{"poiid":"B2094750D669A6F5409F","title":"新世界电影城","lon":"121.471672","lat":"31.236904","category":"178","category_name":"电影院","address":"南京西路2～68号新世界城12楼"},{"poiid":"B2094654DA68A3FD409C","title":"乾隆美食","lon":"121.4711458394","lat":"31.234298079704","category":"76","category_name":"上海菜","address":"黄浦区黄河路72-76号(凤阳路口)"},{"poiid":"B2094757D06EAAFB499D","title":"麦当劳(新世界店)","lon":"121.47294998","lat":"31.234666089","category":"68","category_name":"快餐厅","address":"黄浦区南京西路2-68号新世纪城B1楼(近西藏中路)"},{"poiid":"B2094654DA68A3FD4398","title":"香港仔码头靓汤馆","lon":"121.4703","lat":"31.23564","category":"72","category_name":"广东菜","address":"黄浦区黄河路158号(近北京西路)"},{"poiid":"B2094750D568A3FE4098","title":"星巴克(西藏中路二店)","lon":"121.47","lat":"31.2353","category":"260","category_name":"其他","address":"黄浦区西藏中路289号(近九江路)"},{"poiid":"B2094757D664A6F9459E","title":"沪上一家辣肉面馆 黄河路店","lon":"121.470459054","lat":"31.235120793","category":"68","category_name":"快餐厅","address":"黄浦区黄河路142号(近牯岭路)"},{"poiid":"B2094654DB64A7F9419C","title":"大富豪 黄浦店","lon":"121.46970399676","lat":"31.235602779757","category":"76","category_name":"上海菜","address":"虹口区山西北路388号(近河南北路)"},{"poiid":"B2094654DA68A3FD4593","title":"半岛酒楼(黄河路)","lon":"121.47071","lat":"31.23435","category":"76","category_name":"上海菜","address":"黄浦区黄河路95号(近凤阳路)"},{"poiid":"B2094757D56CA0F4469B","title":"燕云楼 南京店","lon":"121.47063371349","lat":"31.236846725643","category":"247","category_name":"餐饮美食","address":"南京东路755号8-9楼"},{"poiid":"B2094750DB65A7F84993","title":"几分甜黄河店","lon":"121.472358","lat":"31.234579","category":"112","category_name":"糕饼店","address":"黄浦区黄河路37号(近凤阳路)"},{"poiid":"B2094750D664ABFD409A","title":"功德林素食餐厅","lon":"121.471","lat":"31.2335","category":"89","category_name":"中式素餐馆","address":"黄浦区黄河路21号鸿祥大厦1楼"},{"poiid":"B2094654DA6FAAF5429E","title":"上海市格致初级中学","lon":"121.47212","lat":"31.23566","category":"55","category_name":"中学","address":"黄浦区长沙路35号(近北京西路)"},{"poiid":"B2094750D565A6F9489E","title":"雅乐居万豪","lon":"121.471992","lat":"31.234666","category":"247","category_name":"餐饮美食","address":"西藏中路555号"},{"poiid":"B2094752D069A0FF4993","title":"耶里夏丽新疆餐厅（南京东路店）","lon":"121.471674","lat":"31.23686","category":"247","category_name":"餐饮美食","address":"南京东路819号百联世茂国际广场7楼"},{"poiid":"B2094757D069A6F94492","title":"月星苏州羊肉面馆","lon":"121.46972985789","lat":"31.236689665784","category":"68","category_name":"快餐厅","address":"黄浦区黄河路207号(近北京西路)"},{"poiid":"B2094654DA68A3FA4799","title":"新加坡泰国村鱼翅 黄浦店","lon":"121.47261142731","lat":"31.236839052649","category":"72","category_name":"广东菜","address":"黄浦区北京西路61号新金桥广场(近西藏中路)"},{"poiid":"B2094757D66DA6F94798","title":"瑞美体检","lon":"121.471805738","lat":"31.2343413877","category":"500","category_name":"未知分类","address":"黄浦区新昌路80号智富广场5楼(近南京西路)"},{"poiid":"B2094655D265A0F8459D","title":"老克勒","lon":"121.471","lat":"31.23423","category":"86","category_name":"火锅店","address":"黄河路82"},{"poiid":"B2094750DA6FA0FE469C","title":"外灘","lon":"121.471649","lat":"31.234191","category":"500","category_name":"未知分类","address":"外灘"},{"poiid":"B2094655D26DA3FF409E","title":"上海馨乐庭金桥服务公寓","lon":"121.47241","lat":"31.23686","category":"250","category_name":"公园户外","address":"黄浦区北京西路55号(牯岭路西藏中路)"},{"poiid":"B2094750DB6AA3F54999","title":"人民大舞台","lon":"121.4705","lat":"31.23635","category":"500","category_name":"未知分类","address":null},{"poiid":"B2094757D068A1FE409A","title":"超级鸡车 黄河路店 Super Gcar","lon":"121.470598","lat":"31.234792","category":"68","category_name":"快餐厅","address":"黄浦区黄河路108号(近北京西路)"},{"poiid":"B2094750D16BA5F8499A","title":"星巴克（百联世贸店）","lon":"121.470243","lat":"31.236355","category":"247","category_name":"餐饮美食","address":"南京东路819号（近西藏中路）"},{"poiid":"B2094757D069AAFC439D","title":"蜀千鸡公煲","lon":"121.47117","lat":"31.23415","category":"71","category_name":"四川菜","address":"黄浦区黄河路84号(近凤阳路)"},{"poiid":"B2094757D069A6F9479A","title":"兴泰小吃","lon":"121.470393","lat":"31.235161","category":"76","category_name":"上海菜","address":"黄浦区黄河路137号(定兴路黄河路)"},{"poiid":"B2094757D069A3F4439E","title":"永顺和苏州汤包馆(黄河路店)","lon":"121.470466","lat":"31.234799","category":"68","category_name":"快餐厅","address":"黄浦区黄河路111号(定兴路黄河路)"},{"poiid":"B2094753DB65ABF5479E","title":"小杨生煎","lon":"121.472236","lat":"31.23454","category":"247","category_name":"餐饮美食","address":"上海市 上海市黄浦区黄河路97号"},{"poiid":"B2094752D66FAAF8479B","title":"耶里夏利","lon":"121.470243","lat":"31.236355","category":"163","category_name":"4S店","address":"南京东路819号百联世茂7楼(近西藏中路)"},{"poiid":"B2094654DA68A3FD469C","title":"体育大厦","lon":"121.47194","lat":"31.23369","category":"46","category_name":"楼宇","address":"黄浦区南京西路150号(近人民广场地铁站)"},{"poiid":"B2094757D16EA3F5499E","title":"包旺锅贴黄河路店","lon":"121.46999043","lat":"31.235496912","category":"68","category_name":"快餐厅","address":"黄浦区黄河路120号(近北京西路)"},{"poiid":"B2094654DA68A3FD4698","title":"黄腾酒家","lon":"121.47060436151","lat":"31.234015382097","category":"76","category_name":"上海菜","address":"黄浦区黄河路69-73号(近凤阳路)"},{"poiid":"B2094654DA68A3FD419B","title":"佳家汤包 黄河店","lon":"121.47105017344","lat":"31.233958297842","category":"68","category_name":"快餐厅","address":"黄浦区黄河路90号(近凤阳路)"},{"poiid":"B2094655D36CA2FC439A","title":"雅居乐国际广场","lon":"121.47251","lat":"31.23629","category":"46","category_name":"楼宇","address":"黄浦区西藏中路525号(近凤阳路)"},{"poiid":"B2094757D06AA2FA4992","title":"黄河路","lon":"121.470752","lat":"31.236218","category":"500","category_name":"未知分类","address":"上海黄河路北京西路路口"},{"poiid":"B2094753D76FAAFA449C","title":"上海滩国泰旗舰店","lon":"121.466011","lat":"31.216125","category":"249","category_name":"购物服务","address":"淮海中路868号"},{"poiid":"B209475CD564A7F84292","title":"上海滩新天地店","lon":"121.47463","lat":"31.22164","category":"119","category_name":"商场","address":"\"太仓路181弄新天地北里15号\r\n\""},{"poiid":"B209475CD564A7F8439E","title":"上海滩中信泰富店","lon":"121.45602","lat":"31.22851","category":"119","category_name":"商场","address":"\"南京西路1168号中信泰富广场，店铺号221.\r\n\""},{"poiid":"B209475CD564A7F84392","title":"上海滩浦东香格里拉店","lon":"121.50058","lat":"31.23634","category":"119","category_name":"商场","address":"浦东富成路33号香格里拉酒店内大堂层"},{"poiid":"B2094757D06FA3F5439B","title":"香港仔码头茶餐厅(凤阳店)","lon":"121.47068","lat":"31.23366","category":"72","category_name":"广东菜","address":"黄浦区凤阳路280号(近黄河路)"},{"poiid":"B2094757D06FA3F94293","title":"悦来酒家","lon":"121.47086","lat":"31.23386","category":"76","category_name":"上海菜","address":"黄浦区黄河路81号(近凤阳路)"},{"poiid":"B2094654DA6FAAF54499","title":"苔圣园(黄浦店)","lon":"121.47105","lat":"31.23409","category":"76","category_name":"上海菜","address":"黄浦区黄河路50号(近凤阳路)"},{"poiid":"B2094655D269AAFC429C","title":"金门大酒店","lon":"121.47235","lat":"31.23405","category":"247","category_name":"餐饮美食","address":"南京西路108号金门大酒店8楼近西藏中路西北角"},{"poiid":"B2094752D06DA1FA4499","title":"新白鹿南东店","lon":"121.470271","lat":"31.236491","category":"247","category_name":"餐饮美食","address":"上海市南京东路800号东方商厦九楼"},{"poiid":"B2094752D265A3FE4892","title":"伊秀手握寿司","lon":"121.471898","lat":"31.236862","category":"247","category_name":"餐饮美食","address":"上海市黄浦区南京东路720号第一食品商厦4楼(近贵州路)"},{"poiid":"B2094757D06FA1F4489F","title":"黄河路美食街","lon":"121.47142","lat":"31.23348","category":"68","category_name":"快餐厅","address":"黄浦区黄河路(近新闸路)"},{"poiid":"B2094757D06FA5FF4098","title":"金八仙","lon":"121.47112","lat":"31.23428","category":"76","category_name":"上海菜","address":"上海黄浦区黄河路96-98号(近凤阳路)"},{"poiid":"B2094757D06FA7F9469B","title":"粤味馆(黃河路店)","lon":"121.47027","lat":"31.23506","category":"72","category_name":"广东菜","address":"黄浦区黄河路147号(近北京西路)"},{"poiid":"B2094757D06FA1F9479C","title":"国际饭店西饼屋(黄河路店)","lon":"121.471436532","lat":"31.233682045","category":"112","category_name":"糕饼店","address":"黄浦区黄河路28号国际饭店内"},{"poiid":"B2094751D56FA7FC4393","title":"吉朝 寿喜锅","lon":"121.47175","lat":"31.23349","category":"268","category_name":"自助","address":"黄浦区黄河路82号(近国际饭店)"},{"poiid":"B2094757D06FA4F84298","title":"许留山(新世界店)","lon":"121.47317173","lat":"31.235074403","category":"67","category_name":"甜品店","address":"黄浦区南京西路2-68号新世纪城12楼(近西藏中路)"},{"poiid":"B2094750D669A6F5409F","title":"新世界电影城","lon":"121.471672","lat":"31.236904","category":"178","category_name":"电影院","address":"南京西路2～68号新世界城12楼"},{"poiid":"B2094654DA68A3FD409C","title":"乾隆美食","lon":"121.4711458394","lat":"31.234298079704","category":"76","category_name":"上海菜","address":"黄浦区黄河路72-76号(凤阳路口)"},{"poiid":"B2094757D06EAAFB499D","title":"麦当劳(新世界店)","lon":"121.47294998","lat":"31.234666089","category":"68","category_name":"快餐厅","address":"黄浦区南京西路2-68号新世纪城B1楼(近西藏中路)"},{"poiid":"B2094654DA68A3FD4398","title":"香港仔码头靓汤馆","lon":"121.4703","lat":"31.23564","category":"72","category_name":"广东菜","address":"黄浦区黄河路158号(近北京西路)"},{"poiid":"B2094750D568A3FE4098","title":"星巴克(西藏中路二店)","lon":"121.47","lat":"31.2353","category":"260","category_name":"其他","address":"黄浦区西藏中路289号(近九江路)"},{"poiid":"B2094757D664A6F9459E","title":"沪上一家辣肉面馆 黄河路店","lon":"121.470459054","lat":"31.235120793","category":"68","category_name":"快餐厅","address":"黄浦区黄河路142号(近牯岭路)"},{"poiid":"B2094654DB64A7F9419C","title":"大富豪 黄浦店","lon":"121.46970399676","lat":"31.235602779757","category":"76","category_name":"上海菜","address":"虹口区山西北路388号(近河南北路)"},{"poiid":"B2094654DA68A3FD4593","title":"半岛酒楼(黄河路)","lon":"121.47071","lat":"31.23435","category":"76","category_name":"上海菜","address":"黄浦区黄河路95号(近凤阳路)"},{"poiid":"B2094757D56CA0F4469B","title":"燕云楼 南京店","lon":"121.47063371349","lat":"31.236846725643","category":"247","category_name":"餐饮美食","address":"南京东路755号8-9楼"},{"poiid":"B2094750DB65A7F84993","title":"几分甜黄河店","lon":"121.472358","lat":"31.234579","category":"112","category_name":"糕饼店","address":"黄浦区黄河路37号(近凤阳路)"},{"poiid":"B2094750D664ABFD409A","title":"功德林素食餐厅","lon":"121.471","lat":"31.2335","category":"89","category_name":"中式素餐馆","address":"黄浦区黄河路21号鸿祥大厦1楼"},{"poiid":"B2094654DA6FAAF5429E","title":"上海市格致初级中学","lon":"121.47212","lat":"31.23566","category":"55","category_name":"中学","address":"黄浦区长沙路35号(近北京西路)"},{"poiid":"B2094750D565A6F9489E","title":"雅乐居万豪","lon":"121.471992","lat":"31.234666","category":"247","category_name":"餐饮美食","address":"西藏中路555号"},{"poiid":"B2094752D069A0FF4993","title":"耶里夏丽新疆餐厅（南京东路店）","lon":"121.471674","lat":"31.23686","category":"247","category_name":"餐饮美食","address":"南京东路819号百联世茂国际广场7楼"},{"poiid":"B2094757D069A6F94492","title":"月星苏州羊肉面馆","lon":"121.46972985789","lat":"31.236689665784","category":"68","category_name":"快餐厅","address":"黄浦区黄河路207号(近北京西路)"},{"poiid":"B2094654DA68A3FA4799","title":"新加坡泰国村鱼翅 黄浦店","lon":"121.47261142731","lat":"31.236839052649","category":"72","category_name":"广东菜","address":"黄浦区北京西路61号新金桥广场(近西藏中路)"},{"poiid":"B2094757D66DA6F94798","title":"瑞美体检","lon":"121.471805738","lat":"31.2343413877","category":"500","category_name":"未知分类","address":"黄浦区新昌路80号智富广场5楼(近南京西路)"},{"poiid":"B2094655D265A0F8459D","title":"老克勒","lon":"121.471","lat":"31.23423","category":"86","category_name":"火锅店","address":"黄河路82"},{"poiid":"B2094750DA6FA0FE469C","title":"外灘","lon":"121.471649","lat":"31.234191","category":"500","category_name":"未知分类","address":"外灘"},{"poiid":"B2094655D26DA3FF409E","title":"上海馨乐庭金桥服务公寓","lon":"121.47241","lat":"31.23686","category":"250","category_name":"公园户外","address":"黄浦区北京西路55号(牯岭路西藏中路)"},{"poiid":"B2094750DB6AA3F54999","title":"人民大舞台","lon":"121.4705","lat":"31.23635","category":"500","category_name":"未知分类","address":null},{"poiid":"B2094757D068A1FE409A","title":"超级鸡车 黄河路店 Super Gcar","lon":"121.470598","lat":"31.234792","category":"68","category_name":"快餐厅","address":"黄浦区黄河路108号(近北京西路)"},{"poiid":"B2094750D16BA5F8499A","title":"星巴克（百联世贸店）","lon":"121.470243","lat":"31.236355","category":"247","category_name":"餐饮美食","address":"南京东路819号（近西藏中路）"},{"poiid":"B2094757D069AAFC439D","title":"蜀千鸡公煲","lon":"121.47117","lat":"31.23415","category":"71","category_name":"四川菜","address":"黄浦区黄河路84号(近凤阳路)"},{"poiid":"B2094757D069A6F9479A","title":"兴泰小吃","lon":"121.470393","lat":"31.235161","category":"76","category_name":"上海菜","address":"黄浦区黄河路137号(定兴路黄河路)"},{"poiid":"B2094757D069A3F4439E","title":"永顺和苏州汤包馆(黄河路店)","lon":"121.470466","lat":"31.234799","category":"68","category_name":"快餐厅","address":"黄浦区黄河路111号(定兴路黄河路)"},{"poiid":"B2094753DB65ABF5479E","title":"小杨生煎","lon":"121.472236","lat":"31.23454","category":"247","category_name":"餐饮美食","address":"上海市 上海市黄浦区黄河路97号"},{"poiid":"B2094752D66FAAF8479B","title":"耶里夏利","lon":"121.470243","lat":"31.236355","category":"163","category_name":"4S店","address":"南京东路819号百联世茂7楼(近西藏中路)"},{"poiid":"B2094654DA68A3FD469C","title":"体育大厦","lon":"121.47194","lat":"31.23369","category":"46","category_name":"楼宇","address":"黄浦区南京西路150号(近人民广场地铁站)"},{"poiid":"B2094757D16EA3F5499E","title":"包旺锅贴黄河路店","lon":"121.46999043","lat":"31.235496912","category":"68","category_name":"快餐厅","address":"黄浦区黄河路120号(近北京西路)"},{"poiid":"B2094654DA68A3FD4698","title":"黄腾酒家","lon":"121.47060436151","lat":"31.234015382097","category":"76","category_name":"上海菜","address":"黄浦区黄河路69-73号(近凤阳路)"},{"poiid":"B2094654DA68A3FD419B","title":"佳家汤包 黄河店","lon":"121.47105017344","lat":"31.233958297842","category":"68","category_name":"快餐厅","address":"黄浦区黄河路90号(近凤阳路)"},{"poiid":"B2094655D36CA2FC439A","title":"雅居乐国际广场","lon":"121.47251","lat":"31.23629","category":"46","category_name":"楼宇","address":"黄浦区西藏中路525号(近凤阳路)"},{"poiid":"B2094757D06AA2FA4992","title":"黄河路","lon":"121.470752","lat":"31.236218","category":"500","category_name":"未知分类","address":"上海黄河路北京西路路口"},{"poiid":"B2094753D76FAAFA449C","title":"上海滩国泰旗舰店","lon":"121.466011","lat":"31.216125","category":"249","category_name":"购物服务","address":"淮海中路868号"},{"poiid":"B209475CD564A7F84292","title":"上海滩新天地店","lon":"121.47463","lat":"31.22164","category":"119","category_name":"商场","address":"\"太仓路181弄新天地北里15号\r\n\""},{"poiid":"B209475CD564A7F8439E","title":"上海滩中信泰富店","lon":"121.45602","lat":"31.22851","category":"119","category_name":"商场","address":"\"南京西路1168号中信泰富广场，店铺号221.\r\n\""},{"poiid":"B209475CD564A7F84392","title":"上海滩浦东香格里拉店","lon":"121.50058","lat":"31.23634","category":"119","category_name":"商场","address":"浦东富成路33号香格里拉酒店内大堂层"},{"poiid":"B2094757D06FA3F5439B","title":"香港仔码头茶餐厅(凤阳店)","lon":"121.47068","lat":"31.23366","category":"72","category_name":"广东菜","address":"黄浦区凤阳路280号(近黄河路)"},{"poiid":"B2094757D06FA3F94293","title":"悦来酒家","lon":"121.47086","lat":"31.23386","category":"76","category_name":"上海菜","address":"黄浦区黄河路81号(近凤阳路)"},{"poiid":"B2094654DA6FAAF54499","title":"苔圣园(黄浦店)","lon":"121.47105","lat":"31.23409","category":"76","category_name":"上海菜","address":"黄浦区黄河路50号(近凤阳路)"},{"poiid":"B2094655D269AAFC429C","title":"金门大酒店","lon":"121.47235","lat":"31.23405","category":"247","category_name":"餐饮美食","address":"南京西路108号金门大酒店8楼近西藏中路西北角"},{"poiid":"B2094752D06DA1FA4499","title":"新白鹿南东店","lon":"121.470271","lat":"31.236491","category":"247","category_name":"餐饮美食","address":"上海市南京东路800号东方商厦九楼"},{"poiid":"B2094752D265A3FE4892","title":"伊秀手握寿司","lon":"121.471898","lat":"31.236862","category":"247","category_name":"餐饮美食","address":"上海市黄浦区南京东路720号第一食品商厦4楼(近贵州路)"},{"poiid":"B2094757D06FA1F4489F","title":"黄河路美食街","lon":"121.47142","lat":"31.23348","category":"68","category_name":"快餐厅","address":"黄浦区黄河路(近新闸路)"},{"poiid":"B2094757D06FA5FF4098","title":"金八仙","lon":"121.47112","lat":"31.23428","category":"76","category_name":"上海菜","address":"上海黄浦区黄河路96-98号(近凤阳路)"},{"poiid":"B2094757D06FA7F9469B","title":"粤味馆(黃河路店)","lon":"121.47027","lat":"31.23506","category":"72","category_name":"广东菜","address":"黄浦区黄河路147号(近北京西路)"},{"poiid":"B2094757D06FA1F9479C","title":"国际饭店西饼屋(黄河路店)","lon":"121.471436532","lat":"31.233682045","category":"112","category_name":"糕饼店","address":"黄浦区黄河路28号国际饭店内"},{"poiid":"B2094751D56FA7FC4393","title":"吉朝 寿喜锅","lon":"121.47175","lat":"31.23349","category":"268","category_name":"自助","address":"黄浦区黄河路82号(近国际饭店)"},{"poiid":"B2094757D06FA4F84298","title":"许留山(新世界店)","lon":"121.47317173","lat":"31.235074403","category":"67","category_name":"甜品店","address":"黄浦区南京西路2-68号新世纪城12楼(近西藏中路)"},{"poiid":"B2094750D669A6F5409F","title":"新世界电影城","lon":"121.471672","lat":"31.236904","category":"178","category_name":"电影院","address":"南京西路2～68号新世界城12楼"},{"poiid":"B2094654DA68A3FD409C","title":"乾隆美食","lon":"121.4711458394","lat":"31.234298079704","category":"76","category_name":"上海菜","address":"黄浦区黄河路72-76号(凤阳路口)"},{"poiid":"B2094757D06EAAFB499D","title":"麦当劳(新世界店)","lon":"121.47294998","lat":"31.234666089","category":"68","category_name":"快餐厅","address":"黄浦区南京西路2-68号新世纪城B1楼(近西藏中路)"},{"poiid":"B2094654DA68A3FD4398","title":"香港仔码头靓汤馆","lon":"121.4703","lat":"31.23564","category":"72","category_name":"广东菜","address":"黄浦区黄河路158号(近北京西路)"},{"poiid":"B2094750D568A3FE4098","title":"星巴克(西藏中路二店)","lon":"121.47","lat":"31.2353","category":"260","category_name":"其他","address":"黄浦区西藏中路289号(近九江路)"},{"poiid":"B2094757D664A6F9459E","title":"沪上一家辣肉面馆 黄河路店","lon":"121.470459054","lat":"31.235120793","category":"68","category_name":"快餐厅","address":"黄浦区黄河路142号(近牯岭路)"},{"poiid":"B2094654DB64A7F9419C","title":"大富豪 黄浦店","lon":"121.46970399676","lat":"31.235602779757","category":"76","category_name":"上海菜","address":"虹口区山西北路388号(近河南北路)"},{"poiid":"B2094654DA68A3FD4593","title":"半岛酒楼(黄河路)","lon":"121.47071","lat":"31.23435","category":"76","category_name":"上海菜","address":"黄浦区黄河路95号(近凤阳路)"},{"poiid":"B2094757D56CA0F4469B","title":"燕云楼 南京店","lon":"121.47063371349","lat":"31.236846725643","category":"247","category_name":"餐饮美食","address":"南京东路755号8-9楼"},{"poiid":"B2094750DB65A7F84993","title":"几分甜黄河店","lon":"121.472358","lat":"31.234579","category":"112","category_name":"糕饼店","address":"黄浦区黄河路37号(近凤阳路)"},{"poiid":"B2094750D664ABFD409A","title":"功德林素食餐厅","lon":"121.471","lat":"31.2335","category":"89","category_name":"中式素餐馆","address":"黄浦区黄河路21号鸿祥大厦1楼"},{"poiid":"B2094654DA6FAAF5429E","title":"上海市格致初级中学","lon":"121.47212","lat":"31.23566","category":"55","category_name":"中学","address":"黄浦区长沙路35号(近北京西路)"},{"poiid":"B2094750D565A6F9489E","title":"雅乐居万豪","lon":"121.471992","lat":"31.234666","category":"247","category_name":"餐饮美食","address":"西藏中路555号"},{"poiid":"B2094752D069A0FF4993","title":"耶里夏丽新疆餐厅（南京东路店）","lon":"121.471674","lat":"31.23686","category":"247","category_name":"餐饮美食","address":"南京东路819号百联世茂国际广场7楼"},{"poiid":"B2094757D069A6F94492","title":"月星苏州羊肉面馆","lon":"121.46972985789","lat":"31.236689665784","category":"68","category_name":"快餐厅","address":"黄浦区黄河路207号(近北京西路)"},{"poiid":"B2094654DA68A3FA4799","title":"新加坡泰国村鱼翅 黄浦店","lon":"121.47261142731","lat":"31.236839052649","category":"72","category_name":"广东菜","address":"黄浦区北京西路61号新金桥广场(近西藏中路)"},{"poiid":"B2094757D66DA6F94798","title":"瑞美体检","lon":"121.471805738","lat":"31.2343413877","category":"500","category_name":"未知分类","address":"黄浦区新昌路80号智富广场5楼(近南京西路)"},{"poiid":"B2094655D265A0F8459D","title":"老克勒","lon":"121.471","lat":"31.23423","category":"86","category_name":"火锅店","address":"黄河路82"},{"poiid":"B2094750DA6FA0FE469C","title":"外灘","lon":"121.471649","lat":"31.234191","category":"500","category_name":"未知分类","address":"外灘"},{"poiid":"B2094655D26DA3FF409E","title":"上海馨乐庭金桥服务公寓","lon":"121.47241","lat":"31.23686","category":"250","category_name":"公园户外","address":"黄浦区北京西路55号(牯岭路西藏中路)"},{"poiid":"B2094750DB6AA3F54999","title":"人民大舞台","lon":"121.4705","lat":"31.23635","category":"500","category_name":"未知分类","address":null},{"poiid":"B2094757D068A1FE409A","title":"超级鸡车 黄河路店 Super Gcar","lon":"121.470598","lat":"31.234792","category":"68","category_name":"快餐厅","address":"黄浦区黄河路108号(近北京西路)"},{"poiid":"B2094750D16BA5F8499A","title":"星巴克（百联世贸店）","lon":"121.470243","lat":"31.236355","category":"247","category_name":"餐饮美食","address":"南京东路819号（近西藏中路）"},{"poiid":"B2094757D069AAFC439D","title":"蜀千鸡公煲","lon":"121.47117","lat":"31.23415","category":"71","category_name":"四川菜","address":"黄浦区黄河路84号(近凤阳路)"},{"poiid":"B2094757D069A6F9479A","title":"兴泰小吃","lon":"121.470393","lat":"31.235161","category":"76","category_name":"上海菜","address":"黄浦区黄河路137号(定兴路黄河路)"},{"poiid":"B2094757D069A3F4439E","title":"永顺和苏州汤包馆(黄河路店)","lon":"121.470466","lat":"31.234799","category":"68","category_name":"快餐厅","address":"黄浦区黄河路111号(定兴路黄河路)"},{"poiid":"B2094753DB65ABF5479E","title":"小杨生煎","lon":"121.472236","lat":"31.23454","category":"247","category_name":"餐饮美食","address":"上海市 上海市黄浦区黄河路97号"},{"poiid":"B2094752D66FAAF8479B","title":"耶里夏利","lon":"121.470243","lat":"31.236355","category":"163","category_name":"4S店","address":"南京东路819号百联世茂7楼(近西藏中路)"},{"poiid":"B2094654DA68A3FD469C","title":"体育大厦","lon":"121.47194","lat":"31.23369","category":"46","category_name":"楼宇","address":"黄浦区南京西路150号(近人民广场地铁站)"},{"poiid":"B2094757D16EA3F5499E","title":"包旺锅贴黄河路店","lon":"121.46999043","lat":"31.235496912","category":"68","category_name":"快餐厅","address":"黄浦区黄河路120号(近北京西路)"},{"poiid":"B2094654DA68A3FD4698","title":"黄腾酒家","lon":"121.47060436151","lat":"31.234015382097","category":"76","category_name":"上海菜","address":"黄浦区黄河路69-73号(近凤阳路)"}]