[{"poiid":"B2094655D268A6FC4293","title":"老码头","lon":"121.50566","lat":"31.21965","category":"119","category_name":"商场","address":"上海闵行区七莘路3166号七宝乐购对面(近新龙路)  "},{"poiid":"B2094757D06FA6FF459E","title":"老码头·阳光沙滩","lon":"121.50603012","lat":"31.220198143","category":"234","category_name":"海滨浴场","address":"黄浦区外马路421号(近复兴东路)"},{"poiid":"B2094757D66FA6FA4892","title":"星巴克(老码头店)","lon":"121.5050866","lat":"31.219239","category":"260","category_name":"其他","address":"黄浦区中山南路505弄老码头5号楼101室(近复兴东路)"},{"poiid":"B209475CD564A7F84392","title":"上海滩浦东香格里拉店","lon":"121.50058","lat":"31.23634","category":"119","category_name":"商场","address":"浦东富成路33号香格里拉酒店内大堂层"},{"poiid":"B2094757D168A6FC439E","title":"奥斯卡会所&薇丝酒吧","lon":"121.507143738","lat":"31.2182860456","category":"174","category_name":"迪厅","address":"上海外滩"},{"poiid":"B2094757D068A2F94298","title":"黄浦江","lon":"121.50752895","lat":"31.220529166","category":"500","category_name":"未知分类","address":"上海黄浦江畔"},{"poiid":"B2094757D169A6FB4899","title":"Long House","lon":"121.505718738","lat":"31.2196240741","category":"110","category_name":"其他亚洲菜","address":"黄浦区中山南路505弄老码头7号楼105室"},{"poiid":"B2094654DA6EA4F9439D","title":"新源广场","lon":"121.51","lat":"31.2273","category":"46","category_name":"楼宇","address":"中山南路268号"},{"poiid":"B2094757D16EA7FC419E","title":"滨江大道黄浦江畔","lon":"121.50977173","lat":"31.226162213","category":"500","category_name":"未知分类","address":"上海市浦东新区滨江大道"},{"poiid":"B2094757D06FA1FA419F","title":"复兴东路轮渡站","lon":"121.50405883","lat":"31.22277069","category":"35","category_name":"长途汽车站","address":"上海市黄浦区复兴东路1号"},{"poiid":"B2094757D068A5FD499D","title":"Top Choice","lon":"121.50526","lat":"31.21865","category":"260","category_name":"其他","address":"黄浦区中山南路505弄老码头9号楼(近复兴东路)"},{"poiid":"B2094757D069A2F94499","title":"小南国(老码头店)","lon":"121.50562073","lat":"31.219640074","category":"76","category_name":"上海菜","address":"虹口区四川北路1350号中信泰富申虹广场3楼304单元"},{"poiid":"B2094757D66BA1FC4793","title":"峯铁板烧","lon":"121.5069581","lat":"31.2178715","category":"269","category_name":"烧烤","address":"黄浦区外马路579号2号库302室"},{"poiid":"B2094757D068A6FE429C","title":"金外滩花园","lon":"121.507","lat":"31.228","category":"47","category_name":"住宅区","address":"上海市黄浦区中山南路222号"},{"poiid":"B2094757D465ABF8479E","title":"鸟真 Banni","lon":"121.504442","lat":"31.221024","category":"269","category_name":"烧烤","address":"黄浦区中山南路505号老码头7号楼107室(近复兴东路)"},{"poiid":"B2094655D264A0FE4098","title":"华润外滩九里","lon":"121.508","lat":"31.224","category":"47","category_name":"住宅区","address":"黄浦区中山南路460号"},{"poiid":"B2094757D168A2FF4999","title":"Rico Rico","lon":"121.507503738","lat":"31.2178780369","category":"500","category_name":"未知分类","address":"上海外滩奥斯卡"},{"poiid":"B2094757D069A5FD4799","title":"复星商务大厦","lon":"121.50396347","lat":"31.22221032","category":"46","category_name":"楼宇","address":"上海市黄浦区复兴东路2号"},{"poiid":"B2094654DA69A1F54192","title":"杨家渡轮渡站(张杨路)","lon":"121.50875","lat":"31.22412","category":"34","category_name":"港口码头","address":"张杨路1号"},{"poiid":"B2094757D06AA5F84992","title":"The table NO.1","lon":"121.50536722","lat":"31.220391924","category":"94","category_name":"西餐厅","address":"上海毛家园路2号"},{"poiid":"B2094654DA69A1F54292","title":"财富广场","lon":"121.5063","lat":"31.2279","category":"46","category_name":"楼宇","address":"上海市浦明路68号"},{"poiid":"B2094750D664A1FB489D","title":"外滩奥斯卡","lon":"121.507","lat":"31.2179","category":"260","category_name":"其他","address":"黄浦区外马路579号(近阳光沙滩)"},{"poiid":"B2094757D468A4FE4992","title":"富钜德国餐厅 Stiller's Restaurant","lon":"121.504501054","lat":"31.221032793","category":"94","category_name":"西餐厅","address":"黄浦区中山南路505弄13号楼6-7楼(近复兴东路)"},{"poiid":"B2094750D26EA7F94399","title":"老码头壹号会所 Club One Restaurant & Bar","lon":"121.504485054","lat":"31.221038793","category":"247","category_name":"餐饮美食","address":"中山南路505号老码头1号楼近复兴东路外滩"},{"poiid":"B2094654DB6BABF4499B","title":"汉庭快捷酒店(上海外滩店)","lon":"121.50508","lat":"31.22008","category":"216","category_name":"经济型连锁酒店","address":"上海黄浦区中山南路433号(近复兴东路)  "},{"poiid":"B2094757D16DAAF5439B","title":"外马路","lon":"121.503744938","lat":"31.2205340935","category":"500","category_name":"未知分类","address":"上海外马路"},{"poiid":"B2094757D06BA5FA479A","title":"怡景坊海鲜酒家","lon":"121.5103","lat":"31.22614","category":"72","category_name":"广东菜","address":"浦东新区浦明路266号(近启新路)"},{"poiid":"B2094750D269A5FF4998","title":"庆会楼 外滩店","lon":"121.504501054","lat":"31.221032793","category":"96","category_name":"韩国料理","address":"黄浦区中山南路505弄老码头2号楼2楼(近复兴东路)"},{"poiid":"B2094654DA69A1F54193","title":"东昌滨江绿地","lon":"121.50794","lat":"31.22484","category":"202","category_name":"公园广场","address":"浦东新区商城路(东方路商城路)"},{"poiid":"B2094757D465A3FD449E","title":"外滩第一台 Table Number 1","lon":"121.504926","lat":"31.22005","category":"67","category_name":"甜品店","address":"黄浦区毛家园路1-3号(近中山南路)"},{"poiid":"B2094757D06FA3F4459C","title":"复兴东路隧道","lon":"121.50697493","lat":"31.223042371","category":"260","category_name":"其他","address":"上海黄浦区复兴东路-浦东新区张杨路"},{"poiid":"B2094751D465A1F54798","title":"罗望子泰越餐厅酒吧","lon":"121.503281","lat":"31.220581","category":"99","category_name":"泰国／越南菜品餐厅","address":"黄浦区中山南路505号老码头10号楼B座(近新码头街)"},{"poiid":"B2094750DB6FA5FC419E","title":"中华艺术宫","lon":"121.506881","lat":"31.223091","category":"250","category_name":"公园户外","address":null},{"poiid":"B2094757D568A1FF439C","title":"老码头休闲创意园","lon":"121.5051547","lat":"31.21956889","category":"248","category_name":"生活娱乐","address":"中山南路479弄"},{"poiid":"B2094757DB6CA6FC4199","title":"好乐迪","lon":"121.5043331429361","lat":"31.22490214062436","category":"248","category_name":"生活娱乐","address":"八佰伴"},{"poiid":"B2094655D265A6F84893","title":"绿城黄浦湾","lon":"121.511","lat":"31.2238","category":"47","category_name":"住宅区","address":"黄浦区中山南路566弄"},{"poiid":"B2094757D064ABFA499D","title":"财富海景花园","lon":"121.5089","lat":"31.225681","category":"47","category_name":"住宅区","address":"上海市浦东新区浦明路258弄"},{"poiid":"B2094757D465A5F4409B","title":"红摩西餐厅&酒吧 Rouge Morile Restaurant&Bar","lon":"121.508812054","lat":"31.224427793","category":"94","category_name":"西餐厅","address":"浦东新区滨江大道3888号红摩广场内(近张杨路)"},{"poiid":"B2094752D469A5F54792","title":"年代秀饭堂","lon":"121.505996","lat":"31.223016","category":"247","category_name":"餐饮美食","address":"雅居乐广场"},{"poiid":"B2094757D16DAAFE4999","title":"Char Bar","lon":"121.5052","lat":"31.21872","category":"260","category_name":"其他","address":"黄浦区中山南路505弄老码头10号楼B座(近外马路)"},{"poiid":"B2094655D36DA6FF469A","title":"杨家渡","lon":"121.50893","lat":"31.22434","category":"38","category_name":"公交车站","address":""},{"poiid":"B2094757DB6EA6FF4299","title":"上海水舍酒店","lon":"121.505666971","lat":"31.220192293","category":"213","category_name":"五星级宾馆","address":"毛家园路1-3号(近外马路)"},{"poiid":"B2094757D168A4F4469E","title":"caffein intelligentsia","lon":"121.506032825","lat":"31.2197501522","category":"500","category_name":"未知分类","address":"中山南路505弄老码头7号楼101-103室(近复兴东路)"},{"poiid":"B2094757D464A7FB439F","title":"申绅会馆","lon":"121.504408","lat":"31.221194","category":"247","category_name":"餐饮美食","address":"中山南路505号老码头5号楼3-6楼近毛家园路"},{"poiid":"B2094757DB69A5FD4192","title":"小南国 上海码头店","lon":"121.506884","lat":"31.218189","category":"247","category_name":"餐饮美食","address":"外马路579号4楼近新码头街"},{"poiid":"B2094757D16FA3F5409D","title":"嘉颐汇会所","lon":"121.508835","lat":"31.226796","category":"500","category_name":"未知分类","address":"上海浦东新区浦明路266号"},{"poiid":"B2094757D064A5FD4598","title":"滨江大道篮球场","lon":"121.50904347","lat":"31.2245733115","category":"220","category_name":"运动场所","address":"上海浦东新区滨江大道(近杨家渡轮渡站)"},{"poiid":"B2094757D464AAFB4298","title":"咖啡饮 中山南路店 Caffe In","lon":"121.504501054","lat":"31.221032793","category":"65","category_name":"咖啡厅","address":"黄浦区中山南路505弄老码头7号楼101-103室(近复兴东路)"},{"poiid":"B209475CD66DA0FE4393","title":"滨江大道","lon":"121.507514","lat":"31.221799","category":"500","category_name":"未知分类","address":"上海市 滨江路3788号"},{"poiid":"B2094757D568A0FB449D","title":"THE WATERHOUSE AT SOUTH BUND","lon":"121.50592828","lat":"31.2198763","category":"251","category_name":"出行住宿","address":"毛家园路1-3号"},{"poiid":"B2094655D268A6FC4293","title":"老码头","lon":"121.50566","lat":"31.21965","category":"119","category_name":"商场","address":"上海闵行区七莘路3166号七宝乐购对面(近新龙路)  "},{"poiid":"B2094757D06FA6FF459E","title":"老码头·阳光沙滩","lon":"121.50603012","lat":"31.220198143","category":"234","category_name":"海滨浴场","address":"黄浦区外马路421号(近复兴东路)"},{"poiid":"B2094757D66FA6FA4892","title":"星巴克(老码头店)","lon":"121.5050866","lat":"31.219239","category":"260","category_name":"其他","address":"黄浦区中山南路505弄老码头5号楼101室(近复兴东路)"},{"poiid":"B209475CD564A7F84392","title":"上海滩浦东香格里拉店","lon":"121.50058","lat":"31.23634","category":"119","category_name":"商场","address":"浦东富成路33号香格里拉酒店内大堂层"},{"poiid":"B2094757D168A6FC439E","title":"奥斯卡会所&薇丝酒吧","lon":"121.507143738","lat":"31.2182860456","category":"174","category_name":"迪厅","address":"上海外滩"},{"poiid":"B2094757D068A2F94298","title":"黄浦江","lon":"121.50752895","lat":"31.220529166","category":"500","category_name":"未知分类","address":"上海黄浦江畔"},{"poiid":"B2094757D169A6FB4899","title":"Long House","lon":"121.505718738","lat":"31.2196240741","category":"110","category_name":"其他亚洲菜","address":"黄浦区中山南路505弄老码头7号楼105室"},{"poiid":"B2094654DA6EA4F9439D","title":"新源广场","lon":"121.51","lat":"31.2273","category":"46","category_name":"楼宇","address":"中山南路268号"},{"poiid":"B2094757D16EA7FC419E","title":"滨江大道黄浦江畔","lon":"121.50977173","lat":"31.226162213","category":"500","category_name":"未知分类","address":"上海市浦东新区滨江大道"},{"poiid":"B2094757D06FA1FA419F","title":"复兴东路轮渡站","lon":"121.50405883","lat":"31.22277069","category":"35","category_name":"长途汽车站","address":"上海市黄浦区复兴东路1号"},{"poiid":"B2094757D068A5FD499D","title":"Top Choice","lon":"121.50526","lat":"31.21865","category":"260","category_name":"其他","address":"黄浦区中山南路505弄老码头9号楼(近复兴东路)"},{"poiid":"B2094757D069A2F94499","title":"小南国(老码头店)","lon":"121.50562073","lat":"31.219640074","category":"76","category_name":"上海菜","address":"虹口区四川北路1350号中信泰富申虹广场3楼304单元"},{"poiid":"B2094757D66BA1FC4793","title":"峯铁板烧","lon":"121.5069581","lat":"31.2178715","category":"269","category_name":"烧烤","address":"黄浦区外马路579号2号库302室"},{"poiid":"B2094757D068A6FE429C","title":"金外滩花园","lon":"121.507","lat":"31.228","category":"47","category_name":"住宅区","address":"上海市黄浦区中山南路222号"},{"poiid":"B2094757D465ABF8479E","title":"鸟真 Banni","lon":"121.504442","lat":"31.221024","category":"269","category_name":"烧烤","address":"黄浦区中山南路505号老码头7号楼107室(近复兴东路)"},{"poiid":"B2094655D264A0FE4098","title":"华润外滩九里","lon":"121.508","lat":"31.224","category":"47","category_name":"住宅区","address":"黄浦区中山南路460号"},{"poiid":"B2094757D168A2FF4999","title":"Rico Rico","lon":"121.507503738","lat":"31.2178780369","category":"500","category_name":"未知分类","address":"上海外滩奥斯卡"},{"poiid":"B2094757D069A5FD4799","title":"复星商务大厦","lon":"121.50396347","lat":"31.22221032","category":"46","category_name":"楼宇","address":"上海市黄浦区复兴东路2号"},{"poiid":"B2094654DA69A1F54192","title":"杨家渡轮渡站(张杨路)","lon":"121.50875","lat":"31.22412","category":"34","category_name":"港口码头","address":"张杨路1号"},{"poiid":"B2094757D06AA5F84992","title":"The table NO.1","lon":"121.50536722","lat":"31.220391924","category":"94","category_name":"西餐厅","address":"上海毛家园路2号"},{"poiid":"B2094654DA69A1F54292","title":"财富广场","lon":"121.5063","lat":"31.2279","category":"46","category_name":"楼宇","address":"上海市浦明路68号"},{"poiid":"B2094750D664A1FB489D","title":"外滩奥斯卡","lon":"121.507","lat":"31.2179","category":"260","category_name":"其他","address":"黄浦区外马路579号(近阳光沙滩)"},{"poiid":"B2094757D468A4FE4992","title":"富钜德国餐厅 Stiller's Restaurant","lon":"121.504501054","lat":"31.221032793","category":"94","category_name":"西餐厅","address":"黄浦区中山南路505弄13号楼6-7楼(近复兴东路)"},{"poiid":"B2094750D26EA7F94399","title":"老码头壹号会所 Club One Restaurant & Bar","lon":"121.504485054","lat":"31.221038793","category":"247","category_name":"餐饮美食","address":"中山南路505号老码头1号楼近复兴东路外滩"},{"poiid":"B2094654DB6BABF4499B","title":"汉庭快捷酒店(上海外滩店)","lon":"121.50508","lat":"31.22008","category":"216","category_name":"经济型连锁酒店","address":"上海黄浦区中山南路433号(近复兴东路)  "},{"poiid":"B2094757D16DAAF5439B","title":"外马路","lon":"121.503744938","lat":"31.2205340935","category":"500","category_name":"未知分类","address":"上海外马路"},{"poiid":"B2094757D06BA5FA479A","title":"怡景坊海鲜酒家","lon":"121.5103","lat":"31.22614","category":"72","category_name":"广东菜","address":"浦东新区浦明路266号(近启新路)"},{"poiid":"B2094750D269A5FF4998","title":"庆会楼 外滩店","lon":"121.504501054","lat":"31.221032793","category":"96","category_name":"韩国料理","address":"黄浦区中山南路505弄老码头2号楼2楼(近复兴东路)"},{"poiid":"B2094654DA69A1F54193","title":"东昌滨江绿地","lon":"121.50794","lat":"31.22484","category":"202","category_name":"公园广场","address":"浦东新区商城路(东方路商城路)"},{"poiid":"B2094757D465A3FD449E","title":"外滩第一台 Table Number 1","lon":"121.504926","lat":"31.22005","category":"67","category_name":"甜品店","address":"黄浦区毛家园路1-3号(近中山南路)"},{"poiid":"B2094757D06FA3F4459C","title":"复兴东路隧道","lon":"121.50697493","lat":"31.223042371","category":"260","category_name":"其他","address":"上海黄浦区复兴东路-浦东新区张杨路"},{"poiid":"B2094751D465A1F54798","title":"罗望子泰越餐厅酒吧","lon":"121.503281","lat":"31.220581","category":"99","category_name":"泰国／越南菜品餐厅","address":"黄浦区中山南路505号老码头10号楼B座(近新码头街)"},{"poiid":"B2094750DB6FA5FC419E","title":"中华艺术宫","lon":"121.506881","lat":"31.223091","category":"250","category_name":"公园户外","address":null},{"poiid":"B2094757D568A1FF439C","title":"老码头休闲创意园","lon":"121.5051547","lat":"31.21956889","category":"248","category_name":"生活娱乐","address":"中山南路479弄"},{"poiid":"B2094757DB6CA6FC4199","title":"好乐迪","lon":"121.5043331429361","lat":"31.22490214062436","category":"248","category_name":"生活娱乐","address":"八佰伴"},{"poiid":"B2094655D265A6F84893","title":"绿城黄浦湾","lon":"121.511","lat":"31.2238","category":"47","category_name":"住宅区","address":"黄浦区中山南路566弄"},{"poiid":"B2094757D064ABFA499D","title":"财富海景花园","lon":"121.5089","lat":"31.225681","category":"47","category_name":"住宅区","address":"上海市浦东新区浦明路258弄"},{"poiid":"B2094757D465A5F4409B","title":"红摩西餐厅&酒吧 Rouge Morile Restaurant&Bar","lon":"121.508812054","lat":"31.224427793","category":"94","category_name":"西餐厅","address":"浦东新区滨江大道3888号红摩广场内(近张杨路)"},{"poiid":"B2094752D469A5F54792","title":"年代秀饭堂","lon":"121.505996","lat":"31.223016","category":"247","category_name":"餐饮美食","address":"雅居乐广场"},{"poiid":"B2094757D16DAAFE4999","title":"Char Bar","lon":"121.5052","lat":"31.21872","category":"260","category_name":"其他","address":"黄浦区中山南路505弄老码头10号楼B座(近外马路)"},{"poiid":"B2094655D36DA6FF469A","title":"杨家渡","lon":"121.50893","lat":"31.22434","category":"38","category_name":"公交车站","address":""},{"poiid":"B2094757DB6EA6FF4299","title":"上海水舍酒店","lon":"121.505666971","lat":"31.220192293","category":"213","category_name":"五星级宾馆","address":"毛家园路1-3号(近外马路)"},{"poiid":"B2094757D168A4F4469E","title":"caffein intelligentsia","lon":"121.506032825","lat":"31.2197501522","category":"500","category_name":"未知分类","address":"中山南路505弄老码头7号楼101-103室(近复兴东路)"},{"poiid":"B2094757D464A7FB439F","title":"申绅会馆","lon":"121.504408","lat":"31.221194","category":"247","category_name":"餐饮美食","address":"中山南路505号老码头5号楼3-6楼近毛家园路"},{"poiid":"B2094757DB69A5FD4192","title":"小南国 上海码头店","lon":"121.506884","lat":"31.218189","category":"247","category_name":"餐饮美食","address":"外马路579号4楼近新码头街"},{"poiid":"B2094757D16FA3F5409D","title":"嘉颐汇会所","lon":"121.508835","lat":"31.226796","category":"500","category_name":"未知分类","address":"上海浦东新区浦明路266号"},{"poiid":"B2094757D064A5FD4598","title":"滨江大道篮球场","lon":"121.50904347","lat":"31.2245733115","category":"220","category_name":"运动场所","address":"上海浦东新区滨江大道(近杨家渡轮渡站)"},{"poiid":"B2094757D464AAFB4298","title":"咖啡饮 中山南路店 Caffe In","lon":"121.504501054","lat":"31.221032793","category":"65","category_name":"咖啡厅","address":"黄浦区中山南路505弄老码头7号楼101-103室(近复兴东路)"},{"poiid":"B209475CD66DA0FE4393","title":"滨江大道","lon":"121.507514","lat":"31.221799","category":"500","category_name":"未知分类","address":"上海市 滨江路3788号"},{"poiid":"B2094757D568A0FB449D","title":"THE WATERHOUSE AT SOUTH BUND","lon":"121.50592828","lat":"31.2198763","category":"251","category_name":"出行住宿","address":"毛家园路1-3号"},{"poiid":"B2094655D268A6FC4293","title":"老码头","lon":"121.50566","lat":"31.21965","category":"119","category_name":"商场","address":"上海闵行区七莘路3166号七宝乐购对面(近新龙路)  "},{"poiid":"B2094757D06FA6FF459E","title":"老码头·阳光沙滩","lon":"121.50603012","lat":"31.220198143","category":"234","category_name":"海滨浴场","address":"黄浦区外马路421号(近复兴东路)"},{"poiid":"B2094757D66FA6FA4892","title":"星巴克(老码头店)","lon":"121.5050866","lat":"31.219239","category":"260","category_name":"其他","address":"黄浦区中山南路505弄老码头5号楼101室(近复兴东路)"},{"poiid":"B209475CD564A7F84392","title":"上海滩浦东香格里拉店","lon":"121.50058","lat":"31.23634","category":"119","category_name":"商场","address":"浦东富成路33号香格里拉酒店内大堂层"},{"poiid":"B2094757D168A6FC439E","title":"奥斯卡会所&薇丝酒吧","lon":"121.507143738","lat":"31.2182860456","category":"174","category_name":"迪厅","address":"上海外滩"},{"poiid":"B2094757D068A2F94298","title":"黄浦江","lon":"121.50752895","lat":"31.220529166","category":"500","category_name":"未知分类","address":"上海黄浦江畔"},{"poiid":"B2094757D169A6FB4899","title":"Long House","lon":"121.505718738","lat":"31.2196240741","category":"110","category_name":"其他亚洲菜","address":"黄浦区中山南路505弄老码头7号楼105室"},{"poiid":"B2094654DA6EA4F9439D","title":"新源广场","lon":"121.51","lat":"31.2273","category":"46","category_name":"楼宇","address":"中山南路268号"},{"poiid":"B2094757D16EA7FC419E","title":"滨江大道黄浦江畔","lon":"121.50977173","lat":"31.226162213","category":"500","category_name":"未知分类","address":"上海市浦东新区滨江大道"},{"poiid":"B2094757D06FA1FA419F","title":"复兴东路轮渡站","lon":"121.50405883","lat":"31.22277069","category":"35","category_name":"长途汽车站","address":"上海市黄浦区复兴东路1号"},{"poiid":"B2094757D068A5FD499D","title":"Top Choice","lon":"121.50526","lat":"31.21865","category":"260","category_name":"其他","address":"黄浦区中山南路505弄老码头9号楼(近复兴东路)"},{"poiid":"B2094757D069A2F94499","title":"小南国(老码头店)","lon":"121.50562073","lat":"31.219640074","category":"76","category_name":"上海菜","address":"虹口区四川北路1350号中信泰富申虹广场3楼304单元"},{"poiid":"B2094757D66BA1FC4793","title":"峯铁板烧","lon":"121.5069581","lat":"31.2178715","category":"269","category_name":"烧烤","address":"黄浦区外马路579号2号库302室"},{"poiid":"B2094757D068A6FE429C","title":"金外滩花园","lon":"121.507","lat":"31.228","category":"47","category_name":"住宅区","address":"上海市黄浦区中山南路222号"},{"poiid":"B2094757D465ABF8479E","title":"鸟真 Banni","lon":"121.504442","lat":"31.221024","category":"269","category_name":"烧烤","address":"黄浦区中山南路505号老码头7号楼107室(近复兴东路)"},{"poiid":"B2094655D264A0FE4098","title":"华润外滩九里","lon":"121.508","lat":"31.224","category":"47","category_name":"住宅区","address":"黄浦区中山南路460号"},{"poiid":"B2094757D168A2FF4999","title":"Rico Rico","lon":"121.507503738","lat":"31.2178780369","category":"500","category_name":"未知分类","address":"上海外滩奥斯卡"},{"poiid":"B2094757D069A5FD4799","title":"复星商务大厦","lon":"121.50396347","lat":"31.22221032","category":"46","category_name":"楼宇","address":"上海市黄浦区复兴东路2号"},{"poiid":"B2094654DA69A1F54192","title":"杨家渡轮渡站(张杨路)","lon":"121.50875","lat":"31.22412","category":"34","category_name":"港口码头","address":"张杨路1号"},{"poiid":"B2094757D06AA5F84992","title":"The table NO.1","lon":"121.50536722","lat":"31.220391924","category":"94","category_name":"西餐厅","address":"上海毛家园路2号"},{"poiid":"B2094654DA69A1F54292","title":"财富广场","lon":"121.5063","lat":"31.2279","category":"46","category_name":"楼宇","address":"上海市浦明路68号"},{"poiid":"B2094750D664A1FB489D","title":"外滩奥斯卡","lon":"121.507","lat":"31.2179","category":"260","category_name":"其他","address":"黄浦区外马路579号(近阳光沙滩)"},{"poiid":"B2094757D468A4FE4992","title":"富钜德国餐厅 Stiller's Restaurant","lon":"121.504501054","lat":"31.221032793","category":"94","category_name":"西餐厅","address":"黄浦区中山南路505弄13号楼6-7楼(近复兴东路)"},{"poiid":"B2094750D26EA7F94399","title":"老码头壹号会所 Club One Restaurant & Bar","lon":"121.504485054","lat":"31.221038793","category":"247","category_name":"餐饮美食","address":"中山南路505号老码头1号楼近复兴东路外滩"},{"poiid":"B2094654DB6BABF4499B","title":"汉庭快捷酒店(上海外滩店)","lon":"121.50508","lat":"31.22008","category":"216","category_name":"经济型连锁酒店","address":"上海黄浦区中山南路433号(近复兴东路)  "},{"poiid":"B2094757D16DAAF5439B","title":"外马路","lon":"121.503744938","lat":"31.2205340935","category":"500","category_name":"未知分类","address":"上海外马路"},{"poiid":"B2094757D06BA5FA479A","title":"怡景坊海鲜酒家","lon":"121.5103","lat":"31.22614","category":"72","category_name":"广东菜","address":"浦东新区浦明路266号(近启新路)"},{"poiid":"B2094750D269A5FF4998","title":"庆会楼 外滩店","lon":"121.504501054","lat":"31.221032793","category":"96","category_name":"韩国料理","address":"黄浦区中山南路505弄老码头2号楼2楼(近复兴东路)"},{"poiid":"B2094654DA69A1F54193","title":"东昌滨江绿地","lon":"121.50794","lat":"31.22484","category":"202","category_name":"公园广场","address":"浦东新区商城路(东方路商城路)"},{"poiid":"B2094757D465A3FD449E","title":"外滩第一台 Table Number 1","lon":"121.504926","lat":"31.22005","category":"67","category_name":"甜品店","address":"黄浦区毛家园路1-3号(近中山南路)"},{"poiid":"B2094757D06FA3F4459C","title":"复兴东路隧道","lon":"121.50697493","lat":"31.223042371","category":"260","category_name":"其他","address":"上海黄浦区复兴东路-浦东新区张杨路"},{"poiid":"B2094751D465A1F54798","title":"罗望子泰越餐厅酒吧","lon":"121.503281","lat":"31.220581","category":"99","category_name":"泰国／越南菜品餐厅","address":"黄浦区中山南路505号老码头10号楼B座(近新码头街)"},{"poiid":"B2094750DB6FA5FC419E","title":"中华艺术宫","lon":"121.506881","lat":"31.223091","category":"250","category_name":"公园户外","address":null},{"poiid":"B2094757D568A1FF439C","title":"老码头休闲创意园","lon":"121.5051547","lat":"31.21956889","category":"248","category_name":"生活娱乐","address":"中山南路479弄"},{"poiid":"B2094757DB6CA6FC4199","title":"好乐迪","lon":"121.5043331429361","lat":"31.22490214062436","category":"248","category_name":"生活娱乐","address":"八佰伴"},{"poiid":"B2094655D265A6F84893","title":"绿城黄浦湾","lon":"121.511","lat":"31.2238","category":"47","category_name":"住宅区","address":"黄浦区中山南路566弄"},{"poiid":"B2094757D064ABFA499D","title":"财富海景花园","lon":"121.5089","lat":"31.225681","category":"47","category_name":"住宅区","address":"上海市浦东新区浦明路258弄"},{"poiid":"B2094757D465A5F4409B","title":"红摩西餐厅&酒吧 Rouge Morile Restaurant&Bar","lon":"121.508812054","lat":"31.224427793","category":"94","category_name":"西餐厅","address":"浦东新区滨江大道3888号红摩广场内(近张杨路)"},{"poiid":"B2094752D469A5F54792","title":"年代秀饭堂","lon":"121.505996","lat":"31.223016","category":"247","category_name":"餐饮美食","address":"雅居乐广场"},{"poiid":"B2094757D16DAAFE4999","title":"Char Bar","lon":"121.5052","lat":"31.21872","category":"260","category_name":"其他","address":"黄浦区中山南路505弄老码头10号楼B座(近外马路)"},{"poiid":"B2094655D36DA6FF469A","title":"杨家渡","lon":"121.50893","lat":"31.22434","category":"38","category_name":"公交车站","address":""},{"poiid":"B2094757DB6EA6FF4299","title":"上海水舍酒店","lon":"121.505666971","lat":"31.220192293","category":"213","category_name":"五星级宾馆","address":"毛家园路1-3号(近外马路)"},{"poiid":"B2094757D168A4F4469E","title":"caffein intelligentsia","lon":"121.506032825","lat":"31.2197501522","category":"500","category_name":"未知分类","address":"中山南路505弄老码头7号楼101-103室(近复兴东路)"},{"poiid":"B2094757D464A7FB439F","title":"申绅会馆","lon":"121.504408","lat":"31.221194","category":"247","category_name":"餐饮美食","address":"中山南路505号老码头5号楼3-6楼近毛家园路"},{"poiid":"B2094757DB69A5FD4192","title":"小南国 上海码头店","lon":"121.506884","lat":"31.218189","category":"247","category_name":"餐饮美食","address":"外马路579号4楼近新码头街"},{"poiid":"B2094757D16FA3F5409D","title":"嘉颐汇会所","lon":"121.508835","lat":"31.226796","category":"500","category_name":"未知分类","address":"上海浦东新区浦明路266号"},{"poiid":"B2094757D064A5FD4598","title":"滨江大道篮球场","lon":"121.50904347","lat":"31.2245733115","category":"220","category_name":"运动场所","address":"上海浦东新区滨江大道(近杨家渡轮渡站)"},{"poiid":"B2094757D464AAFB4298","title":"咖啡饮 中山南路店 Caffe In","lon":"121.504501054","lat":"31.221032793","category":"65","category_name":"咖啡厅","address":"黄浦区中山南路505弄老码头7号楼101-103室(近复兴东路)"},{"poiid":"B209475CD66DA0FE4393","title":"滨江大道","lon":"121.507514","lat":"31.221799","category":"500","category_name":"未知分类","address":"上海市 滨江路3788号"},{"poiid":"B2094757D568A0FB449D","title":"THE WATERHOUSE AT SOUTH BUND","lon":"121.50592828","lat":"31.2198763","category":"251","category_name":"出行住宿","address":"毛家园路1-3号"},{"poiid":"B2094655D268A6FC4293","title":"老码头","lon":"121.50566","lat":"31.21965","category":"119","category_name":"商场","address":"上海闵行区七莘路3166号七宝乐购对面(近新龙路)  "},{"poiid":"B2094757D06FA6FF459E","title":"老码头·阳光沙滩","lon":"121.50603012","lat":"31.220198143","category":"234","category_name":"海滨浴场","address":"黄浦区外马路421号(近复兴东路)"},{"poiid":"B2094757D66FA6FA4892","title":"星巴克(老码头店)","lon":"121.5050866","lat":"31.219239","category":"260","category_name":"其他","address":"黄浦区中山南路505弄老码头5号楼101室(近复兴东路)"},{"poiid":"B209475CD564A7F84392","title":"上海滩浦东香格里拉店","lon":"121.50058","lat":"31.23634","category":"119","category_name":"商场","address":"浦东富成路33号香格里拉酒店内大堂层"},{"poiid":"B2094757D168A6FC439E","title":"奥斯卡会所&薇丝酒吧","lon":"121.507143738","lat":"31.2182860456","category":"174","category_name":"迪厅","address":"上海外滩"},{"poiid":"B2094757D068A2F94298","title":"黄浦江","lon":"121.50752895","lat":"31.220529166","category":"500","category_name":"未知分类","address":"上海黄浦江畔"},{"poiid":"B2094757D169A6FB4899","title":"Long House","lon":"121.505718738","lat":"31.2196240741","category":"110","category_name":"其他亚洲菜","address":"黄浦区中山南路505弄老码头7号楼105室"},{"poiid":"B2094654DA6EA4F9439D","title":"新源广场","lon":"121.51","lat":"31.2273","category":"46","category_name":"楼宇","address":"中山南路268号"},{"poiid":"B2094757D16EA7FC419E","title":"滨江大道黄浦江畔","lon":"121.50977173","lat":"31.226162213","category":"500","category_name":"未知分类","address":"上海市浦东新区滨江大道"},{"poiid":"B2094757D06FA1FA419F","title":"复兴东路轮渡站","lon":"121.50405883","lat":"31.22277069","category":"35","category_name":"长途汽车站","address":"上海市黄浦区复兴东路1号"},{"poiid":"B2094757D068A5FD499D","title":"Top Choice","lon":"121.50526","lat":"31.21865","category":"260","category_name":"其他","address":"黄浦区中山南路505弄老码头9号楼(近复兴东路)"},{"poiid":"B2094757D069A2F94499","title":"小南国(老码头店)","lon":"121.50562073","lat":"31.219640074","category":"76","category_name":"上海菜","address":"虹口区四川北路1350号中信泰富申虹广场3楼304单元"},{"poiid":"B2094757D66BA1FC4793","title":"峯铁板烧","lon":"121.5069581","lat":"31.2178715","category":"269","category_name":"烧烤","address":"黄浦区外马路579号2号库302室"},{"poiid":"B2094757D068A6FE429C","title":"金外滩花园","lon":"121.507","lat":"31.228","category":"47","category_name":"住宅区","address":"上海市黄浦区中山南路222号"},{"poiid":"B2094757D465ABF8479E","title":"鸟真 Banni","lon":"121.504442","lat":"31.221024","category":"269","category_name":"烧烤","address":"黄浦区中山南路505号老码头7号楼107室(近复兴东路)"},{"poiid":"B2094655D264A0FE4098","title":"华润外滩九里","lon":"121.508","lat":"31.224","category":"47","category_name":"住宅区","address":"黄浦区中山南路460号"},{"poiid":"B2094757D168A2FF4999","title":"Rico Rico","lon":"121.507503738","lat":"31.2178780369","category":"500","category_name":"未知分类","address":"上海外滩奥斯卡"},{"poiid":"B2094757D069A5FD4799","title":"复星商务大厦","lon":"121.50396347","lat":"31.22221032","category":"46","category_name":"楼宇","address":"上海市黄浦区复兴东路2号"},{"poiid":"B2094654DA69A1F54192","title":"杨家渡轮渡站(张杨路)","lon":"121.50875","lat":"31.22412","category":"34","category_name":"港口码头","address":"张杨路1号"},{"poiid":"B2094757D06AA5F84992","title":"The table NO.1","lon":"121.50536722","lat":"31.220391924","category":"94","category_name":"西餐厅","address":"上海毛家园路2号"},{"poiid":"B2094654DA69A1F54292","title":"财富广场","lon":"121.5063","lat":"31.2279","category":"46","category_name":"楼宇","address":"上海市浦明路68号"},{"poiid":"B2094750D664A1FB489D","title":"外滩奥斯卡","lon":"121.507","lat":"31.2179","category":"260","category_name":"其他","address":"黄浦区外马路579号(近阳光沙滩)"},{"poiid":"B2094757D468A4FE4992","title":"富钜德国餐厅 Stiller's Restaurant","lon":"121.504501054","lat":"31.221032793","category":"94","category_name":"西餐厅","address":"黄浦区中山南路505弄13号楼6-7楼(近复兴东路)"},{"poiid":"B2094750D26EA7F94399","title":"老码头壹号会所 Club One Restaurant & Bar","lon":"121.504485054","lat":"31.221038793","category":"247","category_name":"餐饮美食","address":"中山南路505号老码头1号楼近复兴东路外滩"},{"poiid":"B2094654DB6BABF4499B","title":"汉庭快捷酒店(上海外滩店)","lon":"121.50508","lat":"31.22008","category":"216","category_name":"经济型连锁酒店","address":"上海黄浦区中山南路433号(近复兴东路)  "},{"poiid":"B2094757D16DAAF5439B","title":"外马路","lon":"121.503744938","lat":"31.2205340935","category":"500","category_name":"未知分类","address":"上海外马路"},{"poiid":"B2094757D06BA5FA479A","title":"怡景坊海鲜酒家","lon":"121.5103","lat":"31.22614","category":"72","category_name":"广东菜","address":"浦东新区浦明路266号(近启新路)"},{"poiid":"B2094750D269A5FF4998","title":"庆会楼 外滩店","lon":"121.504501054","lat":"31.221032793","category":"96","category_name":"韩国料理","address":"黄浦区中山南路505弄老码头2号楼2楼(近复兴东路)"},{"poiid":"B2094654DA69A1F54193","title":"东昌滨江绿地","lon":"121.50794","lat":"31.22484","category":"202","category_name":"公园广场","address":"浦东新区商城路(东方路商城路)"},{"poiid":"B2094757D465A3FD449E","title":"外滩第一台 Table Number 1","lon":"121.504926","lat":"31.22005","category":"67","category_name":"甜品店","address":"黄浦区毛家园路1-3号(近中山南路)"},{"poiid":"B2094757D06FA3F4459C","title":"复兴东路隧道","lon":"121.50697493","lat":"31.223042371","category":"260","category_name":"其他","address":"上海黄浦区复兴东路-浦东新区张杨路"},{"poiid":"B2094751D465A1F54798","title":"罗望子泰越餐厅酒吧","lon":"121.503281","lat":"31.220581","category":"99","category_name":"泰国／越南菜品餐厅","address":"黄浦区中山南路505号老码头10号楼B座(近新码头街)"},{"poiid":"B2094750DB6FA5FC419E","title":"中华艺术宫","lon":"121.506881","lat":"31.223091","category":"250","category_name":"公园户外","address":null},{"poiid":"B2094757D568A1FF439C","title":"老码头休闲创意园","lon":"121.5051547","lat":"31.21956889","category":"248","category_name":"生活娱乐","address":"中山南路479弄"},{"poiid":"B2094757DB6CA6FC4199","title":"好乐迪","lon":"121.5043331429361","lat":"31.22490214062436","category":"248","category_name":"生活娱乐","address":"八佰伴"},{"poiid":"B2094655D265A6F84893","title":"绿城黄浦湾","lon":"121.511","lat":"31.2238","category":"47","category_name":"住宅区","address":"黄浦区中山南路566弄"},{"poiid":"B2094757D064ABFA499D","title":"财富海景花园","lon":"121.5089","lat":"31.225681","category":"47","category_name":"住宅区","address":"上海市浦东新区浦明路258弄"},{"poiid":"B2094757D465A5F4409B","title":"红摩西餐厅&酒吧 Rouge Morile Restaurant&Bar","lon":"121.508812054","lat":"31.224427793","category":"94","category_name":"西餐厅","address":"浦东新区滨江大道3888号红摩广场内(近张杨路)"},{"poiid":"B2094752D469A5F54792","title":"年代秀饭堂","lon":"121.505996","lat":"31.223016","category":"247","category_name":"餐饮美食","address":"雅居乐广场"},{"poiid":"B2094757D16DAAFE4999","title":"Char Bar","lon":"121.5052","lat":"31.21872","category":"260","category_name":"其他","address":"黄浦区中山南路505弄老码头10号楼B座(近外马路)"},{"poiid":"B2094655D36DA6FF469A","title":"杨家渡","lon":"121.50893","lat":"31.22434","category":"38","category_name":"公交车站","address":""},{"poiid":"B2094757DB6EA6FF4299","title":"上海水舍酒店","lon":"121.505666971","lat":"31.220192293","category":"213","category_name":"五星级宾馆","address":"毛家园路1-3号(近外马路)"},{"poiid":"B2094757D168A4F4469E","title":"caffein intelligentsia","lon":"121.506032825","lat":"31.2197501522","category":"500","category_name":"未知分类","address":"中山南路505弄老码头7号楼101-103室(近复兴东路)"},{"poiid":"B2094757D464A7FB439F","title":"申绅会馆","lon":"121.504408","lat":"31.221194","category":"247","category_name":"餐饮美食","address":"中山南路505号老码头5号楼3-6楼近毛家园路"},{"poiid":"B2094757DB69A5FD4192","title":"小南国 上海码头店","lon":"121.506884","lat":"31.218189","category":"247","category_name":"餐饮美食","address":"外马路579号4楼近新码头街"},{"poiid":"B2094757D16FA3F5409D","title":"嘉颐汇会所","lon":"121.508835","lat":"31.226796","category":"500","category_name":"未知分类","address":"上海浦东新区浦明路266号"},{"poiid":"B2094757D064A5FD4598","title":"滨江大道篮球场","lon":"121.50904347","lat":"31.2245733115","category":"220","category_name":"运动场所","address":"上海浦东新区滨江大道(近杨家渡轮渡站)"},{"poiid":"B2094757D464AAFB4298","title":"咖啡饮 中山南路店 Caffe In","lon":"121.504501054","lat":"31.221032793","category":"65","category_name":"咖啡厅","address":"黄浦区中山南路505弄老码头7号楼101-103室(近复兴东路)"},{"poiid":"B209475CD66DA0FE4393","title":"滨江大道","lon":"121.507514","lat":"31.221799","category":"500","category_name":"未知分类","address":"上海市 滨江路3788号"},{"poiid":"B2094757D568A0FB449D","title":"THE WATERHOUSE AT SOUTH BUND","lon":"121.50592828","lat":"31.2198763","category":"251","category_name":"出行住宿","address":"毛家园路1-3号"}]