[{"poiid":"B2094655D26DA7FB4592","title":"证大·大拇指广场","lon":"121.55924","lat":"31.22688","category":"119","category_name":"商场","address":"芳甸路199弄1-57号"},{"poiid":"B2094757D06EAAF44698","title":"好乐迪量贩式KTV(大拇指广场店)","lon":"121.55962636","lat":"31.226885364","category":"170","category_name":"KTV","address":"上海浦东芳甸路199弄36号"},{"poiid":"B2094757D16DA1FE4098","title":"California pizza kitchen(嘉里城店)","lon":"121.5616","lat":"31.21347","category":"94","category_name":"西餐厅","address":"浦东新区花木路1378号浦东嘉里城2楼L231室(近芳甸路)"},{"poiid":"B2094757D06FA1FF439A","title":"苏浙汇(联洋店)","lon":"121.55879","lat":"31.22629","category":"76","category_name":"上海菜","address":"浦东新区芳甸路300号联洋广场C区3楼(近迎春路)"},{"poiid":"B2094757D06FA5FC419A","title":"藏珑泰极(大拇指广场店)","lon":"121.56025","lat":"31.22682","category":"99","category_name":"泰国／越南菜品餐厅","address":"浦东新区芳甸路199弄大拇指广场19号3楼(近丁香路)"},{"poiid":"B2094757D06FA2FC4892","title":"避风塘(芳甸路店)","lon":"121.55852","lat":"31.22608","category":"72","category_name":"广东菜","address":"浦东新区芳甸路300号联洋广场(迎春路口)"},{"poiid":"B2094757D06FA7FF4798","title":"炉边情谈","lon":"121.559279737","lat":"31.2265295573","category":"96","category_name":"韩国料理","address":"浦东新区芳甸路199弄40号大拇指广场53A号(迎春路口)"},{"poiid":"B2094654DB6AA6FF449F","title":"证大丽笙酒店","lon":"121.56049","lat":"31.22634","category":"213","category_name":"五星级宾馆","address":"浦东新区迎春路1199号(近芳甸路)"},{"poiid":"B2094757D06FA5F4489D","title":"斗牛士(联洋店)","lon":"121.558331925","lat":"31.2258500724","category":"94","category_name":"西餐厅","address":"浦东新区芳甸路199弄300号联洋广场4楼(近大拇指广场)"},{"poiid":"B2094757D569A1FD4199","title":"埔里老镇","lon":"121.5603125","lat":"31.22719916","category":"91","category_name":"台湾菜","address":"浦东新区芳甸路199弄大拇指广场19号2楼(近迎春路)"},{"poiid":"B2094655D26DA1F94998","title":"世纪公园(四号门)","lon":"121.56079","lat":"31.21623","category":"680","category_name":"楼宇机构","address":"芳甸路858"},{"poiid":"B2094757D068A2FD489E","title":"九间堂","lon":"121.5620138","lat":"31.222304185","category":"500","category_name":"未知分类","address":"浦东新区芳甸路599弄1号(近锦绣路)"},{"poiid":"B2094757D66DA0FA499D","title":"上海出入境","lon":"121.559001975","lat":"31.220153825","category":"500","category_name":"未知分类","address":"上海市浦东新区民生路1500号"},{"poiid":"B2094757D064A1F5499B","title":"龙阳路磁悬浮","lon":"121.560088975","lat":"31.2184807858","category":"500","category_name":"未知分类","address":"上海龙阳路"},{"poiid":"B2094757D069A4F4439D","title":"丰收日(联洋店)","lon":"121.559593975","lat":"31.2257219552","category":"75","category_name":"浙江菜","address":"浦东新区芳甸路300号联洋广场A区4楼(近迎春路)"},{"poiid":"B2094757D069A0F84892","title":"希腊餐厅(芳甸路店)","lon":"121.559723585","lat":"31.2261000756","category":"94","category_name":"西餐厅","address":"浦东新区芳甸路199弄证大大拇指广场43号1楼41铺(近杨高中路)"},{"poiid":"B2094757D068A3FC4199","title":"韩林炭烤(联洋店)","lon":"121.55924","lat":"31.22601","category":"96","category_name":"韩国料理","address":"上海浦东新区芳甸路199弄证大大拇指广场48号(近杨高中路)  "},{"poiid":"B2094655D26EA0FC4492","title":"沃歌斯","lon":"121.55816","lat":"31.23072","category":"94","category_name":"西餐厅","address":"浦东新区芳甸路199弄证大大拇指广场31号(南洋泾路杨高中路)"},{"poiid":"B2094655D265A2FD429D","title":"联洋营业厅","lon":"121.5592","lat":"31.22576","category":"151","category_name":"电讯营业厅","address":"浦东新区芳甸路285号"},{"poiid":"B2094757D06FABFD429C","title":"蒂梵尼造型设计(联洋广场店)","lon":"121.55922","lat":"31.22583","category":"148","category_name":"美容美发店","address":"浦东新区芳甸路300号联洋广场B区3楼(近大拇指广场)"},{"poiid":"B2094751D469A0F8479C","title":"唐鱼儿麻辣鲜鱼火锅","lon":"121.560104","lat":"31.225509","category":"86","category_name":"火锅店","address":"浦东新区芳甸路199弄40号大拇指广场46号(近迎春路)"},{"poiid":"B2094751D46BABFD469F","title":"义面屋","lon":"121.55899","lat":"31.225021","category":"94","category_name":"西餐厅","address":"浦东新区芳甸路199弄大拇指广场19号(预计12月开业)"},{"poiid":"B2094757D068A6FB4198","title":"许留山 联洋广场店 Hui Lau Shan","lon":"121.55758","lat":"31.22673","category":"67","category_name":"甜品店","address":"浦东新区芳甸路199弄40号联洋广场A座2楼(近迎春路)"},{"poiid":"B2094757D06AA2F84793","title":"近江和牛","lon":"121.5593909","lat":"31.226675604","category":"247","category_name":"餐饮美食","address":"上海大拇指广场"},{"poiid":"B2094757D16CA1FB409C","title":"小南国烧烤(大拇指店)","lon":"121.558883975","lat":"31.2262306671","category":"247","category_name":"餐饮美食","address":"上海芳甸路199弄40号大拇指广场一楼"},{"poiid":"B2094751D569AAFE499B","title":"Lapasta 義麵屋","lon":"121.559636","lat":"31.226118","category":"247","category_name":"餐饮美食","address":"浦東新區芳甸路199弄33號2樓"},{"poiid":"B2094757D065A0F44593","title":"爱尔兰文化餐厅","lon":"121.5593","lat":"31.22628","category":"94","category_name":"西餐厅","address":"浦东新区芳甸路199弄40号大拇指广场20号(迎春路口)"},{"poiid":"B2094757D068A1F9429C","title":"家乐福(大拇指广场店)","lon":"121.55993652","lat":"31.226459503","category":"118","category_name":"超级市场","address":"上海浦东新区芳甸路199弄 大拇指广场地下一层"},{"poiid":"B2094757D165A6FA4892","title":"俏江南","lon":"121.55993697","lat":"31.21867379","category":"500","category_name":"未知分类","address":"上海市浦东新区锦绣路"},{"poiid":"B2094757D16AA3F94199","title":"二号线上海科技馆站","lon":"121.55862497","lat":"31.220030822","category":"500","category_name":"未知分类","address":"上海市浦东新区长柳路"},{"poiid":"B2094757D568A0FF4498","title":"九间堂别墅","lon":"121.5613469","lat":"31.22273611","category":"47","category_name":"住宅区","address":"上海市浦东新区锦安东路88弄"},{"poiid":"B2094654DA69A1FF459E","title":"泓叶","lon":"121.55912","lat":"31.22608","category":"76","category_name":"上海菜","address":"浦东新区芳甸路199弄40号大拇指广场内(迎春路口)"},{"poiid":"B2094757D16CA4FE4293","title":"海游吞拿","lon":"121.55948767","lat":"31.225968761","category":"95","category_name":"日本料理","address":"芳甸路199弄大拇指广场2楼近杨高中路"},{"poiid":"B2094750D165A2F84892","title":"深井大叔(大拇指店)","lon":"121.559715","lat":"31.226057","category":"72","category_name":"广东菜","address":"浦东新区芳甸路199弄证大大拇指广场43号1楼"},{"poiid":"B2094655D26EA3FF499C","title":"华丽家族花园","lon":"121.55773","lat":"31.22375","category":"47","category_name":"住宅区","address":"上海市浦东新区锦绣路666号"},{"poiid":"B2094752D16EA1FF4899","title":"竹若金枪鱼","lon":"121.558091","lat":"31.225088","category":"247","category_name":"餐饮美食","address":"芳甸路199弄大拇指广场51号(近丁香路)"},{"poiid":"B2094655D36CA6F9429F","title":"芳甸路锦绣路","lon":"121.55989","lat":"31.22159","category":"38","category_name":"公交车站","address":""},{"poiid":"B2094750DA6AAAFD489A","title":"必胜客上海大拇指店","lon":"121.559555","lat":"31.222763","category":"500","category_name":"未知分类","address":null},{"poiid":"B2094757D568A5FF489D","title":"近江和牛正传日本料理","lon":"121.55987901","lat":"31.22658773","category":"95","category_name":"日本料理","address":"浦东新区芳甸路199弄大拇指广场2楼(丁香路芳甸路)"},{"poiid":"B2094655D26BA0FB449C","title":"世纪咖啡","lon":"121.55983","lat":"31.22096","category":"65","category_name":"咖啡厅","address":"芳甸路666号世纪公园内"},{"poiid":"B2094655D265AAF8449C","title":"水上餐厅","lon":"121.55983","lat":"31.22096","category":"257","category_name":"中餐厅","address":"芳甸路666号世纪公园2号门附近"},{"poiid":"B2094757D06AA2FE429A","title":"(友和)东京和食","lon":"121.55797697","lat":"31.226036962","category":"95","category_name":"日本料理","address":"浦东新区芳甸路300号联洋广场B区1楼B105室(近大拇指广场)"},{"poiid":"B2094757D16FA3F4489D","title":"韩林碳烤","lon":"121.56340789","lat":"31.223962783","category":"247","category_name":"餐饮美食","address":"上海大拇指广场"},{"poiid":"B2094751D36BA5FF4992","title":"家有好面（大拇指广场店）","lon":"121.55975","lat":"31.22646","category":"68","category_name":"快餐厅","address":"浦东新区芳甸路199弄38号大拇指广场1楼(近杨高中路)"},{"poiid":"B2094757D068A0FD4699","title":"唻吃面(芳甸路店)","lon":"121.55882","lat":"31.22628","category":"68","category_name":"快餐厅","address":"浦东新区芳甸路199弄40号联洋广场104(近迎春路)"},{"poiid":"B2094752DA6CA4F8499C","title":"上海新国际博览中心","lon":"121.558733","lat":"31.220081","category":"500","category_name":"未知分类","address":null},{"poiid":"B2094753DA6FA7F94793","title":"Mr.Pizza","lon":"121.564018","lat":"31.223802","category":"500","category_name":"未知分类","address":"上海市 上海市迎春路1089号大拇指广场(近芳甸路)"},{"poiid":"B2094654DA69A2FA4492","title":"金色维也纳","lon":"121.56512","lat":"31.22323","category":"47","category_name":"住宅区","address":"锦绣路333弄1-56号"},{"poiid":"B2094655D26DA0FD4799","title":"聚湘阁 大拇指广场店","lon":"121.559246054","lat":"31.227108793","category":"77","category_name":"湖南菜","address":"浦东新区芳甸路199弄40号大拇指广场内(迎春路口)"},{"poiid":"B2094757D168A3FE4293","title":"京世造型","lon":"121.55998807","lat":"31.225717235","category":"148","category_name":"美容美发店","address":"上海迎春路1110号(近芳甸路)"},{"poiid":"B2094655D26DA7FB4592","title":"证大·大拇指广场","lon":"121.55924","lat":"31.22688","category":"119","category_name":"商场","address":"芳甸路199弄1-57号"},{"poiid":"B2094757D06EAAF44698","title":"好乐迪量贩式KTV(大拇指广场店)","lon":"121.55962636","lat":"31.226885364","category":"170","category_name":"KTV","address":"上海浦东芳甸路199弄36号"},{"poiid":"B2094757D16DA1FE4098","title":"California pizza kitchen(嘉里城店)","lon":"121.5616","lat":"31.21347","category":"94","category_name":"西餐厅","address":"浦东新区花木路1378号浦东嘉里城2楼L231室(近芳甸路)"},{"poiid":"B2094757D06FA1FF439A","title":"苏浙汇(联洋店)","lon":"121.55879","lat":"31.22629","category":"76","category_name":"上海菜","address":"浦东新区芳甸路300号联洋广场C区3楼(近迎春路)"},{"poiid":"B2094757D06FA5FC419A","title":"藏珑泰极(大拇指广场店)","lon":"121.56025","lat":"31.22682","category":"99","category_name":"泰国／越南菜品餐厅","address":"浦东新区芳甸路199弄大拇指广场19号3楼(近丁香路)"},{"poiid":"B2094757D06FA2FC4892","title":"避风塘(芳甸路店)","lon":"121.55852","lat":"31.22608","category":"72","category_name":"广东菜","address":"浦东新区芳甸路300号联洋广场(迎春路口)"},{"poiid":"B2094757D06FA7FF4798","title":"炉边情谈","lon":"121.559279737","lat":"31.2265295573","category":"96","category_name":"韩国料理","address":"浦东新区芳甸路199弄40号大拇指广场53A号(迎春路口)"},{"poiid":"B2094654DB6AA6FF449F","title":"证大丽笙酒店","lon":"121.56049","lat":"31.22634","category":"213","category_name":"五星级宾馆","address":"浦东新区迎春路1199号(近芳甸路)"},{"poiid":"B2094757D06FA5F4489D","title":"斗牛士(联洋店)","lon":"121.558331925","lat":"31.2258500724","category":"94","category_name":"西餐厅","address":"浦东新区芳甸路199弄300号联洋广场4楼(近大拇指广场)"},{"poiid":"B2094757D569A1FD4199","title":"埔里老镇","lon":"121.5603125","lat":"31.22719916","category":"91","category_name":"台湾菜","address":"浦东新区芳甸路199弄大拇指广场19号2楼(近迎春路)"},{"poiid":"B2094655D26DA1F94998","title":"世纪公园(四号门)","lon":"121.56079","lat":"31.21623","category":"680","category_name":"楼宇机构","address":"芳甸路858"},{"poiid":"B2094757D068A2FD489E","title":"九间堂","lon":"121.5620138","lat":"31.222304185","category":"500","category_name":"未知分类","address":"浦东新区芳甸路599弄1号(近锦绣路)"},{"poiid":"B2094757D66DA0FA499D","title":"上海出入境","lon":"121.559001975","lat":"31.220153825","category":"500","category_name":"未知分类","address":"上海市浦东新区民生路1500号"},{"poiid":"B2094757D064A1F5499B","title":"龙阳路磁悬浮","lon":"121.560088975","lat":"31.2184807858","category":"500","category_name":"未知分类","address":"上海龙阳路"},{"poiid":"B2094757D069A4F4439D","title":"丰收日(联洋店)","lon":"121.559593975","lat":"31.2257219552","category":"75","category_name":"浙江菜","address":"浦东新区芳甸路300号联洋广场A区4楼(近迎春路)"},{"poiid":"B2094757D069A0F84892","title":"希腊餐厅(芳甸路店)","lon":"121.559723585","lat":"31.2261000756","category":"94","category_name":"西餐厅","address":"浦东新区芳甸路199弄证大大拇指广场43号1楼41铺(近杨高中路)"},{"poiid":"B2094757D068A3FC4199","title":"韩林炭烤(联洋店)","lon":"121.55924","lat":"31.22601","category":"96","category_name":"韩国料理","address":"上海浦东新区芳甸路199弄证大大拇指广场48号(近杨高中路)  "},{"poiid":"B2094655D26EA0FC4492","title":"沃歌斯","lon":"121.55816","lat":"31.23072","category":"94","category_name":"西餐厅","address":"浦东新区芳甸路199弄证大大拇指广场31号(南洋泾路杨高中路)"},{"poiid":"B2094655D265A2FD429D","title":"联洋营业厅","lon":"121.5592","lat":"31.22576","category":"151","category_name":"电讯营业厅","address":"浦东新区芳甸路285号"},{"poiid":"B2094757D06FABFD429C","title":"蒂梵尼造型设计(联洋广场店)","lon":"121.55922","lat":"31.22583","category":"148","category_name":"美容美发店","address":"浦东新区芳甸路300号联洋广场B区3楼(近大拇指广场)"},{"poiid":"B2094751D469A0F8479C","title":"唐鱼儿麻辣鲜鱼火锅","lon":"121.560104","lat":"31.225509","category":"86","category_name":"火锅店","address":"浦东新区芳甸路199弄40号大拇指广场46号(近迎春路)"},{"poiid":"B2094751D46BABFD469F","title":"义面屋","lon":"121.55899","lat":"31.225021","category":"94","category_name":"西餐厅","address":"浦东新区芳甸路199弄大拇指广场19号(预计12月开业)"},{"poiid":"B2094757D068A6FB4198","title":"许留山 联洋广场店 Hui Lau Shan","lon":"121.55758","lat":"31.22673","category":"67","category_name":"甜品店","address":"浦东新区芳甸路199弄40号联洋广场A座2楼(近迎春路)"},{"poiid":"B2094757D06AA2F84793","title":"近江和牛","lon":"121.5593909","lat":"31.226675604","category":"247","category_name":"餐饮美食","address":"上海大拇指广场"},{"poiid":"B2094757D16CA1FB409C","title":"小南国烧烤(大拇指店)","lon":"121.558883975","lat":"31.2262306671","category":"247","category_name":"餐饮美食","address":"上海芳甸路199弄40号大拇指广场一楼"},{"poiid":"B2094751D569AAFE499B","title":"Lapasta 義麵屋","lon":"121.559636","lat":"31.226118","category":"247","category_name":"餐饮美食","address":"浦東新區芳甸路199弄33號2樓"},{"poiid":"B2094757D065A0F44593","title":"爱尔兰文化餐厅","lon":"121.5593","lat":"31.22628","category":"94","category_name":"西餐厅","address":"浦东新区芳甸路199弄40号大拇指广场20号(迎春路口)"},{"poiid":"B2094757D068A1F9429C","title":"家乐福(大拇指广场店)","lon":"121.55993652","lat":"31.226459503","category":"118","category_name":"超级市场","address":"上海浦东新区芳甸路199弄 大拇指广场地下一层"},{"poiid":"B2094757D165A6FA4892","title":"俏江南","lon":"121.55993697","lat":"31.21867379","category":"500","category_name":"未知分类","address":"上海市浦东新区锦绣路"},{"poiid":"B2094757D16AA3F94199","title":"二号线上海科技馆站","lon":"121.55862497","lat":"31.220030822","category":"500","category_name":"未知分类","address":"上海市浦东新区长柳路"},{"poiid":"B2094757D568A0FF4498","title":"九间堂别墅","lon":"121.5613469","lat":"31.22273611","category":"47","category_name":"住宅区","address":"上海市浦东新区锦安东路88弄"},{"poiid":"B2094654DA69A1FF459E","title":"泓叶","lon":"121.55912","lat":"31.22608","category":"76","category_name":"上海菜","address":"浦东新区芳甸路199弄40号大拇指广场内(迎春路口)"},{"poiid":"B2094757D16CA4FE4293","title":"海游吞拿","lon":"121.55948767","lat":"31.225968761","category":"95","category_name":"日本料理","address":"芳甸路199弄大拇指广场2楼近杨高中路"},{"poiid":"B2094750D165A2F84892","title":"深井大叔(大拇指店)","lon":"121.559715","lat":"31.226057","category":"72","category_name":"广东菜","address":"浦东新区芳甸路199弄证大大拇指广场43号1楼"},{"poiid":"B2094655D26EA3FF499C","title":"华丽家族花园","lon":"121.55773","lat":"31.22375","category":"47","category_name":"住宅区","address":"上海市浦东新区锦绣路666号"},{"poiid":"B2094752D16EA1FF4899","title":"竹若金枪鱼","lon":"121.558091","lat":"31.225088","category":"247","category_name":"餐饮美食","address":"芳甸路199弄大拇指广场51号(近丁香路)"},{"poiid":"B2094655D36CA6F9429F","title":"芳甸路锦绣路","lon":"121.55989","lat":"31.22159","category":"38","category_name":"公交车站","address":""},{"poiid":"B2094750DA6AAAFD489A","title":"必胜客上海大拇指店","lon":"121.559555","lat":"31.222763","category":"500","category_name":"未知分类","address":null},{"poiid":"B2094757D568A5FF489D","title":"近江和牛正传日本料理","lon":"121.55987901","lat":"31.22658773","category":"95","category_name":"日本料理","address":"浦东新区芳甸路199弄大拇指广场2楼(丁香路芳甸路)"},{"poiid":"B2094655D26BA0FB449C","title":"世纪咖啡","lon":"121.55983","lat":"31.22096","category":"65","category_name":"咖啡厅","address":"芳甸路666号世纪公园内"},{"poiid":"B2094655D265AAF8449C","title":"水上餐厅","lon":"121.55983","lat":"31.22096","category":"257","category_name":"中餐厅","address":"芳甸路666号世纪公园2号门附近"},{"poiid":"B2094757D06AA2FE429A","title":"(友和)东京和食","lon":"121.55797697","lat":"31.226036962","category":"95","category_name":"日本料理","address":"浦东新区芳甸路300号联洋广场B区1楼B105室(近大拇指广场)"},{"poiid":"B2094757D16FA3F4489D","title":"韩林碳烤","lon":"121.56340789","lat":"31.223962783","category":"247","category_name":"餐饮美食","address":"上海大拇指广场"},{"poiid":"B2094751D36BA5FF4992","title":"家有好面（大拇指广场店）","lon":"121.55975","lat":"31.22646","category":"68","category_name":"快餐厅","address":"浦东新区芳甸路199弄38号大拇指广场1楼(近杨高中路)"},{"poiid":"B2094757D068A0FD4699","title":"唻吃面(芳甸路店)","lon":"121.55882","lat":"31.22628","category":"68","category_name":"快餐厅","address":"浦东新区芳甸路199弄40号联洋广场104(近迎春路)"},{"poiid":"B2094752DA6CA4F8499C","title":"上海新国际博览中心","lon":"121.558733","lat":"31.220081","category":"500","category_name":"未知分类","address":null},{"poiid":"B2094753DA6FA7F94793","title":"Mr.Pizza","lon":"121.564018","lat":"31.223802","category":"500","category_name":"未知分类","address":"上海市 上海市迎春路1089号大拇指广场(近芳甸路)"},{"poiid":"B2094654DA69A2FA4492","title":"金色维也纳","lon":"121.56512","lat":"31.22323","category":"47","category_name":"住宅区","address":"锦绣路333弄1-56号"},{"poiid":"B2094655D26DA0FD4799","title":"聚湘阁 大拇指广场店","lon":"121.559246054","lat":"31.227108793","category":"77","category_name":"湖南菜","address":"浦东新区芳甸路199弄40号大拇指广场内(迎春路口)"},{"poiid":"B2094757D168A3FE4293","title":"京世造型","lon":"121.55998807","lat":"31.225717235","category":"148","category_name":"美容美发店","address":"上海迎春路1110号(近芳甸路)"},{"poiid":"B2094655D26DA7FB4592","title":"证大·大拇指广场","lon":"121.55924","lat":"31.22688","category":"119","category_name":"商场","address":"芳甸路199弄1-57号"},{"poiid":"B2094757D06EAAF44698","title":"好乐迪量贩式KTV(大拇指广场店)","lon":"121.55962636","lat":"31.226885364","category":"170","category_name":"KTV","address":"上海浦东芳甸路199弄36号"},{"poiid":"B2094757D16DA1FE4098","title":"California pizza kitchen(嘉里城店)","lon":"121.5616","lat":"31.21347","category":"94","category_name":"西餐厅","address":"浦东新区花木路1378号浦东嘉里城2楼L231室(近芳甸路)"},{"poiid":"B2094757D06FA1FF439A","title":"苏浙汇(联洋店)","lon":"121.55879","lat":"31.22629","category":"76","category_name":"上海菜","address":"浦东新区芳甸路300号联洋广场C区3楼(近迎春路)"},{"poiid":"B2094757D06FA5FC419A","title":"藏珑泰极(大拇指广场店)","lon":"121.56025","lat":"31.22682","category":"99","category_name":"泰国／越南菜品餐厅","address":"浦东新区芳甸路199弄大拇指广场19号3楼(近丁香路)"},{"poiid":"B2094757D06FA2FC4892","title":"避风塘(芳甸路店)","lon":"121.55852","lat":"31.22608","category":"72","category_name":"广东菜","address":"浦东新区芳甸路300号联洋广场(迎春路口)"},{"poiid":"B2094757D06FA7FF4798","title":"炉边情谈","lon":"121.559279737","lat":"31.2265295573","category":"96","category_name":"韩国料理","address":"浦东新区芳甸路199弄40号大拇指广场53A号(迎春路口)"},{"poiid":"B2094654DB6AA6FF449F","title":"证大丽笙酒店","lon":"121.56049","lat":"31.22634","category":"213","category_name":"五星级宾馆","address":"浦东新区迎春路1199号(近芳甸路)"},{"poiid":"B2094757D06FA5F4489D","title":"斗牛士(联洋店)","lon":"121.558331925","lat":"31.2258500724","category":"94","category_name":"西餐厅","address":"浦东新区芳甸路199弄300号联洋广场4楼(近大拇指广场)"},{"poiid":"B2094757D569A1FD4199","title":"埔里老镇","lon":"121.5603125","lat":"31.22719916","category":"91","category_name":"台湾菜","address":"浦东新区芳甸路199弄大拇指广场19号2楼(近迎春路)"},{"poiid":"B2094655D26DA1F94998","title":"世纪公园(四号门)","lon":"121.56079","lat":"31.21623","category":"680","category_name":"楼宇机构","address":"芳甸路858"},{"poiid":"B2094757D068A2FD489E","title":"九间堂","lon":"121.5620138","lat":"31.222304185","category":"500","category_name":"未知分类","address":"浦东新区芳甸路599弄1号(近锦绣路)"},{"poiid":"B2094757D66DA0FA499D","title":"上海出入境","lon":"121.559001975","lat":"31.220153825","category":"500","category_name":"未知分类","address":"上海市浦东新区民生路1500号"},{"poiid":"B2094757D064A1F5499B","title":"龙阳路磁悬浮","lon":"121.560088975","lat":"31.2184807858","category":"500","category_name":"未知分类","address":"上海龙阳路"},{"poiid":"B2094757D069A4F4439D","title":"丰收日(联洋店)","lon":"121.559593975","lat":"31.2257219552","category":"75","category_name":"浙江菜","address":"浦东新区芳甸路300号联洋广场A区4楼(近迎春路)"},{"poiid":"B2094757D069A0F84892","title":"希腊餐厅(芳甸路店)","lon":"121.559723585","lat":"31.2261000756","category":"94","category_name":"西餐厅","address":"浦东新区芳甸路199弄证大大拇指广场43号1楼41铺(近杨高中路)"},{"poiid":"B2094757D068A3FC4199","title":"韩林炭烤(联洋店)","lon":"121.55924","lat":"31.22601","category":"96","category_name":"韩国料理","address":"上海浦东新区芳甸路199弄证大大拇指广场48号(近杨高中路)  "},{"poiid":"B2094655D26EA0FC4492","title":"沃歌斯","lon":"121.55816","lat":"31.23072","category":"94","category_name":"西餐厅","address":"浦东新区芳甸路199弄证大大拇指广场31号(南洋泾路杨高中路)"},{"poiid":"B2094655D265A2FD429D","title":"联洋营业厅","lon":"121.5592","lat":"31.22576","category":"151","category_name":"电讯营业厅","address":"浦东新区芳甸路285号"},{"poiid":"B2094757D06FABFD429C","title":"蒂梵尼造型设计(联洋广场店)","lon":"121.55922","lat":"31.22583","category":"148","category_name":"美容美发店","address":"浦东新区芳甸路300号联洋广场B区3楼(近大拇指广场)"},{"poiid":"B2094751D469A0F8479C","title":"唐鱼儿麻辣鲜鱼火锅","lon":"121.560104","lat":"31.225509","category":"86","category_name":"火锅店","address":"浦东新区芳甸路199弄40号大拇指广场46号(近迎春路)"},{"poiid":"B2094751D46BABFD469F","title":"义面屋","lon":"121.55899","lat":"31.225021","category":"94","category_name":"西餐厅","address":"浦东新区芳甸路199弄大拇指广场19号(预计12月开业)"},{"poiid":"B2094757D068A6FB4198","title":"许留山 联洋广场店 Hui Lau Shan","lon":"121.55758","lat":"31.22673","category":"67","category_name":"甜品店","address":"浦东新区芳甸路199弄40号联洋广场A座2楼(近迎春路)"},{"poiid":"B2094757D06AA2F84793","title":"近江和牛","lon":"121.5593909","lat":"31.226675604","category":"247","category_name":"餐饮美食","address":"上海大拇指广场"},{"poiid":"B2094757D16CA1FB409C","title":"小南国烧烤(大拇指店)","lon":"121.558883975","lat":"31.2262306671","category":"247","category_name":"餐饮美食","address":"上海芳甸路199弄40号大拇指广场一楼"},{"poiid":"B2094751D569AAFE499B","title":"Lapasta 義麵屋","lon":"121.559636","lat":"31.226118","category":"247","category_name":"餐饮美食","address":"浦東新區芳甸路199弄33號2樓"},{"poiid":"B2094757D065A0F44593","title":"爱尔兰文化餐厅","lon":"121.5593","lat":"31.22628","category":"94","category_name":"西餐厅","address":"浦东新区芳甸路199弄40号大拇指广场20号(迎春路口)"},{"poiid":"B2094757D068A1F9429C","title":"家乐福(大拇指广场店)","lon":"121.55993652","lat":"31.226459503","category":"118","category_name":"超级市场","address":"上海浦东新区芳甸路199弄 大拇指广场地下一层"},{"poiid":"B2094757D165A6FA4892","title":"俏江南","lon":"121.55993697","lat":"31.21867379","category":"500","category_name":"未知分类","address":"上海市浦东新区锦绣路"},{"poiid":"B2094757D16AA3F94199","title":"二号线上海科技馆站","lon":"121.55862497","lat":"31.220030822","category":"500","category_name":"未知分类","address":"上海市浦东新区长柳路"},{"poiid":"B2094757D568A0FF4498","title":"九间堂别墅","lon":"121.5613469","lat":"31.22273611","category":"47","category_name":"住宅区","address":"上海市浦东新区锦安东路88弄"},{"poiid":"B2094654DA69A1FF459E","title":"泓叶","lon":"121.55912","lat":"31.22608","category":"76","category_name":"上海菜","address":"浦东新区芳甸路199弄40号大拇指广场内(迎春路口)"},{"poiid":"B2094757D16CA4FE4293","title":"海游吞拿","lon":"121.55948767","lat":"31.225968761","category":"95","category_name":"日本料理","address":"芳甸路199弄大拇指广场2楼近杨高中路"},{"poiid":"B2094750D165A2F84892","title":"深井大叔(大拇指店)","lon":"121.559715","lat":"31.226057","category":"72","category_name":"广东菜","address":"浦东新区芳甸路199弄证大大拇指广场43号1楼"},{"poiid":"B2094655D26EA3FF499C","title":"华丽家族花园","lon":"121.55773","lat":"31.22375","category":"47","category_name":"住宅区","address":"上海市浦东新区锦绣路666号"},{"poiid":"B2094752D16EA1FF4899","title":"竹若金枪鱼","lon":"121.558091","lat":"31.225088","category":"247","category_name":"餐饮美食","address":"芳甸路199弄大拇指广场51号(近丁香路)"},{"poiid":"B2094655D36CA6F9429F","title":"芳甸路锦绣路","lon":"121.55989","lat":"31.22159","category":"38","category_name":"公交车站","address":""},{"poiid":"B2094750DA6AAAFD489A","title":"必胜客上海大拇指店","lon":"121.559555","lat":"31.222763","category":"500","category_name":"未知分类","address":null},{"poiid":"B2094757D568A5FF489D","title":"近江和牛正传日本料理","lon":"121.55987901","lat":"31.22658773","category":"95","category_name":"日本料理","address":"浦东新区芳甸路199弄大拇指广场2楼(丁香路芳甸路)"},{"poiid":"B2094655D26BA0FB449C","title":"世纪咖啡","lon":"121.55983","lat":"31.22096","category":"65","category_name":"咖啡厅","address":"芳甸路666号世纪公园内"},{"poiid":"B2094655D265AAF8449C","title":"水上餐厅","lon":"121.55983","lat":"31.22096","category":"257","category_name":"中餐厅","address":"芳甸路666号世纪公园2号门附近"},{"poiid":"B2094757D06AA2FE429A","title":"(友和)东京和食","lon":"121.55797697","lat":"31.226036962","category":"95","category_name":"日本料理","address":"浦东新区芳甸路300号联洋广场B区1楼B105室(近大拇指广场)"},{"poiid":"B2094757D16FA3F4489D","title":"韩林碳烤","lon":"121.56340789","lat":"31.223962783","category":"247","category_name":"餐饮美食","address":"上海大拇指广场"},{"poiid":"B2094751D36BA5FF4992","title":"家有好面（大拇指广场店）","lon":"121.55975","lat":"31.22646","category":"68","category_name":"快餐厅","address":"浦东新区芳甸路199弄38号大拇指广场1楼(近杨高中路)"},{"poiid":"B2094757D068A0FD4699","title":"唻吃面(芳甸路店)","lon":"121.55882","lat":"31.22628","category":"68","category_name":"快餐厅","address":"浦东新区芳甸路199弄40号联洋广场104(近迎春路)"},{"poiid":"B2094752DA6CA4F8499C","title":"上海新国际博览中心","lon":"121.558733","lat":"31.220081","category":"500","category_name":"未知分类","address":null},{"poiid":"B2094753DA6FA7F94793","title":"Mr.Pizza","lon":"121.564018","lat":"31.223802","category":"500","category_name":"未知分类","address":"上海市 上海市迎春路1089号大拇指广场(近芳甸路)"},{"poiid":"B2094654DA69A2FA4492","title":"金色维也纳","lon":"121.56512","lat":"31.22323","category":"47","category_name":"住宅区","address":"锦绣路333弄1-56号"},{"poiid":"B2094655D26DA0FD4799","title":"聚湘阁 大拇指广场店","lon":"121.559246054","lat":"31.227108793","category":"77","category_name":"湖南菜","address":"浦东新区芳甸路199弄40号大拇指广场内(迎春路口)"},{"poiid":"B2094757D168A3FE4293","title":"京世造型","lon":"121.55998807","lat":"31.225717235","category":"148","category_name":"美容美发店","address":"上海迎春路1110号(近芳甸路)"},{"poiid":"B2094655D26DA7FB4592","title":"证大·大拇指广场","lon":"121.55924","lat":"31.22688","category":"119","category_name":"商场","address":"芳甸路199弄1-57号"},{"poiid":"B2094757D06EAAF44698","title":"好乐迪量贩式KTV(大拇指广场店)","lon":"121.55962636","lat":"31.226885364","category":"170","category_name":"KTV","address":"上海浦东芳甸路199弄36号"},{"poiid":"B2094757D16DA1FE4098","title":"California pizza kitchen(嘉里城店)","lon":"121.5616","lat":"31.21347","category":"94","category_name":"西餐厅","address":"浦东新区花木路1378号浦东嘉里城2楼L231室(近芳甸路)"},{"poiid":"B2094757D06FA1FF439A","title":"苏浙汇(联洋店)","lon":"121.55879","lat":"31.22629","category":"76","category_name":"上海菜","address":"浦东新区芳甸路300号联洋广场C区3楼(近迎春路)"},{"poiid":"B2094757D06FA5FC419A","title":"藏珑泰极(大拇指广场店)","lon":"121.56025","lat":"31.22682","category":"99","category_name":"泰国／越南菜品餐厅","address":"浦东新区芳甸路199弄大拇指广场19号3楼(近丁香路)"},{"poiid":"B2094757D06FA2FC4892","title":"避风塘(芳甸路店)","lon":"121.55852","lat":"31.22608","category":"72","category_name":"广东菜","address":"浦东新区芳甸路300号联洋广场(迎春路口)"},{"poiid":"B2094757D06FA7FF4798","title":"炉边情谈","lon":"121.559279737","lat":"31.2265295573","category":"96","category_name":"韩国料理","address":"浦东新区芳甸路199弄40号大拇指广场53A号(迎春路口)"},{"poiid":"B2094654DB6AA6FF449F","title":"证大丽笙酒店","lon":"121.56049","lat":"31.22634","category":"213","category_name":"五星级宾馆","address":"浦东新区迎春路1199号(近芳甸路)"},{"poiid":"B2094757D06FA5F4489D","title":"斗牛士(联洋店)","lon":"121.558331925","lat":"31.2258500724","category":"94","category_name":"西餐厅","address":"浦东新区芳甸路199弄300号联洋广场4楼(近大拇指广场)"},{"poiid":"B2094757D569A1FD4199","title":"埔里老镇","lon":"121.5603125","lat":"31.22719916","category":"91","category_name":"台湾菜","address":"浦东新区芳甸路199弄大拇指广场19号2楼(近迎春路)"},{"poiid":"B2094655D26DA1F94998","title":"世纪公园(四号门)","lon":"121.56079","lat":"31.21623","category":"680","category_name":"楼宇机构","address":"芳甸路858"},{"poiid":"B2094757D068A2FD489E","title":"九间堂","lon":"121.5620138","lat":"31.222304185","category":"500","category_name":"未知分类","address":"浦东新区芳甸路599弄1号(近锦绣路)"},{"poiid":"B2094757D66DA0FA499D","title":"上海出入境","lon":"121.559001975","lat":"31.220153825","category":"500","category_name":"未知分类","address":"上海市浦东新区民生路1500号"},{"poiid":"B2094757D064A1F5499B","title":"龙阳路磁悬浮","lon":"121.560088975","lat":"31.2184807858","category":"500","category_name":"未知分类","address":"上海龙阳路"},{"poiid":"B2094757D069A4F4439D","title":"丰收日(联洋店)","lon":"121.559593975","lat":"31.2257219552","category":"75","category_name":"浙江菜","address":"浦东新区芳甸路300号联洋广场A区4楼(近迎春路)"},{"poiid":"B2094757D069A0F84892","title":"希腊餐厅(芳甸路店)","lon":"121.559723585","lat":"31.2261000756","category":"94","category_name":"西餐厅","address":"浦东新区芳甸路199弄证大大拇指广场43号1楼41铺(近杨高中路)"},{"poiid":"B2094757D068A3FC4199","title":"韩林炭烤(联洋店)","lon":"121.55924","lat":"31.22601","category":"96","category_name":"韩国料理","address":"上海浦东新区芳甸路199弄证大大拇指广场48号(近杨高中路)  "},{"poiid":"B2094655D26EA0FC4492","title":"沃歌斯","lon":"121.55816","lat":"31.23072","category":"94","category_name":"西餐厅","address":"浦东新区芳甸路199弄证大大拇指广场31号(南洋泾路杨高中路)"},{"poiid":"B2094655D265A2FD429D","title":"联洋营业厅","lon":"121.5592","lat":"31.22576","category":"151","category_name":"电讯营业厅","address":"浦东新区芳甸路285号"},{"poiid":"B2094757D06FABFD429C","title":"蒂梵尼造型设计(联洋广场店)","lon":"121.55922","lat":"31.22583","category":"148","category_name":"美容美发店","address":"浦东新区芳甸路300号联洋广场B区3楼(近大拇指广场)"},{"poiid":"B2094751D469A0F8479C","title":"唐鱼儿麻辣鲜鱼火锅","lon":"121.560104","lat":"31.225509","category":"86","category_name":"火锅店","address":"浦东新区芳甸路199弄40号大拇指广场46号(近迎春路)"},{"poiid":"B2094751D46BABFD469F","title":"义面屋","lon":"121.55899","lat":"31.225021","category":"94","category_name":"西餐厅","address":"浦东新区芳甸路199弄大拇指广场19号(预计12月开业)"},{"poiid":"B2094757D068A6FB4198","title":"许留山 联洋广场店 Hui Lau Shan","lon":"121.55758","lat":"31.22673","category":"67","category_name":"甜品店","address":"浦东新区芳甸路199弄40号联洋广场A座2楼(近迎春路)"},{"poiid":"B2094757D06AA2F84793","title":"近江和牛","lon":"121.5593909","lat":"31.226675604","category":"247","category_name":"餐饮美食","address":"上海大拇指广场"},{"poiid":"B2094757D16CA1FB409C","title":"小南国烧烤(大拇指店)","lon":"121.558883975","lat":"31.2262306671","category":"247","category_name":"餐饮美食","address":"上海芳甸路199弄40号大拇指广场一楼"},{"poiid":"B2094751D569AAFE499B","title":"Lapasta 義麵屋","lon":"121.559636","lat":"31.226118","category":"247","category_name":"餐饮美食","address":"浦東新區芳甸路199弄33號2樓"},{"poiid":"B2094757D065A0F44593","title":"爱尔兰文化餐厅","lon":"121.5593","lat":"31.22628","category":"94","category_name":"西餐厅","address":"浦东新区芳甸路199弄40号大拇指广场20号(迎春路口)"},{"poiid":"B2094757D068A1F9429C","title":"家乐福(大拇指广场店)","lon":"121.55993652","lat":"31.226459503","category":"118","category_name":"超级市场","address":"上海浦东新区芳甸路199弄 大拇指广场地下一层"},{"poiid":"B2094757D165A6FA4892","title":"俏江南","lon":"121.55993697","lat":"31.21867379","category":"500","category_name":"未知分类","address":"上海市浦东新区锦绣路"},{"poiid":"B2094757D16AA3F94199","title":"二号线上海科技馆站","lon":"121.55862497","lat":"31.220030822","category":"500","category_name":"未知分类","address":"上海市浦东新区长柳路"},{"poiid":"B2094757D568A0FF4498","title":"九间堂别墅","lon":"121.5613469","lat":"31.22273611","category":"47","category_name":"住宅区","address":"上海市浦东新区锦安东路88弄"},{"poiid":"B2094654DA69A1FF459E","title":"泓叶","lon":"121.55912","lat":"31.22608","category":"76","category_name":"上海菜","address":"浦东新区芳甸路199弄40号大拇指广场内(迎春路口)"},{"poiid":"B2094757D16CA4FE4293","title":"海游吞拿","lon":"121.55948767","lat":"31.225968761","category":"95","category_name":"日本料理","address":"芳甸路199弄大拇指广场2楼近杨高中路"},{"poiid":"B2094750D165A2F84892","title":"深井大叔(大拇指店)","lon":"121.559715","lat":"31.226057","category":"72","category_name":"广东菜","address":"浦东新区芳甸路199弄证大大拇指广场43号1楼"},{"poiid":"B2094655D26EA3FF499C","title":"华丽家族花园","lon":"121.55773","lat":"31.22375","category":"47","category_name":"住宅区","address":"上海市浦东新区锦绣路666号"},{"poiid":"B2094752D16EA1FF4899","title":"竹若金枪鱼","lon":"121.558091","lat":"31.225088","category":"247","category_name":"餐饮美食","address":"芳甸路199弄大拇指广场51号(近丁香路)"},{"poiid":"B2094655D36CA6F9429F","title":"芳甸路锦绣路","lon":"121.55989","lat":"31.22159","category":"38","category_name":"公交车站","address":""},{"poiid":"B2094750DA6AAAFD489A","title":"必胜客上海大拇指店","lon":"121.559555","lat":"31.222763","category":"500","category_name":"未知分类","address":null},{"poiid":"B2094757D568A5FF489D","title":"近江和牛正传日本料理","lon":"121.55987901","lat":"31.22658773","category":"95","category_name":"日本料理","address":"浦东新区芳甸路199弄大拇指广场2楼(丁香路芳甸路)"},{"poiid":"B2094655D26BA0FB449C","title":"世纪咖啡","lon":"121.55983","lat":"31.22096","category":"65","category_name":"咖啡厅","address":"芳甸路666号世纪公园内"},{"poiid":"B2094655D265AAF8449C","title":"水上餐厅","lon":"121.55983","lat":"31.22096","category":"257","category_name":"中餐厅","address":"芳甸路666号世纪公园2号门附近"},{"poiid":"B2094757D06AA2FE429A","title":"(友和)东京和食","lon":"121.55797697","lat":"31.226036962","category":"95","category_name":"日本料理","address":"浦东新区芳甸路300号联洋广场B区1楼B105室(近大拇指广场)"},{"poiid":"B2094757D16FA3F4489D","title":"韩林碳烤","lon":"121.56340789","lat":"31.223962783","category":"247","category_name":"餐饮美食","address":"上海大拇指广场"},{"poiid":"B2094751D36BA5FF4992","title":"家有好面（大拇指广场店）","lon":"121.55975","lat":"31.22646","category":"68","category_name":"快餐厅","address":"浦东新区芳甸路199弄38号大拇指广场1楼(近杨高中路)"},{"poiid":"B2094757D068A0FD4699","title":"唻吃面(芳甸路店)","lon":"121.55882","lat":"31.22628","category":"68","category_name":"快餐厅","address":"浦东新区芳甸路199弄40号联洋广场104(近迎春路)"},{"poiid":"B2094752DA6CA4F8499C","title":"上海新国际博览中心","lon":"121.558733","lat":"31.220081","category":"500","category_name":"未知分类","address":null},{"poiid":"B2094753DA6FA7F94793","title":"Mr.Pizza","lon":"121.564018","lat":"31.223802","category":"500","category_name":"未知分类","address":"上海市 上海市迎春路1089号大拇指广场(近芳甸路)"},{"poiid":"B2094654DA69A2FA4492","title":"金色维也纳","lon":"121.56512","lat":"31.22323","category":"47","category_name":"住宅区","address":"锦绣路333弄1-56号"},{"poiid":"B2094655D26DA0FD4799","title":"聚湘阁 大拇指广场店","lon":"121.559246054","lat":"31.227108793","category":"77","category_name":"湖南菜","address":"浦东新区芳甸路199弄40号大拇指广场内(迎春路口)"},{"poiid":"B2094757D168A3FE4293","title":"京世造型","lon":"121.55998807","lat":"31.225717235","category":"148","category_name":"美容美发店","address":"上海迎春路1110号(近芳甸路)"}]