[{"poiid":"B2094654D46BABFF4398","title":"古猗园","lon":"121.31596","lat":"31.29164","category":"240","category_name":"国家级景点","address":"嘉定区南翔镇沪宜路218号"},{"poiid":"B2094757D06EAAFE419C","title":"南翔地铁站","lon":"121.32427277","lat":"31.297083592","category":"36","category_name":"地铁站","address":"上海轨道交通 十一号线 轨交南翔站 11"},{"poiid":"B2094757D06EAAF5419F","title":"南翔漪园小笼馆","lon":"121.314494054","lat":"31.292691793","category":"68","category_name":"快餐厅","address":"嘉定区南翔镇古漪园路288号(近古漪园北门)"},{"poiid":"B2094757D06FA2FC479B","title":"金地格林世界","lon":"121.32311061","lat":"31.298570324","category":"47","category_name":"住宅区","address":"嘉定区南翔镇瑞林路68号(沪嘉高速丰翔路路口)"},{"poiid":"B2094757D06FA2F8499E","title":"南翔镇","lon":"121.32083892","lat":"31.293945312","category":"260","category_name":"其他","address":"上海嘉定区南翔镇"},{"poiid":"B2094757D06FA3FD479A","title":"南翔老街","lon":"121.30948","lat":"31.291","category":"260","category_name":"其他","address":"上海近郊嘉定区南翔镇德华路(近共和街)  "},{"poiid":"B2094757D06FAAFF459B","title":"古猗园餐厅","lon":"121.31639","lat":"31.29069","category":"68","category_name":"快餐厅","address":"嘉定区南翔镇沪宜公路218号古猗园南大门(古猗园路沪宜公路)"},{"poiid":"B2094654DB69A6FE489F","title":"古漪园","lon":"121.31603","lat":"31.29213","category":"196","category_name":"公园","address":"上海市嘉定区沪宜公路218号"},{"poiid":"B2094654D46BA4FE4393","title":"南翔小笼(古猗园路)","lon":"121.31492","lat":"31.2904","category":"257","category_name":"中餐厅","address":""},{"poiid":"B2094751DA6EA7F5479C","title":"星巴克南翔祥腾广场店","lon":"121.3228","lat":"31.296463","category":"247","category_name":"餐饮美食","address":"嘉定区佳通路31弄3号中冶翔腾城市广场2楼(近11号线南翔站)"},{"poiid":"B2094750D26BA7F9429A","title":"南翔医院","lon":"121.317955","lat":"31.290615","category":"162","category_name":"医院","address":"众仁路495号"},{"poiid":"B2094752D56DA4FD469B","title":"荷泰东南亚风味餐厅","lon":"121.317225","lat":"31.297102","category":"247","category_name":"餐饮美食","address":"中冶祥腾广场"},{"poiid":"B2094757D06FA3FD4799","title":"S5沪嘉高速南翔收费站","lon":"121.325303892","lat":"31.2968820244","category":"267","category_name":"收费站","address":"上海S5沪嘉高速南翔收费站(近丰翔路)"},{"poiid":"B2094655D264A2F5459E","title":"南翔古镇","lon":"121.31557","lat":"31.2895","category":"250","category_name":"公园户外","address":"嘉定区南翔镇人民街(生产街南华路间)"},{"poiid":"B2094757D06AAAFF439F","title":"嘉定二中","lon":"121.31111145","lat":"31.2952690125","category":"55","category_name":"中学","address":"嘉定区德华路388号"},{"poiid":"B2094757D568AAFB4099","title":"南翔镇南华路、民主街解放街","lon":"121.31572","lat":"31.29648","category":"47","category_name":"住宅区","address":"上海市嘉定区南翔镇民主街224号"},{"poiid":"B2094752D464A1FE459B","title":"满记甜品上海南翔中治翔腾广场店","lon":"121.318072","lat":"31.297161","category":"247","category_name":"餐饮美食","address":null},{"poiid":"B2094757D16DA1FB4692","title":"南翔文广中心","lon":"121.31328892","lat":"31.299913373","category":"500","category_name":"未知分类","address":"嘉定区古猗园路737号"},{"poiid":"B2094654DB69A5F54493","title":"格林豪泰酒店(南翔店)","lon":"121.32161","lat":"31.29403","category":"216","category_name":"经济型连锁酒店","address":"普陀区众仁路与真南路交叉口(南翔镇政府斜对面)"},{"poiid":"B2094752D06FA5FF4793","title":"必胜客南翔中冶祥腾店","lon":"121.318049","lat":"31.296746","category":"247","category_name":"餐饮美食","address":"南翔中冶祥腾广场1楼"},{"poiid":"B2094750D564A3FB4693","title":"绿地新里崴廉公馆","lon":"121.316786","lat":"31.295714","category":"47","category_name":"住宅区","address":"佳通路211号(真南路德华路交叉口)"},{"poiid":"B2094752D368A1FF409F","title":"捞王猪肚鸡","lon":"121.322586","lat":"31.294815","category":"247","category_name":"餐饮美食","address":"上海市嘉定区南翔镇中冶翔腾城市广场二楼"},{"poiid":"B2094654DB65A4FD419A","title":"南翔医院","lon":"121.31098","lat":"31.29164","category":"162","category_name":"医院","address":"嘉定区南翔镇众仁路495号(近真南路)"},{"poiid":"B2094654DB69A6FE439C","title":"金地格林春晓","lon":"121.32337","lat":"31.29254","category":"47","category_name":"住宅区","address":"上海市嘉定区真南路4233号"},{"poiid":"B2094757D164ABFC489E","title":"民东公寓","lon":"121.31886","lat":"31.294855","category":"252","category_name":"楼宇机构","address":"上海市嘉定区南翔镇民主东街"},{"poiid":"B2094753D568ABFF4592","title":"金湘隆（南翔店）","lon":"121.319758","lat":"31.296136","category":"111","category_name":"休闲餐饮场所","address":"真南路4368弄中冶祥腾城市广场2楼05室"},{"poiid":"B209475CD36BA7FF459D","title":"荷泰东南亚餐厅","lon":"121.31971","lat":"31.29596","category":"99","category_name":"泰国／越南菜品餐厅","address":"真南路4368弄中冶祥腾城市广场3号楼2楼01-05号"},{"poiid":"B2094757D068ABFF449A","title":"南翔金地格林","lon":"121.32389068","lat":"31.300073623","category":"47","category_name":"住宅区","address":"上海嘉定南翔镇芳林路"},{"poiid":"B2094753D76AA1FD409A","title":"小杨生煎(中冶祥腾店)","lon":"121.320128","lat":"31.295908","category":"87","category_name":"特色／地方风味餐厅","address":"上海市嘉定区真南路4368弄中冶翔腾城市广场1号楼"},{"poiid":"B2094757D66BA5FC4699","title":"肯德基 丰翔路店 KFC","lon":"121.316944054","lat":"31.299572793","category":"68","category_name":"快餐厅","address":"嘉定区丰翔路3168号家乐福超市1楼(丰翔路浏翔公路)"},{"poiid":"B2094753D36FA0FB409A","title":"菊樱回转寿司","lon":"121.316472","lat":"31.296914","category":"247","category_name":"餐饮美食","address":"上海市 中冶翔腾广场2楼"},{"poiid":"B2094654D46BABFE489C","title":"同盛公寓","lon":"121.31451","lat":"31.29105","category":"47","category_name":"住宅区","address":"上海市普陀区宁夏路335号"},{"poiid":"B2094751D56AA2FB449E","title":"汉净阁足道公馆(真南路店)","lon":"121.31691","lat":"31.294067","category":"149","category_name":"洗浴推拿场所","address":"嘉定区南翔镇真南路4368弄5号2楼"},{"poiid":"B2094757D168A7F9419B","title":"柯玛士庄园","lon":"121.319343","lat":"31.294491","category":"500","category_name":"未知分类","address":"上海市嘉定区南翔镇金地格林世界芳林路555弄"},{"poiid":"B2094752D765A6F4459D","title":"保利国际影城","lon":"121.322063","lat":"31.295258","category":"500","category_name":"未知分类","address":null},{"poiid":"B2094753D26DABFE4992","title":"比比客BBQ","lon":"121.321729","lat":"31.295146","category":"247","category_name":"餐饮美食","address":"上海市 真南路4500号中冶祥腾城市广场1楼1313室"},{"poiid":"B2094757D568AAFF499D","title":"米兰咖啡","lon":"121.3159631","lat":"31.29164611","category":"65","category_name":"咖啡厅","address":"嘉定区南翔镇沪宜公路281号古猗园旁(沪宜公路口)"},{"poiid":"B2094757D16DA3FA4499","title":"老街汤团(南翔店)","lon":"121.32111","lat":"31.29367","category":"257","category_name":"中餐厅","address":"上海近郊嘉定区南翔人民街41号  "},{"poiid":"B2094751D36AA7F54692","title":"乐沪阁","lon":"121.3185","lat":"31.29185","category":"96","category_name":"韩国料理","address":"嘉定区沪宜公路99弄"},{"poiid":"B2094757D664A3FF4193","title":"兰森酒楼","lon":"121.3148692","lat":"31.2908675","category":"76","category_name":"上海菜","address":"南翔镇古猗园路291-295近沪宜公路"},{"poiid":"B2094752DA6BA2F5459D","title":"保利国际影城","lon":"121.322398","lat":"31.295178","category":"500","category_name":"未知分类","address":"上海市 嘉定区真南路4500号"},{"poiid":"B2094751DA6CA1FF4293","title":"小杨生煎","lon":"121.319843","lat":"31.299452","category":"247","category_name":"餐饮美食","address":"南翔地铁站"},{"poiid":"B2094655D264A7F94193","title":"绿洲古猗新苑","lon":"121.32","lat":"31.2989","category":"47","category_name":"住宅区","address":"上海市嘉定区古猗园路155弄"},{"poiid":"B2094750D66CAAFA409E","title":"超级玛丽","lon":"121.320045","lat":"31.289876","category":"248","category_name":"生活娱乐","address":"沪宜公路155号2弄3F"},{"poiid":"B2094752D565A4F5419B","title":"满记甜品","lon":"121.32264","lat":"31.296045","category":"247","category_name":"餐饮美食","address":"上海市嘉定区真南路4368弄7号01层08室"},{"poiid":"B2094757D66EA2FB4392","title":"南翔镇政府","lon":"121.320980925","lat":"31.2945682624","category":"500","category_name":"未知分类","address":"上海嘉定南翔"},{"poiid":"B2094655D26BA5F9499C","title":"博威禧福汇","lon":"121.32099","lat":"31.29405","category":"47","category_name":"住宅区","address":"沪宜公路310号"},{"poiid":"B2094757D064A7F5449D","title":"嘉定区第六税务所","lon":"121.32426392","lat":"31.295500281","category":"500","category_name":"未知分类","address":"上海市嘉定区真南路4268号"},{"poiid":"B2094757DA69A1F94592","title":"南翔公馆","lon":"121.30864035489","lat":"31.292813635332","category":"72","category_name":"广东菜","address":"嘉定区南翔镇共和街1号(近德华路)"},{"poiid":"B2094757D16DA0FF4399","title":"阿莉餐厅","lon":"121.31614592","lat":"31.296394966","category":"500","category_name":"未知分类","address":"上海枣阳路394号"},{"poiid":"B2094654D46BABFF4398","title":"古猗园","lon":"121.31596","lat":"31.29164","category":"240","category_name":"国家级景点","address":"嘉定区南翔镇沪宜路218号"},{"poiid":"B2094757D06EAAFE419C","title":"南翔地铁站","lon":"121.32427277","lat":"31.297083592","category":"36","category_name":"地铁站","address":"上海轨道交通 十一号线 轨交南翔站 11"},{"poiid":"B2094757D06EAAF5419F","title":"南翔漪园小笼馆","lon":"121.314494054","lat":"31.292691793","category":"68","category_name":"快餐厅","address":"嘉定区南翔镇古漪园路288号(近古漪园北门)"},{"poiid":"B2094757D06FA2FC479B","title":"金地格林世界","lon":"121.32311061","lat":"31.298570324","category":"47","category_name":"住宅区","address":"嘉定区南翔镇瑞林路68号(沪嘉高速丰翔路路口)"},{"poiid":"B2094757D06FA2F8499E","title":"南翔镇","lon":"121.32083892","lat":"31.293945312","category":"260","category_name":"其他","address":"上海嘉定区南翔镇"},{"poiid":"B2094757D06FA3FD479A","title":"南翔老街","lon":"121.30948","lat":"31.291","category":"260","category_name":"其他","address":"上海近郊嘉定区南翔镇德华路(近共和街)  "},{"poiid":"B2094757D06FAAFF459B","title":"古猗园餐厅","lon":"121.31639","lat":"31.29069","category":"68","category_name":"快餐厅","address":"嘉定区南翔镇沪宜公路218号古猗园南大门(古猗园路沪宜公路)"},{"poiid":"B2094654DB69A6FE489F","title":"古漪园","lon":"121.31603","lat":"31.29213","category":"196","category_name":"公园","address":"上海市嘉定区沪宜公路218号"},{"poiid":"B2094654D46BA4FE4393","title":"南翔小笼(古猗园路)","lon":"121.31492","lat":"31.2904","category":"257","category_name":"中餐厅","address":""},{"poiid":"B2094751DA6EA7F5479C","title":"星巴克南翔祥腾广场店","lon":"121.3228","lat":"31.296463","category":"247","category_name":"餐饮美食","address":"嘉定区佳通路31弄3号中冶翔腾城市广场2楼(近11号线南翔站)"},{"poiid":"B2094750D26BA7F9429A","title":"南翔医院","lon":"121.317955","lat":"31.290615","category":"162","category_name":"医院","address":"众仁路495号"},{"poiid":"B2094752D56DA4FD469B","title":"荷泰东南亚风味餐厅","lon":"121.317225","lat":"31.297102","category":"247","category_name":"餐饮美食","address":"中冶祥腾广场"},{"poiid":"B2094757D06FA3FD4799","title":"S5沪嘉高速南翔收费站","lon":"121.325303892","lat":"31.2968820244","category":"267","category_name":"收费站","address":"上海S5沪嘉高速南翔收费站(近丰翔路)"},{"poiid":"B2094655D264A2F5459E","title":"南翔古镇","lon":"121.31557","lat":"31.2895","category":"250","category_name":"公园户外","address":"嘉定区南翔镇人民街(生产街南华路间)"},{"poiid":"B2094757D06AAAFF439F","title":"嘉定二中","lon":"121.31111145","lat":"31.2952690125","category":"55","category_name":"中学","address":"嘉定区德华路388号"},{"poiid":"B2094757D568AAFB4099","title":"南翔镇南华路、民主街解放街","lon":"121.31572","lat":"31.29648","category":"47","category_name":"住宅区","address":"上海市嘉定区南翔镇民主街224号"},{"poiid":"B2094752D464A1FE459B","title":"满记甜品上海南翔中治翔腾广场店","lon":"121.318072","lat":"31.297161","category":"247","category_name":"餐饮美食","address":null},{"poiid":"B2094757D16DA1FB4692","title":"南翔文广中心","lon":"121.31328892","lat":"31.299913373","category":"500","category_name":"未知分类","address":"嘉定区古猗园路737号"},{"poiid":"B2094654DB69A5F54493","title":"格林豪泰酒店(南翔店)","lon":"121.32161","lat":"31.29403","category":"216","category_name":"经济型连锁酒店","address":"普陀区众仁路与真南路交叉口(南翔镇政府斜对面)"},{"poiid":"B2094752D06FA5FF4793","title":"必胜客南翔中冶祥腾店","lon":"121.318049","lat":"31.296746","category":"247","category_name":"餐饮美食","address":"南翔中冶祥腾广场1楼"},{"poiid":"B2094750D564A3FB4693","title":"绿地新里崴廉公馆","lon":"121.316786","lat":"31.295714","category":"47","category_name":"住宅区","address":"佳通路211号(真南路德华路交叉口)"},{"poiid":"B2094752D368A1FF409F","title":"捞王猪肚鸡","lon":"121.322586","lat":"31.294815","category":"247","category_name":"餐饮美食","address":"上海市嘉定区南翔镇中冶翔腾城市广场二楼"},{"poiid":"B2094654DB65A4FD419A","title":"南翔医院","lon":"121.31098","lat":"31.29164","category":"162","category_name":"医院","address":"嘉定区南翔镇众仁路495号(近真南路)"},{"poiid":"B2094654DB69A6FE439C","title":"金地格林春晓","lon":"121.32337","lat":"31.29254","category":"47","category_name":"住宅区","address":"上海市嘉定区真南路4233号"},{"poiid":"B2094757D164ABFC489E","title":"民东公寓","lon":"121.31886","lat":"31.294855","category":"252","category_name":"楼宇机构","address":"上海市嘉定区南翔镇民主东街"},{"poiid":"B2094753D568ABFF4592","title":"金湘隆（南翔店）","lon":"121.319758","lat":"31.296136","category":"111","category_name":"休闲餐饮场所","address":"真南路4368弄中冶祥腾城市广场2楼05室"},{"poiid":"B209475CD36BA7FF459D","title":"荷泰东南亚餐厅","lon":"121.31971","lat":"31.29596","category":"99","category_name":"泰国／越南菜品餐厅","address":"真南路4368弄中冶祥腾城市广场3号楼2楼01-05号"},{"poiid":"B2094757D068ABFF449A","title":"南翔金地格林","lon":"121.32389068","lat":"31.300073623","category":"47","category_name":"住宅区","address":"上海嘉定南翔镇芳林路"},{"poiid":"B2094753D76AA1FD409A","title":"小杨生煎(中冶祥腾店)","lon":"121.320128","lat":"31.295908","category":"87","category_name":"特色／地方风味餐厅","address":"上海市嘉定区真南路4368弄中冶翔腾城市广场1号楼"},{"poiid":"B2094757D66BA5FC4699","title":"肯德基 丰翔路店 KFC","lon":"121.316944054","lat":"31.299572793","category":"68","category_name":"快餐厅","address":"嘉定区丰翔路3168号家乐福超市1楼(丰翔路浏翔公路)"},{"poiid":"B2094753D36FA0FB409A","title":"菊樱回转寿司","lon":"121.316472","lat":"31.296914","category":"247","category_name":"餐饮美食","address":"上海市 中冶翔腾广场2楼"},{"poiid":"B2094654D46BABFE489C","title":"同盛公寓","lon":"121.31451","lat":"31.29105","category":"47","category_name":"住宅区","address":"上海市普陀区宁夏路335号"},{"poiid":"B2094751D56AA2FB449E","title":"汉净阁足道公馆(真南路店)","lon":"121.31691","lat":"31.294067","category":"149","category_name":"洗浴推拿场所","address":"嘉定区南翔镇真南路4368弄5号2楼"},{"poiid":"B2094757D168A7F9419B","title":"柯玛士庄园","lon":"121.319343","lat":"31.294491","category":"500","category_name":"未知分类","address":"上海市嘉定区南翔镇金地格林世界芳林路555弄"},{"poiid":"B2094752D765A6F4459D","title":"保利国际影城","lon":"121.322063","lat":"31.295258","category":"500","category_name":"未知分类","address":null},{"poiid":"B2094753D26DABFE4992","title":"比比客BBQ","lon":"121.321729","lat":"31.295146","category":"247","category_name":"餐饮美食","address":"上海市 真南路4500号中冶祥腾城市广场1楼1313室"},{"poiid":"B2094757D568AAFF499D","title":"米兰咖啡","lon":"121.3159631","lat":"31.29164611","category":"65","category_name":"咖啡厅","address":"嘉定区南翔镇沪宜公路281号古猗园旁(沪宜公路口)"},{"poiid":"B2094757D16DA3FA4499","title":"老街汤团(南翔店)","lon":"121.32111","lat":"31.29367","category":"257","category_name":"中餐厅","address":"上海近郊嘉定区南翔人民街41号  "},{"poiid":"B2094751D36AA7F54692","title":"乐沪阁","lon":"121.3185","lat":"31.29185","category":"96","category_name":"韩国料理","address":"嘉定区沪宜公路99弄"},{"poiid":"B2094757D664A3FF4193","title":"兰森酒楼","lon":"121.3148692","lat":"31.2908675","category":"76","category_name":"上海菜","address":"南翔镇古猗园路291-295近沪宜公路"},{"poiid":"B2094752DA6BA2F5459D","title":"保利国际影城","lon":"121.322398","lat":"31.295178","category":"500","category_name":"未知分类","address":"上海市 嘉定区真南路4500号"},{"poiid":"B2094751DA6CA1FF4293","title":"小杨生煎","lon":"121.319843","lat":"31.299452","category":"247","category_name":"餐饮美食","address":"南翔地铁站"},{"poiid":"B2094655D264A7F94193","title":"绿洲古猗新苑","lon":"121.32","lat":"31.2989","category":"47","category_name":"住宅区","address":"上海市嘉定区古猗园路155弄"},{"poiid":"B2094750D66CAAFA409E","title":"超级玛丽","lon":"121.320045","lat":"31.289876","category":"248","category_name":"生活娱乐","address":"沪宜公路155号2弄3F"},{"poiid":"B2094752D565A4F5419B","title":"满记甜品","lon":"121.32264","lat":"31.296045","category":"247","category_name":"餐饮美食","address":"上海市嘉定区真南路4368弄7号01层08室"},{"poiid":"B2094757D66EA2FB4392","title":"南翔镇政府","lon":"121.320980925","lat":"31.2945682624","category":"500","category_name":"未知分类","address":"上海嘉定南翔"},{"poiid":"B2094655D26BA5F9499C","title":"博威禧福汇","lon":"121.32099","lat":"31.29405","category":"47","category_name":"住宅区","address":"沪宜公路310号"},{"poiid":"B2094757D064A7F5449D","title":"嘉定区第六税务所","lon":"121.32426392","lat":"31.295500281","category":"500","category_name":"未知分类","address":"上海市嘉定区真南路4268号"},{"poiid":"B2094757DA69A1F94592","title":"南翔公馆","lon":"121.30864035489","lat":"31.292813635332","category":"72","category_name":"广东菜","address":"嘉定区南翔镇共和街1号(近德华路)"},{"poiid":"B2094757D16DA0FF4399","title":"阿莉餐厅","lon":"121.31614592","lat":"31.296394966","category":"500","category_name":"未知分类","address":"上海枣阳路394号"},{"poiid":"B2094654D46BABFF4398","title":"古猗园","lon":"121.31596","lat":"31.29164","category":"240","category_name":"国家级景点","address":"嘉定区南翔镇沪宜路218号"},{"poiid":"B2094757D06EAAFE419C","title":"南翔地铁站","lon":"121.32427277","lat":"31.297083592","category":"36","category_name":"地铁站","address":"上海轨道交通 十一号线 轨交南翔站 11"},{"poiid":"B2094757D06EAAF5419F","title":"南翔漪园小笼馆","lon":"121.314494054","lat":"31.292691793","category":"68","category_name":"快餐厅","address":"嘉定区南翔镇古漪园路288号(近古漪园北门)"},{"poiid":"B2094757D06FA2FC479B","title":"金地格林世界","lon":"121.32311061","lat":"31.298570324","category":"47","category_name":"住宅区","address":"嘉定区南翔镇瑞林路68号(沪嘉高速丰翔路路口)"},{"poiid":"B2094757D06FA2F8499E","title":"南翔镇","lon":"121.32083892","lat":"31.293945312","category":"260","category_name":"其他","address":"上海嘉定区南翔镇"},{"poiid":"B2094757D06FA3FD479A","title":"南翔老街","lon":"121.30948","lat":"31.291","category":"260","category_name":"其他","address":"上海近郊嘉定区南翔镇德华路(近共和街)  "},{"poiid":"B2094757D06FAAFF459B","title":"古猗园餐厅","lon":"121.31639","lat":"31.29069","category":"68","category_name":"快餐厅","address":"嘉定区南翔镇沪宜公路218号古猗园南大门(古猗园路沪宜公路)"},{"poiid":"B2094654DB69A6FE489F","title":"古漪园","lon":"121.31603","lat":"31.29213","category":"196","category_name":"公园","address":"上海市嘉定区沪宜公路218号"},{"poiid":"B2094654D46BA4FE4393","title":"南翔小笼(古猗园路)","lon":"121.31492","lat":"31.2904","category":"257","category_name":"中餐厅","address":""},{"poiid":"B2094751DA6EA7F5479C","title":"星巴克南翔祥腾广场店","lon":"121.3228","lat":"31.296463","category":"247","category_name":"餐饮美食","address":"嘉定区佳通路31弄3号中冶翔腾城市广场2楼(近11号线南翔站)"},{"poiid":"B2094750D26BA7F9429A","title":"南翔医院","lon":"121.317955","lat":"31.290615","category":"162","category_name":"医院","address":"众仁路495号"},{"poiid":"B2094752D56DA4FD469B","title":"荷泰东南亚风味餐厅","lon":"121.317225","lat":"31.297102","category":"247","category_name":"餐饮美食","address":"中冶祥腾广场"},{"poiid":"B2094757D06FA3FD4799","title":"S5沪嘉高速南翔收费站","lon":"121.325303892","lat":"31.2968820244","category":"267","category_name":"收费站","address":"上海S5沪嘉高速南翔收费站(近丰翔路)"},{"poiid":"B2094655D264A2F5459E","title":"南翔古镇","lon":"121.31557","lat":"31.2895","category":"250","category_name":"公园户外","address":"嘉定区南翔镇人民街(生产街南华路间)"},{"poiid":"B2094757D06AAAFF439F","title":"嘉定二中","lon":"121.31111145","lat":"31.2952690125","category":"55","category_name":"中学","address":"嘉定区德华路388号"},{"poiid":"B2094757D568AAFB4099","title":"南翔镇南华路、民主街解放街","lon":"121.31572","lat":"31.29648","category":"47","category_name":"住宅区","address":"上海市嘉定区南翔镇民主街224号"},{"poiid":"B2094752D464A1FE459B","title":"满记甜品上海南翔中治翔腾广场店","lon":"121.318072","lat":"31.297161","category":"247","category_name":"餐饮美食","address":null},{"poiid":"B2094757D16DA1FB4692","title":"南翔文广中心","lon":"121.31328892","lat":"31.299913373","category":"500","category_name":"未知分类","address":"嘉定区古猗园路737号"},{"poiid":"B2094654DB69A5F54493","title":"格林豪泰酒店(南翔店)","lon":"121.32161","lat":"31.29403","category":"216","category_name":"经济型连锁酒店","address":"普陀区众仁路与真南路交叉口(南翔镇政府斜对面)"},{"poiid":"B2094752D06FA5FF4793","title":"必胜客南翔中冶祥腾店","lon":"121.318049","lat":"31.296746","category":"247","category_name":"餐饮美食","address":"南翔中冶祥腾广场1楼"},{"poiid":"B2094750D564A3FB4693","title":"绿地新里崴廉公馆","lon":"121.316786","lat":"31.295714","category":"47","category_name":"住宅区","address":"佳通路211号(真南路德华路交叉口)"},{"poiid":"B2094752D368A1FF409F","title":"捞王猪肚鸡","lon":"121.322586","lat":"31.294815","category":"247","category_name":"餐饮美食","address":"上海市嘉定区南翔镇中冶翔腾城市广场二楼"},{"poiid":"B2094654DB65A4FD419A","title":"南翔医院","lon":"121.31098","lat":"31.29164","category":"162","category_name":"医院","address":"嘉定区南翔镇众仁路495号(近真南路)"},{"poiid":"B2094654DB69A6FE439C","title":"金地格林春晓","lon":"121.32337","lat":"31.29254","category":"47","category_name":"住宅区","address":"上海市嘉定区真南路4233号"},{"poiid":"B2094757D164ABFC489E","title":"民东公寓","lon":"121.31886","lat":"31.294855","category":"252","category_name":"楼宇机构","address":"上海市嘉定区南翔镇民主东街"},{"poiid":"B2094753D568ABFF4592","title":"金湘隆（南翔店）","lon":"121.319758","lat":"31.296136","category":"111","category_name":"休闲餐饮场所","address":"真南路4368弄中冶祥腾城市广场2楼05室"},{"poiid":"B209475CD36BA7FF459D","title":"荷泰东南亚餐厅","lon":"121.31971","lat":"31.29596","category":"99","category_name":"泰国／越南菜品餐厅","address":"真南路4368弄中冶祥腾城市广场3号楼2楼01-05号"},{"poiid":"B2094757D068ABFF449A","title":"南翔金地格林","lon":"121.32389068","lat":"31.300073623","category":"47","category_name":"住宅区","address":"上海嘉定南翔镇芳林路"},{"poiid":"B2094753D76AA1FD409A","title":"小杨生煎(中冶祥腾店)","lon":"121.320128","lat":"31.295908","category":"87","category_name":"特色／地方风味餐厅","address":"上海市嘉定区真南路4368弄中冶翔腾城市广场1号楼"},{"poiid":"B2094757D66BA5FC4699","title":"肯德基 丰翔路店 KFC","lon":"121.316944054","lat":"31.299572793","category":"68","category_name":"快餐厅","address":"嘉定区丰翔路3168号家乐福超市1楼(丰翔路浏翔公路)"},{"poiid":"B2094753D36FA0FB409A","title":"菊樱回转寿司","lon":"121.316472","lat":"31.296914","category":"247","category_name":"餐饮美食","address":"上海市 中冶翔腾广场2楼"},{"poiid":"B2094654D46BABFE489C","title":"同盛公寓","lon":"121.31451","lat":"31.29105","category":"47","category_name":"住宅区","address":"上海市普陀区宁夏路335号"},{"poiid":"B2094751D56AA2FB449E","title":"汉净阁足道公馆(真南路店)","lon":"121.31691","lat":"31.294067","category":"149","category_name":"洗浴推拿场所","address":"嘉定区南翔镇真南路4368弄5号2楼"},{"poiid":"B2094757D168A7F9419B","title":"柯玛士庄园","lon":"121.319343","lat":"31.294491","category":"500","category_name":"未知分类","address":"上海市嘉定区南翔镇金地格林世界芳林路555弄"},{"poiid":"B2094752D765A6F4459D","title":"保利国际影城","lon":"121.322063","lat":"31.295258","category":"500","category_name":"未知分类","address":null},{"poiid":"B2094753D26DABFE4992","title":"比比客BBQ","lon":"121.321729","lat":"31.295146","category":"247","category_name":"餐饮美食","address":"上海市 真南路4500号中冶祥腾城市广场1楼1313室"},{"poiid":"B2094757D568AAFF499D","title":"米兰咖啡","lon":"121.3159631","lat":"31.29164611","category":"65","category_name":"咖啡厅","address":"嘉定区南翔镇沪宜公路281号古猗园旁(沪宜公路口)"},{"poiid":"B2094757D16DA3FA4499","title":"老街汤团(南翔店)","lon":"121.32111","lat":"31.29367","category":"257","category_name":"中餐厅","address":"上海近郊嘉定区南翔人民街41号  "},{"poiid":"B2094751D36AA7F54692","title":"乐沪阁","lon":"121.3185","lat":"31.29185","category":"96","category_name":"韩国料理","address":"嘉定区沪宜公路99弄"},{"poiid":"B2094757D664A3FF4193","title":"兰森酒楼","lon":"121.3148692","lat":"31.2908675","category":"76","category_name":"上海菜","address":"南翔镇古猗园路291-295近沪宜公路"},{"poiid":"B2094752DA6BA2F5459D","title":"保利国际影城","lon":"121.322398","lat":"31.295178","category":"500","category_name":"未知分类","address":"上海市 嘉定区真南路4500号"},{"poiid":"B2094751DA6CA1FF4293","title":"小杨生煎","lon":"121.319843","lat":"31.299452","category":"247","category_name":"餐饮美食","address":"南翔地铁站"},{"poiid":"B2094655D264A7F94193","title":"绿洲古猗新苑","lon":"121.32","lat":"31.2989","category":"47","category_name":"住宅区","address":"上海市嘉定区古猗园路155弄"},{"poiid":"B2094750D66CAAFA409E","title":"超级玛丽","lon":"121.320045","lat":"31.289876","category":"248","category_name":"生活娱乐","address":"沪宜公路155号2弄3F"},{"poiid":"B2094752D565A4F5419B","title":"满记甜品","lon":"121.32264","lat":"31.296045","category":"247","category_name":"餐饮美食","address":"上海市嘉定区真南路4368弄7号01层08室"},{"poiid":"B2094757D66EA2FB4392","title":"南翔镇政府","lon":"121.320980925","lat":"31.2945682624","category":"500","category_name":"未知分类","address":"上海嘉定南翔"},{"poiid":"B2094655D26BA5F9499C","title":"博威禧福汇","lon":"121.32099","lat":"31.29405","category":"47","category_name":"住宅区","address":"沪宜公路310号"},{"poiid":"B2094757D064A7F5449D","title":"嘉定区第六税务所","lon":"121.32426392","lat":"31.295500281","category":"500","category_name":"未知分类","address":"上海市嘉定区真南路4268号"},{"poiid":"B2094757DA69A1F94592","title":"南翔公馆","lon":"121.30864035489","lat":"31.292813635332","category":"72","category_name":"广东菜","address":"嘉定区南翔镇共和街1号(近德华路)"},{"poiid":"B2094757D16DA0FF4399","title":"阿莉餐厅","lon":"121.31614592","lat":"31.296394966","category":"500","category_name":"未知分类","address":"上海枣阳路394号"},{"poiid":"B2094654D46BABFF4398","title":"古猗园","lon":"121.31596","lat":"31.29164","category":"240","category_name":"国家级景点","address":"嘉定区南翔镇沪宜路218号"},{"poiid":"B2094757D06EAAFE419C","title":"南翔地铁站","lon":"121.32427277","lat":"31.297083592","category":"36","category_name":"地铁站","address":"上海轨道交通 十一号线 轨交南翔站 11"},{"poiid":"B2094757D06EAAF5419F","title":"南翔漪园小笼馆","lon":"121.314494054","lat":"31.292691793","category":"68","category_name":"快餐厅","address":"嘉定区南翔镇古漪园路288号(近古漪园北门)"},{"poiid":"B2094757D06FA2FC479B","title":"金地格林世界","lon":"121.32311061","lat":"31.298570324","category":"47","category_name":"住宅区","address":"嘉定区南翔镇瑞林路68号(沪嘉高速丰翔路路口)"},{"poiid":"B2094757D06FA2F8499E","title":"南翔镇","lon":"121.32083892","lat":"31.293945312","category":"260","category_name":"其他","address":"上海嘉定区南翔镇"},{"poiid":"B2094757D06FA3FD479A","title":"南翔老街","lon":"121.30948","lat":"31.291","category":"260","category_name":"其他","address":"上海近郊嘉定区南翔镇德华路(近共和街)  "},{"poiid":"B2094757D06FAAFF459B","title":"古猗园餐厅","lon":"121.31639","lat":"31.29069","category":"68","category_name":"快餐厅","address":"嘉定区南翔镇沪宜公路218号古猗园南大门(古猗园路沪宜公路)"},{"poiid":"B2094654DB69A6FE489F","title":"古漪园","lon":"121.31603","lat":"31.29213","category":"196","category_name":"公园","address":"上海市嘉定区沪宜公路218号"},{"poiid":"B2094654D46BA4FE4393","title":"南翔小笼(古猗园路)","lon":"121.31492","lat":"31.2904","category":"257","category_name":"中餐厅","address":""},{"poiid":"B2094751DA6EA7F5479C","title":"星巴克南翔祥腾广场店","lon":"121.3228","lat":"31.296463","category":"247","category_name":"餐饮美食","address":"嘉定区佳通路31弄3号中冶翔腾城市广场2楼(近11号线南翔站)"},{"poiid":"B2094750D26BA7F9429A","title":"南翔医院","lon":"121.317955","lat":"31.290615","category":"162","category_name":"医院","address":"众仁路495号"},{"poiid":"B2094752D56DA4FD469B","title":"荷泰东南亚风味餐厅","lon":"121.317225","lat":"31.297102","category":"247","category_name":"餐饮美食","address":"中冶祥腾广场"},{"poiid":"B2094757D06FA3FD4799","title":"S5沪嘉高速南翔收费站","lon":"121.325303892","lat":"31.2968820244","category":"267","category_name":"收费站","address":"上海S5沪嘉高速南翔收费站(近丰翔路)"},{"poiid":"B2094655D264A2F5459E","title":"南翔古镇","lon":"121.31557","lat":"31.2895","category":"250","category_name":"公园户外","address":"嘉定区南翔镇人民街(生产街南华路间)"},{"poiid":"B2094757D06AAAFF439F","title":"嘉定二中","lon":"121.31111145","lat":"31.2952690125","category":"55","category_name":"中学","address":"嘉定区德华路388号"},{"poiid":"B2094757D568AAFB4099","title":"南翔镇南华路、民主街解放街","lon":"121.31572","lat":"31.29648","category":"47","category_name":"住宅区","address":"上海市嘉定区南翔镇民主街224号"},{"poiid":"B2094752D464A1FE459B","title":"满记甜品上海南翔中治翔腾广场店","lon":"121.318072","lat":"31.297161","category":"247","category_name":"餐饮美食","address":null},{"poiid":"B2094757D16DA1FB4692","title":"南翔文广中心","lon":"121.31328892","lat":"31.299913373","category":"500","category_name":"未知分类","address":"嘉定区古猗园路737号"},{"poiid":"B2094654DB69A5F54493","title":"格林豪泰酒店(南翔店)","lon":"121.32161","lat":"31.29403","category":"216","category_name":"经济型连锁酒店","address":"普陀区众仁路与真南路交叉口(南翔镇政府斜对面)"},{"poiid":"B2094752D06FA5FF4793","title":"必胜客南翔中冶祥腾店","lon":"121.318049","lat":"31.296746","category":"247","category_name":"餐饮美食","address":"南翔中冶祥腾广场1楼"},{"poiid":"B2094750D564A3FB4693","title":"绿地新里崴廉公馆","lon":"121.316786","lat":"31.295714","category":"47","category_name":"住宅区","address":"佳通路211号(真南路德华路交叉口)"},{"poiid":"B2094752D368A1FF409F","title":"捞王猪肚鸡","lon":"121.322586","lat":"31.294815","category":"247","category_name":"餐饮美食","address":"上海市嘉定区南翔镇中冶翔腾城市广场二楼"},{"poiid":"B2094654DB65A4FD419A","title":"南翔医院","lon":"121.31098","lat":"31.29164","category":"162","category_name":"医院","address":"嘉定区南翔镇众仁路495号(近真南路)"},{"poiid":"B2094654DB69A6FE439C","title":"金地格林春晓","lon":"121.32337","lat":"31.29254","category":"47","category_name":"住宅区","address":"上海市嘉定区真南路4233号"},{"poiid":"B2094757D164ABFC489E","title":"民东公寓","lon":"121.31886","lat":"31.294855","category":"252","category_name":"楼宇机构","address":"上海市嘉定区南翔镇民主东街"},{"poiid":"B2094753D568ABFF4592","title":"金湘隆（南翔店）","lon":"121.319758","lat":"31.296136","category":"111","category_name":"休闲餐饮场所","address":"真南路4368弄中冶祥腾城市广场2楼05室"},{"poiid":"B209475CD36BA7FF459D","title":"荷泰东南亚餐厅","lon":"121.31971","lat":"31.29596","category":"99","category_name":"泰国／越南菜品餐厅","address":"真南路4368弄中冶祥腾城市广场3号楼2楼01-05号"},{"poiid":"B2094757D068ABFF449A","title":"南翔金地格林","lon":"121.32389068","lat":"31.300073623","category":"47","category_name":"住宅区","address":"上海嘉定南翔镇芳林路"},{"poiid":"B2094753D76AA1FD409A","title":"小杨生煎(中冶祥腾店)","lon":"121.320128","lat":"31.295908","category":"87","category_name":"特色／地方风味餐厅","address":"上海市嘉定区真南路4368弄中冶翔腾城市广场1号楼"},{"poiid":"B2094757D66BA5FC4699","title":"肯德基 丰翔路店 KFC","lon":"121.316944054","lat":"31.299572793","category":"68","category_name":"快餐厅","address":"嘉定区丰翔路3168号家乐福超市1楼(丰翔路浏翔公路)"},{"poiid":"B2094753D36FA0FB409A","title":"菊樱回转寿司","lon":"121.316472","lat":"31.296914","category":"247","category_name":"餐饮美食","address":"上海市 中冶翔腾广场2楼"},{"poiid":"B2094654D46BABFE489C","title":"同盛公寓","lon":"121.31451","lat":"31.29105","category":"47","category_name":"住宅区","address":"上海市普陀区宁夏路335号"},{"poiid":"B2094751D56AA2FB449E","title":"汉净阁足道公馆(真南路店)","lon":"121.31691","lat":"31.294067","category":"149","category_name":"洗浴推拿场所","address":"嘉定区南翔镇真南路4368弄5号2楼"},{"poiid":"B2094757D168A7F9419B","title":"柯玛士庄园","lon":"121.319343","lat":"31.294491","category":"500","category_name":"未知分类","address":"上海市嘉定区南翔镇金地格林世界芳林路555弄"},{"poiid":"B2094752D765A6F4459D","title":"保利国际影城","lon":"121.322063","lat":"31.295258","category":"500","category_name":"未知分类","address":null},{"poiid":"B2094753D26DABFE4992","title":"比比客BBQ","lon":"121.321729","lat":"31.295146","category":"247","category_name":"餐饮美食","address":"上海市 真南路4500号中冶祥腾城市广场1楼1313室"},{"poiid":"B2094757D568AAFF499D","title":"米兰咖啡","lon":"121.3159631","lat":"31.29164611","category":"65","category_name":"咖啡厅","address":"嘉定区南翔镇沪宜公路281号古猗园旁(沪宜公路口)"},{"poiid":"B2094757D16DA3FA4499","title":"老街汤团(南翔店)","lon":"121.32111","lat":"31.29367","category":"257","category_name":"中餐厅","address":"上海近郊嘉定区南翔人民街41号  "},{"poiid":"B2094751D36AA7F54692","title":"乐沪阁","lon":"121.3185","lat":"31.29185","category":"96","category_name":"韩国料理","address":"嘉定区沪宜公路99弄"},{"poiid":"B2094757D664A3FF4193","title":"兰森酒楼","lon":"121.3148692","lat":"31.2908675","category":"76","category_name":"上海菜","address":"南翔镇古猗园路291-295近沪宜公路"},{"poiid":"B2094752DA6BA2F5459D","title":"保利国际影城","lon":"121.322398","lat":"31.295178","category":"500","category_name":"未知分类","address":"上海市 嘉定区真南路4500号"},{"poiid":"B2094751DA6CA1FF4293","title":"小杨生煎","lon":"121.319843","lat":"31.299452","category":"247","category_name":"餐饮美食","address":"南翔地铁站"},{"poiid":"B2094655D264A7F94193","title":"绿洲古猗新苑","lon":"121.32","lat":"31.2989","category":"47","category_name":"住宅区","address":"上海市嘉定区古猗园路155弄"},{"poiid":"B2094750D66CAAFA409E","title":"超级玛丽","lon":"121.320045","lat":"31.289876","category":"248","category_name":"生活娱乐","address":"沪宜公路155号2弄3F"},{"poiid":"B2094752D565A4F5419B","title":"满记甜品","lon":"121.32264","lat":"31.296045","category":"247","category_name":"餐饮美食","address":"上海市嘉定区真南路4368弄7号01层08室"},{"poiid":"B2094757D66EA2FB4392","title":"南翔镇政府","lon":"121.320980925","lat":"31.2945682624","category":"500","category_name":"未知分类","address":"上海嘉定南翔"},{"poiid":"B2094655D26BA5F9499C","title":"博威禧福汇","lon":"121.32099","lat":"31.29405","category":"47","category_name":"住宅区","address":"沪宜公路310号"},{"poiid":"B2094757D064A7F5449D","title":"嘉定区第六税务所","lon":"121.32426392","lat":"31.295500281","category":"500","category_name":"未知分类","address":"上海市嘉定区真南路4268号"},{"poiid":"B2094757DA69A1F94592","title":"南翔公馆","lon":"121.30864035489","lat":"31.292813635332","category":"72","category_name":"广东菜","address":"嘉定区南翔镇共和街1号(近德华路)"},{"poiid":"B2094757D16DA0FF4399","title":"阿莉餐厅","lon":"121.31614592","lat":"31.296394966","category":"500","category_name":"未知分类","address":"上海枣阳路394号"}]