[{"poiid":"B2094757D06FA2F4449D","title":"陆家庄(杨高南路店)","lon":"121.52113","lat":"31.17785","category":"76","category_name":"上海菜","address":"浦东新区杨高南路2875号(近浦三路)"},{"poiid":"B2094757D06FA1FA439C","title":"大华锦绣假日酒店","lon":"121.53326","lat":"31.17911","category":"214","category_name":"四星级宾馆","address":"上海市浦东新区锦尊路399号(近北艾路)"},{"poiid":"B2094757D064A2F44699","title":"大华锦绣华城4街区(中原地产)","lon":"121.52063807","lat":"31.177469176","category":"47","category_name":"住宅区","address":"上海北艾路1765弄"},{"poiid":"B2094757D06FA6FF439B","title":"掌柜的店(锦尊路店)","lon":"121.533305108","lat":"31.1799593395","category":"260","category_name":"其他","address":"浦东新区锦尊路459号(成山路巴黎春天旁)"},{"poiid":"B2094757D06FA4F9479D","title":"阿明小菜","lon":"121.517","lat":"31.17739","category":"76","category_name":"上海菜","address":"浦东新区南码头路1510号(近昌里东路)"},{"poiid":"B2094757D06FA0FC459C","title":"杨高南路成山路","lon":"121.51868041","lat":"31.174205869","category":"500","category_name":"未知分类","address":"上海杨高南路成山路"},{"poiid":"B2094757D06FA6FF419D","title":"陆家庄(北艾店)","lon":"121.53155","lat":"31.18164","category":"76","category_name":"上海菜","address":"浦东新区北艾路1418号(杨高路锦绣路间)"},{"poiid":"B2094655D36DA0F84793","title":"杨高南路浦三路","lon":"121.52095","lat":"31.18034","category":"38","category_name":"公交车站","address":""},{"poiid":"B2094757DA6EABFC4293","title":"万嘉酒店(锦尊店)","lon":"121.533100999999","lat":"31.18013","category":"72","category_name":"广东菜","address":"浦东新区锦尊路439号(近成山路)"},{"poiid":"B2094757D06FA2F9499E","title":"大华锦绣华城16街区(中原地产)","lon":"121.53004815","lat":"31.1758471245","category":"47","category_name":"住宅区","address":"成山路1728弄"},{"poiid":"B2094757D06BA7F9439C","title":"悦豪斯（中原地产）","lon":"121.524718338","lat":"31.1744254062","category":"47","category_name":"住宅区","address":"上海市浦东新区华鹏路300弄"},{"poiid":"B2094757D069A6F5429E","title":"广灵阁八仙海鲜城","lon":"121.51892745","lat":"31.176472474","category":"72","category_name":"广东菜","address":"浦东新区杨高南路2828号(成山路口)(成山路口)"},{"poiid":"B2094757D66BA3F9439D","title":"老街渔味馆 巴黎春天店","lon":"121.5311716","lat":"31.1826601","category":"76","category_name":"上海菜","address":"浦东新区锦尊路(北艾路口)"},{"poiid":"B2094757D068A7F5409B","title":"京世日韩专业烫染店(昌里店)","lon":"121.51645","lat":"31.17933","category":"148","category_name":"美容美发店","address":"上海浦东新区昌里东路608号(近南码头路)  "},{"poiid":"B2094757D068ABFA439F","title":"亿家门(南码头店)","lon":"121.51664","lat":"31.17704","category":"76","category_name":"上海菜","address":"浦东新区南码头路1444号(近昌里东路)"},{"poiid":"B2094757D16FA3FE4992","title":"万嘉酒楼","lon":"121.52741543","lat":"31.177158469","category":"247","category_name":"餐饮美食","address":"上海浦东新区锦尊路439号(近成山路)"},{"poiid":"B2094757D069A2FA4198","title":"棒约翰比萨(成山巴春店)","lon":"121.533849054","lat":"31.1784412972","category":"94","category_name":"西餐厅","address":"浦东新区成山路1993号巴黎春天(近成山路)"},{"poiid":"B2094750D665A3F8499C","title":"段氏龙虾(浦三路店)","lon":"121.519","lat":"31.1821","category":"68","category_name":"快餐厅","address":"浦东新区浦三路843号(近昌里东路)"},{"poiid":"B2094757D065A0F44399","title":"国麟大饭店","lon":"121.52719532","lat":"31.176955428","category":"90","category_name":"清真餐馆","address":"浦东新区成山路1658号(近杨高南路世博停车场)"},{"poiid":"B2094655D26FAAFA409C","title":"锦绣华城","lon":"121.52236","lat":"31.17913","category":"47","category_name":"住宅区","address":"锦绣路3336弄"},{"poiid":"B2094655D26AA3F44492","title":"同福易家丽","lon":"121.52771","lat":"31.16783","category":"47","category_name":"住宅区","address":"浦东新区浦三路1515号(近板泉路)"},{"poiid":"B2094655D36CA2FD489B","title":"云顶国际商业广场","lon":"121.520582","lat":"31.178543","category":"46","category_name":"楼宇","address":"朝阳区北三环西坝河18号"},{"poiid":"B2094751D269A0FE4392","title":"齐宇家宴","lon":"121.524978","lat":"31.176771","category":"247","category_name":"餐饮美食","address":"成山路浦三路"},{"poiid":"B2094757D16EA4FF449D","title":"北艾路","lon":"121.521712738","lat":"31.1759691446","category":"500","category_name":"未知分类","address":"上海楊高南路北艾路1765弄﹣錦修華城"},{"poiid":"B2094654DA6AA2F4419B","title":"客家小厨(南码头店)","lon":"121.51648","lat":"31.17814","category":"72","category_name":"广东菜","address":"浦东新区南码头路1444号"},{"poiid":"B2094757D06FA4FA469B","title":"老盛昌苏州汤包馆(昌里东路店)","lon":"121.51682","lat":"31.17971","category":"68","category_name":"快餐厅","address":"浦东新区昌里东路624号(近南码头路)"},{"poiid":"B2094757D165A0FB449B","title":"万嘉海鲜楼","lon":"121.532954","lat":"31.180759","category":"247","category_name":"餐饮美食","address":"上海锦尊路399号"},{"poiid":"B2094655D36CA5FF409D","title":"成山路浦三路","lon":"121.5231","lat":"31.17389","category":"38","category_name":"公交车站","address":""},{"poiid":"B2094750DB65A6F44792","title":"一兆韦德(成山店)","lon":"121.532546","lat":"31.178461","category":"500","category_name":"未知分类","address":"浦东新区成山路1879号(锦尊路口)"},{"poiid":"B2094757D465A3F94798","title":"浸香日本料理","lon":"121.53339385986","lat":"31.179615020752","category":"268","category_name":"自助","address":"浦东新区锦尊路463号(近成山路巴黎春天)"},{"poiid":"B2094750D464AAFF4592","title":"日月光广场…","lon":"121.521858","lat":"31.174737","category":"500","category_name":"未知分类","address":null},{"poiid":"B2094753D768A3FC479D","title":"珐朵公馆","lon":"121.522399","lat":"31.175535","category":"500","category_name":"未知分类","address":"上海市浦东新区成山路1488号"},{"poiid":"B2094757D469A3FE469B","title":"海尚澳门豆捞","lon":"121.53088","lat":"31.1776","category":"86","category_name":"火锅店","address":"浦东新区成山路1748号(浦三路锦尊路间)"},{"poiid":"B2094757D06AA6F84193","title":"张博士茗茶馆","lon":"121.533313","lat":"31.18028","category":"260","category_name":"其他","address":"浦东新区锦尊路439号3楼(近成山路)"},{"poiid":"B2094757D068A4F54892","title":"同福易家丽家具商城","lon":"121.52138","lat":"31.17245","category":"123","category_name":"家具建材市场","address":"浦东新区杨高南路3303号(恒大建材对面)"},{"poiid":"B2094757D06BA4F5459C","title":"丁哥黑鱼馆","lon":"121.5307973","lat":"31.17985186","category":"75","category_name":"浙江菜","address":"浦东新区成山路1720号(近巴黎春天)"},{"poiid":"B2094757D76DA0F4419E","title":"大华锦绣假日酒店西餐厅","lon":"121.528401","lat":"31.178125","category":"94","category_name":"西餐厅","address":"浦东新区锦尊路399号大华锦绣假日酒店1楼(近北艾路)"},{"poiid":"B2094757D069A7FF479B","title":"三林煤气堡","lon":"121.52267648","lat":"31.1745877256","category":"500","category_name":"未知分类","address":"上海浦三路成山路"},{"poiid":"B2094655D26AA0F9489A","title":"地铁六里站","lon":"121.52387","lat":"31.17253","category":"36","category_name":"地铁站","address":""},{"poiid":"B2094757D06BA2FB4993","title":"东方锦绣幼儿园","lon":"121.530622071","lat":"31.17747251","category":"57","category_name":"幼儿园","address":"上海华春路180号"},{"poiid":"B2094757D06BABFE429D","title":"京世美容美发连锁机构(浦三店)","lon":"121.52464","lat":"31.17203","category":"148","category_name":"美容美发店","address":"上海浦东新区浦三路851号(近昌里东路)  "},{"poiid":"B2094750D665A1FA4298","title":"齐宁家宴","lon":"121.526","lat":"31.1759","category":"260","category_name":"其他","address":"浦东新区成山路菜场2楼(近杨高南路)"},{"poiid":"B2094750DA6FA1FD4393","title":"一茶一坐（大中华锦绣店）","lon":"121.53348","lat":"31.17872","category":"91","category_name":"台湾菜","address":"浦东新区锦尊路499弄2号206,207,208室大华锦绣嘉年华项目内"},{"poiid":"B2094654DA68A5FF4798","title":"艾东小区","lon":"121.52435","lat":"31.182499","category":"47","category_name":"住宅区","address":"上海市浦东新区杨高南路2451弄"},{"poiid":"B2094757DB69ABFF479A","title":"芋贵人","lon":"121.531012","lat":"31.18127","category":"247","category_name":"餐饮美食","address":"成山路巴黎春天"},{"poiid":"B2094757D76BABFB429A","title":"妙邻居菜馆","lon":"121.516454","lat":"31.178192","category":"72","category_name":"广东菜","address":"浦东新区南码头路1444号(近昌里东路)"},{"poiid":"B2094757D465A3FD489D","title":"邵记传菜 成山店","lon":"121.516528","lat":"31.174158","category":"247","category_name":"餐饮美食","address":"浦东新区成山路861号(近邹平路)"},{"poiid":"B2094752D66CA2FA459E","title":"虹桥机场T2航站楼","lon":"121.52147","lat":"31.173879","category":"500","category_name":"未知分类","address":null},{"poiid":"B2094757D66DA3FB4399","title":"十泽道院","lon":"121.521153738","lat":"31.1729400802","category":"244","category_name":"寺庙道观","address":"上海浦三路1200号附近"},{"poiid":"B2094654DA69A3FA429D","title":"成山路公交停车场办公大楼","lon":"121.51777","lat":"31.17348","category":"46","category_name":"楼宇","address":""},{"poiid":"B2094757D06FA2F4449D","title":"陆家庄(杨高南路店)","lon":"121.52113","lat":"31.17785","category":"76","category_name":"上海菜","address":"浦东新区杨高南路2875号(近浦三路)"},{"poiid":"B2094757D06FA1FA439C","title":"大华锦绣假日酒店","lon":"121.53326","lat":"31.17911","category":"214","category_name":"四星级宾馆","address":"上海市浦东新区锦尊路399号(近北艾路)"},{"poiid":"B2094757D064A2F44699","title":"大华锦绣华城4街区(中原地产)","lon":"121.52063807","lat":"31.177469176","category":"47","category_name":"住宅区","address":"上海北艾路1765弄"},{"poiid":"B2094757D06FA6FF439B","title":"掌柜的店(锦尊路店)","lon":"121.533305108","lat":"31.1799593395","category":"260","category_name":"其他","address":"浦东新区锦尊路459号(成山路巴黎春天旁)"},{"poiid":"B2094757D06FA4F9479D","title":"阿明小菜","lon":"121.517","lat":"31.17739","category":"76","category_name":"上海菜","address":"浦东新区南码头路1510号(近昌里东路)"},{"poiid":"B2094757D06FA0FC459C","title":"杨高南路成山路","lon":"121.51868041","lat":"31.174205869","category":"500","category_name":"未知分类","address":"上海杨高南路成山路"},{"poiid":"B2094757D06FA6FF419D","title":"陆家庄(北艾店)","lon":"121.53155","lat":"31.18164","category":"76","category_name":"上海菜","address":"浦东新区北艾路1418号(杨高路锦绣路间)"},{"poiid":"B2094655D36DA0F84793","title":"杨高南路浦三路","lon":"121.52095","lat":"31.18034","category":"38","category_name":"公交车站","address":""},{"poiid":"B2094757DA6EABFC4293","title":"万嘉酒店(锦尊店)","lon":"121.533100999999","lat":"31.18013","category":"72","category_name":"广东菜","address":"浦东新区锦尊路439号(近成山路)"},{"poiid":"B2094757D06FA2F9499E","title":"大华锦绣华城16街区(中原地产)","lon":"121.53004815","lat":"31.1758471245","category":"47","category_name":"住宅区","address":"成山路1728弄"},{"poiid":"B2094757D06BA7F9439C","title":"悦豪斯（中原地产）","lon":"121.524718338","lat":"31.1744254062","category":"47","category_name":"住宅区","address":"上海市浦东新区华鹏路300弄"},{"poiid":"B2094757D069A6F5429E","title":"广灵阁八仙海鲜城","lon":"121.51892745","lat":"31.176472474","category":"72","category_name":"广东菜","address":"浦东新区杨高南路2828号(成山路口)(成山路口)"},{"poiid":"B2094757D66BA3F9439D","title":"老街渔味馆 巴黎春天店","lon":"121.5311716","lat":"31.1826601","category":"76","category_name":"上海菜","address":"浦东新区锦尊路(北艾路口)"},{"poiid":"B2094757D068A7F5409B","title":"京世日韩专业烫染店(昌里店)","lon":"121.51645","lat":"31.17933","category":"148","category_name":"美容美发店","address":"上海浦东新区昌里东路608号(近南码头路)  "},{"poiid":"B2094757D068ABFA439F","title":"亿家门(南码头店)","lon":"121.51664","lat":"31.17704","category":"76","category_name":"上海菜","address":"浦东新区南码头路1444号(近昌里东路)"},{"poiid":"B2094757D16FA3FE4992","title":"万嘉酒楼","lon":"121.52741543","lat":"31.177158469","category":"247","category_name":"餐饮美食","address":"上海浦东新区锦尊路439号(近成山路)"},{"poiid":"B2094757D069A2FA4198","title":"棒约翰比萨(成山巴春店)","lon":"121.533849054","lat":"31.1784412972","category":"94","category_name":"西餐厅","address":"浦东新区成山路1993号巴黎春天(近成山路)"},{"poiid":"B2094750D665A3F8499C","title":"段氏龙虾(浦三路店)","lon":"121.519","lat":"31.1821","category":"68","category_name":"快餐厅","address":"浦东新区浦三路843号(近昌里东路)"},{"poiid":"B2094757D065A0F44399","title":"国麟大饭店","lon":"121.52719532","lat":"31.176955428","category":"90","category_name":"清真餐馆","address":"浦东新区成山路1658号(近杨高南路世博停车场)"},{"poiid":"B2094655D26FAAFA409C","title":"锦绣华城","lon":"121.52236","lat":"31.17913","category":"47","category_name":"住宅区","address":"锦绣路3336弄"},{"poiid":"B2094655D26AA3F44492","title":"同福易家丽","lon":"121.52771","lat":"31.16783","category":"47","category_name":"住宅区","address":"浦东新区浦三路1515号(近板泉路)"},{"poiid":"B2094655D36CA2FD489B","title":"云顶国际商业广场","lon":"121.520582","lat":"31.178543","category":"46","category_name":"楼宇","address":"朝阳区北三环西坝河18号"},{"poiid":"B2094751D269A0FE4392","title":"齐宇家宴","lon":"121.524978","lat":"31.176771","category":"247","category_name":"餐饮美食","address":"成山路浦三路"},{"poiid":"B2094757D16EA4FF449D","title":"北艾路","lon":"121.521712738","lat":"31.1759691446","category":"500","category_name":"未知分类","address":"上海楊高南路北艾路1765弄﹣錦修華城"},{"poiid":"B2094654DA6AA2F4419B","title":"客家小厨(南码头店)","lon":"121.51648","lat":"31.17814","category":"72","category_name":"广东菜","address":"浦东新区南码头路1444号"},{"poiid":"B2094757D06FA4FA469B","title":"老盛昌苏州汤包馆(昌里东路店)","lon":"121.51682","lat":"31.17971","category":"68","category_name":"快餐厅","address":"浦东新区昌里东路624号(近南码头路)"},{"poiid":"B2094757D165A0FB449B","title":"万嘉海鲜楼","lon":"121.532954","lat":"31.180759","category":"247","category_name":"餐饮美食","address":"上海锦尊路399号"},{"poiid":"B2094655D36CA5FF409D","title":"成山路浦三路","lon":"121.5231","lat":"31.17389","category":"38","category_name":"公交车站","address":""},{"poiid":"B2094750DB65A6F44792","title":"一兆韦德(成山店)","lon":"121.532546","lat":"31.178461","category":"500","category_name":"未知分类","address":"浦东新区成山路1879号(锦尊路口)"},{"poiid":"B2094757D465A3F94798","title":"浸香日本料理","lon":"121.53339385986","lat":"31.179615020752","category":"268","category_name":"自助","address":"浦东新区锦尊路463号(近成山路巴黎春天)"},{"poiid":"B2094750D464AAFF4592","title":"日月光广场…","lon":"121.521858","lat":"31.174737","category":"500","category_name":"未知分类","address":null},{"poiid":"B2094753D768A3FC479D","title":"珐朵公馆","lon":"121.522399","lat":"31.175535","category":"500","category_name":"未知分类","address":"上海市浦东新区成山路1488号"},{"poiid":"B2094757D469A3FE469B","title":"海尚澳门豆捞","lon":"121.53088","lat":"31.1776","category":"86","category_name":"火锅店","address":"浦东新区成山路1748号(浦三路锦尊路间)"},{"poiid":"B2094757D06AA6F84193","title":"张博士茗茶馆","lon":"121.533313","lat":"31.18028","category":"260","category_name":"其他","address":"浦东新区锦尊路439号3楼(近成山路)"},{"poiid":"B2094757D068A4F54892","title":"同福易家丽家具商城","lon":"121.52138","lat":"31.17245","category":"123","category_name":"家具建材市场","address":"浦东新区杨高南路3303号(恒大建材对面)"},{"poiid":"B2094757D06BA4F5459C","title":"丁哥黑鱼馆","lon":"121.5307973","lat":"31.17985186","category":"75","category_name":"浙江菜","address":"浦东新区成山路1720号(近巴黎春天)"},{"poiid":"B2094757D76DA0F4419E","title":"大华锦绣假日酒店西餐厅","lon":"121.528401","lat":"31.178125","category":"94","category_name":"西餐厅","address":"浦东新区锦尊路399号大华锦绣假日酒店1楼(近北艾路)"},{"poiid":"B2094757D069A7FF479B","title":"三林煤气堡","lon":"121.52267648","lat":"31.1745877256","category":"500","category_name":"未知分类","address":"上海浦三路成山路"},{"poiid":"B2094655D26AA0F9489A","title":"地铁六里站","lon":"121.52387","lat":"31.17253","category":"36","category_name":"地铁站","address":""},{"poiid":"B2094757D06BA2FB4993","title":"东方锦绣幼儿园","lon":"121.530622071","lat":"31.17747251","category":"57","category_name":"幼儿园","address":"上海华春路180号"},{"poiid":"B2094757D06BABFE429D","title":"京世美容美发连锁机构(浦三店)","lon":"121.52464","lat":"31.17203","category":"148","category_name":"美容美发店","address":"上海浦东新区浦三路851号(近昌里东路)  "},{"poiid":"B2094750D665A1FA4298","title":"齐宁家宴","lon":"121.526","lat":"31.1759","category":"260","category_name":"其他","address":"浦东新区成山路菜场2楼(近杨高南路)"},{"poiid":"B2094750DA6FA1FD4393","title":"一茶一坐（大中华锦绣店）","lon":"121.53348","lat":"31.17872","category":"91","category_name":"台湾菜","address":"浦东新区锦尊路499弄2号206,207,208室大华锦绣嘉年华项目内"},{"poiid":"B2094654DA68A5FF4798","title":"艾东小区","lon":"121.52435","lat":"31.182499","category":"47","category_name":"住宅区","address":"上海市浦东新区杨高南路2451弄"},{"poiid":"B2094757DB69ABFF479A","title":"芋贵人","lon":"121.531012","lat":"31.18127","category":"247","category_name":"餐饮美食","address":"成山路巴黎春天"},{"poiid":"B2094757D76BABFB429A","title":"妙邻居菜馆","lon":"121.516454","lat":"31.178192","category":"72","category_name":"广东菜","address":"浦东新区南码头路1444号(近昌里东路)"},{"poiid":"B2094757D465A3FD489D","title":"邵记传菜 成山店","lon":"121.516528","lat":"31.174158","category":"247","category_name":"餐饮美食","address":"浦东新区成山路861号(近邹平路)"},{"poiid":"B2094752D66CA2FA459E","title":"虹桥机场T2航站楼","lon":"121.52147","lat":"31.173879","category":"500","category_name":"未知分类","address":null},{"poiid":"B2094757D66DA3FB4399","title":"十泽道院","lon":"121.521153738","lat":"31.1729400802","category":"244","category_name":"寺庙道观","address":"上海浦三路1200号附近"},{"poiid":"B2094654DA69A3FA429D","title":"成山路公交停车场办公大楼","lon":"121.51777","lat":"31.17348","category":"46","category_name":"楼宇","address":""},{"poiid":"B2094757D06FA2F4449D","title":"陆家庄(杨高南路店)","lon":"121.52113","lat":"31.17785","category":"76","category_name":"上海菜","address":"浦东新区杨高南路2875号(近浦三路)"},{"poiid":"B2094757D06FA1FA439C","title":"大华锦绣假日酒店","lon":"121.53326","lat":"31.17911","category":"214","category_name":"四星级宾馆","address":"上海市浦东新区锦尊路399号(近北艾路)"},{"poiid":"B2094757D064A2F44699","title":"大华锦绣华城4街区(中原地产)","lon":"121.52063807","lat":"31.177469176","category":"47","category_name":"住宅区","address":"上海北艾路1765弄"},{"poiid":"B2094757D06FA6FF439B","title":"掌柜的店(锦尊路店)","lon":"121.533305108","lat":"31.1799593395","category":"260","category_name":"其他","address":"浦东新区锦尊路459号(成山路巴黎春天旁)"},{"poiid":"B2094757D06FA4F9479D","title":"阿明小菜","lon":"121.517","lat":"31.17739","category":"76","category_name":"上海菜","address":"浦东新区南码头路1510号(近昌里东路)"},{"poiid":"B2094757D06FA0FC459C","title":"杨高南路成山路","lon":"121.51868041","lat":"31.174205869","category":"500","category_name":"未知分类","address":"上海杨高南路成山路"},{"poiid":"B2094757D06FA6FF419D","title":"陆家庄(北艾店)","lon":"121.53155","lat":"31.18164","category":"76","category_name":"上海菜","address":"浦东新区北艾路1418号(杨高路锦绣路间)"},{"poiid":"B2094655D36DA0F84793","title":"杨高南路浦三路","lon":"121.52095","lat":"31.18034","category":"38","category_name":"公交车站","address":""},{"poiid":"B2094757DA6EABFC4293","title":"万嘉酒店(锦尊店)","lon":"121.533100999999","lat":"31.18013","category":"72","category_name":"广东菜","address":"浦东新区锦尊路439号(近成山路)"},{"poiid":"B2094757D06FA2F9499E","title":"大华锦绣华城16街区(中原地产)","lon":"121.53004815","lat":"31.1758471245","category":"47","category_name":"住宅区","address":"成山路1728弄"},{"poiid":"B2094757D06BA7F9439C","title":"悦豪斯（中原地产）","lon":"121.524718338","lat":"31.1744254062","category":"47","category_name":"住宅区","address":"上海市浦东新区华鹏路300弄"},{"poiid":"B2094757D069A6F5429E","title":"广灵阁八仙海鲜城","lon":"121.51892745","lat":"31.176472474","category":"72","category_name":"广东菜","address":"浦东新区杨高南路2828号(成山路口)(成山路口)"},{"poiid":"B2094757D66BA3F9439D","title":"老街渔味馆 巴黎春天店","lon":"121.5311716","lat":"31.1826601","category":"76","category_name":"上海菜","address":"浦东新区锦尊路(北艾路口)"},{"poiid":"B2094757D068A7F5409B","title":"京世日韩专业烫染店(昌里店)","lon":"121.51645","lat":"31.17933","category":"148","category_name":"美容美发店","address":"上海浦东新区昌里东路608号(近南码头路)  "},{"poiid":"B2094757D068ABFA439F","title":"亿家门(南码头店)","lon":"121.51664","lat":"31.17704","category":"76","category_name":"上海菜","address":"浦东新区南码头路1444号(近昌里东路)"},{"poiid":"B2094757D16FA3FE4992","title":"万嘉酒楼","lon":"121.52741543","lat":"31.177158469","category":"247","category_name":"餐饮美食","address":"上海浦东新区锦尊路439号(近成山路)"},{"poiid":"B2094757D069A2FA4198","title":"棒约翰比萨(成山巴春店)","lon":"121.533849054","lat":"31.1784412972","category":"94","category_name":"西餐厅","address":"浦东新区成山路1993号巴黎春天(近成山路)"},{"poiid":"B2094750D665A3F8499C","title":"段氏龙虾(浦三路店)","lon":"121.519","lat":"31.1821","category":"68","category_name":"快餐厅","address":"浦东新区浦三路843号(近昌里东路)"},{"poiid":"B2094757D065A0F44399","title":"国麟大饭店","lon":"121.52719532","lat":"31.176955428","category":"90","category_name":"清真餐馆","address":"浦东新区成山路1658号(近杨高南路世博停车场)"},{"poiid":"B2094655D26FAAFA409C","title":"锦绣华城","lon":"121.52236","lat":"31.17913","category":"47","category_name":"住宅区","address":"锦绣路3336弄"},{"poiid":"B2094655D26AA3F44492","title":"同福易家丽","lon":"121.52771","lat":"31.16783","category":"47","category_name":"住宅区","address":"浦东新区浦三路1515号(近板泉路)"},{"poiid":"B2094655D36CA2FD489B","title":"云顶国际商业广场","lon":"121.520582","lat":"31.178543","category":"46","category_name":"楼宇","address":"朝阳区北三环西坝河18号"},{"poiid":"B2094751D269A0FE4392","title":"齐宇家宴","lon":"121.524978","lat":"31.176771","category":"247","category_name":"餐饮美食","address":"成山路浦三路"},{"poiid":"B2094757D16EA4FF449D","title":"北艾路","lon":"121.521712738","lat":"31.1759691446","category":"500","category_name":"未知分类","address":"上海楊高南路北艾路1765弄﹣錦修華城"},{"poiid":"B2094654DA6AA2F4419B","title":"客家小厨(南码头店)","lon":"121.51648","lat":"31.17814","category":"72","category_name":"广东菜","address":"浦东新区南码头路1444号"},{"poiid":"B2094757D06FA4FA469B","title":"老盛昌苏州汤包馆(昌里东路店)","lon":"121.51682","lat":"31.17971","category":"68","category_name":"快餐厅","address":"浦东新区昌里东路624号(近南码头路)"},{"poiid":"B2094757D165A0FB449B","title":"万嘉海鲜楼","lon":"121.532954","lat":"31.180759","category":"247","category_name":"餐饮美食","address":"上海锦尊路399号"},{"poiid":"B2094655D36CA5FF409D","title":"成山路浦三路","lon":"121.5231","lat":"31.17389","category":"38","category_name":"公交车站","address":""},{"poiid":"B2094750DB65A6F44792","title":"一兆韦德(成山店)","lon":"121.532546","lat":"31.178461","category":"500","category_name":"未知分类","address":"浦东新区成山路1879号(锦尊路口)"},{"poiid":"B2094757D465A3F94798","title":"浸香日本料理","lon":"121.53339385986","lat":"31.179615020752","category":"268","category_name":"自助","address":"浦东新区锦尊路463号(近成山路巴黎春天)"},{"poiid":"B2094750D464AAFF4592","title":"日月光广场…","lon":"121.521858","lat":"31.174737","category":"500","category_name":"未知分类","address":null},{"poiid":"B2094753D768A3FC479D","title":"珐朵公馆","lon":"121.522399","lat":"31.175535","category":"500","category_name":"未知分类","address":"上海市浦东新区成山路1488号"},{"poiid":"B2094757D469A3FE469B","title":"海尚澳门豆捞","lon":"121.53088","lat":"31.1776","category":"86","category_name":"火锅店","address":"浦东新区成山路1748号(浦三路锦尊路间)"},{"poiid":"B2094757D06AA6F84193","title":"张博士茗茶馆","lon":"121.533313","lat":"31.18028","category":"260","category_name":"其他","address":"浦东新区锦尊路439号3楼(近成山路)"},{"poiid":"B2094757D068A4F54892","title":"同福易家丽家具商城","lon":"121.52138","lat":"31.17245","category":"123","category_name":"家具建材市场","address":"浦东新区杨高南路3303号(恒大建材对面)"},{"poiid":"B2094757D06BA4F5459C","title":"丁哥黑鱼馆","lon":"121.5307973","lat":"31.17985186","category":"75","category_name":"浙江菜","address":"浦东新区成山路1720号(近巴黎春天)"},{"poiid":"B2094757D76DA0F4419E","title":"大华锦绣假日酒店西餐厅","lon":"121.528401","lat":"31.178125","category":"94","category_name":"西餐厅","address":"浦东新区锦尊路399号大华锦绣假日酒店1楼(近北艾路)"},{"poiid":"B2094757D069A7FF479B","title":"三林煤气堡","lon":"121.52267648","lat":"31.1745877256","category":"500","category_name":"未知分类","address":"上海浦三路成山路"},{"poiid":"B2094655D26AA0F9489A","title":"地铁六里站","lon":"121.52387","lat":"31.17253","category":"36","category_name":"地铁站","address":""},{"poiid":"B2094757D06BA2FB4993","title":"东方锦绣幼儿园","lon":"121.530622071","lat":"31.17747251","category":"57","category_name":"幼儿园","address":"上海华春路180号"},{"poiid":"B2094757D06BABFE429D","title":"京世美容美发连锁机构(浦三店)","lon":"121.52464","lat":"31.17203","category":"148","category_name":"美容美发店","address":"上海浦东新区浦三路851号(近昌里东路)  "},{"poiid":"B2094750D665A1FA4298","title":"齐宁家宴","lon":"121.526","lat":"31.1759","category":"260","category_name":"其他","address":"浦东新区成山路菜场2楼(近杨高南路)"},{"poiid":"B2094750DA6FA1FD4393","title":"一茶一坐（大中华锦绣店）","lon":"121.53348","lat":"31.17872","category":"91","category_name":"台湾菜","address":"浦东新区锦尊路499弄2号206,207,208室大华锦绣嘉年华项目内"},{"poiid":"B2094654DA68A5FF4798","title":"艾东小区","lon":"121.52435","lat":"31.182499","category":"47","category_name":"住宅区","address":"上海市浦东新区杨高南路2451弄"},{"poiid":"B2094757DB69ABFF479A","title":"芋贵人","lon":"121.531012","lat":"31.18127","category":"247","category_name":"餐饮美食","address":"成山路巴黎春天"},{"poiid":"B2094757D76BABFB429A","title":"妙邻居菜馆","lon":"121.516454","lat":"31.178192","category":"72","category_name":"广东菜","address":"浦东新区南码头路1444号(近昌里东路)"},{"poiid":"B2094757D465A3FD489D","title":"邵记传菜 成山店","lon":"121.516528","lat":"31.174158","category":"247","category_name":"餐饮美食","address":"浦东新区成山路861号(近邹平路)"},{"poiid":"B2094752D66CA2FA459E","title":"虹桥机场T2航站楼","lon":"121.52147","lat":"31.173879","category":"500","category_name":"未知分类","address":null},{"poiid":"B2094757D66DA3FB4399","title":"十泽道院","lon":"121.521153738","lat":"31.1729400802","category":"244","category_name":"寺庙道观","address":"上海浦三路1200号附近"},{"poiid":"B2094654DA69A3FA429D","title":"成山路公交停车场办公大楼","lon":"121.51777","lat":"31.17348","category":"46","category_name":"楼宇","address":""},{"poiid":"B2094757D06FA2F4449D","title":"陆家庄(杨高南路店)","lon":"121.52113","lat":"31.17785","category":"76","category_name":"上海菜","address":"浦东新区杨高南路2875号(近浦三路)"},{"poiid":"B2094757D06FA1FA439C","title":"大华锦绣假日酒店","lon":"121.53326","lat":"31.17911","category":"214","category_name":"四星级宾馆","address":"上海市浦东新区锦尊路399号(近北艾路)"},{"poiid":"B2094757D064A2F44699","title":"大华锦绣华城4街区(中原地产)","lon":"121.52063807","lat":"31.177469176","category":"47","category_name":"住宅区","address":"上海北艾路1765弄"},{"poiid":"B2094757D06FA6FF439B","title":"掌柜的店(锦尊路店)","lon":"121.533305108","lat":"31.1799593395","category":"260","category_name":"其他","address":"浦东新区锦尊路459号(成山路巴黎春天旁)"},{"poiid":"B2094757D06FA4F9479D","title":"阿明小菜","lon":"121.517","lat":"31.17739","category":"76","category_name":"上海菜","address":"浦东新区南码头路1510号(近昌里东路)"},{"poiid":"B2094757D06FA0FC459C","title":"杨高南路成山路","lon":"121.51868041","lat":"31.174205869","category":"500","category_name":"未知分类","address":"上海杨高南路成山路"},{"poiid":"B2094757D06FA6FF419D","title":"陆家庄(北艾店)","lon":"121.53155","lat":"31.18164","category":"76","category_name":"上海菜","address":"浦东新区北艾路1418号(杨高路锦绣路间)"},{"poiid":"B2094655D36DA0F84793","title":"杨高南路浦三路","lon":"121.52095","lat":"31.18034","category":"38","category_name":"公交车站","address":""},{"poiid":"B2094757DA6EABFC4293","title":"万嘉酒店(锦尊店)","lon":"121.533100999999","lat":"31.18013","category":"72","category_name":"广东菜","address":"浦东新区锦尊路439号(近成山路)"},{"poiid":"B2094757D06FA2F9499E","title":"大华锦绣华城16街区(中原地产)","lon":"121.53004815","lat":"31.1758471245","category":"47","category_name":"住宅区","address":"成山路1728弄"},{"poiid":"B2094757D06BA7F9439C","title":"悦豪斯（中原地产）","lon":"121.524718338","lat":"31.1744254062","category":"47","category_name":"住宅区","address":"上海市浦东新区华鹏路300弄"},{"poiid":"B2094757D069A6F5429E","title":"广灵阁八仙海鲜城","lon":"121.51892745","lat":"31.176472474","category":"72","category_name":"广东菜","address":"浦东新区杨高南路2828号(成山路口)(成山路口)"},{"poiid":"B2094757D66BA3F9439D","title":"老街渔味馆 巴黎春天店","lon":"121.5311716","lat":"31.1826601","category":"76","category_name":"上海菜","address":"浦东新区锦尊路(北艾路口)"},{"poiid":"B2094757D068A7F5409B","title":"京世日韩专业烫染店(昌里店)","lon":"121.51645","lat":"31.17933","category":"148","category_name":"美容美发店","address":"上海浦东新区昌里东路608号(近南码头路)  "},{"poiid":"B2094757D068ABFA439F","title":"亿家门(南码头店)","lon":"121.51664","lat":"31.17704","category":"76","category_name":"上海菜","address":"浦东新区南码头路1444号(近昌里东路)"},{"poiid":"B2094757D16FA3FE4992","title":"万嘉酒楼","lon":"121.52741543","lat":"31.177158469","category":"247","category_name":"餐饮美食","address":"上海浦东新区锦尊路439号(近成山路)"},{"poiid":"B2094757D069A2FA4198","title":"棒约翰比萨(成山巴春店)","lon":"121.533849054","lat":"31.1784412972","category":"94","category_name":"西餐厅","address":"浦东新区成山路1993号巴黎春天(近成山路)"},{"poiid":"B2094750D665A3F8499C","title":"段氏龙虾(浦三路店)","lon":"121.519","lat":"31.1821","category":"68","category_name":"快餐厅","address":"浦东新区浦三路843号(近昌里东路)"},{"poiid":"B2094757D065A0F44399","title":"国麟大饭店","lon":"121.52719532","lat":"31.176955428","category":"90","category_name":"清真餐馆","address":"浦东新区成山路1658号(近杨高南路世博停车场)"},{"poiid":"B2094655D26FAAFA409C","title":"锦绣华城","lon":"121.52236","lat":"31.17913","category":"47","category_name":"住宅区","address":"锦绣路3336弄"},{"poiid":"B2094655D26AA3F44492","title":"同福易家丽","lon":"121.52771","lat":"31.16783","category":"47","category_name":"住宅区","address":"浦东新区浦三路1515号(近板泉路)"},{"poiid":"B2094655D36CA2FD489B","title":"云顶国际商业广场","lon":"121.520582","lat":"31.178543","category":"46","category_name":"楼宇","address":"朝阳区北三环西坝河18号"},{"poiid":"B2094751D269A0FE4392","title":"齐宇家宴","lon":"121.524978","lat":"31.176771","category":"247","category_name":"餐饮美食","address":"成山路浦三路"},{"poiid":"B2094757D16EA4FF449D","title":"北艾路","lon":"121.521712738","lat":"31.1759691446","category":"500","category_name":"未知分类","address":"上海楊高南路北艾路1765弄﹣錦修華城"},{"poiid":"B2094654DA6AA2F4419B","title":"客家小厨(南码头店)","lon":"121.51648","lat":"31.17814","category":"72","category_name":"广东菜","address":"浦东新区南码头路1444号"},{"poiid":"B2094757D06FA4FA469B","title":"老盛昌苏州汤包馆(昌里东路店)","lon":"121.51682","lat":"31.17971","category":"68","category_name":"快餐厅","address":"浦东新区昌里东路624号(近南码头路)"},{"poiid":"B2094757D165A0FB449B","title":"万嘉海鲜楼","lon":"121.532954","lat":"31.180759","category":"247","category_name":"餐饮美食","address":"上海锦尊路399号"},{"poiid":"B2094655D36CA5FF409D","title":"成山路浦三路","lon":"121.5231","lat":"31.17389","category":"38","category_name":"公交车站","address":""},{"poiid":"B2094750DB65A6F44792","title":"一兆韦德(成山店)","lon":"121.532546","lat":"31.178461","category":"500","category_name":"未知分类","address":"浦东新区成山路1879号(锦尊路口)"},{"poiid":"B2094757D465A3F94798","title":"浸香日本料理","lon":"121.53339385986","lat":"31.179615020752","category":"268","category_name":"自助","address":"浦东新区锦尊路463号(近成山路巴黎春天)"},{"poiid":"B2094750D464AAFF4592","title":"日月光广场…","lon":"121.521858","lat":"31.174737","category":"500","category_name":"未知分类","address":null},{"poiid":"B2094753D768A3FC479D","title":"珐朵公馆","lon":"121.522399","lat":"31.175535","category":"500","category_name":"未知分类","address":"上海市浦东新区成山路1488号"},{"poiid":"B2094757D469A3FE469B","title":"海尚澳门豆捞","lon":"121.53088","lat":"31.1776","category":"86","category_name":"火锅店","address":"浦东新区成山路1748号(浦三路锦尊路间)"},{"poiid":"B2094757D06AA6F84193","title":"张博士茗茶馆","lon":"121.533313","lat":"31.18028","category":"260","category_name":"其他","address":"浦东新区锦尊路439号3楼(近成山路)"},{"poiid":"B2094757D068A4F54892","title":"同福易家丽家具商城","lon":"121.52138","lat":"31.17245","category":"123","category_name":"家具建材市场","address":"浦东新区杨高南路3303号(恒大建材对面)"},{"poiid":"B2094757D06BA4F5459C","title":"丁哥黑鱼馆","lon":"121.5307973","lat":"31.17985186","category":"75","category_name":"浙江菜","address":"浦东新区成山路1720号(近巴黎春天)"},{"poiid":"B2094757D76DA0F4419E","title":"大华锦绣假日酒店西餐厅","lon":"121.528401","lat":"31.178125","category":"94","category_name":"西餐厅","address":"浦东新区锦尊路399号大华锦绣假日酒店1楼(近北艾路)"},{"poiid":"B2094757D069A7FF479B","title":"三林煤气堡","lon":"121.52267648","lat":"31.1745877256","category":"500","category_name":"未知分类","address":"上海浦三路成山路"},{"poiid":"B2094655D26AA0F9489A","title":"地铁六里站","lon":"121.52387","lat":"31.17253","category":"36","category_name":"地铁站","address":""},{"poiid":"B2094757D06BA2FB4993","title":"东方锦绣幼儿园","lon":"121.530622071","lat":"31.17747251","category":"57","category_name":"幼儿园","address":"上海华春路180号"},{"poiid":"B2094757D06BABFE429D","title":"京世美容美发连锁机构(浦三店)","lon":"121.52464","lat":"31.17203","category":"148","category_name":"美容美发店","address":"上海浦东新区浦三路851号(近昌里东路)  "},{"poiid":"B2094750D665A1FA4298","title":"齐宁家宴","lon":"121.526","lat":"31.1759","category":"260","category_name":"其他","address":"浦东新区成山路菜场2楼(近杨高南路)"},{"poiid":"B2094750DA6FA1FD4393","title":"一茶一坐（大中华锦绣店）","lon":"121.53348","lat":"31.17872","category":"91","category_name":"台湾菜","address":"浦东新区锦尊路499弄2号206,207,208室大华锦绣嘉年华项目内"},{"poiid":"B2094654DA68A5FF4798","title":"艾东小区","lon":"121.52435","lat":"31.182499","category":"47","category_name":"住宅区","address":"上海市浦东新区杨高南路2451弄"},{"poiid":"B2094757DB69ABFF479A","title":"芋贵人","lon":"121.531012","lat":"31.18127","category":"247","category_name":"餐饮美食","address":"成山路巴黎春天"},{"poiid":"B2094757D76BABFB429A","title":"妙邻居菜馆","lon":"121.516454","lat":"31.178192","category":"72","category_name":"广东菜","address":"浦东新区南码头路1444号(近昌里东路)"},{"poiid":"B2094757D465A3FD489D","title":"邵记传菜 成山店","lon":"121.516528","lat":"31.174158","category":"247","category_name":"餐饮美食","address":"浦东新区成山路861号(近邹平路)"},{"poiid":"B2094752D66CA2FA459E","title":"虹桥机场T2航站楼","lon":"121.52147","lat":"31.173879","category":"500","category_name":"未知分类","address":null},{"poiid":"B2094757D66DA3FB4399","title":"十泽道院","lon":"121.521153738","lat":"31.1729400802","category":"244","category_name":"寺庙道观","address":"上海浦三路1200号附近"},{"poiid":"B2094654DA69A3FA429D","title":"成山路公交停车场办公大楼","lon":"121.51777","lat":"31.17348","category":"46","category_name":"楼宇","address":""}]