[{"poiid":"B2094757D06EAAFA499A","title":"上海歌城(徐家汇店)","lon":"121.44864654","lat":"31.19801712","category":"170","category_name":"KTV","address":"徐汇区肇嘉浜路789号均瑶国际广场2-3楼(近高安路)"},{"poiid":"B2094757D06EAAFB469A","title":"耶里夏丽西域餐厅(The Silk Road)","lon":"121.44944","lat":"31.19932","category":"90","category_name":"清真餐馆","address":"徐汇区肇嘉浜路680号金钟大厦2号楼(近乌鲁木齐南路)"},{"poiid":"B2094654DA6DAAFF4092","title":"青松城大酒店","lon":"121.4494","lat":"31.19849","category":"214","category_name":"四星级宾馆","address":"上海市徐汇区东安路8号(徐家汇地区 肇嘉浜路口)"},{"poiid":"B2094753D76FAAFA449C","title":"上海滩国泰旗舰店","lon":"121.466011","lat":"31.216125","category":"249","category_name":"购物服务","address":"淮海中路868号"},{"poiid":"B2094757D06FAAFA429C","title":"复旦大学上海医学院","lon":"121.452400191","lat":"31.1976300604","category":"671","category_name":"高校中心点","address":"上海徐汇区医学院路130号"},{"poiid":"B2094654DA6DAAF8419F","title":"均瑶国际广场","lon":"121.44863","lat":"31.19802","category":"46","category_name":"楼宇","address":"徐汇区肇嘉浜路789号"},{"poiid":"B2094757D06FA1F94399","title":"徐汇区牙病防治所(肇嘉浜路分所)","lon":"121.451361983","lat":"31.1994818967","category":"162","category_name":"医院","address":"徐汇区肇嘉浜路685号(近东安路)"},{"poiid":"B2094757D06EAAFB479A","title":"肇嘉浜路地铁站","lon":"121.45029188","lat":"31.199558753","category":"36","category_name":"地铁站","address":"上海轨道交通 七号线 九号线 轨交肇嘉浜路站 7 9"},{"poiid":"B2094655D26DA3F9449E","title":"复旦大学附属中山医院门诊急诊部","lon":"121.45333","lat":"31.19884","category":"162","category_name":"医院","address":"医学院路111、136"},{"poiid":"B2094757D06FA7FA479B","title":"复旦大学上海医学院第一教学楼","lon":"121.45016419","lat":"31.196352118","category":"500","category_name":"未知分类","address":"上海东安路130号"},{"poiid":"B2094757D06FA6F8439F","title":"复旦大学枫林校区第二教学楼","lon":"121.448604396","lat":"31.1959811913","category":"253","category_name":"校园生活","address":"上海市徐汇区东安路130号"},{"poiid":"B2094654DB64A4FC429B","title":"复旦大学枫林校区","lon":"121.45201","lat":"31.19825","category":"52","category_name":"高等院校","address":"徐汇区医学院路138号(近中山医院)"},{"poiid":"B2094757D468ABF94692","title":"小南国 均瑶店","lon":"121.448066","lat":"31.198374","category":"76","category_name":"上海菜","address":"徐汇区肇嘉浜路789号均瑶国际广场5楼(近东安路)"},{"poiid":"B2094655D26EA7FC459F","title":"星巴克(均瑶店)","lon":"121.448641","lat":"31.198025","category":"260","category_name":"其他","address":"徐汇区肇嘉浜路789号均瑶国际广场1楼(近高安路)"},{"poiid":"B2094757D06FAAFD4199","title":"孔家花园","lon":"121.453","lat":"31.1978","category":"47","category_name":"住宅区","address":"徐汇区斜土路2421号(近宛平南路)"},{"poiid":"B2094757D068A5F9499D","title":"复旦大学医科图书馆","lon":"121.44932102","lat":"31.196121364","category":"253","category_name":"校园生活","address":"上海徐汇区东安路130号复旦大学枫林校区内(西苑篮球场西侧)"},{"poiid":"B2094654DA6DA7FB469D","title":"虹桥人家酒楼","lon":"121.4501","lat":"31.19989","category":"76","category_name":"上海菜","address":"徐汇区乌鲁木齐南路406号(肇嘉浜路口)"},{"poiid":"B2094757D16DA0F54892","title":"徐汇营业厅","lon":"121.447819","lat":"31.197941","category":"150","category_name":"银行","address":"徐汇区肇嘉浜路807号五洲国际大厦102室"},{"poiid":"B2094757D068A1F8459F","title":"豪记茶餐厅","lon":"121.449034","lat":"31.197891","category":"72","category_name":"广东菜","address":"徐汇区肇嘉浜路789号均瑶国际广场1楼(近高安路)"},{"poiid":"B2094757D06FA5F8409C","title":"四海游龙(东安路店)","lon":"121.45073","lat":"31.1966","category":"68","category_name":"快餐厅","address":"徐汇区东安路40号(近青松城大酒店)"},{"poiid":"B2094757D66AA6FA4292","title":"青松城大酒店餐厅","lon":"121.449889054","lat":"31.198602793","category":"76","category_name":"上海菜","address":"肇嘉浜路777号青松城大酒店4楼东安路口"},{"poiid":"B2094757D66BA3FA409D","title":"近江和牛正传 东安路店","lon":"121.45051","lat":"31.198248","category":"95","category_name":"日本料理","address":"徐汇区东安路8号青松城1楼"},{"poiid":"B2094757D068A3FA499D","title":"中山医院住院部三号楼","lon":"121.453937593","lat":"31.1983534856","category":"162","category_name":"医院","address":"上海徐汇区枫林路180号(近医学院路)"},{"poiid":"B2094757D16BA1FD4493","title":"Club15","lon":"121.450645586","lat":"31.1989508194","category":"500","category_name":"未知分类","address":"上海市徐汇区东安路15号"},{"poiid":"B2094757D069A1F8469D","title":"近江和牛","lon":"121.44934158","lat":"31.199178823","category":"247","category_name":"餐饮美食","address":"上海市徐汇区青松城一楼"},{"poiid":"B2094757D06BABF9489D","title":"四季园 Seasons' Garden","lon":"121.452327588","lat":"31.1956166433","category":"47","category_name":"住宅区","address":"上海徐汇区东安路149弄(近斜土路)"},{"poiid":"B2094654DB6BA5F5489B","title":"复旦大学上海医学院西区(东门)","lon":"121.45078","lat":"31.19685","category":"52","category_name":"高等院校","address":"徐汇区东安路130"},{"poiid":"B2094757D064AAFC419E","title":"肇家浜路地铁站","lon":"121.449108","lat":"31.198858","category":"36","category_name":"地铁站","address":"上海轨道交通七号线"},{"poiid":"B2094757D06BA3F9439E","title":"复旦大学附属中山医院急诊输液室","lon":"121.453645232","lat":"31.1989293545","category":"162","category_name":"医院","address":"徐汇区枫林路180号中山医院内(近医学院路)"},{"poiid":"B2094757D568ABF4479F","title":"青松城大酒店商务楼","lon":"121.449531","lat":"31.198129","category":"46","category_name":"楼宇","address":"东安路8"},{"poiid":"B2094655D36CA6F4459F","title":"东安路青松城","lon":"121.4484","lat":"31.1985","category":"38","category_name":"公交车站","address":""},{"poiid":"B2094757D069A1F9419D","title":"中山医院10号楼手术室","lon":"121.453940275","lat":"31.1983488969","category":"162","category_name":"医院","address":"上海徐汇区枫林路180号(近医学院路)"},{"poiid":"B2094757D16CA7F84099","title":"上海市律师协会","lon":"121.448656","lat":"31.198299","category":"46","category_name":"楼宇","address":"肇嘉浜路789号均瑶国际广场33,35层"},{"poiid":"B2094757D16BA2FB409B","title":"Carl'sJr. (美罗城)","lon":"121.44802808","lat":"31.196717505","category":"500","category_name":"未知分类","address":"上海肇嘉浜路1111号美罗城B1-33"},{"poiid":"B2094757D168A0FF479E","title":"复旦大学附属中山医院五号楼","lon":"121.452995311","lat":"31.1973022872","category":"162","category_name":"医院","address":"上海枫林路180号"},{"poiid":"B2094757D66CA7FA4193","title":"上海轨道交通7号线肇嘉滨路站","lon":"121.450491894","lat":"31.1994188993","category":"500","category_name":"未知分类","address":"上海肇嘉浜路"},{"poiid":"B2094750D66DA1FB479C","title":"徐家汇五番街","lon":"121.451797","lat":"31.195696","category":"116","category_name":"特色商业街","address":"上海市 上海徐汇区肇嘉浜路1111号美罗城B1"},{"poiid":"B2094757D165A3FC489B","title":"港汇二座","lon":"121.450503586","lat":"31.1978467978","category":"47","category_name":"住宅区","address":"上海市徐汇区"},{"poiid":"B2094757D568A6F9419E","title":"复旦大学医学院清真餐厅","lon":"121.4507819","lat":"31.19685306","category":"68","category_name":"快餐厅","address":"徐汇区东安路130号复旦大学医学院内(近斜土路)"},{"poiid":"B2094750D26BABF44793","title":"文化广场","lon":"121.449485","lat":"31.199029","category":"500","category_name":"未知分类","address":"陕西南路"},{"poiid":"B2094757D569A0FC429F","title":"医科大学食堂小炒部","lon":"121.450782","lat":"31.196859","category":"68","category_name":"快餐厅","address":"徐汇区东安路130号复旦大学医学院内第二食堂2楼(近斜土路)"},{"poiid":"B2094751DA6AA2FC4593","title":"麦当劳","lon":"121.45223","lat":"31.199739","category":"247","category_name":"餐饮美食","address":"徐汇区斜土路1646号"},{"poiid":"B2094757D06BA6FC469D","title":"东安路","lon":"121.448682","lat":"31.199259","category":"500","category_name":"未知分类","address":"上海肇家浜路东安路"},{"poiid":"B2094757D06FA2FD439A","title":"7-ELEVEN(均瑶店)","lon":"121.448318572","lat":"31.1982087356","category":"117","category_name":"便民商店/便利店","address":"徐汇区肇嘉浜路789号均瑶国际广场内(近吴兴路)"},{"poiid":"B2094654DA6DA0FC429B","title":"中福实业大厦","lon":"121.448","lat":"31.1993","category":"46","category_name":"楼宇","address":"浦东区崂山东路410号"},{"poiid":"B2094757D06AAAF44993","title":"青松小区","lon":"121.45","lat":"31.197683","category":"47","category_name":"住宅区","address":"上海徐汇区东安路50弄"},{"poiid":"B2094757D065A5F54092","title":"港匯普京","lon":"121.44799058","lat":"31.196674774","category":"500","category_name":"未知分类","address":"上海市徐汇区宛平路"},{"poiid":"B2094750D66DA4F5439A","title":"徐汇区牙防所","lon":"121.448135","lat":"31.198812","category":"500","category_name":"未知分类","address":null},{"poiid":"B2094757D16EA6FD4593","title":"青松城百花厅","lon":"121.449641","lat":"31.198596","category":"500","category_name":"未知分类","address":"上海青松城"},{"poiid":"B2094752D264A2FB479D","title":"欧莱雅培训中心","lon":"121.449898","lat":"31.199531","category":"263","category_name":"公司","address":"肇嘉浜路658号"},{"poiid":"B2094757D06EAAFA499A","title":"上海歌城(徐家汇店)","lon":"121.44864654","lat":"31.19801712","category":"170","category_name":"KTV","address":"徐汇区肇嘉浜路789号均瑶国际广场2-3楼(近高安路)"},{"poiid":"B2094757D06EAAFB469A","title":"耶里夏丽西域餐厅(The Silk Road)","lon":"121.44944","lat":"31.19932","category":"90","category_name":"清真餐馆","address":"徐汇区肇嘉浜路680号金钟大厦2号楼(近乌鲁木齐南路)"},{"poiid":"B2094654DA6DAAFF4092","title":"青松城大酒店","lon":"121.4494","lat":"31.19849","category":"214","category_name":"四星级宾馆","address":"上海市徐汇区东安路8号(徐家汇地区 肇嘉浜路口)"},{"poiid":"B2094753D76FAAFA449C","title":"上海滩国泰旗舰店","lon":"121.466011","lat":"31.216125","category":"249","category_name":"购物服务","address":"淮海中路868号"},{"poiid":"B2094757D06FAAFA429C","title":"复旦大学上海医学院","lon":"121.452400191","lat":"31.1976300604","category":"671","category_name":"高校中心点","address":"上海徐汇区医学院路130号"},{"poiid":"B2094654DA6DAAF8419F","title":"均瑶国际广场","lon":"121.44863","lat":"31.19802","category":"46","category_name":"楼宇","address":"徐汇区肇嘉浜路789号"},{"poiid":"B2094757D06FA1F94399","title":"徐汇区牙病防治所(肇嘉浜路分所)","lon":"121.451361983","lat":"31.1994818967","category":"162","category_name":"医院","address":"徐汇区肇嘉浜路685号(近东安路)"},{"poiid":"B2094757D06EAAFB479A","title":"肇嘉浜路地铁站","lon":"121.45029188","lat":"31.199558753","category":"36","category_name":"地铁站","address":"上海轨道交通 七号线 九号线 轨交肇嘉浜路站 7 9"},{"poiid":"B2094655D26DA3F9449E","title":"复旦大学附属中山医院门诊急诊部","lon":"121.45333","lat":"31.19884","category":"162","category_name":"医院","address":"医学院路111、136"},{"poiid":"B2094757D06FA7FA479B","title":"复旦大学上海医学院第一教学楼","lon":"121.45016419","lat":"31.196352118","category":"500","category_name":"未知分类","address":"上海东安路130号"},{"poiid":"B2094757D06FA6F8439F","title":"复旦大学枫林校区第二教学楼","lon":"121.448604396","lat":"31.1959811913","category":"253","category_name":"校园生活","address":"上海市徐汇区东安路130号"},{"poiid":"B2094654DB64A4FC429B","title":"复旦大学枫林校区","lon":"121.45201","lat":"31.19825","category":"52","category_name":"高等院校","address":"徐汇区医学院路138号(近中山医院)"},{"poiid":"B2094757D468ABF94692","title":"小南国 均瑶店","lon":"121.448066","lat":"31.198374","category":"76","category_name":"上海菜","address":"徐汇区肇嘉浜路789号均瑶国际广场5楼(近东安路)"},{"poiid":"B2094655D26EA7FC459F","title":"星巴克(均瑶店)","lon":"121.448641","lat":"31.198025","category":"260","category_name":"其他","address":"徐汇区肇嘉浜路789号均瑶国际广场1楼(近高安路)"},{"poiid":"B2094757D06FAAFD4199","title":"孔家花园","lon":"121.453","lat":"31.1978","category":"47","category_name":"住宅区","address":"徐汇区斜土路2421号(近宛平南路)"},{"poiid":"B2094757D068A5F9499D","title":"复旦大学医科图书馆","lon":"121.44932102","lat":"31.196121364","category":"253","category_name":"校园生活","address":"上海徐汇区东安路130号复旦大学枫林校区内(西苑篮球场西侧)"},{"poiid":"B2094654DA6DA7FB469D","title":"虹桥人家酒楼","lon":"121.4501","lat":"31.19989","category":"76","category_name":"上海菜","address":"徐汇区乌鲁木齐南路406号(肇嘉浜路口)"},{"poiid":"B2094757D16DA0F54892","title":"徐汇营业厅","lon":"121.447819","lat":"31.197941","category":"150","category_name":"银行","address":"徐汇区肇嘉浜路807号五洲国际大厦102室"},{"poiid":"B2094757D068A1F8459F","title":"豪记茶餐厅","lon":"121.449034","lat":"31.197891","category":"72","category_name":"广东菜","address":"徐汇区肇嘉浜路789号均瑶国际广场1楼(近高安路)"},{"poiid":"B2094757D06FA5F8409C","title":"四海游龙(东安路店)","lon":"121.45073","lat":"31.1966","category":"68","category_name":"快餐厅","address":"徐汇区东安路40号(近青松城大酒店)"},{"poiid":"B2094757D66AA6FA4292","title":"青松城大酒店餐厅","lon":"121.449889054","lat":"31.198602793","category":"76","category_name":"上海菜","address":"肇嘉浜路777号青松城大酒店4楼东安路口"},{"poiid":"B2094757D66BA3FA409D","title":"近江和牛正传 东安路店","lon":"121.45051","lat":"31.198248","category":"95","category_name":"日本料理","address":"徐汇区东安路8号青松城1楼"},{"poiid":"B2094757D068A3FA499D","title":"中山医院住院部三号楼","lon":"121.453937593","lat":"31.1983534856","category":"162","category_name":"医院","address":"上海徐汇区枫林路180号(近医学院路)"},{"poiid":"B2094757D16BA1FD4493","title":"Club15","lon":"121.450645586","lat":"31.1989508194","category":"500","category_name":"未知分类","address":"上海市徐汇区东安路15号"},{"poiid":"B2094757D069A1F8469D","title":"近江和牛","lon":"121.44934158","lat":"31.199178823","category":"247","category_name":"餐饮美食","address":"上海市徐汇区青松城一楼"},{"poiid":"B2094757D06BABF9489D","title":"四季园 Seasons' Garden","lon":"121.452327588","lat":"31.1956166433","category":"47","category_name":"住宅区","address":"上海徐汇区东安路149弄(近斜土路)"},{"poiid":"B2094654DB6BA5F5489B","title":"复旦大学上海医学院西区(东门)","lon":"121.45078","lat":"31.19685","category":"52","category_name":"高等院校","address":"徐汇区东安路130"},{"poiid":"B2094757D064AAFC419E","title":"肇家浜路地铁站","lon":"121.449108","lat":"31.198858","category":"36","category_name":"地铁站","address":"上海轨道交通七号线"},{"poiid":"B2094757D06BA3F9439E","title":"复旦大学附属中山医院急诊输液室","lon":"121.453645232","lat":"31.1989293545","category":"162","category_name":"医院","address":"徐汇区枫林路180号中山医院内(近医学院路)"},{"poiid":"B2094757D568ABF4479F","title":"青松城大酒店商务楼","lon":"121.449531","lat":"31.198129","category":"46","category_name":"楼宇","address":"东安路8"},{"poiid":"B2094655D36CA6F4459F","title":"东安路青松城","lon":"121.4484","lat":"31.1985","category":"38","category_name":"公交车站","address":""},{"poiid":"B2094757D069A1F9419D","title":"中山医院10号楼手术室","lon":"121.453940275","lat":"31.1983488969","category":"162","category_name":"医院","address":"上海徐汇区枫林路180号(近医学院路)"},{"poiid":"B2094757D16CA7F84099","title":"上海市律师协会","lon":"121.448656","lat":"31.198299","category":"46","category_name":"楼宇","address":"肇嘉浜路789号均瑶国际广场33,35层"},{"poiid":"B2094757D16BA2FB409B","title":"Carl'sJr. (美罗城)","lon":"121.44802808","lat":"31.196717505","category":"500","category_name":"未知分类","address":"上海肇嘉浜路1111号美罗城B1-33"},{"poiid":"B2094757D168A0FF479E","title":"复旦大学附属中山医院五号楼","lon":"121.452995311","lat":"31.1973022872","category":"162","category_name":"医院","address":"上海枫林路180号"},{"poiid":"B2094757D66CA7FA4193","title":"上海轨道交通7号线肇嘉滨路站","lon":"121.450491894","lat":"31.1994188993","category":"500","category_name":"未知分类","address":"上海肇嘉浜路"},{"poiid":"B2094750D66DA1FB479C","title":"徐家汇五番街","lon":"121.451797","lat":"31.195696","category":"116","category_name":"特色商业街","address":"上海市 上海徐汇区肇嘉浜路1111号美罗城B1"},{"poiid":"B2094757D165A3FC489B","title":"港汇二座","lon":"121.450503586","lat":"31.1978467978","category":"47","category_name":"住宅区","address":"上海市徐汇区"},{"poiid":"B2094757D568A6F9419E","title":"复旦大学医学院清真餐厅","lon":"121.4507819","lat":"31.19685306","category":"68","category_name":"快餐厅","address":"徐汇区东安路130号复旦大学医学院内(近斜土路)"},{"poiid":"B2094750D26BABF44793","title":"文化广场","lon":"121.449485","lat":"31.199029","category":"500","category_name":"未知分类","address":"陕西南路"},{"poiid":"B2094757D569A0FC429F","title":"医科大学食堂小炒部","lon":"121.450782","lat":"31.196859","category":"68","category_name":"快餐厅","address":"徐汇区东安路130号复旦大学医学院内第二食堂2楼(近斜土路)"},{"poiid":"B2094751DA6AA2FC4593","title":"麦当劳","lon":"121.45223","lat":"31.199739","category":"247","category_name":"餐饮美食","address":"徐汇区斜土路1646号"},{"poiid":"B2094757D06BA6FC469D","title":"东安路","lon":"121.448682","lat":"31.199259","category":"500","category_name":"未知分类","address":"上海肇家浜路东安路"},{"poiid":"B2094757D06FA2FD439A","title":"7-ELEVEN(均瑶店)","lon":"121.448318572","lat":"31.1982087356","category":"117","category_name":"便民商店/便利店","address":"徐汇区肇嘉浜路789号均瑶国际广场内(近吴兴路)"},{"poiid":"B2094654DA6DA0FC429B","title":"中福实业大厦","lon":"121.448","lat":"31.1993","category":"46","category_name":"楼宇","address":"浦东区崂山东路410号"},{"poiid":"B2094757D06AAAF44993","title":"青松小区","lon":"121.45","lat":"31.197683","category":"47","category_name":"住宅区","address":"上海徐汇区东安路50弄"},{"poiid":"B2094757D065A5F54092","title":"港匯普京","lon":"121.44799058","lat":"31.196674774","category":"500","category_name":"未知分类","address":"上海市徐汇区宛平路"},{"poiid":"B2094750D66DA4F5439A","title":"徐汇区牙防所","lon":"121.448135","lat":"31.198812","category":"500","category_name":"未知分类","address":null},{"poiid":"B2094757D16EA6FD4593","title":"青松城百花厅","lon":"121.449641","lat":"31.198596","category":"500","category_name":"未知分类","address":"上海青松城"},{"poiid":"B2094752D264A2FB479D","title":"欧莱雅培训中心","lon":"121.449898","lat":"31.199531","category":"263","category_name":"公司","address":"肇嘉浜路658号"},{"poiid":"B2094757D06EAAFA499A","title":"上海歌城(徐家汇店)","lon":"121.44864654","lat":"31.19801712","category":"170","category_name":"KTV","address":"徐汇区肇嘉浜路789号均瑶国际广场2-3楼(近高安路)"},{"poiid":"B2094757D06EAAFB469A","title":"耶里夏丽西域餐厅(The Silk Road)","lon":"121.44944","lat":"31.19932","category":"90","category_name":"清真餐馆","address":"徐汇区肇嘉浜路680号金钟大厦2号楼(近乌鲁木齐南路)"},{"poiid":"B2094654DA6DAAFF4092","title":"青松城大酒店","lon":"121.4494","lat":"31.19849","category":"214","category_name":"四星级宾馆","address":"上海市徐汇区东安路8号(徐家汇地区 肇嘉浜路口)"},{"poiid":"B2094753D76FAAFA449C","title":"上海滩国泰旗舰店","lon":"121.466011","lat":"31.216125","category":"249","category_name":"购物服务","address":"淮海中路868号"},{"poiid":"B2094757D06FAAFA429C","title":"复旦大学上海医学院","lon":"121.452400191","lat":"31.1976300604","category":"671","category_name":"高校中心点","address":"上海徐汇区医学院路130号"},{"poiid":"B2094654DA6DAAF8419F","title":"均瑶国际广场","lon":"121.44863","lat":"31.19802","category":"46","category_name":"楼宇","address":"徐汇区肇嘉浜路789号"},{"poiid":"B2094757D06FA1F94399","title":"徐汇区牙病防治所(肇嘉浜路分所)","lon":"121.451361983","lat":"31.1994818967","category":"162","category_name":"医院","address":"徐汇区肇嘉浜路685号(近东安路)"},{"poiid":"B2094757D06EAAFB479A","title":"肇嘉浜路地铁站","lon":"121.45029188","lat":"31.199558753","category":"36","category_name":"地铁站","address":"上海轨道交通 七号线 九号线 轨交肇嘉浜路站 7 9"},{"poiid":"B2094655D26DA3F9449E","title":"复旦大学附属中山医院门诊急诊部","lon":"121.45333","lat":"31.19884","category":"162","category_name":"医院","address":"医学院路111、136"},{"poiid":"B2094757D06FA7FA479B","title":"复旦大学上海医学院第一教学楼","lon":"121.45016419","lat":"31.196352118","category":"500","category_name":"未知分类","address":"上海东安路130号"},{"poiid":"B2094757D06FA6F8439F","title":"复旦大学枫林校区第二教学楼","lon":"121.448604396","lat":"31.1959811913","category":"253","category_name":"校园生活","address":"上海市徐汇区东安路130号"},{"poiid":"B2094654DB64A4FC429B","title":"复旦大学枫林校区","lon":"121.45201","lat":"31.19825","category":"52","category_name":"高等院校","address":"徐汇区医学院路138号(近中山医院)"},{"poiid":"B2094757D468ABF94692","title":"小南国 均瑶店","lon":"121.448066","lat":"31.198374","category":"76","category_name":"上海菜","address":"徐汇区肇嘉浜路789号均瑶国际广场5楼(近东安路)"},{"poiid":"B2094655D26EA7FC459F","title":"星巴克(均瑶店)","lon":"121.448641","lat":"31.198025","category":"260","category_name":"其他","address":"徐汇区肇嘉浜路789号均瑶国际广场1楼(近高安路)"},{"poiid":"B2094757D06FAAFD4199","title":"孔家花园","lon":"121.453","lat":"31.1978","category":"47","category_name":"住宅区","address":"徐汇区斜土路2421号(近宛平南路)"},{"poiid":"B2094757D068A5F9499D","title":"复旦大学医科图书馆","lon":"121.44932102","lat":"31.196121364","category":"253","category_name":"校园生活","address":"上海徐汇区东安路130号复旦大学枫林校区内(西苑篮球场西侧)"},{"poiid":"B2094654DA6DA7FB469D","title":"虹桥人家酒楼","lon":"121.4501","lat":"31.19989","category":"76","category_name":"上海菜","address":"徐汇区乌鲁木齐南路406号(肇嘉浜路口)"},{"poiid":"B2094757D16DA0F54892","title":"徐汇营业厅","lon":"121.447819","lat":"31.197941","category":"150","category_name":"银行","address":"徐汇区肇嘉浜路807号五洲国际大厦102室"},{"poiid":"B2094757D068A1F8459F","title":"豪记茶餐厅","lon":"121.449034","lat":"31.197891","category":"72","category_name":"广东菜","address":"徐汇区肇嘉浜路789号均瑶国际广场1楼(近高安路)"},{"poiid":"B2094757D06FA5F8409C","title":"四海游龙(东安路店)","lon":"121.45073","lat":"31.1966","category":"68","category_name":"快餐厅","address":"徐汇区东安路40号(近青松城大酒店)"},{"poiid":"B2094757D66AA6FA4292","title":"青松城大酒店餐厅","lon":"121.449889054","lat":"31.198602793","category":"76","category_name":"上海菜","address":"肇嘉浜路777号青松城大酒店4楼东安路口"},{"poiid":"B2094757D66BA3FA409D","title":"近江和牛正传 东安路店","lon":"121.45051","lat":"31.198248","category":"95","category_name":"日本料理","address":"徐汇区东安路8号青松城1楼"},{"poiid":"B2094757D068A3FA499D","title":"中山医院住院部三号楼","lon":"121.453937593","lat":"31.1983534856","category":"162","category_name":"医院","address":"上海徐汇区枫林路180号(近医学院路)"},{"poiid":"B2094757D16BA1FD4493","title":"Club15","lon":"121.450645586","lat":"31.1989508194","category":"500","category_name":"未知分类","address":"上海市徐汇区东安路15号"},{"poiid":"B2094757D069A1F8469D","title":"近江和牛","lon":"121.44934158","lat":"31.199178823","category":"247","category_name":"餐饮美食","address":"上海市徐汇区青松城一楼"},{"poiid":"B2094757D06BABF9489D","title":"四季园 Seasons' Garden","lon":"121.452327588","lat":"31.1956166433","category":"47","category_name":"住宅区","address":"上海徐汇区东安路149弄(近斜土路)"},{"poiid":"B2094654DB6BA5F5489B","title":"复旦大学上海医学院西区(东门)","lon":"121.45078","lat":"31.19685","category":"52","category_name":"高等院校","address":"徐汇区东安路130"},{"poiid":"B2094757D064AAFC419E","title":"肇家浜路地铁站","lon":"121.449108","lat":"31.198858","category":"36","category_name":"地铁站","address":"上海轨道交通七号线"},{"poiid":"B2094757D06BA3F9439E","title":"复旦大学附属中山医院急诊输液室","lon":"121.453645232","lat":"31.1989293545","category":"162","category_name":"医院","address":"徐汇区枫林路180号中山医院内(近医学院路)"},{"poiid":"B2094757D568ABF4479F","title":"青松城大酒店商务楼","lon":"121.449531","lat":"31.198129","category":"46","category_name":"楼宇","address":"东安路8"},{"poiid":"B2094655D36CA6F4459F","title":"东安路青松城","lon":"121.4484","lat":"31.1985","category":"38","category_name":"公交车站","address":""},{"poiid":"B2094757D069A1F9419D","title":"中山医院10号楼手术室","lon":"121.453940275","lat":"31.1983488969","category":"162","category_name":"医院","address":"上海徐汇区枫林路180号(近医学院路)"},{"poiid":"B2094757D16CA7F84099","title":"上海市律师协会","lon":"121.448656","lat":"31.198299","category":"46","category_name":"楼宇","address":"肇嘉浜路789号均瑶国际广场33,35层"},{"poiid":"B2094757D16BA2FB409B","title":"Carl'sJr. (美罗城)","lon":"121.44802808","lat":"31.196717505","category":"500","category_name":"未知分类","address":"上海肇嘉浜路1111号美罗城B1-33"},{"poiid":"B2094757D168A0FF479E","title":"复旦大学附属中山医院五号楼","lon":"121.452995311","lat":"31.1973022872","category":"162","category_name":"医院","address":"上海枫林路180号"},{"poiid":"B2094757D66CA7FA4193","title":"上海轨道交通7号线肇嘉滨路站","lon":"121.450491894","lat":"31.1994188993","category":"500","category_name":"未知分类","address":"上海肇嘉浜路"},{"poiid":"B2094750D66DA1FB479C","title":"徐家汇五番街","lon":"121.451797","lat":"31.195696","category":"116","category_name":"特色商业街","address":"上海市 上海徐汇区肇嘉浜路1111号美罗城B1"},{"poiid":"B2094757D165A3FC489B","title":"港汇二座","lon":"121.450503586","lat":"31.1978467978","category":"47","category_name":"住宅区","address":"上海市徐汇区"},{"poiid":"B2094757D568A6F9419E","title":"复旦大学医学院清真餐厅","lon":"121.4507819","lat":"31.19685306","category":"68","category_name":"快餐厅","address":"徐汇区东安路130号复旦大学医学院内(近斜土路)"},{"poiid":"B2094750D26BABF44793","title":"文化广场","lon":"121.449485","lat":"31.199029","category":"500","category_name":"未知分类","address":"陕西南路"},{"poiid":"B2094757D569A0FC429F","title":"医科大学食堂小炒部","lon":"121.450782","lat":"31.196859","category":"68","category_name":"快餐厅","address":"徐汇区东安路130号复旦大学医学院内第二食堂2楼(近斜土路)"},{"poiid":"B2094751DA6AA2FC4593","title":"麦当劳","lon":"121.45223","lat":"31.199739","category":"247","category_name":"餐饮美食","address":"徐汇区斜土路1646号"},{"poiid":"B2094757D06BA6FC469D","title":"东安路","lon":"121.448682","lat":"31.199259","category":"500","category_name":"未知分类","address":"上海肇家浜路东安路"},{"poiid":"B2094757D06FA2FD439A","title":"7-ELEVEN(均瑶店)","lon":"121.448318572","lat":"31.1982087356","category":"117","category_name":"便民商店/便利店","address":"徐汇区肇嘉浜路789号均瑶国际广场内(近吴兴路)"},{"poiid":"B2094654DA6DA0FC429B","title":"中福实业大厦","lon":"121.448","lat":"31.1993","category":"46","category_name":"楼宇","address":"浦东区崂山东路410号"},{"poiid":"B2094757D06AAAF44993","title":"青松小区","lon":"121.45","lat":"31.197683","category":"47","category_name":"住宅区","address":"上海徐汇区东安路50弄"},{"poiid":"B2094757D065A5F54092","title":"港匯普京","lon":"121.44799058","lat":"31.196674774","category":"500","category_name":"未知分类","address":"上海市徐汇区宛平路"},{"poiid":"B2094750D66DA4F5439A","title":"徐汇区牙防所","lon":"121.448135","lat":"31.198812","category":"500","category_name":"未知分类","address":null},{"poiid":"B2094757D16EA6FD4593","title":"青松城百花厅","lon":"121.449641","lat":"31.198596","category":"500","category_name":"未知分类","address":"上海青松城"},{"poiid":"B2094752D264A2FB479D","title":"欧莱雅培训中心","lon":"121.449898","lat":"31.199531","category":"263","category_name":"公司","address":"肇嘉浜路658号"},{"poiid":"B2094757D06EAAFA499A","title":"上海歌城(徐家汇店)","lon":"121.44864654","lat":"31.19801712","category":"170","category_name":"KTV","address":"徐汇区肇嘉浜路789号均瑶国际广场2-3楼(近高安路)"},{"poiid":"B2094757D06EAAFB469A","title":"耶里夏丽西域餐厅(The Silk Road)","lon":"121.44944","lat":"31.19932","category":"90","category_name":"清真餐馆","address":"徐汇区肇嘉浜路680号金钟大厦2号楼(近乌鲁木齐南路)"},{"poiid":"B2094654DA6DAAFF4092","title":"青松城大酒店","lon":"121.4494","lat":"31.19849","category":"214","category_name":"四星级宾馆","address":"上海市徐汇区东安路8号(徐家汇地区 肇嘉浜路口)"},{"poiid":"B2094753D76FAAFA449C","title":"上海滩国泰旗舰店","lon":"121.466011","lat":"31.216125","category":"249","category_name":"购物服务","address":"淮海中路868号"},{"poiid":"B2094757D06FAAFA429C","title":"复旦大学上海医学院","lon":"121.452400191","lat":"31.1976300604","category":"671","category_name":"高校中心点","address":"上海徐汇区医学院路130号"},{"poiid":"B2094654DA6DAAF8419F","title":"均瑶国际广场","lon":"121.44863","lat":"31.19802","category":"46","category_name":"楼宇","address":"徐汇区肇嘉浜路789号"},{"poiid":"B2094757D06FA1F94399","title":"徐汇区牙病防治所(肇嘉浜路分所)","lon":"121.451361983","lat":"31.1994818967","category":"162","category_name":"医院","address":"徐汇区肇嘉浜路685号(近东安路)"},{"poiid":"B2094757D06EAAFB479A","title":"肇嘉浜路地铁站","lon":"121.45029188","lat":"31.199558753","category":"36","category_name":"地铁站","address":"上海轨道交通 七号线 九号线 轨交肇嘉浜路站 7 9"},{"poiid":"B2094655D26DA3F9449E","title":"复旦大学附属中山医院门诊急诊部","lon":"121.45333","lat":"31.19884","category":"162","category_name":"医院","address":"医学院路111、136"},{"poiid":"B2094757D06FA7FA479B","title":"复旦大学上海医学院第一教学楼","lon":"121.45016419","lat":"31.196352118","category":"500","category_name":"未知分类","address":"上海东安路130号"},{"poiid":"B2094757D06FA6F8439F","title":"复旦大学枫林校区第二教学楼","lon":"121.448604396","lat":"31.1959811913","category":"253","category_name":"校园生活","address":"上海市徐汇区东安路130号"},{"poiid":"B2094654DB64A4FC429B","title":"复旦大学枫林校区","lon":"121.45201","lat":"31.19825","category":"52","category_name":"高等院校","address":"徐汇区医学院路138号(近中山医院)"},{"poiid":"B2094757D468ABF94692","title":"小南国 均瑶店","lon":"121.448066","lat":"31.198374","category":"76","category_name":"上海菜","address":"徐汇区肇嘉浜路789号均瑶国际广场5楼(近东安路)"},{"poiid":"B2094655D26EA7FC459F","title":"星巴克(均瑶店)","lon":"121.448641","lat":"31.198025","category":"260","category_name":"其他","address":"徐汇区肇嘉浜路789号均瑶国际广场1楼(近高安路)"},{"poiid":"B2094757D06FAAFD4199","title":"孔家花园","lon":"121.453","lat":"31.1978","category":"47","category_name":"住宅区","address":"徐汇区斜土路2421号(近宛平南路)"},{"poiid":"B2094757D068A5F9499D","title":"复旦大学医科图书馆","lon":"121.44932102","lat":"31.196121364","category":"253","category_name":"校园生活","address":"上海徐汇区东安路130号复旦大学枫林校区内(西苑篮球场西侧)"},{"poiid":"B2094654DA6DA7FB469D","title":"虹桥人家酒楼","lon":"121.4501","lat":"31.19989","category":"76","category_name":"上海菜","address":"徐汇区乌鲁木齐南路406号(肇嘉浜路口)"},{"poiid":"B2094757D16DA0F54892","title":"徐汇营业厅","lon":"121.447819","lat":"31.197941","category":"150","category_name":"银行","address":"徐汇区肇嘉浜路807号五洲国际大厦102室"},{"poiid":"B2094757D068A1F8459F","title":"豪记茶餐厅","lon":"121.449034","lat":"31.197891","category":"72","category_name":"广东菜","address":"徐汇区肇嘉浜路789号均瑶国际广场1楼(近高安路)"},{"poiid":"B2094757D06FA5F8409C","title":"四海游龙(东安路店)","lon":"121.45073","lat":"31.1966","category":"68","category_name":"快餐厅","address":"徐汇区东安路40号(近青松城大酒店)"},{"poiid":"B2094757D66AA6FA4292","title":"青松城大酒店餐厅","lon":"121.449889054","lat":"31.198602793","category":"76","category_name":"上海菜","address":"肇嘉浜路777号青松城大酒店4楼东安路口"},{"poiid":"B2094757D66BA3FA409D","title":"近江和牛正传 东安路店","lon":"121.45051","lat":"31.198248","category":"95","category_name":"日本料理","address":"徐汇区东安路8号青松城1楼"},{"poiid":"B2094757D068A3FA499D","title":"中山医院住院部三号楼","lon":"121.453937593","lat":"31.1983534856","category":"162","category_name":"医院","address":"上海徐汇区枫林路180号(近医学院路)"},{"poiid":"B2094757D16BA1FD4493","title":"Club15","lon":"121.450645586","lat":"31.1989508194","category":"500","category_name":"未知分类","address":"上海市徐汇区东安路15号"},{"poiid":"B2094757D069A1F8469D","title":"近江和牛","lon":"121.44934158","lat":"31.199178823","category":"247","category_name":"餐饮美食","address":"上海市徐汇区青松城一楼"},{"poiid":"B2094757D06BABF9489D","title":"四季园 Seasons' Garden","lon":"121.452327588","lat":"31.1956166433","category":"47","category_name":"住宅区","address":"上海徐汇区东安路149弄(近斜土路)"},{"poiid":"B2094654DB6BA5F5489B","title":"复旦大学上海医学院西区(东门)","lon":"121.45078","lat":"31.19685","category":"52","category_name":"高等院校","address":"徐汇区东安路130"},{"poiid":"B2094757D064AAFC419E","title":"肇家浜路地铁站","lon":"121.449108","lat":"31.198858","category":"36","category_name":"地铁站","address":"上海轨道交通七号线"},{"poiid":"B2094757D06BA3F9439E","title":"复旦大学附属中山医院急诊输液室","lon":"121.453645232","lat":"31.1989293545","category":"162","category_name":"医院","address":"徐汇区枫林路180号中山医院内(近医学院路)"},{"poiid":"B2094757D568ABF4479F","title":"青松城大酒店商务楼","lon":"121.449531","lat":"31.198129","category":"46","category_name":"楼宇","address":"东安路8"},{"poiid":"B2094655D36CA6F4459F","title":"东安路青松城","lon":"121.4484","lat":"31.1985","category":"38","category_name":"公交车站","address":""},{"poiid":"B2094757D069A1F9419D","title":"中山医院10号楼手术室","lon":"121.453940275","lat":"31.1983488969","category":"162","category_name":"医院","address":"上海徐汇区枫林路180号(近医学院路)"},{"poiid":"B2094757D16CA7F84099","title":"上海市律师协会","lon":"121.448656","lat":"31.198299","category":"46","category_name":"楼宇","address":"肇嘉浜路789号均瑶国际广场33,35层"},{"poiid":"B2094757D16BA2FB409B","title":"Carl'sJr. (美罗城)","lon":"121.44802808","lat":"31.196717505","category":"500","category_name":"未知分类","address":"上海肇嘉浜路1111号美罗城B1-33"},{"poiid":"B2094757D168A0FF479E","title":"复旦大学附属中山医院五号楼","lon":"121.452995311","lat":"31.1973022872","category":"162","category_name":"医院","address":"上海枫林路180号"},{"poiid":"B2094757D66CA7FA4193","title":"上海轨道交通7号线肇嘉滨路站","lon":"121.450491894","lat":"31.1994188993","category":"500","category_name":"未知分类","address":"上海肇嘉浜路"},{"poiid":"B2094750D66DA1FB479C","title":"徐家汇五番街","lon":"121.451797","lat":"31.195696","category":"116","category_name":"特色商业街","address":"上海市 上海徐汇区肇嘉浜路1111号美罗城B1"},{"poiid":"B2094757D165A3FC489B","title":"港汇二座","lon":"121.450503586","lat":"31.1978467978","category":"47","category_name":"住宅区","address":"上海市徐汇区"},{"poiid":"B2094757D568A6F9419E","title":"复旦大学医学院清真餐厅","lon":"121.4507819","lat":"31.19685306","category":"68","category_name":"快餐厅","address":"徐汇区东安路130号复旦大学医学院内(近斜土路)"},{"poiid":"B2094750D26BABF44793","title":"文化广场","lon":"121.449485","lat":"31.199029","category":"500","category_name":"未知分类","address":"陕西南路"},{"poiid":"B2094757D569A0FC429F","title":"医科大学食堂小炒部","lon":"121.450782","lat":"31.196859","category":"68","category_name":"快餐厅","address":"徐汇区东安路130号复旦大学医学院内第二食堂2楼(近斜土路)"},{"poiid":"B2094751DA6AA2FC4593","title":"麦当劳","lon":"121.45223","lat":"31.199739","category":"247","category_name":"餐饮美食","address":"徐汇区斜土路1646号"},{"poiid":"B2094757D06BA6FC469D","title":"东安路","lon":"121.448682","lat":"31.199259","category":"500","category_name":"未知分类","address":"上海肇家浜路东安路"},{"poiid":"B2094757D06FA2FD439A","title":"7-ELEVEN(均瑶店)","lon":"121.448318572","lat":"31.1982087356","category":"117","category_name":"便民商店/便利店","address":"徐汇区肇嘉浜路789号均瑶国际广场内(近吴兴路)"},{"poiid":"B2094654DA6DA0FC429B","title":"中福实业大厦","lon":"121.448","lat":"31.1993","category":"46","category_name":"楼宇","address":"浦东区崂山东路410号"},{"poiid":"B2094757D06AAAF44993","title":"青松小区","lon":"121.45","lat":"31.197683","category":"47","category_name":"住宅区","address":"上海徐汇区东安路50弄"},{"poiid":"B2094757D065A5F54092","title":"港匯普京","lon":"121.44799058","lat":"31.196674774","category":"500","category_name":"未知分类","address":"上海市徐汇区宛平路"},{"poiid":"B2094750D66DA4F5439A","title":"徐汇区牙防所","lon":"121.448135","lat":"31.198812","category":"500","category_name":"未知分类","address":null},{"poiid":"B2094757D16EA6FD4593","title":"青松城百花厅","lon":"121.449641","lat":"31.198596","category":"500","category_name":"未知分类","address":"上海青松城"},{"poiid":"B2094752D264A2FB479D","title":"欧莱雅培训中心","lon":"121.449898","lat":"31.199531","category":"263","category_name":"公司","address":"肇嘉浜路658号"}]