[{"poiid":"B2094654D56FABF54198","title":"上海长海医院","lon":"121.5256","lat":"31.30936","category":"162","category_name":"医院","address":"上海杨浦区长海路168-174号(长海路)"},{"poiid":"B2094757D068A7F4469B","title":"长海医院住院部","lon":"121.527867794","lat":"31.3088527016","category":"162","category_name":"医院","address":"上海杨浦区长海路174号(中原路)"},{"poiid":"B2094750D26DA2F84699","title":"五角场","lon":"121.5277200893403","lat":"31.30725801490106","category":"500","category_name":"未知分类","address":null},{"poiid":"B2094757D068A2FF4693","title":"绿地汇创国际广场","lon":"121.528","lat":"31.3032","category":"46","category_name":"楼宇","address":"上海市杨浦区国定东路273弄1号等"},{"poiid":"B2094757D068A1FC489E","title":"海上硕和城","lon":"121.52803","lat":"31.300863","category":"47","category_name":"住宅区","address":"上海安波路567弄"},{"poiid":"B2094757D169A7F8489B","title":"长海医院六号楼","lon":"121.523173103","lat":"31.3084360171","category":"162","category_name":"医院","address":"上海长海路168号"},{"poiid":"B2094655D26AAAFA449D","title":"五角场万达广场","lon":"121.520106","lat":"31.305715","category":"72","category_name":"广东菜","address":"杨浦区邯郸路600号万达广场第一食品店5楼近淞沪路国宾路;;"},{"poiid":"B2094757D06BA0F9439A","title":"第二军医大学继续教育学院","lon":"121.520428","lat":"31.305016","category":"253","category_name":"校园生活","address":"上海政通路41号"},{"poiid":"B2094757D06AABF44099","title":"第二军医大学篮球场","lon":"121.5268","lat":"31.30337","category":"253","category_name":"校园生活","address":"杨浦区翔殷路800号二军大校内"},{"poiid":"B2094654D56EA4F84392","title":"蓝天大厦","lon":"121.523","lat":"31.3035","category":"46","category_name":"楼宇","address":"上海市杨浦区黄兴路2077号"},{"poiid":"B2094654D56FABF84092","title":"沪东金融大厦","lon":"121.523","lat":"31.307","category":"46","category_name":"楼宇","address":"越秀区环市东路362-366号"},{"poiid":"B2094757D069A3FD469E","title":"85度C(长海店)","lon":"121.5244098","lat":"31.3096843","category":"112","category_name":"糕饼店","address":"杨浦区长海路469号(近恒仁路)"},{"poiid":"B2094655D269AAF54198","title":"上海新东方学校翔殷路分部","lon":"121.52375","lat":"31.30405","category":"247","category_name":"餐饮美食","address":"杨浦区翔殷路888号(国和路)"},{"poiid":"B2094757D56DA6F94392","title":"模子奶茶MuziNazu","lon":"121.52136325836182","lat":"31.3034517550005","category":"247","category_name":"餐饮美食","address":"杨浦区翔殷路938号A9西(近国和路)"},{"poiid":"B2094654D56FAAFC449D","title":"永和大王(长海路)","lon":"121.52509","lat":"31.30982","category":"68","category_name":"快餐厅","address":"杨浦区长海路399号(近长海医院)"},{"poiid":"B2094757D068A0FB459E","title":"红宝石(长海路店)","lon":"121.52468","lat":"31.309458","category":"67","category_name":"甜品店","address":"杨浦区长海路268号(近长海医院)"},{"poiid":"B2094750D66CA5FC439D","title":"好乐迪五角场财富店","lon":"121.525436","lat":"31.302795","category":"500","category_name":"未知分类","address":null},{"poiid":"B2094654D56FABF4489E","title":"同济中学(政立路)","lon":"121.52196","lat":"31.3076","category":"55","category_name":"中学","address":"政立路20号"},{"poiid":"B2094757D568AAF5409C","title":"百联购物又一城","lon":"121.522566","lat":"31.306448","category":"249","category_name":"购物服务","address":"杨浦区淞沪路8号(近邯郸路)"},{"poiid":"B2094757D16DA5FA429E","title":"二军大聚贤阁","lon":"121.525574103","lat":"31.3066491797","category":"247","category_name":"餐饮美食","address":"上海青山路2号"},{"poiid":"B2094757D064A4F5449D","title":"景亨宴","lon":"121.527882103","lat":"31.301835079","category":"76","category_name":"上海菜","address":"安波路533弄1号楼1-2楼近营口路"},{"poiid":"B2094757D66FA1FC419B","title":"第二军医大学附属长海医院中医科","lon":"121.527223997","lat":"31.3081795348","category":"162","category_name":"医院","address":"上海长海医院4楼"},{"poiid":"B2094753D26BA4F8409A","title":"黄兴公园","lon":"121.525109","lat":"31.304791","category":"196","category_name":"公园","address":"上海市 地铁8号线"},{"poiid":"B2094655D36DA1F44893","title":"翔殷路国和路","lon":"121.52557","lat":"31.30327","category":"38","category_name":"公交车站","address":""},{"poiid":"B2094655D26CA6F4499E","title":"快客No.5169","lon":"121.52454","lat":"31.30574","category":"117","category_name":"便民商店/便利店","address":""},{"poiid":"B2094654D56FABF4439C","title":"上海市六一小学","lon":"121.52154","lat":"31.30499","category":"56","category_name":"小学","address":"杨浦区政通路25号(近国和路)"},{"poiid":"B2094757D069A1FA4998","title":"华夏良子(钻石店)","lon":"121.52303","lat":"31.30229","category":"149","category_name":"洗浴推拿场所","address":"杨浦区翔殷路920号(近黑山南路)"},{"poiid":"B2094757D16DA4F44898","title":"第二军医大学学员楼","lon":"121.52517032","lat":"31.30334162","category":"500","category_name":"未知分类","address":"上海翔殷路800号"},{"poiid":"B2094654D56FABF8499B","title":"平盛大厦","lon":"121.522","lat":"31.3087","category":"46","category_name":"楼宇","address":"丰台学城海鹰路1号,3号"},{"poiid":"B2094757D66BA6F8419C","title":"巴蜀餐厅","lon":"121.522541054","lat":"31.305975793","category":"71","category_name":"四川菜","address":"杨浦区政通路16号(近黑山路)"},{"poiid":"B2094655D26CA6F44893","title":"政通路7弄小区(东门)","lon":"121.52333","lat":"31.30493","category":"47","category_name":"住宅区","address":"政通路7弄"},{"poiid":"B2094655D26AA7FD499A","title":"二军大附属宠物医院","lon":"121.5228","lat":"31.30595","category":"162","category_name":"医院","address":"杨浦区政通路10号(近黑山路)"},{"poiid":"B2094757D06AA0F44392","title":"万兴广汽本田 SSSS","lon":"121.524244","lat":"31.302176","category":"500","category_name":"未知分类","address":"杨浦区翔殷路875号(近国和路)"},{"poiid":"B2094757D16EA1FA4999","title":"黑山小区","lon":"121.5248421","lat":"31.306512176","category":"47","category_name":"住宅区","address":"上海政立路6弄"},{"poiid":"B2094750D165A4FE4198","title":"好乐迪财富店","lon":"121.525436","lat":"31.302787","category":"500","category_name":"未知分类","address":"国痒路28号"},{"poiid":"B2094757D16FA5FA419C","title":"中环路国和路出入口","lon":"121.522473693","lat":"31.3021694402","category":"260","category_name":"其他","address":"上海中环路(近国和路)"},{"poiid":"B2094655D26CA6F5459F","title":"翔殷小区","lon":"121.52371","lat":"31.30321","category":"47","category_name":"住宅区","address":"翔殷路910"},{"poiid":"B2094655D26CA6F54298","title":"黄兴路2020弄小区","lon":"121.52384787491","lat":"31.302915535249","category":"47","category_name":"住宅区","address":"黄兴路2020弄2-16号"},{"poiid":"B2094757D068A2FE4593","title":"酷圣石(五角场店)","lon":"121.52383143","lat":"31.300539051","category":"113","category_name":"冷饮店","address":"杨浦区邯郸路600号万达商业广场第一食品内(近淞沪路)"},{"poiid":"B2094750D768A0F54793","title":"喜达石锅饭","lon":"121.525","lat":"31.3098","category":"96","category_name":"韩国料理","address":"杨浦区长海路437号(近长海医院)"},{"poiid":"B2094751DA6CA0FE469B","title":"长海医院急诊输液室","lon":"121.52372","lat":"31.308737","category":"162","category_name":"医院","address":"长海路168号"},{"poiid":"B2094655D26DA4F4479E","title":"政通路7弄小区","lon":"121.52282","lat":"31.30473","category":"47","category_name":"住宅区","address":"政通路7弄"},{"poiid":"B209475CDB6AA6FE499E","title":"查理布朗咖啡店（五角场店）","lon":"121.523017","lat":"31.303647","category":"500","category_name":"未知分类","address":"上海市 国庠路54号"},{"poiid":"B2094654D56FABF44492","title":"七彩屋汉堡奶茶","lon":"121.5223","lat":"31.30552","category":"111","category_name":"休闲餐饮场所","address":"政通路25-9"},{"poiid":"B2094757D66DA2FE4593","title":"小乐会","lon":"121.5251756","lat":"31.302969302","category":"500","category_name":"未知分类","address":"上海翔殷路869号"},{"poiid":"B2094750DB69A3F5419A","title":"西提牛排","lon":"121.52143","lat":"31.30286","category":"247","category_name":"餐饮美食","address":"五角场"},{"poiid":"B2094655D26CA5FA469B","title":"翔殷路627弄小区","lon":"121.527252","lat":"31.304952","category":"47","category_name":"住宅区","address":"翔殷路627弄2-4号"},{"poiid":"B2094655D26AA2FE4793","title":"旺角餐厅","lon":"121.52257","lat":"31.30251","category":"71","category_name":"四川菜","address":"杨浦区翔殷路926号(近二军大)"},{"poiid":"B2094654D56FABF5439D","title":"四川农家菜","lon":"121.52273","lat":"31.30255","category":"71","category_name":"四川菜","address":"杨浦区翔殷路(近黑山路)"},{"poiid":"B2094654DB6BA2FA4992","title":"上海新东方学校","lon":"121.52385","lat":"31.30381","category":"190","category_name":"培训机构","address":""},{"poiid":"B2094654D56FABF54198","title":"上海长海医院","lon":"121.5256","lat":"31.30936","category":"162","category_name":"医院","address":"上海杨浦区长海路168-174号(长海路)"},{"poiid":"B2094757D068A7F4469B","title":"长海医院住院部","lon":"121.527867794","lat":"31.3088527016","category":"162","category_name":"医院","address":"上海杨浦区长海路174号(中原路)"},{"poiid":"B2094750D26DA2F84699","title":"五角场","lon":"121.5277200893403","lat":"31.30725801490106","category":"500","category_name":"未知分类","address":null},{"poiid":"B2094757D068A2FF4693","title":"绿地汇创国际广场","lon":"121.528","lat":"31.3032","category":"46","category_name":"楼宇","address":"上海市杨浦区国定东路273弄1号等"},{"poiid":"B2094757D068A1FC489E","title":"海上硕和城","lon":"121.52803","lat":"31.300863","category":"47","category_name":"住宅区","address":"上海安波路567弄"},{"poiid":"B2094757D169A7F8489B","title":"长海医院六号楼","lon":"121.523173103","lat":"31.3084360171","category":"162","category_name":"医院","address":"上海长海路168号"},{"poiid":"B2094655D26AAAFA449D","title":"五角场万达广场","lon":"121.520106","lat":"31.305715","category":"72","category_name":"广东菜","address":"杨浦区邯郸路600号万达广场第一食品店5楼近淞沪路国宾路;;"},{"poiid":"B2094757D06BA0F9439A","title":"第二军医大学继续教育学院","lon":"121.520428","lat":"31.305016","category":"253","category_name":"校园生活","address":"上海政通路41号"},{"poiid":"B2094757D06AABF44099","title":"第二军医大学篮球场","lon":"121.5268","lat":"31.30337","category":"253","category_name":"校园生活","address":"杨浦区翔殷路800号二军大校内"},{"poiid":"B2094654D56EA4F84392","title":"蓝天大厦","lon":"121.523","lat":"31.3035","category":"46","category_name":"楼宇","address":"上海市杨浦区黄兴路2077号"},{"poiid":"B2094654D56FABF84092","title":"沪东金融大厦","lon":"121.523","lat":"31.307","category":"46","category_name":"楼宇","address":"越秀区环市东路362-366号"},{"poiid":"B2094757D069A3FD469E","title":"85度C(长海店)","lon":"121.5244098","lat":"31.3096843","category":"112","category_name":"糕饼店","address":"杨浦区长海路469号(近恒仁路)"},{"poiid":"B2094655D269AAF54198","title":"上海新东方学校翔殷路分部","lon":"121.52375","lat":"31.30405","category":"247","category_name":"餐饮美食","address":"杨浦区翔殷路888号(国和路)"},{"poiid":"B2094757D56DA6F94392","title":"模子奶茶MuziNazu","lon":"121.52136325836182","lat":"31.3034517550005","category":"247","category_name":"餐饮美食","address":"杨浦区翔殷路938号A9西(近国和路)"},{"poiid":"B2094654D56FAAFC449D","title":"永和大王(长海路)","lon":"121.52509","lat":"31.30982","category":"68","category_name":"快餐厅","address":"杨浦区长海路399号(近长海医院)"},{"poiid":"B2094757D068A0FB459E","title":"红宝石(长海路店)","lon":"121.52468","lat":"31.309458","category":"67","category_name":"甜品店","address":"杨浦区长海路268号(近长海医院)"},{"poiid":"B2094750D66CA5FC439D","title":"好乐迪五角场财富店","lon":"121.525436","lat":"31.302795","category":"500","category_name":"未知分类","address":null},{"poiid":"B2094654D56FABF4489E","title":"同济中学(政立路)","lon":"121.52196","lat":"31.3076","category":"55","category_name":"中学","address":"政立路20号"},{"poiid":"B2094757D568AAF5409C","title":"百联购物又一城","lon":"121.522566","lat":"31.306448","category":"249","category_name":"购物服务","address":"杨浦区淞沪路8号(近邯郸路)"},{"poiid":"B2094757D16DA5FA429E","title":"二军大聚贤阁","lon":"121.525574103","lat":"31.3066491797","category":"247","category_name":"餐饮美食","address":"上海青山路2号"},{"poiid":"B2094757D064A4F5449D","title":"景亨宴","lon":"121.527882103","lat":"31.301835079","category":"76","category_name":"上海菜","address":"安波路533弄1号楼1-2楼近营口路"},{"poiid":"B2094757D66FA1FC419B","title":"第二军医大学附属长海医院中医科","lon":"121.527223997","lat":"31.3081795348","category":"162","category_name":"医院","address":"上海长海医院4楼"},{"poiid":"B2094753D26BA4F8409A","title":"黄兴公园","lon":"121.525109","lat":"31.304791","category":"196","category_name":"公园","address":"上海市 地铁8号线"},{"poiid":"B2094655D36DA1F44893","title":"翔殷路国和路","lon":"121.52557","lat":"31.30327","category":"38","category_name":"公交车站","address":""},{"poiid":"B2094655D26CA6F4499E","title":"快客No.5169","lon":"121.52454","lat":"31.30574","category":"117","category_name":"便民商店/便利店","address":""},{"poiid":"B2094654D56FABF4439C","title":"上海市六一小学","lon":"121.52154","lat":"31.30499","category":"56","category_name":"小学","address":"杨浦区政通路25号(近国和路)"},{"poiid":"B2094757D069A1FA4998","title":"华夏良子(钻石店)","lon":"121.52303","lat":"31.30229","category":"149","category_name":"洗浴推拿场所","address":"杨浦区翔殷路920号(近黑山南路)"},{"poiid":"B2094757D16DA4F44898","title":"第二军医大学学员楼","lon":"121.52517032","lat":"31.30334162","category":"500","category_name":"未知分类","address":"上海翔殷路800号"},{"poiid":"B2094654D56FABF8499B","title":"平盛大厦","lon":"121.522","lat":"31.3087","category":"46","category_name":"楼宇","address":"丰台学城海鹰路1号,3号"},{"poiid":"B2094757D66BA6F8419C","title":"巴蜀餐厅","lon":"121.522541054","lat":"31.305975793","category":"71","category_name":"四川菜","address":"杨浦区政通路16号(近黑山路)"},{"poiid":"B2094655D26CA6F44893","title":"政通路7弄小区(东门)","lon":"121.52333","lat":"31.30493","category":"47","category_name":"住宅区","address":"政通路7弄"},{"poiid":"B2094655D26AA7FD499A","title":"二军大附属宠物医院","lon":"121.5228","lat":"31.30595","category":"162","category_name":"医院","address":"杨浦区政通路10号(近黑山路)"},{"poiid":"B2094757D06AA0F44392","title":"万兴广汽本田 SSSS","lon":"121.524244","lat":"31.302176","category":"500","category_name":"未知分类","address":"杨浦区翔殷路875号(近国和路)"},{"poiid":"B2094757D16EA1FA4999","title":"黑山小区","lon":"121.5248421","lat":"31.306512176","category":"47","category_name":"住宅区","address":"上海政立路6弄"},{"poiid":"B2094750D165A4FE4198","title":"好乐迪财富店","lon":"121.525436","lat":"31.302787","category":"500","category_name":"未知分类","address":"国痒路28号"},{"poiid":"B2094757D16FA5FA419C","title":"中环路国和路出入口","lon":"121.522473693","lat":"31.3021694402","category":"260","category_name":"其他","address":"上海中环路(近国和路)"},{"poiid":"B2094655D26CA6F5459F","title":"翔殷小区","lon":"121.52371","lat":"31.30321","category":"47","category_name":"住宅区","address":"翔殷路910"},{"poiid":"B2094655D26CA6F54298","title":"黄兴路2020弄小区","lon":"121.52384787491","lat":"31.302915535249","category":"47","category_name":"住宅区","address":"黄兴路2020弄2-16号"},{"poiid":"B2094757D068A2FE4593","title":"酷圣石(五角场店)","lon":"121.52383143","lat":"31.300539051","category":"113","category_name":"冷饮店","address":"杨浦区邯郸路600号万达商业广场第一食品内(近淞沪路)"},{"poiid":"B2094750D768A0F54793","title":"喜达石锅饭","lon":"121.525","lat":"31.3098","category":"96","category_name":"韩国料理","address":"杨浦区长海路437号(近长海医院)"},{"poiid":"B2094751DA6CA0FE469B","title":"长海医院急诊输液室","lon":"121.52372","lat":"31.308737","category":"162","category_name":"医院","address":"长海路168号"},{"poiid":"B2094655D26DA4F4479E","title":"政通路7弄小区","lon":"121.52282","lat":"31.30473","category":"47","category_name":"住宅区","address":"政通路7弄"},{"poiid":"B209475CDB6AA6FE499E","title":"查理布朗咖啡店（五角场店）","lon":"121.523017","lat":"31.303647","category":"500","category_name":"未知分类","address":"上海市 国庠路54号"},{"poiid":"B2094654D56FABF44492","title":"七彩屋汉堡奶茶","lon":"121.5223","lat":"31.30552","category":"111","category_name":"休闲餐饮场所","address":"政通路25-9"},{"poiid":"B2094757D66DA2FE4593","title":"小乐会","lon":"121.5251756","lat":"31.302969302","category":"500","category_name":"未知分类","address":"上海翔殷路869号"},{"poiid":"B2094750DB69A3F5419A","title":"西提牛排","lon":"121.52143","lat":"31.30286","category":"247","category_name":"餐饮美食","address":"五角场"},{"poiid":"B2094655D26CA5FA469B","title":"翔殷路627弄小区","lon":"121.527252","lat":"31.304952","category":"47","category_name":"住宅区","address":"翔殷路627弄2-4号"},{"poiid":"B2094655D26AA2FE4793","title":"旺角餐厅","lon":"121.52257","lat":"31.30251","category":"71","category_name":"四川菜","address":"杨浦区翔殷路926号(近二军大)"},{"poiid":"B2094654D56FABF5439D","title":"四川农家菜","lon":"121.52273","lat":"31.30255","category":"71","category_name":"四川菜","address":"杨浦区翔殷路(近黑山路)"},{"poiid":"B2094654DB6BA2FA4992","title":"上海新东方学校","lon":"121.52385","lat":"31.30381","category":"190","category_name":"培训机构","address":""},{"poiid":"B2094654D56FABF54198","title":"上海长海医院","lon":"121.5256","lat":"31.30936","category":"162","category_name":"医院","address":"上海杨浦区长海路168-174号(长海路)"},{"poiid":"B2094757D068A7F4469B","title":"长海医院住院部","lon":"121.527867794","lat":"31.3088527016","category":"162","category_name":"医院","address":"上海杨浦区长海路174号(中原路)"},{"poiid":"B2094750D26DA2F84699","title":"五角场","lon":"121.5277200893403","lat":"31.30725801490106","category":"500","category_name":"未知分类","address":null},{"poiid":"B2094757D068A2FF4693","title":"绿地汇创国际广场","lon":"121.528","lat":"31.3032","category":"46","category_name":"楼宇","address":"上海市杨浦区国定东路273弄1号等"},{"poiid":"B2094757D068A1FC489E","title":"海上硕和城","lon":"121.52803","lat":"31.300863","category":"47","category_name":"住宅区","address":"上海安波路567弄"},{"poiid":"B2094757D169A7F8489B","title":"长海医院六号楼","lon":"121.523173103","lat":"31.3084360171","category":"162","category_name":"医院","address":"上海长海路168号"},{"poiid":"B2094655D26AAAFA449D","title":"五角场万达广场","lon":"121.520106","lat":"31.305715","category":"72","category_name":"广东菜","address":"杨浦区邯郸路600号万达广场第一食品店5楼近淞沪路国宾路;;"},{"poiid":"B2094757D06BA0F9439A","title":"第二军医大学继续教育学院","lon":"121.520428","lat":"31.305016","category":"253","category_name":"校园生活","address":"上海政通路41号"},{"poiid":"B2094757D06AABF44099","title":"第二军医大学篮球场","lon":"121.5268","lat":"31.30337","category":"253","category_name":"校园生活","address":"杨浦区翔殷路800号二军大校内"},{"poiid":"B2094654D56EA4F84392","title":"蓝天大厦","lon":"121.523","lat":"31.3035","category":"46","category_name":"楼宇","address":"上海市杨浦区黄兴路2077号"},{"poiid":"B2094654D56FABF84092","title":"沪东金融大厦","lon":"121.523","lat":"31.307","category":"46","category_name":"楼宇","address":"越秀区环市东路362-366号"},{"poiid":"B2094757D069A3FD469E","title":"85度C(长海店)","lon":"121.5244098","lat":"31.3096843","category":"112","category_name":"糕饼店","address":"杨浦区长海路469号(近恒仁路)"},{"poiid":"B2094655D269AAF54198","title":"上海新东方学校翔殷路分部","lon":"121.52375","lat":"31.30405","category":"247","category_name":"餐饮美食","address":"杨浦区翔殷路888号(国和路)"},{"poiid":"B2094757D56DA6F94392","title":"模子奶茶MuziNazu","lon":"121.52136325836182","lat":"31.3034517550005","category":"247","category_name":"餐饮美食","address":"杨浦区翔殷路938号A9西(近国和路)"},{"poiid":"B2094654D56FAAFC449D","title":"永和大王(长海路)","lon":"121.52509","lat":"31.30982","category":"68","category_name":"快餐厅","address":"杨浦区长海路399号(近长海医院)"},{"poiid":"B2094757D068A0FB459E","title":"红宝石(长海路店)","lon":"121.52468","lat":"31.309458","category":"67","category_name":"甜品店","address":"杨浦区长海路268号(近长海医院)"},{"poiid":"B2094750D66CA5FC439D","title":"好乐迪五角场财富店","lon":"121.525436","lat":"31.302795","category":"500","category_name":"未知分类","address":null},{"poiid":"B2094654D56FABF4489E","title":"同济中学(政立路)","lon":"121.52196","lat":"31.3076","category":"55","category_name":"中学","address":"政立路20号"},{"poiid":"B2094757D568AAF5409C","title":"百联购物又一城","lon":"121.522566","lat":"31.306448","category":"249","category_name":"购物服务","address":"杨浦区淞沪路8号(近邯郸路)"},{"poiid":"B2094757D16DA5FA429E","title":"二军大聚贤阁","lon":"121.525574103","lat":"31.3066491797","category":"247","category_name":"餐饮美食","address":"上海青山路2号"},{"poiid":"B2094757D064A4F5449D","title":"景亨宴","lon":"121.527882103","lat":"31.301835079","category":"76","category_name":"上海菜","address":"安波路533弄1号楼1-2楼近营口路"},{"poiid":"B2094757D66FA1FC419B","title":"第二军医大学附属长海医院中医科","lon":"121.527223997","lat":"31.3081795348","category":"162","category_name":"医院","address":"上海长海医院4楼"},{"poiid":"B2094753D26BA4F8409A","title":"黄兴公园","lon":"121.525109","lat":"31.304791","category":"196","category_name":"公园","address":"上海市 地铁8号线"},{"poiid":"B2094655D36DA1F44893","title":"翔殷路国和路","lon":"121.52557","lat":"31.30327","category":"38","category_name":"公交车站","address":""},{"poiid":"B2094655D26CA6F4499E","title":"快客No.5169","lon":"121.52454","lat":"31.30574","category":"117","category_name":"便民商店/便利店","address":""},{"poiid":"B2094654D56FABF4439C","title":"上海市六一小学","lon":"121.52154","lat":"31.30499","category":"56","category_name":"小学","address":"杨浦区政通路25号(近国和路)"},{"poiid":"B2094757D069A1FA4998","title":"华夏良子(钻石店)","lon":"121.52303","lat":"31.30229","category":"149","category_name":"洗浴推拿场所","address":"杨浦区翔殷路920号(近黑山南路)"},{"poiid":"B2094757D16DA4F44898","title":"第二军医大学学员楼","lon":"121.52517032","lat":"31.30334162","category":"500","category_name":"未知分类","address":"上海翔殷路800号"},{"poiid":"B2094654D56FABF8499B","title":"平盛大厦","lon":"121.522","lat":"31.3087","category":"46","category_name":"楼宇","address":"丰台学城海鹰路1号,3号"},{"poiid":"B2094757D66BA6F8419C","title":"巴蜀餐厅","lon":"121.522541054","lat":"31.305975793","category":"71","category_name":"四川菜","address":"杨浦区政通路16号(近黑山路)"},{"poiid":"B2094655D26CA6F44893","title":"政通路7弄小区(东门)","lon":"121.52333","lat":"31.30493","category":"47","category_name":"住宅区","address":"政通路7弄"},{"poiid":"B2094655D26AA7FD499A","title":"二军大附属宠物医院","lon":"121.5228","lat":"31.30595","category":"162","category_name":"医院","address":"杨浦区政通路10号(近黑山路)"},{"poiid":"B2094757D06AA0F44392","title":"万兴广汽本田 SSSS","lon":"121.524244","lat":"31.302176","category":"500","category_name":"未知分类","address":"杨浦区翔殷路875号(近国和路)"},{"poiid":"B2094757D16EA1FA4999","title":"黑山小区","lon":"121.5248421","lat":"31.306512176","category":"47","category_name":"住宅区","address":"上海政立路6弄"},{"poiid":"B2094750D165A4FE4198","title":"好乐迪财富店","lon":"121.525436","lat":"31.302787","category":"500","category_name":"未知分类","address":"国痒路28号"},{"poiid":"B2094757D16FA5FA419C","title":"中环路国和路出入口","lon":"121.522473693","lat":"31.3021694402","category":"260","category_name":"其他","address":"上海中环路(近国和路)"},{"poiid":"B2094655D26CA6F5459F","title":"翔殷小区","lon":"121.52371","lat":"31.30321","category":"47","category_name":"住宅区","address":"翔殷路910"},{"poiid":"B2094655D26CA6F54298","title":"黄兴路2020弄小区","lon":"121.52384787491","lat":"31.302915535249","category":"47","category_name":"住宅区","address":"黄兴路2020弄2-16号"},{"poiid":"B2094757D068A2FE4593","title":"酷圣石(五角场店)","lon":"121.52383143","lat":"31.300539051","category":"113","category_name":"冷饮店","address":"杨浦区邯郸路600号万达商业广场第一食品内(近淞沪路)"},{"poiid":"B2094750D768A0F54793","title":"喜达石锅饭","lon":"121.525","lat":"31.3098","category":"96","category_name":"韩国料理","address":"杨浦区长海路437号(近长海医院)"},{"poiid":"B2094751DA6CA0FE469B","title":"长海医院急诊输液室","lon":"121.52372","lat":"31.308737","category":"162","category_name":"医院","address":"长海路168号"},{"poiid":"B2094655D26DA4F4479E","title":"政通路7弄小区","lon":"121.52282","lat":"31.30473","category":"47","category_name":"住宅区","address":"政通路7弄"},{"poiid":"B209475CDB6AA6FE499E","title":"查理布朗咖啡店（五角场店）","lon":"121.523017","lat":"31.303647","category":"500","category_name":"未知分类","address":"上海市 国庠路54号"},{"poiid":"B2094654D56FABF44492","title":"七彩屋汉堡奶茶","lon":"121.5223","lat":"31.30552","category":"111","category_name":"休闲餐饮场所","address":"政通路25-9"},{"poiid":"B2094757D66DA2FE4593","title":"小乐会","lon":"121.5251756","lat":"31.302969302","category":"500","category_name":"未知分类","address":"上海翔殷路869号"},{"poiid":"B2094750DB69A3F5419A","title":"西提牛排","lon":"121.52143","lat":"31.30286","category":"247","category_name":"餐饮美食","address":"五角场"},{"poiid":"B2094655D26CA5FA469B","title":"翔殷路627弄小区","lon":"121.527252","lat":"31.304952","category":"47","category_name":"住宅区","address":"翔殷路627弄2-4号"},{"poiid":"B2094655D26AA2FE4793","title":"旺角餐厅","lon":"121.52257","lat":"31.30251","category":"71","category_name":"四川菜","address":"杨浦区翔殷路926号(近二军大)"},{"poiid":"B2094654D56FABF5439D","title":"四川农家菜","lon":"121.52273","lat":"31.30255","category":"71","category_name":"四川菜","address":"杨浦区翔殷路(近黑山路)"},{"poiid":"B2094654DB6BA2FA4992","title":"上海新东方学校","lon":"121.52385","lat":"31.30381","category":"190","category_name":"培训机构","address":""}]