[{"poiid":"B2094654DA6CA4FD449A","title":"艺海剧院","lon":"121.45229","lat":"31.23502","category":"180","category_name":"剧场","address":"静安区江宁路466号(近武定路)"},{"poiid":"B2094757DA69A2F9489F","title":"CLUB-IBIZA","lon":"121.45313","lat":"31.23536","category":"111","category_name":"休闲餐饮场所","address":"静安区江宁路428号(近武定路)"},{"poiid":"B2094757D06FA3FF499D","title":"静安体育中心游泳馆","lon":"121.4535","lat":"31.23532","category":"220","category_name":"运动场所","address":"静安区康定路151号静安体育中心内(昌化路口)"},{"poiid":"B2094753D76FAAFA449C","title":"上海滩国泰旗舰店","lon":"121.466011","lat":"31.216125","category":"249","category_name":"购物服务","address":"淮海中路868号"},{"poiid":"B209475CD564A7F84292","title":"上海滩新天地店","lon":"121.47463","lat":"31.22164","category":"119","category_name":"商场","address":"\"太仓路181弄新天地北里15号\r\n\""},{"poiid":"B209475CD564A7F8439E","title":"上海滩中信泰富店","lon":"121.45602","lat":"31.22851","category":"119","category_name":"商场","address":"\"南京西路1168号中信泰富广场，店铺号221.\r\n\""},{"poiid":"B2094757D06FA3FE4799","title":"星巴克(远中风华店)","lon":"121.455101","lat":"31.234818","category":"65","category_name":"咖啡厅","address":"静安区昌化路68号(近武定路)"},{"poiid":"B2094654DB65A6FF449F","title":"cd bar & club","lon":"121.45264","lat":"31.23504","category":"174","category_name":"迪厅","address":"江宁路428号静安体育中心2楼"},{"poiid":"B2094757D168A4FC4098","title":"粤新餐厅","lon":"121.452995586","lat":"31.2370825651","category":"72","category_name":"广东菜","address":"静安区江宁路428号静安体育中心1楼(近艺海剧院)"},{"poiid":"B2094757D068A3FB419E","title":"静安体育中心","lon":"121.453154634","lat":"31.2354116335","category":"220","category_name":"运动场所","address":"静安区康定路151号静安体育中心内(武定路口)"},{"poiid":"B2094654DA6CA0FA4893","title":"国立大厦","lon":"121.454","lat":"31.2337","category":"46","category_name":"楼宇","address":"北京西路1465号"},{"poiid":"B2094757D06FA5F94493","title":"江宁路康定路","lon":"121.451088","lat":"31.235917","category":"500","category_name":"未知分类","address":"上海江宁路康定路"},{"poiid":"B2094750D664ABF94899","title":"一町奶茶","lon":"121.452","lat":"31.2356","category":"113","category_name":"冷饮店","address":"静安区康定路222号(近江宁路)"},{"poiid":"B2094757D068A2FD4292","title":"艺海剧院小剧场","lon":"121.452154","lat":"31.235312","category":"260","category_name":"其他","address":"上海艺海剧院五楼"},{"poiid":"B2094654DA6CA5F4409E","title":"帆顺海味馆","lon":"121.45532719303","lat":"31.237192665273","category":"76","category_name":"上海菜","address":"静安区康定路18号(泰兴路口)"},{"poiid":"B2094757D16FA0F84599","title":"多福苑","lon":"121.45427","lat":"31.23595","category":"96","category_name":"韩国料理","address":"静安区石门二路221号(近新闸路)"},{"poiid":"B2094757D06FA1FC4599","title":"星之健身(静安店)","lon":"121.4527","lat":"31.2345","category":"221","category_name":"健身中心","address":"静安区江宁路428号静安体育中心4楼(武定路口)"},{"poiid":"B2094655D26BA2FA449E","title":"泰兴路","lon":"121.45517","lat":"31.23698","category":"38","category_name":"公交车站","address":""},{"poiid":"B2094757D06FA4F9469F","title":"信达大厦","lon":"121.455","lat":"31.2339","category":"46","category_name":"楼宇","address":"上海北京西路1399号"},{"poiid":"B2094757D069A0FA469D","title":"静安体育中心羽毛球馆","lon":"121.45434","lat":"31.23444","category":"220","category_name":"运动场所","address":"静安区昌化路165号(近武定路)"},{"poiid":"B2094655D26DA3FB439B","title":"静安国际广场","lon":"121.455","lat":"31.2371","category":"46","category_name":"楼宇","address":"上海市静安区新闸路1518号"},{"poiid":"B2094757D06FAAFB459F","title":"祥祥栗子(康定路店)","lon":"121.45189","lat":"31.23535","category":"68","category_name":"快餐厅","address":"静安区康定路236号(近江宁路)"},{"poiid":"B2094757D16CA1FD4393","title":"星满天羽毛球馆","lon":"121.453606486","lat":"31.2396057145","category":"500","category_name":"未知分类","address":"静安区西苏州河路53号(近昌平路)"},{"poiid":"B2094757D06FA5FA4592","title":"MU.BREAD麦卡优娜(江宁路店)","lon":"121.45178","lat":"31.23516","category":"112","category_name":"糕饼店","address":"静安区江宁路499号(近康定路)"},{"poiid":"B2094752D16EA2F5449F","title":"上海金钱豹大酒店","lon":"121.453438","lat":"31.238001","category":"247","category_name":"餐饮美食","address":"杨树浦路2866号时尚中心2号门10号楼"},{"poiid":"B2094454D26CAAF44892","title":"和一大厦写字楼","lon":"121.453246","lat":"31.234619","category":"46","category_name":"楼宇","address":"静安区江宁路420号"},{"poiid":"B2094654DB69ABFA499A","title":"沈坚强游泳俱乐部(静安体育中心游泳馆店)","lon":"121.45335","lat":"31.23559","category":"231","category_name":"游泳馆","address":"静安区康定路151号405室(近江宁路)"},{"poiid":"B2094654DA6CA4F84198","title":"南草坪","lon":"121.4541","lat":"31.23791","category":"47","category_name":"住宅区","address":"泰兴路689弄1-65号"},{"poiid":"B2094753D56CA7FA4892","title":"人民大舞台","lon":"121.454116","lat":"31.237812","category":"500","category_name":"未知分类","address":"上海市 上海市九江路663号"},{"poiid":"B2094655D26CABF8429F","title":"蝴蝶湾花园","lon":"121.45606","lat":"31.23754","category":"47","category_name":"住宅区","address":""},{"poiid":"B2094654DA6CA5FB4992","title":"万皇酒家","lon":"121.45945","lat":"31.23696","category":"76","category_name":"上海菜","address":"静安区泰兴路630号(近康定路)"},{"poiid":"B2094751D369ABF54598","title":"芙蓉豪廷餐饮会所","lon":"121.45204","lat":"31.23481","category":"77","category_name":"湖南菜","address":"静安区江宁路445号1-4楼(近武定路)"},{"poiid":"B2094757D66CA3FA4098","title":"康定花园","lon":"121.45504","lat":"31.237381","category":"47","category_name":"住宅区","address":"上海康定路2号"},{"poiid":"B2094750D76CA2FE4292","title":"沈永昌苏州汤包馆","lon":"121.452","lat":"31.235","category":"68","category_name":"快餐厅","address":"静安区江宁路495号博鸿大厦(近康定路)"},{"poiid":"B2094655D26DA7FD419F","title":"康定花园(东门)","lon":"121.45526","lat":"31.2371","category":"47","category_name":"住宅区","address":"康定路2"},{"poiid":"B2094753DB6CABFF4393","title":"酒鬼食堂Drunk Uncle","lon":"121.454711","lat":"31.234748","category":"247","category_name":"餐饮美食","address":"上海市 昌化路46号，靠近武定路"},{"poiid":"B2094752DA64A0FC449E","title":"夜市豆浆","lon":"121.453699","lat":"31.238223","category":"247","category_name":"餐饮美食","address":"上海市 霍山路"},{"poiid":"B2094757D56CABFA479E","title":"凯司令西点房 昌化路店","lon":"121.4519974","lat":"31.2373187","category":"67","category_name":"甜品店","address":"普陀区昌化路320-1号(近昌平路)"},{"poiid":"B2094655D36CA5FA429F","title":"昌化路武定路","lon":"121.45362","lat":"31.23581","category":"38","category_name":"公交车站","address":""},{"poiid":"B2094655D26DA7FC449D","title":"南草坪(东门)","lon":"121.45527","lat":"31.23795","category":"47","category_name":"住宅区","address":"泰兴路689弄1-65号"},{"poiid":"B2094757D06FAAFC4699","title":"极真会馆龚道场(静安总部)","lon":"121.45312","lat":"31.23573","category":"500","category_name":"未知分类","address":"上海静安区康定路151号静安体育中心3-4楼(近江宁路)"},{"poiid":"B2094757D065A4FB449A","title":"食昇精作坊","lon":"121.45284","lat":"31.23432","category":"76","category_name":"上海菜","address":"静安区江宁路420号和一大厦内(近武定路)"},{"poiid":"B2094757D165A0F5429D","title":"良友金伴(康定路1店)","lon":"121.45398","lat":"31.23598","category":"117","category_name":"便民商店/便利店","address":"上海静安区康定路110号  "},{"poiid":"B2094454D26BA7FE4293","title":"其实我是螺蛳粉","lon":"121.452713","lat":"31.235506","category":"247","category_name":"餐饮美食","address":"上海市 上海万航渡路121号"},{"poiid":"B2094655D264A5F9479E","title":"E部落网吧泰兴路店","lon":"121.45545","lat":"31.23772","category":"176","category_name":"网吧","address":"静安区泰兴路676号(近康定路)"},{"poiid":"B2094757D66CA3F54693","title":"凯撒国际会所","lon":"121.456417738","lat":"31.2346433941","category":"500","category_name":"未知分类","address":"上海市静安区新闸路石门二路"},{"poiid":"B2094753DB64A3FC479D","title":"寒烟姐姐的咖啡馆","lon":"121.455642","lat":"31.23455","category":"65","category_name":"咖啡厅","address":"上海市 武定路226号"},{"poiid":"B2094757D06AA2F44692","title":"昌化路烧烤","lon":"121.45114","lat":"31.23754","category":"68","category_name":"快餐厅","address":"普陀区昌化路(近昌平路)"},{"poiid":"B2094757D16EAAFA499A","title":"静安区青少年业余体育学校","lon":"121.45395","lat":"31.23545","category":"220","category_name":"运动场所","address":"静安区昌化路165号(近武定路)"},{"poiid":"B2094655D26DA3FF469A","title":"太府·名邸(东门)","lon":"121.456","lat":"31.23653","category":"47","category_name":"住宅区","address":"泰兴路625弄1-14"},{"poiid":"B2094654DA6CA4FD449A","title":"艺海剧院","lon":"121.45229","lat":"31.23502","category":"180","category_name":"剧场","address":"静安区江宁路466号(近武定路)"},{"poiid":"B2094757DA69A2F9489F","title":"CLUB-IBIZA","lon":"121.45313","lat":"31.23536","category":"111","category_name":"休闲餐饮场所","address":"静安区江宁路428号(近武定路)"},{"poiid":"B2094757D06FA3FF499D","title":"静安体育中心游泳馆","lon":"121.4535","lat":"31.23532","category":"220","category_name":"运动场所","address":"静安区康定路151号静安体育中心内(昌化路口)"},{"poiid":"B2094753D76FAAFA449C","title":"上海滩国泰旗舰店","lon":"121.466011","lat":"31.216125","category":"249","category_name":"购物服务","address":"淮海中路868号"},{"poiid":"B209475CD564A7F84292","title":"上海滩新天地店","lon":"121.47463","lat":"31.22164","category":"119","category_name":"商场","address":"\"太仓路181弄新天地北里15号\r\n\""},{"poiid":"B209475CD564A7F8439E","title":"上海滩中信泰富店","lon":"121.45602","lat":"31.22851","category":"119","category_name":"商场","address":"\"南京西路1168号中信泰富广场，店铺号221.\r\n\""},{"poiid":"B2094757D06FA3FE4799","title":"星巴克(远中风华店)","lon":"121.455101","lat":"31.234818","category":"65","category_name":"咖啡厅","address":"静安区昌化路68号(近武定路)"},{"poiid":"B2094654DB65A6FF449F","title":"cd bar & club","lon":"121.45264","lat":"31.23504","category":"174","category_name":"迪厅","address":"江宁路428号静安体育中心2楼"},{"poiid":"B2094757D168A4FC4098","title":"粤新餐厅","lon":"121.452995586","lat":"31.2370825651","category":"72","category_name":"广东菜","address":"静安区江宁路428号静安体育中心1楼(近艺海剧院)"},{"poiid":"B2094757D068A3FB419E","title":"静安体育中心","lon":"121.453154634","lat":"31.2354116335","category":"220","category_name":"运动场所","address":"静安区康定路151号静安体育中心内(武定路口)"},{"poiid":"B2094654DA6CA0FA4893","title":"国立大厦","lon":"121.454","lat":"31.2337","category":"46","category_name":"楼宇","address":"北京西路1465号"},{"poiid":"B2094757D06FA5F94493","title":"江宁路康定路","lon":"121.451088","lat":"31.235917","category":"500","category_name":"未知分类","address":"上海江宁路康定路"},{"poiid":"B2094750D664ABF94899","title":"一町奶茶","lon":"121.452","lat":"31.2356","category":"113","category_name":"冷饮店","address":"静安区康定路222号(近江宁路)"},{"poiid":"B2094757D068A2FD4292","title":"艺海剧院小剧场","lon":"121.452154","lat":"31.235312","category":"260","category_name":"其他","address":"上海艺海剧院五楼"},{"poiid":"B2094654DA6CA5F4409E","title":"帆顺海味馆","lon":"121.45532719303","lat":"31.237192665273","category":"76","category_name":"上海菜","address":"静安区康定路18号(泰兴路口)"},{"poiid":"B2094757D16FA0F84599","title":"多福苑","lon":"121.45427","lat":"31.23595","category":"96","category_name":"韩国料理","address":"静安区石门二路221号(近新闸路)"},{"poiid":"B2094757D06FA1FC4599","title":"星之健身(静安店)","lon":"121.4527","lat":"31.2345","category":"221","category_name":"健身中心","address":"静安区江宁路428号静安体育中心4楼(武定路口)"},{"poiid":"B2094655D26BA2FA449E","title":"泰兴路","lon":"121.45517","lat":"31.23698","category":"38","category_name":"公交车站","address":""},{"poiid":"B2094757D06FA4F9469F","title":"信达大厦","lon":"121.455","lat":"31.2339","category":"46","category_name":"楼宇","address":"上海北京西路1399号"},{"poiid":"B2094757D069A0FA469D","title":"静安体育中心羽毛球馆","lon":"121.45434","lat":"31.23444","category":"220","category_name":"运动场所","address":"静安区昌化路165号(近武定路)"},{"poiid":"B2094655D26DA3FB439B","title":"静安国际广场","lon":"121.455","lat":"31.2371","category":"46","category_name":"楼宇","address":"上海市静安区新闸路1518号"},{"poiid":"B2094757D06FAAFB459F","title":"祥祥栗子(康定路店)","lon":"121.45189","lat":"31.23535","category":"68","category_name":"快餐厅","address":"静安区康定路236号(近江宁路)"},{"poiid":"B2094757D16CA1FD4393","title":"星满天羽毛球馆","lon":"121.453606486","lat":"31.2396057145","category":"500","category_name":"未知分类","address":"静安区西苏州河路53号(近昌平路)"},{"poiid":"B2094757D06FA5FA4592","title":"MU.BREAD麦卡优娜(江宁路店)","lon":"121.45178","lat":"31.23516","category":"112","category_name":"糕饼店","address":"静安区江宁路499号(近康定路)"},{"poiid":"B2094752D16EA2F5449F","title":"上海金钱豹大酒店","lon":"121.453438","lat":"31.238001","category":"247","category_name":"餐饮美食","address":"杨树浦路2866号时尚中心2号门10号楼"},{"poiid":"B2094454D26CAAF44892","title":"和一大厦写字楼","lon":"121.453246","lat":"31.234619","category":"46","category_name":"楼宇","address":"静安区江宁路420号"},{"poiid":"B2094654DB69ABFA499A","title":"沈坚强游泳俱乐部(静安体育中心游泳馆店)","lon":"121.45335","lat":"31.23559","category":"231","category_name":"游泳馆","address":"静安区康定路151号405室(近江宁路)"},{"poiid":"B2094654DA6CA4F84198","title":"南草坪","lon":"121.4541","lat":"31.23791","category":"47","category_name":"住宅区","address":"泰兴路689弄1-65号"},{"poiid":"B2094753D56CA7FA4892","title":"人民大舞台","lon":"121.454116","lat":"31.237812","category":"500","category_name":"未知分类","address":"上海市 上海市九江路663号"},{"poiid":"B2094655D26CABF8429F","title":"蝴蝶湾花园","lon":"121.45606","lat":"31.23754","category":"47","category_name":"住宅区","address":""},{"poiid":"B2094654DA6CA5FB4992","title":"万皇酒家","lon":"121.45945","lat":"31.23696","category":"76","category_name":"上海菜","address":"静安区泰兴路630号(近康定路)"},{"poiid":"B2094751D369ABF54598","title":"芙蓉豪廷餐饮会所","lon":"121.45204","lat":"31.23481","category":"77","category_name":"湖南菜","address":"静安区江宁路445号1-4楼(近武定路)"},{"poiid":"B2094757D66CA3FA4098","title":"康定花园","lon":"121.45504","lat":"31.237381","category":"47","category_name":"住宅区","address":"上海康定路2号"},{"poiid":"B2094750D76CA2FE4292","title":"沈永昌苏州汤包馆","lon":"121.452","lat":"31.235","category":"68","category_name":"快餐厅","address":"静安区江宁路495号博鸿大厦(近康定路)"},{"poiid":"B2094655D26DA7FD419F","title":"康定花园(东门)","lon":"121.45526","lat":"31.2371","category":"47","category_name":"住宅区","address":"康定路2"},{"poiid":"B2094753DB6CABFF4393","title":"酒鬼食堂Drunk Uncle","lon":"121.454711","lat":"31.234748","category":"247","category_name":"餐饮美食","address":"上海市 昌化路46号，靠近武定路"},{"poiid":"B2094752DA64A0FC449E","title":"夜市豆浆","lon":"121.453699","lat":"31.238223","category":"247","category_name":"餐饮美食","address":"上海市 霍山路"},{"poiid":"B2094757D56CABFA479E","title":"凯司令西点房 昌化路店","lon":"121.4519974","lat":"31.2373187","category":"67","category_name":"甜品店","address":"普陀区昌化路320-1号(近昌平路)"},{"poiid":"B2094655D36CA5FA429F","title":"昌化路武定路","lon":"121.45362","lat":"31.23581","category":"38","category_name":"公交车站","address":""},{"poiid":"B2094655D26DA7FC449D","title":"南草坪(东门)","lon":"121.45527","lat":"31.23795","category":"47","category_name":"住宅区","address":"泰兴路689弄1-65号"},{"poiid":"B2094757D06FAAFC4699","title":"极真会馆龚道场(静安总部)","lon":"121.45312","lat":"31.23573","category":"500","category_name":"未知分类","address":"上海静安区康定路151号静安体育中心3-4楼(近江宁路)"},{"poiid":"B2094757D065A4FB449A","title":"食昇精作坊","lon":"121.45284","lat":"31.23432","category":"76","category_name":"上海菜","address":"静安区江宁路420号和一大厦内(近武定路)"},{"poiid":"B2094757D165A0F5429D","title":"良友金伴(康定路1店)","lon":"121.45398","lat":"31.23598","category":"117","category_name":"便民商店/便利店","address":"上海静安区康定路110号  "},{"poiid":"B2094454D26BA7FE4293","title":"其实我是螺蛳粉","lon":"121.452713","lat":"31.235506","category":"247","category_name":"餐饮美食","address":"上海市 上海万航渡路121号"},{"poiid":"B2094655D264A5F9479E","title":"E部落网吧泰兴路店","lon":"121.45545","lat":"31.23772","category":"176","category_name":"网吧","address":"静安区泰兴路676号(近康定路)"},{"poiid":"B2094757D66CA3F54693","title":"凯撒国际会所","lon":"121.456417738","lat":"31.2346433941","category":"500","category_name":"未知分类","address":"上海市静安区新闸路石门二路"},{"poiid":"B2094753DB64A3FC479D","title":"寒烟姐姐的咖啡馆","lon":"121.455642","lat":"31.23455","category":"65","category_name":"咖啡厅","address":"上海市 武定路226号"},{"poiid":"B2094757D06AA2F44692","title":"昌化路烧烤","lon":"121.45114","lat":"31.23754","category":"68","category_name":"快餐厅","address":"普陀区昌化路(近昌平路)"},{"poiid":"B2094757D16EAAFA499A","title":"静安区青少年业余体育学校","lon":"121.45395","lat":"31.23545","category":"220","category_name":"运动场所","address":"静安区昌化路165号(近武定路)"},{"poiid":"B2094655D26DA3FF469A","title":"太府·名邸(东门)","lon":"121.456","lat":"31.23653","category":"47","category_name":"住宅区","address":"泰兴路625弄1-14"},{"poiid":"B2094654DA6CA4FD449A","title":"艺海剧院","lon":"121.45229","lat":"31.23502","category":"180","category_name":"剧场","address":"静安区江宁路466号(近武定路)"},{"poiid":"B2094757DA69A2F9489F","title":"CLUB-IBIZA","lon":"121.45313","lat":"31.23536","category":"111","category_name":"休闲餐饮场所","address":"静安区江宁路428号(近武定路)"},{"poiid":"B2094757D06FA3FF499D","title":"静安体育中心游泳馆","lon":"121.4535","lat":"31.23532","category":"220","category_name":"运动场所","address":"静安区康定路151号静安体育中心内(昌化路口)"},{"poiid":"B2094753D76FAAFA449C","title":"上海滩国泰旗舰店","lon":"121.466011","lat":"31.216125","category":"249","category_name":"购物服务","address":"淮海中路868号"},{"poiid":"B209475CD564A7F84292","title":"上海滩新天地店","lon":"121.47463","lat":"31.22164","category":"119","category_name":"商场","address":"\"太仓路181弄新天地北里15号\r\n\""},{"poiid":"B209475CD564A7F8439E","title":"上海滩中信泰富店","lon":"121.45602","lat":"31.22851","category":"119","category_name":"商场","address":"\"南京西路1168号中信泰富广场，店铺号221.\r\n\""},{"poiid":"B2094757D06FA3FE4799","title":"星巴克(远中风华店)","lon":"121.455101","lat":"31.234818","category":"65","category_name":"咖啡厅","address":"静安区昌化路68号(近武定路)"},{"poiid":"B2094654DB65A6FF449F","title":"cd bar & club","lon":"121.45264","lat":"31.23504","category":"174","category_name":"迪厅","address":"江宁路428号静安体育中心2楼"},{"poiid":"B2094757D168A4FC4098","title":"粤新餐厅","lon":"121.452995586","lat":"31.2370825651","category":"72","category_name":"广东菜","address":"静安区江宁路428号静安体育中心1楼(近艺海剧院)"},{"poiid":"B2094757D068A3FB419E","title":"静安体育中心","lon":"121.453154634","lat":"31.2354116335","category":"220","category_name":"运动场所","address":"静安区康定路151号静安体育中心内(武定路口)"},{"poiid":"B2094654DA6CA0FA4893","title":"国立大厦","lon":"121.454","lat":"31.2337","category":"46","category_name":"楼宇","address":"北京西路1465号"},{"poiid":"B2094757D06FA5F94493","title":"江宁路康定路","lon":"121.451088","lat":"31.235917","category":"500","category_name":"未知分类","address":"上海江宁路康定路"},{"poiid":"B2094750D664ABF94899","title":"一町奶茶","lon":"121.452","lat":"31.2356","category":"113","category_name":"冷饮店","address":"静安区康定路222号(近江宁路)"},{"poiid":"B2094757D068A2FD4292","title":"艺海剧院小剧场","lon":"121.452154","lat":"31.235312","category":"260","category_name":"其他","address":"上海艺海剧院五楼"},{"poiid":"B2094654DA6CA5F4409E","title":"帆顺海味馆","lon":"121.45532719303","lat":"31.237192665273","category":"76","category_name":"上海菜","address":"静安区康定路18号(泰兴路口)"},{"poiid":"B2094757D16FA0F84599","title":"多福苑","lon":"121.45427","lat":"31.23595","category":"96","category_name":"韩国料理","address":"静安区石门二路221号(近新闸路)"},{"poiid":"B2094757D06FA1FC4599","title":"星之健身(静安店)","lon":"121.4527","lat":"31.2345","category":"221","category_name":"健身中心","address":"静安区江宁路428号静安体育中心4楼(武定路口)"},{"poiid":"B2094655D26BA2FA449E","title":"泰兴路","lon":"121.45517","lat":"31.23698","category":"38","category_name":"公交车站","address":""},{"poiid":"B2094757D06FA4F9469F","title":"信达大厦","lon":"121.455","lat":"31.2339","category":"46","category_name":"楼宇","address":"上海北京西路1399号"},{"poiid":"B2094757D069A0FA469D","title":"静安体育中心羽毛球馆","lon":"121.45434","lat":"31.23444","category":"220","category_name":"运动场所","address":"静安区昌化路165号(近武定路)"},{"poiid":"B2094655D26DA3FB439B","title":"静安国际广场","lon":"121.455","lat":"31.2371","category":"46","category_name":"楼宇","address":"上海市静安区新闸路1518号"},{"poiid":"B2094757D06FAAFB459F","title":"祥祥栗子(康定路店)","lon":"121.45189","lat":"31.23535","category":"68","category_name":"快餐厅","address":"静安区康定路236号(近江宁路)"},{"poiid":"B2094757D16CA1FD4393","title":"星满天羽毛球馆","lon":"121.453606486","lat":"31.2396057145","category":"500","category_name":"未知分类","address":"静安区西苏州河路53号(近昌平路)"},{"poiid":"B2094757D06FA5FA4592","title":"MU.BREAD麦卡优娜(江宁路店)","lon":"121.45178","lat":"31.23516","category":"112","category_name":"糕饼店","address":"静安区江宁路499号(近康定路)"},{"poiid":"B2094752D16EA2F5449F","title":"上海金钱豹大酒店","lon":"121.453438","lat":"31.238001","category":"247","category_name":"餐饮美食","address":"杨树浦路2866号时尚中心2号门10号楼"},{"poiid":"B2094454D26CAAF44892","title":"和一大厦写字楼","lon":"121.453246","lat":"31.234619","category":"46","category_name":"楼宇","address":"静安区江宁路420号"},{"poiid":"B2094654DB69ABFA499A","title":"沈坚强游泳俱乐部(静安体育中心游泳馆店)","lon":"121.45335","lat":"31.23559","category":"231","category_name":"游泳馆","address":"静安区康定路151号405室(近江宁路)"},{"poiid":"B2094654DA6CA4F84198","title":"南草坪","lon":"121.4541","lat":"31.23791","category":"47","category_name":"住宅区","address":"泰兴路689弄1-65号"},{"poiid":"B2094753D56CA7FA4892","title":"人民大舞台","lon":"121.454116","lat":"31.237812","category":"500","category_name":"未知分类","address":"上海市 上海市九江路663号"},{"poiid":"B2094655D26CABF8429F","title":"蝴蝶湾花园","lon":"121.45606","lat":"31.23754","category":"47","category_name":"住宅区","address":""},{"poiid":"B2094654DA6CA5FB4992","title":"万皇酒家","lon":"121.45945","lat":"31.23696","category":"76","category_name":"上海菜","address":"静安区泰兴路630号(近康定路)"},{"poiid":"B2094751D369ABF54598","title":"芙蓉豪廷餐饮会所","lon":"121.45204","lat":"31.23481","category":"77","category_name":"湖南菜","address":"静安区江宁路445号1-4楼(近武定路)"},{"poiid":"B2094757D66CA3FA4098","title":"康定花园","lon":"121.45504","lat":"31.237381","category":"47","category_name":"住宅区","address":"上海康定路2号"},{"poiid":"B2094750D76CA2FE4292","title":"沈永昌苏州汤包馆","lon":"121.452","lat":"31.235","category":"68","category_name":"快餐厅","address":"静安区江宁路495号博鸿大厦(近康定路)"},{"poiid":"B2094655D26DA7FD419F","title":"康定花园(东门)","lon":"121.45526","lat":"31.2371","category":"47","category_name":"住宅区","address":"康定路2"},{"poiid":"B2094753DB6CABFF4393","title":"酒鬼食堂Drunk Uncle","lon":"121.454711","lat":"31.234748","category":"247","category_name":"餐饮美食","address":"上海市 昌化路46号，靠近武定路"},{"poiid":"B2094752DA64A0FC449E","title":"夜市豆浆","lon":"121.453699","lat":"31.238223","category":"247","category_name":"餐饮美食","address":"上海市 霍山路"},{"poiid":"B2094757D56CABFA479E","title":"凯司令西点房 昌化路店","lon":"121.4519974","lat":"31.2373187","category":"67","category_name":"甜品店","address":"普陀区昌化路320-1号(近昌平路)"},{"poiid":"B2094655D36CA5FA429F","title":"昌化路武定路","lon":"121.45362","lat":"31.23581","category":"38","category_name":"公交车站","address":""},{"poiid":"B2094655D26DA7FC449D","title":"南草坪(东门)","lon":"121.45527","lat":"31.23795","category":"47","category_name":"住宅区","address":"泰兴路689弄1-65号"},{"poiid":"B2094757D06FAAFC4699","title":"极真会馆龚道场(静安总部)","lon":"121.45312","lat":"31.23573","category":"500","category_name":"未知分类","address":"上海静安区康定路151号静安体育中心3-4楼(近江宁路)"},{"poiid":"B2094757D065A4FB449A","title":"食昇精作坊","lon":"121.45284","lat":"31.23432","category":"76","category_name":"上海菜","address":"静安区江宁路420号和一大厦内(近武定路)"},{"poiid":"B2094757D165A0F5429D","title":"良友金伴(康定路1店)","lon":"121.45398","lat":"31.23598","category":"117","category_name":"便民商店/便利店","address":"上海静安区康定路110号  "},{"poiid":"B2094454D26BA7FE4293","title":"其实我是螺蛳粉","lon":"121.452713","lat":"31.235506","category":"247","category_name":"餐饮美食","address":"上海市 上海万航渡路121号"},{"poiid":"B2094655D264A5F9479E","title":"E部落网吧泰兴路店","lon":"121.45545","lat":"31.23772","category":"176","category_name":"网吧","address":"静安区泰兴路676号(近康定路)"},{"poiid":"B2094757D66CA3F54693","title":"凯撒国际会所","lon":"121.456417738","lat":"31.2346433941","category":"500","category_name":"未知分类","address":"上海市静安区新闸路石门二路"},{"poiid":"B2094753DB64A3FC479D","title":"寒烟姐姐的咖啡馆","lon":"121.455642","lat":"31.23455","category":"65","category_name":"咖啡厅","address":"上海市 武定路226号"},{"poiid":"B2094757D06AA2F44692","title":"昌化路烧烤","lon":"121.45114","lat":"31.23754","category":"68","category_name":"快餐厅","address":"普陀区昌化路(近昌平路)"},{"poiid":"B2094757D16EAAFA499A","title":"静安区青少年业余体育学校","lon":"121.45395","lat":"31.23545","category":"220","category_name":"运动场所","address":"静安区昌化路165号(近武定路)"},{"poiid":"B2094655D26DA3FF469A","title":"太府·名邸(东门)","lon":"121.456","lat":"31.23653","category":"47","category_name":"住宅区","address":"泰兴路625弄1-14"},{"poiid":"B2094654DA6CA4FD449A","title":"艺海剧院","lon":"121.45229","lat":"31.23502","category":"180","category_name":"剧场","address":"静安区江宁路466号(近武定路)"},{"poiid":"B2094757DA69A2F9489F","title":"CLUB-IBIZA","lon":"121.45313","lat":"31.23536","category":"111","category_name":"休闲餐饮场所","address":"静安区江宁路428号(近武定路)"},{"poiid":"B2094757D06FA3FF499D","title":"静安体育中心游泳馆","lon":"121.4535","lat":"31.23532","category":"220","category_name":"运动场所","address":"静安区康定路151号静安体育中心内(昌化路口)"},{"poiid":"B2094753D76FAAFA449C","title":"上海滩国泰旗舰店","lon":"121.466011","lat":"31.216125","category":"249","category_name":"购物服务","address":"淮海中路868号"},{"poiid":"B209475CD564A7F84292","title":"上海滩新天地店","lon":"121.47463","lat":"31.22164","category":"119","category_name":"商场","address":"\"太仓路181弄新天地北里15号\r\n\""},{"poiid":"B209475CD564A7F8439E","title":"上海滩中信泰富店","lon":"121.45602","lat":"31.22851","category":"119","category_name":"商场","address":"\"南京西路1168号中信泰富广场，店铺号221.\r\n\""},{"poiid":"B2094757D06FA3FE4799","title":"星巴克(远中风华店)","lon":"121.455101","lat":"31.234818","category":"65","category_name":"咖啡厅","address":"静安区昌化路68号(近武定路)"},{"poiid":"B2094654DB65A6FF449F","title":"cd bar & club","lon":"121.45264","lat":"31.23504","category":"174","category_name":"迪厅","address":"江宁路428号静安体育中心2楼"},{"poiid":"B2094757D168A4FC4098","title":"粤新餐厅","lon":"121.452995586","lat":"31.2370825651","category":"72","category_name":"广东菜","address":"静安区江宁路428号静安体育中心1楼(近艺海剧院)"},{"poiid":"B2094757D068A3FB419E","title":"静安体育中心","lon":"121.453154634","lat":"31.2354116335","category":"220","category_name":"运动场所","address":"静安区康定路151号静安体育中心内(武定路口)"},{"poiid":"B2094654DA6CA0FA4893","title":"国立大厦","lon":"121.454","lat":"31.2337","category":"46","category_name":"楼宇","address":"北京西路1465号"},{"poiid":"B2094757D06FA5F94493","title":"江宁路康定路","lon":"121.451088","lat":"31.235917","category":"500","category_name":"未知分类","address":"上海江宁路康定路"},{"poiid":"B2094750D664ABF94899","title":"一町奶茶","lon":"121.452","lat":"31.2356","category":"113","category_name":"冷饮店","address":"静安区康定路222号(近江宁路)"},{"poiid":"B2094757D068A2FD4292","title":"艺海剧院小剧场","lon":"121.452154","lat":"31.235312","category":"260","category_name":"其他","address":"上海艺海剧院五楼"},{"poiid":"B2094654DA6CA5F4409E","title":"帆顺海味馆","lon":"121.45532719303","lat":"31.237192665273","category":"76","category_name":"上海菜","address":"静安区康定路18号(泰兴路口)"},{"poiid":"B2094757D16FA0F84599","title":"多福苑","lon":"121.45427","lat":"31.23595","category":"96","category_name":"韩国料理","address":"静安区石门二路221号(近新闸路)"},{"poiid":"B2094757D06FA1FC4599","title":"星之健身(静安店)","lon":"121.4527","lat":"31.2345","category":"221","category_name":"健身中心","address":"静安区江宁路428号静安体育中心4楼(武定路口)"},{"poiid":"B2094655D26BA2FA449E","title":"泰兴路","lon":"121.45517","lat":"31.23698","category":"38","category_name":"公交车站","address":""},{"poiid":"B2094757D06FA4F9469F","title":"信达大厦","lon":"121.455","lat":"31.2339","category":"46","category_name":"楼宇","address":"上海北京西路1399号"},{"poiid":"B2094757D069A0FA469D","title":"静安体育中心羽毛球馆","lon":"121.45434","lat":"31.23444","category":"220","category_name":"运动场所","address":"静安区昌化路165号(近武定路)"},{"poiid":"B2094655D26DA3FB439B","title":"静安国际广场","lon":"121.455","lat":"31.2371","category":"46","category_name":"楼宇","address":"上海市静安区新闸路1518号"},{"poiid":"B2094757D06FAAFB459F","title":"祥祥栗子(康定路店)","lon":"121.45189","lat":"31.23535","category":"68","category_name":"快餐厅","address":"静安区康定路236号(近江宁路)"},{"poiid":"B2094757D16CA1FD4393","title":"星满天羽毛球馆","lon":"121.453606486","lat":"31.2396057145","category":"500","category_name":"未知分类","address":"静安区西苏州河路53号(近昌平路)"},{"poiid":"B2094757D06FA5FA4592","title":"MU.BREAD麦卡优娜(江宁路店)","lon":"121.45178","lat":"31.23516","category":"112","category_name":"糕饼店","address":"静安区江宁路499号(近康定路)"},{"poiid":"B2094752D16EA2F5449F","title":"上海金钱豹大酒店","lon":"121.453438","lat":"31.238001","category":"247","category_name":"餐饮美食","address":"杨树浦路2866号时尚中心2号门10号楼"},{"poiid":"B2094454D26CAAF44892","title":"和一大厦写字楼","lon":"121.453246","lat":"31.234619","category":"46","category_name":"楼宇","address":"静安区江宁路420号"},{"poiid":"B2094654DB69ABFA499A","title":"沈坚强游泳俱乐部(静安体育中心游泳馆店)","lon":"121.45335","lat":"31.23559","category":"231","category_name":"游泳馆","address":"静安区康定路151号405室(近江宁路)"},{"poiid":"B2094654DA6CA4F84198","title":"南草坪","lon":"121.4541","lat":"31.23791","category":"47","category_name":"住宅区","address":"泰兴路689弄1-65号"},{"poiid":"B2094753D56CA7FA4892","title":"人民大舞台","lon":"121.454116","lat":"31.237812","category":"500","category_name":"未知分类","address":"上海市 上海市九江路663号"},{"poiid":"B2094655D26CABF8429F","title":"蝴蝶湾花园","lon":"121.45606","lat":"31.23754","category":"47","category_name":"住宅区","address":""},{"poiid":"B2094654DA6CA5FB4992","title":"万皇酒家","lon":"121.45945","lat":"31.23696","category":"76","category_name":"上海菜","address":"静安区泰兴路630号(近康定路)"},{"poiid":"B2094751D369ABF54598","title":"芙蓉豪廷餐饮会所","lon":"121.45204","lat":"31.23481","category":"77","category_name":"湖南菜","address":"静安区江宁路445号1-4楼(近武定路)"},{"poiid":"B2094757D66CA3FA4098","title":"康定花园","lon":"121.45504","lat":"31.237381","category":"47","category_name":"住宅区","address":"上海康定路2号"},{"poiid":"B2094750D76CA2FE4292","title":"沈永昌苏州汤包馆","lon":"121.452","lat":"31.235","category":"68","category_name":"快餐厅","address":"静安区江宁路495号博鸿大厦(近康定路)"},{"poiid":"B2094655D26DA7FD419F","title":"康定花园(东门)","lon":"121.45526","lat":"31.2371","category":"47","category_name":"住宅区","address":"康定路2"},{"poiid":"B2094753DB6CABFF4393","title":"酒鬼食堂Drunk Uncle","lon":"121.454711","lat":"31.234748","category":"247","category_name":"餐饮美食","address":"上海市 昌化路46号，靠近武定路"},{"poiid":"B2094752DA64A0FC449E","title":"夜市豆浆","lon":"121.453699","lat":"31.238223","category":"247","category_name":"餐饮美食","address":"上海市 霍山路"},{"poiid":"B2094757D56CABFA479E","title":"凯司令西点房 昌化路店","lon":"121.4519974","lat":"31.2373187","category":"67","category_name":"甜品店","address":"普陀区昌化路320-1号(近昌平路)"},{"poiid":"B2094655D36CA5FA429F","title":"昌化路武定路","lon":"121.45362","lat":"31.23581","category":"38","category_name":"公交车站","address":""},{"poiid":"B2094655D26DA7FC449D","title":"南草坪(东门)","lon":"121.45527","lat":"31.23795","category":"47","category_name":"住宅区","address":"泰兴路689弄1-65号"},{"poiid":"B2094757D06FAAFC4699","title":"极真会馆龚道场(静安总部)","lon":"121.45312","lat":"31.23573","category":"500","category_name":"未知分类","address":"上海静安区康定路151号静安体育中心3-4楼(近江宁路)"},{"poiid":"B2094757D065A4FB449A","title":"食昇精作坊","lon":"121.45284","lat":"31.23432","category":"76","category_name":"上海菜","address":"静安区江宁路420号和一大厦内(近武定路)"},{"poiid":"B2094757D165A0F5429D","title":"良友金伴(康定路1店)","lon":"121.45398","lat":"31.23598","category":"117","category_name":"便民商店/便利店","address":"上海静安区康定路110号  "},{"poiid":"B2094454D26BA7FE4293","title":"其实我是螺蛳粉","lon":"121.452713","lat":"31.235506","category":"247","category_name":"餐饮美食","address":"上海市 上海万航渡路121号"},{"poiid":"B2094655D264A5F9479E","title":"E部落网吧泰兴路店","lon":"121.45545","lat":"31.23772","category":"176","category_name":"网吧","address":"静安区泰兴路676号(近康定路)"},{"poiid":"B2094757D66CA3F54693","title":"凯撒国际会所","lon":"121.456417738","lat":"31.2346433941","category":"500","category_name":"未知分类","address":"上海市静安区新闸路石门二路"},{"poiid":"B2094753DB64A3FC479D","title":"寒烟姐姐的咖啡馆","lon":"121.455642","lat":"31.23455","category":"65","category_name":"咖啡厅","address":"上海市 武定路226号"},{"poiid":"B2094757D06AA2F44692","title":"昌化路烧烤","lon":"121.45114","lat":"31.23754","category":"68","category_name":"快餐厅","address":"普陀区昌化路(近昌平路)"},{"poiid":"B2094757D16EAAFA499A","title":"静安区青少年业余体育学校","lon":"121.45395","lat":"31.23545","category":"220","category_name":"运动场所","address":"静安区昌化路165号(近武定路)"},{"poiid":"B2094655D26DA3FF469A","title":"太府·名邸(东门)","lon":"121.456","lat":"31.23653","category":"47","category_name":"住宅区","address":"泰兴路625弄1-14"}]