[{"poiid":"B2094757D06EAAFB489F","title":"宝山路地铁站","lon":"121.476536","lat":"31.251454","category":"36","category_name":"地铁站","address":"虹口区轨交三号线宝山路站(交通路虬江路)"},{"poiid":"B2094757D06FA6FF459B","title":"肯德基 KFC (虬江店)","lon":"121.477476","lat":"31.252721","category":"68","category_name":"快餐厅","address":"闸北区虬江路760号(近三号线宝山路站)"},{"poiid":"B2094757D068A1FD4793","title":"湘乐汇(虹口龙之梦店)","lon":"121.479673103","lat":"31.2543530865","category":"500","category_name":"未知分类","address":"虹口区西江湾路388号凯德龙之梦广场6楼"},{"poiid":"B209475CD564A7F84392","title":"上海滩浦东香格里拉店","lon":"121.50058","lat":"31.23634","category":"119","category_name":"商场","address":"浦东富成路33号香格里拉酒店内大堂层"},{"poiid":"B2094757D06AA2F5499C","title":"铁路博物馆","lon":"121.4764058","lat":"31.25003058","category":"182","category_name":"博物馆","address":"闸北区天目东路200号(近三号线宝山路站)"},{"poiid":"B2094757D069ABFA4999","title":"虬江路宝山路站","lon":"121.476905","lat":"31.25205","category":"500","category_name":"未知分类","address":"上海近宝山路地铁站"},{"poiid":"B2094757D06FA4F8429D","title":"宝寿司(嘉杰国际店)","lon":"121.47677515","lat":"31.252839328","category":"95","category_name":"日本料理","address":"虹口区四川北路1689号嘉杰国际广场B1楼"},{"poiid":"B2094757DB68A5F84493","title":"鮮芋仙(壹丰廣場店)","lon":"121.47922641","lat":"31.25438153","category":"500","category_name":"未知分类","address":"四川北路1363號壹丰廣場B2F"},{"poiid":"B2094654DB6BA3FD4098","title":"莫泰168连锁旅店(天目东路店)","lon":"121.47872","lat":"31.24996","category":"216","category_name":"经济型连锁酒店","address":"闸北区天目东路29号(近宝山路)"},{"poiid":"B2094757DB6FABFF4292","title":"麦歌","lon":"121.4802970200001","lat":"31.25405024999979","category":"249","category_name":"购物服务","address":"武进路289号海泰时代大厦"},{"poiid":"B2094655D36DA6FC469A","title":"虬江路","lon":"121.48028","lat":"31.25341","category":"38","category_name":"公交车站","address":""},{"poiid":"B2094757D06AA1FE499B","title":"京世造型美容","lon":"121.4773291","lat":"31.253038059","category":"148","category_name":"美容美发店","address":"闸北区虬江路813号(地铁宝山路站1号口对面)"},{"poiid":"B2094757D068ABFA419B","title":"老北站","lon":"121.47821807","lat":"31.251430511","category":"260","category_name":"其他","address":"上海天目东路宝山路"},{"poiid":"B2094753DB6BA1F5479D","title":"南京路步行街","lon":"121.477508","lat":"31.252927","category":"500","category_name":"未知分类","address":"上海市 南京东路"},{"poiid":"B2094757D06AA4F8469D","title":"舟山渔村海鲜城","lon":"121.477886103","lat":"31.2531110606","category":"247","category_name":"餐饮美食","address":"上海市闸北区虬江路760号(近宝山路)"},{"poiid":"B2094757D06AABFC4698","title":"中国工商银行上海闸北支行","lon":"121.479432671","lat":"31.2496450165","category":"46","category_name":"楼宇","address":"上海闸北区河南北路485号近天目东路"},{"poiid":"B2094654DA6FA2FC489E","title":"蓝宝石大厦","lon":"121.477","lat":"31.2527","category":"46","category_name":"楼宇","address":"天目中路253-267号"},{"poiid":"B2094757D06AA2F4429D","title":"月圆火锅","lon":"121.478404","lat":"31.249752","category":"247","category_name":"餐饮美食","address":"天目东路43号近老北站山西北路口"},{"poiid":"B2094750D665A1FE4699","title":"北站1号","lon":"121.479","lat":"31.2505","category":"76","category_name":"上海菜","address":"闸北区宝山路1号(天目东路口)"},{"poiid":"B2094750D26FA4F4469F","title":"上海大悅城","lon":"121.481124","lat":"31.253086","category":"249","category_name":"购物服务","address":null},{"poiid":"B2094654DA6FA2FC459C","title":"天目大楼","lon":"121.476","lat":"31.2518","category":"46","category_name":"楼宇","address":"浦东区崂山东路410号"},{"poiid":"B2094752D168A4FD489A","title":"星巴克宝山路店","lon":"121.476988","lat":"31.252838","category":"247","category_name":"餐饮美食","address":"宝山路202号"},{"poiid":"B2094750D768AAFF449F","title":"图门串烤(东新民路店)","lon":"121.479","lat":"31.2504","category":"68","category_name":"快餐厅","address":"闸北区东新民路106号(宝山路口)"},{"poiid":"B2094757D66DA5FA479F","title":"宝山路地铁站 薡茶","lon":"121.47806704","lat":"31.253391292","category":"113","category_name":"冷饮店","address":"闸北区地铁3、4号线宝山路站1号口(近上海音像城)"},{"poiid":"B2094757D068A5F44999","title":"椒香汇印","lon":"121.476143","lat":"31.252066","category":"71","category_name":"四川菜","address":"闸北区虬江路860号(宝山路口)"},{"poiid":"B2094750D665A3FF4392","title":"包旺锅贴(武进路店)","lon":"121.47716","lat":"31.25221","category":"68","category_name":"快餐厅","address":"虹口区武进路283号(近乍浦路)"},{"poiid":"B2094655D264AAF8469E","title":"随意点","lon":"121.47736","lat":"31.25194","category":"171","category_name":"台球厅","address":"宝山路128-130"},{"poiid":"B2094654D56EA2F5429A","title":"好德No.040","lon":"121.4783","lat":"31.25148","category":"117","category_name":"便民商店/便利店","address":""},{"poiid":"B2094654D56DA0FE459C","title":"都可茶饮","lon":"121.4777","lat":"31.25153","category":"66","category_name":"茶艺馆","address":""},{"poiid":"B2094757D468ABF5449D","title":"湘西酒楼","lon":"121.476209054","lat":"31.252075793","category":"77","category_name":"湖南菜","address":"闸北区虬江路835号(近公兴路)"},{"poiid":"B2094757D465AAF8489D","title":"香港深井茶餐厅","lon":"121.48498626279","lat":"31.249610741824","category":"247","category_name":"餐饮美食","address":"四川北路888号(上岛咖啡附近)"},{"poiid":"B2094655D26BA2F94099","title":"天目东路","lon":"121.47844","lat":"31.25112","category":"38","category_name":"公交车站","address":""},{"poiid":"B2094752D26FAAF94298","title":"九井日本料理","lon":"121.478952","lat":"31.252117","category":"247","category_name":"餐饮美食","address":"长寿路577号1楼(胶州路叶家宅南路间)"},{"poiid":"B2094654D56DA1FA4192","title":"组合发型顾问(天目东路)","lon":"121.477","lat":"31.2495","category":"148","category_name":"美容美发店","address":"闸北区天目东路131号(近康乐路)"},{"poiid":"B2094655D26BA2FC459B","title":"武进路河南北路","lon":"121.48054","lat":"31.25029","category":"38","category_name":"公交车站","address":""},{"poiid":"B2094757D16DA5FC4398","title":"临平路","lon":"121.48056566","lat":"31.253904877","category":"500","category_name":"未知分类","address":"上海临平路"},{"poiid":"B2094654D56EA3FF439C","title":"虬富电子电器交易市场(虬江路)","lon":"121.47911","lat":"31.25352","category":"138","category_name":"家电电子卖场","address":"闸北区虬江路661号(近宝山路)"},{"poiid":"B2094757D16CA7FF4292","title":"朝阳中学","lon":"121.477804403","lat":"31.2528760557","category":"55","category_name":"中学","address":"闸北区虬江路723号(近宝山路)"},{"poiid":"B2094654D56EA2F54193","title":"上海京大国际贸易有限公司","lon":"121.47812","lat":"31.25171","category":"263","category_name":"公司","address":""},{"poiid":"B2094757D064A5FF469E","title":"上海音像城","lon":"121.47864","lat":"31.25128","category":"127","category_name":"音像店","address":"闸北区宝山路111号(虬江路口)"},{"poiid":"B2094654DB6BA3FA449E","title":"可的(宝山路)","lon":"121.47721","lat":"31.25274","category":"117","category_name":"便民商店/便利店","address":"闸北区宝山路163号(近巴黎春天)"},{"poiid":"B2094654D56EA3F9499B","title":"韶山毛家湘菜馆","lon":"121.47956","lat":"31.25037","category":"77","category_name":"湖南菜","address":"闸北区东新民路(宝山路口)"},{"poiid":"B2094757D16EA4F84292","title":"鼎茶(宝山路店)","lon":"121.4769771","lat":"31.252470047","category":"247","category_name":"餐饮美食","address":"上海ShanghaiZhabeiLinshan Rd"},{"poiid":"B2094654D56DA1F5429B","title":"都源商贸","lon":"121.47653","lat":"31.25179","category":"46","category_name":"楼宇","address":"交通路65-2"},{"poiid":"B2094654DA6FA2FC4899","title":"沪金大楼","lon":"121.476","lat":"31.252","category":"46","category_name":"楼宇","address":"天目中路240号"},{"poiid":"B2094654D56DA1F8499A","title":"银历大厦","lon":"121.47937","lat":"31.24964","category":"46","category_name":"楼宇","address":"闸北区河南北路485号"},{"poiid":"B2094757D16BABFC449A","title":"新华社大学生信息采集中心","lon":"121.479634303","lat":"31.2524786474","category":"500","category_name":"未知分类","address":"上海市虬江支路181号2108室"},{"poiid":"B2094757D16DA2FC439C","title":"蔚蓝海岸Studio(闸北店)","lon":"121.47879","lat":"31.25093","category":"500","category_name":"未知分类","address":"上海"},{"poiid":"B2094757D16BA0FE4892","title":"新廣路296號","lon":"121.4778993","lat":"31.253133661","category":"47","category_name":"住宅区","address":"上海新廣路296號"},{"poiid":"B2094654DB6BA3FD4392","title":"柯达影像网络","lon":"121.47778","lat":"31.25146","category":"248","category_name":"生活娱乐","address":"宝山路80-86号"},{"poiid":"B2094757D06EAAFB489F","title":"宝山路地铁站","lon":"121.476536","lat":"31.251454","category":"36","category_name":"地铁站","address":"虹口区轨交三号线宝山路站(交通路虬江路)"},{"poiid":"B2094757D06FA6FF459B","title":"肯德基 KFC (虬江店)","lon":"121.477476","lat":"31.252721","category":"68","category_name":"快餐厅","address":"闸北区虬江路760号(近三号线宝山路站)"},{"poiid":"B2094757D068A1FD4793","title":"湘乐汇(虹口龙之梦店)","lon":"121.479673103","lat":"31.2543530865","category":"500","category_name":"未知分类","address":"虹口区西江湾路388号凯德龙之梦广场6楼"},{"poiid":"B209475CD564A7F84392","title":"上海滩浦东香格里拉店","lon":"121.50058","lat":"31.23634","category":"119","category_name":"商场","address":"浦东富成路33号香格里拉酒店内大堂层"},{"poiid":"B2094757D06AA2F5499C","title":"铁路博物馆","lon":"121.4764058","lat":"31.25003058","category":"182","category_name":"博物馆","address":"闸北区天目东路200号(近三号线宝山路站)"},{"poiid":"B2094757D069ABFA4999","title":"虬江路宝山路站","lon":"121.476905","lat":"31.25205","category":"500","category_name":"未知分类","address":"上海近宝山路地铁站"},{"poiid":"B2094757D06FA4F8429D","title":"宝寿司(嘉杰国际店)","lon":"121.47677515","lat":"31.252839328","category":"95","category_name":"日本料理","address":"虹口区四川北路1689号嘉杰国际广场B1楼"},{"poiid":"B2094757DB68A5F84493","title":"鮮芋仙(壹丰廣場店)","lon":"121.47922641","lat":"31.25438153","category":"500","category_name":"未知分类","address":"四川北路1363號壹丰廣場B2F"},{"poiid":"B2094654DB6BA3FD4098","title":"莫泰168连锁旅店(天目东路店)","lon":"121.47872","lat":"31.24996","category":"216","category_name":"经济型连锁酒店","address":"闸北区天目东路29号(近宝山路)"},{"poiid":"B2094757DB6FABFF4292","title":"麦歌","lon":"121.4802970200001","lat":"31.25405024999979","category":"249","category_name":"购物服务","address":"武进路289号海泰时代大厦"},{"poiid":"B2094655D36DA6FC469A","title":"虬江路","lon":"121.48028","lat":"31.25341","category":"38","category_name":"公交车站","address":""},{"poiid":"B2094757D06AA1FE499B","title":"京世造型美容","lon":"121.4773291","lat":"31.253038059","category":"148","category_name":"美容美发店","address":"闸北区虬江路813号(地铁宝山路站1号口对面)"},{"poiid":"B2094757D068ABFA419B","title":"老北站","lon":"121.47821807","lat":"31.251430511","category":"260","category_name":"其他","address":"上海天目东路宝山路"},{"poiid":"B2094753DB6BA1F5479D","title":"南京路步行街","lon":"121.477508","lat":"31.252927","category":"500","category_name":"未知分类","address":"上海市 南京东路"},{"poiid":"B2094757D06AA4F8469D","title":"舟山渔村海鲜城","lon":"121.477886103","lat":"31.2531110606","category":"247","category_name":"餐饮美食","address":"上海市闸北区虬江路760号(近宝山路)"},{"poiid":"B2094757D06AABFC4698","title":"中国工商银行上海闸北支行","lon":"121.479432671","lat":"31.2496450165","category":"46","category_name":"楼宇","address":"上海闸北区河南北路485号近天目东路"},{"poiid":"B2094654DA6FA2FC489E","title":"蓝宝石大厦","lon":"121.477","lat":"31.2527","category":"46","category_name":"楼宇","address":"天目中路253-267号"},{"poiid":"B2094757D06AA2F4429D","title":"月圆火锅","lon":"121.478404","lat":"31.249752","category":"247","category_name":"餐饮美食","address":"天目东路43号近老北站山西北路口"},{"poiid":"B2094750D665A1FE4699","title":"北站1号","lon":"121.479","lat":"31.2505","category":"76","category_name":"上海菜","address":"闸北区宝山路1号(天目东路口)"},{"poiid":"B2094750D26FA4F4469F","title":"上海大悅城","lon":"121.481124","lat":"31.253086","category":"249","category_name":"购物服务","address":null},{"poiid":"B2094654DA6FA2FC459C","title":"天目大楼","lon":"121.476","lat":"31.2518","category":"46","category_name":"楼宇","address":"浦东区崂山东路410号"},{"poiid":"B2094752D168A4FD489A","title":"星巴克宝山路店","lon":"121.476988","lat":"31.252838","category":"247","category_name":"餐饮美食","address":"宝山路202号"},{"poiid":"B2094750D768AAFF449F","title":"图门串烤(东新民路店)","lon":"121.479","lat":"31.2504","category":"68","category_name":"快餐厅","address":"闸北区东新民路106号(宝山路口)"},{"poiid":"B2094757D66DA5FA479F","title":"宝山路地铁站 薡茶","lon":"121.47806704","lat":"31.253391292","category":"113","category_name":"冷饮店","address":"闸北区地铁3、4号线宝山路站1号口(近上海音像城)"},{"poiid":"B2094757D068A5F44999","title":"椒香汇印","lon":"121.476143","lat":"31.252066","category":"71","category_name":"四川菜","address":"闸北区虬江路860号(宝山路口)"},{"poiid":"B2094750D665A3FF4392","title":"包旺锅贴(武进路店)","lon":"121.47716","lat":"31.25221","category":"68","category_name":"快餐厅","address":"虹口区武进路283号(近乍浦路)"},{"poiid":"B2094655D264AAF8469E","title":"随意点","lon":"121.47736","lat":"31.25194","category":"171","category_name":"台球厅","address":"宝山路128-130"},{"poiid":"B2094654D56EA2F5429A","title":"好德No.040","lon":"121.4783","lat":"31.25148","category":"117","category_name":"便民商店/便利店","address":""},{"poiid":"B2094654D56DA0FE459C","title":"都可茶饮","lon":"121.4777","lat":"31.25153","category":"66","category_name":"茶艺馆","address":""},{"poiid":"B2094757D468ABF5449D","title":"湘西酒楼","lon":"121.476209054","lat":"31.252075793","category":"77","category_name":"湖南菜","address":"闸北区虬江路835号(近公兴路)"},{"poiid":"B2094757D465AAF8489D","title":"香港深井茶餐厅","lon":"121.48498626279","lat":"31.249610741824","category":"247","category_name":"餐饮美食","address":"四川北路888号(上岛咖啡附近)"},{"poiid":"B2094655D26BA2F94099","title":"天目东路","lon":"121.47844","lat":"31.25112","category":"38","category_name":"公交车站","address":""},{"poiid":"B2094752D26FAAF94298","title":"九井日本料理","lon":"121.478952","lat":"31.252117","category":"247","category_name":"餐饮美食","address":"长寿路577号1楼(胶州路叶家宅南路间)"},{"poiid":"B2094654D56DA1FA4192","title":"组合发型顾问(天目东路)","lon":"121.477","lat":"31.2495","category":"148","category_name":"美容美发店","address":"闸北区天目东路131号(近康乐路)"},{"poiid":"B2094655D26BA2FC459B","title":"武进路河南北路","lon":"121.48054","lat":"31.25029","category":"38","category_name":"公交车站","address":""},{"poiid":"B2094757D16DA5FC4398","title":"临平路","lon":"121.48056566","lat":"31.253904877","category":"500","category_name":"未知分类","address":"上海临平路"},{"poiid":"B2094654D56EA3FF439C","title":"虬富电子电器交易市场(虬江路)","lon":"121.47911","lat":"31.25352","category":"138","category_name":"家电电子卖场","address":"闸北区虬江路661号(近宝山路)"},{"poiid":"B2094757D16CA7FF4292","title":"朝阳中学","lon":"121.477804403","lat":"31.2528760557","category":"55","category_name":"中学","address":"闸北区虬江路723号(近宝山路)"},{"poiid":"B2094654D56EA2F54193","title":"上海京大国际贸易有限公司","lon":"121.47812","lat":"31.25171","category":"263","category_name":"公司","address":""},{"poiid":"B2094757D064A5FF469E","title":"上海音像城","lon":"121.47864","lat":"31.25128","category":"127","category_name":"音像店","address":"闸北区宝山路111号(虬江路口)"},{"poiid":"B2094654DB6BA3FA449E","title":"可的(宝山路)","lon":"121.47721","lat":"31.25274","category":"117","category_name":"便民商店/便利店","address":"闸北区宝山路163号(近巴黎春天)"},{"poiid":"B2094654D56EA3F9499B","title":"韶山毛家湘菜馆","lon":"121.47956","lat":"31.25037","category":"77","category_name":"湖南菜","address":"闸北区东新民路(宝山路口)"},{"poiid":"B2094757D16EA4F84292","title":"鼎茶(宝山路店)","lon":"121.4769771","lat":"31.252470047","category":"247","category_name":"餐饮美食","address":"上海ShanghaiZhabeiLinshan Rd"},{"poiid":"B2094654D56DA1F5429B","title":"都源商贸","lon":"121.47653","lat":"31.25179","category":"46","category_name":"楼宇","address":"交通路65-2"},{"poiid":"B2094654DA6FA2FC4899","title":"沪金大楼","lon":"121.476","lat":"31.252","category":"46","category_name":"楼宇","address":"天目中路240号"},{"poiid":"B2094654D56DA1F8499A","title":"银历大厦","lon":"121.47937","lat":"31.24964","category":"46","category_name":"楼宇","address":"闸北区河南北路485号"},{"poiid":"B2094757D16BABFC449A","title":"新华社大学生信息采集中心","lon":"121.479634303","lat":"31.2524786474","category":"500","category_name":"未知分类","address":"上海市虬江支路181号2108室"},{"poiid":"B2094757D16DA2FC439C","title":"蔚蓝海岸Studio(闸北店)","lon":"121.47879","lat":"31.25093","category":"500","category_name":"未知分类","address":"上海"},{"poiid":"B2094757D16BA0FE4892","title":"新廣路296號","lon":"121.4778993","lat":"31.253133661","category":"47","category_name":"住宅区","address":"上海新廣路296號"},{"poiid":"B2094654DB6BA3FD4392","title":"柯达影像网络","lon":"121.47778","lat":"31.25146","category":"248","category_name":"生活娱乐","address":"宝山路80-86号"},{"poiid":"B2094757D06EAAFB489F","title":"宝山路地铁站","lon":"121.476536","lat":"31.251454","category":"36","category_name":"地铁站","address":"虹口区轨交三号线宝山路站(交通路虬江路)"},{"poiid":"B2094757D06FA6FF459B","title":"肯德基 KFC (虬江店)","lon":"121.477476","lat":"31.252721","category":"68","category_name":"快餐厅","address":"闸北区虬江路760号(近三号线宝山路站)"},{"poiid":"B2094757D068A1FD4793","title":"湘乐汇(虹口龙之梦店)","lon":"121.479673103","lat":"31.2543530865","category":"500","category_name":"未知分类","address":"虹口区西江湾路388号凯德龙之梦广场6楼"},{"poiid":"B209475CD564A7F84392","title":"上海滩浦东香格里拉店","lon":"121.50058","lat":"31.23634","category":"119","category_name":"商场","address":"浦东富成路33号香格里拉酒店内大堂层"},{"poiid":"B2094757D06AA2F5499C","title":"铁路博物馆","lon":"121.4764058","lat":"31.25003058","category":"182","category_name":"博物馆","address":"闸北区天目东路200号(近三号线宝山路站)"},{"poiid":"B2094757D069ABFA4999","title":"虬江路宝山路站","lon":"121.476905","lat":"31.25205","category":"500","category_name":"未知分类","address":"上海近宝山路地铁站"},{"poiid":"B2094757D06FA4F8429D","title":"宝寿司(嘉杰国际店)","lon":"121.47677515","lat":"31.252839328","category":"95","category_name":"日本料理","address":"虹口区四川北路1689号嘉杰国际广场B1楼"},{"poiid":"B2094757DB68A5F84493","title":"鮮芋仙(壹丰廣場店)","lon":"121.47922641","lat":"31.25438153","category":"500","category_name":"未知分类","address":"四川北路1363號壹丰廣場B2F"},{"poiid":"B2094654DB6BA3FD4098","title":"莫泰168连锁旅店(天目东路店)","lon":"121.47872","lat":"31.24996","category":"216","category_name":"经济型连锁酒店","address":"闸北区天目东路29号(近宝山路)"},{"poiid":"B2094757DB6FABFF4292","title":"麦歌","lon":"121.4802970200001","lat":"31.25405024999979","category":"249","category_name":"购物服务","address":"武进路289号海泰时代大厦"},{"poiid":"B2094655D36DA6FC469A","title":"虬江路","lon":"121.48028","lat":"31.25341","category":"38","category_name":"公交车站","address":""},{"poiid":"B2094757D06AA1FE499B","title":"京世造型美容","lon":"121.4773291","lat":"31.253038059","category":"148","category_name":"美容美发店","address":"闸北区虬江路813号(地铁宝山路站1号口对面)"},{"poiid":"B2094757D068ABFA419B","title":"老北站","lon":"121.47821807","lat":"31.251430511","category":"260","category_name":"其他","address":"上海天目东路宝山路"},{"poiid":"B2094753DB6BA1F5479D","title":"南京路步行街","lon":"121.477508","lat":"31.252927","category":"500","category_name":"未知分类","address":"上海市 南京东路"},{"poiid":"B2094757D06AA4F8469D","title":"舟山渔村海鲜城","lon":"121.477886103","lat":"31.2531110606","category":"247","category_name":"餐饮美食","address":"上海市闸北区虬江路760号(近宝山路)"},{"poiid":"B2094757D06AABFC4698","title":"中国工商银行上海闸北支行","lon":"121.479432671","lat":"31.2496450165","category":"46","category_name":"楼宇","address":"上海闸北区河南北路485号近天目东路"},{"poiid":"B2094654DA6FA2FC489E","title":"蓝宝石大厦","lon":"121.477","lat":"31.2527","category":"46","category_name":"楼宇","address":"天目中路253-267号"},{"poiid":"B2094757D06AA2F4429D","title":"月圆火锅","lon":"121.478404","lat":"31.249752","category":"247","category_name":"餐饮美食","address":"天目东路43号近老北站山西北路口"},{"poiid":"B2094750D665A1FE4699","title":"北站1号","lon":"121.479","lat":"31.2505","category":"76","category_name":"上海菜","address":"闸北区宝山路1号(天目东路口)"},{"poiid":"B2094750D26FA4F4469F","title":"上海大悅城","lon":"121.481124","lat":"31.253086","category":"249","category_name":"购物服务","address":null},{"poiid":"B2094654DA6FA2FC459C","title":"天目大楼","lon":"121.476","lat":"31.2518","category":"46","category_name":"楼宇","address":"浦东区崂山东路410号"},{"poiid":"B2094752D168A4FD489A","title":"星巴克宝山路店","lon":"121.476988","lat":"31.252838","category":"247","category_name":"餐饮美食","address":"宝山路202号"},{"poiid":"B2094750D768AAFF449F","title":"图门串烤(东新民路店)","lon":"121.479","lat":"31.2504","category":"68","category_name":"快餐厅","address":"闸北区东新民路106号(宝山路口)"},{"poiid":"B2094757D66DA5FA479F","title":"宝山路地铁站 薡茶","lon":"121.47806704","lat":"31.253391292","category":"113","category_name":"冷饮店","address":"闸北区地铁3、4号线宝山路站1号口(近上海音像城)"},{"poiid":"B2094757D068A5F44999","title":"椒香汇印","lon":"121.476143","lat":"31.252066","category":"71","category_name":"四川菜","address":"闸北区虬江路860号(宝山路口)"},{"poiid":"B2094750D665A3FF4392","title":"包旺锅贴(武进路店)","lon":"121.47716","lat":"31.25221","category":"68","category_name":"快餐厅","address":"虹口区武进路283号(近乍浦路)"},{"poiid":"B2094655D264AAF8469E","title":"随意点","lon":"121.47736","lat":"31.25194","category":"171","category_name":"台球厅","address":"宝山路128-130"},{"poiid":"B2094654D56EA2F5429A","title":"好德No.040","lon":"121.4783","lat":"31.25148","category":"117","category_name":"便民商店/便利店","address":""},{"poiid":"B2094654D56DA0FE459C","title":"都可茶饮","lon":"121.4777","lat":"31.25153","category":"66","category_name":"茶艺馆","address":""},{"poiid":"B2094757D468ABF5449D","title":"湘西酒楼","lon":"121.476209054","lat":"31.252075793","category":"77","category_name":"湖南菜","address":"闸北区虬江路835号(近公兴路)"},{"poiid":"B2094757D465AAF8489D","title":"香港深井茶餐厅","lon":"121.48498626279","lat":"31.249610741824","category":"247","category_name":"餐饮美食","address":"四川北路888号(上岛咖啡附近)"},{"poiid":"B2094655D26BA2F94099","title":"天目东路","lon":"121.47844","lat":"31.25112","category":"38","category_name":"公交车站","address":""},{"poiid":"B2094752D26FAAF94298","title":"九井日本料理","lon":"121.478952","lat":"31.252117","category":"247","category_name":"餐饮美食","address":"长寿路577号1楼(胶州路叶家宅南路间)"},{"poiid":"B2094654D56DA1FA4192","title":"组合发型顾问(天目东路)","lon":"121.477","lat":"31.2495","category":"148","category_name":"美容美发店","address":"闸北区天目东路131号(近康乐路)"},{"poiid":"B2094655D26BA2FC459B","title":"武进路河南北路","lon":"121.48054","lat":"31.25029","category":"38","category_name":"公交车站","address":""},{"poiid":"B2094757D16DA5FC4398","title":"临平路","lon":"121.48056566","lat":"31.253904877","category":"500","category_name":"未知分类","address":"上海临平路"},{"poiid":"B2094654D56EA3FF439C","title":"虬富电子电器交易市场(虬江路)","lon":"121.47911","lat":"31.25352","category":"138","category_name":"家电电子卖场","address":"闸北区虬江路661号(近宝山路)"},{"poiid":"B2094757D16CA7FF4292","title":"朝阳中学","lon":"121.477804403","lat":"31.2528760557","category":"55","category_name":"中学","address":"闸北区虬江路723号(近宝山路)"},{"poiid":"B2094654D56EA2F54193","title":"上海京大国际贸易有限公司","lon":"121.47812","lat":"31.25171","category":"263","category_name":"公司","address":""},{"poiid":"B2094757D064A5FF469E","title":"上海音像城","lon":"121.47864","lat":"31.25128","category":"127","category_name":"音像店","address":"闸北区宝山路111号(虬江路口)"},{"poiid":"B2094654DB6BA3FA449E","title":"可的(宝山路)","lon":"121.47721","lat":"31.25274","category":"117","category_name":"便民商店/便利店","address":"闸北区宝山路163号(近巴黎春天)"},{"poiid":"B2094654D56EA3F9499B","title":"韶山毛家湘菜馆","lon":"121.47956","lat":"31.25037","category":"77","category_name":"湖南菜","address":"闸北区东新民路(宝山路口)"},{"poiid":"B2094757D16EA4F84292","title":"鼎茶(宝山路店)","lon":"121.4769771","lat":"31.252470047","category":"247","category_name":"餐饮美食","address":"上海ShanghaiZhabeiLinshan Rd"},{"poiid":"B2094654D56DA1F5429B","title":"都源商贸","lon":"121.47653","lat":"31.25179","category":"46","category_name":"楼宇","address":"交通路65-2"},{"poiid":"B2094654DA6FA2FC4899","title":"沪金大楼","lon":"121.476","lat":"31.252","category":"46","category_name":"楼宇","address":"天目中路240号"},{"poiid":"B2094654D56DA1F8499A","title":"银历大厦","lon":"121.47937","lat":"31.24964","category":"46","category_name":"楼宇","address":"闸北区河南北路485号"},{"poiid":"B2094757D16BABFC449A","title":"新华社大学生信息采集中心","lon":"121.479634303","lat":"31.2524786474","category":"500","category_name":"未知分类","address":"上海市虬江支路181号2108室"},{"poiid":"B2094757D16DA2FC439C","title":"蔚蓝海岸Studio(闸北店)","lon":"121.47879","lat":"31.25093","category":"500","category_name":"未知分类","address":"上海"},{"poiid":"B2094757D16BA0FE4892","title":"新廣路296號","lon":"121.4778993","lat":"31.253133661","category":"47","category_name":"住宅区","address":"上海新廣路296號"},{"poiid":"B2094654DB6BA3FD4392","title":"柯达影像网络","lon":"121.47778","lat":"31.25146","category":"248","category_name":"生活娱乐","address":"宝山路80-86号"},{"poiid":"B2094757D06EAAFB489F","title":"宝山路地铁站","lon":"121.476536","lat":"31.251454","category":"36","category_name":"地铁站","address":"虹口区轨交三号线宝山路站(交通路虬江路)"},{"poiid":"B2094757D06FA6FF459B","title":"肯德基 KFC (虬江店)","lon":"121.477476","lat":"31.252721","category":"68","category_name":"快餐厅","address":"闸北区虬江路760号(近三号线宝山路站)"},{"poiid":"B2094757D068A1FD4793","title":"湘乐汇(虹口龙之梦店)","lon":"121.479673103","lat":"31.2543530865","category":"500","category_name":"未知分类","address":"虹口区西江湾路388号凯德龙之梦广场6楼"},{"poiid":"B209475CD564A7F84392","title":"上海滩浦东香格里拉店","lon":"121.50058","lat":"31.23634","category":"119","category_name":"商场","address":"浦东富成路33号香格里拉酒店内大堂层"},{"poiid":"B2094757D06AA2F5499C","title":"铁路博物馆","lon":"121.4764058","lat":"31.25003058","category":"182","category_name":"博物馆","address":"闸北区天目东路200号(近三号线宝山路站)"},{"poiid":"B2094757D069ABFA4999","title":"虬江路宝山路站","lon":"121.476905","lat":"31.25205","category":"500","category_name":"未知分类","address":"上海近宝山路地铁站"},{"poiid":"B2094757D06FA4F8429D","title":"宝寿司(嘉杰国际店)","lon":"121.47677515","lat":"31.252839328","category":"95","category_name":"日本料理","address":"虹口区四川北路1689号嘉杰国际广场B1楼"},{"poiid":"B2094757DB68A5F84493","title":"鮮芋仙(壹丰廣場店)","lon":"121.47922641","lat":"31.25438153","category":"500","category_name":"未知分类","address":"四川北路1363號壹丰廣場B2F"},{"poiid":"B2094654DB6BA3FD4098","title":"莫泰168连锁旅店(天目东路店)","lon":"121.47872","lat":"31.24996","category":"216","category_name":"经济型连锁酒店","address":"闸北区天目东路29号(近宝山路)"},{"poiid":"B2094757DB6FABFF4292","title":"麦歌","lon":"121.4802970200001","lat":"31.25405024999979","category":"249","category_name":"购物服务","address":"武进路289号海泰时代大厦"},{"poiid":"B2094655D36DA6FC469A","title":"虬江路","lon":"121.48028","lat":"31.25341","category":"38","category_name":"公交车站","address":""},{"poiid":"B2094757D06AA1FE499B","title":"京世造型美容","lon":"121.4773291","lat":"31.253038059","category":"148","category_name":"美容美发店","address":"闸北区虬江路813号(地铁宝山路站1号口对面)"},{"poiid":"B2094757D068ABFA419B","title":"老北站","lon":"121.47821807","lat":"31.251430511","category":"260","category_name":"其他","address":"上海天目东路宝山路"},{"poiid":"B2094753DB6BA1F5479D","title":"南京路步行街","lon":"121.477508","lat":"31.252927","category":"500","category_name":"未知分类","address":"上海市 南京东路"},{"poiid":"B2094757D06AA4F8469D","title":"舟山渔村海鲜城","lon":"121.477886103","lat":"31.2531110606","category":"247","category_name":"餐饮美食","address":"上海市闸北区虬江路760号(近宝山路)"},{"poiid":"B2094757D06AABFC4698","title":"中国工商银行上海闸北支行","lon":"121.479432671","lat":"31.2496450165","category":"46","category_name":"楼宇","address":"上海闸北区河南北路485号近天目东路"},{"poiid":"B2094654DA6FA2FC489E","title":"蓝宝石大厦","lon":"121.477","lat":"31.2527","category":"46","category_name":"楼宇","address":"天目中路253-267号"},{"poiid":"B2094757D06AA2F4429D","title":"月圆火锅","lon":"121.478404","lat":"31.249752","category":"247","category_name":"餐饮美食","address":"天目东路43号近老北站山西北路口"},{"poiid":"B2094750D665A1FE4699","title":"北站1号","lon":"121.479","lat":"31.2505","category":"76","category_name":"上海菜","address":"闸北区宝山路1号(天目东路口)"},{"poiid":"B2094750D26FA4F4469F","title":"上海大悅城","lon":"121.481124","lat":"31.253086","category":"249","category_name":"购物服务","address":null},{"poiid":"B2094654DA6FA2FC459C","title":"天目大楼","lon":"121.476","lat":"31.2518","category":"46","category_name":"楼宇","address":"浦东区崂山东路410号"},{"poiid":"B2094752D168A4FD489A","title":"星巴克宝山路店","lon":"121.476988","lat":"31.252838","category":"247","category_name":"餐饮美食","address":"宝山路202号"},{"poiid":"B2094750D768AAFF449F","title":"图门串烤(东新民路店)","lon":"121.479","lat":"31.2504","category":"68","category_name":"快餐厅","address":"闸北区东新民路106号(宝山路口)"},{"poiid":"B2094757D66DA5FA479F","title":"宝山路地铁站 薡茶","lon":"121.47806704","lat":"31.253391292","category":"113","category_name":"冷饮店","address":"闸北区地铁3、4号线宝山路站1号口(近上海音像城)"},{"poiid":"B2094757D068A5F44999","title":"椒香汇印","lon":"121.476143","lat":"31.252066","category":"71","category_name":"四川菜","address":"闸北区虬江路860号(宝山路口)"},{"poiid":"B2094750D665A3FF4392","title":"包旺锅贴(武进路店)","lon":"121.47716","lat":"31.25221","category":"68","category_name":"快餐厅","address":"虹口区武进路283号(近乍浦路)"},{"poiid":"B2094655D264AAF8469E","title":"随意点","lon":"121.47736","lat":"31.25194","category":"171","category_name":"台球厅","address":"宝山路128-130"},{"poiid":"B2094654D56EA2F5429A","title":"好德No.040","lon":"121.4783","lat":"31.25148","category":"117","category_name":"便民商店/便利店","address":""},{"poiid":"B2094654D56DA0FE459C","title":"都可茶饮","lon":"121.4777","lat":"31.25153","category":"66","category_name":"茶艺馆","address":""},{"poiid":"B2094757D468ABF5449D","title":"湘西酒楼","lon":"121.476209054","lat":"31.252075793","category":"77","category_name":"湖南菜","address":"闸北区虬江路835号(近公兴路)"},{"poiid":"B2094757D465AAF8489D","title":"香港深井茶餐厅","lon":"121.48498626279","lat":"31.249610741824","category":"247","category_name":"餐饮美食","address":"四川北路888号(上岛咖啡附近)"},{"poiid":"B2094655D26BA2F94099","title":"天目东路","lon":"121.47844","lat":"31.25112","category":"38","category_name":"公交车站","address":""},{"poiid":"B2094752D26FAAF94298","title":"九井日本料理","lon":"121.478952","lat":"31.252117","category":"247","category_name":"餐饮美食","address":"长寿路577号1楼(胶州路叶家宅南路间)"},{"poiid":"B2094654D56DA1FA4192","title":"组合发型顾问(天目东路)","lon":"121.477","lat":"31.2495","category":"148","category_name":"美容美发店","address":"闸北区天目东路131号(近康乐路)"},{"poiid":"B2094655D26BA2FC459B","title":"武进路河南北路","lon":"121.48054","lat":"31.25029","category":"38","category_name":"公交车站","address":""},{"poiid":"B2094757D16DA5FC4398","title":"临平路","lon":"121.48056566","lat":"31.253904877","category":"500","category_name":"未知分类","address":"上海临平路"},{"poiid":"B2094654D56EA3FF439C","title":"虬富电子电器交易市场(虬江路)","lon":"121.47911","lat":"31.25352","category":"138","category_name":"家电电子卖场","address":"闸北区虬江路661号(近宝山路)"},{"poiid":"B2094757D16CA7FF4292","title":"朝阳中学","lon":"121.477804403","lat":"31.2528760557","category":"55","category_name":"中学","address":"闸北区虬江路723号(近宝山路)"},{"poiid":"B2094654D56EA2F54193","title":"上海京大国际贸易有限公司","lon":"121.47812","lat":"31.25171","category":"263","category_name":"公司","address":""},{"poiid":"B2094757D064A5FF469E","title":"上海音像城","lon":"121.47864","lat":"31.25128","category":"127","category_name":"音像店","address":"闸北区宝山路111号(虬江路口)"},{"poiid":"B2094654DB6BA3FA449E","title":"可的(宝山路)","lon":"121.47721","lat":"31.25274","category":"117","category_name":"便民商店/便利店","address":"闸北区宝山路163号(近巴黎春天)"},{"poiid":"B2094654D56EA3F9499B","title":"韶山毛家湘菜馆","lon":"121.47956","lat":"31.25037","category":"77","category_name":"湖南菜","address":"闸北区东新民路(宝山路口)"},{"poiid":"B2094757D16EA4F84292","title":"鼎茶(宝山路店)","lon":"121.4769771","lat":"31.252470047","category":"247","category_name":"餐饮美食","address":"上海ShanghaiZhabeiLinshan Rd"},{"poiid":"B2094654D56DA1F5429B","title":"都源商贸","lon":"121.47653","lat":"31.25179","category":"46","category_name":"楼宇","address":"交通路65-2"},{"poiid":"B2094654DA6FA2FC4899","title":"沪金大楼","lon":"121.476","lat":"31.252","category":"46","category_name":"楼宇","address":"天目中路240号"},{"poiid":"B2094654D56DA1F8499A","title":"银历大厦","lon":"121.47937","lat":"31.24964","category":"46","category_name":"楼宇","address":"闸北区河南北路485号"},{"poiid":"B2094757D16BABFC449A","title":"新华社大学生信息采集中心","lon":"121.479634303","lat":"31.2524786474","category":"500","category_name":"未知分类","address":"上海市虬江支路181号2108室"},{"poiid":"B2094757D16DA2FC439C","title":"蔚蓝海岸Studio(闸北店)","lon":"121.47879","lat":"31.25093","category":"500","category_name":"未知分类","address":"上海"},{"poiid":"B2094757D16BA0FE4892","title":"新廣路296號","lon":"121.4778993","lat":"31.253133661","category":"47","category_name":"住宅区","address":"上海新廣路296號"},{"poiid":"B2094654DB6BA3FD4392","title":"柯达影像网络","lon":"121.47778","lat":"31.25146","category":"248","category_name":"生活娱乐","address":"宝山路80-86号"}]