[{"poiid":"B2094654DB6AA6F8409C","title":"上海外滩茂悦大酒店","lon":"121.49345","lat":"31.24541","category":"268","category_name":"自助","address":"虹口区黄浦路199号上海外滩茂悦大酒店东楼3楼(黄浦路南浔路)"},{"poiid":"B2094654DA6FA5F8429A","title":"宏伊国际广场","lon":"121.491","lat":"31.2427","category":"46","category_name":"楼宇","address":"张杨路560号,张杨路620号"},{"poiid":"B2094654DB65A2FF469A","title":"外白渡桥","lon":"121.49018","lat":"31.24281","category":"250","category_name":"公园户外","address":"上海黄浦区大名路(苏州河上)"},{"poiid":"B209475CD564A7F84392","title":"上海滩浦东香格里拉店","lon":"121.50058","lat":"31.23634","category":"119","category_name":"商场","address":"浦东富成路33号香格里拉酒店内大堂层"},{"poiid":"B2094757D06FA2FA419C","title":"非常时髦酒吧","lon":"121.49312","lat":"31.24427","category":"260","category_name":"其他","address":"虹口区黄浦路199号上海外滩茂悦大酒店西楼32楼(近武昌路)"},{"poiid":"B2094757D06FA1F8489C","title":"浦江饭店","lon":"121.490758631","lat":"31.2440953723","category":"215","category_name":"三星级宾馆","address":"上海虹口区黄浦路15号(近北苏州路)"},{"poiid":"B2094757D06FA7F5479A","title":"海鸥饭店","lon":"121.49201","lat":"31.24348","category":"217","category_name":"旅馆招待所","address":"上海市虹口区黄浦路60号(外滩地区,近北苏州路)"},{"poiid":"B2094757D064A5FD4593","title":"外灘","lon":"121.49375073","lat":"31.240939528","category":"500","category_name":"未知分类","address":"上海市黄浦区南苏州路"},{"poiid":"B2094654DB6AA0FF409B","title":"海鸥滨江观景餐厅","lon":"121.49178","lat":"31.24379","category":"91","category_name":"台湾菜","address":"虹口区黄浦路60号海鸥饭店外防汛墙上(近苏州路)"},{"poiid":"B2094655D26DA3FF489B","title":"外滩12号大楼","lon":"121.497","lat":"31.2418","category":"46","category_name":"楼宇","address":"黄浦区中山东一路12号"},{"poiid":"B2094757D16AA6FE4393","title":"海鸥坊","lon":"121.493078738","lat":"31.2429645715","category":"500","category_name":"未知分类","address":"上海陆家嘴滨江大道"},{"poiid":"B2094655D26AAAFA4692","title":"非常时髦餐厅 西餐厅 VUE Restaurant","lon":"121.492828054","lat":"31.244858793","category":"94","category_name":"西餐厅","address":"黄浦路199号上海外滩茂悦大酒店西楼30-31楼近武昌路东大名路"},{"poiid":"B2094757D068A1F44792","title":"hyatt on the bund","lon":"121.49350738","lat":"31.245241165","category":"219","category_name":"其他","address":"上海虹口区黄浦路199号"},{"poiid":"B2094654DA6FA4F94593","title":"新黄浦金融大厦","lon":"121.495","lat":"31.2443","category":"46","category_name":"楼宇","address":"黄浦区南京东路61号"},{"poiid":"B2094757D068A3F5429C","title":"香荟","lon":"121.49387","lat":"31.24487","category":"268","category_name":"自助","address":"虹口区黄浦路199号上海外滩茂悦大酒店西楼2楼(近武昌路)"},{"poiid":"B2094757D06FA3F9419B","title":"外滩70号","lon":"121.491915686","lat":"31.2439247339","category":"47","category_name":"住宅区","address":"虹口区黄浦路70号(海鸥饭店旁)"},{"poiid":"B2094757D069A3F8409A","title":"中央大厦","lon":"121.49451437013","lat":"31.24349460374","category":"46","category_name":"楼宇","address":"上海市四川中路321号"},{"poiid":"B2094654DA6FA7FD499F","title":"东方明珠游船码头","lon":"121.49693","lat":"31.24078","category":"34","category_name":"港口码头","address":"滨江大道2852号"},{"poiid":"B2094655D36CA5FC439A","title":"大名路白渡桥","lon":"121.49374","lat":"31.24626","category":"38","category_name":"公交车站","address":""},{"poiid":"B2094757D468ABF84399","title":"上海早晨1846 Astor House","lon":"121.49121013388","lat":"31.244136011901","category":"74","category_name":"江苏菜","address":"黄浦路15号浦江饭店近长治路"},{"poiid":"B2094750DB69AAFF4398","title":"全景会所","lon":"121.493553","lat":"31.244453","category":"248","category_name":"生活娱乐","address":"黄埔路108号"},{"poiid":"B2094655D26BA3FD4399","title":"新大陆中国厨房 Xindalu-China Kitchen","lon":"121.492828054","lat":"31.244858793","category":"260","category_name":"其他","address":"虹口区黄浦路199号上海外滩茂悦大酒店东楼大堂(近武昌路)"},{"poiid":"B2094757D468A4FD429C","title":"来亿锅羊蝎子火锅 虹口店","lon":"121.490562054","lat":"31.244352793","category":"86","category_name":"火锅店","address":"虹口区大名路86号(金山路口)"},{"poiid":"B2094757D06BABF44193","title":"上海大厦宴会厅","lon":"121.49019","lat":"31.24377","category":"500","category_name":"未知分类","address":"虹口区北苏州路20号上海大厦内(近吴淞路)查看地图"},{"poiid":"B2094654DA6FA5FA4499","title":"解放日报大厦","lon":"121.491","lat":"31.2418","category":"46","category_name":"楼宇","address":"铁西兴华南街与十马路交汇处"},{"poiid":"B2094750DB6EA6F8429A","title":"上海苏荷国际青年旅舍外滩店","lon":"121.494377","lat":"31.244222","category":"251","category_name":"出行住宿","address":"虹口区大名路239号(近南浔路)"},{"poiid":"B2094752D66FAAFA439A","title":"Kathleen Waitan","lon":"121.494514","lat":"31.245559","category":"247","category_name":"餐饮美食","address":"黄浦路200号"},{"poiid":"B2094757DA6AAAF54598","title":"Matto","lon":"121.4938641230534","lat":"31.23920718760844","category":"247","category_name":"餐饮美食","address":"浦东正大广场1楼"},{"poiid":"B2094750D269A3FA4792","title":"上海港国际客运码头","lon":"121.494224","lat":"31.243591","category":"250","category_name":"公园户外","address":"东大名路500号"},{"poiid":"B2094757D06BA3FD4499","title":"俄罗斯驻上海总领事馆","lon":"121.49113","lat":"31.24361","category":"179","category_name":"音乐厅","address":"虹口区黄浦路20号(黄浦路金山路)"},{"poiid":"B2094757D06FA3FE4898","title":"A.T bar","lon":"121.491054","lat":"31.245104","category":"172","category_name":"酒吧","address":"虹口区大名路68号(近黄浦路)"},{"poiid":"B2094757D068A5F54292","title":"人民英雄纪念塔","lon":"121.49044","lat":"31.24202","category":"260","category_name":"其他","address":"黄浦区中山东一路500号黄浦公园(近黄浦公园)"},{"poiid":"B2094655D268A7F5489F","title":"汉庭酒店（外滩外白渡桥店）","lon":"121.49462","lat":"31.24575","category":"216","category_name":"经济型连锁酒店","address":"上海虹口区黄浦路200号A(近外白渡桥)  "},{"poiid":"B2094757D16CA1F54792","title":"黄埔号豪华游轮","lon":"121.49297","lat":"31.24429","category":"260","category_name":"其他","address":"虹口区黄浦路108号(黄浦路扬子江路)"},{"poiid":"B2094654DA6FA4FA4999","title":"上投大厦","lon":"121.494","lat":"31.2429","category":"46","category_name":"楼宇","address":"九江路111号"},{"poiid":"B2094752D36DABFB4299","title":"Capo at Rockbund","lon":"121.491364","lat":"31.24234","category":"500","category_name":"未知分类","address":"益豐外灘源5樓"},{"poiid":"B2094757D665A4FC489B","title":"黄浦饭店","lon":"121.49260621534","lat":"31.244331714831","category":"76","category_name":"上海菜","address":"虹口区黄浦路106号"},{"poiid":"B2094757DB69A6F84493","title":"hoF bar&brasserie","lon":"121.497146","lat":"31.241518","category":"247","category_name":"餐饮美食","address":"陆家嘴环路1318号"},{"poiid":"B209475CD26DAAFC4092","title":"上海半岛酒店","lon":"121.492683","lat":"31.243392","category":"500","category_name":"未知分类","address":"上海市 中山东一路"},{"poiid":"B2094750DA6EA5F94592","title":"罗斯福","lon":"121.492683","lat":"31.243391","category":"247","category_name":"餐饮美食","address":"中山东一路27号"},{"poiid":"B2094750DB6DA0F9409A","title":"上海东方明珠267米旋转餐厅","lon":"121.4954625","lat":"31.2414666","category":"247","category_name":"餐饮美食","address":null},{"poiid":"B2094757D569A6FC409C","title":"许留山","lon":"121.491199","lat":"31.24170709","category":"95","category_name":"日本料理","address":"中山东一路外滩451"},{"poiid":"B2094655D264A2FF489F","title":"佳成大厦","lon":"121.49242753967","lat":"31.241712946161","category":"46","category_name":"楼宇","address":"上海市闵行区莲花南路1500弄"},{"poiid":"B2094655D265A0F84893","title":"新康大楼","lon":"121.493","lat":"31.2432","category":"46","category_name":"楼宇","address":"加枫路28号"},{"poiid":"B2094750D268A5F8469C","title":"厉家菜 Family Li Imperial Cuisine","lon":"121.49054295217","lat":"31.242170183861","category":"247","category_name":"餐饮美食","address":"黄浦区中山东一路500号黄浦公园1楼(北京东路口)"},{"poiid":"B2094757D16CA7F54499","title":"bund 30 bar&amp;bistro","lon":"121.492307238","lat":"31.2446602077","category":"500","category_name":"未知分类","address":"上海大名路30"},{"poiid":"B2094654DA6FABFD449E","title":"黄浦公园","lon":"121.49082","lat":"31.24142","category":"196","category_name":"公园","address":"中山东一路外滩500号"},{"poiid":"B2094654DA6FABFB409B","title":"福州大楼","lon":"121.494","lat":"31.2407","category":"46","category_name":"楼宇","address":"上海黄浦区江西中路170号(福州路口)"},{"poiid":"B2094654DA6FA7F94699","title":"五芳面馆(黄浦路店)","lon":"121.49391","lat":"31.24507","category":"68","category_name":"快餐厅","address":"虹口区黄浦路120号永利会所旁(近武昌路)"},{"poiid":"B2094757D66EABF4499E","title":"VUE PRIVATE DINNING ROOM","lon":"121.493758","lat":"31.245145","category":"500","category_name":"未知分类","address":"上海HYATT ON THE BUND"},{"poiid":"B2094654DB6AA6F8409C","title":"上海外滩茂悦大酒店","lon":"121.49345","lat":"31.24541","category":"268","category_name":"自助","address":"虹口区黄浦路199号上海外滩茂悦大酒店东楼3楼(黄浦路南浔路)"},{"poiid":"B2094654DA6FA5F8429A","title":"宏伊国际广场","lon":"121.491","lat":"31.2427","category":"46","category_name":"楼宇","address":"张杨路560号,张杨路620号"},{"poiid":"B2094654DB65A2FF469A","title":"外白渡桥","lon":"121.49018","lat":"31.24281","category":"250","category_name":"公园户外","address":"上海黄浦区大名路(苏州河上)"},{"poiid":"B209475CD564A7F84392","title":"上海滩浦东香格里拉店","lon":"121.50058","lat":"31.23634","category":"119","category_name":"商场","address":"浦东富成路33号香格里拉酒店内大堂层"},{"poiid":"B2094757D06FA2FA419C","title":"非常时髦酒吧","lon":"121.49312","lat":"31.24427","category":"260","category_name":"其他","address":"虹口区黄浦路199号上海外滩茂悦大酒店西楼32楼(近武昌路)"},{"poiid":"B2094757D06FA1F8489C","title":"浦江饭店","lon":"121.490758631","lat":"31.2440953723","category":"215","category_name":"三星级宾馆","address":"上海虹口区黄浦路15号(近北苏州路)"},{"poiid":"B2094757D06FA7F5479A","title":"海鸥饭店","lon":"121.49201","lat":"31.24348","category":"217","category_name":"旅馆招待所","address":"上海市虹口区黄浦路60号(外滩地区,近北苏州路)"},{"poiid":"B2094757D064A5FD4593","title":"外灘","lon":"121.49375073","lat":"31.240939528","category":"500","category_name":"未知分类","address":"上海市黄浦区南苏州路"},{"poiid":"B2094654DB6AA0FF409B","title":"海鸥滨江观景餐厅","lon":"121.49178","lat":"31.24379","category":"91","category_name":"台湾菜","address":"虹口区黄浦路60号海鸥饭店外防汛墙上(近苏州路)"},{"poiid":"B2094655D26DA3FF489B","title":"外滩12号大楼","lon":"121.497","lat":"31.2418","category":"46","category_name":"楼宇","address":"黄浦区中山东一路12号"},{"poiid":"B2094757D16AA6FE4393","title":"海鸥坊","lon":"121.493078738","lat":"31.2429645715","category":"500","category_name":"未知分类","address":"上海陆家嘴滨江大道"},{"poiid":"B2094655D26AAAFA4692","title":"非常时髦餐厅 西餐厅 VUE Restaurant","lon":"121.492828054","lat":"31.244858793","category":"94","category_name":"西餐厅","address":"黄浦路199号上海外滩茂悦大酒店西楼30-31楼近武昌路东大名路"},{"poiid":"B2094757D068A1F44792","title":"hyatt on the bund","lon":"121.49350738","lat":"31.245241165","category":"219","category_name":"其他","address":"上海虹口区黄浦路199号"},{"poiid":"B2094654DA6FA4F94593","title":"新黄浦金融大厦","lon":"121.495","lat":"31.2443","category":"46","category_name":"楼宇","address":"黄浦区南京东路61号"},{"poiid":"B2094757D068A3F5429C","title":"香荟","lon":"121.49387","lat":"31.24487","category":"268","category_name":"自助","address":"虹口区黄浦路199号上海外滩茂悦大酒店西楼2楼(近武昌路)"},{"poiid":"B2094757D06FA3F9419B","title":"外滩70号","lon":"121.491915686","lat":"31.2439247339","category":"47","category_name":"住宅区","address":"虹口区黄浦路70号(海鸥饭店旁)"},{"poiid":"B2094757D069A3F8409A","title":"中央大厦","lon":"121.49451437013","lat":"31.24349460374","category":"46","category_name":"楼宇","address":"上海市四川中路321号"},{"poiid":"B2094654DA6FA7FD499F","title":"东方明珠游船码头","lon":"121.49693","lat":"31.24078","category":"34","category_name":"港口码头","address":"滨江大道2852号"},{"poiid":"B2094655D36CA5FC439A","title":"大名路白渡桥","lon":"121.49374","lat":"31.24626","category":"38","category_name":"公交车站","address":""},{"poiid":"B2094757D468ABF84399","title":"上海早晨1846 Astor House","lon":"121.49121013388","lat":"31.244136011901","category":"74","category_name":"江苏菜","address":"黄浦路15号浦江饭店近长治路"},{"poiid":"B2094750DB69AAFF4398","title":"全景会所","lon":"121.493553","lat":"31.244453","category":"248","category_name":"生活娱乐","address":"黄埔路108号"},{"poiid":"B2094655D26BA3FD4399","title":"新大陆中国厨房 Xindalu-China Kitchen","lon":"121.492828054","lat":"31.244858793","category":"260","category_name":"其他","address":"虹口区黄浦路199号上海外滩茂悦大酒店东楼大堂(近武昌路)"},{"poiid":"B2094757D468A4FD429C","title":"来亿锅羊蝎子火锅 虹口店","lon":"121.490562054","lat":"31.244352793","category":"86","category_name":"火锅店","address":"虹口区大名路86号(金山路口)"},{"poiid":"B2094757D06BABF44193","title":"上海大厦宴会厅","lon":"121.49019","lat":"31.24377","category":"500","category_name":"未知分类","address":"虹口区北苏州路20号上海大厦内(近吴淞路)查看地图"},{"poiid":"B2094654DA6FA5FA4499","title":"解放日报大厦","lon":"121.491","lat":"31.2418","category":"46","category_name":"楼宇","address":"铁西兴华南街与十马路交汇处"},{"poiid":"B2094750DB6EA6F8429A","title":"上海苏荷国际青年旅舍外滩店","lon":"121.494377","lat":"31.244222","category":"251","category_name":"出行住宿","address":"虹口区大名路239号(近南浔路)"},{"poiid":"B2094752D66FAAFA439A","title":"Kathleen Waitan","lon":"121.494514","lat":"31.245559","category":"247","category_name":"餐饮美食","address":"黄浦路200号"},{"poiid":"B2094757DA6AAAF54598","title":"Matto","lon":"121.4938641230534","lat":"31.23920718760844","category":"247","category_name":"餐饮美食","address":"浦东正大广场1楼"},{"poiid":"B2094750D269A3FA4792","title":"上海港国际客运码头","lon":"121.494224","lat":"31.243591","category":"250","category_name":"公园户外","address":"东大名路500号"},{"poiid":"B2094757D06BA3FD4499","title":"俄罗斯驻上海总领事馆","lon":"121.49113","lat":"31.24361","category":"179","category_name":"音乐厅","address":"虹口区黄浦路20号(黄浦路金山路)"},{"poiid":"B2094757D06FA3FE4898","title":"A.T bar","lon":"121.491054","lat":"31.245104","category":"172","category_name":"酒吧","address":"虹口区大名路68号(近黄浦路)"},{"poiid":"B2094757D068A5F54292","title":"人民英雄纪念塔","lon":"121.49044","lat":"31.24202","category":"260","category_name":"其他","address":"黄浦区中山东一路500号黄浦公园(近黄浦公园)"},{"poiid":"B2094655D268A7F5489F","title":"汉庭酒店（外滩外白渡桥店）","lon":"121.49462","lat":"31.24575","category":"216","category_name":"经济型连锁酒店","address":"上海虹口区黄浦路200号A(近外白渡桥)  "},{"poiid":"B2094757D16CA1F54792","title":"黄埔号豪华游轮","lon":"121.49297","lat":"31.24429","category":"260","category_name":"其他","address":"虹口区黄浦路108号(黄浦路扬子江路)"},{"poiid":"B2094654DA6FA4FA4999","title":"上投大厦","lon":"121.494","lat":"31.2429","category":"46","category_name":"楼宇","address":"九江路111号"},{"poiid":"B2094752D36DABFB4299","title":"Capo at Rockbund","lon":"121.491364","lat":"31.24234","category":"500","category_name":"未知分类","address":"益豐外灘源5樓"},{"poiid":"B2094757D665A4FC489B","title":"黄浦饭店","lon":"121.49260621534","lat":"31.244331714831","category":"76","category_name":"上海菜","address":"虹口区黄浦路106号"},{"poiid":"B2094757DB69A6F84493","title":"hoF bar&brasserie","lon":"121.497146","lat":"31.241518","category":"247","category_name":"餐饮美食","address":"陆家嘴环路1318号"},{"poiid":"B209475CD26DAAFC4092","title":"上海半岛酒店","lon":"121.492683","lat":"31.243392","category":"500","category_name":"未知分类","address":"上海市 中山东一路"},{"poiid":"B2094750DA6EA5F94592","title":"罗斯福","lon":"121.492683","lat":"31.243391","category":"247","category_name":"餐饮美食","address":"中山东一路27号"},{"poiid":"B2094750DB6DA0F9409A","title":"上海东方明珠267米旋转餐厅","lon":"121.4954625","lat":"31.2414666","category":"247","category_name":"餐饮美食","address":null},{"poiid":"B2094757D569A6FC409C","title":"许留山","lon":"121.491199","lat":"31.24170709","category":"95","category_name":"日本料理","address":"中山东一路外滩451"},{"poiid":"B2094655D264A2FF489F","title":"佳成大厦","lon":"121.49242753967","lat":"31.241712946161","category":"46","category_name":"楼宇","address":"上海市闵行区莲花南路1500弄"},{"poiid":"B2094655D265A0F84893","title":"新康大楼","lon":"121.493","lat":"31.2432","category":"46","category_name":"楼宇","address":"加枫路28号"},{"poiid":"B2094750D268A5F8469C","title":"厉家菜 Family Li Imperial Cuisine","lon":"121.49054295217","lat":"31.242170183861","category":"247","category_name":"餐饮美食","address":"黄浦区中山东一路500号黄浦公园1楼(北京东路口)"},{"poiid":"B2094757D16CA7F54499","title":"bund 30 bar&amp;bistro","lon":"121.492307238","lat":"31.2446602077","category":"500","category_name":"未知分类","address":"上海大名路30"},{"poiid":"B2094654DA6FABFD449E","title":"黄浦公园","lon":"121.49082","lat":"31.24142","category":"196","category_name":"公园","address":"中山东一路外滩500号"},{"poiid":"B2094654DA6FABFB409B","title":"福州大楼","lon":"121.494","lat":"31.2407","category":"46","category_name":"楼宇","address":"上海黄浦区江西中路170号(福州路口)"},{"poiid":"B2094654DA6FA7F94699","title":"五芳面馆(黄浦路店)","lon":"121.49391","lat":"31.24507","category":"68","category_name":"快餐厅","address":"虹口区黄浦路120号永利会所旁(近武昌路)"},{"poiid":"B2094757D66EABF4499E","title":"VUE PRIVATE DINNING ROOM","lon":"121.493758","lat":"31.245145","category":"500","category_name":"未知分类","address":"上海HYATT ON THE BUND"},{"poiid":"B2094654DB6AA6F8409C","title":"上海外滩茂悦大酒店","lon":"121.49345","lat":"31.24541","category":"268","category_name":"自助","address":"虹口区黄浦路199号上海外滩茂悦大酒店东楼3楼(黄浦路南浔路)"},{"poiid":"B2094654DA6FA5F8429A","title":"宏伊国际广场","lon":"121.491","lat":"31.2427","category":"46","category_name":"楼宇","address":"张杨路560号,张杨路620号"},{"poiid":"B2094654DB65A2FF469A","title":"外白渡桥","lon":"121.49018","lat":"31.24281","category":"250","category_name":"公园户外","address":"上海黄浦区大名路(苏州河上)"},{"poiid":"B209475CD564A7F84392","title":"上海滩浦东香格里拉店","lon":"121.50058","lat":"31.23634","category":"119","category_name":"商场","address":"浦东富成路33号香格里拉酒店内大堂层"},{"poiid":"B2094757D06FA2FA419C","title":"非常时髦酒吧","lon":"121.49312","lat":"31.24427","category":"260","category_name":"其他","address":"虹口区黄浦路199号上海外滩茂悦大酒店西楼32楼(近武昌路)"},{"poiid":"B2094757D06FA1F8489C","title":"浦江饭店","lon":"121.490758631","lat":"31.2440953723","category":"215","category_name":"三星级宾馆","address":"上海虹口区黄浦路15号(近北苏州路)"},{"poiid":"B2094757D06FA7F5479A","title":"海鸥饭店","lon":"121.49201","lat":"31.24348","category":"217","category_name":"旅馆招待所","address":"上海市虹口区黄浦路60号(外滩地区,近北苏州路)"},{"poiid":"B2094757D064A5FD4593","title":"外灘","lon":"121.49375073","lat":"31.240939528","category":"500","category_name":"未知分类","address":"上海市黄浦区南苏州路"},{"poiid":"B2094654DB6AA0FF409B","title":"海鸥滨江观景餐厅","lon":"121.49178","lat":"31.24379","category":"91","category_name":"台湾菜","address":"虹口区黄浦路60号海鸥饭店外防汛墙上(近苏州路)"},{"poiid":"B2094655D26DA3FF489B","title":"外滩12号大楼","lon":"121.497","lat":"31.2418","category":"46","category_name":"楼宇","address":"黄浦区中山东一路12号"},{"poiid":"B2094757D16AA6FE4393","title":"海鸥坊","lon":"121.493078738","lat":"31.2429645715","category":"500","category_name":"未知分类","address":"上海陆家嘴滨江大道"},{"poiid":"B2094655D26AAAFA4692","title":"非常时髦餐厅 西餐厅 VUE Restaurant","lon":"121.492828054","lat":"31.244858793","category":"94","category_name":"西餐厅","address":"黄浦路199号上海外滩茂悦大酒店西楼30-31楼近武昌路东大名路"},{"poiid":"B2094757D068A1F44792","title":"hyatt on the bund","lon":"121.49350738","lat":"31.245241165","category":"219","category_name":"其他","address":"上海虹口区黄浦路199号"},{"poiid":"B2094654DA6FA4F94593","title":"新黄浦金融大厦","lon":"121.495","lat":"31.2443","category":"46","category_name":"楼宇","address":"黄浦区南京东路61号"},{"poiid":"B2094757D068A3F5429C","title":"香荟","lon":"121.49387","lat":"31.24487","category":"268","category_name":"自助","address":"虹口区黄浦路199号上海外滩茂悦大酒店西楼2楼(近武昌路)"},{"poiid":"B2094757D06FA3F9419B","title":"外滩70号","lon":"121.491915686","lat":"31.2439247339","category":"47","category_name":"住宅区","address":"虹口区黄浦路70号(海鸥饭店旁)"},{"poiid":"B2094757D069A3F8409A","title":"中央大厦","lon":"121.49451437013","lat":"31.24349460374","category":"46","category_name":"楼宇","address":"上海市四川中路321号"},{"poiid":"B2094654DA6FA7FD499F","title":"东方明珠游船码头","lon":"121.49693","lat":"31.24078","category":"34","category_name":"港口码头","address":"滨江大道2852号"},{"poiid":"B2094655D36CA5FC439A","title":"大名路白渡桥","lon":"121.49374","lat":"31.24626","category":"38","category_name":"公交车站","address":""},{"poiid":"B2094757D468ABF84399","title":"上海早晨1846 Astor House","lon":"121.49121013388","lat":"31.244136011901","category":"74","category_name":"江苏菜","address":"黄浦路15号浦江饭店近长治路"},{"poiid":"B2094750DB69AAFF4398","title":"全景会所","lon":"121.493553","lat":"31.244453","category":"248","category_name":"生活娱乐","address":"黄埔路108号"},{"poiid":"B2094655D26BA3FD4399","title":"新大陆中国厨房 Xindalu-China Kitchen","lon":"121.492828054","lat":"31.244858793","category":"260","category_name":"其他","address":"虹口区黄浦路199号上海外滩茂悦大酒店东楼大堂(近武昌路)"},{"poiid":"B2094757D468A4FD429C","title":"来亿锅羊蝎子火锅 虹口店","lon":"121.490562054","lat":"31.244352793","category":"86","category_name":"火锅店","address":"虹口区大名路86号(金山路口)"},{"poiid":"B2094757D06BABF44193","title":"上海大厦宴会厅","lon":"121.49019","lat":"31.24377","category":"500","category_name":"未知分类","address":"虹口区北苏州路20号上海大厦内(近吴淞路)查看地图"},{"poiid":"B2094654DA6FA5FA4499","title":"解放日报大厦","lon":"121.491","lat":"31.2418","category":"46","category_name":"楼宇","address":"铁西兴华南街与十马路交汇处"},{"poiid":"B2094750DB6EA6F8429A","title":"上海苏荷国际青年旅舍外滩店","lon":"121.494377","lat":"31.244222","category":"251","category_name":"出行住宿","address":"虹口区大名路239号(近南浔路)"},{"poiid":"B2094752D66FAAFA439A","title":"Kathleen Waitan","lon":"121.494514","lat":"31.245559","category":"247","category_name":"餐饮美食","address":"黄浦路200号"},{"poiid":"B2094757DA6AAAF54598","title":"Matto","lon":"121.4938641230534","lat":"31.23920718760844","category":"247","category_name":"餐饮美食","address":"浦东正大广场1楼"},{"poiid":"B2094750D269A3FA4792","title":"上海港国际客运码头","lon":"121.494224","lat":"31.243591","category":"250","category_name":"公园户外","address":"东大名路500号"},{"poiid":"B2094757D06BA3FD4499","title":"俄罗斯驻上海总领事馆","lon":"121.49113","lat":"31.24361","category":"179","category_name":"音乐厅","address":"虹口区黄浦路20号(黄浦路金山路)"},{"poiid":"B2094757D06FA3FE4898","title":"A.T bar","lon":"121.491054","lat":"31.245104","category":"172","category_name":"酒吧","address":"虹口区大名路68号(近黄浦路)"},{"poiid":"B2094757D068A5F54292","title":"人民英雄纪念塔","lon":"121.49044","lat":"31.24202","category":"260","category_name":"其他","address":"黄浦区中山东一路500号黄浦公园(近黄浦公园)"},{"poiid":"B2094655D268A7F5489F","title":"汉庭酒店（外滩外白渡桥店）","lon":"121.49462","lat":"31.24575","category":"216","category_name":"经济型连锁酒店","address":"上海虹口区黄浦路200号A(近外白渡桥)  "},{"poiid":"B2094757D16CA1F54792","title":"黄埔号豪华游轮","lon":"121.49297","lat":"31.24429","category":"260","category_name":"其他","address":"虹口区黄浦路108号(黄浦路扬子江路)"},{"poiid":"B2094654DA6FA4FA4999","title":"上投大厦","lon":"121.494","lat":"31.2429","category":"46","category_name":"楼宇","address":"九江路111号"},{"poiid":"B2094752D36DABFB4299","title":"Capo at Rockbund","lon":"121.491364","lat":"31.24234","category":"500","category_name":"未知分类","address":"益豐外灘源5樓"},{"poiid":"B2094757D665A4FC489B","title":"黄浦饭店","lon":"121.49260621534","lat":"31.244331714831","category":"76","category_name":"上海菜","address":"虹口区黄浦路106号"},{"poiid":"B2094757DB69A6F84493","title":"hoF bar&brasserie","lon":"121.497146","lat":"31.241518","category":"247","category_name":"餐饮美食","address":"陆家嘴环路1318号"},{"poiid":"B209475CD26DAAFC4092","title":"上海半岛酒店","lon":"121.492683","lat":"31.243392","category":"500","category_name":"未知分类","address":"上海市 中山东一路"},{"poiid":"B2094750DA6EA5F94592","title":"罗斯福","lon":"121.492683","lat":"31.243391","category":"247","category_name":"餐饮美食","address":"中山东一路27号"},{"poiid":"B2094750DB6DA0F9409A","title":"上海东方明珠267米旋转餐厅","lon":"121.4954625","lat":"31.2414666","category":"247","category_name":"餐饮美食","address":null},{"poiid":"B2094757D569A6FC409C","title":"许留山","lon":"121.491199","lat":"31.24170709","category":"95","category_name":"日本料理","address":"中山东一路外滩451"},{"poiid":"B2094655D264A2FF489F","title":"佳成大厦","lon":"121.49242753967","lat":"31.241712946161","category":"46","category_name":"楼宇","address":"上海市闵行区莲花南路1500弄"},{"poiid":"B2094655D265A0F84893","title":"新康大楼","lon":"121.493","lat":"31.2432","category":"46","category_name":"楼宇","address":"加枫路28号"},{"poiid":"B2094750D268A5F8469C","title":"厉家菜 Family Li Imperial Cuisine","lon":"121.49054295217","lat":"31.242170183861","category":"247","category_name":"餐饮美食","address":"黄浦区中山东一路500号黄浦公园1楼(北京东路口)"},{"poiid":"B2094757D16CA7F54499","title":"bund 30 bar&amp;bistro","lon":"121.492307238","lat":"31.2446602077","category":"500","category_name":"未知分类","address":"上海大名路30"},{"poiid":"B2094654DA6FABFD449E","title":"黄浦公园","lon":"121.49082","lat":"31.24142","category":"196","category_name":"公园","address":"中山东一路外滩500号"},{"poiid":"B2094654DA6FABFB409B","title":"福州大楼","lon":"121.494","lat":"31.2407","category":"46","category_name":"楼宇","address":"上海黄浦区江西中路170号(福州路口)"},{"poiid":"B2094654DA6FA7F94699","title":"五芳面馆(黄浦路店)","lon":"121.49391","lat":"31.24507","category":"68","category_name":"快餐厅","address":"虹口区黄浦路120号永利会所旁(近武昌路)"},{"poiid":"B2094757D66EABF4499E","title":"VUE PRIVATE DINNING ROOM","lon":"121.493758","lat":"31.245145","category":"500","category_name":"未知分类","address":"上海HYATT ON THE BUND"},{"poiid":"B2094654DB6AA6F8409C","title":"上海外滩茂悦大酒店","lon":"121.49345","lat":"31.24541","category":"268","category_name":"自助","address":"虹口区黄浦路199号上海外滩茂悦大酒店东楼3楼(黄浦路南浔路)"},{"poiid":"B2094654DA6FA5F8429A","title":"宏伊国际广场","lon":"121.491","lat":"31.2427","category":"46","category_name":"楼宇","address":"张杨路560号,张杨路620号"},{"poiid":"B2094654DB65A2FF469A","title":"外白渡桥","lon":"121.49018","lat":"31.24281","category":"250","category_name":"公园户外","address":"上海黄浦区大名路(苏州河上)"},{"poiid":"B209475CD564A7F84392","title":"上海滩浦东香格里拉店","lon":"121.50058","lat":"31.23634","category":"119","category_name":"商场","address":"浦东富成路33号香格里拉酒店内大堂层"},{"poiid":"B2094757D06FA2FA419C","title":"非常时髦酒吧","lon":"121.49312","lat":"31.24427","category":"260","category_name":"其他","address":"虹口区黄浦路199号上海外滩茂悦大酒店西楼32楼(近武昌路)"},{"poiid":"B2094757D06FA1F8489C","title":"浦江饭店","lon":"121.490758631","lat":"31.2440953723","category":"215","category_name":"三星级宾馆","address":"上海虹口区黄浦路15号(近北苏州路)"},{"poiid":"B2094757D06FA7F5479A","title":"海鸥饭店","lon":"121.49201","lat":"31.24348","category":"217","category_name":"旅馆招待所","address":"上海市虹口区黄浦路60号(外滩地区,近北苏州路)"},{"poiid":"B2094757D064A5FD4593","title":"外灘","lon":"121.49375073","lat":"31.240939528","category":"500","category_name":"未知分类","address":"上海市黄浦区南苏州路"},{"poiid":"B2094654DB6AA0FF409B","title":"海鸥滨江观景餐厅","lon":"121.49178","lat":"31.24379","category":"91","category_name":"台湾菜","address":"虹口区黄浦路60号海鸥饭店外防汛墙上(近苏州路)"},{"poiid":"B2094655D26DA3FF489B","title":"外滩12号大楼","lon":"121.497","lat":"31.2418","category":"46","category_name":"楼宇","address":"黄浦区中山东一路12号"},{"poiid":"B2094757D16AA6FE4393","title":"海鸥坊","lon":"121.493078738","lat":"31.2429645715","category":"500","category_name":"未知分类","address":"上海陆家嘴滨江大道"},{"poiid":"B2094655D26AAAFA4692","title":"非常时髦餐厅 西餐厅 VUE Restaurant","lon":"121.492828054","lat":"31.244858793","category":"94","category_name":"西餐厅","address":"黄浦路199号上海外滩茂悦大酒店西楼30-31楼近武昌路东大名路"},{"poiid":"B2094757D068A1F44792","title":"hyatt on the bund","lon":"121.49350738","lat":"31.245241165","category":"219","category_name":"其他","address":"上海虹口区黄浦路199号"},{"poiid":"B2094654DA6FA4F94593","title":"新黄浦金融大厦","lon":"121.495","lat":"31.2443","category":"46","category_name":"楼宇","address":"黄浦区南京东路61号"},{"poiid":"B2094757D068A3F5429C","title":"香荟","lon":"121.49387","lat":"31.24487","category":"268","category_name":"自助","address":"虹口区黄浦路199号上海外滩茂悦大酒店西楼2楼(近武昌路)"},{"poiid":"B2094757D06FA3F9419B","title":"外滩70号","lon":"121.491915686","lat":"31.2439247339","category":"47","category_name":"住宅区","address":"虹口区黄浦路70号(海鸥饭店旁)"},{"poiid":"B2094757D069A3F8409A","title":"中央大厦","lon":"121.49451437013","lat":"31.24349460374","category":"46","category_name":"楼宇","address":"上海市四川中路321号"},{"poiid":"B2094654DA6FA7FD499F","title":"东方明珠游船码头","lon":"121.49693","lat":"31.24078","category":"34","category_name":"港口码头","address":"滨江大道2852号"},{"poiid":"B2094655D36CA5FC439A","title":"大名路白渡桥","lon":"121.49374","lat":"31.24626","category":"38","category_name":"公交车站","address":""},{"poiid":"B2094757D468ABF84399","title":"上海早晨1846 Astor House","lon":"121.49121013388","lat":"31.244136011901","category":"74","category_name":"江苏菜","address":"黄浦路15号浦江饭店近长治路"},{"poiid":"B2094750DB69AAFF4398","title":"全景会所","lon":"121.493553","lat":"31.244453","category":"248","category_name":"生活娱乐","address":"黄埔路108号"},{"poiid":"B2094655D26BA3FD4399","title":"新大陆中国厨房 Xindalu-China Kitchen","lon":"121.492828054","lat":"31.244858793","category":"260","category_name":"其他","address":"虹口区黄浦路199号上海外滩茂悦大酒店东楼大堂(近武昌路)"},{"poiid":"B2094757D468A4FD429C","title":"来亿锅羊蝎子火锅 虹口店","lon":"121.490562054","lat":"31.244352793","category":"86","category_name":"火锅店","address":"虹口区大名路86号(金山路口)"},{"poiid":"B2094757D06BABF44193","title":"上海大厦宴会厅","lon":"121.49019","lat":"31.24377","category":"500","category_name":"未知分类","address":"虹口区北苏州路20号上海大厦内(近吴淞路)查看地图"},{"poiid":"B2094654DA6FA5FA4499","title":"解放日报大厦","lon":"121.491","lat":"31.2418","category":"46","category_name":"楼宇","address":"铁西兴华南街与十马路交汇处"},{"poiid":"B2094750DB6EA6F8429A","title":"上海苏荷国际青年旅舍外滩店","lon":"121.494377","lat":"31.244222","category":"251","category_name":"出行住宿","address":"虹口区大名路239号(近南浔路)"},{"poiid":"B2094752D66FAAFA439A","title":"Kathleen Waitan","lon":"121.494514","lat":"31.245559","category":"247","category_name":"餐饮美食","address":"黄浦路200号"},{"poiid":"B2094757DA6AAAF54598","title":"Matto","lon":"121.4938641230534","lat":"31.23920718760844","category":"247","category_name":"餐饮美食","address":"浦东正大广场1楼"},{"poiid":"B2094750D269A3FA4792","title":"上海港国际客运码头","lon":"121.494224","lat":"31.243591","category":"250","category_name":"公园户外","address":"东大名路500号"},{"poiid":"B2094757D06BA3FD4499","title":"俄罗斯驻上海总领事馆","lon":"121.49113","lat":"31.24361","category":"179","category_name":"音乐厅","address":"虹口区黄浦路20号(黄浦路金山路)"},{"poiid":"B2094757D06FA3FE4898","title":"A.T bar","lon":"121.491054","lat":"31.245104","category":"172","category_name":"酒吧","address":"虹口区大名路68号(近黄浦路)"},{"poiid":"B2094757D068A5F54292","title":"人民英雄纪念塔","lon":"121.49044","lat":"31.24202","category":"260","category_name":"其他","address":"黄浦区中山东一路500号黄浦公园(近黄浦公园)"},{"poiid":"B2094655D268A7F5489F","title":"汉庭酒店（外滩外白渡桥店）","lon":"121.49462","lat":"31.24575","category":"216","category_name":"经济型连锁酒店","address":"上海虹口区黄浦路200号A(近外白渡桥)  "},{"poiid":"B2094757D16CA1F54792","title":"黄埔号豪华游轮","lon":"121.49297","lat":"31.24429","category":"260","category_name":"其他","address":"虹口区黄浦路108号(黄浦路扬子江路)"},{"poiid":"B2094654DA6FA4FA4999","title":"上投大厦","lon":"121.494","lat":"31.2429","category":"46","category_name":"楼宇","address":"九江路111号"},{"poiid":"B2094752D36DABFB4299","title":"Capo at Rockbund","lon":"121.491364","lat":"31.24234","category":"500","category_name":"未知分类","address":"益豐外灘源5樓"},{"poiid":"B2094757D665A4FC489B","title":"黄浦饭店","lon":"121.49260621534","lat":"31.244331714831","category":"76","category_name":"上海菜","address":"虹口区黄浦路106号"},{"poiid":"B2094757DB69A6F84493","title":"hoF bar&brasserie","lon":"121.497146","lat":"31.241518","category":"247","category_name":"餐饮美食","address":"陆家嘴环路1318号"},{"poiid":"B209475CD26DAAFC4092","title":"上海半岛酒店","lon":"121.492683","lat":"31.243392","category":"500","category_name":"未知分类","address":"上海市 中山东一路"},{"poiid":"B2094750DA6EA5F94592","title":"罗斯福","lon":"121.492683","lat":"31.243391","category":"247","category_name":"餐饮美食","address":"中山东一路27号"},{"poiid":"B2094750DB6DA0F9409A","title":"上海东方明珠267米旋转餐厅","lon":"121.4954625","lat":"31.2414666","category":"247","category_name":"餐饮美食","address":null},{"poiid":"B2094757D569A6FC409C","title":"许留山","lon":"121.491199","lat":"31.24170709","category":"95","category_name":"日本料理","address":"中山东一路外滩451"},{"poiid":"B2094655D264A2FF489F","title":"佳成大厦","lon":"121.49242753967","lat":"31.241712946161","category":"46","category_name":"楼宇","address":"上海市闵行区莲花南路1500弄"},{"poiid":"B2094655D265A0F84893","title":"新康大楼","lon":"121.493","lat":"31.2432","category":"46","category_name":"楼宇","address":"加枫路28号"},{"poiid":"B2094750D268A5F8469C","title":"厉家菜 Family Li Imperial Cuisine","lon":"121.49054295217","lat":"31.242170183861","category":"247","category_name":"餐饮美食","address":"黄浦区中山东一路500号黄浦公园1楼(北京东路口)"},{"poiid":"B2094757D16CA7F54499","title":"bund 30 bar&amp;bistro","lon":"121.492307238","lat":"31.2446602077","category":"500","category_name":"未知分类","address":"上海大名路30"},{"poiid":"B2094654DA6FABFD449E","title":"黄浦公园","lon":"121.49082","lat":"31.24142","category":"196","category_name":"公园","address":"中山东一路外滩500号"},{"poiid":"B2094654DA6FABFB409B","title":"福州大楼","lon":"121.494","lat":"31.2407","category":"46","category_name":"楼宇","address":"上海黄浦区江西中路170号(福州路口)"},{"poiid":"B2094654DA6FA7F94699","title":"五芳面馆(黄浦路店)","lon":"121.49391","lat":"31.24507","category":"68","category_name":"快餐厅","address":"虹口区黄浦路120号永利会所旁(近武昌路)"},{"poiid":"B2094757D66EABF4499E","title":"VUE PRIVATE DINNING ROOM","lon":"121.493758","lat":"31.245145","category":"500","category_name":"未知分类","address":"上海HYATT ON THE BUND"}]