[{"poiid":"B2094757D06FA5FA429D","title":"大众书局(福州路店)","lon":"121.479629","lat":"31.232693","category":"125","category_name":"书店","address":"上海黄浦区福州路579号"},{"poiid":"B2094757DA6AAAF54993","title":"国金中心","lon":"121.479226","lat":"31.231752","category":"500","category_name":"未知分类","address":"阿迪达斯国金中心IFC店"},{"poiid":"B2094654DB69AAF44993","title":"玛格萝妮比萨屋 黄浦店 Magaroni Pizza Studio","lon":"121.47804993281","lat":"31.230551668126","category":"94","category_name":"西餐厅","address":"黄浦区北海路247号(近云南中路)"},{"poiid":"B2094753D76FAAFA449C","title":"上海滩国泰旗舰店","lon":"121.466011","lat":"31.216125","category":"249","category_name":"购物服务","address":"淮海中路868号"},{"poiid":"B209475CD564A7F84292","title":"上海滩新天地店","lon":"121.47463","lat":"31.22164","category":"119","category_name":"商场","address":"\"太仓路181弄新天地北里15号\r\n\""},{"poiid":"B209475CD564A7F8439E","title":"上海滩中信泰富店","lon":"121.45602","lat":"31.22851","category":"119","category_name":"商场","address":"\"南京西路1168号中信泰富广场，店铺号221.\r\n\""},{"poiid":"B209475CD564A7F84392","title":"上海滩浦东香格里拉店","lon":"121.50058","lat":"31.23634","category":"119","category_name":"商场","address":"浦东富成路33号香格里拉酒店内大堂层"},{"poiid":"B2094655D268ABFE4092","title":"上海市黄浦区图书馆","lon":"121.47858","lat":"31.23227","category":"181","category_name":"图书馆","address":"黄浦区福州路655号(近浙江中路)"},{"poiid":"B2094757D06FA0FF499C","title":"格致中学","lon":"121.479625692","lat":"31.2302255614","category":"55","category_name":"中学","address":"黄浦区广西北路66号(近宁海路)"},{"poiid":"B2094757D469A0FF4299","title":"吴记老锅底麻辣火锅 福州路店","lon":"121.479629","lat":"31.232693","category":"86","category_name":"火锅店","address":"黄浦区福州路567号2楼"},{"poiid":"B2094757D06FA7F84598","title":"老半斋","lon":"121.47951","lat":"31.23253","category":"74","category_name":"江苏菜","address":"黄浦区福州路600号(近浙江中路)"},{"poiid":"B2094757D06FA1FA4598","title":"港泰风","lon":"121.47934155","lat":"31.231404665","category":"72","category_name":"广东菜","address":"黄浦区云南中路88号海通证券大厦内(北海路口)"},{"poiid":"B2094654DB65AAF4439A","title":"麦当劳(福州路店)","lon":"121.47985","lat":"31.23279","category":"68","category_name":"快餐厅","address":"黄浦区福州路577号(近浙江中路)"},{"poiid":"B2094757D06FA2FC4092","title":"东海商业中心","lon":"121.47998046","lat":"31.23007965","category":"46","category_name":"楼宇","address":"黄浦区延安东路588号(近湖北路)"},{"poiid":"B2094750D76FA1FB459C","title":"曼泰泰国料理","lon":"121.479","lat":"31.2325","category":"99","category_name":"泰国／越南菜品餐厅","address":"黄浦区福州路平望街46号(近来福士广场)"},{"poiid":"B2094757D06FA1F94092","title":"禾绿回转寿司(福州路店)","lon":"121.47806","lat":"31.23211","category":"95","category_name":"日本料理","address":"黄浦区福州路666号金陵海欣大厦2楼AB12号铺(近云南中路)"},{"poiid":"B2094757D06FA4F9429A","title":"金陵大厦","lon":"121.48","lat":"31.2303","category":"46","category_name":"楼宇","address":"浦东区崂山东路410号"},{"poiid":"B2094757D76EAAFC499F","title":"星巴克 东海店 Starbucks Cafe","lon":"121.48056286686","lat":"31.230016324823","category":"260","category_name":"其他","address":"黄浦区延安东路588号(延安东路永寿路)"},{"poiid":"B2094757D06FA1FB4493","title":"上海人家(黄浦店)","lon":"121.47932","lat":"31.2297","category":"247","category_name":"餐饮美食","address":"上海黄浦区云南中路41号(近北海路)"},{"poiid":"B2094757D06FA7FE4499","title":"咖喱工房(黄浦店)","lon":"121.47993","lat":"31.23268","category":"95","category_name":"日本料理","address":"黄浦区福州路578号(近浙江中路)"},{"poiid":"B2094757D16DA6F5449E","title":"MINT Club","lon":"121.481183738","lat":"31.2311953207","category":"500","category_name":"未知分类","address":"上海ShanghaiHuangpuHankou Rd"},{"poiid":"B2094757D06FA5FC4899","title":"肯德基 KFC (福州店)","lon":"121.48030369","lat":"31.232434559","category":"68","category_name":"快餐厅","address":"黄浦区福州路556号(近浙江中路)"},{"poiid":"B2094753D26BAAF8429A","title":"茉莉花小剧场","lon":"121.478252","lat":"31.230385","category":"500","category_name":"未知分类","address":"上海市 黄浦区北海路251号"},{"poiid":"B2094750D36BA2FA429A","title":"3Q脆皮鸡排","lon":"121.47808","lat":"31.23214","category":"68","category_name":"快餐厅","address":"黄浦区福州路675号(近云南路)"},{"poiid":"B2094757D069A7F9479A","title":"王宝和酒家(黄浦店)","lon":"121.47954","lat":"31.23227","category":"257","category_name":"中餐厅","address":"黄浦区福州路603号(近浙江中路)"},{"poiid":"B2094757D16DA6FB439D","title":"石锅鱼","lon":"121.48094073","lat":"31.231237321","category":"71","category_name":"四川菜","address":"黄浦区海口路3号(近浙江中路)"},{"poiid":"B2094757D56DA1FE419D","title":"爱天空ANTIQUE","lon":"121.47962","lat":"31.2327","category":"112","category_name":"糕饼店","address":"黄浦区福州路579号大众书局1楼(近浙江中路)"},{"poiid":"B2094757D065AAF44899","title":"上海博物館","lon":"121.480607","lat":"31.229964","category":"500","category_name":"未知分类","address":"上海延安路高架下"},{"poiid":"B2094757D068A0FF489A","title":"格致中学羽毛球馆","lon":"121.480135656","lat":"31.2308425552","category":"253","category_name":"校园生活","address":"上海黄浦区北海路150号5楼(广西路口)"},{"poiid":"B2094757DB69A4FF459B","title":"彩虹寿司","lon":"121.4797","lat":"31.23241","category":"95","category_name":"日本料理","address":"黄浦区浙江中路142号(近福州路)"},{"poiid":"B2094757D06AA3FA419A","title":"大壶春(浙江中路店)","lon":"121.48031","lat":"31.23183","category":"68","category_name":"快餐厅","address":"黄浦区浙江中路117号(近广东路)"},{"poiid":"B209475DD468ABFD4392","title":"锦逸","lon":"121.479331","lat":"31.232456","category":"247","category_name":"餐饮美食","address":"上海市 黄浦区南京东路819号百联世贸国际广场6楼"},{"poiid":"B2094654DB6BABFE4099","title":"24K国际连锁酒店(上海福州路店)","lon":"121.48027","lat":"31.23289","category":"216","category_name":"经济型连锁酒店","address":"上海市黄浦区福州路555号（近上海书城）"},{"poiid":"B2094757D06BA4FA4798","title":"浙江电影院","lon":"121.479819","lat":"31.232088","category":"178","category_name":"电影院","address":"黄浦区浙江中路123号(近广东路)"},{"poiid":"B2094750DB68A6F9439A","title":"宜芝多 Ichido ICAFE","lon":"121.478561","lat":"31.231027","category":"247","category_name":"餐饮美食","address":"黄浦区人民广场地铁站内大三角2楼"},{"poiid":"B2094757D06FAAFA4393","title":"格致中学游泳池","lon":"121.47967","lat":"31.23032","category":"253","category_name":"校园生活","address":"黄浦区广西北路66号(近宁海路)"},{"poiid":"B209475CDA69ABF8439D","title":"SPAO","lon":"121.480155","lat":"31.230993","category":"500","category_name":"未知分类","address":"上海市 西藏中路336号华旭大厦"},{"poiid":"B2094757D06AA2F54192","title":"C'est la vie Cafe","lon":"121.47859","lat":"31.23101","category":"65","category_name":"咖啡厅","address":"黄浦区广东路689号海通证券大厦1楼(广东路云南中路)"},{"poiid":"B2094757D068ABF5479C","title":"唛歌","lon":"121.48142373","lat":"31.231328323","category":"500","category_name":"未知分类","address":"上海市黄浦区汉口路"},{"poiid":"B2094757D464A0F9439D","title":"穆斯林饮食店","lon":"121.48068990699","lat":"31.231494503294","category":"90","category_name":"清真餐馆","address":"黄浦区浙江中路70号甲(北海路广东路间)"},{"poiid":"B2094757D06FA5F8459F","title":"金太子形象设计(福州路店)","lon":"121.47812","lat":"31.23199","category":"149","category_name":"洗浴推拿场所","address":"黄浦区福州路737号(近西藏中路)"},{"poiid":"B2094757D068A0F8459C","title":"舒蔡记 云南中路店","lon":"121.47790785213","lat":"31.231293066672","category":"68","category_name":"快餐厅","address":"黄浦区云南中路142-146号(福州路广东路之间)"},{"poiid":"B2094757D568A5F44093","title":"黄浦区图书馆大厦","lon":"121.4785894","lat":"31.23227259","category":"46","category_name":"楼宇","address":"福州路655号"},{"poiid":"B2094654DA6FABF4409D","title":"法国驻上海总领事馆","lon":"121.47889","lat":"31.23075","category":"252","category_name":"楼宇机构","address":"上海广东路689号海通证券大楼2楼"},{"poiid":"B2094757D06EAAFC459B","title":"老董牛肉面(福州路店)","lon":"121.47999969","lat":"31.23258456","category":"68","category_name":"快餐厅","address":"黄浦区福州路572号(近浙江中路)"},{"poiid":"B2094750DA69A2FD489F","title":"李记冰室","lon":"121.47943292324828","lat":"31.232910281419063","category":"113","category_name":"冷饮店","address":"上海市黄浦区浙江中路167号(近福州路)"},{"poiid":"B2094757D465A7F5429F","title":"帕米尔餐厅","lon":"121.47959668257","lat":"31.2328465894","category":"90","category_name":"清真餐馆","address":"黄浦区浙江中路205号(近福州路)"},{"poiid":"B209475CDB6FA0FB4799","title":"锦逸本帮菜","lon":"121.480018","lat":"31.232809","category":"247","category_name":"餐饮美食","address":"上海市 百联又一城"},{"poiid":"B2094757D068A7F4449E","title":"金太子形象设计(浙江中路店)","lon":"121.47977","lat":"31.23258","category":"148","category_name":"美容美发店","address":"黄浦区浙江中路156号(近福州路)"},{"poiid":"B2094752DB64A2FC439D","title":"上海市，黄浦区，外滩","lon":"121.479615","lat":"31.232997","category":"500","category_name":"未知分类","address":"上海市 上海市，黄浦区，外滩"},{"poiid":"B2094757D06FA5FA429D","title":"大众书局(福州路店)","lon":"121.479629","lat":"31.232693","category":"125","category_name":"书店","address":"上海黄浦区福州路579号"},{"poiid":"B2094757DA6AAAF54993","title":"国金中心","lon":"121.479226","lat":"31.231752","category":"500","category_name":"未知分类","address":"阿迪达斯国金中心IFC店"},{"poiid":"B2094654DB69AAF44993","title":"玛格萝妮比萨屋 黄浦店 Magaroni Pizza Studio","lon":"121.47804993281","lat":"31.230551668126","category":"94","category_name":"西餐厅","address":"黄浦区北海路247号(近云南中路)"},{"poiid":"B2094753D76FAAFA449C","title":"上海滩国泰旗舰店","lon":"121.466011","lat":"31.216125","category":"249","category_name":"购物服务","address":"淮海中路868号"},{"poiid":"B209475CD564A7F84292","title":"上海滩新天地店","lon":"121.47463","lat":"31.22164","category":"119","category_name":"商场","address":"\"太仓路181弄新天地北里15号\r\n\""},{"poiid":"B209475CD564A7F8439E","title":"上海滩中信泰富店","lon":"121.45602","lat":"31.22851","category":"119","category_name":"商场","address":"\"南京西路1168号中信泰富广场，店铺号221.\r\n\""},{"poiid":"B209475CD564A7F84392","title":"上海滩浦东香格里拉店","lon":"121.50058","lat":"31.23634","category":"119","category_name":"商场","address":"浦东富成路33号香格里拉酒店内大堂层"},{"poiid":"B2094655D268ABFE4092","title":"上海市黄浦区图书馆","lon":"121.47858","lat":"31.23227","category":"181","category_name":"图书馆","address":"黄浦区福州路655号(近浙江中路)"},{"poiid":"B2094757D06FA0FF499C","title":"格致中学","lon":"121.479625692","lat":"31.2302255614","category":"55","category_name":"中学","address":"黄浦区广西北路66号(近宁海路)"},{"poiid":"B2094757D469A0FF4299","title":"吴记老锅底麻辣火锅 福州路店","lon":"121.479629","lat":"31.232693","category":"86","category_name":"火锅店","address":"黄浦区福州路567号2楼"},{"poiid":"B2094757D06FA7F84598","title":"老半斋","lon":"121.47951","lat":"31.23253","category":"74","category_name":"江苏菜","address":"黄浦区福州路600号(近浙江中路)"},{"poiid":"B2094757D06FA1FA4598","title":"港泰风","lon":"121.47934155","lat":"31.231404665","category":"72","category_name":"广东菜","address":"黄浦区云南中路88号海通证券大厦内(北海路口)"},{"poiid":"B2094654DB65AAF4439A","title":"麦当劳(福州路店)","lon":"121.47985","lat":"31.23279","category":"68","category_name":"快餐厅","address":"黄浦区福州路577号(近浙江中路)"},{"poiid":"B2094757D06FA2FC4092","title":"东海商业中心","lon":"121.47998046","lat":"31.23007965","category":"46","category_name":"楼宇","address":"黄浦区延安东路588号(近湖北路)"},{"poiid":"B2094750D76FA1FB459C","title":"曼泰泰国料理","lon":"121.479","lat":"31.2325","category":"99","category_name":"泰国／越南菜品餐厅","address":"黄浦区福州路平望街46号(近来福士广场)"},{"poiid":"B2094757D06FA1F94092","title":"禾绿回转寿司(福州路店)","lon":"121.47806","lat":"31.23211","category":"95","category_name":"日本料理","address":"黄浦区福州路666号金陵海欣大厦2楼AB12号铺(近云南中路)"},{"poiid":"B2094757D06FA4F9429A","title":"金陵大厦","lon":"121.48","lat":"31.2303","category":"46","category_name":"楼宇","address":"浦东区崂山东路410号"},{"poiid":"B2094757D76EAAFC499F","title":"星巴克 东海店 Starbucks Cafe","lon":"121.48056286686","lat":"31.230016324823","category":"260","category_name":"其他","address":"黄浦区延安东路588号(延安东路永寿路)"},{"poiid":"B2094757D06FA1FB4493","title":"上海人家(黄浦店)","lon":"121.47932","lat":"31.2297","category":"247","category_name":"餐饮美食","address":"上海黄浦区云南中路41号(近北海路)"},{"poiid":"B2094757D06FA7FE4499","title":"咖喱工房(黄浦店)","lon":"121.47993","lat":"31.23268","category":"95","category_name":"日本料理","address":"黄浦区福州路578号(近浙江中路)"},{"poiid":"B2094757D16DA6F5449E","title":"MINT Club","lon":"121.481183738","lat":"31.2311953207","category":"500","category_name":"未知分类","address":"上海ShanghaiHuangpuHankou Rd"},{"poiid":"B2094757D06FA5FC4899","title":"肯德基 KFC (福州店)","lon":"121.48030369","lat":"31.232434559","category":"68","category_name":"快餐厅","address":"黄浦区福州路556号(近浙江中路)"},{"poiid":"B2094753D26BAAF8429A","title":"茉莉花小剧场","lon":"121.478252","lat":"31.230385","category":"500","category_name":"未知分类","address":"上海市 黄浦区北海路251号"},{"poiid":"B2094750D36BA2FA429A","title":"3Q脆皮鸡排","lon":"121.47808","lat":"31.23214","category":"68","category_name":"快餐厅","address":"黄浦区福州路675号(近云南路)"},{"poiid":"B2094757D069A7F9479A","title":"王宝和酒家(黄浦店)","lon":"121.47954","lat":"31.23227","category":"257","category_name":"中餐厅","address":"黄浦区福州路603号(近浙江中路)"},{"poiid":"B2094757D16DA6FB439D","title":"石锅鱼","lon":"121.48094073","lat":"31.231237321","category":"71","category_name":"四川菜","address":"黄浦区海口路3号(近浙江中路)"},{"poiid":"B2094757D56DA1FE419D","title":"爱天空ANTIQUE","lon":"121.47962","lat":"31.2327","category":"112","category_name":"糕饼店","address":"黄浦区福州路579号大众书局1楼(近浙江中路)"},{"poiid":"B2094757D065AAF44899","title":"上海博物館","lon":"121.480607","lat":"31.229964","category":"500","category_name":"未知分类","address":"上海延安路高架下"},{"poiid":"B2094757D068A0FF489A","title":"格致中学羽毛球馆","lon":"121.480135656","lat":"31.2308425552","category":"253","category_name":"校园生活","address":"上海黄浦区北海路150号5楼(广西路口)"},{"poiid":"B2094757DB69A4FF459B","title":"彩虹寿司","lon":"121.4797","lat":"31.23241","category":"95","category_name":"日本料理","address":"黄浦区浙江中路142号(近福州路)"},{"poiid":"B2094757D06AA3FA419A","title":"大壶春(浙江中路店)","lon":"121.48031","lat":"31.23183","category":"68","category_name":"快餐厅","address":"黄浦区浙江中路117号(近广东路)"},{"poiid":"B209475DD468ABFD4392","title":"锦逸","lon":"121.479331","lat":"31.232456","category":"247","category_name":"餐饮美食","address":"上海市 黄浦区南京东路819号百联世贸国际广场6楼"},{"poiid":"B2094654DB6BABFE4099","title":"24K国际连锁酒店(上海福州路店)","lon":"121.48027","lat":"31.23289","category":"216","category_name":"经济型连锁酒店","address":"上海市黄浦区福州路555号（近上海书城）"},{"poiid":"B2094757D06BA4FA4798","title":"浙江电影院","lon":"121.479819","lat":"31.232088","category":"178","category_name":"电影院","address":"黄浦区浙江中路123号(近广东路)"},{"poiid":"B2094750DB68A6F9439A","title":"宜芝多 Ichido ICAFE","lon":"121.478561","lat":"31.231027","category":"247","category_name":"餐饮美食","address":"黄浦区人民广场地铁站内大三角2楼"},{"poiid":"B2094757D06FAAFA4393","title":"格致中学游泳池","lon":"121.47967","lat":"31.23032","category":"253","category_name":"校园生活","address":"黄浦区广西北路66号(近宁海路)"},{"poiid":"B209475CDA69ABF8439D","title":"SPAO","lon":"121.480155","lat":"31.230993","category":"500","category_name":"未知分类","address":"上海市 西藏中路336号华旭大厦"},{"poiid":"B2094757D06AA2F54192","title":"C'est la vie Cafe","lon":"121.47859","lat":"31.23101","category":"65","category_name":"咖啡厅","address":"黄浦区广东路689号海通证券大厦1楼(广东路云南中路)"},{"poiid":"B2094757D068ABF5479C","title":"唛歌","lon":"121.48142373","lat":"31.231328323","category":"500","category_name":"未知分类","address":"上海市黄浦区汉口路"},{"poiid":"B2094757D464A0F9439D","title":"穆斯林饮食店","lon":"121.48068990699","lat":"31.231494503294","category":"90","category_name":"清真餐馆","address":"黄浦区浙江中路70号甲(北海路广东路间)"},{"poiid":"B2094757D06FA5F8459F","title":"金太子形象设计(福州路店)","lon":"121.47812","lat":"31.23199","category":"149","category_name":"洗浴推拿场所","address":"黄浦区福州路737号(近西藏中路)"},{"poiid":"B2094757D068A0F8459C","title":"舒蔡记 云南中路店","lon":"121.47790785213","lat":"31.231293066672","category":"68","category_name":"快餐厅","address":"黄浦区云南中路142-146号(福州路广东路之间)"},{"poiid":"B2094757D568A5F44093","title":"黄浦区图书馆大厦","lon":"121.4785894","lat":"31.23227259","category":"46","category_name":"楼宇","address":"福州路655号"},{"poiid":"B2094654DA6FABF4409D","title":"法国驻上海总领事馆","lon":"121.47889","lat":"31.23075","category":"252","category_name":"楼宇机构","address":"上海广东路689号海通证券大楼2楼"},{"poiid":"B2094757D06EAAFC459B","title":"老董牛肉面(福州路店)","lon":"121.47999969","lat":"31.23258456","category":"68","category_name":"快餐厅","address":"黄浦区福州路572号(近浙江中路)"},{"poiid":"B2094750DA69A2FD489F","title":"李记冰室","lon":"121.47943292324828","lat":"31.232910281419063","category":"113","category_name":"冷饮店","address":"上海市黄浦区浙江中路167号(近福州路)"},{"poiid":"B2094757D465A7F5429F","title":"帕米尔餐厅","lon":"121.47959668257","lat":"31.2328465894","category":"90","category_name":"清真餐馆","address":"黄浦区浙江中路205号(近福州路)"},{"poiid":"B209475CDB6FA0FB4799","title":"锦逸本帮菜","lon":"121.480018","lat":"31.232809","category":"247","category_name":"餐饮美食","address":"上海市 百联又一城"},{"poiid":"B2094757D068A7F4449E","title":"金太子形象设计(浙江中路店)","lon":"121.47977","lat":"31.23258","category":"148","category_name":"美容美发店","address":"黄浦区浙江中路156号(近福州路)"},{"poiid":"B2094752DB64A2FC439D","title":"上海市，黄浦区，外滩","lon":"121.479615","lat":"31.232997","category":"500","category_name":"未知分类","address":"上海市 上海市，黄浦区，外滩"},{"poiid":"B2094757D06FA5FA429D","title":"大众书局(福州路店)","lon":"121.479629","lat":"31.232693","category":"125","category_name":"书店","address":"上海黄浦区福州路579号"},{"poiid":"B2094757DA6AAAF54993","title":"国金中心","lon":"121.479226","lat":"31.231752","category":"500","category_name":"未知分类","address":"阿迪达斯国金中心IFC店"},{"poiid":"B2094654DB69AAF44993","title":"玛格萝妮比萨屋 黄浦店 Magaroni Pizza Studio","lon":"121.47804993281","lat":"31.230551668126","category":"94","category_name":"西餐厅","address":"黄浦区北海路247号(近云南中路)"},{"poiid":"B2094753D76FAAFA449C","title":"上海滩国泰旗舰店","lon":"121.466011","lat":"31.216125","category":"249","category_name":"购物服务","address":"淮海中路868号"},{"poiid":"B209475CD564A7F84292","title":"上海滩新天地店","lon":"121.47463","lat":"31.22164","category":"119","category_name":"商场","address":"\"太仓路181弄新天地北里15号\r\n\""},{"poiid":"B209475CD564A7F8439E","title":"上海滩中信泰富店","lon":"121.45602","lat":"31.22851","category":"119","category_name":"商场","address":"\"南京西路1168号中信泰富广场，店铺号221.\r\n\""},{"poiid":"B209475CD564A7F84392","title":"上海滩浦东香格里拉店","lon":"121.50058","lat":"31.23634","category":"119","category_name":"商场","address":"浦东富成路33号香格里拉酒店内大堂层"},{"poiid":"B2094655D268ABFE4092","title":"上海市黄浦区图书馆","lon":"121.47858","lat":"31.23227","category":"181","category_name":"图书馆","address":"黄浦区福州路655号(近浙江中路)"},{"poiid":"B2094757D06FA0FF499C","title":"格致中学","lon":"121.479625692","lat":"31.2302255614","category":"55","category_name":"中学","address":"黄浦区广西北路66号(近宁海路)"},{"poiid":"B2094757D469A0FF4299","title":"吴记老锅底麻辣火锅 福州路店","lon":"121.479629","lat":"31.232693","category":"86","category_name":"火锅店","address":"黄浦区福州路567号2楼"},{"poiid":"B2094757D06FA7F84598","title":"老半斋","lon":"121.47951","lat":"31.23253","category":"74","category_name":"江苏菜","address":"黄浦区福州路600号(近浙江中路)"},{"poiid":"B2094757D06FA1FA4598","title":"港泰风","lon":"121.47934155","lat":"31.231404665","category":"72","category_name":"广东菜","address":"黄浦区云南中路88号海通证券大厦内(北海路口)"},{"poiid":"B2094654DB65AAF4439A","title":"麦当劳(福州路店)","lon":"121.47985","lat":"31.23279","category":"68","category_name":"快餐厅","address":"黄浦区福州路577号(近浙江中路)"},{"poiid":"B2094757D06FA2FC4092","title":"东海商业中心","lon":"121.47998046","lat":"31.23007965","category":"46","category_name":"楼宇","address":"黄浦区延安东路588号(近湖北路)"},{"poiid":"B2094750D76FA1FB459C","title":"曼泰泰国料理","lon":"121.479","lat":"31.2325","category":"99","category_name":"泰国／越南菜品餐厅","address":"黄浦区福州路平望街46号(近来福士广场)"},{"poiid":"B2094757D06FA1F94092","title":"禾绿回转寿司(福州路店)","lon":"121.47806","lat":"31.23211","category":"95","category_name":"日本料理","address":"黄浦区福州路666号金陵海欣大厦2楼AB12号铺(近云南中路)"},{"poiid":"B2094757D06FA4F9429A","title":"金陵大厦","lon":"121.48","lat":"31.2303","category":"46","category_name":"楼宇","address":"浦东区崂山东路410号"},{"poiid":"B2094757D76EAAFC499F","title":"星巴克 东海店 Starbucks Cafe","lon":"121.48056286686","lat":"31.230016324823","category":"260","category_name":"其他","address":"黄浦区延安东路588号(延安东路永寿路)"},{"poiid":"B2094757D06FA1FB4493","title":"上海人家(黄浦店)","lon":"121.47932","lat":"31.2297","category":"247","category_name":"餐饮美食","address":"上海黄浦区云南中路41号(近北海路)"},{"poiid":"B2094757D06FA7FE4499","title":"咖喱工房(黄浦店)","lon":"121.47993","lat":"31.23268","category":"95","category_name":"日本料理","address":"黄浦区福州路578号(近浙江中路)"},{"poiid":"B2094757D16DA6F5449E","title":"MINT Club","lon":"121.481183738","lat":"31.2311953207","category":"500","category_name":"未知分类","address":"上海ShanghaiHuangpuHankou Rd"},{"poiid":"B2094757D06FA5FC4899","title":"肯德基 KFC (福州店)","lon":"121.48030369","lat":"31.232434559","category":"68","category_name":"快餐厅","address":"黄浦区福州路556号(近浙江中路)"},{"poiid":"B2094753D26BAAF8429A","title":"茉莉花小剧场","lon":"121.478252","lat":"31.230385","category":"500","category_name":"未知分类","address":"上海市 黄浦区北海路251号"},{"poiid":"B2094750D36BA2FA429A","title":"3Q脆皮鸡排","lon":"121.47808","lat":"31.23214","category":"68","category_name":"快餐厅","address":"黄浦区福州路675号(近云南路)"},{"poiid":"B2094757D069A7F9479A","title":"王宝和酒家(黄浦店)","lon":"121.47954","lat":"31.23227","category":"257","category_name":"中餐厅","address":"黄浦区福州路603号(近浙江中路)"},{"poiid":"B2094757D16DA6FB439D","title":"石锅鱼","lon":"121.48094073","lat":"31.231237321","category":"71","category_name":"四川菜","address":"黄浦区海口路3号(近浙江中路)"},{"poiid":"B2094757D56DA1FE419D","title":"爱天空ANTIQUE","lon":"121.47962","lat":"31.2327","category":"112","category_name":"糕饼店","address":"黄浦区福州路579号大众书局1楼(近浙江中路)"},{"poiid":"B2094757D065AAF44899","title":"上海博物館","lon":"121.480607","lat":"31.229964","category":"500","category_name":"未知分类","address":"上海延安路高架下"},{"poiid":"B2094757D068A0FF489A","title":"格致中学羽毛球馆","lon":"121.480135656","lat":"31.2308425552","category":"253","category_name":"校园生活","address":"上海黄浦区北海路150号5楼(广西路口)"},{"poiid":"B2094757DB69A4FF459B","title":"彩虹寿司","lon":"121.4797","lat":"31.23241","category":"95","category_name":"日本料理","address":"黄浦区浙江中路142号(近福州路)"},{"poiid":"B2094757D06AA3FA419A","title":"大壶春(浙江中路店)","lon":"121.48031","lat":"31.23183","category":"68","category_name":"快餐厅","address":"黄浦区浙江中路117号(近广东路)"},{"poiid":"B209475DD468ABFD4392","title":"锦逸","lon":"121.479331","lat":"31.232456","category":"247","category_name":"餐饮美食","address":"上海市 黄浦区南京东路819号百联世贸国际广场6楼"},{"poiid":"B2094654DB6BABFE4099","title":"24K国际连锁酒店(上海福州路店)","lon":"121.48027","lat":"31.23289","category":"216","category_name":"经济型连锁酒店","address":"上海市黄浦区福州路555号（近上海书城）"},{"poiid":"B2094757D06BA4FA4798","title":"浙江电影院","lon":"121.479819","lat":"31.232088","category":"178","category_name":"电影院","address":"黄浦区浙江中路123号(近广东路)"},{"poiid":"B2094750DB68A6F9439A","title":"宜芝多 Ichido ICAFE","lon":"121.478561","lat":"31.231027","category":"247","category_name":"餐饮美食","address":"黄浦区人民广场地铁站内大三角2楼"},{"poiid":"B2094757D06FAAFA4393","title":"格致中学游泳池","lon":"121.47967","lat":"31.23032","category":"253","category_name":"校园生活","address":"黄浦区广西北路66号(近宁海路)"},{"poiid":"B209475CDA69ABF8439D","title":"SPAO","lon":"121.480155","lat":"31.230993","category":"500","category_name":"未知分类","address":"上海市 西藏中路336号华旭大厦"},{"poiid":"B2094757D06AA2F54192","title":"C'est la vie Cafe","lon":"121.47859","lat":"31.23101","category":"65","category_name":"咖啡厅","address":"黄浦区广东路689号海通证券大厦1楼(广东路云南中路)"},{"poiid":"B2094757D068ABF5479C","title":"唛歌","lon":"121.48142373","lat":"31.231328323","category":"500","category_name":"未知分类","address":"上海市黄浦区汉口路"},{"poiid":"B2094757D464A0F9439D","title":"穆斯林饮食店","lon":"121.48068990699","lat":"31.231494503294","category":"90","category_name":"清真餐馆","address":"黄浦区浙江中路70号甲(北海路广东路间)"},{"poiid":"B2094757D06FA5F8459F","title":"金太子形象设计(福州路店)","lon":"121.47812","lat":"31.23199","category":"149","category_name":"洗浴推拿场所","address":"黄浦区福州路737号(近西藏中路)"},{"poiid":"B2094757D068A0F8459C","title":"舒蔡记 云南中路店","lon":"121.47790785213","lat":"31.231293066672","category":"68","category_name":"快餐厅","address":"黄浦区云南中路142-146号(福州路广东路之间)"},{"poiid":"B2094757D568A5F44093","title":"黄浦区图书馆大厦","lon":"121.4785894","lat":"31.23227259","category":"46","category_name":"楼宇","address":"福州路655号"},{"poiid":"B2094654DA6FABF4409D","title":"法国驻上海总领事馆","lon":"121.47889","lat":"31.23075","category":"252","category_name":"楼宇机构","address":"上海广东路689号海通证券大楼2楼"},{"poiid":"B2094757D06EAAFC459B","title":"老董牛肉面(福州路店)","lon":"121.47999969","lat":"31.23258456","category":"68","category_name":"快餐厅","address":"黄浦区福州路572号(近浙江中路)"},{"poiid":"B2094750DA69A2FD489F","title":"李记冰室","lon":"121.47943292324828","lat":"31.232910281419063","category":"113","category_name":"冷饮店","address":"上海市黄浦区浙江中路167号(近福州路)"},{"poiid":"B2094757D465A7F5429F","title":"帕米尔餐厅","lon":"121.47959668257","lat":"31.2328465894","category":"90","category_name":"清真餐馆","address":"黄浦区浙江中路205号(近福州路)"},{"poiid":"B209475CDB6FA0FB4799","title":"锦逸本帮菜","lon":"121.480018","lat":"31.232809","category":"247","category_name":"餐饮美食","address":"上海市 百联又一城"},{"poiid":"B2094757D068A7F4449E","title":"金太子形象设计(浙江中路店)","lon":"121.47977","lat":"31.23258","category":"148","category_name":"美容美发店","address":"黄浦区浙江中路156号(近福州路)"},{"poiid":"B2094752DB64A2FC439D","title":"上海市，黄浦区，外滩","lon":"121.479615","lat":"31.232997","category":"500","category_name":"未知分类","address":"上海市 上海市，黄浦区，外滩"},{"poiid":"B2094757D06FA5FA429D","title":"大众书局(福州路店)","lon":"121.479629","lat":"31.232693","category":"125","category_name":"书店","address":"上海黄浦区福州路579号"},{"poiid":"B2094757DA6AAAF54993","title":"国金中心","lon":"121.479226","lat":"31.231752","category":"500","category_name":"未知分类","address":"阿迪达斯国金中心IFC店"},{"poiid":"B2094654DB69AAF44993","title":"玛格萝妮比萨屋 黄浦店 Magaroni Pizza Studio","lon":"121.47804993281","lat":"31.230551668126","category":"94","category_name":"西餐厅","address":"黄浦区北海路247号(近云南中路)"},{"poiid":"B2094753D76FAAFA449C","title":"上海滩国泰旗舰店","lon":"121.466011","lat":"31.216125","category":"249","category_name":"购物服务","address":"淮海中路868号"},{"poiid":"B209475CD564A7F84292","title":"上海滩新天地店","lon":"121.47463","lat":"31.22164","category":"119","category_name":"商场","address":"\"太仓路181弄新天地北里15号\r\n\""},{"poiid":"B209475CD564A7F8439E","title":"上海滩中信泰富店","lon":"121.45602","lat":"31.22851","category":"119","category_name":"商场","address":"\"南京西路1168号中信泰富广场，店铺号221.\r\n\""},{"poiid":"B209475CD564A7F84392","title":"上海滩浦东香格里拉店","lon":"121.50058","lat":"31.23634","category":"119","category_name":"商场","address":"浦东富成路33号香格里拉酒店内大堂层"},{"poiid":"B2094655D268ABFE4092","title":"上海市黄浦区图书馆","lon":"121.47858","lat":"31.23227","category":"181","category_name":"图书馆","address":"黄浦区福州路655号(近浙江中路)"},{"poiid":"B2094757D06FA0FF499C","title":"格致中学","lon":"121.479625692","lat":"31.2302255614","category":"55","category_name":"中学","address":"黄浦区广西北路66号(近宁海路)"},{"poiid":"B2094757D469A0FF4299","title":"吴记老锅底麻辣火锅 福州路店","lon":"121.479629","lat":"31.232693","category":"86","category_name":"火锅店","address":"黄浦区福州路567号2楼"},{"poiid":"B2094757D06FA7F84598","title":"老半斋","lon":"121.47951","lat":"31.23253","category":"74","category_name":"江苏菜","address":"黄浦区福州路600号(近浙江中路)"},{"poiid":"B2094757D06FA1FA4598","title":"港泰风","lon":"121.47934155","lat":"31.231404665","category":"72","category_name":"广东菜","address":"黄浦区云南中路88号海通证券大厦内(北海路口)"},{"poiid":"B2094654DB65AAF4439A","title":"麦当劳(福州路店)","lon":"121.47985","lat":"31.23279","category":"68","category_name":"快餐厅","address":"黄浦区福州路577号(近浙江中路)"},{"poiid":"B2094757D06FA2FC4092","title":"东海商业中心","lon":"121.47998046","lat":"31.23007965","category":"46","category_name":"楼宇","address":"黄浦区延安东路588号(近湖北路)"},{"poiid":"B2094750D76FA1FB459C","title":"曼泰泰国料理","lon":"121.479","lat":"31.2325","category":"99","category_name":"泰国／越南菜品餐厅","address":"黄浦区福州路平望街46号(近来福士广场)"},{"poiid":"B2094757D06FA1F94092","title":"禾绿回转寿司(福州路店)","lon":"121.47806","lat":"31.23211","category":"95","category_name":"日本料理","address":"黄浦区福州路666号金陵海欣大厦2楼AB12号铺(近云南中路)"},{"poiid":"B2094757D06FA4F9429A","title":"金陵大厦","lon":"121.48","lat":"31.2303","category":"46","category_name":"楼宇","address":"浦东区崂山东路410号"},{"poiid":"B2094757D76EAAFC499F","title":"星巴克 东海店 Starbucks Cafe","lon":"121.48056286686","lat":"31.230016324823","category":"260","category_name":"其他","address":"黄浦区延安东路588号(延安东路永寿路)"},{"poiid":"B2094757D06FA1FB4493","title":"上海人家(黄浦店)","lon":"121.47932","lat":"31.2297","category":"247","category_name":"餐饮美食","address":"上海黄浦区云南中路41号(近北海路)"},{"poiid":"B2094757D06FA7FE4499","title":"咖喱工房(黄浦店)","lon":"121.47993","lat":"31.23268","category":"95","category_name":"日本料理","address":"黄浦区福州路578号(近浙江中路)"},{"poiid":"B2094757D16DA6F5449E","title":"MINT Club","lon":"121.481183738","lat":"31.2311953207","category":"500","category_name":"未知分类","address":"上海ShanghaiHuangpuHankou Rd"},{"poiid":"B2094757D06FA5FC4899","title":"肯德基 KFC (福州店)","lon":"121.48030369","lat":"31.232434559","category":"68","category_name":"快餐厅","address":"黄浦区福州路556号(近浙江中路)"},{"poiid":"B2094753D26BAAF8429A","title":"茉莉花小剧场","lon":"121.478252","lat":"31.230385","category":"500","category_name":"未知分类","address":"上海市 黄浦区北海路251号"},{"poiid":"B2094750D36BA2FA429A","title":"3Q脆皮鸡排","lon":"121.47808","lat":"31.23214","category":"68","category_name":"快餐厅","address":"黄浦区福州路675号(近云南路)"},{"poiid":"B2094757D069A7F9479A","title":"王宝和酒家(黄浦店)","lon":"121.47954","lat":"31.23227","category":"257","category_name":"中餐厅","address":"黄浦区福州路603号(近浙江中路)"},{"poiid":"B2094757D16DA6FB439D","title":"石锅鱼","lon":"121.48094073","lat":"31.231237321","category":"71","category_name":"四川菜","address":"黄浦区海口路3号(近浙江中路)"},{"poiid":"B2094757D56DA1FE419D","title":"爱天空ANTIQUE","lon":"121.47962","lat":"31.2327","category":"112","category_name":"糕饼店","address":"黄浦区福州路579号大众书局1楼(近浙江中路)"},{"poiid":"B2094757D065AAF44899","title":"上海博物館","lon":"121.480607","lat":"31.229964","category":"500","category_name":"未知分类","address":"上海延安路高架下"},{"poiid":"B2094757D068A0FF489A","title":"格致中学羽毛球馆","lon":"121.480135656","lat":"31.2308425552","category":"253","category_name":"校园生活","address":"上海黄浦区北海路150号5楼(广西路口)"},{"poiid":"B2094757DB69A4FF459B","title":"彩虹寿司","lon":"121.4797","lat":"31.23241","category":"95","category_name":"日本料理","address":"黄浦区浙江中路142号(近福州路)"},{"poiid":"B2094757D06AA3FA419A","title":"大壶春(浙江中路店)","lon":"121.48031","lat":"31.23183","category":"68","category_name":"快餐厅","address":"黄浦区浙江中路117号(近广东路)"},{"poiid":"B209475DD468ABFD4392","title":"锦逸","lon":"121.479331","lat":"31.232456","category":"247","category_name":"餐饮美食","address":"上海市 黄浦区南京东路819号百联世贸国际广场6楼"},{"poiid":"B2094654DB6BABFE4099","title":"24K国际连锁酒店(上海福州路店)","lon":"121.48027","lat":"31.23289","category":"216","category_name":"经济型连锁酒店","address":"上海市黄浦区福州路555号（近上海书城）"},{"poiid":"B2094757D06BA4FA4798","title":"浙江电影院","lon":"121.479819","lat":"31.232088","category":"178","category_name":"电影院","address":"黄浦区浙江中路123号(近广东路)"},{"poiid":"B2094750DB68A6F9439A","title":"宜芝多 Ichido ICAFE","lon":"121.478561","lat":"31.231027","category":"247","category_name":"餐饮美食","address":"黄浦区人民广场地铁站内大三角2楼"},{"poiid":"B2094757D06FAAFA4393","title":"格致中学游泳池","lon":"121.47967","lat":"31.23032","category":"253","category_name":"校园生活","address":"黄浦区广西北路66号(近宁海路)"},{"poiid":"B209475CDA69ABF8439D","title":"SPAO","lon":"121.480155","lat":"31.230993","category":"500","category_name":"未知分类","address":"上海市 西藏中路336号华旭大厦"},{"poiid":"B2094757D06AA2F54192","title":"C'est la vie Cafe","lon":"121.47859","lat":"31.23101","category":"65","category_name":"咖啡厅","address":"黄浦区广东路689号海通证券大厦1楼(广东路云南中路)"},{"poiid":"B2094757D068ABF5479C","title":"唛歌","lon":"121.48142373","lat":"31.231328323","category":"500","category_name":"未知分类","address":"上海市黄浦区汉口路"},{"poiid":"B2094757D464A0F9439D","title":"穆斯林饮食店","lon":"121.48068990699","lat":"31.231494503294","category":"90","category_name":"清真餐馆","address":"黄浦区浙江中路70号甲(北海路广东路间)"},{"poiid":"B2094757D06FA5F8459F","title":"金太子形象设计(福州路店)","lon":"121.47812","lat":"31.23199","category":"149","category_name":"洗浴推拿场所","address":"黄浦区福州路737号(近西藏中路)"},{"poiid":"B2094757D068A0F8459C","title":"舒蔡记 云南中路店","lon":"121.47790785213","lat":"31.231293066672","category":"68","category_name":"快餐厅","address":"黄浦区云南中路142-146号(福州路广东路之间)"},{"poiid":"B2094757D568A5F44093","title":"黄浦区图书馆大厦","lon":"121.4785894","lat":"31.23227259","category":"46","category_name":"楼宇","address":"福州路655号"},{"poiid":"B2094654DA6FABF4409D","title":"法国驻上海总领事馆","lon":"121.47889","lat":"31.23075","category":"252","category_name":"楼宇机构","address":"上海广东路689号海通证券大楼2楼"},{"poiid":"B2094757D06EAAFC459B","title":"老董牛肉面(福州路店)","lon":"121.47999969","lat":"31.23258456","category":"68","category_name":"快餐厅","address":"黄浦区福州路572号(近浙江中路)"},{"poiid":"B2094750DA69A2FD489F","title":"李记冰室","lon":"121.47943292324828","lat":"31.232910281419063","category":"113","category_name":"冷饮店","address":"上海市黄浦区浙江中路167号(近福州路)"},{"poiid":"B2094757D465A7F5429F","title":"帕米尔餐厅","lon":"121.47959668257","lat":"31.2328465894","category":"90","category_name":"清真餐馆","address":"黄浦区浙江中路205号(近福州路)"},{"poiid":"B209475CDB6FA0FB4799","title":"锦逸本帮菜","lon":"121.480018","lat":"31.232809","category":"247","category_name":"餐饮美食","address":"上海市 百联又一城"},{"poiid":"B2094757D068A7F4449E","title":"金太子形象设计(浙江中路店)","lon":"121.47977","lat":"31.23258","category":"148","category_name":"美容美发店","address":"黄浦区浙江中路156号(近福州路)"},{"poiid":"B2094752DB64A2FC439D","title":"上海市，黄浦区，外滩","lon":"121.479615","lat":"31.232997","category":"500","category_name":"未知分类","address":"上海市 上海市，黄浦区，外滩"},{"poiid":"B2094757D06FA5FA429D","title":"大众书局(福州路店)","lon":"121.479629","lat":"31.232693","category":"125","category_name":"书店","address":"上海黄浦区福州路579号"},{"poiid":"B2094757DA6AAAF54993","title":"国金中心","lon":"121.479226","lat":"31.231752","category":"500","category_name":"未知分类","address":"阿迪达斯国金中心IFC店"},{"poiid":"B2094654DB69AAF44993","title":"玛格萝妮比萨屋 黄浦店 Magaroni Pizza Studio","lon":"121.47804993281","lat":"31.230551668126","category":"94","category_name":"西餐厅","address":"黄浦区北海路247号(近云南中路)"},{"poiid":"B2094753D76FAAFA449C","title":"上海滩国泰旗舰店","lon":"121.466011","lat":"31.216125","category":"249","category_name":"购物服务","address":"淮海中路868号"},{"poiid":"B209475CD564A7F84292","title":"上海滩新天地店","lon":"121.47463","lat":"31.22164","category":"119","category_name":"商场","address":"\"太仓路181弄新天地北里15号\r\n\""},{"poiid":"B209475CD564A7F8439E","title":"上海滩中信泰富店","lon":"121.45602","lat":"31.22851","category":"119","category_name":"商场","address":"\"南京西路1168号中信泰富广场，店铺号221.\r\n\""},{"poiid":"B209475CD564A7F84392","title":"上海滩浦东香格里拉店","lon":"121.50058","lat":"31.23634","category":"119","category_name":"商场","address":"浦东富成路33号香格里拉酒店内大堂层"},{"poiid":"B2094655D268ABFE4092","title":"上海市黄浦区图书馆","lon":"121.47858","lat":"31.23227","category":"181","category_name":"图书馆","address":"黄浦区福州路655号(近浙江中路)"},{"poiid":"B2094757D06FA0FF499C","title":"格致中学","lon":"121.479625692","lat":"31.2302255614","category":"55","category_name":"中学","address":"黄浦区广西北路66号(近宁海路)"},{"poiid":"B2094757D469A0FF4299","title":"吴记老锅底麻辣火锅 福州路店","lon":"121.479629","lat":"31.232693","category":"86","category_name":"火锅店","address":"黄浦区福州路567号2楼"},{"poiid":"B2094757D06FA7F84598","title":"老半斋","lon":"121.47951","lat":"31.23253","category":"74","category_name":"江苏菜","address":"黄浦区福州路600号(近浙江中路)"},{"poiid":"B2094757D06FA1FA4598","title":"港泰风","lon":"121.47934155","lat":"31.231404665","category":"72","category_name":"广东菜","address":"黄浦区云南中路88号海通证券大厦内(北海路口)"},{"poiid":"B2094654DB65AAF4439A","title":"麦当劳(福州路店)","lon":"121.47985","lat":"31.23279","category":"68","category_name":"快餐厅","address":"黄浦区福州路577号(近浙江中路)"},{"poiid":"B2094757D06FA2FC4092","title":"东海商业中心","lon":"121.47998046","lat":"31.23007965","category":"46","category_name":"楼宇","address":"黄浦区延安东路588号(近湖北路)"},{"poiid":"B2094750D76FA1FB459C","title":"曼泰泰国料理","lon":"121.479","lat":"31.2325","category":"99","category_name":"泰国／越南菜品餐厅","address":"黄浦区福州路平望街46号(近来福士广场)"},{"poiid":"B2094757D06FA1F94092","title":"禾绿回转寿司(福州路店)","lon":"121.47806","lat":"31.23211","category":"95","category_name":"日本料理","address":"黄浦区福州路666号金陵海欣大厦2楼AB12号铺(近云南中路)"},{"poiid":"B2094757D06FA4F9429A","title":"金陵大厦","lon":"121.48","lat":"31.2303","category":"46","category_name":"楼宇","address":"浦东区崂山东路410号"},{"poiid":"B2094757D76EAAFC499F","title":"星巴克 东海店 Starbucks Cafe","lon":"121.48056286686","lat":"31.230016324823","category":"260","category_name":"其他","address":"黄浦区延安东路588号(延安东路永寿路)"},{"poiid":"B2094757D06FA1FB4493","title":"上海人家(黄浦店)","lon":"121.47932","lat":"31.2297","category":"247","category_name":"餐饮美食","address":"上海黄浦区云南中路41号(近北海路)"},{"poiid":"B2094757D06FA7FE4499","title":"咖喱工房(黄浦店)","lon":"121.47993","lat":"31.23268","category":"95","category_name":"日本料理","address":"黄浦区福州路578号(近浙江中路)"},{"poiid":"B2094757D16DA6F5449E","title":"MINT Club","lon":"121.481183738","lat":"31.2311953207","category":"500","category_name":"未知分类","address":"上海ShanghaiHuangpuHankou Rd"},{"poiid":"B2094757D06FA5FC4899","title":"肯德基 KFC (福州店)","lon":"121.48030369","lat":"31.232434559","category":"68","category_name":"快餐厅","address":"黄浦区福州路556号(近浙江中路)"},{"poiid":"B2094753D26BAAF8429A","title":"茉莉花小剧场","lon":"121.478252","lat":"31.230385","category":"500","category_name":"未知分类","address":"上海市 黄浦区北海路251号"},{"poiid":"B2094750D36BA2FA429A","title":"3Q脆皮鸡排","lon":"121.47808","lat":"31.23214","category":"68","category_name":"快餐厅","address":"黄浦区福州路675号(近云南路)"},{"poiid":"B2094757D069A7F9479A","title":"王宝和酒家(黄浦店)","lon":"121.47954","lat":"31.23227","category":"257","category_name":"中餐厅","address":"黄浦区福州路603号(近浙江中路)"},{"poiid":"B2094757D16DA6FB439D","title":"石锅鱼","lon":"121.48094073","lat":"31.231237321","category":"71","category_name":"四川菜","address":"黄浦区海口路3号(近浙江中路)"},{"poiid":"B2094757D56DA1FE419D","title":"爱天空ANTIQUE","lon":"121.47962","lat":"31.2327","category":"112","category_name":"糕饼店","address":"黄浦区福州路579号大众书局1楼(近浙江中路)"},{"poiid":"B2094757D065AAF44899","title":"上海博物館","lon":"121.480607","lat":"31.229964","category":"500","category_name":"未知分类","address":"上海延安路高架下"},{"poiid":"B2094757D068A0FF489A","title":"格致中学羽毛球馆","lon":"121.480135656","lat":"31.2308425552","category":"253","category_name":"校园生活","address":"上海黄浦区北海路150号5楼(广西路口)"},{"poiid":"B2094757DB69A4FF459B","title":"彩虹寿司","lon":"121.4797","lat":"31.23241","category":"95","category_name":"日本料理","address":"黄浦区浙江中路142号(近福州路)"},{"poiid":"B2094757D06AA3FA419A","title":"大壶春(浙江中路店)","lon":"121.48031","lat":"31.23183","category":"68","category_name":"快餐厅","address":"黄浦区浙江中路117号(近广东路)"},{"poiid":"B209475DD468ABFD4392","title":"锦逸","lon":"121.479331","lat":"31.232456","category":"247","category_name":"餐饮美食","address":"上海市 黄浦区南京东路819号百联世贸国际广场6楼"},{"poiid":"B2094654DB6BABFE4099","title":"24K国际连锁酒店(上海福州路店)","lon":"121.48027","lat":"31.23289","category":"216","category_name":"经济型连锁酒店","address":"上海市黄浦区福州路555号（近上海书城）"},{"poiid":"B2094757D06BA4FA4798","title":"浙江电影院","lon":"121.479819","lat":"31.232088","category":"178","category_name":"电影院","address":"黄浦区浙江中路123号(近广东路)"},{"poiid":"B2094750DB68A6F9439A","title":"宜芝多 Ichido ICAFE","lon":"121.478561","lat":"31.231027","category":"247","category_name":"餐饮美食","address":"黄浦区人民广场地铁站内大三角2楼"},{"poiid":"B2094757D06FAAFA4393","title":"格致中学游泳池","lon":"121.47967","lat":"31.23032","category":"253","category_name":"校园生活","address":"黄浦区广西北路66号(近宁海路)"},{"poiid":"B209475CDA69ABF8439D","title":"SPAO","lon":"121.480155","lat":"31.230993","category":"500","category_name":"未知分类","address":"上海市 西藏中路336号华旭大厦"},{"poiid":"B2094757D06AA2F54192","title":"C'est la vie Cafe","lon":"121.47859","lat":"31.23101","category":"65","category_name":"咖啡厅","address":"黄浦区广东路689号海通证券大厦1楼(广东路云南中路)"},{"poiid":"B2094757D068ABF5479C","title":"唛歌","lon":"121.48142373","lat":"31.231328323","category":"500","category_name":"未知分类","address":"上海市黄浦区汉口路"},{"poiid":"B2094757D464A0F9439D","title":"穆斯林饮食店","lon":"121.48068990699","lat":"31.231494503294","category":"90","category_name":"清真餐馆","address":"黄浦区浙江中路70号甲(北海路广东路间)"},{"poiid":"B2094757D06FA5F8459F","title":"金太子形象设计(福州路店)","lon":"121.47812","lat":"31.23199","category":"149","category_name":"洗浴推拿场所","address":"黄浦区福州路737号(近西藏中路)"},{"poiid":"B2094757D068A0F8459C","title":"舒蔡记 云南中路店","lon":"121.47790785213","lat":"31.231293066672","category":"68","category_name":"快餐厅","address":"黄浦区云南中路142-146号(福州路广东路之间)"},{"poiid":"B2094757D568A5F44093","title":"黄浦区图书馆大厦","lon":"121.4785894","lat":"31.23227259","category":"46","category_name":"楼宇","address":"福州路655号"},{"poiid":"B2094654DA6FABF4409D","title":"法国驻上海总领事馆","lon":"121.47889","lat":"31.23075","category":"252","category_name":"楼宇机构","address":"上海广东路689号海通证券大楼2楼"},{"poiid":"B2094757D06EAAFC459B","title":"老董牛肉面(福州路店)","lon":"121.47999969","lat":"31.23258456","category":"68","category_name":"快餐厅","address":"黄浦区福州路572号(近浙江中路)"},{"poiid":"B2094750DA69A2FD489F","title":"李记冰室","lon":"121.47943292324828","lat":"31.232910281419063","category":"113","category_name":"冷饮店","address":"上海市黄浦区浙江中路167号(近福州路)"},{"poiid":"B2094757D465A7F5429F","title":"帕米尔餐厅","lon":"121.47959668257","lat":"31.2328465894","category":"90","category_name":"清真餐馆","address":"黄浦区浙江中路205号(近福州路)"},{"poiid":"B209475CDB6FA0FB4799","title":"锦逸本帮菜","lon":"121.480018","lat":"31.232809","category":"247","category_name":"餐饮美食","address":"上海市 百联又一城"},{"poiid":"B2094757D068A7F4449E","title":"金太子形象设计(浙江中路店)","lon":"121.47977","lat":"31.23258","category":"148","category_name":"美容美发店","address":"黄浦区浙江中路156号(近福州路)"},{"poiid":"B2094752DB64A2FC439D","title":"上海市，黄浦区，外滩","lon":"121.479615","lat":"31.232997","category":"500","category_name":"未知分类","address":"上海市 上海市，黄浦区，外滩"}]