[{"poiid":"B2094655D26EA2FB4099","title":"迪美购物中心","lon":"121.48","lat":"31.2347","category":"119","category_name":"商场","address":"黄浦区人民大道221号(近武胜路)"},{"poiid":"B2094654DB69A0F5489A","title":"港丽餐厅 来福士店 Charme Restaurant","lon":"121.476518054","lat":"31.232010793","category":"247","category_name":"餐饮美食","address":"黄浦区西藏中路268号来福士广场6楼(近福州路)"},{"poiid":"B2094654DA6FABF5409D","title":"避风塘 西藏中路店","lon":"121.476926","lat":"31.23122","category":"257","category_name":"中餐厅","address":"黄浦区西藏中路180号高盛大厦3楼(汕头路西藏中路)"},{"poiid":"B2094753D76FAAFA449C","title":"上海滩国泰旗舰店","lon":"121.466011","lat":"31.216125","category":"249","category_name":"购物服务","address":"淮海中路868号"},{"poiid":"B209475CD564A7F84292","title":"上海滩新天地店","lon":"121.47463","lat":"31.22164","category":"119","category_name":"商场","address":"\"太仓路181弄新天地北里15号\r\n\""},{"poiid":"B209475CD564A7F8439E","title":"上海滩中信泰富店","lon":"121.45602","lat":"31.22851","category":"119","category_name":"商场","address":"\"南京西路1168号中信泰富广场，店铺号221.\r\n\""},{"poiid":"B209475CD564A7F84392","title":"上海滩浦东香格里拉店","lon":"121.50058","lat":"31.23634","category":"119","category_name":"商场","address":"浦东富成路33号香格里拉酒店内大堂层"},{"poiid":"B2094757D164A3FE419C","title":"和民居食屋(来福士店)","lon":"121.475060138","lat":"31.2311963207","category":"95","category_name":"日本料理","address":"黄浦区西藏中路268号来福士广场6楼(近福州路)"},{"poiid":"B2094757D06EAAFB449D","title":"PANKOO釜山料理(来福士店)","lon":"121.47708","lat":"31.23167","category":"96","category_name":"韩国料理","address":"上海黄浦区西藏中路268号来福士广场6楼(近福州路)  "},{"poiid":"B2094654DA68A2FD429F","title":"香港名店街","lon":"121.47592","lat":"31.23021","category":"116","category_name":"特色商业街","address":"人民大道9号出口"},{"poiid":"B2094757D06AA7F44299","title":"来福仕","lon":"121.476086738","lat":"31.2312433217","category":"249","category_name":"购物服务","address":"上海市黄浦区南京西路"},{"poiid":"B2094757D06FA3FB489D","title":"上海大剧院-小剧场(Shanghai Grand Theatre - Studio Theatre)","lon":"121.47614288","lat":"31.230970382","category":"179","category_name":"音乐厅","address":"黄浦区人民大道300号大剧院3楼(近黄陂南路)"},{"poiid":"B2094757D06AA3F5449E","title":"望湘园(人民广场店)","lon":"121.477115","lat":"31.231177","category":"77","category_name":"湖南菜","address":"黄浦区西藏中路180号高盛商厦6楼(近福州路)"},{"poiid":"B2094757D06FA7FA499B","title":"Hollister(来福士店)","lon":"121.476501755","lat":"31.2318755549","category":"141","category_name":"服装鞋帽皮具店","address":"黄浦区西藏中路268号来福士广场3楼(近福州路)"},{"poiid":"B2094757D06FAAFA439A","title":"食之秘","lon":"121.47627473","lat":"31.231751332","category":"500","category_name":"未知分类","address":"上海市黄浦区南京西路"},{"poiid":"B2094750D364A3FB449A","title":"煲宫","lon":"121.47697418785","lat":"31.231121211065","category":"95","category_name":"日本料理","address":"黄浦区汕头路60号(近西藏中路)"},{"poiid":"B2094757D06FA2F5499F","title":"上海城市规划展示馆","lon":"121.47540396","lat":"31.231402831","category":"260","category_name":"其他","address":"上海黄浦区人民大道100号(近西藏中路)"},{"poiid":"B2094757D06FA0F8449B","title":"STAYREAL(来福士店)","lon":"121.476795695","lat":"31.2313505699","category":"637","category_name":"房地产类公司","address":"黄浦区西藏中路268号来福士4楼4-21号(近福州路)"},{"poiid":"B2094757D06FA2F94599","title":"棒约翰比萨(来福士店)","lon":"121.47697","lat":"31.23178","category":"94","category_name":"西餐厅","address":"黄浦区西藏中路268号来福士广场B1楼(近福州路)"},{"poiid":"B2094757D06FA2FE449C","title":"巴贝拉(人民广场店)","lon":"121.47746","lat":"31.23099","category":"94","category_name":"西餐厅","address":"黄浦区西藏中路180号高盛大厦5楼(近汕头路)"},{"poiid":"B2094757D06FA3FF439E","title":"大食代(来福士店)","lon":"121.47716","lat":"31.23173","category":"68","category_name":"快餐厅","address":"黄浦区西藏中路268号来福士广场6楼(近福州路)"},{"poiid":"B2094654DA6FABFB479C","title":"茉莉花小剧场","lon":"121.47766","lat":"31.23051","category":"180","category_name":"剧场","address":"西藏中路120号上海市工人文化宫"},{"poiid":"B2094654DB65A5FD489A","title":"789新概念火锅料理(人民广场店)","lon":"121.4771","lat":"31.23129","category":"86","category_name":"火锅店","address":"黄浦区西藏中路180号高盛商厦4楼(近汕头路)"},{"poiid":"B2094757D06EAAFC499D","title":"拉面玩家(来福士店)","lon":"121.47701069","lat":"31.231697569","category":"68","category_name":"快餐厅","address":"黄浦区西藏中路268号来福士广场6楼(近福州路)"},{"poiid":"B2094752D46FA6F94493","title":"七叶和茶","lon":"121.475595","lat":"31.230112","category":"247","category_name":"餐饮美食","address":"迪美购物中心"},{"poiid":"B2094654DB69ABFE4298","title":"马威斯IN沙龙(规划馆店)","lon":"121.47542","lat":"31.23131","category":"148","category_name":"美容美发店","address":"上海市黄浦区人民大道100号城市规划馆B1楼N-A、C"},{"poiid":"B2094757D16EA3FD4693","title":"满 记 甜 品 」","lon":"121.476347738","lat":"31.2321433409","category":"500","category_name":"未知分类","address":"上海近 福 州 路 、来 福 士 地 下 一 层 」＂"},{"poiid":"B2094757D76DAAFE409C","title":"漂亮石头火锅 来福士店","lon":"121.476494054","lat":"31.232041793","category":"86","category_name":"火锅店","address":"黄浦区西藏中路218号来福士广场6楼大食代内(近福州路)"},{"poiid":"B2094757DB68A4FF499A","title":"鲜得来","lon":"121.476378","lat":"31.229593","category":"247","category_name":"餐饮美食","address":"云南南路46号"},{"poiid":"B2094752DB6DAAFC449B","title":"HOT BOYS芝士年糕","lon":"121.475742","lat":"31.22992","category":"247","category_name":"餐饮美食","address":"上海市 香港名店几点77号店铺"},{"poiid":"B2094757D06FA0F5439F","title":"上海1930风情街名品坊","lon":"121.476166694","lat":"31.2309545718","category":"249","category_name":"购物服务","address":"黄浦区人民大道100号城市规划展示馆B1楼(近西藏中路)"},{"poiid":"B2094750DB6EA5FF4893","title":"来福士广场写字楼","lon":"121.476534","lat":"31.232041","category":"46","category_name":"楼宇","address":"黄浦西藏中路268号"},{"poiid":"B2094757D06AA0FE469A","title":"新宿造型","lon":"121.475521938","lat":"31.2301192977","category":"148","category_name":"美容美发店","address":"上海黄浦区人民大道9号香港名店街59室"},{"poiid":"B2094654DA6FA0F9479B","title":"王磊形象公社(西藏中路)","lon":"121.47662","lat":"31.23209","category":"248","category_name":"生活娱乐","address":"黄浦区西藏中路268号来福士广场604-605号铺(近福州路)"},{"poiid":"B2094751D56CA2F94493","title":"星巴克(来福士一店)","lon":"121.47652","lat":"31.23204","category":"247","category_name":"餐饮美食","address":"黄浦区西藏中路268号来福士广场1楼01-12室(近福州路)"},{"poiid":"B2094753D76AA2F5479B","title":"重庆小天鹅(人民广场店)","lon":"121.47719","lat":"31.23134","category":"86","category_name":"火锅店","address":"上海市黄浦区西藏中路180号高盛大厦4楼(近汕头路)"},{"poiid":"B2094757D06FA3FD419C","title":"土豆风暴","lon":"121.476788696","lat":"31.2317445699","category":"94","category_name":"西餐厅","address":"黄浦区西藏中路268号来福士广场B1楼(福州路口)"},{"poiid":"B2094757D16AABFF479A","title":"stay real","lon":"121.476367438","lat":"31.2301682988","category":"260","category_name":"其他","address":"上海来福士"},{"poiid":"B2094757D16EA0FA4398","title":"蒂凡尼","lon":"121.476462738","lat":"31.2312053209","category":"500","category_name":"未知分类","address":"上海来福士"},{"poiid":"B2094757D06FA4FC449B","title":"每日新鲜水果吧(来福士店)","lon":"121.47687","lat":"31.23182","category":"113","category_name":"冷饮店","address":"黄浦区西藏中路268号来福士广场B1楼(近福州路)"},{"poiid":"B2094757D16FA5FF4398","title":"上海一家香巴岛小龙虾","lon":"121.47642933","lat":"31.230913814","category":"247","category_name":"餐饮美食","address":"上海寿宁路6号"},{"poiid":"B2094655D26AA0FE4098","title":"ZARA(西藏中路店)","lon":"121.47719","lat":"31.23126","category":"141","category_name":"服装鞋帽皮具店","address":"黄浦区西藏中路180号高盛大厦1-2楼(近汕头路)"},{"poiid":"B2094751DA6EA1FB409A","title":"太平洋咖啡福州路店","lon":"121.475481","lat":"31.230946","category":"500","category_name":"未知分类","address":"浙江路福州路路口"},{"poiid":"B2094750D76DA0FB4492","title":"宜芝多(人民广场店)","lon":"121.475","lat":"31.2309","category":"112","category_name":"糕饼店","address":"黄浦区人民广场轨道交通8号线转换站内(近人民公园)"},{"poiid":"B2094757D06FA3F9429D","title":"快乐柠檬(来福士店)","lon":"121.47667369","lat":"31.23169257","category":"113","category_name":"冷饮店","address":"黄浦区西藏中路268号来福士广场B1楼(近福州路)"},{"poiid":"B2094757D16FABF44599","title":"莱福士地下美食园","lon":"121.476069538","lat":"31.2321318406","category":"247","category_name":"餐饮美食","address":"上海莱福士广场"},{"poiid":"B2094757D16DA1FE4498","title":"韓舍","lon":"121.476082738","lat":"31.2302002995","category":"500","category_name":"未知分类","address":"上海市黄浦区南京西路"},{"poiid":"B2094757D168A5FB4692","title":"Show Shows","lon":"121.47564973","lat":"31.230103297","category":"500","category_name":"未知分类","address":"上海迪美"},{"poiid":"B2094757D56CA4FE469F","title":"CHOCOCOO巧克力 来福士广场店","lon":"121.476575054","lat":"31.232022793","category":"67","category_name":"甜品店","address":"黄浦区西藏中路268号来福士广场B1楼(近福州路)"},{"poiid":"B2094750D56FABFA4099","title":"麦当劳(人民广场店)","lon":"121.475","lat":"31.2309","category":"111","category_name":"休闲餐饮场所","address":"黄浦区人民广场一二号线换乘大厅2楼"},{"poiid":"B2094655D26EA2FB4099","title":"迪美购物中心","lon":"121.48","lat":"31.2347","category":"119","category_name":"商场","address":"黄浦区人民大道221号(近武胜路)"},{"poiid":"B2094654DB69A0F5489A","title":"港丽餐厅 来福士店 Charme Restaurant","lon":"121.476518054","lat":"31.232010793","category":"247","category_name":"餐饮美食","address":"黄浦区西藏中路268号来福士广场6楼(近福州路)"},{"poiid":"B2094654DA6FABF5409D","title":"避风塘 西藏中路店","lon":"121.476926","lat":"31.23122","category":"257","category_name":"中餐厅","address":"黄浦区西藏中路180号高盛大厦3楼(汕头路西藏中路)"},{"poiid":"B2094753D76FAAFA449C","title":"上海滩国泰旗舰店","lon":"121.466011","lat":"31.216125","category":"249","category_name":"购物服务","address":"淮海中路868号"},{"poiid":"B209475CD564A7F84292","title":"上海滩新天地店","lon":"121.47463","lat":"31.22164","category":"119","category_name":"商场","address":"\"太仓路181弄新天地北里15号\r\n\""},{"poiid":"B209475CD564A7F8439E","title":"上海滩中信泰富店","lon":"121.45602","lat":"31.22851","category":"119","category_name":"商场","address":"\"南京西路1168号中信泰富广场，店铺号221.\r\n\""},{"poiid":"B209475CD564A7F84392","title":"上海滩浦东香格里拉店","lon":"121.50058","lat":"31.23634","category":"119","category_name":"商场","address":"浦东富成路33号香格里拉酒店内大堂层"},{"poiid":"B2094757D164A3FE419C","title":"和民居食屋(来福士店)","lon":"121.475060138","lat":"31.2311963207","category":"95","category_name":"日本料理","address":"黄浦区西藏中路268号来福士广场6楼(近福州路)"},{"poiid":"B2094757D06EAAFB449D","title":"PANKOO釜山料理(来福士店)","lon":"121.47708","lat":"31.23167","category":"96","category_name":"韩国料理","address":"上海黄浦区西藏中路268号来福士广场6楼(近福州路)  "},{"poiid":"B2094654DA68A2FD429F","title":"香港名店街","lon":"121.47592","lat":"31.23021","category":"116","category_name":"特色商业街","address":"人民大道9号出口"},{"poiid":"B2094757D06AA7F44299","title":"来福仕","lon":"121.476086738","lat":"31.2312433217","category":"249","category_name":"购物服务","address":"上海市黄浦区南京西路"},{"poiid":"B2094757D06FA3FB489D","title":"上海大剧院-小剧场(Shanghai Grand Theatre - Studio Theatre)","lon":"121.47614288","lat":"31.230970382","category":"179","category_name":"音乐厅","address":"黄浦区人民大道300号大剧院3楼(近黄陂南路)"},{"poiid":"B2094757D06AA3F5449E","title":"望湘园(人民广场店)","lon":"121.477115","lat":"31.231177","category":"77","category_name":"湖南菜","address":"黄浦区西藏中路180号高盛商厦6楼(近福州路)"},{"poiid":"B2094757D06FA7FA499B","title":"Hollister(来福士店)","lon":"121.476501755","lat":"31.2318755549","category":"141","category_name":"服装鞋帽皮具店","address":"黄浦区西藏中路268号来福士广场3楼(近福州路)"},{"poiid":"B2094757D06FAAFA439A","title":"食之秘","lon":"121.47627473","lat":"31.231751332","category":"500","category_name":"未知分类","address":"上海市黄浦区南京西路"},{"poiid":"B2094750D364A3FB449A","title":"煲宫","lon":"121.47697418785","lat":"31.231121211065","category":"95","category_name":"日本料理","address":"黄浦区汕头路60号(近西藏中路)"},{"poiid":"B2094757D06FA2F5499F","title":"上海城市规划展示馆","lon":"121.47540396","lat":"31.231402831","category":"260","category_name":"其他","address":"上海黄浦区人民大道100号(近西藏中路)"},{"poiid":"B2094757D06FA0F8449B","title":"STAYREAL(来福士店)","lon":"121.476795695","lat":"31.2313505699","category":"637","category_name":"房地产类公司","address":"黄浦区西藏中路268号来福士4楼4-21号(近福州路)"},{"poiid":"B2094757D06FA2F94599","title":"棒约翰比萨(来福士店)","lon":"121.47697","lat":"31.23178","category":"94","category_name":"西餐厅","address":"黄浦区西藏中路268号来福士广场B1楼(近福州路)"},{"poiid":"B2094757D06FA2FE449C","title":"巴贝拉(人民广场店)","lon":"121.47746","lat":"31.23099","category":"94","category_name":"西餐厅","address":"黄浦区西藏中路180号高盛大厦5楼(近汕头路)"},{"poiid":"B2094757D06FA3FF439E","title":"大食代(来福士店)","lon":"121.47716","lat":"31.23173","category":"68","category_name":"快餐厅","address":"黄浦区西藏中路268号来福士广场6楼(近福州路)"},{"poiid":"B2094654DA6FABFB479C","title":"茉莉花小剧场","lon":"121.47766","lat":"31.23051","category":"180","category_name":"剧场","address":"西藏中路120号上海市工人文化宫"},{"poiid":"B2094654DB65A5FD489A","title":"789新概念火锅料理(人民广场店)","lon":"121.4771","lat":"31.23129","category":"86","category_name":"火锅店","address":"黄浦区西藏中路180号高盛商厦4楼(近汕头路)"},{"poiid":"B2094757D06EAAFC499D","title":"拉面玩家(来福士店)","lon":"121.47701069","lat":"31.231697569","category":"68","category_name":"快餐厅","address":"黄浦区西藏中路268号来福士广场6楼(近福州路)"},{"poiid":"B2094752D46FA6F94493","title":"七叶和茶","lon":"121.475595","lat":"31.230112","category":"247","category_name":"餐饮美食","address":"迪美购物中心"},{"poiid":"B2094654DB69ABFE4298","title":"马威斯IN沙龙(规划馆店)","lon":"121.47542","lat":"31.23131","category":"148","category_name":"美容美发店","address":"上海市黄浦区人民大道100号城市规划馆B1楼N-A、C"},{"poiid":"B2094757D16EA3FD4693","title":"满 记 甜 品 」","lon":"121.476347738","lat":"31.2321433409","category":"500","category_name":"未知分类","address":"上海近 福 州 路 、来 福 士 地 下 一 层 」＂"},{"poiid":"B2094757D76DAAFE409C","title":"漂亮石头火锅 来福士店","lon":"121.476494054","lat":"31.232041793","category":"86","category_name":"火锅店","address":"黄浦区西藏中路218号来福士广场6楼大食代内(近福州路)"},{"poiid":"B2094757DB68A4FF499A","title":"鲜得来","lon":"121.476378","lat":"31.229593","category":"247","category_name":"餐饮美食","address":"云南南路46号"},{"poiid":"B2094752DB6DAAFC449B","title":"HOT BOYS芝士年糕","lon":"121.475742","lat":"31.22992","category":"247","category_name":"餐饮美食","address":"上海市 香港名店几点77号店铺"},{"poiid":"B2094757D06FA0F5439F","title":"上海1930风情街名品坊","lon":"121.476166694","lat":"31.2309545718","category":"249","category_name":"购物服务","address":"黄浦区人民大道100号城市规划展示馆B1楼(近西藏中路)"},{"poiid":"B2094750DB6EA5FF4893","title":"来福士广场写字楼","lon":"121.476534","lat":"31.232041","category":"46","category_name":"楼宇","address":"黄浦西藏中路268号"},{"poiid":"B2094757D06AA0FE469A","title":"新宿造型","lon":"121.475521938","lat":"31.2301192977","category":"148","category_name":"美容美发店","address":"上海黄浦区人民大道9号香港名店街59室"},{"poiid":"B2094654DA6FA0F9479B","title":"王磊形象公社(西藏中路)","lon":"121.47662","lat":"31.23209","category":"248","category_name":"生活娱乐","address":"黄浦区西藏中路268号来福士广场604-605号铺(近福州路)"},{"poiid":"B2094751D56CA2F94493","title":"星巴克(来福士一店)","lon":"121.47652","lat":"31.23204","category":"247","category_name":"餐饮美食","address":"黄浦区西藏中路268号来福士广场1楼01-12室(近福州路)"},{"poiid":"B2094753D76AA2F5479B","title":"重庆小天鹅(人民广场店)","lon":"121.47719","lat":"31.23134","category":"86","category_name":"火锅店","address":"上海市黄浦区西藏中路180号高盛大厦4楼(近汕头路)"},{"poiid":"B2094757D06FA3FD419C","title":"土豆风暴","lon":"121.476788696","lat":"31.2317445699","category":"94","category_name":"西餐厅","address":"黄浦区西藏中路268号来福士广场B1楼(福州路口)"},{"poiid":"B2094757D16AABFF479A","title":"stay real","lon":"121.476367438","lat":"31.2301682988","category":"260","category_name":"其他","address":"上海来福士"},{"poiid":"B2094757D16EA0FA4398","title":"蒂凡尼","lon":"121.476462738","lat":"31.2312053209","category":"500","category_name":"未知分类","address":"上海来福士"},{"poiid":"B2094757D06FA4FC449B","title":"每日新鲜水果吧(来福士店)","lon":"121.47687","lat":"31.23182","category":"113","category_name":"冷饮店","address":"黄浦区西藏中路268号来福士广场B1楼(近福州路)"},{"poiid":"B2094757D16FA5FF4398","title":"上海一家香巴岛小龙虾","lon":"121.47642933","lat":"31.230913814","category":"247","category_name":"餐饮美食","address":"上海寿宁路6号"},{"poiid":"B2094655D26AA0FE4098","title":"ZARA(西藏中路店)","lon":"121.47719","lat":"31.23126","category":"141","category_name":"服装鞋帽皮具店","address":"黄浦区西藏中路180号高盛大厦1-2楼(近汕头路)"},{"poiid":"B2094751DA6EA1FB409A","title":"太平洋咖啡福州路店","lon":"121.475481","lat":"31.230946","category":"500","category_name":"未知分类","address":"浙江路福州路路口"},{"poiid":"B2094750D76DA0FB4492","title":"宜芝多(人民广场店)","lon":"121.475","lat":"31.2309","category":"112","category_name":"糕饼店","address":"黄浦区人民广场轨道交通8号线转换站内(近人民公园)"},{"poiid":"B2094757D06FA3F9429D","title":"快乐柠檬(来福士店)","lon":"121.47667369","lat":"31.23169257","category":"113","category_name":"冷饮店","address":"黄浦区西藏中路268号来福士广场B1楼(近福州路)"},{"poiid":"B2094757D16FABF44599","title":"莱福士地下美食园","lon":"121.476069538","lat":"31.2321318406","category":"247","category_name":"餐饮美食","address":"上海莱福士广场"},{"poiid":"B2094757D16DA1FE4498","title":"韓舍","lon":"121.476082738","lat":"31.2302002995","category":"500","category_name":"未知分类","address":"上海市黄浦区南京西路"},{"poiid":"B2094757D168A5FB4692","title":"Show Shows","lon":"121.47564973","lat":"31.230103297","category":"500","category_name":"未知分类","address":"上海迪美"},{"poiid":"B2094757D56CA4FE469F","title":"CHOCOCOO巧克力 来福士广场店","lon":"121.476575054","lat":"31.232022793","category":"67","category_name":"甜品店","address":"黄浦区西藏中路268号来福士广场B1楼(近福州路)"},{"poiid":"B2094750D56FABFA4099","title":"麦当劳(人民广场店)","lon":"121.475","lat":"31.2309","category":"111","category_name":"休闲餐饮场所","address":"黄浦区人民广场一二号线换乘大厅2楼"},{"poiid":"B2094655D26EA2FB4099","title":"迪美购物中心","lon":"121.48","lat":"31.2347","category":"119","category_name":"商场","address":"黄浦区人民大道221号(近武胜路)"},{"poiid":"B2094654DB69A0F5489A","title":"港丽餐厅 来福士店 Charme Restaurant","lon":"121.476518054","lat":"31.232010793","category":"247","category_name":"餐饮美食","address":"黄浦区西藏中路268号来福士广场6楼(近福州路)"},{"poiid":"B2094654DA6FABF5409D","title":"避风塘 西藏中路店","lon":"121.476926","lat":"31.23122","category":"257","category_name":"中餐厅","address":"黄浦区西藏中路180号高盛大厦3楼(汕头路西藏中路)"},{"poiid":"B2094753D76FAAFA449C","title":"上海滩国泰旗舰店","lon":"121.466011","lat":"31.216125","category":"249","category_name":"购物服务","address":"淮海中路868号"},{"poiid":"B209475CD564A7F84292","title":"上海滩新天地店","lon":"121.47463","lat":"31.22164","category":"119","category_name":"商场","address":"\"太仓路181弄新天地北里15号\r\n\""},{"poiid":"B209475CD564A7F8439E","title":"上海滩中信泰富店","lon":"121.45602","lat":"31.22851","category":"119","category_name":"商场","address":"\"南京西路1168号中信泰富广场，店铺号221.\r\n\""},{"poiid":"B209475CD564A7F84392","title":"上海滩浦东香格里拉店","lon":"121.50058","lat":"31.23634","category":"119","category_name":"商场","address":"浦东富成路33号香格里拉酒店内大堂层"},{"poiid":"B2094757D164A3FE419C","title":"和民居食屋(来福士店)","lon":"121.475060138","lat":"31.2311963207","category":"95","category_name":"日本料理","address":"黄浦区西藏中路268号来福士广场6楼(近福州路)"},{"poiid":"B2094757D06EAAFB449D","title":"PANKOO釜山料理(来福士店)","lon":"121.47708","lat":"31.23167","category":"96","category_name":"韩国料理","address":"上海黄浦区西藏中路268号来福士广场6楼(近福州路)  "},{"poiid":"B2094654DA68A2FD429F","title":"香港名店街","lon":"121.47592","lat":"31.23021","category":"116","category_name":"特色商业街","address":"人民大道9号出口"},{"poiid":"B2094757D06AA7F44299","title":"来福仕","lon":"121.476086738","lat":"31.2312433217","category":"249","category_name":"购物服务","address":"上海市黄浦区南京西路"},{"poiid":"B2094757D06FA3FB489D","title":"上海大剧院-小剧场(Shanghai Grand Theatre - Studio Theatre)","lon":"121.47614288","lat":"31.230970382","category":"179","category_name":"音乐厅","address":"黄浦区人民大道300号大剧院3楼(近黄陂南路)"},{"poiid":"B2094757D06AA3F5449E","title":"望湘园(人民广场店)","lon":"121.477115","lat":"31.231177","category":"77","category_name":"湖南菜","address":"黄浦区西藏中路180号高盛商厦6楼(近福州路)"},{"poiid":"B2094757D06FA7FA499B","title":"Hollister(来福士店)","lon":"121.476501755","lat":"31.2318755549","category":"141","category_name":"服装鞋帽皮具店","address":"黄浦区西藏中路268号来福士广场3楼(近福州路)"},{"poiid":"B2094757D06FAAFA439A","title":"食之秘","lon":"121.47627473","lat":"31.231751332","category":"500","category_name":"未知分类","address":"上海市黄浦区南京西路"},{"poiid":"B2094750D364A3FB449A","title":"煲宫","lon":"121.47697418785","lat":"31.231121211065","category":"95","category_name":"日本料理","address":"黄浦区汕头路60号(近西藏中路)"},{"poiid":"B2094757D06FA2F5499F","title":"上海城市规划展示馆","lon":"121.47540396","lat":"31.231402831","category":"260","category_name":"其他","address":"上海黄浦区人民大道100号(近西藏中路)"},{"poiid":"B2094757D06FA0F8449B","title":"STAYREAL(来福士店)","lon":"121.476795695","lat":"31.2313505699","category":"637","category_name":"房地产类公司","address":"黄浦区西藏中路268号来福士4楼4-21号(近福州路)"},{"poiid":"B2094757D06FA2F94599","title":"棒约翰比萨(来福士店)","lon":"121.47697","lat":"31.23178","category":"94","category_name":"西餐厅","address":"黄浦区西藏中路268号来福士广场B1楼(近福州路)"},{"poiid":"B2094757D06FA2FE449C","title":"巴贝拉(人民广场店)","lon":"121.47746","lat":"31.23099","category":"94","category_name":"西餐厅","address":"黄浦区西藏中路180号高盛大厦5楼(近汕头路)"},{"poiid":"B2094757D06FA3FF439E","title":"大食代(来福士店)","lon":"121.47716","lat":"31.23173","category":"68","category_name":"快餐厅","address":"黄浦区西藏中路268号来福士广场6楼(近福州路)"},{"poiid":"B2094654DA6FABFB479C","title":"茉莉花小剧场","lon":"121.47766","lat":"31.23051","category":"180","category_name":"剧场","address":"西藏中路120号上海市工人文化宫"},{"poiid":"B2094654DB65A5FD489A","title":"789新概念火锅料理(人民广场店)","lon":"121.4771","lat":"31.23129","category":"86","category_name":"火锅店","address":"黄浦区西藏中路180号高盛商厦4楼(近汕头路)"},{"poiid":"B2094757D06EAAFC499D","title":"拉面玩家(来福士店)","lon":"121.47701069","lat":"31.231697569","category":"68","category_name":"快餐厅","address":"黄浦区西藏中路268号来福士广场6楼(近福州路)"},{"poiid":"B2094752D46FA6F94493","title":"七叶和茶","lon":"121.475595","lat":"31.230112","category":"247","category_name":"餐饮美食","address":"迪美购物中心"},{"poiid":"B2094654DB69ABFE4298","title":"马威斯IN沙龙(规划馆店)","lon":"121.47542","lat":"31.23131","category":"148","category_name":"美容美发店","address":"上海市黄浦区人民大道100号城市规划馆B1楼N-A、C"},{"poiid":"B2094757D16EA3FD4693","title":"满 记 甜 品 」","lon":"121.476347738","lat":"31.2321433409","category":"500","category_name":"未知分类","address":"上海近 福 州 路 、来 福 士 地 下 一 层 」＂"},{"poiid":"B2094757D76DAAFE409C","title":"漂亮石头火锅 来福士店","lon":"121.476494054","lat":"31.232041793","category":"86","category_name":"火锅店","address":"黄浦区西藏中路218号来福士广场6楼大食代内(近福州路)"},{"poiid":"B2094757DB68A4FF499A","title":"鲜得来","lon":"121.476378","lat":"31.229593","category":"247","category_name":"餐饮美食","address":"云南南路46号"},{"poiid":"B2094752DB6DAAFC449B","title":"HOT BOYS芝士年糕","lon":"121.475742","lat":"31.22992","category":"247","category_name":"餐饮美食","address":"上海市 香港名店几点77号店铺"},{"poiid":"B2094757D06FA0F5439F","title":"上海1930风情街名品坊","lon":"121.476166694","lat":"31.2309545718","category":"249","category_name":"购物服务","address":"黄浦区人民大道100号城市规划展示馆B1楼(近西藏中路)"},{"poiid":"B2094750DB6EA5FF4893","title":"来福士广场写字楼","lon":"121.476534","lat":"31.232041","category":"46","category_name":"楼宇","address":"黄浦西藏中路268号"},{"poiid":"B2094757D06AA0FE469A","title":"新宿造型","lon":"121.475521938","lat":"31.2301192977","category":"148","category_name":"美容美发店","address":"上海黄浦区人民大道9号香港名店街59室"},{"poiid":"B2094654DA6FA0F9479B","title":"王磊形象公社(西藏中路)","lon":"121.47662","lat":"31.23209","category":"248","category_name":"生活娱乐","address":"黄浦区西藏中路268号来福士广场604-605号铺(近福州路)"},{"poiid":"B2094751D56CA2F94493","title":"星巴克(来福士一店)","lon":"121.47652","lat":"31.23204","category":"247","category_name":"餐饮美食","address":"黄浦区西藏中路268号来福士广场1楼01-12室(近福州路)"},{"poiid":"B2094753D76AA2F5479B","title":"重庆小天鹅(人民广场店)","lon":"121.47719","lat":"31.23134","category":"86","category_name":"火锅店","address":"上海市黄浦区西藏中路180号高盛大厦4楼(近汕头路)"},{"poiid":"B2094757D06FA3FD419C","title":"土豆风暴","lon":"121.476788696","lat":"31.2317445699","category":"94","category_name":"西餐厅","address":"黄浦区西藏中路268号来福士广场B1楼(福州路口)"},{"poiid":"B2094757D16AABFF479A","title":"stay real","lon":"121.476367438","lat":"31.2301682988","category":"260","category_name":"其他","address":"上海来福士"},{"poiid":"B2094757D16EA0FA4398","title":"蒂凡尼","lon":"121.476462738","lat":"31.2312053209","category":"500","category_name":"未知分类","address":"上海来福士"},{"poiid":"B2094757D06FA4FC449B","title":"每日新鲜水果吧(来福士店)","lon":"121.47687","lat":"31.23182","category":"113","category_name":"冷饮店","address":"黄浦区西藏中路268号来福士广场B1楼(近福州路)"},{"poiid":"B2094757D16FA5FF4398","title":"上海一家香巴岛小龙虾","lon":"121.47642933","lat":"31.230913814","category":"247","category_name":"餐饮美食","address":"上海寿宁路6号"},{"poiid":"B2094655D26AA0FE4098","title":"ZARA(西藏中路店)","lon":"121.47719","lat":"31.23126","category":"141","category_name":"服装鞋帽皮具店","address":"黄浦区西藏中路180号高盛大厦1-2楼(近汕头路)"},{"poiid":"B2094751DA6EA1FB409A","title":"太平洋咖啡福州路店","lon":"121.475481","lat":"31.230946","category":"500","category_name":"未知分类","address":"浙江路福州路路口"},{"poiid":"B2094750D76DA0FB4492","title":"宜芝多(人民广场店)","lon":"121.475","lat":"31.2309","category":"112","category_name":"糕饼店","address":"黄浦区人民广场轨道交通8号线转换站内(近人民公园)"},{"poiid":"B2094757D06FA3F9429D","title":"快乐柠檬(来福士店)","lon":"121.47667369","lat":"31.23169257","category":"113","category_name":"冷饮店","address":"黄浦区西藏中路268号来福士广场B1楼(近福州路)"},{"poiid":"B2094757D16FABF44599","title":"莱福士地下美食园","lon":"121.476069538","lat":"31.2321318406","category":"247","category_name":"餐饮美食","address":"上海莱福士广场"},{"poiid":"B2094757D16DA1FE4498","title":"韓舍","lon":"121.476082738","lat":"31.2302002995","category":"500","category_name":"未知分类","address":"上海市黄浦区南京西路"},{"poiid":"B2094757D168A5FB4692","title":"Show Shows","lon":"121.47564973","lat":"31.230103297","category":"500","category_name":"未知分类","address":"上海迪美"},{"poiid":"B2094757D56CA4FE469F","title":"CHOCOCOO巧克力 来福士广场店","lon":"121.476575054","lat":"31.232022793","category":"67","category_name":"甜品店","address":"黄浦区西藏中路268号来福士广场B1楼(近福州路)"},{"poiid":"B2094750D56FABFA4099","title":"麦当劳(人民广场店)","lon":"121.475","lat":"31.2309","category":"111","category_name":"休闲餐饮场所","address":"黄浦区人民广场一二号线换乘大厅2楼"},{"poiid":"B2094655D26EA2FB4099","title":"迪美购物中心","lon":"121.48","lat":"31.2347","category":"119","category_name":"商场","address":"黄浦区人民大道221号(近武胜路)"},{"poiid":"B2094654DB69A0F5489A","title":"港丽餐厅 来福士店 Charme Restaurant","lon":"121.476518054","lat":"31.232010793","category":"247","category_name":"餐饮美食","address":"黄浦区西藏中路268号来福士广场6楼(近福州路)"},{"poiid":"B2094654DA6FABF5409D","title":"避风塘 西藏中路店","lon":"121.476926","lat":"31.23122","category":"257","category_name":"中餐厅","address":"黄浦区西藏中路180号高盛大厦3楼(汕头路西藏中路)"},{"poiid":"B2094753D76FAAFA449C","title":"上海滩国泰旗舰店","lon":"121.466011","lat":"31.216125","category":"249","category_name":"购物服务","address":"淮海中路868号"},{"poiid":"B209475CD564A7F84292","title":"上海滩新天地店","lon":"121.47463","lat":"31.22164","category":"119","category_name":"商场","address":"\"太仓路181弄新天地北里15号\r\n\""},{"poiid":"B209475CD564A7F8439E","title":"上海滩中信泰富店","lon":"121.45602","lat":"31.22851","category":"119","category_name":"商场","address":"\"南京西路1168号中信泰富广场，店铺号221.\r\n\""},{"poiid":"B209475CD564A7F84392","title":"上海滩浦东香格里拉店","lon":"121.50058","lat":"31.23634","category":"119","category_name":"商场","address":"浦东富成路33号香格里拉酒店内大堂层"},{"poiid":"B2094757D164A3FE419C","title":"和民居食屋(来福士店)","lon":"121.475060138","lat":"31.2311963207","category":"95","category_name":"日本料理","address":"黄浦区西藏中路268号来福士广场6楼(近福州路)"},{"poiid":"B2094757D06EAAFB449D","title":"PANKOO釜山料理(来福士店)","lon":"121.47708","lat":"31.23167","category":"96","category_name":"韩国料理","address":"上海黄浦区西藏中路268号来福士广场6楼(近福州路)  "},{"poiid":"B2094654DA68A2FD429F","title":"香港名店街","lon":"121.47592","lat":"31.23021","category":"116","category_name":"特色商业街","address":"人民大道9号出口"},{"poiid":"B2094757D06AA7F44299","title":"来福仕","lon":"121.476086738","lat":"31.2312433217","category":"249","category_name":"购物服务","address":"上海市黄浦区南京西路"},{"poiid":"B2094757D06FA3FB489D","title":"上海大剧院-小剧场(Shanghai Grand Theatre - Studio Theatre)","lon":"121.47614288","lat":"31.230970382","category":"179","category_name":"音乐厅","address":"黄浦区人民大道300号大剧院3楼(近黄陂南路)"},{"poiid":"B2094757D06AA3F5449E","title":"望湘园(人民广场店)","lon":"121.477115","lat":"31.231177","category":"77","category_name":"湖南菜","address":"黄浦区西藏中路180号高盛商厦6楼(近福州路)"},{"poiid":"B2094757D06FA7FA499B","title":"Hollister(来福士店)","lon":"121.476501755","lat":"31.2318755549","category":"141","category_name":"服装鞋帽皮具店","address":"黄浦区西藏中路268号来福士广场3楼(近福州路)"},{"poiid":"B2094757D06FAAFA439A","title":"食之秘","lon":"121.47627473","lat":"31.231751332","category":"500","category_name":"未知分类","address":"上海市黄浦区南京西路"},{"poiid":"B2094750D364A3FB449A","title":"煲宫","lon":"121.47697418785","lat":"31.231121211065","category":"95","category_name":"日本料理","address":"黄浦区汕头路60号(近西藏中路)"},{"poiid":"B2094757D06FA2F5499F","title":"上海城市规划展示馆","lon":"121.47540396","lat":"31.231402831","category":"260","category_name":"其他","address":"上海黄浦区人民大道100号(近西藏中路)"},{"poiid":"B2094757D06FA0F8449B","title":"STAYREAL(来福士店)","lon":"121.476795695","lat":"31.2313505699","category":"637","category_name":"房地产类公司","address":"黄浦区西藏中路268号来福士4楼4-21号(近福州路)"},{"poiid":"B2094757D06FA2F94599","title":"棒约翰比萨(来福士店)","lon":"121.47697","lat":"31.23178","category":"94","category_name":"西餐厅","address":"黄浦区西藏中路268号来福士广场B1楼(近福州路)"},{"poiid":"B2094757D06FA2FE449C","title":"巴贝拉(人民广场店)","lon":"121.47746","lat":"31.23099","category":"94","category_name":"西餐厅","address":"黄浦区西藏中路180号高盛大厦5楼(近汕头路)"},{"poiid":"B2094757D06FA3FF439E","title":"大食代(来福士店)","lon":"121.47716","lat":"31.23173","category":"68","category_name":"快餐厅","address":"黄浦区西藏中路268号来福士广场6楼(近福州路)"},{"poiid":"B2094654DA6FABFB479C","title":"茉莉花小剧场","lon":"121.47766","lat":"31.23051","category":"180","category_name":"剧场","address":"西藏中路120号上海市工人文化宫"},{"poiid":"B2094654DB65A5FD489A","title":"789新概念火锅料理(人民广场店)","lon":"121.4771","lat":"31.23129","category":"86","category_name":"火锅店","address":"黄浦区西藏中路180号高盛商厦4楼(近汕头路)"},{"poiid":"B2094757D06EAAFC499D","title":"拉面玩家(来福士店)","lon":"121.47701069","lat":"31.231697569","category":"68","category_name":"快餐厅","address":"黄浦区西藏中路268号来福士广场6楼(近福州路)"},{"poiid":"B2094752D46FA6F94493","title":"七叶和茶","lon":"121.475595","lat":"31.230112","category":"247","category_name":"餐饮美食","address":"迪美购物中心"},{"poiid":"B2094654DB69ABFE4298","title":"马威斯IN沙龙(规划馆店)","lon":"121.47542","lat":"31.23131","category":"148","category_name":"美容美发店","address":"上海市黄浦区人民大道100号城市规划馆B1楼N-A、C"},{"poiid":"B2094757D16EA3FD4693","title":"满 记 甜 品 」","lon":"121.476347738","lat":"31.2321433409","category":"500","category_name":"未知分类","address":"上海近 福 州 路 、来 福 士 地 下 一 层 」＂"},{"poiid":"B2094757D76DAAFE409C","title":"漂亮石头火锅 来福士店","lon":"121.476494054","lat":"31.232041793","category":"86","category_name":"火锅店","address":"黄浦区西藏中路218号来福士广场6楼大食代内(近福州路)"},{"poiid":"B2094757DB68A4FF499A","title":"鲜得来","lon":"121.476378","lat":"31.229593","category":"247","category_name":"餐饮美食","address":"云南南路46号"},{"poiid":"B2094752DB6DAAFC449B","title":"HOT BOYS芝士年糕","lon":"121.475742","lat":"31.22992","category":"247","category_name":"餐饮美食","address":"上海市 香港名店几点77号店铺"},{"poiid":"B2094757D06FA0F5439F","title":"上海1930风情街名品坊","lon":"121.476166694","lat":"31.2309545718","category":"249","category_name":"购物服务","address":"黄浦区人民大道100号城市规划展示馆B1楼(近西藏中路)"},{"poiid":"B2094750DB6EA5FF4893","title":"来福士广场写字楼","lon":"121.476534","lat":"31.232041","category":"46","category_name":"楼宇","address":"黄浦西藏中路268号"},{"poiid":"B2094757D06AA0FE469A","title":"新宿造型","lon":"121.475521938","lat":"31.2301192977","category":"148","category_name":"美容美发店","address":"上海黄浦区人民大道9号香港名店街59室"},{"poiid":"B2094654DA6FA0F9479B","title":"王磊形象公社(西藏中路)","lon":"121.47662","lat":"31.23209","category":"248","category_name":"生活娱乐","address":"黄浦区西藏中路268号来福士广场604-605号铺(近福州路)"},{"poiid":"B2094751D56CA2F94493","title":"星巴克(来福士一店)","lon":"121.47652","lat":"31.23204","category":"247","category_name":"餐饮美食","address":"黄浦区西藏中路268号来福士广场1楼01-12室(近福州路)"},{"poiid":"B2094753D76AA2F5479B","title":"重庆小天鹅(人民广场店)","lon":"121.47719","lat":"31.23134","category":"86","category_name":"火锅店","address":"上海市黄浦区西藏中路180号高盛大厦4楼(近汕头路)"},{"poiid":"B2094757D06FA3FD419C","title":"土豆风暴","lon":"121.476788696","lat":"31.2317445699","category":"94","category_name":"西餐厅","address":"黄浦区西藏中路268号来福士广场B1楼(福州路口)"},{"poiid":"B2094757D16AABFF479A","title":"stay real","lon":"121.476367438","lat":"31.2301682988","category":"260","category_name":"其他","address":"上海来福士"},{"poiid":"B2094757D16EA0FA4398","title":"蒂凡尼","lon":"121.476462738","lat":"31.2312053209","category":"500","category_name":"未知分类","address":"上海来福士"},{"poiid":"B2094757D06FA4FC449B","title":"每日新鲜水果吧(来福士店)","lon":"121.47687","lat":"31.23182","category":"113","category_name":"冷饮店","address":"黄浦区西藏中路268号来福士广场B1楼(近福州路)"},{"poiid":"B2094757D16FA5FF4398","title":"上海一家香巴岛小龙虾","lon":"121.47642933","lat":"31.230913814","category":"247","category_name":"餐饮美食","address":"上海寿宁路6号"},{"poiid":"B2094655D26AA0FE4098","title":"ZARA(西藏中路店)","lon":"121.47719","lat":"31.23126","category":"141","category_name":"服装鞋帽皮具店","address":"黄浦区西藏中路180号高盛大厦1-2楼(近汕头路)"},{"poiid":"B2094751DA6EA1FB409A","title":"太平洋咖啡福州路店","lon":"121.475481","lat":"31.230946","category":"500","category_name":"未知分类","address":"浙江路福州路路口"},{"poiid":"B2094750D76DA0FB4492","title":"宜芝多(人民广场店)","lon":"121.475","lat":"31.2309","category":"112","category_name":"糕饼店","address":"黄浦区人民广场轨道交通8号线转换站内(近人民公园)"},{"poiid":"B2094757D06FA3F9429D","title":"快乐柠檬(来福士店)","lon":"121.47667369","lat":"31.23169257","category":"113","category_name":"冷饮店","address":"黄浦区西藏中路268号来福士广场B1楼(近福州路)"},{"poiid":"B2094757D16FABF44599","title":"莱福士地下美食园","lon":"121.476069538","lat":"31.2321318406","category":"247","category_name":"餐饮美食","address":"上海莱福士广场"},{"poiid":"B2094757D16DA1FE4498","title":"韓舍","lon":"121.476082738","lat":"31.2302002995","category":"500","category_name":"未知分类","address":"上海市黄浦区南京西路"},{"poiid":"B2094757D168A5FB4692","title":"Show Shows","lon":"121.47564973","lat":"31.230103297","category":"500","category_name":"未知分类","address":"上海迪美"},{"poiid":"B2094757D56CA4FE469F","title":"CHOCOCOO巧克力 来福士广场店","lon":"121.476575054","lat":"31.232022793","category":"67","category_name":"甜品店","address":"黄浦区西藏中路268号来福士广场B1楼(近福州路)"},{"poiid":"B2094750D56FABFA4099","title":"麦当劳(人民广场店)","lon":"121.475","lat":"31.2309","category":"111","category_name":"休闲餐饮场所","address":"黄浦区人民广场一二号线换乘大厅2楼"},{"poiid":"B2094655D26EA2FB4099","title":"迪美购物中心","lon":"121.48","lat":"31.2347","category":"119","category_name":"商场","address":"黄浦区人民大道221号(近武胜路)"},{"poiid":"B2094654DB69A0F5489A","title":"港丽餐厅 来福士店 Charme Restaurant","lon":"121.476518054","lat":"31.232010793","category":"247","category_name":"餐饮美食","address":"黄浦区西藏中路268号来福士广场6楼(近福州路)"},{"poiid":"B2094654DA6FABF5409D","title":"避风塘 西藏中路店","lon":"121.476926","lat":"31.23122","category":"257","category_name":"中餐厅","address":"黄浦区西藏中路180号高盛大厦3楼(汕头路西藏中路)"},{"poiid":"B2094753D76FAAFA449C","title":"上海滩国泰旗舰店","lon":"121.466011","lat":"31.216125","category":"249","category_name":"购物服务","address":"淮海中路868号"},{"poiid":"B209475CD564A7F84292","title":"上海滩新天地店","lon":"121.47463","lat":"31.22164","category":"119","category_name":"商场","address":"\"太仓路181弄新天地北里15号\r\n\""},{"poiid":"B209475CD564A7F8439E","title":"上海滩中信泰富店","lon":"121.45602","lat":"31.22851","category":"119","category_name":"商场","address":"\"南京西路1168号中信泰富广场，店铺号221.\r\n\""},{"poiid":"B209475CD564A7F84392","title":"上海滩浦东香格里拉店","lon":"121.50058","lat":"31.23634","category":"119","category_name":"商场","address":"浦东富成路33号香格里拉酒店内大堂层"},{"poiid":"B2094757D164A3FE419C","title":"和民居食屋(来福士店)","lon":"121.475060138","lat":"31.2311963207","category":"95","category_name":"日本料理","address":"黄浦区西藏中路268号来福士广场6楼(近福州路)"},{"poiid":"B2094757D06EAAFB449D","title":"PANKOO釜山料理(来福士店)","lon":"121.47708","lat":"31.23167","category":"96","category_name":"韩国料理","address":"上海黄浦区西藏中路268号来福士广场6楼(近福州路)  "},{"poiid":"B2094654DA68A2FD429F","title":"香港名店街","lon":"121.47592","lat":"31.23021","category":"116","category_name":"特色商业街","address":"人民大道9号出口"},{"poiid":"B2094757D06AA7F44299","title":"来福仕","lon":"121.476086738","lat":"31.2312433217","category":"249","category_name":"购物服务","address":"上海市黄浦区南京西路"},{"poiid":"B2094757D06FA3FB489D","title":"上海大剧院-小剧场(Shanghai Grand Theatre - Studio Theatre)","lon":"121.47614288","lat":"31.230970382","category":"179","category_name":"音乐厅","address":"黄浦区人民大道300号大剧院3楼(近黄陂南路)"},{"poiid":"B2094757D06AA3F5449E","title":"望湘园(人民广场店)","lon":"121.477115","lat":"31.231177","category":"77","category_name":"湖南菜","address":"黄浦区西藏中路180号高盛商厦6楼(近福州路)"},{"poiid":"B2094757D06FA7FA499B","title":"Hollister(来福士店)","lon":"121.476501755","lat":"31.2318755549","category":"141","category_name":"服装鞋帽皮具店","address":"黄浦区西藏中路268号来福士广场3楼(近福州路)"},{"poiid":"B2094757D06FAAFA439A","title":"食之秘","lon":"121.47627473","lat":"31.231751332","category":"500","category_name":"未知分类","address":"上海市黄浦区南京西路"},{"poiid":"B2094750D364A3FB449A","title":"煲宫","lon":"121.47697418785","lat":"31.231121211065","category":"95","category_name":"日本料理","address":"黄浦区汕头路60号(近西藏中路)"},{"poiid":"B2094757D06FA2F5499F","title":"上海城市规划展示馆","lon":"121.47540396","lat":"31.231402831","category":"260","category_name":"其他","address":"上海黄浦区人民大道100号(近西藏中路)"},{"poiid":"B2094757D06FA0F8449B","title":"STAYREAL(来福士店)","lon":"121.476795695","lat":"31.2313505699","category":"637","category_name":"房地产类公司","address":"黄浦区西藏中路268号来福士4楼4-21号(近福州路)"},{"poiid":"B2094757D06FA2F94599","title":"棒约翰比萨(来福士店)","lon":"121.47697","lat":"31.23178","category":"94","category_name":"西餐厅","address":"黄浦区西藏中路268号来福士广场B1楼(近福州路)"},{"poiid":"B2094757D06FA2FE449C","title":"巴贝拉(人民广场店)","lon":"121.47746","lat":"31.23099","category":"94","category_name":"西餐厅","address":"黄浦区西藏中路180号高盛大厦5楼(近汕头路)"},{"poiid":"B2094757D06FA3FF439E","title":"大食代(来福士店)","lon":"121.47716","lat":"31.23173","category":"68","category_name":"快餐厅","address":"黄浦区西藏中路268号来福士广场6楼(近福州路)"},{"poiid":"B2094654DA6FABFB479C","title":"茉莉花小剧场","lon":"121.47766","lat":"31.23051","category":"180","category_name":"剧场","address":"西藏中路120号上海市工人文化宫"},{"poiid":"B2094654DB65A5FD489A","title":"789新概念火锅料理(人民广场店)","lon":"121.4771","lat":"31.23129","category":"86","category_name":"火锅店","address":"黄浦区西藏中路180号高盛商厦4楼(近汕头路)"},{"poiid":"B2094757D06EAAFC499D","title":"拉面玩家(来福士店)","lon":"121.47701069","lat":"31.231697569","category":"68","category_name":"快餐厅","address":"黄浦区西藏中路268号来福士广场6楼(近福州路)"},{"poiid":"B2094752D46FA6F94493","title":"七叶和茶","lon":"121.475595","lat":"31.230112","category":"247","category_name":"餐饮美食","address":"迪美购物中心"},{"poiid":"B2094654DB69ABFE4298","title":"马威斯IN沙龙(规划馆店)","lon":"121.47542","lat":"31.23131","category":"148","category_name":"美容美发店","address":"上海市黄浦区人民大道100号城市规划馆B1楼N-A、C"},{"poiid":"B2094757D16EA3FD4693","title":"满 记 甜 品 」","lon":"121.476347738","lat":"31.2321433409","category":"500","category_name":"未知分类","address":"上海近 福 州 路 、来 福 士 地 下 一 层 」＂"},{"poiid":"B2094757D76DAAFE409C","title":"漂亮石头火锅 来福士店","lon":"121.476494054","lat":"31.232041793","category":"86","category_name":"火锅店","address":"黄浦区西藏中路218号来福士广场6楼大食代内(近福州路)"},{"poiid":"B2094757DB68A4FF499A","title":"鲜得来","lon":"121.476378","lat":"31.229593","category":"247","category_name":"餐饮美食","address":"云南南路46号"},{"poiid":"B2094752DB6DAAFC449B","title":"HOT BOYS芝士年糕","lon":"121.475742","lat":"31.22992","category":"247","category_name":"餐饮美食","address":"上海市 香港名店几点77号店铺"},{"poiid":"B2094757D06FA0F5439F","title":"上海1930风情街名品坊","lon":"121.476166694","lat":"31.2309545718","category":"249","category_name":"购物服务","address":"黄浦区人民大道100号城市规划展示馆B1楼(近西藏中路)"},{"poiid":"B2094750DB6EA5FF4893","title":"来福士广场写字楼","lon":"121.476534","lat":"31.232041","category":"46","category_name":"楼宇","address":"黄浦西藏中路268号"},{"poiid":"B2094757D06AA0FE469A","title":"新宿造型","lon":"121.475521938","lat":"31.2301192977","category":"148","category_name":"美容美发店","address":"上海黄浦区人民大道9号香港名店街59室"},{"poiid":"B2094654DA6FA0F9479B","title":"王磊形象公社(西藏中路)","lon":"121.47662","lat":"31.23209","category":"248","category_name":"生活娱乐","address":"黄浦区西藏中路268号来福士广场604-605号铺(近福州路)"},{"poiid":"B2094751D56CA2F94493","title":"星巴克(来福士一店)","lon":"121.47652","lat":"31.23204","category":"247","category_name":"餐饮美食","address":"黄浦区西藏中路268号来福士广场1楼01-12室(近福州路)"},{"poiid":"B2094753D76AA2F5479B","title":"重庆小天鹅(人民广场店)","lon":"121.47719","lat":"31.23134","category":"86","category_name":"火锅店","address":"上海市黄浦区西藏中路180号高盛大厦4楼(近汕头路)"},{"poiid":"B2094757D06FA3FD419C","title":"土豆风暴","lon":"121.476788696","lat":"31.2317445699","category":"94","category_name":"西餐厅","address":"黄浦区西藏中路268号来福士广场B1楼(福州路口)"},{"poiid":"B2094757D16AABFF479A","title":"stay real","lon":"121.476367438","lat":"31.2301682988","category":"260","category_name":"其他","address":"上海来福士"},{"poiid":"B2094757D16EA0FA4398","title":"蒂凡尼","lon":"121.476462738","lat":"31.2312053209","category":"500","category_name":"未知分类","address":"上海来福士"},{"poiid":"B2094757D06FA4FC449B","title":"每日新鲜水果吧(来福士店)","lon":"121.47687","lat":"31.23182","category":"113","category_name":"冷饮店","address":"黄浦区西藏中路268号来福士广场B1楼(近福州路)"},{"poiid":"B2094757D16FA5FF4398","title":"上海一家香巴岛小龙虾","lon":"121.47642933","lat":"31.230913814","category":"247","category_name":"餐饮美食","address":"上海寿宁路6号"},{"poiid":"B2094655D26AA0FE4098","title":"ZARA(西藏中路店)","lon":"121.47719","lat":"31.23126","category":"141","category_name":"服装鞋帽皮具店","address":"黄浦区西藏中路180号高盛大厦1-2楼(近汕头路)"},{"poiid":"B2094751DA6EA1FB409A","title":"太平洋咖啡福州路店","lon":"121.475481","lat":"31.230946","category":"500","category_name":"未知分类","address":"浙江路福州路路口"},{"poiid":"B2094750D76DA0FB4492","title":"宜芝多(人民广场店)","lon":"121.475","lat":"31.2309","category":"112","category_name":"糕饼店","address":"黄浦区人民广场轨道交通8号线转换站内(近人民公园)"},{"poiid":"B2094757D06FA3F9429D","title":"快乐柠檬(来福士店)","lon":"121.47667369","lat":"31.23169257","category":"113","category_name":"冷饮店","address":"黄浦区西藏中路268号来福士广场B1楼(近福州路)"},{"poiid":"B2094757D16FABF44599","title":"莱福士地下美食园","lon":"121.476069538","lat":"31.2321318406","category":"247","category_name":"餐饮美食","address":"上海莱福士广场"},{"poiid":"B2094757D16DA1FE4498","title":"韓舍","lon":"121.476082738","lat":"31.2302002995","category":"500","category_name":"未知分类","address":"上海市黄浦区南京西路"},{"poiid":"B2094757D168A5FB4692","title":"Show Shows","lon":"121.47564973","lat":"31.230103297","category":"500","category_name":"未知分类","address":"上海迪美"},{"poiid":"B2094757D56CA4FE469F","title":"CHOCOCOO巧克力 来福士广场店","lon":"121.476575054","lat":"31.232022793","category":"67","category_name":"甜品店","address":"黄浦区西藏中路268号来福士广场B1楼(近福州路)"},{"poiid":"B2094750D56FABFA4099","title":"麦当劳(人民广场店)","lon":"121.475","lat":"31.2309","category":"111","category_name":"休闲餐饮场所","address":"黄浦区人民广场一二号线换乘大厅2楼"}]