[{"poiid":"B2094757D06FAAF5459C","title":"松江南站","lon":"121.22998709798242","lat":"30.983372325385712","category":"22","category_name":"火车站","address":"松江区盐仓路"},{"poiid":"B2094757D068A0FD479C","title":"松江火车站","lon":"121.228025999","lat":"30.9993683162","category":"22","category_name":"火车站","address":"上海近郊松江区人民南路1号"},{"poiid":"B2094757D06BA3F9459A","title":"松江南站候车室","lon":"121.23023226","lat":"30.983025137","category":"22","category_name":"火车站","address":"上海松江南站"},{"poiid":"B2094757D06BA3F54292","title":"胜强影视基地","lon":"121.21289","lat":"30.99287","category":"76","category_name":"上海菜","address":"松江区长谷东路18号"},{"poiid":"B2094757D068ABFC409F","title":"醉白池公园","lon":"121.230251779","lat":"31.0021066903","category":"196","category_name":"公园","address":"松江区人民南路64号"},{"poiid":"B2094655D268A2F8459B","title":"鹿都国际商业广场","lon":"121.23458","lat":"31.00451","category":"119","category_name":"商场","address":"松江松汇中路568号（近中山中路，人民路）"},{"poiid":"B2094655D36DA6FF499D","title":"上海左岸国际影城（松江店）","lon":"121.23458","lat":"31.00451","category":"178","category_name":"电影院","address":"上海松江区松汇中路568号鹿都国际广场4楼"},{"poiid":"B2094750DA6CA2F84092","title":"乐颂坊","lon":"121.235855","lat":"31.004205","category":"500","category_name":"未知分类","address":null},{"poiid":"B2094757D068A3F4429B","title":"沃尔玛(松江店)","lon":"121.234816","lat":"31.004051","category":"118","category_name":"超级市场","address":"松江区松汇中路568号鹿都国际商业广场内(近庙前街)"},{"poiid":"B2094750DA65A4FF479F","title":"猫的天空之城","lon":"121.235542","lat":"31.003101","category":"248","category_name":"生活娱乐","address":"松汇中路496号"},{"poiid":"B2094750DA6BA4FF4099","title":"猫的天空之城概念书店","lon":"121.234818","lat":"31.004097","category":"500","category_name":"未知分类","address":"松江区老城松汇中路496号(近谷阳南路)"},{"poiid":"B2094757D06AAAF9489B","title":"松江一中","lon":"121.23373","lat":"31.00276","category":"55","category_name":"中学","address":"松江区松汇中路601号"},{"poiid":"B2094757D06AA5FC429C","title":"百特喜意式餐厅","lon":"121.23449","lat":"31.004514","category":"94","category_name":"西餐厅","address":"松江区松汇中路568号鹿都沃尔玛生活广场4楼"},{"poiid":"B2094757D568A0F44698","title":"永丰苑","lon":"121.22433","lat":"30.990284","category":"47","category_name":"住宅区","address":"富永路425弄"},{"poiid":"B2094655D26BA5FB419A","title":"谷树园大酒店","lon":"121.22292","lat":"30.99195","category":"70","category_name":"综合酒楼","address":"松江区富永路77号(近金玉路)"},{"poiid":"B2094751D26EA5FC4198","title":"松江南站","lon":"121.2247086","lat":"30.9865617","category":"500","category_name":"未知分类","address":null},{"poiid":"B2094757D664AAF9419C","title":"韩林炭烤 松江店","lon":"121.233638","lat":"31.004928","category":"96","category_name":"韩国料理","address":"松江区松汇中路568号鹿都国际广场(松汇中路庙前街)"},{"poiid":"B2094654DB6EA3FC469C","title":"松江站","lon":"121.22795","lat":"31.0001","category":"22","category_name":"火车站","address":"松江区人民南路1号"},{"poiid":"B2094654DB6EA3FC4793","title":"河畔雅苑","lon":"121.22621","lat":"31.00114","category":"47","category_name":"住宅区","address":"河畔雅苑位于松江人民南路15弄"},{"poiid":"B2094757D66DA4FD4593","title":"胜嵩机械","lon":"121.229024667","lat":"30.9975582867","category":"249","category_name":"购物服务","address":"上海盐平路1869号"},{"poiid":"B2094757D168A6F4429F","title":"百味佳(人民南路店)","lon":"121.22948","lat":"31.00554","category":"76","category_name":"上海菜","address":"松江区人民南路77-79号(近中山中路)"},{"poiid":"B2094654DB6EA3FD489B","title":"荣汇公寓","lon":"121.22516","lat":"31.002411","category":"47","category_name":"住宅区","address":"松汇中路971弄1-36号"},{"poiid":"B2094757D468AAFE4493","title":"韦斯顿","lon":"121.234582","lat":"31.004526","category":"268","category_name":"自助","address":"松江区松汇中路568号沃尔玛4楼"},{"poiid":"B2094655D26FAAFB499F","title":"世纪华联(上海松江汽车运输公司东北)","lon":"121.23621","lat":"30.99776","category":"117","category_name":"便民商店/便利店","address":""},{"poiid":"B2094751D369A2F8489A","title":"摩休敦纳韩国年糕料理(乐颂坊店)","lon":"121.23458","lat":"31.00452","category":"96","category_name":"韩国料理","address":"松江区松汇中路568号乐颂坊1楼(近沃尔玛)"},{"poiid":"B2094655D268A6FA4998","title":"世纪华联No.2013","lon":"121.22875","lat":"31.00024","category":"117","category_name":"便民商店/便利店","address":""},{"poiid":"B2094753D464AAF9449D","title":"虹桥火车站","lon":"121.230529","lat":"30.982313","category":"500","category_name":"未知分类","address":"上海市 虹桥"},{"poiid":"B2094750DB6FA0FE4793","title":"上海仓城影视文化产业园区","lon":"121.223587","lat":"30.985059","category":"500","category_name":"未知分类","address":null},{"poiid":"B2094757D064A1FD4499","title":"松江15路","lon":"121.22476959","lat":"30.999530792","category":"38","category_name":"公交车站","address":"上海松江客运站－松江永丰路"},{"poiid":"B2094757D065ABFB4298","title":"小肥羊 松江店","lon":"121.23276","lat":"31.00487","category":"86","category_name":"火锅店","address":"松江区松汇中路648号(近谷阳路)"},{"poiid":"B2094655D26BA2FD409D","title":"污水厂","lon":"121.24153","lat":"30.99344","category":"38","category_name":"公交车站","address":""},{"poiid":"B2094757D16FA4F9419D","title":"肯德基 KFC (谷阳店)","lon":"121.234574","lat":"31.004513","category":"68","category_name":"快餐厅","address":"松江区松汇中路568号沃尔玛2楼(近庙前街)"},{"poiid":"B2094654DB6EA3FC4899","title":"松江长途汽车客运站","lon":"121.22866","lat":"31.00183","category":"35","category_name":"长途汽车站","address":"松江区人民南路31号"},{"poiid":"B2094751D56CA6F9419C","title":"小杨生煎(乐颂坊店)","lon":"121.23084","lat":"31.00481","category":"68","category_name":"快餐厅","address":"松江区松汇中路568号乐颂坊B座106B单元(近沃尔玛)"},{"poiid":"B2094757D16DA0F44099","title":"大鼓米线","lon":"121.234720467","lat":"31.0053149569","category":"247","category_name":"餐饮美食","address":"上海沃尔玛内"},{"poiid":"B2094757D66DA1F4419F","title":"醉白酒楼","lon":"121.22854638428","lat":"31.004038969534","category":"76","category_name":"上海菜","address":"松江区松汇中路763号(人民路口)"},{"poiid":"B2094757D16CA1FB4898","title":"中国农业银行松江支行","lon":"121.22496795","lat":"30.999313354","category":"150","category_name":"银行","address":"上海松江区人民北路8号"},{"poiid":"B2094654DB69A5FF429D","title":"莫泰168连锁旅店(松汇中路店)","lon":"121.23022","lat":"31.00457","category":"216","category_name":"经济型连锁酒店","address":"松江区松汇中路736弄1号楼(人民南路)"},{"poiid":"B2094757D169A0FA479C","title":"申越广场","lon":"121.22685826","lat":"31.005070251","category":"119","category_name":"商场","address":"松江区中山中路279号(近人民南路)"},{"poiid":"B2094757D16EA3F5409D","title":"棒约翰比萨(平高店)","lon":"121.231739467","lat":"31.0057279659","category":"94","category_name":"西餐厅","address":"松江区中山中路71号平高世贸中心B1楼(近谷阳北路)"},{"poiid":"B2094655D268A5FB4198","title":"醉白池(侧门)","lon":"121.2291","lat":"31.00213","category":"680","category_name":"楼宇机构","address":""},{"poiid":"B2094654DB6EA3FE409D","title":"仓城七村","lon":"121.22038","lat":"31.002552","category":"47","category_name":"住宅区","address":"松汇中路1101弄"},{"poiid":"B2094757D164A1FB439B","title":"上海净岳环卫服务有限公司","lon":"121.233271567","lat":"30.9994759288","category":"263","category_name":"公司","address":"上海金沙滩5号"},{"poiid":"B209475DD565A5F54292","title":"some coffee","lon":"121.226966","lat":"31.00432","category":"247","category_name":"餐饮美食","address":"上海市 华庭老街"},{"poiid":"B2094757D76DA1FC4993","title":"欧露Olala","lon":"121.23457","lat":"31.00451","category":"67","category_name":"甜品店","address":"松江区松汇中路568号鹿都国际商业广场A023室(近庙前街)"},{"poiid":"B2094757D16BA1FB429E","title":"金佰利纸业","lon":"121.230401217","lat":"31.0004953411","category":"249","category_name":"购物服务","address":"上海松汇中路119号"},{"poiid":"B2094655D268A6FE419D","title":"源峰商业楼","lon":"121.2291","lat":"31.00267","category":"46","category_name":"楼宇","address":""},{"poiid":"B2094654DB6EA3FD469C","title":"平安小区","lon":"121.22588","lat":"31.002064","category":"47","category_name":"住宅区","address":"松汇中路939弄"},{"poiid":"B2094654DB6FABFF459F","title":"松江发展园区","lon":"121.21726","lat":"30.98527","category":"45","category_name":"产业园区","address":""},{"poiid":"B2094757D464A5FF429D","title":"川域烤鱼","lon":"121.234954","lat":"31.004654","category":"71","category_name":"四川菜","address":"松江区松汇中路鹿都商业广场B1楼(近庙前街)"},{"poiid":"B2094654DB6DAAF8499E","title":"松江区岳阳地段医院","lon":"121.23096","lat":"31.00575","category":"162","category_name":"医院","address":"松江区阔街21号"},{"poiid":"B2094757D16BA7FE4393","title":"普陀山千步沙","lon":"121.23047686","lat":"31.001575434","category":"500","category_name":"未知分类","address":"上海普陀山"},{"poiid":"B2094654DB6EA3FD469F","title":"景家堰","lon":"121.22668","lat":"31.002647","category":"47","category_name":"住宅区","address":"松汇中路939弄"},{"poiid":"B2094654DB6FABFF489F","title":"上海富民仓桥经济城肯顿工业园区","lon":"121.22489","lat":"30.98047","category":"45","category_name":"产业园区","address":""},{"poiid":"B2094752DA64A2FA4693","title":"九号线醉白池站","lon":"121.232584","lat":"31.002245","category":"500","category_name":"未知分类","address":"上海市 九号线醉白池站"},{"poiid":"B2094751D56EA1FE4599","title":"大鼓米线(鹿都国际店)","lon":"121.2346","lat":"31.00453","category":"68","category_name":"快餐厅","address":"松江区松汇中路568号鹿都国际商业广场1楼"},{"poiid":"B2094750D76FA0F5489A","title":"优莱寿司","lon":"121.235","lat":"31.0045","category":"95","category_name":"日本料理","address":"松江区松汇中路568号鹿都国际商业广场1楼"},{"poiid":"B2094757D469A5F9489E","title":"味多美 松江店 Wedome","lon":"121.234582","lat":"31.004526","category":"112","category_name":"糕饼店","address":"松江区松汇中路568号鹿都国际商业广场A座1楼144-145室"},{"poiid":"B2094750D76DA2FC489F","title":"台味味主食馆(鹿都商业广场店)","lon":"121.235","lat":"31.0044","category":"91","category_name":"台湾菜","address":"松江区松汇中路568号鹿都商业广场A座1楼139-140号"},{"poiid":"B2094655D26FABF84892","title":"河畔雅苑(东门)","lon":"121.22772","lat":"31.00057","category":"48","category_name":"楼宇大门","address":"人民南路15弄"},{"poiid":"B2094757D66DA2FC439B","title":"季德佬酒楼","lon":"121.23455046","lat":"31.004813945","category":"76","category_name":"上海菜","address":"松江区松汇中路568号沃尔玛购物广场4楼(近庙前街，一中斜对面)"},{"poiid":"B2094654DB6EA3FF489E","title":"光明乳业仓城配送站","lon":"121.23551","lat":"31.00221","category":"117","category_name":"便民商店/便利店","address":""},{"poiid":"B2094751D56CA6FF4499","title":"悦蓉香锅牛蛙(松汇中路店)","lon":"121.23458","lat":"31.00452","category":"71","category_name":"四川菜","address":"松江区松汇中路568号107、109号"},{"poiid":"B2094751D36DA0FF499B","title":"鸡排超人(乐颂坊店)","lon":"121.23458","lat":"31.00452","category":"68","category_name":"快餐厅","address":"松江区松汇中路568号乐颂坊1楼"},{"poiid":"B2094654DB6DABFF409A","title":"松江清真寺","lon":"121.2272","lat":"31.0058","category":"246","category_name":"回教寺","address":"松江区缸甏巷21号(近华亭老街)"},{"poiid":"B2094655D26FABF8499A","title":"平安小区(北门)","lon":"121.22641","lat":"31.00265","category":"47","category_name":"住宅区","address":"松汇中路939弄"},{"poiid":"B2094750DA6BA2FA409A","title":"吉野家 松江店","lon":"121.2315","lat":"31.00448","category":"95","category_name":"日本料理","address":"松江区松汇中路568号B座乐颂坊103号铺(近松江一中)"},{"poiid":"B2094654DB64A1F5459A","title":"上岛咖啡(中山中路店)","lon":"121.23489","lat":"31.00358","category":"260","category_name":"其他","address":"松江区中山中路121号3楼(松江商城对面)"},{"poiid":"B2094655D26FABF8499B","title":"景家堰(西门)","lon":"121.22673","lat":"31.00303","category":"47","category_name":"住宅区","address":"松汇中路939弄"},{"poiid":"B2094654DB6DAAFD4492","title":"扬州时运人家","lon":"121.23352","lat":"31.00559","category":"74","category_name":"江苏菜","address":"松江区庙前街65号(近中山路)"},{"poiid":"B2094655D268A6FB469B","title":"上海市松江一中学生宿舍","lon":"121.23175","lat":"31.00352","category":"47","category_name":"住宅区","address":"榆树头33-34号"},{"poiid":"B2094654DB6EA3FD469D","title":"荣汇公寓(东大门)","lon":"121.22521","lat":"31.00281","category":"47","category_name":"住宅区","address":"松汇中路941弄"},{"poiid":"B2094655D268A2FB4999","title":"长桥街","lon":"121.23178","lat":"31.00598","category":"116","category_name":"特色商业街","address":"松江区松江"},{"poiid":"B2094757D66CA2F5439B","title":"冰火工房","lon":"121.23458","lat":"31.00452","category":"68","category_name":"快餐厅","address":"松江区松汇中路568号沃尔玛"},{"poiid":"B2094655D268A6FB4593","title":"上海市松江一中学生宿舍(侧门)","lon":"121.23205","lat":"31.00353","category":"47","category_name":"住宅区","address":"榆树头33-34号"},{"poiid":"B2094753D76AA0FD429F","title":"千彩我的小火锅(松江店)","lon":"121.23456","lat":"31.00447","category":"86","category_name":"火锅店","address":"上海市松江区松汇中路568号乐颂坊B座3楼301室(近沃尔玛)"},{"poiid":"B2094752D26CA5FB439F","title":"意大利芝邑冰淇淋咖啡吧","lon":"121.23456","lat":"31.00447","category":"113","category_name":"冷饮店","address":"松江区松汇中路568号乐颂坊105B号商铺(近沃尔玛)"},{"poiid":"B2094654DB6FABFF4598","title":"凤泽工业园","lon":"121.2175","lat":"30.98357","category":"45","category_name":"产业园区","address":""},{"poiid":"B2094654DB6EA3F84699","title":"南园子","lon":"121.2393","lat":"31.002098","category":"47","category_name":"住宅区","address":"松汇中路371弄"},{"poiid":"B2094655D268A2F4429C","title":"松汇中路948弄小区","lon":"121.22661","lat":"31.00437","category":"47","category_name":"住宅区","address":"松汇中路948弄"},{"poiid":"B2094655D36DA1FB479E","title":"西林南路","lon":"121.22414","lat":"31.00359","category":"38","category_name":"公交车站","address":""},{"poiid":"B2094655D268A5F4469A","title":"荣汇公寓(北门)","lon":"121.2256","lat":"31.00346","category":"47","category_name":"住宅区","address":"松汇中路971弄1-36号"},{"poiid":"B2094654DB64A1F54899","title":"岳阳街道社区卫生服务中心","lon":"121.23096","lat":"31.00575","category":"162","category_name":"医院","address":"阔街21号"},{"poiid":"B2094752D36DA1FB4699","title":"上海猫屎咖啡松江店","lon":"121.234955","lat":"31.00238","category":"500","category_name":"未知分类","address":null},{"poiid":"B2094654DB6EA3F8419B","title":"云泊茶楼","lon":"121.2367","lat":"31.00273","category":"66","category_name":"茶艺馆","address":"松汇中路457号"},{"poiid":"B2094654DB6EA3F84199","title":"好德(谷阳南路)","lon":"121.23721","lat":"31.00283","category":"117","category_name":"便民商店/便利店","address":""},{"poiid":"B2094655D264ABFD4992","title":"豪盛苑综合办公楼商业","lon":"121.23388","lat":"31.00568","category":"46","category_name":"楼宇","address":"庙前街42弄"},{"poiid":"B2094654DB6EA3F84599","title":"松汇小区","lon":"121.23827","lat":"31.002588","category":"47","category_name":"住宅区","address":"松汇中路401弄"},{"poiid":"B2094655D268A6FB459D","title":"上海市松江一中学生宿舍(边门)","lon":"121.23157","lat":"31.00418","category":"47","category_name":"住宅区","address":"松汇中路665"},{"poiid":"B2094757D66EA1FA449F","title":"小野寺家","lon":"121.225158","lat":"31.00241","category":"500","category_name":"未知分类","address":"上海松汇中路971弄"},{"poiid":"B2094757D16BA2F54792","title":"松江区岳阳街道社区卫生服务中心","lon":"121.23096","lat":"31.005753","category":"500","category_name":"未知分类","address":"上海市松江区阔街21号"},{"poiid":"B2094654DB6DAAF8489D","title":"良友便利(松江清真寺民主管理委员会东)","lon":"121.22934","lat":"31.00608","category":"117","category_name":"便民商店/便利店","address":""},{"poiid":"B2094655D26FA4F4479C","title":"快客No.1168","lon":"121.2307","lat":"31.006","category":"117","category_name":"便民商店/便利店","address":"阔街28号上海博大医院东北"},{"poiid":"B2094654DB6DAAF8499A","title":"好德NO.3047","lon":"121.22952","lat":"31.00578","category":"117","category_name":"便民商店/便利店","address":"阔街67"},{"poiid":"B2094654DB6DAAF8429C","title":"快客NO.6338","lon":"121.23213","lat":"31.00484","category":"117","category_name":"便民商店/便利店","address":"松汇中路668"},{"poiid":"B2094654DB6DAAF84298","title":"良友金伴NO.168","lon":"121.23252","lat":"31.00485","category":"117","category_name":"便民商店/便利店","address":""},{"poiid":"B2094654DB6DAAF84999","title":"上海教区天主教松江阔街天主堂","lon":"121.2302","lat":"31.00527","category":"245","category_name":"教堂","address":"阔街53弄"},{"poiid":"B2094654DB6FABFE459E","title":"仓平小区","lon":"121.22865","lat":"30.97782","category":"47","category_name":"住宅区","address":""},{"poiid":"B2094654DB6DABFF439D","title":"荣景苑A区","lon":"121.22535","lat":"31.00505","category":"47","category_name":"住宅区","address":""},{"poiid":"B2094757D66DA3FB4393","title":"黛菲至尊纤颜会所","lon":"121.225049467","lat":"31.0026168977","category":"500","category_name":"未知分类","address":"上海市松江区文城路500弄3号102"},{"poiid":"B2094655D268A2F4429D","title":"松汇中路948弄小区(南门)","lon":"121.22623","lat":"31.00418","category":"47","category_name":"住宅区","address":"松汇中路948弄"},{"poiid":"B2094654DB6DAAF94493","title":"松港宾馆","lon":"121.22994","lat":"31.00413","category":"250","category_name":"公园户外","address":"松江区松汇中路758号(近庙前街)"},{"poiid":"B2094757D164A7F9419F","title":"雷哲发型工作室","lon":"121.227899367","lat":"31.0051595035","category":"148","category_name":"美容美发店","address":"上海松江区华亭老街546号2楼"},{"poiid":"B2094757D065ABFD409D","title":"黛家小白","lon":"121.23134846","lat":"31.00549096","category":"247","category_name":"餐饮美食","address":"上海市黛家"},{"poiid":"B2094655D268A5F4459C","title":"荣景苑A区(南门)","lon":"121.22492","lat":"31.00385","category":"656","category_name":"大门","address":"松汇中路972弄"},{"poiid":"B2094757D16CA2FD479A","title":"全家便利(松江庙前街店)","lon":"121.23384","lat":"31.005128","category":"117","category_name":"便民商店/便利店","address":"松江区庙前街55号"},{"poiid":"B2094654DB6DABFF4392","title":"荣景苑B区","lon":"121.2267","lat":"31.00489","category":"47","category_name":"住宅区","address":"汇泉路80弄"},{"poiid":"B2094655D268A3F5439C","title":"松汇小区(边门)","lon":"121.23757","lat":"31.00291","category":"47","category_name":"住宅区","address":"松汇中路425弄"},{"poiid":"B2094655D268A1FE4499","title":"小塔前","lon":"121.23128","lat":"31.00554","category":"47","category_name":"住宅区","address":""},{"poiid":"B2094655D268A2FB499D","title":"小塔前(东门)","lon":"121.23149","lat":"31.00555","category":"47","category_name":"住宅区","address":""},{"poiid":"B2094655D268A1FE449E","title":"上海市松江区食品药品监督所","lon":"121.2293","lat":"31.00525","category":"250","category_name":"公园户外","address":"人民南路74号"},{"poiid":"B2094752D36BA5FB459B","title":"避风塘(松江城区店)","lon":"121.23458","lat":"31.00452","category":"72","category_name":"广东菜","address":"松江区松汇中路568号B座1-2楼"},{"poiid":"B2094654DB6DAAFD4598","title":"鑫栗王(庙前街)","lon":"121.23352","lat":"31.00578","category":"117","category_name":"便民商店/便利店","address":""},{"poiid":"B2094654DB6EA2FC469E","title":"上海市松江区文化馆","lon":"121.23707","lat":"31.00421","category":"188","category_name":"文化宫","address":"古阳南路24号24"},{"poiid":"B2094753D56CA0FC4692","title":"韩国想象乐幼儿创意中心","lon":"121.238891","lat":"31.002405","category":"253","category_name":"校园生活","address":"松江区松汇中路568号B座3楼"},{"poiid":"B2094757D66DA6F54893","title":"王磊形象公社","lon":"121.226397467","lat":"31.0054619601","category":"148","category_name":"美容美发店","address":"上海松江区中山中路华亭老街413号"},{"poiid":"B2094654DB6DABF84293","title":"人民路邮政储蓄(松江·人民南路)","lon":"121.22869","lat":"31.00527","category":"150","category_name":"银行","address":""},{"poiid":"B2094654DB6DABF8429E","title":"松江邮政局","lon":"121.2287","lat":"31.00544","category":"248","category_name":"生活娱乐","address":"松江镇人民南路65号"},{"poiid":"B2094655D268A3FD479C","title":"松江清真寺(东门)","lon":"121.2276","lat":"31.00593","category":"680","category_name":"楼宇机构","address":"松江镇中山中路339"},{"poiid":"B2094655D268A7FE4993","title":"天主教上海教区松江阔街天主堂(北门)","lon":"121.23013","lat":"31.00538","category":"680","category_name":"楼宇机构","address":"阔街53弄"},{"poiid":"B2094757D16AA6FA489E","title":"松江12路","lon":"121.23135646","lat":"31.005533961","category":"500","category_name":"未知分类","address":"上海人民北路"},{"poiid":"B2094757D66EA6FC499D","title":"上海市工商行政管理局松江分局检查支队","lon":"121.22262755","lat":"31.003967629","category":"500","category_name":"未知分类","address":"上海市松江区松汇中路1060号(近西林南路)"},{"poiid":"B2094757D66CABFE4193","title":"人民路邮政支局","lon":"121.22650946","lat":"31.005547962","category":"252","category_name":"楼宇机构","address":"上海松江区人民南路65号"},{"poiid":"B2094655D26FAAFD4393","title":"海琴岛咖啡","lon":"121.23051","lat":"31.00617","category":"260","category_name":"其他","address":"松江区中山中路209号"},{"poiid":"B2094654DB64A1F5409B","title":"三联刻章","lon":"121.22871","lat":"31.00438","category":"248","category_name":"生活娱乐","address":"人民南路53"},{"poiid":"B2094757D66DAAFA449B","title":"妙严寺邮政所","lon":"121.232458467","lat":"31.0057462663","category":"252","category_name":"楼宇机构","address":"上海松江区中山中路258号"},{"poiid":"B2094654DB6DABFF419B","title":"中国电信松江电信局城厢分局","lon":"121.22834","lat":"31.00575","category":"263","category_name":"公司","address":""},{"poiid":"B2094752D065A3FD4593","title":"上海虹桥","lon":"121.239889","lat":"31.001732","category":"500","category_name":"未知分类","address":null},{"poiid":"B2094655D268A3FD489A","title":"荣景苑B区(西门)","lon":"121.22621","lat":"31.00566","category":"48","category_name":"楼宇大门","address":"汇泉路80弄"},{"poiid":"B2094655D268A3F54392","title":"松汇小区(东二门)","lon":"121.23736","lat":"31.00175","category":"656","category_name":"大门","address":"松汇中路47弄12"},{"poiid":"B2094654DB6DABF8439B","title":"松江烟草糖酒有限公司卷烟营销部","lon":"121.2287","lat":"31.00505","category":"136","category_name":"烟酒专卖店","address":""},{"poiid":"B2094654DB6DABFA4898","title":"荣景苑A区(东门)","lon":"121.22592","lat":"31.00389","category":"656","category_name":"大门","address":""},{"poiid":"B2094655D268A3F5439D","title":"松汇小区(东门)","lon":"121.23726","lat":"31.00224","category":"656","category_name":"大门","address":"谷阳南路425弄"},{"poiid":"B2094655D268A3FD4799","title":"松汇小区(侧门)","lon":"121.23815","lat":"31.00299","category":"656","category_name":"大门","address":"松汇中路401弄8号"}]