[{"poiid":"B2094654D56BA5FD449E","title":"上海世贸商城","lon":"121.40178454613692","lat":"31.202522602753472","category":"119","category_name":"商场","address":"长宁区延安西路2299号(近古北路)"},{"poiid":"B2094750D76DA5F9409B","title":"竹若金枪鱼(古北店)","lon":"121.4","lat":"31.206","category":"95","category_name":"日本料理","address":"长宁区仙霞路321号百科苑4楼"},{"poiid":"B2094757D06FA2F8439B","title":"虹桥美爵酒店","lon":"121.397414694","lat":"31.2062444706","category":"213","category_name":"五星级宾馆","address":"长宁区仙霞路369号美爵大酒店内(近芙蓉江路)"},{"poiid":"B2094757D06FA0FF4593","title":"长宁区出入境管理局","lon":"121.399051","lat":"31.201562","category":"46","category_name":"楼宇","address":"上海古北路788号"},{"poiid":"B2094757D068A6FC449B","title":"韩国领事馆","lon":"121.401656","lat":"31.204408","category":"500","category_name":"未知分类","address":"上海万山路60号"},{"poiid":"B2094757D06FA1FB419C","title":"上海工程技术大学(仙霞路校区)","lon":"121.396983","lat":"31.205297","category":"671","category_name":"高校中心点","address":"长宁区虹桥开发区仙霞路350号"},{"poiid":"B2094654D56BA5FD419C","title":"上海世贸大厦","lon":"121.39981","lat":"31.20137","category":"46","category_name":"楼宇","address":"延安西路2299号"},{"poiid":"B2094655D26AA6FC4193","title":"世贸商城展览中心","lon":"121.40105","lat":"31.20177","category":"247","category_name":"餐饮美食","address":"长宁区延安西路2299号世贸商城内(近古北路)"},{"poiid":"B2094757D06FA5FB479A","title":"新加坡共和国驻上海总领事馆‎","lon":"121.401626587","lat":"31.205165863","category":"260","category_name":"其他","address":"上海万山路89号"},{"poiid":"B2094655D26DA7F84592","title":"日本国总领事馆","lon":"121.40135","lat":"31.2035","category":"252","category_name":"楼宇机构","address":""},{"poiid":"B2094757D068AAFC459D","title":"小南国烧烤(古北店)","lon":"121.40006","lat":"31.20552","category":"95","category_name":"日本料理","address":"上海长宁区古北路666号嘉麒大厦102、202室(仙霞路口)  "},{"poiid":"B2094655D26DA0F4419B","title":"远东国际广场A栋","lon":"121.40071","lat":"31.20648","category":"46","category_name":"楼宇","address":"上海市长宁区仙霞路319号(古北路路口)"},{"poiid":"B2094757D068A2FD4693","title":"御香海 仙霞店 Gokohai","lon":"121.39730505196","lat":"31.206043166974","category":"95","category_name":"日本料理","address":"长宁区仙霞路335号1楼(近古北路)"},{"poiid":"B2094655D36CA6FC459F","title":"古北路仙霞路","lon":"121.40016","lat":"31.20626","category":"38","category_name":"公交车站","address":""},{"poiid":"B2094751D26DA0F84898","title":"神田烧肉(遵义南路店)","lon":"121.40104","lat":"31.20542","category":"269","category_name":"烧烤","address":"长宁区遵义南路88号3楼(近仙霞路)"},{"poiid":"B2094751DA6FA6FE409C","title":"白熊咖喱","lon":"121.396338","lat":"31.202841","category":"247","category_name":"餐饮美食","address":"长宁区虹桥路1438号上海高岛屋百货B1楼008号铺(近红宝石路)"},{"poiid":"B2094654D56BA5FD449D","title":"上海世贸商城(北门)","lon":"121.4018","lat":"31.20262","category":"656","category_name":"大门","address":"长宁延安西路2299号"},{"poiid":"B2094757D06BA6F9499B","title":"巴谷乡情","lon":"121.39876709053","lat":"31.206206734394","category":"71","category_name":"四川菜","address":"长宁区仙霞路321号百科苑2楼(近古北路)"},{"poiid":"B2094654D56BA7FB499B","title":"现代广场","lon":"121.39741","lat":"31.20623","category":"46","category_name":"楼宇","address":"上海市长宁区仙霞路369号"},{"poiid":"B2094757D069A5FA459F","title":"田野 TAYA","lon":"121.400507054","lat":"31.206150793","category":"95","category_name":"日本料理","address":"长宁区仙霞路319号远东国际广场B栋1楼02-05(近古北路)"},{"poiid":"B2094757D069A5F9409D","title":"杰熙台球酒吧会所","lon":"121.39894297","lat":"31.205978511","category":"171","category_name":"台球厅","address":"上海长宁区仙霞路333号B1"},{"poiid":"B2094655D26EA5FD449E","title":"秋之港","lon":"121.39872608666","lat":"31.203478155815","category":"95","category_name":"日本料理","address":"虹古路106号近古北路"},{"poiid":"B2094757D06BA5FB4898","title":"阵屋日本料理(虹桥店)","lon":"121.39800262","lat":"31.205600738","category":"95","category_name":"日本料理","address":"长宁区仙霞路333号东方维京大厦(近古北路)"},{"poiid":"B2094654D56BA6FB4798","title":"金色阳光","lon":"121.39788","lat":"31.20396","category":"248","category_name":"生活娱乐","address":"长宁区虹古路88号"},{"poiid":"B2094757D064ABF84892","title":"百蝶日式料理店(兴义路店)","lon":"121.39939796","lat":"31.202785374","category":"95","category_name":"日本料理","address":"长宁区兴义路85号(近娄山关路)"},{"poiid":"B2094654D56BA6F5479A","title":"上海市公安局长宁分局出入境管理办公室","lon":"121.39842","lat":"31.20194","category":"248","category_name":"生活娱乐","address":"古北路788-790"},{"poiid":"B2094757D069A7F44798","title":"渔福日本料理 延安店","lon":"121.40234","lat":"31.20162","category":"95","category_name":"日本料理","address":"长宁区延安西路2299号世贸商城2楼(近古北路)"},{"poiid":"B2094757D465A7FC4099","title":"幸正宗","lon":"121.401288","lat":"31.200963","category":"95","category_name":"日本料理","address":"长宁区延安西路2000号虹桥宾馆1楼(近凯虹路)"},{"poiid":"B2094655D26EA5FA469A","title":"顺烧肉","lon":"121.39824945137","lat":"31.206106676648","category":"269","category_name":"烧烤","address":"长宁区仙霞路345号东方世纪大厦2楼(近古北路)"},{"poiid":"B2094654D56BA6FB499A","title":"中国移动古北路营业厅","lon":"121.39955","lat":"31.20483","category":"151","category_name":"电讯营业厅","address":"长宁区古北路678号"},{"poiid":"B2094750D26EAAF5439C","title":"古北国际财富中心","lon":"121.401069","lat":"31.200679","category":"252","category_name":"楼宇机构","address":"上海市长宁区虹桥路1452号"},{"poiid":"B2094752D46FA1FC4993","title":"德站琪","lon":"121.398331","lat":"31.205938","category":"247","category_name":"餐饮美食","address":"长宁区仙霞路161号（近）娄山关路"},{"poiid":"B2094757D16FA3FA4998","title":"虹景花苑","lon":"121.3989","lat":"31.202728","category":"47","category_name":"住宅区","address":"上海虹古路11弄"},{"poiid":"B2094654D564A2F9419F","title":"明珠大楼","lon":"121.399344","lat":"31.202293","category":"46","category_name":"楼宇","address":"水城南路55,59号"},{"poiid":"B2094757D06AA6FA4298","title":"上岛咖啡 仙霞路店 UBC Coffee","lon":"121.40013312345","lat":"31.206124266257","category":"65","category_name":"咖啡厅","address":"仙霞路327号近古北路"},{"poiid":"B2094654D56BA6FB479D","title":"虹景家苑","lon":"121.3984","lat":"31.20437","category":"47","category_name":"住宅区","address":"虹景家苑位于长宁虹古路8弄"},{"poiid":"B2094655D26DA3F9409A","title":"嘉海办公楼","lon":"121.39961","lat":"31.20406","category":"46","category_name":"楼宇","address":"古北路716"},{"poiid":"B2094757D66DA6F84593","title":"上海金田摄影事务所","lon":"121.397168486","lat":"31.2042295226","category":"46","category_name":"楼宇","address":"长宁区仙霞路350号上海工程技术大学创意楼311室(近古北路)"},{"poiid":"B2094750D26CA3F4459A","title":"和膳六麓","lon":"121.400668","lat":"31.206358","category":"95","category_name":"日本料理","address":"长宁区仙霞路299号远东国际广场2楼(近古北路)"},{"poiid":"B2094654D56BA5FF449B","title":"大韩民国总领事馆","lon":"121.40165","lat":"31.20441","category":"252","category_name":"楼宇机构","address":"万山路60"},{"poiid":"B2094751D36DA5F44998","title":"割烹脇","lon":"121.39843","lat":"31.20597","category":"95","category_name":"日本料理","address":"长宁区仙霞路335号荣博商务楼1楼(近古北路)"},{"poiid":"B2094757D06FA5F9439C","title":"中法埃菲时装设计师学院","lon":"121.40098571","lat":"31.201873779","category":"52","category_name":"高等院校","address":"上海长宁区仙霞路350号"},{"poiid":"B2094654D56BA6FB479E","title":"秋の港","lon":"121.39713","lat":"31.20374","category":"257","category_name":"中餐厅","address":"虹古路106号"},{"poiid":"B2094655D36CA6FC459C","title":"古北路兴义路","lon":"121.39912","lat":"31.20182","category":"38","category_name":"公交车站","address":""},{"poiid":"B2094757D465ABFE419A","title":"岚亭餐厅 L'A trium Restaurant","lon":"121.396805","lat":"31.205999","category":"268","category_name":"自助","address":"长宁区仙霞路369号"},{"poiid":"B2094757D16CA6FC4293","title":"广发银行(虹桥支行)","lon":"121.39987","lat":"31.20379","category":"500","category_name":"未知分类","address":"上海长宁区古北路716号  "},{"poiid":"B2094757D464A7FF459D","title":"双子庵日本料理 FUTAGO-AN","lon":"121.398249054","lat":"31.206106793","category":"95","category_name":"日本料理","address":"长宁区仙霞路345号东方出版中心2楼(近古北路)"},{"poiid":"B2094757D16DA5F94198","title":"上海工程技术大学食堂","lon":"121.3976","lat":"31.20526","category":"68","category_name":"快餐厅","address":"长宁区仙霞路350号上海工程技术大学校园内(近古北路)"},{"poiid":"B2094654D56BA6FB4899","title":"两岸咖啡 古北店","lon":"121.39978797847","lat":"31.205999166001","category":"260","category_name":"其他","address":"长宁区古北路688号(近仙霞路)"},{"poiid":"B2094654D56BA7FB4998","title":"上海虹桥美爵酒店(南门)","lon":"121.39628","lat":"31.206","category":"656","category_name":"大门","address":"上海市仙霞路369号（近芙蓉江路）"},{"poiid":"B2094654D56BA5FD449E","title":"上海世贸商城","lon":"121.40178454613692","lat":"31.202522602753472","category":"119","category_name":"商场","address":"长宁区延安西路2299号(近古北路)"},{"poiid":"B2094750D76DA5F9409B","title":"竹若金枪鱼(古北店)","lon":"121.4","lat":"31.206","category":"95","category_name":"日本料理","address":"长宁区仙霞路321号百科苑4楼"},{"poiid":"B2094757D06FA2F8439B","title":"虹桥美爵酒店","lon":"121.397414694","lat":"31.2062444706","category":"213","category_name":"五星级宾馆","address":"长宁区仙霞路369号美爵大酒店内(近芙蓉江路)"},{"poiid":"B2094757D06FA0FF4593","title":"长宁区出入境管理局","lon":"121.399051","lat":"31.201562","category":"46","category_name":"楼宇","address":"上海古北路788号"},{"poiid":"B2094757D068A6FC449B","title":"韩国领事馆","lon":"121.401656","lat":"31.204408","category":"500","category_name":"未知分类","address":"上海万山路60号"},{"poiid":"B2094757D06FA1FB419C","title":"上海工程技术大学(仙霞路校区)","lon":"121.396983","lat":"31.205297","category":"671","category_name":"高校中心点","address":"长宁区虹桥开发区仙霞路350号"},{"poiid":"B2094654D56BA5FD419C","title":"上海世贸大厦","lon":"121.39981","lat":"31.20137","category":"46","category_name":"楼宇","address":"延安西路2299号"},{"poiid":"B2094655D26AA6FC4193","title":"世贸商城展览中心","lon":"121.40105","lat":"31.20177","category":"247","category_name":"餐饮美食","address":"长宁区延安西路2299号世贸商城内(近古北路)"},{"poiid":"B2094757D06FA5FB479A","title":"新加坡共和国驻上海总领事馆‎","lon":"121.401626587","lat":"31.205165863","category":"260","category_name":"其他","address":"上海万山路89号"},{"poiid":"B2094655D26DA7F84592","title":"日本国总领事馆","lon":"121.40135","lat":"31.2035","category":"252","category_name":"楼宇机构","address":""},{"poiid":"B2094757D068AAFC459D","title":"小南国烧烤(古北店)","lon":"121.40006","lat":"31.20552","category":"95","category_name":"日本料理","address":"上海长宁区古北路666号嘉麒大厦102、202室(仙霞路口)  "},{"poiid":"B2094655D26DA0F4419B","title":"远东国际广场A栋","lon":"121.40071","lat":"31.20648","category":"46","category_name":"楼宇","address":"上海市长宁区仙霞路319号(古北路路口)"},{"poiid":"B2094757D068A2FD4693","title":"御香海 仙霞店 Gokohai","lon":"121.39730505196","lat":"31.206043166974","category":"95","category_name":"日本料理","address":"长宁区仙霞路335号1楼(近古北路)"},{"poiid":"B2094655D36CA6FC459F","title":"古北路仙霞路","lon":"121.40016","lat":"31.20626","category":"38","category_name":"公交车站","address":""},{"poiid":"B2094751D26DA0F84898","title":"神田烧肉(遵义南路店)","lon":"121.40104","lat":"31.20542","category":"269","category_name":"烧烤","address":"长宁区遵义南路88号3楼(近仙霞路)"},{"poiid":"B2094751DA6FA6FE409C","title":"白熊咖喱","lon":"121.396338","lat":"31.202841","category":"247","category_name":"餐饮美食","address":"长宁区虹桥路1438号上海高岛屋百货B1楼008号铺(近红宝石路)"},{"poiid":"B2094654D56BA5FD449D","title":"上海世贸商城(北门)","lon":"121.4018","lat":"31.20262","category":"656","category_name":"大门","address":"长宁延安西路2299号"},{"poiid":"B2094757D06BA6F9499B","title":"巴谷乡情","lon":"121.39876709053","lat":"31.206206734394","category":"71","category_name":"四川菜","address":"长宁区仙霞路321号百科苑2楼(近古北路)"},{"poiid":"B2094654D56BA7FB499B","title":"现代广场","lon":"121.39741","lat":"31.20623","category":"46","category_name":"楼宇","address":"上海市长宁区仙霞路369号"},{"poiid":"B2094757D069A5FA459F","title":"田野 TAYA","lon":"121.400507054","lat":"31.206150793","category":"95","category_name":"日本料理","address":"长宁区仙霞路319号远东国际广场B栋1楼02-05(近古北路)"},{"poiid":"B2094757D069A5F9409D","title":"杰熙台球酒吧会所","lon":"121.39894297","lat":"31.205978511","category":"171","category_name":"台球厅","address":"上海长宁区仙霞路333号B1"},{"poiid":"B2094655D26EA5FD449E","title":"秋之港","lon":"121.39872608666","lat":"31.203478155815","category":"95","category_name":"日本料理","address":"虹古路106号近古北路"},{"poiid":"B2094757D06BA5FB4898","title":"阵屋日本料理(虹桥店)","lon":"121.39800262","lat":"31.205600738","category":"95","category_name":"日本料理","address":"长宁区仙霞路333号东方维京大厦(近古北路)"},{"poiid":"B2094654D56BA6FB4798","title":"金色阳光","lon":"121.39788","lat":"31.20396","category":"248","category_name":"生活娱乐","address":"长宁区虹古路88号"},{"poiid":"B2094757D064ABF84892","title":"百蝶日式料理店(兴义路店)","lon":"121.39939796","lat":"31.202785374","category":"95","category_name":"日本料理","address":"长宁区兴义路85号(近娄山关路)"},{"poiid":"B2094654D56BA6F5479A","title":"上海市公安局长宁分局出入境管理办公室","lon":"121.39842","lat":"31.20194","category":"248","category_name":"生活娱乐","address":"古北路788-790"},{"poiid":"B2094757D069A7F44798","title":"渔福日本料理 延安店","lon":"121.40234","lat":"31.20162","category":"95","category_name":"日本料理","address":"长宁区延安西路2299号世贸商城2楼(近古北路)"},{"poiid":"B2094757D465A7FC4099","title":"幸正宗","lon":"121.401288","lat":"31.200963","category":"95","category_name":"日本料理","address":"长宁区延安西路2000号虹桥宾馆1楼(近凯虹路)"},{"poiid":"B2094655D26EA5FA469A","title":"顺烧肉","lon":"121.39824945137","lat":"31.206106676648","category":"269","category_name":"烧烤","address":"长宁区仙霞路345号东方世纪大厦2楼(近古北路)"},{"poiid":"B2094654D56BA6FB499A","title":"中国移动古北路营业厅","lon":"121.39955","lat":"31.20483","category":"151","category_name":"电讯营业厅","address":"长宁区古北路678号"},{"poiid":"B2094750D26EAAF5439C","title":"古北国际财富中心","lon":"121.401069","lat":"31.200679","category":"252","category_name":"楼宇机构","address":"上海市长宁区虹桥路1452号"},{"poiid":"B2094752D46FA1FC4993","title":"德站琪","lon":"121.398331","lat":"31.205938","category":"247","category_name":"餐饮美食","address":"长宁区仙霞路161号（近）娄山关路"},{"poiid":"B2094757D16FA3FA4998","title":"虹景花苑","lon":"121.3989","lat":"31.202728","category":"47","category_name":"住宅区","address":"上海虹古路11弄"},{"poiid":"B2094654D564A2F9419F","title":"明珠大楼","lon":"121.399344","lat":"31.202293","category":"46","category_name":"楼宇","address":"水城南路55,59号"},{"poiid":"B2094757D06AA6FA4298","title":"上岛咖啡 仙霞路店 UBC Coffee","lon":"121.40013312345","lat":"31.206124266257","category":"65","category_name":"咖啡厅","address":"仙霞路327号近古北路"},{"poiid":"B2094654D56BA6FB479D","title":"虹景家苑","lon":"121.3984","lat":"31.20437","category":"47","category_name":"住宅区","address":"虹景家苑位于长宁虹古路8弄"},{"poiid":"B2094655D26DA3F9409A","title":"嘉海办公楼","lon":"121.39961","lat":"31.20406","category":"46","category_name":"楼宇","address":"古北路716"},{"poiid":"B2094757D66DA6F84593","title":"上海金田摄影事务所","lon":"121.397168486","lat":"31.2042295226","category":"46","category_name":"楼宇","address":"长宁区仙霞路350号上海工程技术大学创意楼311室(近古北路)"},{"poiid":"B2094750D26CA3F4459A","title":"和膳六麓","lon":"121.400668","lat":"31.206358","category":"95","category_name":"日本料理","address":"长宁区仙霞路299号远东国际广场2楼(近古北路)"},{"poiid":"B2094654D56BA5FF449B","title":"大韩民国总领事馆","lon":"121.40165","lat":"31.20441","category":"252","category_name":"楼宇机构","address":"万山路60"},{"poiid":"B2094751D36DA5F44998","title":"割烹脇","lon":"121.39843","lat":"31.20597","category":"95","category_name":"日本料理","address":"长宁区仙霞路335号荣博商务楼1楼(近古北路)"},{"poiid":"B2094757D06FA5F9439C","title":"中法埃菲时装设计师学院","lon":"121.40098571","lat":"31.201873779","category":"52","category_name":"高等院校","address":"上海长宁区仙霞路350号"},{"poiid":"B2094654D56BA6FB479E","title":"秋の港","lon":"121.39713","lat":"31.20374","category":"257","category_name":"中餐厅","address":"虹古路106号"},{"poiid":"B2094655D36CA6FC459C","title":"古北路兴义路","lon":"121.39912","lat":"31.20182","category":"38","category_name":"公交车站","address":""},{"poiid":"B2094757D465ABFE419A","title":"岚亭餐厅 L'A trium Restaurant","lon":"121.396805","lat":"31.205999","category":"268","category_name":"自助","address":"长宁区仙霞路369号"},{"poiid":"B2094757D16CA6FC4293","title":"广发银行(虹桥支行)","lon":"121.39987","lat":"31.20379","category":"500","category_name":"未知分类","address":"上海长宁区古北路716号  "},{"poiid":"B2094757D464A7FF459D","title":"双子庵日本料理 FUTAGO-AN","lon":"121.398249054","lat":"31.206106793","category":"95","category_name":"日本料理","address":"长宁区仙霞路345号东方出版中心2楼(近古北路)"},{"poiid":"B2094757D16DA5F94198","title":"上海工程技术大学食堂","lon":"121.3976","lat":"31.20526","category":"68","category_name":"快餐厅","address":"长宁区仙霞路350号上海工程技术大学校园内(近古北路)"},{"poiid":"B2094654D56BA6FB4899","title":"两岸咖啡 古北店","lon":"121.39978797847","lat":"31.205999166001","category":"260","category_name":"其他","address":"长宁区古北路688号(近仙霞路)"},{"poiid":"B2094654D56BA7FB4998","title":"上海虹桥美爵酒店(南门)","lon":"121.39628","lat":"31.206","category":"656","category_name":"大门","address":"上海市仙霞路369号（近芙蓉江路）"},{"poiid":"B2094654D56BA5FD449E","title":"上海世贸商城","lon":"121.40178454613692","lat":"31.202522602753472","category":"119","category_name":"商场","address":"长宁区延安西路2299号(近古北路)"},{"poiid":"B2094750D76DA5F9409B","title":"竹若金枪鱼(古北店)","lon":"121.4","lat":"31.206","category":"95","category_name":"日本料理","address":"长宁区仙霞路321号百科苑4楼"},{"poiid":"B2094757D06FA2F8439B","title":"虹桥美爵酒店","lon":"121.397414694","lat":"31.2062444706","category":"213","category_name":"五星级宾馆","address":"长宁区仙霞路369号美爵大酒店内(近芙蓉江路)"},{"poiid":"B2094757D06FA0FF4593","title":"长宁区出入境管理局","lon":"121.399051","lat":"31.201562","category":"46","category_name":"楼宇","address":"上海古北路788号"},{"poiid":"B2094757D068A6FC449B","title":"韩国领事馆","lon":"121.401656","lat":"31.204408","category":"500","category_name":"未知分类","address":"上海万山路60号"},{"poiid":"B2094757D06FA1FB419C","title":"上海工程技术大学(仙霞路校区)","lon":"121.396983","lat":"31.205297","category":"671","category_name":"高校中心点","address":"长宁区虹桥开发区仙霞路350号"},{"poiid":"B2094654D56BA5FD419C","title":"上海世贸大厦","lon":"121.39981","lat":"31.20137","category":"46","category_name":"楼宇","address":"延安西路2299号"},{"poiid":"B2094655D26AA6FC4193","title":"世贸商城展览中心","lon":"121.40105","lat":"31.20177","category":"247","category_name":"餐饮美食","address":"长宁区延安西路2299号世贸商城内(近古北路)"},{"poiid":"B2094757D06FA5FB479A","title":"新加坡共和国驻上海总领事馆‎","lon":"121.401626587","lat":"31.205165863","category":"260","category_name":"其他","address":"上海万山路89号"},{"poiid":"B2094655D26DA7F84592","title":"日本国总领事馆","lon":"121.40135","lat":"31.2035","category":"252","category_name":"楼宇机构","address":""},{"poiid":"B2094757D068AAFC459D","title":"小南国烧烤(古北店)","lon":"121.40006","lat":"31.20552","category":"95","category_name":"日本料理","address":"上海长宁区古北路666号嘉麒大厦102、202室(仙霞路口)  "},{"poiid":"B2094655D26DA0F4419B","title":"远东国际广场A栋","lon":"121.40071","lat":"31.20648","category":"46","category_name":"楼宇","address":"上海市长宁区仙霞路319号(古北路路口)"},{"poiid":"B2094757D068A2FD4693","title":"御香海 仙霞店 Gokohai","lon":"121.39730505196","lat":"31.206043166974","category":"95","category_name":"日本料理","address":"长宁区仙霞路335号1楼(近古北路)"},{"poiid":"B2094655D36CA6FC459F","title":"古北路仙霞路","lon":"121.40016","lat":"31.20626","category":"38","category_name":"公交车站","address":""},{"poiid":"B2094751D26DA0F84898","title":"神田烧肉(遵义南路店)","lon":"121.40104","lat":"31.20542","category":"269","category_name":"烧烤","address":"长宁区遵义南路88号3楼(近仙霞路)"},{"poiid":"B2094751DA6FA6FE409C","title":"白熊咖喱","lon":"121.396338","lat":"31.202841","category":"247","category_name":"餐饮美食","address":"长宁区虹桥路1438号上海高岛屋百货B1楼008号铺(近红宝石路)"},{"poiid":"B2094654D56BA5FD449D","title":"上海世贸商城(北门)","lon":"121.4018","lat":"31.20262","category":"656","category_name":"大门","address":"长宁延安西路2299号"},{"poiid":"B2094757D06BA6F9499B","title":"巴谷乡情","lon":"121.39876709053","lat":"31.206206734394","category":"71","category_name":"四川菜","address":"长宁区仙霞路321号百科苑2楼(近古北路)"},{"poiid":"B2094654D56BA7FB499B","title":"现代广场","lon":"121.39741","lat":"31.20623","category":"46","category_name":"楼宇","address":"上海市长宁区仙霞路369号"},{"poiid":"B2094757D069A5FA459F","title":"田野 TAYA","lon":"121.400507054","lat":"31.206150793","category":"95","category_name":"日本料理","address":"长宁区仙霞路319号远东国际广场B栋1楼02-05(近古北路)"},{"poiid":"B2094757D069A5F9409D","title":"杰熙台球酒吧会所","lon":"121.39894297","lat":"31.205978511","category":"171","category_name":"台球厅","address":"上海长宁区仙霞路333号B1"},{"poiid":"B2094655D26EA5FD449E","title":"秋之港","lon":"121.39872608666","lat":"31.203478155815","category":"95","category_name":"日本料理","address":"虹古路106号近古北路"},{"poiid":"B2094757D06BA5FB4898","title":"阵屋日本料理(虹桥店)","lon":"121.39800262","lat":"31.205600738","category":"95","category_name":"日本料理","address":"长宁区仙霞路333号东方维京大厦(近古北路)"},{"poiid":"B2094654D56BA6FB4798","title":"金色阳光","lon":"121.39788","lat":"31.20396","category":"248","category_name":"生活娱乐","address":"长宁区虹古路88号"},{"poiid":"B2094757D064ABF84892","title":"百蝶日式料理店(兴义路店)","lon":"121.39939796","lat":"31.202785374","category":"95","category_name":"日本料理","address":"长宁区兴义路85号(近娄山关路)"},{"poiid":"B2094654D56BA6F5479A","title":"上海市公安局长宁分局出入境管理办公室","lon":"121.39842","lat":"31.20194","category":"248","category_name":"生活娱乐","address":"古北路788-790"},{"poiid":"B2094757D069A7F44798","title":"渔福日本料理 延安店","lon":"121.40234","lat":"31.20162","category":"95","category_name":"日本料理","address":"长宁区延安西路2299号世贸商城2楼(近古北路)"},{"poiid":"B2094757D465A7FC4099","title":"幸正宗","lon":"121.401288","lat":"31.200963","category":"95","category_name":"日本料理","address":"长宁区延安西路2000号虹桥宾馆1楼(近凯虹路)"},{"poiid":"B2094655D26EA5FA469A","title":"顺烧肉","lon":"121.39824945137","lat":"31.206106676648","category":"269","category_name":"烧烤","address":"长宁区仙霞路345号东方世纪大厦2楼(近古北路)"},{"poiid":"B2094654D56BA6FB499A","title":"中国移动古北路营业厅","lon":"121.39955","lat":"31.20483","category":"151","category_name":"电讯营业厅","address":"长宁区古北路678号"},{"poiid":"B2094750D26EAAF5439C","title":"古北国际财富中心","lon":"121.401069","lat":"31.200679","category":"252","category_name":"楼宇机构","address":"上海市长宁区虹桥路1452号"},{"poiid":"B2094752D46FA1FC4993","title":"德站琪","lon":"121.398331","lat":"31.205938","category":"247","category_name":"餐饮美食","address":"长宁区仙霞路161号（近）娄山关路"},{"poiid":"B2094757D16FA3FA4998","title":"虹景花苑","lon":"121.3989","lat":"31.202728","category":"47","category_name":"住宅区","address":"上海虹古路11弄"},{"poiid":"B2094654D564A2F9419F","title":"明珠大楼","lon":"121.399344","lat":"31.202293","category":"46","category_name":"楼宇","address":"水城南路55,59号"},{"poiid":"B2094757D06AA6FA4298","title":"上岛咖啡 仙霞路店 UBC Coffee","lon":"121.40013312345","lat":"31.206124266257","category":"65","category_name":"咖啡厅","address":"仙霞路327号近古北路"},{"poiid":"B2094654D56BA6FB479D","title":"虹景家苑","lon":"121.3984","lat":"31.20437","category":"47","category_name":"住宅区","address":"虹景家苑位于长宁虹古路8弄"},{"poiid":"B2094655D26DA3F9409A","title":"嘉海办公楼","lon":"121.39961","lat":"31.20406","category":"46","category_name":"楼宇","address":"古北路716"},{"poiid":"B2094757D66DA6F84593","title":"上海金田摄影事务所","lon":"121.397168486","lat":"31.2042295226","category":"46","category_name":"楼宇","address":"长宁区仙霞路350号上海工程技术大学创意楼311室(近古北路)"},{"poiid":"B2094750D26CA3F4459A","title":"和膳六麓","lon":"121.400668","lat":"31.206358","category":"95","category_name":"日本料理","address":"长宁区仙霞路299号远东国际广场2楼(近古北路)"},{"poiid":"B2094654D56BA5FF449B","title":"大韩民国总领事馆","lon":"121.40165","lat":"31.20441","category":"252","category_name":"楼宇机构","address":"万山路60"},{"poiid":"B2094751D36DA5F44998","title":"割烹脇","lon":"121.39843","lat":"31.20597","category":"95","category_name":"日本料理","address":"长宁区仙霞路335号荣博商务楼1楼(近古北路)"},{"poiid":"B2094757D06FA5F9439C","title":"中法埃菲时装设计师学院","lon":"121.40098571","lat":"31.201873779","category":"52","category_name":"高等院校","address":"上海长宁区仙霞路350号"},{"poiid":"B2094654D56BA6FB479E","title":"秋の港","lon":"121.39713","lat":"31.20374","category":"257","category_name":"中餐厅","address":"虹古路106号"},{"poiid":"B2094655D36CA6FC459C","title":"古北路兴义路","lon":"121.39912","lat":"31.20182","category":"38","category_name":"公交车站","address":""},{"poiid":"B2094757D465ABFE419A","title":"岚亭餐厅 L'A trium Restaurant","lon":"121.396805","lat":"31.205999","category":"268","category_name":"自助","address":"长宁区仙霞路369号"},{"poiid":"B2094757D16CA6FC4293","title":"广发银行(虹桥支行)","lon":"121.39987","lat":"31.20379","category":"500","category_name":"未知分类","address":"上海长宁区古北路716号  "},{"poiid":"B2094757D464A7FF459D","title":"双子庵日本料理 FUTAGO-AN","lon":"121.398249054","lat":"31.206106793","category":"95","category_name":"日本料理","address":"长宁区仙霞路345号东方出版中心2楼(近古北路)"},{"poiid":"B2094757D16DA5F94198","title":"上海工程技术大学食堂","lon":"121.3976","lat":"31.20526","category":"68","category_name":"快餐厅","address":"长宁区仙霞路350号上海工程技术大学校园内(近古北路)"},{"poiid":"B2094654D56BA6FB4899","title":"两岸咖啡 古北店","lon":"121.39978797847","lat":"31.205999166001","category":"260","category_name":"其他","address":"长宁区古北路688号(近仙霞路)"},{"poiid":"B2094654D56BA7FB4998","title":"上海虹桥美爵酒店(南门)","lon":"121.39628","lat":"31.206","category":"656","category_name":"大门","address":"上海市仙霞路369号（近芙蓉江路）"},{"poiid":"B2094654D56BA5FD449E","title":"上海世贸商城","lon":"121.40178454613692","lat":"31.202522602753472","category":"119","category_name":"商场","address":"长宁区延安西路2299号(近古北路)"},{"poiid":"B2094750D76DA5F9409B","title":"竹若金枪鱼(古北店)","lon":"121.4","lat":"31.206","category":"95","category_name":"日本料理","address":"长宁区仙霞路321号百科苑4楼"},{"poiid":"B2094757D06FA2F8439B","title":"虹桥美爵酒店","lon":"121.397414694","lat":"31.2062444706","category":"213","category_name":"五星级宾馆","address":"长宁区仙霞路369号美爵大酒店内(近芙蓉江路)"},{"poiid":"B2094757D06FA0FF4593","title":"长宁区出入境管理局","lon":"121.399051","lat":"31.201562","category":"46","category_name":"楼宇","address":"上海古北路788号"},{"poiid":"B2094757D068A6FC449B","title":"韩国领事馆","lon":"121.401656","lat":"31.204408","category":"500","category_name":"未知分类","address":"上海万山路60号"},{"poiid":"B2094757D06FA1FB419C","title":"上海工程技术大学(仙霞路校区)","lon":"121.396983","lat":"31.205297","category":"671","category_name":"高校中心点","address":"长宁区虹桥开发区仙霞路350号"},{"poiid":"B2094654D56BA5FD419C","title":"上海世贸大厦","lon":"121.39981","lat":"31.20137","category":"46","category_name":"楼宇","address":"延安西路2299号"},{"poiid":"B2094655D26AA6FC4193","title":"世贸商城展览中心","lon":"121.40105","lat":"31.20177","category":"247","category_name":"餐饮美食","address":"长宁区延安西路2299号世贸商城内(近古北路)"},{"poiid":"B2094757D06FA5FB479A","title":"新加坡共和国驻上海总领事馆‎","lon":"121.401626587","lat":"31.205165863","category":"260","category_name":"其他","address":"上海万山路89号"},{"poiid":"B2094655D26DA7F84592","title":"日本国总领事馆","lon":"121.40135","lat":"31.2035","category":"252","category_name":"楼宇机构","address":""},{"poiid":"B2094757D068AAFC459D","title":"小南国烧烤(古北店)","lon":"121.40006","lat":"31.20552","category":"95","category_name":"日本料理","address":"上海长宁区古北路666号嘉麒大厦102、202室(仙霞路口)  "},{"poiid":"B2094655D26DA0F4419B","title":"远东国际广场A栋","lon":"121.40071","lat":"31.20648","category":"46","category_name":"楼宇","address":"上海市长宁区仙霞路319号(古北路路口)"},{"poiid":"B2094757D068A2FD4693","title":"御香海 仙霞店 Gokohai","lon":"121.39730505196","lat":"31.206043166974","category":"95","category_name":"日本料理","address":"长宁区仙霞路335号1楼(近古北路)"},{"poiid":"B2094655D36CA6FC459F","title":"古北路仙霞路","lon":"121.40016","lat":"31.20626","category":"38","category_name":"公交车站","address":""},{"poiid":"B2094751D26DA0F84898","title":"神田烧肉(遵义南路店)","lon":"121.40104","lat":"31.20542","category":"269","category_name":"烧烤","address":"长宁区遵义南路88号3楼(近仙霞路)"},{"poiid":"B2094751DA6FA6FE409C","title":"白熊咖喱","lon":"121.396338","lat":"31.202841","category":"247","category_name":"餐饮美食","address":"长宁区虹桥路1438号上海高岛屋百货B1楼008号铺(近红宝石路)"},{"poiid":"B2094654D56BA5FD449D","title":"上海世贸商城(北门)","lon":"121.4018","lat":"31.20262","category":"656","category_name":"大门","address":"长宁延安西路2299号"},{"poiid":"B2094757D06BA6F9499B","title":"巴谷乡情","lon":"121.39876709053","lat":"31.206206734394","category":"71","category_name":"四川菜","address":"长宁区仙霞路321号百科苑2楼(近古北路)"},{"poiid":"B2094654D56BA7FB499B","title":"现代广场","lon":"121.39741","lat":"31.20623","category":"46","category_name":"楼宇","address":"上海市长宁区仙霞路369号"},{"poiid":"B2094757D069A5FA459F","title":"田野 TAYA","lon":"121.400507054","lat":"31.206150793","category":"95","category_name":"日本料理","address":"长宁区仙霞路319号远东国际广场B栋1楼02-05(近古北路)"},{"poiid":"B2094757D069A5F9409D","title":"杰熙台球酒吧会所","lon":"121.39894297","lat":"31.205978511","category":"171","category_name":"台球厅","address":"上海长宁区仙霞路333号B1"},{"poiid":"B2094655D26EA5FD449E","title":"秋之港","lon":"121.39872608666","lat":"31.203478155815","category":"95","category_name":"日本料理","address":"虹古路106号近古北路"},{"poiid":"B2094757D06BA5FB4898","title":"阵屋日本料理(虹桥店)","lon":"121.39800262","lat":"31.205600738","category":"95","category_name":"日本料理","address":"长宁区仙霞路333号东方维京大厦(近古北路)"},{"poiid":"B2094654D56BA6FB4798","title":"金色阳光","lon":"121.39788","lat":"31.20396","category":"248","category_name":"生活娱乐","address":"长宁区虹古路88号"},{"poiid":"B2094757D064ABF84892","title":"百蝶日式料理店(兴义路店)","lon":"121.39939796","lat":"31.202785374","category":"95","category_name":"日本料理","address":"长宁区兴义路85号(近娄山关路)"},{"poiid":"B2094654D56BA6F5479A","title":"上海市公安局长宁分局出入境管理办公室","lon":"121.39842","lat":"31.20194","category":"248","category_name":"生活娱乐","address":"古北路788-790"},{"poiid":"B2094757D069A7F44798","title":"渔福日本料理 延安店","lon":"121.40234","lat":"31.20162","category":"95","category_name":"日本料理","address":"长宁区延安西路2299号世贸商城2楼(近古北路)"},{"poiid":"B2094757D465A7FC4099","title":"幸正宗","lon":"121.401288","lat":"31.200963","category":"95","category_name":"日本料理","address":"长宁区延安西路2000号虹桥宾馆1楼(近凯虹路)"},{"poiid":"B2094655D26EA5FA469A","title":"顺烧肉","lon":"121.39824945137","lat":"31.206106676648","category":"269","category_name":"烧烤","address":"长宁区仙霞路345号东方世纪大厦2楼(近古北路)"},{"poiid":"B2094654D56BA6FB499A","title":"中国移动古北路营业厅","lon":"121.39955","lat":"31.20483","category":"151","category_name":"电讯营业厅","address":"长宁区古北路678号"},{"poiid":"B2094750D26EAAF5439C","title":"古北国际财富中心","lon":"121.401069","lat":"31.200679","category":"252","category_name":"楼宇机构","address":"上海市长宁区虹桥路1452号"},{"poiid":"B2094752D46FA1FC4993","title":"德站琪","lon":"121.398331","lat":"31.205938","category":"247","category_name":"餐饮美食","address":"长宁区仙霞路161号（近）娄山关路"},{"poiid":"B2094757D16FA3FA4998","title":"虹景花苑","lon":"121.3989","lat":"31.202728","category":"47","category_name":"住宅区","address":"上海虹古路11弄"},{"poiid":"B2094654D564A2F9419F","title":"明珠大楼","lon":"121.399344","lat":"31.202293","category":"46","category_name":"楼宇","address":"水城南路55,59号"},{"poiid":"B2094757D06AA6FA4298","title":"上岛咖啡 仙霞路店 UBC Coffee","lon":"121.40013312345","lat":"31.206124266257","category":"65","category_name":"咖啡厅","address":"仙霞路327号近古北路"},{"poiid":"B2094654D56BA6FB479D","title":"虹景家苑","lon":"121.3984","lat":"31.20437","category":"47","category_name":"住宅区","address":"虹景家苑位于长宁虹古路8弄"},{"poiid":"B2094655D26DA3F9409A","title":"嘉海办公楼","lon":"121.39961","lat":"31.20406","category":"46","category_name":"楼宇","address":"古北路716"},{"poiid":"B2094757D66DA6F84593","title":"上海金田摄影事务所","lon":"121.397168486","lat":"31.2042295226","category":"46","category_name":"楼宇","address":"长宁区仙霞路350号上海工程技术大学创意楼311室(近古北路)"},{"poiid":"B2094750D26CA3F4459A","title":"和膳六麓","lon":"121.400668","lat":"31.206358","category":"95","category_name":"日本料理","address":"长宁区仙霞路299号远东国际广场2楼(近古北路)"},{"poiid":"B2094654D56BA5FF449B","title":"大韩民国总领事馆","lon":"121.40165","lat":"31.20441","category":"252","category_name":"楼宇机构","address":"万山路60"},{"poiid":"B2094751D36DA5F44998","title":"割烹脇","lon":"121.39843","lat":"31.20597","category":"95","category_name":"日本料理","address":"长宁区仙霞路335号荣博商务楼1楼(近古北路)"},{"poiid":"B2094757D06FA5F9439C","title":"中法埃菲时装设计师学院","lon":"121.40098571","lat":"31.201873779","category":"52","category_name":"高等院校","address":"上海长宁区仙霞路350号"},{"poiid":"B2094654D56BA6FB479E","title":"秋の港","lon":"121.39713","lat":"31.20374","category":"257","category_name":"中餐厅","address":"虹古路106号"},{"poiid":"B2094655D36CA6FC459C","title":"古北路兴义路","lon":"121.39912","lat":"31.20182","category":"38","category_name":"公交车站","address":""},{"poiid":"B2094757D465ABFE419A","title":"岚亭餐厅 L'A trium Restaurant","lon":"121.396805","lat":"31.205999","category":"268","category_name":"自助","address":"长宁区仙霞路369号"},{"poiid":"B2094757D16CA6FC4293","title":"广发银行(虹桥支行)","lon":"121.39987","lat":"31.20379","category":"500","category_name":"未知分类","address":"上海长宁区古北路716号  "},{"poiid":"B2094757D464A7FF459D","title":"双子庵日本料理 FUTAGO-AN","lon":"121.398249054","lat":"31.206106793","category":"95","category_name":"日本料理","address":"长宁区仙霞路345号东方出版中心2楼(近古北路)"},{"poiid":"B2094757D16DA5F94198","title":"上海工程技术大学食堂","lon":"121.3976","lat":"31.20526","category":"68","category_name":"快餐厅","address":"长宁区仙霞路350号上海工程技术大学校园内(近古北路)"},{"poiid":"B2094654D56BA6FB4899","title":"两岸咖啡 古北店","lon":"121.39978797847","lat":"31.205999166001","category":"260","category_name":"其他","address":"长宁区古北路688号(近仙霞路)"},{"poiid":"B2094654D56BA7FB4998","title":"上海虹桥美爵酒店(南门)","lon":"121.39628","lat":"31.206","category":"656","category_name":"大门","address":"上海市仙霞路369号（近芙蓉江路）"}]