[{"poiid":"B2094757D06FA5F5479A","title":"环贸广场(ICC Shanghai)","lon":"121.4572073","lat":"31.2159677","category":"119","category_name":"商场","address":"上海徐汇区淮海中路999号(近陕西南路)"},{"poiid":"B2094753DB6DA2FF4792","title":"稻香(iapm店)","lon":"121.458999","lat":"31.215892","category":"247","category_name":"餐饮美食","address":"卢湾区淮海中路999号环贸IAPM商场三层301号铺"},{"poiid":"B209475CD768ABFA409C","title":"STAYREAL CAFE by GABEE.","lon":"121.45710712429809","lat":"31.2159557609671","category":"65","category_name":"咖啡厅","address":"徐汇区淮海中路999号环贸广场LG2-245"},{"poiid":"B2094753D76FAAFA449C","title":"上海滩国泰旗舰店","lon":"121.466011","lat":"31.216125","category":"249","category_name":"购物服务","address":"淮海中路868号"},{"poiid":"B209475CD564A7F84292","title":"上海滩新天地店","lon":"121.47463","lat":"31.22164","category":"119","category_name":"商场","address":"\"太仓路181弄新天地北里15号\r\n\""},{"poiid":"B209475CD564A7F8439E","title":"上海滩中信泰富店","lon":"121.45602","lat":"31.22851","category":"119","category_name":"商场","address":"\"南京西路1168号中信泰富广场，店铺号221.\r\n\""},{"poiid":"B2094654DA6EA2F9419F","title":"淮海国际广场","lon":"121.4565","lat":"31.21517","category":"46","category_name":"楼宇","address":"行宫位于沈河北站一路41号"},{"poiid":"B2094654DA6EA2FA459D","title":"博多新记 复兴店","lon":"121.4576526721","lat":"31.21277515026","category":"72","category_name":"广东菜","address":"徐汇区复兴中路1252弄15号2楼(近襄阳南路)"},{"poiid":"B2094757D06EAAFB4093","title":"陕西南路地铁站","lon":"121.45824382","lat":"31.215062494","category":"36","category_name":"地铁站","address":"上海轨道交通 一号线 十号线 轨交陕西南路站 1 10"},{"poiid":"B2094757D069A7FD4893","title":"星巴克(襄阳公园店)","lon":"121.4576524","lat":"31.2162728","category":"260","category_name":"其他","address":"徐汇区淮海中路1008号(近襄阳北路)"},{"poiid":"B2094757D06FA2FB4293","title":"圆苑酒家(淮海店)","lon":"121.4563","lat":"31.216","category":"76","category_name":"上海菜","address":"上海徐汇区襄阳北路108号嘉华中心会所1-2楼(近淮海中路)  "},{"poiid":"B2094757D464A7F44199","title":"博多新记 襄阳南路店","lon":"121.456851054","lat":"31.213952793","category":"72","category_name":"广东菜","address":"徐汇区襄阳南路150号(近南昌路)"},{"poiid":"B2094751DA6CA1FB4298","title":"Baker One","lon":"121.45824","lat":"31.21444","category":"67","category_name":"甜品店","address":"卢湾区南昌路559号1楼(近襄阳南路)"},{"poiid":"B2094757D06FA6FD4198","title":"山间堂民间瓦缸煨汤(淮海店)","lon":"121.45814","lat":"31.21621","category":"260","category_name":"其他","address":"徐汇区淮海中路1008号2楼(近襄阳北路)"},{"poiid":"B2094751D26AA3F5449D","title":"掌上韩品","lon":"121.459297","lat":"31.215394","category":"96","category_name":"韩国料理","address":"卢湾区陕西南路145号(近南昌路)"},{"poiid":"B2094750D76FA3FB4698","title":"滩悦(淮海路店)","lon":"121.457","lat":"31.2143","category":"76","category_name":"上海菜","address":"卢湾区襄阳南路102号3楼(近南昌路)"},{"poiid":"B2094757D068A5FA449F","title":"嘉豪淮海国际豪生酒店","lon":"121.45631","lat":"31.21455","category":"217","category_name":"旅馆招待所","address":"上海市徐汇区汾阳路1号(近淮海中路)"},{"poiid":"B2094750D768A6FA4899","title":"林记小馆(襄阳南路店)","lon":"121.457","lat":"31.2143","category":"72","category_name":"广东菜","address":"徐汇区襄阳南路102号(近淮海路)"},{"poiid":"B2094757D06FA2F44699","title":"康师傅私房牛肉面(淮海中路店)","lon":"121.45862","lat":"31.21636","category":"68","category_name":"快餐厅","address":"徐汇区淮海中路988号黄金商厦2楼(近陕西南路)"},{"poiid":"B209475CD664A0FA4398","title":"Stay Real Cafe by GABEE","lon":"121.457015","lat":"31.215112","category":"500","category_name":"未知分类","address":"上海市 iapm lg2-246"},{"poiid":"B2094757D065A3F84698","title":"虹桥火车站A16检票口","lon":"121.45851925","lat":"31.214354796","category":"22","category_name":"火车站","address":"上海虹桥火车站"},{"poiid":"B2094753DB68A4FD489C","title":"上海环贸iapm","lon":"121.457794","lat":"31.216356","category":"500","category_name":"未知分类","address":"上海市 淮海中路999号"},{"poiid":"B209475CDA65A0FD449A","title":"金牌外婆家","lon":"121.457084","lat":"31.216445","category":"247","category_name":"餐饮美食","address":"淮海中路999号iapm环贸LG2层"},{"poiid":"B2094753DA65ABFF4892","title":"香港稻香","lon":"121.457664","lat":"31.215404","category":"247","category_name":"餐饮美食","address":"上海市 上海市淮海中路999號APM商場3樓301室"},{"poiid":"B2094655D36DA6FE439B","title":"陕西南路","lon":"121.45822","lat":"31.2151","category":"38","category_name":"公交车站","address":""},{"poiid":"B2094752DB6BA5FA429D","title":"Madison","lon":"121.455942","lat":"31.21461","category":"500","category_name":"未知分类","address":"上海市 汾陽路3號2號樓1樓"},{"poiid":"B209475CDB6BA0FA479D","title":"甜兮兮 | Sweet CC","lon":"121.457908","lat":"31.215703","category":"500","category_name":"未知分类","address":"上海市 iapm环贸商城LG2层236商铺"},{"poiid":"B2094757DB69A7FB4199","title":"爱乐阿米奇 ELLO AMICI'S","lon":"121.456828","lat":"31.214321","category":"94","category_name":"西餐厅","address":"徐汇区襄阳南路102号(南昌路口)"},{"poiid":"B209475CD364ABFF4399","title":"上海环贸广场iapm","lon":"121.457824","lat":"31.215875","category":"500","category_name":"未知分类","address":"上海市 上海市徐汇区淮海中路"},{"poiid":"B209475CD169A2FD4098","title":"成隆行蟹王府","lon":"121.457008","lat":"31.215003","category":"247","category_name":"餐饮美食","address":"上海市 汾阳路1号"},{"poiid":"B2094757D06FA3F5419B","title":"店里咖啡馆 Green Room","lon":"121.4578085","lat":"31.212752","category":"65","category_name":"咖啡厅","address":"上海市复兴中路1262弄2号(近襄阳南路)"},{"poiid":"B209475CD465A0F4419D","title":"麵屋武藏","lon":"121.457809","lat":"31.215791","category":"500","category_name":"未知分类","address":"上海市 淮海中路999号iapm"},{"poiid":"B2094757D06FA2FD479F","title":"Mister Donut 美仕唐纳滋(襄阳公园店)","lon":"121.45770263","lat":"31.216373443","category":"67","category_name":"甜品店","address":"徐汇区淮海中路1008号(近襄阳北路)"},{"poiid":"B2094753D26AAAF44893","title":"大咀茶餐厅","lon":"121.45771","lat":"31.214161","category":"500","category_name":"未知分类","address":"上海市 陕西南路117号5楼"},{"poiid":"B209475CD16FABF94499","title":"IAPM","lon":"121.457168","lat":"31.216394","category":"500","category_name":"未知分类","address":"上海市 陕西南路"},{"poiid":"B2094757D16CA3F84298","title":"汾阳路","lon":"121.456418738","lat":"31.2133589406","category":"260","category_name":"其他","address":"上海汾阳路"},{"poiid":"B2094753DA65ABF44892","title":"无印良品环贸iapm旗舰店","lon":"121.458007","lat":"31.21507","category":"500","category_name":"未知分类","address":"上海市 上海市徐汇区淮海中路999号上海环贸广场 3F"},{"poiid":"B209475CD76FA1FD489B","title":"STAGE 上海iapm","lon":"121.457992","lat":"31.214294","category":"500","category_name":"未知分类","address":"上海市 上海市淮海中路環貿廣場IAPM LG2-273~275"},{"poiid":"B2094750D26DA4FE479A","title":"农圃饭店 淮海中路店","lon":"121.4567346","lat":"31.2157904","category":"72","category_name":"广东菜","address":"徐汇区淮海中路1028号嘉华中心嘉华坊2楼(近汾阳路)"},{"poiid":"B209475CD768A2FA439B","title":"stay real café","lon":"121.457015","lat":"31.215112","category":"500","category_name":"未知分类","address":"上海市 环贸广场 iapm"},{"poiid":"B2094753DB64ABF44699","title":"Greyhound Café","lon":"121.457822","lat":"31.215891","category":"99","category_name":"泰国／越南菜品餐厅","address":"上海市徐汇区淮海中路999号环贸iapm商场L5-503室"},{"poiid":"B2094757D769A4F8479B","title":"奥芙莉 襄阳南路店 Awfully Chocolate","lon":"121.456886054","lat":"31.212959793","category":"67","category_name":"甜品店","address":"徐汇区襄阳南路174号(近复兴中路)"},{"poiid":"B2094752DB65ABFB4199","title":"糖朝（淮海中路旗舰店）","lon":"121.457231","lat":"31.216439","category":"247","category_name":"餐饮美食","address":"上海市 黄浦区陕西南路141号"},{"poiid":"B209475CD464A3FC4493","title":"Apple Store 淮海路iapm店","lon":"121.457527","lat":"31.216035","category":"500","category_name":"未知分类","address":"上海市 徐汇区淮海中路999号"},{"poiid":"B209475DD26CA5F8449B","title":"鼎泰丰环贸店","lon":"121.456192","lat":"31.214679","category":"500","category_name":"未知分类","address":"上海市 淮海中路环贸Iapm广场3楼"},{"poiid":"B209475DD26EA7FD4999","title":"新肴珍宝海鲜","lon":"121.456878","lat":"31.216444","category":"247","category_name":"餐饮美食","address":"上海市 淮海中路999号环贸广场L5-502"},{"poiid":"B2094752DA6AA7F9439A","title":"锅德港式海鲜肥牛火锅","lon":"121.456055","lat":"31.214506","category":"247","category_name":"餐饮美食","address":"上海市 汾阳路3号2-3楼"},{"poiid":"B2094654DA6EA2FB489C","title":"名仁苑","lon":"121.456358054","lat":"31.215271793","category":"47","category_name":"住宅区","address":"徐汇区淮海中路1045号淮海国际广场3楼(近汾阳路)"},{"poiid":"B2094757D66EA3FA4492","title":"辛香滙","lon":"121.456077388","lat":"31.2155976583","category":"500","category_name":"未知分类","address":"上海東湖路上"},{"poiid":"B2094757D06AA1FB479C","title":"陋室汤包","lon":"121.45783","lat":"31.21405","category":"68","category_name":"快餐厅","address":"卢湾区南昌路601号(近襄阳南路)"},{"poiid":"B2094757D06FA5F5479A","title":"环贸广场(ICC Shanghai)","lon":"121.4572073","lat":"31.2159677","category":"119","category_name":"商场","address":"上海徐汇区淮海中路999号(近陕西南路)"},{"poiid":"B2094753DB6DA2FF4792","title":"稻香(iapm店)","lon":"121.458999","lat":"31.215892","category":"247","category_name":"餐饮美食","address":"卢湾区淮海中路999号环贸IAPM商场三层301号铺"},{"poiid":"B209475CD768ABFA409C","title":"STAYREAL CAFE by GABEE.","lon":"121.45710712429809","lat":"31.2159557609671","category":"65","category_name":"咖啡厅","address":"徐汇区淮海中路999号环贸广场LG2-245"},{"poiid":"B2094753D76FAAFA449C","title":"上海滩国泰旗舰店","lon":"121.466011","lat":"31.216125","category":"249","category_name":"购物服务","address":"淮海中路868号"},{"poiid":"B209475CD564A7F84292","title":"上海滩新天地店","lon":"121.47463","lat":"31.22164","category":"119","category_name":"商场","address":"\"太仓路181弄新天地北里15号\r\n\""},{"poiid":"B209475CD564A7F8439E","title":"上海滩中信泰富店","lon":"121.45602","lat":"31.22851","category":"119","category_name":"商场","address":"\"南京西路1168号中信泰富广场，店铺号221.\r\n\""},{"poiid":"B2094654DA6EA2F9419F","title":"淮海国际广场","lon":"121.4565","lat":"31.21517","category":"46","category_name":"楼宇","address":"行宫位于沈河北站一路41号"},{"poiid":"B2094654DA6EA2FA459D","title":"博多新记 复兴店","lon":"121.4576526721","lat":"31.21277515026","category":"72","category_name":"广东菜","address":"徐汇区复兴中路1252弄15号2楼(近襄阳南路)"},{"poiid":"B2094757D06EAAFB4093","title":"陕西南路地铁站","lon":"121.45824382","lat":"31.215062494","category":"36","category_name":"地铁站","address":"上海轨道交通 一号线 十号线 轨交陕西南路站 1 10"},{"poiid":"B2094757D069A7FD4893","title":"星巴克(襄阳公园店)","lon":"121.4576524","lat":"31.2162728","category":"260","category_name":"其他","address":"徐汇区淮海中路1008号(近襄阳北路)"},{"poiid":"B2094757D06FA2FB4293","title":"圆苑酒家(淮海店)","lon":"121.4563","lat":"31.216","category":"76","category_name":"上海菜","address":"上海徐汇区襄阳北路108号嘉华中心会所1-2楼(近淮海中路)  "},{"poiid":"B2094757D464A7F44199","title":"博多新记 襄阳南路店","lon":"121.456851054","lat":"31.213952793","category":"72","category_name":"广东菜","address":"徐汇区襄阳南路150号(近南昌路)"},{"poiid":"B2094751DA6CA1FB4298","title":"Baker One","lon":"121.45824","lat":"31.21444","category":"67","category_name":"甜品店","address":"卢湾区南昌路559号1楼(近襄阳南路)"},{"poiid":"B2094757D06FA6FD4198","title":"山间堂民间瓦缸煨汤(淮海店)","lon":"121.45814","lat":"31.21621","category":"260","category_name":"其他","address":"徐汇区淮海中路1008号2楼(近襄阳北路)"},{"poiid":"B2094751D26AA3F5449D","title":"掌上韩品","lon":"121.459297","lat":"31.215394","category":"96","category_name":"韩国料理","address":"卢湾区陕西南路145号(近南昌路)"},{"poiid":"B2094750D76FA3FB4698","title":"滩悦(淮海路店)","lon":"121.457","lat":"31.2143","category":"76","category_name":"上海菜","address":"卢湾区襄阳南路102号3楼(近南昌路)"},{"poiid":"B2094757D068A5FA449F","title":"嘉豪淮海国际豪生酒店","lon":"121.45631","lat":"31.21455","category":"217","category_name":"旅馆招待所","address":"上海市徐汇区汾阳路1号(近淮海中路)"},{"poiid":"B2094750D768A6FA4899","title":"林记小馆(襄阳南路店)","lon":"121.457","lat":"31.2143","category":"72","category_name":"广东菜","address":"徐汇区襄阳南路102号(近淮海路)"},{"poiid":"B2094757D06FA2F44699","title":"康师傅私房牛肉面(淮海中路店)","lon":"121.45862","lat":"31.21636","category":"68","category_name":"快餐厅","address":"徐汇区淮海中路988号黄金商厦2楼(近陕西南路)"},{"poiid":"B209475CD664A0FA4398","title":"Stay Real Cafe by GABEE","lon":"121.457015","lat":"31.215112","category":"500","category_name":"未知分类","address":"上海市 iapm lg2-246"},{"poiid":"B2094757D065A3F84698","title":"虹桥火车站A16检票口","lon":"121.45851925","lat":"31.214354796","category":"22","category_name":"火车站","address":"上海虹桥火车站"},{"poiid":"B2094753DB68A4FD489C","title":"上海环贸iapm","lon":"121.457794","lat":"31.216356","category":"500","category_name":"未知分类","address":"上海市 淮海中路999号"},{"poiid":"B209475CDA65A0FD449A","title":"金牌外婆家","lon":"121.457084","lat":"31.216445","category":"247","category_name":"餐饮美食","address":"淮海中路999号iapm环贸LG2层"},{"poiid":"B2094753DA65ABFF4892","title":"香港稻香","lon":"121.457664","lat":"31.215404","category":"247","category_name":"餐饮美食","address":"上海市 上海市淮海中路999號APM商場3樓301室"},{"poiid":"B2094655D36DA6FE439B","title":"陕西南路","lon":"121.45822","lat":"31.2151","category":"38","category_name":"公交车站","address":""},{"poiid":"B2094752DB6BA5FA429D","title":"Madison","lon":"121.455942","lat":"31.21461","category":"500","category_name":"未知分类","address":"上海市 汾陽路3號2號樓1樓"},{"poiid":"B209475CDB6BA0FA479D","title":"甜兮兮 | Sweet CC","lon":"121.457908","lat":"31.215703","category":"500","category_name":"未知分类","address":"上海市 iapm环贸商城LG2层236商铺"},{"poiid":"B2094757DB69A7FB4199","title":"爱乐阿米奇 ELLO AMICI'S","lon":"121.456828","lat":"31.214321","category":"94","category_name":"西餐厅","address":"徐汇区襄阳南路102号(南昌路口)"},{"poiid":"B209475CD364ABFF4399","title":"上海环贸广场iapm","lon":"121.457824","lat":"31.215875","category":"500","category_name":"未知分类","address":"上海市 上海市徐汇区淮海中路"},{"poiid":"B209475CD169A2FD4098","title":"成隆行蟹王府","lon":"121.457008","lat":"31.215003","category":"247","category_name":"餐饮美食","address":"上海市 汾阳路1号"},{"poiid":"B2094757D06FA3F5419B","title":"店里咖啡馆 Green Room","lon":"121.4578085","lat":"31.212752","category":"65","category_name":"咖啡厅","address":"上海市复兴中路1262弄2号(近襄阳南路)"},{"poiid":"B209475CD465A0F4419D","title":"麵屋武藏","lon":"121.457809","lat":"31.215791","category":"500","category_name":"未知分类","address":"上海市 淮海中路999号iapm"},{"poiid":"B2094757D06FA2FD479F","title":"Mister Donut 美仕唐纳滋(襄阳公园店)","lon":"121.45770263","lat":"31.216373443","category":"67","category_name":"甜品店","address":"徐汇区淮海中路1008号(近襄阳北路)"},{"poiid":"B2094753D26AAAF44893","title":"大咀茶餐厅","lon":"121.45771","lat":"31.214161","category":"500","category_name":"未知分类","address":"上海市 陕西南路117号5楼"},{"poiid":"B209475CD16FABF94499","title":"IAPM","lon":"121.457168","lat":"31.216394","category":"500","category_name":"未知分类","address":"上海市 陕西南路"},{"poiid":"B2094757D16CA3F84298","title":"汾阳路","lon":"121.456418738","lat":"31.2133589406","category":"260","category_name":"其他","address":"上海汾阳路"},{"poiid":"B2094753DA65ABF44892","title":"无印良品环贸iapm旗舰店","lon":"121.458007","lat":"31.21507","category":"500","category_name":"未知分类","address":"上海市 上海市徐汇区淮海中路999号上海环贸广场 3F"},{"poiid":"B209475CD76FA1FD489B","title":"STAGE 上海iapm","lon":"121.457992","lat":"31.214294","category":"500","category_name":"未知分类","address":"上海市 上海市淮海中路環貿廣場IAPM LG2-273~275"},{"poiid":"B2094750D26DA4FE479A","title":"农圃饭店 淮海中路店","lon":"121.4567346","lat":"31.2157904","category":"72","category_name":"广东菜","address":"徐汇区淮海中路1028号嘉华中心嘉华坊2楼(近汾阳路)"},{"poiid":"B209475CD768A2FA439B","title":"stay real café","lon":"121.457015","lat":"31.215112","category":"500","category_name":"未知分类","address":"上海市 环贸广场 iapm"},{"poiid":"B2094753DB64ABF44699","title":"Greyhound Café","lon":"121.457822","lat":"31.215891","category":"99","category_name":"泰国／越南菜品餐厅","address":"上海市徐汇区淮海中路999号环贸iapm商场L5-503室"},{"poiid":"B2094757D769A4F8479B","title":"奥芙莉 襄阳南路店 Awfully Chocolate","lon":"121.456886054","lat":"31.212959793","category":"67","category_name":"甜品店","address":"徐汇区襄阳南路174号(近复兴中路)"},{"poiid":"B2094752DB65ABFB4199","title":"糖朝（淮海中路旗舰店）","lon":"121.457231","lat":"31.216439","category":"247","category_name":"餐饮美食","address":"上海市 黄浦区陕西南路141号"},{"poiid":"B209475CD464A3FC4493","title":"Apple Store 淮海路iapm店","lon":"121.457527","lat":"31.216035","category":"500","category_name":"未知分类","address":"上海市 徐汇区淮海中路999号"},{"poiid":"B209475DD26CA5F8449B","title":"鼎泰丰环贸店","lon":"121.456192","lat":"31.214679","category":"500","category_name":"未知分类","address":"上海市 淮海中路环贸Iapm广场3楼"},{"poiid":"B209475DD26EA7FD4999","title":"新肴珍宝海鲜","lon":"121.456878","lat":"31.216444","category":"247","category_name":"餐饮美食","address":"上海市 淮海中路999号环贸广场L5-502"},{"poiid":"B2094752DA6AA7F9439A","title":"锅德港式海鲜肥牛火锅","lon":"121.456055","lat":"31.214506","category":"247","category_name":"餐饮美食","address":"上海市 汾阳路3号2-3楼"},{"poiid":"B2094654DA6EA2FB489C","title":"名仁苑","lon":"121.456358054","lat":"31.215271793","category":"47","category_name":"住宅区","address":"徐汇区淮海中路1045号淮海国际广场3楼(近汾阳路)"},{"poiid":"B2094757D66EA3FA4492","title":"辛香滙","lon":"121.456077388","lat":"31.2155976583","category":"500","category_name":"未知分类","address":"上海東湖路上"},{"poiid":"B2094757D06AA1FB479C","title":"陋室汤包","lon":"121.45783","lat":"31.21405","category":"68","category_name":"快餐厅","address":"卢湾区南昌路601号(近襄阳南路)"},{"poiid":"B2094757D06FA5F5479A","title":"环贸广场(ICC Shanghai)","lon":"121.4572073","lat":"31.2159677","category":"119","category_name":"商场","address":"上海徐汇区淮海中路999号(近陕西南路)"},{"poiid":"B2094753DB6DA2FF4792","title":"稻香(iapm店)","lon":"121.458999","lat":"31.215892","category":"247","category_name":"餐饮美食","address":"卢湾区淮海中路999号环贸IAPM商场三层301号铺"},{"poiid":"B209475CD768ABFA409C","title":"STAYREAL CAFE by GABEE.","lon":"121.45710712429809","lat":"31.2159557609671","category":"65","category_name":"咖啡厅","address":"徐汇区淮海中路999号环贸广场LG2-245"},{"poiid":"B2094753D76FAAFA449C","title":"上海滩国泰旗舰店","lon":"121.466011","lat":"31.216125","category":"249","category_name":"购物服务","address":"淮海中路868号"},{"poiid":"B209475CD564A7F84292","title":"上海滩新天地店","lon":"121.47463","lat":"31.22164","category":"119","category_name":"商场","address":"\"太仓路181弄新天地北里15号\r\n\""},{"poiid":"B209475CD564A7F8439E","title":"上海滩中信泰富店","lon":"121.45602","lat":"31.22851","category":"119","category_name":"商场","address":"\"南京西路1168号中信泰富广场，店铺号221.\r\n\""},{"poiid":"B2094654DA6EA2F9419F","title":"淮海国际广场","lon":"121.4565","lat":"31.21517","category":"46","category_name":"楼宇","address":"行宫位于沈河北站一路41号"},{"poiid":"B2094654DA6EA2FA459D","title":"博多新记 复兴店","lon":"121.4576526721","lat":"31.21277515026","category":"72","category_name":"广东菜","address":"徐汇区复兴中路1252弄15号2楼(近襄阳南路)"},{"poiid":"B2094757D06EAAFB4093","title":"陕西南路地铁站","lon":"121.45824382","lat":"31.215062494","category":"36","category_name":"地铁站","address":"上海轨道交通 一号线 十号线 轨交陕西南路站 1 10"},{"poiid":"B2094757D069A7FD4893","title":"星巴克(襄阳公园店)","lon":"121.4576524","lat":"31.2162728","category":"260","category_name":"其他","address":"徐汇区淮海中路1008号(近襄阳北路)"},{"poiid":"B2094757D06FA2FB4293","title":"圆苑酒家(淮海店)","lon":"121.4563","lat":"31.216","category":"76","category_name":"上海菜","address":"上海徐汇区襄阳北路108号嘉华中心会所1-2楼(近淮海中路)  "},{"poiid":"B2094757D464A7F44199","title":"博多新记 襄阳南路店","lon":"121.456851054","lat":"31.213952793","category":"72","category_name":"广东菜","address":"徐汇区襄阳南路150号(近南昌路)"},{"poiid":"B2094751DA6CA1FB4298","title":"Baker One","lon":"121.45824","lat":"31.21444","category":"67","category_name":"甜品店","address":"卢湾区南昌路559号1楼(近襄阳南路)"},{"poiid":"B2094757D06FA6FD4198","title":"山间堂民间瓦缸煨汤(淮海店)","lon":"121.45814","lat":"31.21621","category":"260","category_name":"其他","address":"徐汇区淮海中路1008号2楼(近襄阳北路)"},{"poiid":"B2094751D26AA3F5449D","title":"掌上韩品","lon":"121.459297","lat":"31.215394","category":"96","category_name":"韩国料理","address":"卢湾区陕西南路145号(近南昌路)"},{"poiid":"B2094750D76FA3FB4698","title":"滩悦(淮海路店)","lon":"121.457","lat":"31.2143","category":"76","category_name":"上海菜","address":"卢湾区襄阳南路102号3楼(近南昌路)"},{"poiid":"B2094757D068A5FA449F","title":"嘉豪淮海国际豪生酒店","lon":"121.45631","lat":"31.21455","category":"217","category_name":"旅馆招待所","address":"上海市徐汇区汾阳路1号(近淮海中路)"},{"poiid":"B2094750D768A6FA4899","title":"林记小馆(襄阳南路店)","lon":"121.457","lat":"31.2143","category":"72","category_name":"广东菜","address":"徐汇区襄阳南路102号(近淮海路)"},{"poiid":"B2094757D06FA2F44699","title":"康师傅私房牛肉面(淮海中路店)","lon":"121.45862","lat":"31.21636","category":"68","category_name":"快餐厅","address":"徐汇区淮海中路988号黄金商厦2楼(近陕西南路)"},{"poiid":"B209475CD664A0FA4398","title":"Stay Real Cafe by GABEE","lon":"121.457015","lat":"31.215112","category":"500","category_name":"未知分类","address":"上海市 iapm lg2-246"},{"poiid":"B2094757D065A3F84698","title":"虹桥火车站A16检票口","lon":"121.45851925","lat":"31.214354796","category":"22","category_name":"火车站","address":"上海虹桥火车站"},{"poiid":"B2094753DB68A4FD489C","title":"上海环贸iapm","lon":"121.457794","lat":"31.216356","category":"500","category_name":"未知分类","address":"上海市 淮海中路999号"},{"poiid":"B209475CDA65A0FD449A","title":"金牌外婆家","lon":"121.457084","lat":"31.216445","category":"247","category_name":"餐饮美食","address":"淮海中路999号iapm环贸LG2层"},{"poiid":"B2094753DA65ABFF4892","title":"香港稻香","lon":"121.457664","lat":"31.215404","category":"247","category_name":"餐饮美食","address":"上海市 上海市淮海中路999號APM商場3樓301室"},{"poiid":"B2094655D36DA6FE439B","title":"陕西南路","lon":"121.45822","lat":"31.2151","category":"38","category_name":"公交车站","address":""},{"poiid":"B2094752DB6BA5FA429D","title":"Madison","lon":"121.455942","lat":"31.21461","category":"500","category_name":"未知分类","address":"上海市 汾陽路3號2號樓1樓"},{"poiid":"B209475CDB6BA0FA479D","title":"甜兮兮 | Sweet CC","lon":"121.457908","lat":"31.215703","category":"500","category_name":"未知分类","address":"上海市 iapm环贸商城LG2层236商铺"},{"poiid":"B2094757DB69A7FB4199","title":"爱乐阿米奇 ELLO AMICI'S","lon":"121.456828","lat":"31.214321","category":"94","category_name":"西餐厅","address":"徐汇区襄阳南路102号(南昌路口)"},{"poiid":"B209475CD364ABFF4399","title":"上海环贸广场iapm","lon":"121.457824","lat":"31.215875","category":"500","category_name":"未知分类","address":"上海市 上海市徐汇区淮海中路"},{"poiid":"B209475CD169A2FD4098","title":"成隆行蟹王府","lon":"121.457008","lat":"31.215003","category":"247","category_name":"餐饮美食","address":"上海市 汾阳路1号"},{"poiid":"B2094757D06FA3F5419B","title":"店里咖啡馆 Green Room","lon":"121.4578085","lat":"31.212752","category":"65","category_name":"咖啡厅","address":"上海市复兴中路1262弄2号(近襄阳南路)"},{"poiid":"B209475CD465A0F4419D","title":"麵屋武藏","lon":"121.457809","lat":"31.215791","category":"500","category_name":"未知分类","address":"上海市 淮海中路999号iapm"},{"poiid":"B2094757D06FA2FD479F","title":"Mister Donut 美仕唐纳滋(襄阳公园店)","lon":"121.45770263","lat":"31.216373443","category":"67","category_name":"甜品店","address":"徐汇区淮海中路1008号(近襄阳北路)"},{"poiid":"B2094753D26AAAF44893","title":"大咀茶餐厅","lon":"121.45771","lat":"31.214161","category":"500","category_name":"未知分类","address":"上海市 陕西南路117号5楼"},{"poiid":"B209475CD16FABF94499","title":"IAPM","lon":"121.457168","lat":"31.216394","category":"500","category_name":"未知分类","address":"上海市 陕西南路"},{"poiid":"B2094757D16CA3F84298","title":"汾阳路","lon":"121.456418738","lat":"31.2133589406","category":"260","category_name":"其他","address":"上海汾阳路"},{"poiid":"B2094753DA65ABF44892","title":"无印良品环贸iapm旗舰店","lon":"121.458007","lat":"31.21507","category":"500","category_name":"未知分类","address":"上海市 上海市徐汇区淮海中路999号上海环贸广场 3F"},{"poiid":"B209475CD76FA1FD489B","title":"STAGE 上海iapm","lon":"121.457992","lat":"31.214294","category":"500","category_name":"未知分类","address":"上海市 上海市淮海中路環貿廣場IAPM LG2-273~275"},{"poiid":"B2094750D26DA4FE479A","title":"农圃饭店 淮海中路店","lon":"121.4567346","lat":"31.2157904","category":"72","category_name":"广东菜","address":"徐汇区淮海中路1028号嘉华中心嘉华坊2楼(近汾阳路)"},{"poiid":"B209475CD768A2FA439B","title":"stay real café","lon":"121.457015","lat":"31.215112","category":"500","category_name":"未知分类","address":"上海市 环贸广场 iapm"},{"poiid":"B2094753DB64ABF44699","title":"Greyhound Café","lon":"121.457822","lat":"31.215891","category":"99","category_name":"泰国／越南菜品餐厅","address":"上海市徐汇区淮海中路999号环贸iapm商场L5-503室"},{"poiid":"B2094757D769A4F8479B","title":"奥芙莉 襄阳南路店 Awfully Chocolate","lon":"121.456886054","lat":"31.212959793","category":"67","category_name":"甜品店","address":"徐汇区襄阳南路174号(近复兴中路)"},{"poiid":"B2094752DB65ABFB4199","title":"糖朝（淮海中路旗舰店）","lon":"121.457231","lat":"31.216439","category":"247","category_name":"餐饮美食","address":"上海市 黄浦区陕西南路141号"},{"poiid":"B209475CD464A3FC4493","title":"Apple Store 淮海路iapm店","lon":"121.457527","lat":"31.216035","category":"500","category_name":"未知分类","address":"上海市 徐汇区淮海中路999号"},{"poiid":"B209475DD26CA5F8449B","title":"鼎泰丰环贸店","lon":"121.456192","lat":"31.214679","category":"500","category_name":"未知分类","address":"上海市 淮海中路环贸Iapm广场3楼"},{"poiid":"B209475DD26EA7FD4999","title":"新肴珍宝海鲜","lon":"121.456878","lat":"31.216444","category":"247","category_name":"餐饮美食","address":"上海市 淮海中路999号环贸广场L5-502"},{"poiid":"B2094752DA6AA7F9439A","title":"锅德港式海鲜肥牛火锅","lon":"121.456055","lat":"31.214506","category":"247","category_name":"餐饮美食","address":"上海市 汾阳路3号2-3楼"},{"poiid":"B2094654DA6EA2FB489C","title":"名仁苑","lon":"121.456358054","lat":"31.215271793","category":"47","category_name":"住宅区","address":"徐汇区淮海中路1045号淮海国际广场3楼(近汾阳路)"},{"poiid":"B2094757D66EA3FA4492","title":"辛香滙","lon":"121.456077388","lat":"31.2155976583","category":"500","category_name":"未知分类","address":"上海東湖路上"},{"poiid":"B2094757D06AA1FB479C","title":"陋室汤包","lon":"121.45783","lat":"31.21405","category":"68","category_name":"快餐厅","address":"卢湾区南昌路601号(近襄阳南路)"},{"poiid":"B2094757D06FA5F5479A","title":"环贸广场(ICC Shanghai)","lon":"121.4572073","lat":"31.2159677","category":"119","category_name":"商场","address":"上海徐汇区淮海中路999号(近陕西南路)"},{"poiid":"B2094753DB6DA2FF4792","title":"稻香(iapm店)","lon":"121.458999","lat":"31.215892","category":"247","category_name":"餐饮美食","address":"卢湾区淮海中路999号环贸IAPM商场三层301号铺"},{"poiid":"B209475CD768ABFA409C","title":"STAYREAL CAFE by GABEE.","lon":"121.45710712429809","lat":"31.2159557609671","category":"65","category_name":"咖啡厅","address":"徐汇区淮海中路999号环贸广场LG2-245"},{"poiid":"B2094753D76FAAFA449C","title":"上海滩国泰旗舰店","lon":"121.466011","lat":"31.216125","category":"249","category_name":"购物服务","address":"淮海中路868号"},{"poiid":"B209475CD564A7F84292","title":"上海滩新天地店","lon":"121.47463","lat":"31.22164","category":"119","category_name":"商场","address":"\"太仓路181弄新天地北里15号\r\n\""},{"poiid":"B209475CD564A7F8439E","title":"上海滩中信泰富店","lon":"121.45602","lat":"31.22851","category":"119","category_name":"商场","address":"\"南京西路1168号中信泰富广场，店铺号221.\r\n\""},{"poiid":"B2094654DA6EA2F9419F","title":"淮海国际广场","lon":"121.4565","lat":"31.21517","category":"46","category_name":"楼宇","address":"行宫位于沈河北站一路41号"},{"poiid":"B2094654DA6EA2FA459D","title":"博多新记 复兴店","lon":"121.4576526721","lat":"31.21277515026","category":"72","category_name":"广东菜","address":"徐汇区复兴中路1252弄15号2楼(近襄阳南路)"},{"poiid":"B2094757D06EAAFB4093","title":"陕西南路地铁站","lon":"121.45824382","lat":"31.215062494","category":"36","category_name":"地铁站","address":"上海轨道交通 一号线 十号线 轨交陕西南路站 1 10"},{"poiid":"B2094757D069A7FD4893","title":"星巴克(襄阳公园店)","lon":"121.4576524","lat":"31.2162728","category":"260","category_name":"其他","address":"徐汇区淮海中路1008号(近襄阳北路)"},{"poiid":"B2094757D06FA2FB4293","title":"圆苑酒家(淮海店)","lon":"121.4563","lat":"31.216","category":"76","category_name":"上海菜","address":"上海徐汇区襄阳北路108号嘉华中心会所1-2楼(近淮海中路)  "},{"poiid":"B2094757D464A7F44199","title":"博多新记 襄阳南路店","lon":"121.456851054","lat":"31.213952793","category":"72","category_name":"广东菜","address":"徐汇区襄阳南路150号(近南昌路)"},{"poiid":"B2094751DA6CA1FB4298","title":"Baker One","lon":"121.45824","lat":"31.21444","category":"67","category_name":"甜品店","address":"卢湾区南昌路559号1楼(近襄阳南路)"},{"poiid":"B2094757D06FA6FD4198","title":"山间堂民间瓦缸煨汤(淮海店)","lon":"121.45814","lat":"31.21621","category":"260","category_name":"其他","address":"徐汇区淮海中路1008号2楼(近襄阳北路)"},{"poiid":"B2094751D26AA3F5449D","title":"掌上韩品","lon":"121.459297","lat":"31.215394","category":"96","category_name":"韩国料理","address":"卢湾区陕西南路145号(近南昌路)"},{"poiid":"B2094750D76FA3FB4698","title":"滩悦(淮海路店)","lon":"121.457","lat":"31.2143","category":"76","category_name":"上海菜","address":"卢湾区襄阳南路102号3楼(近南昌路)"},{"poiid":"B2094757D068A5FA449F","title":"嘉豪淮海国际豪生酒店","lon":"121.45631","lat":"31.21455","category":"217","category_name":"旅馆招待所","address":"上海市徐汇区汾阳路1号(近淮海中路)"},{"poiid":"B2094750D768A6FA4899","title":"林记小馆(襄阳南路店)","lon":"121.457","lat":"31.2143","category":"72","category_name":"广东菜","address":"徐汇区襄阳南路102号(近淮海路)"},{"poiid":"B2094757D06FA2F44699","title":"康师傅私房牛肉面(淮海中路店)","lon":"121.45862","lat":"31.21636","category":"68","category_name":"快餐厅","address":"徐汇区淮海中路988号黄金商厦2楼(近陕西南路)"},{"poiid":"B209475CD664A0FA4398","title":"Stay Real Cafe by GABEE","lon":"121.457015","lat":"31.215112","category":"500","category_name":"未知分类","address":"上海市 iapm lg2-246"},{"poiid":"B2094757D065A3F84698","title":"虹桥火车站A16检票口","lon":"121.45851925","lat":"31.214354796","category":"22","category_name":"火车站","address":"上海虹桥火车站"},{"poiid":"B2094753DB68A4FD489C","title":"上海环贸iapm","lon":"121.457794","lat":"31.216356","category":"500","category_name":"未知分类","address":"上海市 淮海中路999号"},{"poiid":"B209475CDA65A0FD449A","title":"金牌外婆家","lon":"121.457084","lat":"31.216445","category":"247","category_name":"餐饮美食","address":"淮海中路999号iapm环贸LG2层"},{"poiid":"B2094753DA65ABFF4892","title":"香港稻香","lon":"121.457664","lat":"31.215404","category":"247","category_name":"餐饮美食","address":"上海市 上海市淮海中路999號APM商場3樓301室"},{"poiid":"B2094655D36DA6FE439B","title":"陕西南路","lon":"121.45822","lat":"31.2151","category":"38","category_name":"公交车站","address":""},{"poiid":"B2094752DB6BA5FA429D","title":"Madison","lon":"121.455942","lat":"31.21461","category":"500","category_name":"未知分类","address":"上海市 汾陽路3號2號樓1樓"},{"poiid":"B209475CDB6BA0FA479D","title":"甜兮兮 | Sweet CC","lon":"121.457908","lat":"31.215703","category":"500","category_name":"未知分类","address":"上海市 iapm环贸商城LG2层236商铺"},{"poiid":"B2094757DB69A7FB4199","title":"爱乐阿米奇 ELLO AMICI'S","lon":"121.456828","lat":"31.214321","category":"94","category_name":"西餐厅","address":"徐汇区襄阳南路102号(南昌路口)"},{"poiid":"B209475CD364ABFF4399","title":"上海环贸广场iapm","lon":"121.457824","lat":"31.215875","category":"500","category_name":"未知分类","address":"上海市 上海市徐汇区淮海中路"},{"poiid":"B209475CD169A2FD4098","title":"成隆行蟹王府","lon":"121.457008","lat":"31.215003","category":"247","category_name":"餐饮美食","address":"上海市 汾阳路1号"},{"poiid":"B2094757D06FA3F5419B","title":"店里咖啡馆 Green Room","lon":"121.4578085","lat":"31.212752","category":"65","category_name":"咖啡厅","address":"上海市复兴中路1262弄2号(近襄阳南路)"},{"poiid":"B209475CD465A0F4419D","title":"麵屋武藏","lon":"121.457809","lat":"31.215791","category":"500","category_name":"未知分类","address":"上海市 淮海中路999号iapm"},{"poiid":"B2094757D06FA2FD479F","title":"Mister Donut 美仕唐纳滋(襄阳公园店)","lon":"121.45770263","lat":"31.216373443","category":"67","category_name":"甜品店","address":"徐汇区淮海中路1008号(近襄阳北路)"},{"poiid":"B2094753D26AAAF44893","title":"大咀茶餐厅","lon":"121.45771","lat":"31.214161","category":"500","category_name":"未知分类","address":"上海市 陕西南路117号5楼"},{"poiid":"B209475CD16FABF94499","title":"IAPM","lon":"121.457168","lat":"31.216394","category":"500","category_name":"未知分类","address":"上海市 陕西南路"},{"poiid":"B2094757D16CA3F84298","title":"汾阳路","lon":"121.456418738","lat":"31.2133589406","category":"260","category_name":"其他","address":"上海汾阳路"},{"poiid":"B2094753DA65ABF44892","title":"无印良品环贸iapm旗舰店","lon":"121.458007","lat":"31.21507","category":"500","category_name":"未知分类","address":"上海市 上海市徐汇区淮海中路999号上海环贸广场 3F"},{"poiid":"B209475CD76FA1FD489B","title":"STAGE 上海iapm","lon":"121.457992","lat":"31.214294","category":"500","category_name":"未知分类","address":"上海市 上海市淮海中路環貿廣場IAPM LG2-273~275"},{"poiid":"B2094750D26DA4FE479A","title":"农圃饭店 淮海中路店","lon":"121.4567346","lat":"31.2157904","category":"72","category_name":"广东菜","address":"徐汇区淮海中路1028号嘉华中心嘉华坊2楼(近汾阳路)"},{"poiid":"B209475CD768A2FA439B","title":"stay real café","lon":"121.457015","lat":"31.215112","category":"500","category_name":"未知分类","address":"上海市 环贸广场 iapm"},{"poiid":"B2094753DB64ABF44699","title":"Greyhound Café","lon":"121.457822","lat":"31.215891","category":"99","category_name":"泰国／越南菜品餐厅","address":"上海市徐汇区淮海中路999号环贸iapm商场L5-503室"},{"poiid":"B2094757D769A4F8479B","title":"奥芙莉 襄阳南路店 Awfully Chocolate","lon":"121.456886054","lat":"31.212959793","category":"67","category_name":"甜品店","address":"徐汇区襄阳南路174号(近复兴中路)"},{"poiid":"B2094752DB65ABFB4199","title":"糖朝（淮海中路旗舰店）","lon":"121.457231","lat":"31.216439","category":"247","category_name":"餐饮美食","address":"上海市 黄浦区陕西南路141号"},{"poiid":"B209475CD464A3FC4493","title":"Apple Store 淮海路iapm店","lon":"121.457527","lat":"31.216035","category":"500","category_name":"未知分类","address":"上海市 徐汇区淮海中路999号"},{"poiid":"B209475DD26CA5F8449B","title":"鼎泰丰环贸店","lon":"121.456192","lat":"31.214679","category":"500","category_name":"未知分类","address":"上海市 淮海中路环贸Iapm广场3楼"},{"poiid":"B209475DD26EA7FD4999","title":"新肴珍宝海鲜","lon":"121.456878","lat":"31.216444","category":"247","category_name":"餐饮美食","address":"上海市 淮海中路999号环贸广场L5-502"},{"poiid":"B2094752DA6AA7F9439A","title":"锅德港式海鲜肥牛火锅","lon":"121.456055","lat":"31.214506","category":"247","category_name":"餐饮美食","address":"上海市 汾阳路3号2-3楼"},{"poiid":"B2094654DA6EA2FB489C","title":"名仁苑","lon":"121.456358054","lat":"31.215271793","category":"47","category_name":"住宅区","address":"徐汇区淮海中路1045号淮海国际广场3楼(近汾阳路)"},{"poiid":"B2094757D66EA3FA4492","title":"辛香滙","lon":"121.456077388","lat":"31.2155976583","category":"500","category_name":"未知分类","address":"上海東湖路上"},{"poiid":"B2094757D06AA1FB479C","title":"陋室汤包","lon":"121.45783","lat":"31.21405","category":"68","category_name":"快餐厅","address":"卢湾区南昌路601号(近襄阳南路)"},{"poiid":"B2094757D06FA5F5479A","title":"环贸广场(ICC Shanghai)","lon":"121.4572073","lat":"31.2159677","category":"119","category_name":"商场","address":"上海徐汇区淮海中路999号(近陕西南路)"},{"poiid":"B2094753DB6DA2FF4792","title":"稻香(iapm店)","lon":"121.458999","lat":"31.215892","category":"247","category_name":"餐饮美食","address":"卢湾区淮海中路999号环贸IAPM商场三层301号铺"},{"poiid":"B209475CD768ABFA409C","title":"STAYREAL CAFE by GABEE.","lon":"121.45710712429809","lat":"31.2159557609671","category":"65","category_name":"咖啡厅","address":"徐汇区淮海中路999号环贸广场LG2-245"},{"poiid":"B2094753D76FAAFA449C","title":"上海滩国泰旗舰店","lon":"121.466011","lat":"31.216125","category":"249","category_name":"购物服务","address":"淮海中路868号"},{"poiid":"B209475CD564A7F84292","title":"上海滩新天地店","lon":"121.47463","lat":"31.22164","category":"119","category_name":"商场","address":"\"太仓路181弄新天地北里15号\r\n\""},{"poiid":"B209475CD564A7F8439E","title":"上海滩中信泰富店","lon":"121.45602","lat":"31.22851","category":"119","category_name":"商场","address":"\"南京西路1168号中信泰富广场，店铺号221.\r\n\""},{"poiid":"B2094654DA6EA2F9419F","title":"淮海国际广场","lon":"121.4565","lat":"31.21517","category":"46","category_name":"楼宇","address":"行宫位于沈河北站一路41号"},{"poiid":"B2094654DA6EA2FA459D","title":"博多新记 复兴店","lon":"121.4576526721","lat":"31.21277515026","category":"72","category_name":"广东菜","address":"徐汇区复兴中路1252弄15号2楼(近襄阳南路)"},{"poiid":"B2094757D06EAAFB4093","title":"陕西南路地铁站","lon":"121.45824382","lat":"31.215062494","category":"36","category_name":"地铁站","address":"上海轨道交通 一号线 十号线 轨交陕西南路站 1 10"},{"poiid":"B2094757D069A7FD4893","title":"星巴克(襄阳公园店)","lon":"121.4576524","lat":"31.2162728","category":"260","category_name":"其他","address":"徐汇区淮海中路1008号(近襄阳北路)"},{"poiid":"B2094757D06FA2FB4293","title":"圆苑酒家(淮海店)","lon":"121.4563","lat":"31.216","category":"76","category_name":"上海菜","address":"上海徐汇区襄阳北路108号嘉华中心会所1-2楼(近淮海中路)  "},{"poiid":"B2094757D464A7F44199","title":"博多新记 襄阳南路店","lon":"121.456851054","lat":"31.213952793","category":"72","category_name":"广东菜","address":"徐汇区襄阳南路150号(近南昌路)"},{"poiid":"B2094751DA6CA1FB4298","title":"Baker One","lon":"121.45824","lat":"31.21444","category":"67","category_name":"甜品店","address":"卢湾区南昌路559号1楼(近襄阳南路)"},{"poiid":"B2094757D06FA6FD4198","title":"山间堂民间瓦缸煨汤(淮海店)","lon":"121.45814","lat":"31.21621","category":"260","category_name":"其他","address":"徐汇区淮海中路1008号2楼(近襄阳北路)"},{"poiid":"B2094751D26AA3F5449D","title":"掌上韩品","lon":"121.459297","lat":"31.215394","category":"96","category_name":"韩国料理","address":"卢湾区陕西南路145号(近南昌路)"},{"poiid":"B2094750D76FA3FB4698","title":"滩悦(淮海路店)","lon":"121.457","lat":"31.2143","category":"76","category_name":"上海菜","address":"卢湾区襄阳南路102号3楼(近南昌路)"},{"poiid":"B2094757D068A5FA449F","title":"嘉豪淮海国际豪生酒店","lon":"121.45631","lat":"31.21455","category":"217","category_name":"旅馆招待所","address":"上海市徐汇区汾阳路1号(近淮海中路)"},{"poiid":"B2094750D768A6FA4899","title":"林记小馆(襄阳南路店)","lon":"121.457","lat":"31.2143","category":"72","category_name":"广东菜","address":"徐汇区襄阳南路102号(近淮海路)"},{"poiid":"B2094757D06FA2F44699","title":"康师傅私房牛肉面(淮海中路店)","lon":"121.45862","lat":"31.21636","category":"68","category_name":"快餐厅","address":"徐汇区淮海中路988号黄金商厦2楼(近陕西南路)"},{"poiid":"B209475CD664A0FA4398","title":"Stay Real Cafe by GABEE","lon":"121.457015","lat":"31.215112","category":"500","category_name":"未知分类","address":"上海市 iapm lg2-246"},{"poiid":"B2094757D065A3F84698","title":"虹桥火车站A16检票口","lon":"121.45851925","lat":"31.214354796","category":"22","category_name":"火车站","address":"上海虹桥火车站"},{"poiid":"B2094753DB68A4FD489C","title":"上海环贸iapm","lon":"121.457794","lat":"31.216356","category":"500","category_name":"未知分类","address":"上海市 淮海中路999号"},{"poiid":"B209475CDA65A0FD449A","title":"金牌外婆家","lon":"121.457084","lat":"31.216445","category":"247","category_name":"餐饮美食","address":"淮海中路999号iapm环贸LG2层"},{"poiid":"B2094753DA65ABFF4892","title":"香港稻香","lon":"121.457664","lat":"31.215404","category":"247","category_name":"餐饮美食","address":"上海市 上海市淮海中路999號APM商場3樓301室"},{"poiid":"B2094655D36DA6FE439B","title":"陕西南路","lon":"121.45822","lat":"31.2151","category":"38","category_name":"公交车站","address":""},{"poiid":"B2094752DB6BA5FA429D","title":"Madison","lon":"121.455942","lat":"31.21461","category":"500","category_name":"未知分类","address":"上海市 汾陽路3號2號樓1樓"},{"poiid":"B209475CDB6BA0FA479D","title":"甜兮兮 | Sweet CC","lon":"121.457908","lat":"31.215703","category":"500","category_name":"未知分类","address":"上海市 iapm环贸商城LG2层236商铺"},{"poiid":"B2094757DB69A7FB4199","title":"爱乐阿米奇 ELLO AMICI'S","lon":"121.456828","lat":"31.214321","category":"94","category_name":"西餐厅","address":"徐汇区襄阳南路102号(南昌路口)"},{"poiid":"B209475CD364ABFF4399","title":"上海环贸广场iapm","lon":"121.457824","lat":"31.215875","category":"500","category_name":"未知分类","address":"上海市 上海市徐汇区淮海中路"},{"poiid":"B209475CD169A2FD4098","title":"成隆行蟹王府","lon":"121.457008","lat":"31.215003","category":"247","category_name":"餐饮美食","address":"上海市 汾阳路1号"},{"poiid":"B2094757D06FA3F5419B","title":"店里咖啡馆 Green Room","lon":"121.4578085","lat":"31.212752","category":"65","category_name":"咖啡厅","address":"上海市复兴中路1262弄2号(近襄阳南路)"},{"poiid":"B209475CD465A0F4419D","title":"麵屋武藏","lon":"121.457809","lat":"31.215791","category":"500","category_name":"未知分类","address":"上海市 淮海中路999号iapm"},{"poiid":"B2094757D06FA2FD479F","title":"Mister Donut 美仕唐纳滋(襄阳公园店)","lon":"121.45770263","lat":"31.216373443","category":"67","category_name":"甜品店","address":"徐汇区淮海中路1008号(近襄阳北路)"},{"poiid":"B2094753D26AAAF44893","title":"大咀茶餐厅","lon":"121.45771","lat":"31.214161","category":"500","category_name":"未知分类","address":"上海市 陕西南路117号5楼"},{"poiid":"B209475CD16FABF94499","title":"IAPM","lon":"121.457168","lat":"31.216394","category":"500","category_name":"未知分类","address":"上海市 陕西南路"},{"poiid":"B2094757D16CA3F84298","title":"汾阳路","lon":"121.456418738","lat":"31.2133589406","category":"260","category_name":"其他","address":"上海汾阳路"},{"poiid":"B2094753DA65ABF44892","title":"无印良品环贸iapm旗舰店","lon":"121.458007","lat":"31.21507","category":"500","category_name":"未知分类","address":"上海市 上海市徐汇区淮海中路999号上海环贸广场 3F"},{"poiid":"B209475CD76FA1FD489B","title":"STAGE 上海iapm","lon":"121.457992","lat":"31.214294","category":"500","category_name":"未知分类","address":"上海市 上海市淮海中路環貿廣場IAPM LG2-273~275"},{"poiid":"B2094750D26DA4FE479A","title":"农圃饭店 淮海中路店","lon":"121.4567346","lat":"31.2157904","category":"72","category_name":"广东菜","address":"徐汇区淮海中路1028号嘉华中心嘉华坊2楼(近汾阳路)"},{"poiid":"B209475CD768A2FA439B","title":"stay real café","lon":"121.457015","lat":"31.215112","category":"500","category_name":"未知分类","address":"上海市 环贸广场 iapm"},{"poiid":"B2094753DB64ABF44699","title":"Greyhound Café","lon":"121.457822","lat":"31.215891","category":"99","category_name":"泰国／越南菜品餐厅","address":"上海市徐汇区淮海中路999号环贸iapm商场L5-503室"},{"poiid":"B2094757D769A4F8479B","title":"奥芙莉 襄阳南路店 Awfully Chocolate","lon":"121.456886054","lat":"31.212959793","category":"67","category_name":"甜品店","address":"徐汇区襄阳南路174号(近复兴中路)"},{"poiid":"B2094752DB65ABFB4199","title":"糖朝（淮海中路旗舰店）","lon":"121.457231","lat":"31.216439","category":"247","category_name":"餐饮美食","address":"上海市 黄浦区陕西南路141号"},{"poiid":"B209475CD464A3FC4493","title":"Apple Store 淮海路iapm店","lon":"121.457527","lat":"31.216035","category":"500","category_name":"未知分类","address":"上海市 徐汇区淮海中路999号"},{"poiid":"B209475DD26CA5F8449B","title":"鼎泰丰环贸店","lon":"121.456192","lat":"31.214679","category":"500","category_name":"未知分类","address":"上海市 淮海中路环贸Iapm广场3楼"},{"poiid":"B209475DD26EA7FD4999","title":"新肴珍宝海鲜","lon":"121.456878","lat":"31.216444","category":"247","category_name":"餐饮美食","address":"上海市 淮海中路999号环贸广场L5-502"},{"poiid":"B2094752DA6AA7F9439A","title":"锅德港式海鲜肥牛火锅","lon":"121.456055","lat":"31.214506","category":"247","category_name":"餐饮美食","address":"上海市 汾阳路3号2-3楼"},{"poiid":"B2094654DA6EA2FB489C","title":"名仁苑","lon":"121.456358054","lat":"31.215271793","category":"47","category_name":"住宅区","address":"徐汇区淮海中路1045号淮海国际广场3楼(近汾阳路)"},{"poiid":"B2094757D66EA3FA4492","title":"辛香滙","lon":"121.456077388","lat":"31.2155976583","category":"500","category_name":"未知分类","address":"上海東湖路上"},{"poiid":"B2094757D06AA1FB479C","title":"陋室汤包","lon":"121.45783","lat":"31.21405","category":"68","category_name":"快餐厅","address":"卢湾区南昌路601号(近襄阳南路)"}]