[{"poiid":"B2094655D269ABFD469B","title":"静安寺","lon":"121.44552","lat":"31.22324","category":"244","category_name":"寺庙道观","address":"静安区南京西路1686号(近静安寺)"},{"poiid":"B2094654DB69A0FA449B","title":"萤七人间 People seven","lon":"121.45002676183","lat":"31.219220560138","category":"257","category_name":"中餐厅","address":"巨鹿路805号近富民路"},{"poiid":"B2094757D165A2F9489E","title":"Mr Pancake House","lon":"121.448","lat":"31.218213","category":"94","category_name":"西餐厅","address":"静安区巨鹿路901号(近华山路)"},{"poiid":"B2094753D76FAAFA449C","title":"上海滩国泰旗舰店","lon":"121.466011","lat":"31.216125","category":"249","category_name":"购物服务","address":"淮海中路868号"},{"poiid":"B209475CD564A7F84292","title":"上海滩新天地店","lon":"121.47463","lat":"31.22164","category":"119","category_name":"商场","address":"\"太仓路181弄新天地北里15号\r\n\""},{"poiid":"B209475CD564A7F8439E","title":"上海滩中信泰富店","lon":"121.45602","lat":"31.22851","category":"119","category_name":"商场","address":"\"南京西路1168号中信泰富广场，店铺号221.\r\n\""},{"poiid":"B2094654DB69A0FA449C","title":"椰香天堂泰国料理","lon":"121.44991","lat":"31.22092","category":"99","category_name":"泰国／越南菜品餐厅","address":"静安区富民路38号(近延安中路)"},{"poiid":"B2094757D06FA3FB419F","title":"窩","lon":"121.44984693","lat":"31.220437979","category":"65","category_name":"咖啡厅","address":"静安区巨鹿路786弄66号1楼(近富民路)"},{"poiid":"B2094757D06FA0F44593","title":"柒寿司(富民路店)","lon":"121.45014813109981","lat":"31.221289026267844","category":"95","category_name":"日本料理","address":"上海静安寺富民路51号"},{"poiid":"B2094757D068A7FA4698","title":"Dr. Beer","lon":"121.450329386","lat":"31.2207334453","category":"500","category_name":"未知分类","address":"上海市富民路80号(巨鹿路)"},{"poiid":"B2094757D06FA2F94992","title":"Nepali Kitchen","lon":"121.45022","lat":"31.21855","category":"110","category_name":"其他亚洲菜","address":"静安区巨鹿路819弄4号(近富民路)"},{"poiid":"B2094655D26EA1FE449F","title":"上海延安饭店","lon":"121.44827","lat":"31.22062","category":"214","category_name":"四星级宾馆","address":"静安区延安中路1111号(近华山路)"},{"poiid":"B2094757D06FA3FE489A","title":"南麓.浙里","lon":"121.45108","lat":"31.21981","category":"76","category_name":"上海菜","address":"静安区巨鹿路768号巨富大厦2楼(近富民路)"},{"poiid":"B2094654D564ABFA4693","title":"辉哥火锅","lon":"121.45095","lat":"31.2199","category":"86","category_name":"火锅店","address":"静安区巨鹿路795号(近富民路)"},{"poiid":"B2094757D06FABFA459A","title":"dr.wine","lon":"121.45114394","lat":"31.219256726","category":"65","category_name":"咖啡厅","address":"上海富民路177号(近巨鹿路)"},{"poiid":"B2094757D06FA7FD449A","title":"席家花园(静安店)","lon":"121.44815","lat":"31.21749","category":"47","category_name":"住宅区","address":"静安区巨鹿路889号(近常熟路)"},{"poiid":"B2094757D16DA2F5419F","title":"泰籽","lon":"121.450883586","lat":"31.2201752344","category":"99","category_name":"泰国／越南菜品餐厅","address":"静安区巨鹿路768号巨富大厦G楼A-B室(近富民路)"},{"poiid":"B2094757D06FA1FF459E","title":"PHO REAL(富民路店)","lon":"121.45148","lat":"31.21822","category":"99","category_name":"泰国／越南菜品餐厅","address":"静安区富民路166号(近长乐路)"},{"poiid":"B2094757D068A6F9479B","title":"Casanova","lon":"121.448010058","lat":"31.2179782269","category":"94","category_name":"西餐厅","address":"静安区巨鹿路913号(近常熟路)"},{"poiid":"B2094757D06FA5FC4199","title":"HOME'S私房菜","lon":"121.45154","lat":"31.2196","category":"76","category_name":"上海菜","address":"静安区巨鹿路791号(近富民路)"},{"poiid":"B2094757D068A4FF459C","title":"荧七","lon":"121.45033424","lat":"31.217746436","category":"172","category_name":"酒吧","address":"上海巨鹿路"},{"poiid":"B2094757D06FA7FA4899","title":"苏浙汇(静安店)","lon":"121.4476","lat":"31.22033","category":"76","category_name":"上海菜","address":"静安区延安中路1121号(近华山路)"},{"poiid":"B2094654DB69A6F94798","title":"新都里无二 Shintori 2","lon":"121.45023441444","lat":"31.219697165107","category":"95","category_name":"日本料理","address":"静安区巨鹿路803号(近富民路)"},{"poiid":"B2094757D068ABFC4098","title":"CLUB VIETNAM","lon":"121.44839","lat":"31.21765","category":"99","category_name":"泰国／越南菜品餐厅","address":"静安区巨鹿路889号11-12号楼(近常熟路)"},{"poiid":"B2094757DB69A2F5449A","title":"il Bambino","lon":"121.44798","lat":"31.21813","category":"94","category_name":"西餐厅","address":"静安区巨鹿路903号(近常熟路)"},{"poiid":"B2094757D66DABF94899","title":"Wasabi","lon":"121.44806058","lat":"31.2184602","category":"500","category_name":"未知分类","address":"上海静安区延安西路"},{"poiid":"B2094757D06FA5FC489D","title":"Le Creme Milano(富民路店)","lon":"121.451104","lat":"31.219465","category":"67","category_name":"甜品店","address":"静安区富民路173号(富民路巨鹿路)"},{"poiid":"B2094757D06FAAFD459F","title":"Pho Asia","lon":"121.450447","lat":"31.220718","category":"99","category_name":"泰国／越南菜品餐厅","address":"静安区富民路85号巨富大厦(近巨鹿路)"},{"poiid":"B209475DD268A6FB489B","title":"香港龙凤楼","lon":"121.448295","lat":"31.217926","category":"247","category_name":"餐饮美食","address":"上海市 巨鹿路889号"},{"poiid":"B2094757D465A3FD4699","title":"阿毛餐厅 富民路店","lon":"121.45041531544","lat":"31.219963834542","category":"247","category_name":"餐饮美食","address":"静安区富民路98号(近巨鹿路)"},{"poiid":"B2094751D56EA0F9489D","title":"Antoni Restaurant","lon":"121.4503","lat":"31.21974","category":"94","category_name":"西餐厅","address":"静安区巨鹿路794号(近富民路)"},{"poiid":"B2094757D06FAAF54399","title":"鹿苑","lon":"121.447753","lat":"31.218096","category":"46","category_name":"楼宇","address":"上海巨鹿路889號"},{"poiid":"B2094757D068ABF4459C","title":"香港肥杜火锅","lon":"121.45016495","lat":"31.220844179","category":"86","category_name":"火锅店","address":"静安区富民路85号巨富大厦1楼(近巨鹿路)"},{"poiid":"B2094757D06FA6F4449F","title":"清风人家(静安店)","lon":"121.44802","lat":"31.22035","category":"260","category_name":"其他","address":"静安区延安中路1109号(近延安饭店)"},{"poiid":"B2094757D064A6F54998","title":"Juice","lon":"121.450010586","lat":"31.2197952269","category":"141","category_name":"服装鞋帽皮具店","address":"上海市静安区巨鹿路832号"},{"poiid":"B2094757D068A4FB419A","title":"富民路巨鹿路","lon":"121.45020024","lat":"31.221579561","category":"260","category_name":"其他","address":"上海静安区富民路巨鹿路口"},{"poiid":"B209475CDA6CABF4429E","title":"myst","lon":"121.447692","lat":"31.220817","category":"500","category_name":"未知分类","address":"上海市 静安区延安中路"},{"poiid":"B2094757D66DA5FF4798","title":"苏浙汇","lon":"121.44903058","lat":"31.221403258","category":"500","category_name":"未知分类","address":"上海延安西路"},{"poiid":"B2094757D06BA5FB469C","title":"地铁七号线常熟路站","lon":"121.448803586","lat":"31.219236316","category":"500","category_name":"未知分类","address":"上海常熟路"},{"poiid":"B2094757D06FA5F9459C","title":"JA Cafe (静安公园内)","lon":"121.4465","lat":"31.22271","category":"260","category_name":"其他","address":"静安区南京西路1649号静安公园内(近静安公园)"},{"poiid":"B2094757D16AA7FC439F","title":"莹七餐厅","lon":"121.449147586","lat":"31.221130253","category":"500","category_name":"未知分类","address":"上海巨鹿路805号"},{"poiid":"B2094757D06FABF9459A","title":"Velvet Lounge","lon":"121.44758","lat":"31.21781","category":"94","category_name":"西餐厅","address":"静安区巨鹿路913号3-4号楼1楼(近常熟路)"},{"poiid":"B2094757D068A4FF439D","title":"BALI LAGUNA","lon":"121.45022583","lat":"31.219125747","category":"172","category_name":"酒吧","address":"上海静安区南京西路1649号(静安公园内)"},{"poiid":"B2094757D069A5FC499B","title":"翠华","lon":"121.44918058","lat":"31.221185254","category":"249","category_name":"购物服务","address":"上海静安区华山路"},{"poiid":"B2094757D064A2FD489E","title":"和さ美(巨鹿路店)","lon":"121.44835","lat":"31.2184","category":"95","category_name":"日本料理","address":"静安区巨鹿路876号(近华山路)"},{"poiid":"B2094757D16DA3FC469C","title":"喫茶去茶社ZEN TEA ROOM","lon":"121.45004866","lat":"31.2195266501","category":"247","category_name":"餐饮美食","address":"上海卢湾区巨鹿路796号(近富民路)"},{"poiid":"B2094757D068A3F4439B","title":"湾仔(常熟店)","lon":"121.44904","lat":"31.21845","category":"71","category_name":"四川菜","address":"静安区巨鹿路858号(近常熟路)"},{"poiid":"B2094654D564ABFF4593","title":"渡口书店","lon":"121.44947","lat":"31.21916","category":"125","category_name":"书店","address":"静安区巨鹿路828号(富民路常熟路间)"},{"poiid":"B2094757D069A7F84998","title":"Q太郎","lon":"121.45101065","lat":"31.219166647","category":"95","category_name":"日本料理","address":"静安区富民路158号(近巨鹿路)"},{"poiid":"B2094757D065A3FA459D","title":"coconut paradise","lon":"121.449070586","lat":"31.2214652596","category":"500","category_name":"未知分类","address":"上海市静安区富民路38号近巨鹿路"},{"poiid":"B2094655D269ABFD469B","title":"静安寺","lon":"121.44552","lat":"31.22324","category":"244","category_name":"寺庙道观","address":"静安区南京西路1686号(近静安寺)"},{"poiid":"B2094654DB69A0FA449B","title":"萤七人间 People seven","lon":"121.45002676183","lat":"31.219220560138","category":"257","category_name":"中餐厅","address":"巨鹿路805号近富民路"},{"poiid":"B2094757D165A2F9489E","title":"Mr Pancake House","lon":"121.448","lat":"31.218213","category":"94","category_name":"西餐厅","address":"静安区巨鹿路901号(近华山路)"},{"poiid":"B2094753D76FAAFA449C","title":"上海滩国泰旗舰店","lon":"121.466011","lat":"31.216125","category":"249","category_name":"购物服务","address":"淮海中路868号"},{"poiid":"B209475CD564A7F84292","title":"上海滩新天地店","lon":"121.47463","lat":"31.22164","category":"119","category_name":"商场","address":"\"太仓路181弄新天地北里15号\r\n\""},{"poiid":"B209475CD564A7F8439E","title":"上海滩中信泰富店","lon":"121.45602","lat":"31.22851","category":"119","category_name":"商场","address":"\"南京西路1168号中信泰富广场，店铺号221.\r\n\""},{"poiid":"B2094654DB69A0FA449C","title":"椰香天堂泰国料理","lon":"121.44991","lat":"31.22092","category":"99","category_name":"泰国／越南菜品餐厅","address":"静安区富民路38号(近延安中路)"},{"poiid":"B2094757D06FA3FB419F","title":"窩","lon":"121.44984693","lat":"31.220437979","category":"65","category_name":"咖啡厅","address":"静安区巨鹿路786弄66号1楼(近富民路)"},{"poiid":"B2094757D06FA0F44593","title":"柒寿司(富民路店)","lon":"121.45014813109981","lat":"31.221289026267844","category":"95","category_name":"日本料理","address":"上海静安寺富民路51号"},{"poiid":"B2094757D068A7FA4698","title":"Dr. Beer","lon":"121.450329386","lat":"31.2207334453","category":"500","category_name":"未知分类","address":"上海市富民路80号(巨鹿路)"},{"poiid":"B2094757D06FA2F94992","title":"Nepali Kitchen","lon":"121.45022","lat":"31.21855","category":"110","category_name":"其他亚洲菜","address":"静安区巨鹿路819弄4号(近富民路)"},{"poiid":"B2094655D26EA1FE449F","title":"上海延安饭店","lon":"121.44827","lat":"31.22062","category":"214","category_name":"四星级宾馆","address":"静安区延安中路1111号(近华山路)"},{"poiid":"B2094757D06FA3FE489A","title":"南麓.浙里","lon":"121.45108","lat":"31.21981","category":"76","category_name":"上海菜","address":"静安区巨鹿路768号巨富大厦2楼(近富民路)"},{"poiid":"B2094654D564ABFA4693","title":"辉哥火锅","lon":"121.45095","lat":"31.2199","category":"86","category_name":"火锅店","address":"静安区巨鹿路795号(近富民路)"},{"poiid":"B2094757D06FABFA459A","title":"dr.wine","lon":"121.45114394","lat":"31.219256726","category":"65","category_name":"咖啡厅","address":"上海富民路177号(近巨鹿路)"},{"poiid":"B2094757D06FA7FD449A","title":"席家花园(静安店)","lon":"121.44815","lat":"31.21749","category":"47","category_name":"住宅区","address":"静安区巨鹿路889号(近常熟路)"},{"poiid":"B2094757D16DA2F5419F","title":"泰籽","lon":"121.450883586","lat":"31.2201752344","category":"99","category_name":"泰国／越南菜品餐厅","address":"静安区巨鹿路768号巨富大厦G楼A-B室(近富民路)"},{"poiid":"B2094757D06FA1FF459E","title":"PHO REAL(富民路店)","lon":"121.45148","lat":"31.21822","category":"99","category_name":"泰国／越南菜品餐厅","address":"静安区富民路166号(近长乐路)"},{"poiid":"B2094757D068A6F9479B","title":"Casanova","lon":"121.448010058","lat":"31.2179782269","category":"94","category_name":"西餐厅","address":"静安区巨鹿路913号(近常熟路)"},{"poiid":"B2094757D06FA5FC4199","title":"HOME'S私房菜","lon":"121.45154","lat":"31.2196","category":"76","category_name":"上海菜","address":"静安区巨鹿路791号(近富民路)"},{"poiid":"B2094757D068A4FF459C","title":"荧七","lon":"121.45033424","lat":"31.217746436","category":"172","category_name":"酒吧","address":"上海巨鹿路"},{"poiid":"B2094757D06FA7FA4899","title":"苏浙汇(静安店)","lon":"121.4476","lat":"31.22033","category":"76","category_name":"上海菜","address":"静安区延安中路1121号(近华山路)"},{"poiid":"B2094654DB69A6F94798","title":"新都里无二 Shintori 2","lon":"121.45023441444","lat":"31.219697165107","category":"95","category_name":"日本料理","address":"静安区巨鹿路803号(近富民路)"},{"poiid":"B2094757D068ABFC4098","title":"CLUB VIETNAM","lon":"121.44839","lat":"31.21765","category":"99","category_name":"泰国／越南菜品餐厅","address":"静安区巨鹿路889号11-12号楼(近常熟路)"},{"poiid":"B2094757DB69A2F5449A","title":"il Bambino","lon":"121.44798","lat":"31.21813","category":"94","category_name":"西餐厅","address":"静安区巨鹿路903号(近常熟路)"},{"poiid":"B2094757D66DABF94899","title":"Wasabi","lon":"121.44806058","lat":"31.2184602","category":"500","category_name":"未知分类","address":"上海静安区延安西路"},{"poiid":"B2094757D06FA5FC489D","title":"Le Creme Milano(富民路店)","lon":"121.451104","lat":"31.219465","category":"67","category_name":"甜品店","address":"静安区富民路173号(富民路巨鹿路)"},{"poiid":"B2094757D06FAAFD459F","title":"Pho Asia","lon":"121.450447","lat":"31.220718","category":"99","category_name":"泰国／越南菜品餐厅","address":"静安区富民路85号巨富大厦(近巨鹿路)"},{"poiid":"B209475DD268A6FB489B","title":"香港龙凤楼","lon":"121.448295","lat":"31.217926","category":"247","category_name":"餐饮美食","address":"上海市 巨鹿路889号"},{"poiid":"B2094757D465A3FD4699","title":"阿毛餐厅 富民路店","lon":"121.45041531544","lat":"31.219963834542","category":"247","category_name":"餐饮美食","address":"静安区富民路98号(近巨鹿路)"},{"poiid":"B2094751D56EA0F9489D","title":"Antoni Restaurant","lon":"121.4503","lat":"31.21974","category":"94","category_name":"西餐厅","address":"静安区巨鹿路794号(近富民路)"},{"poiid":"B2094757D06FAAF54399","title":"鹿苑","lon":"121.447753","lat":"31.218096","category":"46","category_name":"楼宇","address":"上海巨鹿路889號"},{"poiid":"B2094757D068ABF4459C","title":"香港肥杜火锅","lon":"121.45016495","lat":"31.220844179","category":"86","category_name":"火锅店","address":"静安区富民路85号巨富大厦1楼(近巨鹿路)"},{"poiid":"B2094757D06FA6F4449F","title":"清风人家(静安店)","lon":"121.44802","lat":"31.22035","category":"260","category_name":"其他","address":"静安区延安中路1109号(近延安饭店)"},{"poiid":"B2094757D064A6F54998","title":"Juice","lon":"121.450010586","lat":"31.2197952269","category":"141","category_name":"服装鞋帽皮具店","address":"上海市静安区巨鹿路832号"},{"poiid":"B2094757D068A4FB419A","title":"富民路巨鹿路","lon":"121.45020024","lat":"31.221579561","category":"260","category_name":"其他","address":"上海静安区富民路巨鹿路口"},{"poiid":"B209475CDA6CABF4429E","title":"myst","lon":"121.447692","lat":"31.220817","category":"500","category_name":"未知分类","address":"上海市 静安区延安中路"},{"poiid":"B2094757D66DA5FF4798","title":"苏浙汇","lon":"121.44903058","lat":"31.221403258","category":"500","category_name":"未知分类","address":"上海延安西路"},{"poiid":"B2094757D06BA5FB469C","title":"地铁七号线常熟路站","lon":"121.448803586","lat":"31.219236316","category":"500","category_name":"未知分类","address":"上海常熟路"},{"poiid":"B2094757D06FA5F9459C","title":"JA Cafe (静安公园内)","lon":"121.4465","lat":"31.22271","category":"260","category_name":"其他","address":"静安区南京西路1649号静安公园内(近静安公园)"},{"poiid":"B2094757D16AA7FC439F","title":"莹七餐厅","lon":"121.449147586","lat":"31.221130253","category":"500","category_name":"未知分类","address":"上海巨鹿路805号"},{"poiid":"B2094757D06FABF9459A","title":"Velvet Lounge","lon":"121.44758","lat":"31.21781","category":"94","category_name":"西餐厅","address":"静安区巨鹿路913号3-4号楼1楼(近常熟路)"},{"poiid":"B2094757D068A4FF439D","title":"BALI LAGUNA","lon":"121.45022583","lat":"31.219125747","category":"172","category_name":"酒吧","address":"上海静安区南京西路1649号(静安公园内)"},{"poiid":"B2094757D069A5FC499B","title":"翠华","lon":"121.44918058","lat":"31.221185254","category":"249","category_name":"购物服务","address":"上海静安区华山路"},{"poiid":"B2094757D064A2FD489E","title":"和さ美(巨鹿路店)","lon":"121.44835","lat":"31.2184","category":"95","category_name":"日本料理","address":"静安区巨鹿路876号(近华山路)"},{"poiid":"B2094757D16DA3FC469C","title":"喫茶去茶社ZEN TEA ROOM","lon":"121.45004866","lat":"31.2195266501","category":"247","category_name":"餐饮美食","address":"上海卢湾区巨鹿路796号(近富民路)"},{"poiid":"B2094757D068A3F4439B","title":"湾仔(常熟店)","lon":"121.44904","lat":"31.21845","category":"71","category_name":"四川菜","address":"静安区巨鹿路858号(近常熟路)"},{"poiid":"B2094654D564ABFF4593","title":"渡口书店","lon":"121.44947","lat":"31.21916","category":"125","category_name":"书店","address":"静安区巨鹿路828号(富民路常熟路间)"},{"poiid":"B2094757D069A7F84998","title":"Q太郎","lon":"121.45101065","lat":"31.219166647","category":"95","category_name":"日本料理","address":"静安区富民路158号(近巨鹿路)"},{"poiid":"B2094757D065A3FA459D","title":"coconut paradise","lon":"121.449070586","lat":"31.2214652596","category":"500","category_name":"未知分类","address":"上海市静安区富民路38号近巨鹿路"},{"poiid":"B2094655D269ABFD469B","title":"静安寺","lon":"121.44552","lat":"31.22324","category":"244","category_name":"寺庙道观","address":"静安区南京西路1686号(近静安寺)"},{"poiid":"B2094654DB69A0FA449B","title":"萤七人间 People seven","lon":"121.45002676183","lat":"31.219220560138","category":"257","category_name":"中餐厅","address":"巨鹿路805号近富民路"},{"poiid":"B2094757D165A2F9489E","title":"Mr Pancake House","lon":"121.448","lat":"31.218213","category":"94","category_name":"西餐厅","address":"静安区巨鹿路901号(近华山路)"},{"poiid":"B2094753D76FAAFA449C","title":"上海滩国泰旗舰店","lon":"121.466011","lat":"31.216125","category":"249","category_name":"购物服务","address":"淮海中路868号"},{"poiid":"B209475CD564A7F84292","title":"上海滩新天地店","lon":"121.47463","lat":"31.22164","category":"119","category_name":"商场","address":"\"太仓路181弄新天地北里15号\r\n\""},{"poiid":"B209475CD564A7F8439E","title":"上海滩中信泰富店","lon":"121.45602","lat":"31.22851","category":"119","category_name":"商场","address":"\"南京西路1168号中信泰富广场，店铺号221.\r\n\""},{"poiid":"B2094654DB69A0FA449C","title":"椰香天堂泰国料理","lon":"121.44991","lat":"31.22092","category":"99","category_name":"泰国／越南菜品餐厅","address":"静安区富民路38号(近延安中路)"},{"poiid":"B2094757D06FA3FB419F","title":"窩","lon":"121.44984693","lat":"31.220437979","category":"65","category_name":"咖啡厅","address":"静安区巨鹿路786弄66号1楼(近富民路)"},{"poiid":"B2094757D06FA0F44593","title":"柒寿司(富民路店)","lon":"121.45014813109981","lat":"31.221289026267844","category":"95","category_name":"日本料理","address":"上海静安寺富民路51号"},{"poiid":"B2094757D068A7FA4698","title":"Dr. Beer","lon":"121.450329386","lat":"31.2207334453","category":"500","category_name":"未知分类","address":"上海市富民路80号(巨鹿路)"},{"poiid":"B2094757D06FA2F94992","title":"Nepali Kitchen","lon":"121.45022","lat":"31.21855","category":"110","category_name":"其他亚洲菜","address":"静安区巨鹿路819弄4号(近富民路)"},{"poiid":"B2094655D26EA1FE449F","title":"上海延安饭店","lon":"121.44827","lat":"31.22062","category":"214","category_name":"四星级宾馆","address":"静安区延安中路1111号(近华山路)"},{"poiid":"B2094757D06FA3FE489A","title":"南麓.浙里","lon":"121.45108","lat":"31.21981","category":"76","category_name":"上海菜","address":"静安区巨鹿路768号巨富大厦2楼(近富民路)"},{"poiid":"B2094654D564ABFA4693","title":"辉哥火锅","lon":"121.45095","lat":"31.2199","category":"86","category_name":"火锅店","address":"静安区巨鹿路795号(近富民路)"},{"poiid":"B2094757D06FABFA459A","title":"dr.wine","lon":"121.45114394","lat":"31.219256726","category":"65","category_name":"咖啡厅","address":"上海富民路177号(近巨鹿路)"},{"poiid":"B2094757D06FA7FD449A","title":"席家花园(静安店)","lon":"121.44815","lat":"31.21749","category":"47","category_name":"住宅区","address":"静安区巨鹿路889号(近常熟路)"},{"poiid":"B2094757D16DA2F5419F","title":"泰籽","lon":"121.450883586","lat":"31.2201752344","category":"99","category_name":"泰国／越南菜品餐厅","address":"静安区巨鹿路768号巨富大厦G楼A-B室(近富民路)"},{"poiid":"B2094757D06FA1FF459E","title":"PHO REAL(富民路店)","lon":"121.45148","lat":"31.21822","category":"99","category_name":"泰国／越南菜品餐厅","address":"静安区富民路166号(近长乐路)"},{"poiid":"B2094757D068A6F9479B","title":"Casanova","lon":"121.448010058","lat":"31.2179782269","category":"94","category_name":"西餐厅","address":"静安区巨鹿路913号(近常熟路)"},{"poiid":"B2094757D06FA5FC4199","title":"HOME'S私房菜","lon":"121.45154","lat":"31.2196","category":"76","category_name":"上海菜","address":"静安区巨鹿路791号(近富民路)"},{"poiid":"B2094757D068A4FF459C","title":"荧七","lon":"121.45033424","lat":"31.217746436","category":"172","category_name":"酒吧","address":"上海巨鹿路"},{"poiid":"B2094757D06FA7FA4899","title":"苏浙汇(静安店)","lon":"121.4476","lat":"31.22033","category":"76","category_name":"上海菜","address":"静安区延安中路1121号(近华山路)"},{"poiid":"B2094654DB69A6F94798","title":"新都里无二 Shintori 2","lon":"121.45023441444","lat":"31.219697165107","category":"95","category_name":"日本料理","address":"静安区巨鹿路803号(近富民路)"},{"poiid":"B2094757D068ABFC4098","title":"CLUB VIETNAM","lon":"121.44839","lat":"31.21765","category":"99","category_name":"泰国／越南菜品餐厅","address":"静安区巨鹿路889号11-12号楼(近常熟路)"},{"poiid":"B2094757DB69A2F5449A","title":"il Bambino","lon":"121.44798","lat":"31.21813","category":"94","category_name":"西餐厅","address":"静安区巨鹿路903号(近常熟路)"},{"poiid":"B2094757D66DABF94899","title":"Wasabi","lon":"121.44806058","lat":"31.2184602","category":"500","category_name":"未知分类","address":"上海静安区延安西路"},{"poiid":"B2094757D06FA5FC489D","title":"Le Creme Milano(富民路店)","lon":"121.451104","lat":"31.219465","category":"67","category_name":"甜品店","address":"静安区富民路173号(富民路巨鹿路)"},{"poiid":"B2094757D06FAAFD459F","title":"Pho Asia","lon":"121.450447","lat":"31.220718","category":"99","category_name":"泰国／越南菜品餐厅","address":"静安区富民路85号巨富大厦(近巨鹿路)"},{"poiid":"B209475DD268A6FB489B","title":"香港龙凤楼","lon":"121.448295","lat":"31.217926","category":"247","category_name":"餐饮美食","address":"上海市 巨鹿路889号"},{"poiid":"B2094757D465A3FD4699","title":"阿毛餐厅 富民路店","lon":"121.45041531544","lat":"31.219963834542","category":"247","category_name":"餐饮美食","address":"静安区富民路98号(近巨鹿路)"},{"poiid":"B2094751D56EA0F9489D","title":"Antoni Restaurant","lon":"121.4503","lat":"31.21974","category":"94","category_name":"西餐厅","address":"静安区巨鹿路794号(近富民路)"},{"poiid":"B2094757D06FAAF54399","title":"鹿苑","lon":"121.447753","lat":"31.218096","category":"46","category_name":"楼宇","address":"上海巨鹿路889號"},{"poiid":"B2094757D068ABF4459C","title":"香港肥杜火锅","lon":"121.45016495","lat":"31.220844179","category":"86","category_name":"火锅店","address":"静安区富民路85号巨富大厦1楼(近巨鹿路)"},{"poiid":"B2094757D06FA6F4449F","title":"清风人家(静安店)","lon":"121.44802","lat":"31.22035","category":"260","category_name":"其他","address":"静安区延安中路1109号(近延安饭店)"},{"poiid":"B2094757D064A6F54998","title":"Juice","lon":"121.450010586","lat":"31.2197952269","category":"141","category_name":"服装鞋帽皮具店","address":"上海市静安区巨鹿路832号"},{"poiid":"B2094757D068A4FB419A","title":"富民路巨鹿路","lon":"121.45020024","lat":"31.221579561","category":"260","category_name":"其他","address":"上海静安区富民路巨鹿路口"},{"poiid":"B209475CDA6CABF4429E","title":"myst","lon":"121.447692","lat":"31.220817","category":"500","category_name":"未知分类","address":"上海市 静安区延安中路"},{"poiid":"B2094757D66DA5FF4798","title":"苏浙汇","lon":"121.44903058","lat":"31.221403258","category":"500","category_name":"未知分类","address":"上海延安西路"},{"poiid":"B2094757D06BA5FB469C","title":"地铁七号线常熟路站","lon":"121.448803586","lat":"31.219236316","category":"500","category_name":"未知分类","address":"上海常熟路"},{"poiid":"B2094757D06FA5F9459C","title":"JA Cafe (静安公园内)","lon":"121.4465","lat":"31.22271","category":"260","category_name":"其他","address":"静安区南京西路1649号静安公园内(近静安公园)"},{"poiid":"B2094757D16AA7FC439F","title":"莹七餐厅","lon":"121.449147586","lat":"31.221130253","category":"500","category_name":"未知分类","address":"上海巨鹿路805号"},{"poiid":"B2094757D06FABF9459A","title":"Velvet Lounge","lon":"121.44758","lat":"31.21781","category":"94","category_name":"西餐厅","address":"静安区巨鹿路913号3-4号楼1楼(近常熟路)"},{"poiid":"B2094757D068A4FF439D","title":"BALI LAGUNA","lon":"121.45022583","lat":"31.219125747","category":"172","category_name":"酒吧","address":"上海静安区南京西路1649号(静安公园内)"},{"poiid":"B2094757D069A5FC499B","title":"翠华","lon":"121.44918058","lat":"31.221185254","category":"249","category_name":"购物服务","address":"上海静安区华山路"},{"poiid":"B2094757D064A2FD489E","title":"和さ美(巨鹿路店)","lon":"121.44835","lat":"31.2184","category":"95","category_name":"日本料理","address":"静安区巨鹿路876号(近华山路)"},{"poiid":"B2094757D16DA3FC469C","title":"喫茶去茶社ZEN TEA ROOM","lon":"121.45004866","lat":"31.2195266501","category":"247","category_name":"餐饮美食","address":"上海卢湾区巨鹿路796号(近富民路)"},{"poiid":"B2094757D068A3F4439B","title":"湾仔(常熟店)","lon":"121.44904","lat":"31.21845","category":"71","category_name":"四川菜","address":"静安区巨鹿路858号(近常熟路)"},{"poiid":"B2094654D564ABFF4593","title":"渡口书店","lon":"121.44947","lat":"31.21916","category":"125","category_name":"书店","address":"静安区巨鹿路828号(富民路常熟路间)"},{"poiid":"B2094757D069A7F84998","title":"Q太郎","lon":"121.45101065","lat":"31.219166647","category":"95","category_name":"日本料理","address":"静安区富民路158号(近巨鹿路)"},{"poiid":"B2094757D065A3FA459D","title":"coconut paradise","lon":"121.449070586","lat":"31.2214652596","category":"500","category_name":"未知分类","address":"上海市静安区富民路38号近巨鹿路"},{"poiid":"B2094655D269ABFD469B","title":"静安寺","lon":"121.44552","lat":"31.22324","category":"244","category_name":"寺庙道观","address":"静安区南京西路1686号(近静安寺)"},{"poiid":"B2094654DB69A0FA449B","title":"萤七人间 People seven","lon":"121.45002676183","lat":"31.219220560138","category":"257","category_name":"中餐厅","address":"巨鹿路805号近富民路"},{"poiid":"B2094757D165A2F9489E","title":"Mr Pancake House","lon":"121.448","lat":"31.218213","category":"94","category_name":"西餐厅","address":"静安区巨鹿路901号(近华山路)"},{"poiid":"B2094753D76FAAFA449C","title":"上海滩国泰旗舰店","lon":"121.466011","lat":"31.216125","category":"249","category_name":"购物服务","address":"淮海中路868号"},{"poiid":"B209475CD564A7F84292","title":"上海滩新天地店","lon":"121.47463","lat":"31.22164","category":"119","category_name":"商场","address":"\"太仓路181弄新天地北里15号\r\n\""},{"poiid":"B209475CD564A7F8439E","title":"上海滩中信泰富店","lon":"121.45602","lat":"31.22851","category":"119","category_name":"商场","address":"\"南京西路1168号中信泰富广场，店铺号221.\r\n\""},{"poiid":"B2094654DB69A0FA449C","title":"椰香天堂泰国料理","lon":"121.44991","lat":"31.22092","category":"99","category_name":"泰国／越南菜品餐厅","address":"静安区富民路38号(近延安中路)"},{"poiid":"B2094757D06FA3FB419F","title":"窩","lon":"121.44984693","lat":"31.220437979","category":"65","category_name":"咖啡厅","address":"静安区巨鹿路786弄66号1楼(近富民路)"},{"poiid":"B2094757D06FA0F44593","title":"柒寿司(富民路店)","lon":"121.45014813109981","lat":"31.221289026267844","category":"95","category_name":"日本料理","address":"上海静安寺富民路51号"},{"poiid":"B2094757D068A7FA4698","title":"Dr. Beer","lon":"121.450329386","lat":"31.2207334453","category":"500","category_name":"未知分类","address":"上海市富民路80号(巨鹿路)"},{"poiid":"B2094757D06FA2F94992","title":"Nepali Kitchen","lon":"121.45022","lat":"31.21855","category":"110","category_name":"其他亚洲菜","address":"静安区巨鹿路819弄4号(近富民路)"},{"poiid":"B2094655D26EA1FE449F","title":"上海延安饭店","lon":"121.44827","lat":"31.22062","category":"214","category_name":"四星级宾馆","address":"静安区延安中路1111号(近华山路)"},{"poiid":"B2094757D06FA3FE489A","title":"南麓.浙里","lon":"121.45108","lat":"31.21981","category":"76","category_name":"上海菜","address":"静安区巨鹿路768号巨富大厦2楼(近富民路)"},{"poiid":"B2094654D564ABFA4693","title":"辉哥火锅","lon":"121.45095","lat":"31.2199","category":"86","category_name":"火锅店","address":"静安区巨鹿路795号(近富民路)"},{"poiid":"B2094757D06FABFA459A","title":"dr.wine","lon":"121.45114394","lat":"31.219256726","category":"65","category_name":"咖啡厅","address":"上海富民路177号(近巨鹿路)"},{"poiid":"B2094757D06FA7FD449A","title":"席家花园(静安店)","lon":"121.44815","lat":"31.21749","category":"47","category_name":"住宅区","address":"静安区巨鹿路889号(近常熟路)"},{"poiid":"B2094757D16DA2F5419F","title":"泰籽","lon":"121.450883586","lat":"31.2201752344","category":"99","category_name":"泰国／越南菜品餐厅","address":"静安区巨鹿路768号巨富大厦G楼A-B室(近富民路)"},{"poiid":"B2094757D06FA1FF459E","title":"PHO REAL(富民路店)","lon":"121.45148","lat":"31.21822","category":"99","category_name":"泰国／越南菜品餐厅","address":"静安区富民路166号(近长乐路)"},{"poiid":"B2094757D068A6F9479B","title":"Casanova","lon":"121.448010058","lat":"31.2179782269","category":"94","category_name":"西餐厅","address":"静安区巨鹿路913号(近常熟路)"},{"poiid":"B2094757D06FA5FC4199","title":"HOME'S私房菜","lon":"121.45154","lat":"31.2196","category":"76","category_name":"上海菜","address":"静安区巨鹿路791号(近富民路)"},{"poiid":"B2094757D068A4FF459C","title":"荧七","lon":"121.45033424","lat":"31.217746436","category":"172","category_name":"酒吧","address":"上海巨鹿路"},{"poiid":"B2094757D06FA7FA4899","title":"苏浙汇(静安店)","lon":"121.4476","lat":"31.22033","category":"76","category_name":"上海菜","address":"静安区延安中路1121号(近华山路)"},{"poiid":"B2094654DB69A6F94798","title":"新都里无二 Shintori 2","lon":"121.45023441444","lat":"31.219697165107","category":"95","category_name":"日本料理","address":"静安区巨鹿路803号(近富民路)"},{"poiid":"B2094757D068ABFC4098","title":"CLUB VIETNAM","lon":"121.44839","lat":"31.21765","category":"99","category_name":"泰国／越南菜品餐厅","address":"静安区巨鹿路889号11-12号楼(近常熟路)"},{"poiid":"B2094757DB69A2F5449A","title":"il Bambino","lon":"121.44798","lat":"31.21813","category":"94","category_name":"西餐厅","address":"静安区巨鹿路903号(近常熟路)"},{"poiid":"B2094757D66DABF94899","title":"Wasabi","lon":"121.44806058","lat":"31.2184602","category":"500","category_name":"未知分类","address":"上海静安区延安西路"},{"poiid":"B2094757D06FA5FC489D","title":"Le Creme Milano(富民路店)","lon":"121.451104","lat":"31.219465","category":"67","category_name":"甜品店","address":"静安区富民路173号(富民路巨鹿路)"},{"poiid":"B2094757D06FAAFD459F","title":"Pho Asia","lon":"121.450447","lat":"31.220718","category":"99","category_name":"泰国／越南菜品餐厅","address":"静安区富民路85号巨富大厦(近巨鹿路)"},{"poiid":"B209475DD268A6FB489B","title":"香港龙凤楼","lon":"121.448295","lat":"31.217926","category":"247","category_name":"餐饮美食","address":"上海市 巨鹿路889号"},{"poiid":"B2094757D465A3FD4699","title":"阿毛餐厅 富民路店","lon":"121.45041531544","lat":"31.219963834542","category":"247","category_name":"餐饮美食","address":"静安区富民路98号(近巨鹿路)"},{"poiid":"B2094751D56EA0F9489D","title":"Antoni Restaurant","lon":"121.4503","lat":"31.21974","category":"94","category_name":"西餐厅","address":"静安区巨鹿路794号(近富民路)"},{"poiid":"B2094757D06FAAF54399","title":"鹿苑","lon":"121.447753","lat":"31.218096","category":"46","category_name":"楼宇","address":"上海巨鹿路889號"},{"poiid":"B2094757D068ABF4459C","title":"香港肥杜火锅","lon":"121.45016495","lat":"31.220844179","category":"86","category_name":"火锅店","address":"静安区富民路85号巨富大厦1楼(近巨鹿路)"},{"poiid":"B2094757D06FA6F4449F","title":"清风人家(静安店)","lon":"121.44802","lat":"31.22035","category":"260","category_name":"其他","address":"静安区延安中路1109号(近延安饭店)"},{"poiid":"B2094757D064A6F54998","title":"Juice","lon":"121.450010586","lat":"31.2197952269","category":"141","category_name":"服装鞋帽皮具店","address":"上海市静安区巨鹿路832号"},{"poiid":"B2094757D068A4FB419A","title":"富民路巨鹿路","lon":"121.45020024","lat":"31.221579561","category":"260","category_name":"其他","address":"上海静安区富民路巨鹿路口"},{"poiid":"B209475CDA6CABF4429E","title":"myst","lon":"121.447692","lat":"31.220817","category":"500","category_name":"未知分类","address":"上海市 静安区延安中路"},{"poiid":"B2094757D66DA5FF4798","title":"苏浙汇","lon":"121.44903058","lat":"31.221403258","category":"500","category_name":"未知分类","address":"上海延安西路"},{"poiid":"B2094757D06BA5FB469C","title":"地铁七号线常熟路站","lon":"121.448803586","lat":"31.219236316","category":"500","category_name":"未知分类","address":"上海常熟路"},{"poiid":"B2094757D06FA5F9459C","title":"JA Cafe (静安公园内)","lon":"121.4465","lat":"31.22271","category":"260","category_name":"其他","address":"静安区南京西路1649号静安公园内(近静安公园)"},{"poiid":"B2094757D16AA7FC439F","title":"莹七餐厅","lon":"121.449147586","lat":"31.221130253","category":"500","category_name":"未知分类","address":"上海巨鹿路805号"},{"poiid":"B2094757D06FABF9459A","title":"Velvet Lounge","lon":"121.44758","lat":"31.21781","category":"94","category_name":"西餐厅","address":"静安区巨鹿路913号3-4号楼1楼(近常熟路)"},{"poiid":"B2094757D068A4FF439D","title":"BALI LAGUNA","lon":"121.45022583","lat":"31.219125747","category":"172","category_name":"酒吧","address":"上海静安区南京西路1649号(静安公园内)"},{"poiid":"B2094757D069A5FC499B","title":"翠华","lon":"121.44918058","lat":"31.221185254","category":"249","category_name":"购物服务","address":"上海静安区华山路"},{"poiid":"B2094757D064A2FD489E","title":"和さ美(巨鹿路店)","lon":"121.44835","lat":"31.2184","category":"95","category_name":"日本料理","address":"静安区巨鹿路876号(近华山路)"},{"poiid":"B2094757D16DA3FC469C","title":"喫茶去茶社ZEN TEA ROOM","lon":"121.45004866","lat":"31.2195266501","category":"247","category_name":"餐饮美食","address":"上海卢湾区巨鹿路796号(近富民路)"},{"poiid":"B2094757D068A3F4439B","title":"湾仔(常熟店)","lon":"121.44904","lat":"31.21845","category":"71","category_name":"四川菜","address":"静安区巨鹿路858号(近常熟路)"},{"poiid":"B2094654D564ABFF4593","title":"渡口书店","lon":"121.44947","lat":"31.21916","category":"125","category_name":"书店","address":"静安区巨鹿路828号(富民路常熟路间)"},{"poiid":"B2094757D069A7F84998","title":"Q太郎","lon":"121.45101065","lat":"31.219166647","category":"95","category_name":"日本料理","address":"静安区富民路158号(近巨鹿路)"},{"poiid":"B2094757D065A3FA459D","title":"coconut paradise","lon":"121.449070586","lat":"31.2214652596","category":"500","category_name":"未知分类","address":"上海市静安区富民路38号近巨鹿路"},{"poiid":"B2094655D269ABFD469B","title":"静安寺","lon":"121.44552","lat":"31.22324","category":"244","category_name":"寺庙道观","address":"静安区南京西路1686号(近静安寺)"},{"poiid":"B2094654DB69A0FA449B","title":"萤七人间 People seven","lon":"121.45002676183","lat":"31.219220560138","category":"257","category_name":"中餐厅","address":"巨鹿路805号近富民路"},{"poiid":"B2094757D165A2F9489E","title":"Mr Pancake House","lon":"121.448","lat":"31.218213","category":"94","category_name":"西餐厅","address":"静安区巨鹿路901号(近华山路)"},{"poiid":"B2094753D76FAAFA449C","title":"上海滩国泰旗舰店","lon":"121.466011","lat":"31.216125","category":"249","category_name":"购物服务","address":"淮海中路868号"},{"poiid":"B209475CD564A7F84292","title":"上海滩新天地店","lon":"121.47463","lat":"31.22164","category":"119","category_name":"商场","address":"\"太仓路181弄新天地北里15号\r\n\""},{"poiid":"B209475CD564A7F8439E","title":"上海滩中信泰富店","lon":"121.45602","lat":"31.22851","category":"119","category_name":"商场","address":"\"南京西路1168号中信泰富广场，店铺号221.\r\n\""},{"poiid":"B2094654DB69A0FA449C","title":"椰香天堂泰国料理","lon":"121.44991","lat":"31.22092","category":"99","category_name":"泰国／越南菜品餐厅","address":"静安区富民路38号(近延安中路)"},{"poiid":"B2094757D06FA3FB419F","title":"窩","lon":"121.44984693","lat":"31.220437979","category":"65","category_name":"咖啡厅","address":"静安区巨鹿路786弄66号1楼(近富民路)"},{"poiid":"B2094757D06FA0F44593","title":"柒寿司(富民路店)","lon":"121.45014813109981","lat":"31.221289026267844","category":"95","category_name":"日本料理","address":"上海静安寺富民路51号"},{"poiid":"B2094757D068A7FA4698","title":"Dr. Beer","lon":"121.450329386","lat":"31.2207334453","category":"500","category_name":"未知分类","address":"上海市富民路80号(巨鹿路)"},{"poiid":"B2094757D06FA2F94992","title":"Nepali Kitchen","lon":"121.45022","lat":"31.21855","category":"110","category_name":"其他亚洲菜","address":"静安区巨鹿路819弄4号(近富民路)"},{"poiid":"B2094655D26EA1FE449F","title":"上海延安饭店","lon":"121.44827","lat":"31.22062","category":"214","category_name":"四星级宾馆","address":"静安区延安中路1111号(近华山路)"},{"poiid":"B2094757D06FA3FE489A","title":"南麓.浙里","lon":"121.45108","lat":"31.21981","category":"76","category_name":"上海菜","address":"静安区巨鹿路768号巨富大厦2楼(近富民路)"},{"poiid":"B2094654D564ABFA4693","title":"辉哥火锅","lon":"121.45095","lat":"31.2199","category":"86","category_name":"火锅店","address":"静安区巨鹿路795号(近富民路)"},{"poiid":"B2094757D06FABFA459A","title":"dr.wine","lon":"121.45114394","lat":"31.219256726","category":"65","category_name":"咖啡厅","address":"上海富民路177号(近巨鹿路)"},{"poiid":"B2094757D06FA7FD449A","title":"席家花园(静安店)","lon":"121.44815","lat":"31.21749","category":"47","category_name":"住宅区","address":"静安区巨鹿路889号(近常熟路)"},{"poiid":"B2094757D16DA2F5419F","title":"泰籽","lon":"121.450883586","lat":"31.2201752344","category":"99","category_name":"泰国／越南菜品餐厅","address":"静安区巨鹿路768号巨富大厦G楼A-B室(近富民路)"},{"poiid":"B2094757D06FA1FF459E","title":"PHO REAL(富民路店)","lon":"121.45148","lat":"31.21822","category":"99","category_name":"泰国／越南菜品餐厅","address":"静安区富民路166号(近长乐路)"},{"poiid":"B2094757D068A6F9479B","title":"Casanova","lon":"121.448010058","lat":"31.2179782269","category":"94","category_name":"西餐厅","address":"静安区巨鹿路913号(近常熟路)"},{"poiid":"B2094757D06FA5FC4199","title":"HOME'S私房菜","lon":"121.45154","lat":"31.2196","category":"76","category_name":"上海菜","address":"静安区巨鹿路791号(近富民路)"},{"poiid":"B2094757D068A4FF459C","title":"荧七","lon":"121.45033424","lat":"31.217746436","category":"172","category_name":"酒吧","address":"上海巨鹿路"},{"poiid":"B2094757D06FA7FA4899","title":"苏浙汇(静安店)","lon":"121.4476","lat":"31.22033","category":"76","category_name":"上海菜","address":"静安区延安中路1121号(近华山路)"},{"poiid":"B2094654DB69A6F94798","title":"新都里无二 Shintori 2","lon":"121.45023441444","lat":"31.219697165107","category":"95","category_name":"日本料理","address":"静安区巨鹿路803号(近富民路)"},{"poiid":"B2094757D068ABFC4098","title":"CLUB VIETNAM","lon":"121.44839","lat":"31.21765","category":"99","category_name":"泰国／越南菜品餐厅","address":"静安区巨鹿路889号11-12号楼(近常熟路)"},{"poiid":"B2094757DB69A2F5449A","title":"il Bambino","lon":"121.44798","lat":"31.21813","category":"94","category_name":"西餐厅","address":"静安区巨鹿路903号(近常熟路)"},{"poiid":"B2094757D66DABF94899","title":"Wasabi","lon":"121.44806058","lat":"31.2184602","category":"500","category_name":"未知分类","address":"上海静安区延安西路"},{"poiid":"B2094757D06FA5FC489D","title":"Le Creme Milano(富民路店)","lon":"121.451104","lat":"31.219465","category":"67","category_name":"甜品店","address":"静安区富民路173号(富民路巨鹿路)"},{"poiid":"B2094757D06FAAFD459F","title":"Pho Asia","lon":"121.450447","lat":"31.220718","category":"99","category_name":"泰国／越南菜品餐厅","address":"静安区富民路85号巨富大厦(近巨鹿路)"},{"poiid":"B209475DD268A6FB489B","title":"香港龙凤楼","lon":"121.448295","lat":"31.217926","category":"247","category_name":"餐饮美食","address":"上海市 巨鹿路889号"},{"poiid":"B2094757D465A3FD4699","title":"阿毛餐厅 富民路店","lon":"121.45041531544","lat":"31.219963834542","category":"247","category_name":"餐饮美食","address":"静安区富民路98号(近巨鹿路)"},{"poiid":"B2094751D56EA0F9489D","title":"Antoni Restaurant","lon":"121.4503","lat":"31.21974","category":"94","category_name":"西餐厅","address":"静安区巨鹿路794号(近富民路)"},{"poiid":"B2094757D06FAAF54399","title":"鹿苑","lon":"121.447753","lat":"31.218096","category":"46","category_name":"楼宇","address":"上海巨鹿路889號"},{"poiid":"B2094757D068ABF4459C","title":"香港肥杜火锅","lon":"121.45016495","lat":"31.220844179","category":"86","category_name":"火锅店","address":"静安区富民路85号巨富大厦1楼(近巨鹿路)"},{"poiid":"B2094757D06FA6F4449F","title":"清风人家(静安店)","lon":"121.44802","lat":"31.22035","category":"260","category_name":"其他","address":"静安区延安中路1109号(近延安饭店)"},{"poiid":"B2094757D064A6F54998","title":"Juice","lon":"121.450010586","lat":"31.2197952269","category":"141","category_name":"服装鞋帽皮具店","address":"上海市静安区巨鹿路832号"},{"poiid":"B2094757D068A4FB419A","title":"富民路巨鹿路","lon":"121.45020024","lat":"31.221579561","category":"260","category_name":"其他","address":"上海静安区富民路巨鹿路口"},{"poiid":"B209475CDA6CABF4429E","title":"myst","lon":"121.447692","lat":"31.220817","category":"500","category_name":"未知分类","address":"上海市 静安区延安中路"},{"poiid":"B2094757D66DA5FF4798","title":"苏浙汇","lon":"121.44903058","lat":"31.221403258","category":"500","category_name":"未知分类","address":"上海延安西路"},{"poiid":"B2094757D06BA5FB469C","title":"地铁七号线常熟路站","lon":"121.448803586","lat":"31.219236316","category":"500","category_name":"未知分类","address":"上海常熟路"},{"poiid":"B2094757D06FA5F9459C","title":"JA Cafe (静安公园内)","lon":"121.4465","lat":"31.22271","category":"260","category_name":"其他","address":"静安区南京西路1649号静安公园内(近静安公园)"},{"poiid":"B2094757D16AA7FC439F","title":"莹七餐厅","lon":"121.449147586","lat":"31.221130253","category":"500","category_name":"未知分类","address":"上海巨鹿路805号"},{"poiid":"B2094757D06FABF9459A","title":"Velvet Lounge","lon":"121.44758","lat":"31.21781","category":"94","category_name":"西餐厅","address":"静安区巨鹿路913号3-4号楼1楼(近常熟路)"},{"poiid":"B2094757D068A4FF439D","title":"BALI LAGUNA","lon":"121.45022583","lat":"31.219125747","category":"172","category_name":"酒吧","address":"上海静安区南京西路1649号(静安公园内)"},{"poiid":"B2094757D069A5FC499B","title":"翠华","lon":"121.44918058","lat":"31.221185254","category":"249","category_name":"购物服务","address":"上海静安区华山路"},{"poiid":"B2094757D064A2FD489E","title":"和さ美(巨鹿路店)","lon":"121.44835","lat":"31.2184","category":"95","category_name":"日本料理","address":"静安区巨鹿路876号(近华山路)"},{"poiid":"B2094757D16DA3FC469C","title":"喫茶去茶社ZEN TEA ROOM","lon":"121.45004866","lat":"31.2195266501","category":"247","category_name":"餐饮美食","address":"上海卢湾区巨鹿路796号(近富民路)"},{"poiid":"B2094757D068A3F4439B","title":"湾仔(常熟店)","lon":"121.44904","lat":"31.21845","category":"71","category_name":"四川菜","address":"静安区巨鹿路858号(近常熟路)"},{"poiid":"B2094654D564ABFF4593","title":"渡口书店","lon":"121.44947","lat":"31.21916","category":"125","category_name":"书店","address":"静安区巨鹿路828号(富民路常熟路间)"},{"poiid":"B2094757D069A7F84998","title":"Q太郎","lon":"121.45101065","lat":"31.219166647","category":"95","category_name":"日本料理","address":"静安区富民路158号(近巨鹿路)"},{"poiid":"B2094757D065A3FA459D","title":"coconut paradise","lon":"121.449070586","lat":"31.2214652596","category":"500","category_name":"未知分类","address":"上海市静安区富民路38号近巨鹿路"}]