[{"poiid":"B2094655D26AAAF4409B","title":"莲餐厅","lon":"121.42374","lat":"31.22021","category":"260","category_name":"其他","address":"长宁区长宁路641号(近愚园路)"},{"poiid":"B2094757D06FA0F4479F","title":"长宁区政府","lon":"121.42471055","lat":"31.220813466","category":"253","category_name":"校园生活","address":"上海长宁路599号"},{"poiid":"B2094757D169ABFC409E","title":"上海长宁区工人文化宫","lon":"121.42489298","lat":"31.219407519","category":"500","category_name":"未知分类","address":"长宁区愚园路1250号4楼(近中山公园)"},{"poiid":"B2094757D169A4FA4698","title":"愚园路","lon":"121.427104586","lat":"31.2190412122","category":"500","category_name":"未知分类","address":"上海愚园路1155弄"},{"poiid":"B2094757D069A5FE459B","title":"长宁区少年宫","lon":"121.42641758","lat":"31.219353218","category":"248","category_name":"生活娱乐","address":"长宁区愚园路1136弄31号"},{"poiid":"B2094757D06FA5FD439A","title":"純粹私房咖啡工作室","lon":"121.42457458","lat":"31.217086173","category":"65","category_name":"咖啡厅","address":"长宁区宣化路299弄富都花园2号1B铺"},{"poiid":"B2094757D16FA5FB439B","title":"Tiramisu Italian Restaurant","lon":"121.42796058","lat":"31.217515182","category":"94","category_name":"西餐厅","address":"长宁区宣化路100号(近江苏路)"},{"poiid":"B2094757D16EA6FD489C","title":"长宁区","lon":"121.426747322","lat":"31.220535541","category":"250","category_name":"公园户外","address":"上海长宁区区域"},{"poiid":"B2094757D16EA4F5499F","title":"唐恩都乐(愚园店)","lon":"121.425279586","lat":"31.2190882131","category":"67","category_name":"甜品店","address":"长宁区愚园路1277号附近(近安西路)"},{"poiid":"B2094757D06FA7FB4498","title":"星伟桌球","lon":"121.42575","lat":"31.21863","category":"171","category_name":"台球厅","address":"长宁区宣化路311号6楼(近巴黎春天)"},{"poiid":"B2094654D565A6F9439B","title":"百味手拨虾","lon":"121.42834","lat":"31.2189","category":"257","category_name":"中餐厅","address":"长宁区愚园路1096号(近江苏路)"},{"poiid":"B2094655D26DA2FE419B","title":"弘基创邑国际园","lon":"121.42823","lat":"31.21826","category":"45","category_name":"产业园区","address":"长宁区愚园路1107号(近江苏路)"},{"poiid":"B2094757D06BA0FE4792","title":"安西路","lon":"121.425997","lat":"31.218903","category":"500","category_name":"未知分类","address":"上海愚园路安西路"},{"poiid":"B2094757D064A4F9469B","title":"鼎尚创意餐厅","lon":"121.42536","lat":"31.21996","category":"95","category_name":"日本料理","address":"长宁区长宁区江苏路458号弘基天地2楼(近宣化路)"},{"poiid":"B2094757D569A6FF459E","title":"迎龙大厦写字楼","lon":"121.4251619","lat":"31.21624111","category":"46","category_name":"楼宇","address":"延安西路1358号"},{"poiid":"B2094750D26AA3FE4398","title":"上海地铁2号线","lon":"121.425041","lat":"31.21964","category":"500","category_name":"未知分类","address":"中山公园站"},{"poiid":"B2094752D165A0FD4398","title":"boom cafe","lon":"121.424805","lat":"31.216415","category":"247","category_name":"餐饮美食","address":"宣化路1310弄6号"},{"poiid":"B2094757D46FA7FD409F","title":"天喔一佳 愚园店","lon":"121.4255206","lat":"31.2188889","category":"68","category_name":"快餐厅","address":"长宁区愚园路1253号(近安西路)"},{"poiid":"B2094654D565A6FD479D","title":"富都花园","lon":"121.42453","lat":"31.216513","category":"47","category_name":"住宅区","address":"富都花园位于长宁宣化路299弄1-4号"},{"poiid":"B2094750D26AA3F9429E","title":"陈记甜品窝 宣化路店","lon":"121.42570495606","lat":"31.216875435059","category":"67","category_name":"甜品店","address":"长宁区宣化路233号(安西路口)"},{"poiid":"B2094757D16CA7FB409B","title":"yue1525粤","lon":"121.42632032","lat":"31.216147429","category":"500","category_name":"未知分类","address":"上海定西路1525"},{"poiid":"B2094757D069A5FE449F","title":"蚝门","lon":"121.42639","lat":"31.21883","category":"68","category_name":"快餐厅","address":"长宁区愚园路1203弄(近安西路)"},{"poiid":"B2094655D26AA0F4499F","title":"长宁区工人俱乐部","lon":"121.42613","lat":"31.21915","category":"247","category_name":"餐饮美食","address":"长宁区愚园路1240号(近安西路)"},{"poiid":"B2094757D16DA0F5499B","title":"江苏路愚园路公交站","lon":"121.426561","lat":"31.218507","category":"38","category_name":"公交车站","address":"上海长宁区江苏路愚园路"},{"poiid":"B2094654D565A6FE4998","title":"上海市长宁区愚园路第一小学(宣化路)","lon":"121.42602","lat":"31.21739","category":"56","category_name":"小学","address":"长宁区宣化路222号(安西路宣化路)"},{"poiid":"B2094757D568A6FC4592","title":"莲·创意楚菜","lon":"121.423797","lat":"31.220224","category":"257","category_name":"中餐厅","address":"长宁路641"},{"poiid":"B2094654D565A6FF4893","title":"萍聚美容美发","lon":"121.42629","lat":"31.21872","category":"148","category_name":"美容美发店","address":"静安区愚园路1209-1217号(近安西路)"},{"poiid":"B2094750D76FA2FD469C","title":"伊咖啡","lon":"121.425","lat":"31.2189","category":"269","category_name":"烧烤","address":"愚园路1265号103-1、103-2室(近安西路)"},{"poiid":"B2094654D565A6FF499A","title":"可的(愚园路)","lon":"121.42673","lat":"31.21868","category":"117","category_name":"便民商店/便利店","address":"长宁区愚园路1177号(安西路愚园路)"},{"poiid":"B2094750DA6DA6FD4892","title":"Z ’ PARK BAR","lon":"121.427551","lat":"31.217639","category":"247","category_name":"餐饮美食","address":"中山公园龙之梦25F"},{"poiid":"B2094655D26DA6F44492","title":"苹果园(愚园路)","lon":"121.42568","lat":"31.21872","category":"47","category_name":"住宅区","address":""},{"poiid":"B2094757D16DA3F54693","title":"江苏路宣化路","lon":"121.426545","lat":"31.217097","category":"500","category_name":"未知分类","address":"上海宣化路2号"},{"poiid":"B2094757D16EABFD459C","title":"愚园路安西路939公交车站","lon":"121.42570031","lat":"31.219026636","category":"38","category_name":"公交车站","address":"上海愚园路安西路939公交车站"},{"poiid":"B2094750DB64A5FF429B","title":"朱家角镇","lon":"121.425628","lat":"31.218725","category":"248","category_name":"生活娱乐","address":"青浦区"},{"poiid":"B2094757D164A6FD4993","title":"良友金伴(愚园路二店)","lon":"121.42555","lat":"31.21873","category":"117","category_name":"便民商店/便利店","address":"上海长宁区愚园路1266号  "},{"poiid":"B2094757D168A0FD4092","title":"蕃茄田","lon":"121.426410256","lat":"31.2185922434","category":"500","category_name":"未知分类","address":"长宁区长宁区宣化路299弄富都花园新媒体大楼201室(近定西路)"},{"poiid":"B2094753D56FA2F9499D","title":"cup cats猫咪咖啡馆","lon":"121.424194","lat":"31.217498","category":"65","category_name":"咖啡厅","address":"上海市 愚园路1355弄67号101"},{"poiid":"B2094757D16CA1F9449E","title":"愚一幼儿园(长宁总部)","lon":"121.42518","lat":"31.21875","category":"57","category_name":"幼儿园","address":"上海长宁区愚园路1280弄18号  "},{"poiid":"B2094757D06BA0F94098","title":"苏州面馆","lon":"121.428344","lat":"31.218721","category":"68","category_name":"快餐厅","address":"长宁区愚园路1301号(近中山公园)"},{"poiid":"B2094655D26CAAFB439A","title":"良友(愚园路)","lon":"121.42517","lat":"31.21902","category":"117","category_name":"便民商店/便利店","address":"愚园路1266"},{"poiid":"B2094757D164A3F94793","title":"233 BAR","lon":"121.42546558","lat":"31.217171675","category":"500","category_name":"未知分类","address":"上海宣化路233号"},{"poiid":"B2094655D26BABFF499E","title":"江苏路街道图书馆","lon":"121.4259","lat":"31.21966","category":"181","category_name":"图书馆","address":"安西路45"},{"poiid":"B209475CDB6AA5FE4192","title":"鹤雅日料","lon":"121.427055","lat":"31.217168","category":"247","category_name":"餐饮美食","address":"上海市 愚园路1393号"},{"poiid":"B2094655D26AA7FE4898","title":"HP惠普梦工厂","lon":"121.42696","lat":"31.21715","category":"247","category_name":"餐饮美食","address":"长宁区宣化路159号(近安西路)"},{"poiid":"B2094654DB6BA6F8469B","title":"御华名苑(东门)","lon":"121.42633","lat":"31.21844","category":"48","category_name":"楼宇大门","address":"愚园路1203弄14"},{"poiid":"B2094655D26EA3F44899","title":"海信花苑","lon":"121.42606","lat":"31.21999","category":"47","category_name":"住宅区","address":"愚园路1240号"},{"poiid":"B2094757D169A3FE489D","title":"老德兴驴肉馆","lon":"121.424665586","lat":"31.2176411848","category":"247","category_name":"餐饮美食","address":"上海长宁路684号"},{"poiid":"B2094757D66CA5FF4398","title":"正宗绿豆饼","lon":"121.42747923","lat":"31.218210595","category":"247","category_name":"餐饮美食","address":"上海市长宁区长宁路770号"},{"poiid":"B2094655D264A0F54699","title":"上海市长宁区愚园路第一幼儿园","lon":"121.42496","lat":"31.21903","category":"57","category_name":"幼儿园","address":"长宁区愚园路1280弄18号(安西路愚园路)"},{"poiid":"B2094655D264A6FF4998","title":"阳光剧场","lon":"121.42747","lat":"31.21946","category":"180","category_name":"剧场","address":"上海愚园路"},{"poiid":"B2094655D26AAAF4409B","title":"莲餐厅","lon":"121.42374","lat":"31.22021","category":"260","category_name":"其他","address":"长宁区长宁路641号(近愚园路)"},{"poiid":"B2094757D06FA0F4479F","title":"长宁区政府","lon":"121.42471055","lat":"31.220813466","category":"253","category_name":"校园生活","address":"上海长宁路599号"},{"poiid":"B2094757D169ABFC409E","title":"上海长宁区工人文化宫","lon":"121.42489298","lat":"31.219407519","category":"500","category_name":"未知分类","address":"长宁区愚园路1250号4楼(近中山公园)"},{"poiid":"B2094757D169A4FA4698","title":"愚园路","lon":"121.427104586","lat":"31.2190412122","category":"500","category_name":"未知分类","address":"上海愚园路1155弄"},{"poiid":"B2094757D069A5FE459B","title":"长宁区少年宫","lon":"121.42641758","lat":"31.219353218","category":"248","category_name":"生活娱乐","address":"长宁区愚园路1136弄31号"},{"poiid":"B2094757D06FA5FD439A","title":"純粹私房咖啡工作室","lon":"121.42457458","lat":"31.217086173","category":"65","category_name":"咖啡厅","address":"长宁区宣化路299弄富都花园2号1B铺"},{"poiid":"B2094757D16FA5FB439B","title":"Tiramisu Italian Restaurant","lon":"121.42796058","lat":"31.217515182","category":"94","category_name":"西餐厅","address":"长宁区宣化路100号(近江苏路)"},{"poiid":"B2094757D16EA6FD489C","title":"长宁区","lon":"121.426747322","lat":"31.220535541","category":"250","category_name":"公园户外","address":"上海长宁区区域"},{"poiid":"B2094757D16EA4F5499F","title":"唐恩都乐(愚园店)","lon":"121.425279586","lat":"31.2190882131","category":"67","category_name":"甜品店","address":"长宁区愚园路1277号附近(近安西路)"},{"poiid":"B2094757D06FA7FB4498","title":"星伟桌球","lon":"121.42575","lat":"31.21863","category":"171","category_name":"台球厅","address":"长宁区宣化路311号6楼(近巴黎春天)"},{"poiid":"B2094654D565A6F9439B","title":"百味手拨虾","lon":"121.42834","lat":"31.2189","category":"257","category_name":"中餐厅","address":"长宁区愚园路1096号(近江苏路)"},{"poiid":"B2094655D26DA2FE419B","title":"弘基创邑国际园","lon":"121.42823","lat":"31.21826","category":"45","category_name":"产业园区","address":"长宁区愚园路1107号(近江苏路)"},{"poiid":"B2094757D06BA0FE4792","title":"安西路","lon":"121.425997","lat":"31.218903","category":"500","category_name":"未知分类","address":"上海愚园路安西路"},{"poiid":"B2094757D064A4F9469B","title":"鼎尚创意餐厅","lon":"121.42536","lat":"31.21996","category":"95","category_name":"日本料理","address":"长宁区长宁区江苏路458号弘基天地2楼(近宣化路)"},{"poiid":"B2094757D569A6FF459E","title":"迎龙大厦写字楼","lon":"121.4251619","lat":"31.21624111","category":"46","category_name":"楼宇","address":"延安西路1358号"},{"poiid":"B2094750D26AA3FE4398","title":"上海地铁2号线","lon":"121.425041","lat":"31.21964","category":"500","category_name":"未知分类","address":"中山公园站"},{"poiid":"B2094752D165A0FD4398","title":"boom cafe","lon":"121.424805","lat":"31.216415","category":"247","category_name":"餐饮美食","address":"宣化路1310弄6号"},{"poiid":"B2094757D46FA7FD409F","title":"天喔一佳 愚园店","lon":"121.4255206","lat":"31.2188889","category":"68","category_name":"快餐厅","address":"长宁区愚园路1253号(近安西路)"},{"poiid":"B2094654D565A6FD479D","title":"富都花园","lon":"121.42453","lat":"31.216513","category":"47","category_name":"住宅区","address":"富都花园位于长宁宣化路299弄1-4号"},{"poiid":"B2094750D26AA3F9429E","title":"陈记甜品窝 宣化路店","lon":"121.42570495606","lat":"31.216875435059","category":"67","category_name":"甜品店","address":"长宁区宣化路233号(安西路口)"},{"poiid":"B2094757D16CA7FB409B","title":"yue1525粤","lon":"121.42632032","lat":"31.216147429","category":"500","category_name":"未知分类","address":"上海定西路1525"},{"poiid":"B2094757D069A5FE449F","title":"蚝门","lon":"121.42639","lat":"31.21883","category":"68","category_name":"快餐厅","address":"长宁区愚园路1203弄(近安西路)"},{"poiid":"B2094655D26AA0F4499F","title":"长宁区工人俱乐部","lon":"121.42613","lat":"31.21915","category":"247","category_name":"餐饮美食","address":"长宁区愚园路1240号(近安西路)"},{"poiid":"B2094757D16DA0F5499B","title":"江苏路愚园路公交站","lon":"121.426561","lat":"31.218507","category":"38","category_name":"公交车站","address":"上海长宁区江苏路愚园路"},{"poiid":"B2094654D565A6FE4998","title":"上海市长宁区愚园路第一小学(宣化路)","lon":"121.42602","lat":"31.21739","category":"56","category_name":"小学","address":"长宁区宣化路222号(安西路宣化路)"},{"poiid":"B2094757D568A6FC4592","title":"莲·创意楚菜","lon":"121.423797","lat":"31.220224","category":"257","category_name":"中餐厅","address":"长宁路641"},{"poiid":"B2094654D565A6FF4893","title":"萍聚美容美发","lon":"121.42629","lat":"31.21872","category":"148","category_name":"美容美发店","address":"静安区愚园路1209-1217号(近安西路)"},{"poiid":"B2094750D76FA2FD469C","title":"伊咖啡","lon":"121.425","lat":"31.2189","category":"269","category_name":"烧烤","address":"愚园路1265号103-1、103-2室(近安西路)"},{"poiid":"B2094654D565A6FF499A","title":"可的(愚园路)","lon":"121.42673","lat":"31.21868","category":"117","category_name":"便民商店/便利店","address":"长宁区愚园路1177号(安西路愚园路)"},{"poiid":"B2094750DA6DA6FD4892","title":"Z ’ PARK BAR","lon":"121.427551","lat":"31.217639","category":"247","category_name":"餐饮美食","address":"中山公园龙之梦25F"},{"poiid":"B2094655D26DA6F44492","title":"苹果园(愚园路)","lon":"121.42568","lat":"31.21872","category":"47","category_name":"住宅区","address":""},{"poiid":"B2094757D16DA3F54693","title":"江苏路宣化路","lon":"121.426545","lat":"31.217097","category":"500","category_name":"未知分类","address":"上海宣化路2号"},{"poiid":"B2094757D16EABFD459C","title":"愚园路安西路939公交车站","lon":"121.42570031","lat":"31.219026636","category":"38","category_name":"公交车站","address":"上海愚园路安西路939公交车站"},{"poiid":"B2094750DB64A5FF429B","title":"朱家角镇","lon":"121.425628","lat":"31.218725","category":"248","category_name":"生活娱乐","address":"青浦区"},{"poiid":"B2094757D164A6FD4993","title":"良友金伴(愚园路二店)","lon":"121.42555","lat":"31.21873","category":"117","category_name":"便民商店/便利店","address":"上海长宁区愚园路1266号  "},{"poiid":"B2094757D168A0FD4092","title":"蕃茄田","lon":"121.426410256","lat":"31.2185922434","category":"500","category_name":"未知分类","address":"长宁区长宁区宣化路299弄富都花园新媒体大楼201室(近定西路)"},{"poiid":"B2094753D56FA2F9499D","title":"cup cats猫咪咖啡馆","lon":"121.424194","lat":"31.217498","category":"65","category_name":"咖啡厅","address":"上海市 愚园路1355弄67号101"},{"poiid":"B2094757D16CA1F9449E","title":"愚一幼儿园(长宁总部)","lon":"121.42518","lat":"31.21875","category":"57","category_name":"幼儿园","address":"上海长宁区愚园路1280弄18号  "},{"poiid":"B2094757D06BA0F94098","title":"苏州面馆","lon":"121.428344","lat":"31.218721","category":"68","category_name":"快餐厅","address":"长宁区愚园路1301号(近中山公园)"},{"poiid":"B2094655D26CAAFB439A","title":"良友(愚园路)","lon":"121.42517","lat":"31.21902","category":"117","category_name":"便民商店/便利店","address":"愚园路1266"},{"poiid":"B2094757D164A3F94793","title":"233 BAR","lon":"121.42546558","lat":"31.217171675","category":"500","category_name":"未知分类","address":"上海宣化路233号"},{"poiid":"B2094655D26BABFF499E","title":"江苏路街道图书馆","lon":"121.4259","lat":"31.21966","category":"181","category_name":"图书馆","address":"安西路45"},{"poiid":"B209475CDB6AA5FE4192","title":"鹤雅日料","lon":"121.427055","lat":"31.217168","category":"247","category_name":"餐饮美食","address":"上海市 愚园路1393号"},{"poiid":"B2094655D26AA7FE4898","title":"HP惠普梦工厂","lon":"121.42696","lat":"31.21715","category":"247","category_name":"餐饮美食","address":"长宁区宣化路159号(近安西路)"},{"poiid":"B2094654DB6BA6F8469B","title":"御华名苑(东门)","lon":"121.42633","lat":"31.21844","category":"48","category_name":"楼宇大门","address":"愚园路1203弄14"},{"poiid":"B2094655D26EA3F44899","title":"海信花苑","lon":"121.42606","lat":"31.21999","category":"47","category_name":"住宅区","address":"愚园路1240号"},{"poiid":"B2094757D169A3FE489D","title":"老德兴驴肉馆","lon":"121.424665586","lat":"31.2176411848","category":"247","category_name":"餐饮美食","address":"上海长宁路684号"},{"poiid":"B2094757D66CA5FF4398","title":"正宗绿豆饼","lon":"121.42747923","lat":"31.218210595","category":"247","category_name":"餐饮美食","address":"上海市长宁区长宁路770号"},{"poiid":"B2094655D264A0F54699","title":"上海市长宁区愚园路第一幼儿园","lon":"121.42496","lat":"31.21903","category":"57","category_name":"幼儿园","address":"长宁区愚园路1280弄18号(安西路愚园路)"},{"poiid":"B2094655D264A6FF4998","title":"阳光剧场","lon":"121.42747","lat":"31.21946","category":"180","category_name":"剧场","address":"上海愚园路"},{"poiid":"B2094655D26AAAF4409B","title":"莲餐厅","lon":"121.42374","lat":"31.22021","category":"260","category_name":"其他","address":"长宁区长宁路641号(近愚园路)"},{"poiid":"B2094757D06FA0F4479F","title":"长宁区政府","lon":"121.42471055","lat":"31.220813466","category":"253","category_name":"校园生活","address":"上海长宁路599号"},{"poiid":"B2094757D169ABFC409E","title":"上海长宁区工人文化宫","lon":"121.42489298","lat":"31.219407519","category":"500","category_name":"未知分类","address":"长宁区愚园路1250号4楼(近中山公园)"},{"poiid":"B2094757D169A4FA4698","title":"愚园路","lon":"121.427104586","lat":"31.2190412122","category":"500","category_name":"未知分类","address":"上海愚园路1155弄"},{"poiid":"B2094757D069A5FE459B","title":"长宁区少年宫","lon":"121.42641758","lat":"31.219353218","category":"248","category_name":"生活娱乐","address":"长宁区愚园路1136弄31号"},{"poiid":"B2094757D06FA5FD439A","title":"純粹私房咖啡工作室","lon":"121.42457458","lat":"31.217086173","category":"65","category_name":"咖啡厅","address":"长宁区宣化路299弄富都花园2号1B铺"},{"poiid":"B2094757D16FA5FB439B","title":"Tiramisu Italian Restaurant","lon":"121.42796058","lat":"31.217515182","category":"94","category_name":"西餐厅","address":"长宁区宣化路100号(近江苏路)"},{"poiid":"B2094757D16EA6FD489C","title":"长宁区","lon":"121.426747322","lat":"31.220535541","category":"250","category_name":"公园户外","address":"上海长宁区区域"},{"poiid":"B2094757D16EA4F5499F","title":"唐恩都乐(愚园店)","lon":"121.425279586","lat":"31.2190882131","category":"67","category_name":"甜品店","address":"长宁区愚园路1277号附近(近安西路)"},{"poiid":"B2094757D06FA7FB4498","title":"星伟桌球","lon":"121.42575","lat":"31.21863","category":"171","category_name":"台球厅","address":"长宁区宣化路311号6楼(近巴黎春天)"},{"poiid":"B2094654D565A6F9439B","title":"百味手拨虾","lon":"121.42834","lat":"31.2189","category":"257","category_name":"中餐厅","address":"长宁区愚园路1096号(近江苏路)"},{"poiid":"B2094655D26DA2FE419B","title":"弘基创邑国际园","lon":"121.42823","lat":"31.21826","category":"45","category_name":"产业园区","address":"长宁区愚园路1107号(近江苏路)"},{"poiid":"B2094757D06BA0FE4792","title":"安西路","lon":"121.425997","lat":"31.218903","category":"500","category_name":"未知分类","address":"上海愚园路安西路"},{"poiid":"B2094757D064A4F9469B","title":"鼎尚创意餐厅","lon":"121.42536","lat":"31.21996","category":"95","category_name":"日本料理","address":"长宁区长宁区江苏路458号弘基天地2楼(近宣化路)"},{"poiid":"B2094757D569A6FF459E","title":"迎龙大厦写字楼","lon":"121.4251619","lat":"31.21624111","category":"46","category_name":"楼宇","address":"延安西路1358号"},{"poiid":"B2094750D26AA3FE4398","title":"上海地铁2号线","lon":"121.425041","lat":"31.21964","category":"500","category_name":"未知分类","address":"中山公园站"},{"poiid":"B2094752D165A0FD4398","title":"boom cafe","lon":"121.424805","lat":"31.216415","category":"247","category_name":"餐饮美食","address":"宣化路1310弄6号"},{"poiid":"B2094757D46FA7FD409F","title":"天喔一佳 愚园店","lon":"121.4255206","lat":"31.2188889","category":"68","category_name":"快餐厅","address":"长宁区愚园路1253号(近安西路)"},{"poiid":"B2094654D565A6FD479D","title":"富都花园","lon":"121.42453","lat":"31.216513","category":"47","category_name":"住宅区","address":"富都花园位于长宁宣化路299弄1-4号"},{"poiid":"B2094750D26AA3F9429E","title":"陈记甜品窝 宣化路店","lon":"121.42570495606","lat":"31.216875435059","category":"67","category_name":"甜品店","address":"长宁区宣化路233号(安西路口)"},{"poiid":"B2094757D16CA7FB409B","title":"yue1525粤","lon":"121.42632032","lat":"31.216147429","category":"500","category_name":"未知分类","address":"上海定西路1525"},{"poiid":"B2094757D069A5FE449F","title":"蚝门","lon":"121.42639","lat":"31.21883","category":"68","category_name":"快餐厅","address":"长宁区愚园路1203弄(近安西路)"},{"poiid":"B2094655D26AA0F4499F","title":"长宁区工人俱乐部","lon":"121.42613","lat":"31.21915","category":"247","category_name":"餐饮美食","address":"长宁区愚园路1240号(近安西路)"},{"poiid":"B2094757D16DA0F5499B","title":"江苏路愚园路公交站","lon":"121.426561","lat":"31.218507","category":"38","category_name":"公交车站","address":"上海长宁区江苏路愚园路"},{"poiid":"B2094654D565A6FE4998","title":"上海市长宁区愚园路第一小学(宣化路)","lon":"121.42602","lat":"31.21739","category":"56","category_name":"小学","address":"长宁区宣化路222号(安西路宣化路)"},{"poiid":"B2094757D568A6FC4592","title":"莲·创意楚菜","lon":"121.423797","lat":"31.220224","category":"257","category_name":"中餐厅","address":"长宁路641"},{"poiid":"B2094654D565A6FF4893","title":"萍聚美容美发","lon":"121.42629","lat":"31.21872","category":"148","category_name":"美容美发店","address":"静安区愚园路1209-1217号(近安西路)"},{"poiid":"B2094750D76FA2FD469C","title":"伊咖啡","lon":"121.425","lat":"31.2189","category":"269","category_name":"烧烤","address":"愚园路1265号103-1、103-2室(近安西路)"},{"poiid":"B2094654D565A6FF499A","title":"可的(愚园路)","lon":"121.42673","lat":"31.21868","category":"117","category_name":"便民商店/便利店","address":"长宁区愚园路1177号(安西路愚园路)"},{"poiid":"B2094750DA6DA6FD4892","title":"Z ’ PARK BAR","lon":"121.427551","lat":"31.217639","category":"247","category_name":"餐饮美食","address":"中山公园龙之梦25F"},{"poiid":"B2094655D26DA6F44492","title":"苹果园(愚园路)","lon":"121.42568","lat":"31.21872","category":"47","category_name":"住宅区","address":""},{"poiid":"B2094757D16DA3F54693","title":"江苏路宣化路","lon":"121.426545","lat":"31.217097","category":"500","category_name":"未知分类","address":"上海宣化路2号"},{"poiid":"B2094757D16EABFD459C","title":"愚园路安西路939公交车站","lon":"121.42570031","lat":"31.219026636","category":"38","category_name":"公交车站","address":"上海愚园路安西路939公交车站"},{"poiid":"B2094750DB64A5FF429B","title":"朱家角镇","lon":"121.425628","lat":"31.218725","category":"248","category_name":"生活娱乐","address":"青浦区"},{"poiid":"B2094757D164A6FD4993","title":"良友金伴(愚园路二店)","lon":"121.42555","lat":"31.21873","category":"117","category_name":"便民商店/便利店","address":"上海长宁区愚园路1266号  "},{"poiid":"B2094757D168A0FD4092","title":"蕃茄田","lon":"121.426410256","lat":"31.2185922434","category":"500","category_name":"未知分类","address":"长宁区长宁区宣化路299弄富都花园新媒体大楼201室(近定西路)"},{"poiid":"B2094753D56FA2F9499D","title":"cup cats猫咪咖啡馆","lon":"121.424194","lat":"31.217498","category":"65","category_name":"咖啡厅","address":"上海市 愚园路1355弄67号101"},{"poiid":"B2094757D16CA1F9449E","title":"愚一幼儿园(长宁总部)","lon":"121.42518","lat":"31.21875","category":"57","category_name":"幼儿园","address":"上海长宁区愚园路1280弄18号  "},{"poiid":"B2094757D06BA0F94098","title":"苏州面馆","lon":"121.428344","lat":"31.218721","category":"68","category_name":"快餐厅","address":"长宁区愚园路1301号(近中山公园)"},{"poiid":"B2094655D26CAAFB439A","title":"良友(愚园路)","lon":"121.42517","lat":"31.21902","category":"117","category_name":"便民商店/便利店","address":"愚园路1266"},{"poiid":"B2094757D164A3F94793","title":"233 BAR","lon":"121.42546558","lat":"31.217171675","category":"500","category_name":"未知分类","address":"上海宣化路233号"},{"poiid":"B2094655D26BABFF499E","title":"江苏路街道图书馆","lon":"121.4259","lat":"31.21966","category":"181","category_name":"图书馆","address":"安西路45"},{"poiid":"B209475CDB6AA5FE4192","title":"鹤雅日料","lon":"121.427055","lat":"31.217168","category":"247","category_name":"餐饮美食","address":"上海市 愚园路1393号"},{"poiid":"B2094655D26AA7FE4898","title":"HP惠普梦工厂","lon":"121.42696","lat":"31.21715","category":"247","category_name":"餐饮美食","address":"长宁区宣化路159号(近安西路)"},{"poiid":"B2094654DB6BA6F8469B","title":"御华名苑(东门)","lon":"121.42633","lat":"31.21844","category":"48","category_name":"楼宇大门","address":"愚园路1203弄14"},{"poiid":"B2094655D26EA3F44899","title":"海信花苑","lon":"121.42606","lat":"31.21999","category":"47","category_name":"住宅区","address":"愚园路1240号"},{"poiid":"B2094757D169A3FE489D","title":"老德兴驴肉馆","lon":"121.424665586","lat":"31.2176411848","category":"247","category_name":"餐饮美食","address":"上海长宁路684号"},{"poiid":"B2094757D66CA5FF4398","title":"正宗绿豆饼","lon":"121.42747923","lat":"31.218210595","category":"247","category_name":"餐饮美食","address":"上海市长宁区长宁路770号"},{"poiid":"B2094655D264A0F54699","title":"上海市长宁区愚园路第一幼儿园","lon":"121.42496","lat":"31.21903","category":"57","category_name":"幼儿园","address":"长宁区愚园路1280弄18号(安西路愚园路)"},{"poiid":"B2094655D264A6FF4998","title":"阳光剧场","lon":"121.42747","lat":"31.21946","category":"180","category_name":"剧场","address":"上海愚园路"},{"poiid":"B2094655D26AAAF4409B","title":"莲餐厅","lon":"121.42374","lat":"31.22021","category":"260","category_name":"其他","address":"长宁区长宁路641号(近愚园路)"},{"poiid":"B2094757D06FA0F4479F","title":"长宁区政府","lon":"121.42471055","lat":"31.220813466","category":"253","category_name":"校园生活","address":"上海长宁路599号"},{"poiid":"B2094757D169ABFC409E","title":"上海长宁区工人文化宫","lon":"121.42489298","lat":"31.219407519","category":"500","category_name":"未知分类","address":"长宁区愚园路1250号4楼(近中山公园)"},{"poiid":"B2094757D169A4FA4698","title":"愚园路","lon":"121.427104586","lat":"31.2190412122","category":"500","category_name":"未知分类","address":"上海愚园路1155弄"},{"poiid":"B2094757D069A5FE459B","title":"长宁区少年宫","lon":"121.42641758","lat":"31.219353218","category":"248","category_name":"生活娱乐","address":"长宁区愚园路1136弄31号"},{"poiid":"B2094757D06FA5FD439A","title":"純粹私房咖啡工作室","lon":"121.42457458","lat":"31.217086173","category":"65","category_name":"咖啡厅","address":"长宁区宣化路299弄富都花园2号1B铺"},{"poiid":"B2094757D16FA5FB439B","title":"Tiramisu Italian Restaurant","lon":"121.42796058","lat":"31.217515182","category":"94","category_name":"西餐厅","address":"长宁区宣化路100号(近江苏路)"},{"poiid":"B2094757D16EA6FD489C","title":"长宁区","lon":"121.426747322","lat":"31.220535541","category":"250","category_name":"公园户外","address":"上海长宁区区域"},{"poiid":"B2094757D16EA4F5499F","title":"唐恩都乐(愚园店)","lon":"121.425279586","lat":"31.2190882131","category":"67","category_name":"甜品店","address":"长宁区愚园路1277号附近(近安西路)"},{"poiid":"B2094757D06FA7FB4498","title":"星伟桌球","lon":"121.42575","lat":"31.21863","category":"171","category_name":"台球厅","address":"长宁区宣化路311号6楼(近巴黎春天)"},{"poiid":"B2094654D565A6F9439B","title":"百味手拨虾","lon":"121.42834","lat":"31.2189","category":"257","category_name":"中餐厅","address":"长宁区愚园路1096号(近江苏路)"},{"poiid":"B2094655D26DA2FE419B","title":"弘基创邑国际园","lon":"121.42823","lat":"31.21826","category":"45","category_name":"产业园区","address":"长宁区愚园路1107号(近江苏路)"},{"poiid":"B2094757D06BA0FE4792","title":"安西路","lon":"121.425997","lat":"31.218903","category":"500","category_name":"未知分类","address":"上海愚园路安西路"},{"poiid":"B2094757D064A4F9469B","title":"鼎尚创意餐厅","lon":"121.42536","lat":"31.21996","category":"95","category_name":"日本料理","address":"长宁区长宁区江苏路458号弘基天地2楼(近宣化路)"},{"poiid":"B2094757D569A6FF459E","title":"迎龙大厦写字楼","lon":"121.4251619","lat":"31.21624111","category":"46","category_name":"楼宇","address":"延安西路1358号"},{"poiid":"B2094750D26AA3FE4398","title":"上海地铁2号线","lon":"121.425041","lat":"31.21964","category":"500","category_name":"未知分类","address":"中山公园站"},{"poiid":"B2094752D165A0FD4398","title":"boom cafe","lon":"121.424805","lat":"31.216415","category":"247","category_name":"餐饮美食","address":"宣化路1310弄6号"},{"poiid":"B2094757D46FA7FD409F","title":"天喔一佳 愚园店","lon":"121.4255206","lat":"31.2188889","category":"68","category_name":"快餐厅","address":"长宁区愚园路1253号(近安西路)"},{"poiid":"B2094654D565A6FD479D","title":"富都花园","lon":"121.42453","lat":"31.216513","category":"47","category_name":"住宅区","address":"富都花园位于长宁宣化路299弄1-4号"},{"poiid":"B2094750D26AA3F9429E","title":"陈记甜品窝 宣化路店","lon":"121.42570495606","lat":"31.216875435059","category":"67","category_name":"甜品店","address":"长宁区宣化路233号(安西路口)"},{"poiid":"B2094757D16CA7FB409B","title":"yue1525粤","lon":"121.42632032","lat":"31.216147429","category":"500","category_name":"未知分类","address":"上海定西路1525"},{"poiid":"B2094757D069A5FE449F","title":"蚝门","lon":"121.42639","lat":"31.21883","category":"68","category_name":"快餐厅","address":"长宁区愚园路1203弄(近安西路)"},{"poiid":"B2094655D26AA0F4499F","title":"长宁区工人俱乐部","lon":"121.42613","lat":"31.21915","category":"247","category_name":"餐饮美食","address":"长宁区愚园路1240号(近安西路)"},{"poiid":"B2094757D16DA0F5499B","title":"江苏路愚园路公交站","lon":"121.426561","lat":"31.218507","category":"38","category_name":"公交车站","address":"上海长宁区江苏路愚园路"},{"poiid":"B2094654D565A6FE4998","title":"上海市长宁区愚园路第一小学(宣化路)","lon":"121.42602","lat":"31.21739","category":"56","category_name":"小学","address":"长宁区宣化路222号(安西路宣化路)"},{"poiid":"B2094757D568A6FC4592","title":"莲·创意楚菜","lon":"121.423797","lat":"31.220224","category":"257","category_name":"中餐厅","address":"长宁路641"},{"poiid":"B2094654D565A6FF4893","title":"萍聚美容美发","lon":"121.42629","lat":"31.21872","category":"148","category_name":"美容美发店","address":"静安区愚园路1209-1217号(近安西路)"},{"poiid":"B2094750D76FA2FD469C","title":"伊咖啡","lon":"121.425","lat":"31.2189","category":"269","category_name":"烧烤","address":"愚园路1265号103-1、103-2室(近安西路)"},{"poiid":"B2094654D565A6FF499A","title":"可的(愚园路)","lon":"121.42673","lat":"31.21868","category":"117","category_name":"便民商店/便利店","address":"长宁区愚园路1177号(安西路愚园路)"},{"poiid":"B2094750DA6DA6FD4892","title":"Z ’ PARK BAR","lon":"121.427551","lat":"31.217639","category":"247","category_name":"餐饮美食","address":"中山公园龙之梦25F"},{"poiid":"B2094655D26DA6F44492","title":"苹果园(愚园路)","lon":"121.42568","lat":"31.21872","category":"47","category_name":"住宅区","address":""},{"poiid":"B2094757D16DA3F54693","title":"江苏路宣化路","lon":"121.426545","lat":"31.217097","category":"500","category_name":"未知分类","address":"上海宣化路2号"},{"poiid":"B2094757D16EABFD459C","title":"愚园路安西路939公交车站","lon":"121.42570031","lat":"31.219026636","category":"38","category_name":"公交车站","address":"上海愚园路安西路939公交车站"},{"poiid":"B2094750DB64A5FF429B","title":"朱家角镇","lon":"121.425628","lat":"31.218725","category":"248","category_name":"生活娱乐","address":"青浦区"},{"poiid":"B2094757D164A6FD4993","title":"良友金伴(愚园路二店)","lon":"121.42555","lat":"31.21873","category":"117","category_name":"便民商店/便利店","address":"上海长宁区愚园路1266号  "},{"poiid":"B2094757D168A0FD4092","title":"蕃茄田","lon":"121.426410256","lat":"31.2185922434","category":"500","category_name":"未知分类","address":"长宁区长宁区宣化路299弄富都花园新媒体大楼201室(近定西路)"},{"poiid":"B2094753D56FA2F9499D","title":"cup cats猫咪咖啡馆","lon":"121.424194","lat":"31.217498","category":"65","category_name":"咖啡厅","address":"上海市 愚园路1355弄67号101"},{"poiid":"B2094757D16CA1F9449E","title":"愚一幼儿园(长宁总部)","lon":"121.42518","lat":"31.21875","category":"57","category_name":"幼儿园","address":"上海长宁区愚园路1280弄18号  "},{"poiid":"B2094757D06BA0F94098","title":"苏州面馆","lon":"121.428344","lat":"31.218721","category":"68","category_name":"快餐厅","address":"长宁区愚园路1301号(近中山公园)"},{"poiid":"B2094655D26CAAFB439A","title":"良友(愚园路)","lon":"121.42517","lat":"31.21902","category":"117","category_name":"便民商店/便利店","address":"愚园路1266"},{"poiid":"B2094757D164A3F94793","title":"233 BAR","lon":"121.42546558","lat":"31.217171675","category":"500","category_name":"未知分类","address":"上海宣化路233号"},{"poiid":"B2094655D26BABFF499E","title":"江苏路街道图书馆","lon":"121.4259","lat":"31.21966","category":"181","category_name":"图书馆","address":"安西路45"},{"poiid":"B209475CDB6AA5FE4192","title":"鹤雅日料","lon":"121.427055","lat":"31.217168","category":"247","category_name":"餐饮美食","address":"上海市 愚园路1393号"},{"poiid":"B2094655D26AA7FE4898","title":"HP惠普梦工厂","lon":"121.42696","lat":"31.21715","category":"247","category_name":"餐饮美食","address":"长宁区宣化路159号(近安西路)"},{"poiid":"B2094654DB6BA6F8469B","title":"御华名苑(东门)","lon":"121.42633","lat":"31.21844","category":"48","category_name":"楼宇大门","address":"愚园路1203弄14"},{"poiid":"B2094655D26EA3F44899","title":"海信花苑","lon":"121.42606","lat":"31.21999","category":"47","category_name":"住宅区","address":"愚园路1240号"},{"poiid":"B2094757D169A3FE489D","title":"老德兴驴肉馆","lon":"121.424665586","lat":"31.2176411848","category":"247","category_name":"餐饮美食","address":"上海长宁路684号"},{"poiid":"B2094757D66CA5FF4398","title":"正宗绿豆饼","lon":"121.42747923","lat":"31.218210595","category":"247","category_name":"餐饮美食","address":"上海市长宁区长宁路770号"},{"poiid":"B2094655D264A0F54699","title":"上海市长宁区愚园路第一幼儿园","lon":"121.42496","lat":"31.21903","category":"57","category_name":"幼儿园","address":"长宁区愚园路1280弄18号(安西路愚园路)"},{"poiid":"B2094655D264A6FF4998","title":"阳光剧场","lon":"121.42747","lat":"31.21946","category":"180","category_name":"剧场","address":"上海愚园路"}]