[{"poiid":"B2094655D265A4FF4892","title":"泰吾士小镇","lon":"121.20122","lat":"31.02934","category":"47","category_name":"住宅区","address":""},{"poiid":"B2094757D06EAAF8439F","title":"泰晤士小镇小区","lon":"121.20448030631","lat":"31.035668438909","category":"250","category_name":"公园户外","address":"上海市松江区玉华路仓桥镇"},{"poiid":"B2094757D16BA6FE419A","title":"泰晤士小镇教堂","lon":"121.19427046","lat":"31.033529576","category":"500","category_name":"未知分类","address":"上海松江区三新北路900弄"},{"poiid":"B2094655D268A3F9419E","title":"上海宝隆花园酒店","lon":"121.20487","lat":"31.02801","category":"76","category_name":"上海菜","address":"松江区玉树北路6号"},{"poiid":"B2094757D068A1FF409F","title":"华亭湖时代大酒店","lon":"121.20665","lat":"31.0384","category":"76","category_name":"上海菜","address":"松江区滨湖路99号(滨湖路新松江路)"},{"poiid":"B2094757D068ABFD4398","title":"泰晤士小镇翠晶水上餐厅","lon":"121.19705","lat":"31.03276","category":"260","category_name":"其他","address":"松江区新北路900弄泰晤士小镇1777号(近新松江路)"},{"poiid":"B2094654DB6EA1FE449E","title":"昌鑫花园","lon":"121.19898","lat":"31.023258","category":"47","category_name":"住宅区","address":"松江区思贤路1855弄"},{"poiid":"B2094654DB6EA1FE4699","title":"上海维也纳国际酒店","lon":"121.20541","lat":"31.01791","category":"47","category_name":"住宅区","address":"松江区人明北路"},{"poiid":"B2094757D06BA3FD4798","title":"蜗宅","lon":"121.19678","lat":"31.03303","category":"260","category_name":"其他","address":"松江区新北路900弄泰晤士小镇816号"},{"poiid":"B2094655D26FA4F84598","title":"上海宝隆泰晤士假日酒店","lon":"121.19678","lat":"31.03303","category":"250","category_name":"公园户外","address":"松江区三新北路900弄泰晤士小镇250号"},{"poiid":"B2094757D06AA4F84099","title":"上海立诗顿宾馆","lon":"121.19833446","lat":"31.033180568","category":"217","category_name":"旅馆招待所","address":"上海松江新城区三新北路900弄610号(泰晤士小镇内)"},{"poiid":"B2094750D26BABF9499D","title":"松江区房地产交易中心","lon":"121.189308","lat":"31.031093","category":"252","category_name":"楼宇机构","address":"松江区文诚路1611号"},{"poiid":"B2094654DB64A0FD429C","title":"海德名园","lon":"121.20211","lat":"31.02763","category":"47","category_name":"住宅区","address":"上海市松江区玉树北路455弄"},{"poiid":"B2094655D265A4FF429F","title":"咸亨酒店松江店","lon":"121.19678","lat":"31.03304","category":"70","category_name":"综合酒楼","address":"松江区新北路900弄泰晤士小镇内(近玉华路)"},{"poiid":"B2094757D064A5FD4099","title":"小镇不完全咖啡","lon":"121.19607246","lat":"31.03325057","category":"65","category_name":"咖啡厅","address":"松江区新北路900弄泰晤士小镇851号"},{"poiid":"B2094757D66CA4F54893","title":"三新学校","lon":"121.195924267","lat":"31.0279010527","category":"253","category_name":"校园生活","address":"上海松江区三新北路300号"},{"poiid":"B2094655D26FA4F84599","title":"上海立诗顿酒店","lon":"121.19678","lat":"31.03303","category":"250","category_name":"公园户外","address":"松江区三新北路900弄泰晤士小镇610号"},{"poiid":"B2094757D06AA6F54798","title":"爱丁堡润峰苑","lon":"121.19533529","lat":"31.022024223","category":"47","category_name":"住宅区","address":"上海市松江区贤思路2399弄"},{"poiid":"B2094757D16FA6F54193","title":"泰晤士天主堂","lon":"121.193124367","lat":"31.0340915886","category":"500","category_name":"未知分类","address":"上海泰晤士小镇"},{"poiid":"B2094655D265A5F4499C","title":"松江城市规划展示馆","lon":"121.19678","lat":"31.03304","category":"183","category_name":"展览馆","address":"松江区三新北路900弄泰晤士小镇内(近松江城市规划馆)"},{"poiid":"B2094655D36DA0F5429C","title":"玉华路思贤路","lon":"121.19828","lat":"31.02678","category":"38","category_name":"公交车站","address":""},{"poiid":"B2094655D26BA2FD459D","title":"文诚路玉华路","lon":"121.19622","lat":"31.02893","category":"38","category_name":"公交车站","address":""},{"poiid":"B2094654DB69A7F94293","title":"润峰苑","lon":"121.19413","lat":"31.02411","category":"47","category_name":"住宅区","address":"松江区思贤路2399弄"},{"poiid":"B2094655D36CA2FB4193","title":"三新北路文诚路","lon":"121.19323","lat":"31.03004","category":"38","category_name":"公交车站","address":""},{"poiid":"B2094654DB69A6FC489E","title":"原野花园","lon":"121.19029","lat":"31.026768","category":"47","category_name":"住宅区","address":"上海市松江区文诚路1777弄"},{"poiid":"B2094654DB6DA4F54098","title":"温莎半岛别墅","lon":"121.201581","lat":"31.025626","category":"47","category_name":"住宅区","address":"上海市松江区三新北路900弄1500号"},{"poiid":"B2094757D16DA1FF419F","title":"兰桥公寓","lon":"121.209564087","lat":"31.0286593716","category":"47","category_name":"住宅区","address":"兰桥公寓位于松江思贤路1259弄"},{"poiid":"B2094655D36CA1FF4298","title":"思贤路文涵路","lon":"121.18974","lat":"31.02402","category":"38","category_name":"公交车站","address":""},{"poiid":"B2094757D064A0F4449F","title":"玉乐小区","lon":"121.19851","lat":"31.015975","category":"47","category_name":"住宅区","address":"上海松江区荣乐西路1635弄"},{"poiid":"B2094757D169A1FB4492","title":"Rose Bar","lon":"121.19528","lat":"31.03301","category":"260","category_name":"其他","address":"松江区新北路900弄泰晤士小镇817号"},{"poiid":"B2094757D568A6F4469D","title":"COSTA COFFEE(泰晤士小镇店)","lon":"121.1967839","lat":"31.03303889","category":"65","category_name":"咖啡厅","address":"三新北路900弄泰晤士小镇内"},{"poiid":"B2094654DB6EA1FE4493","title":"上海东冠通信建设有限公司","lon":"121.19767","lat":"31.02856","category":"263","category_name":"公司","address":"玉华路197"},{"poiid":"B2094654DB6EA1FE4492","title":"东冠集团上海区域总部","lon":"121.19768","lat":"31.02856","category":"263","category_name":"公司","address":"玉华路197"},{"poiid":"B2094752D46AA1FC4298","title":"三新加油站","lon":"121.1925","lat":"31.03021","category":"153","category_name":"加油站","address":"上海市青浦区三新北路575号"},{"poiid":"B2094757D568A0F9409C","title":"吃茶去","lon":"121.1967839","lat":"31.03303889","category":"255","category_name":"专卖店","address":"松江区新北路900弄泰晤士小镇950号(近文诚路)"},{"poiid":"B2094757D16AA3F54899","title":"真我屋拉面","lon":"121.19816116","lat":"31.031951291","category":"247","category_name":"餐饮美食","address":"上海泰晤士小镇"},{"poiid":"B2094757D66BA7FE409E","title":"巴恪思酒荘 Chateau Bacchus","lon":"121.193272","lat":"31.029761","category":"172","category_name":"酒吧","address":"松江区新北路900弄泰晤士小镇853号(近文诚路)"},{"poiid":"B2094655D26BA2FD4592","title":"文诚路玉树北路","lon":"121.20103","lat":"31.02911","category":"38","category_name":"公交车站","address":""},{"poiid":"B2094757D165A7FC4492","title":"东余航路。老街","lon":"121.197063027","lat":"31.0297301429","category":"500","category_name":"未知分类","address":"上海东余航路。老街"},{"poiid":"B2094757D16EA1F5469E","title":"万科金色华亭","lon":"121.197762","lat":"31.018623","category":"500","category_name":"未知分类","address":"上海市松江区仓华路644号"},{"poiid":"B2094757D16EA6F5439F","title":"上海市松江区血站","lon":"121.199534967","lat":"31.0291339798","category":"500","category_name":"未知分类","address":"上海松江区"},{"poiid":"B2094757D66FA7FB449E","title":"十七里湾海鲜姿造","lon":"121.201982467","lat":"31.0144141566","category":"260","category_name":"其他","address":"松江区玉树路2575号36铺(近仓丰路)"},{"poiid":"B2094751D464A1F4489C","title":"泰唔士小镇","lon":"121.1950231","lat":"31.0223668","category":"500","category_name":"未知分类","address":null},{"poiid":"B2094757D568ABF54493","title":"河滨公寓","lon":"121.1973017","lat":"31.03177409","category":"47","category_name":"住宅区","address":"中国上海市松江区海斯大街"},{"poiid":"B2094753D765AAFA419F","title":"钟书阁","lon":"121.196022","lat":"31.033712","category":"500","category_name":"未知分类","address":"上海市 松江区泰晤士小镇"},{"poiid":"B2094757D069A0F84293","title":"宝隆花园酒店中餐厅","lon":"121.20436327","lat":"31.02782433","category":"217","category_name":"旅馆招待所","address":"松江区玉树北路6号(近思贤路)"},{"poiid":"B2094655D26FAAFC409C","title":"安信生活广场","lon":"121.19230613625","lat":"31.034472614022","category":"201","category_name":"城市广场","address":"文诚路500弄"},{"poiid":"B2094757D165A2FB429A","title":"City cafe","lon":"121.19748846","lat":"31.034102588","category":"260","category_name":"其他","address":"松江区松江新城三新北路900弄泰晤士小镇626号(近松江城市规划展示馆)"},{"poiid":"B2094757D06AA4F5459D","title":"春峰苑","lon":"121.18901","lat":"31.022974","category":"500","category_name":"未知分类","address":"上海松江思贤路2399弄(双号)"},{"poiid":"B2094655D26FAAFD4092","title":"海德名园(西门)","lon":"121.19845","lat":"31.02665","category":"656","category_name":"大门","address":""},{"poiid":"B2094655D265A4FF4892","title":"泰吾士小镇","lon":"121.20122","lat":"31.02934","category":"47","category_name":"住宅区","address":""},{"poiid":"B2094757D06EAAF8439F","title":"泰晤士小镇小区","lon":"121.20448030631","lat":"31.035668438909","category":"250","category_name":"公园户外","address":"上海市松江区玉华路仓桥镇"},{"poiid":"B2094757D16BA6FE419A","title":"泰晤士小镇教堂","lon":"121.19427046","lat":"31.033529576","category":"500","category_name":"未知分类","address":"上海松江区三新北路900弄"},{"poiid":"B2094655D268A3F9419E","title":"上海宝隆花园酒店","lon":"121.20487","lat":"31.02801","category":"76","category_name":"上海菜","address":"松江区玉树北路6号"},{"poiid":"B2094757D068A1FF409F","title":"华亭湖时代大酒店","lon":"121.20665","lat":"31.0384","category":"76","category_name":"上海菜","address":"松江区滨湖路99号(滨湖路新松江路)"},{"poiid":"B2094757D068ABFD4398","title":"泰晤士小镇翠晶水上餐厅","lon":"121.19705","lat":"31.03276","category":"260","category_name":"其他","address":"松江区新北路900弄泰晤士小镇1777号(近新松江路)"},{"poiid":"B2094654DB6EA1FE449E","title":"昌鑫花园","lon":"121.19898","lat":"31.023258","category":"47","category_name":"住宅区","address":"松江区思贤路1855弄"},{"poiid":"B2094654DB6EA1FE4699","title":"上海维也纳国际酒店","lon":"121.20541","lat":"31.01791","category":"47","category_name":"住宅区","address":"松江区人明北路"},{"poiid":"B2094757D06BA3FD4798","title":"蜗宅","lon":"121.19678","lat":"31.03303","category":"260","category_name":"其他","address":"松江区新北路900弄泰晤士小镇816号"},{"poiid":"B2094655D26FA4F84598","title":"上海宝隆泰晤士假日酒店","lon":"121.19678","lat":"31.03303","category":"250","category_name":"公园户外","address":"松江区三新北路900弄泰晤士小镇250号"},{"poiid":"B2094757D06AA4F84099","title":"上海立诗顿宾馆","lon":"121.19833446","lat":"31.033180568","category":"217","category_name":"旅馆招待所","address":"上海松江新城区三新北路900弄610号(泰晤士小镇内)"},{"poiid":"B2094750D26BABF9499D","title":"松江区房地产交易中心","lon":"121.189308","lat":"31.031093","category":"252","category_name":"楼宇机构","address":"松江区文诚路1611号"},{"poiid":"B2094654DB64A0FD429C","title":"海德名园","lon":"121.20211","lat":"31.02763","category":"47","category_name":"住宅区","address":"上海市松江区玉树北路455弄"},{"poiid":"B2094655D265A4FF429F","title":"咸亨酒店松江店","lon":"121.19678","lat":"31.03304","category":"70","category_name":"综合酒楼","address":"松江区新北路900弄泰晤士小镇内(近玉华路)"},{"poiid":"B2094757D064A5FD4099","title":"小镇不完全咖啡","lon":"121.19607246","lat":"31.03325057","category":"65","category_name":"咖啡厅","address":"松江区新北路900弄泰晤士小镇851号"},{"poiid":"B2094757D66CA4F54893","title":"三新学校","lon":"121.195924267","lat":"31.0279010527","category":"253","category_name":"校园生活","address":"上海松江区三新北路300号"},{"poiid":"B2094655D26FA4F84599","title":"上海立诗顿酒店","lon":"121.19678","lat":"31.03303","category":"250","category_name":"公园户外","address":"松江区三新北路900弄泰晤士小镇610号"},{"poiid":"B2094757D06AA6F54798","title":"爱丁堡润峰苑","lon":"121.19533529","lat":"31.022024223","category":"47","category_name":"住宅区","address":"上海市松江区贤思路2399弄"},{"poiid":"B2094757D16FA6F54193","title":"泰晤士天主堂","lon":"121.193124367","lat":"31.0340915886","category":"500","category_name":"未知分类","address":"上海泰晤士小镇"},{"poiid":"B2094655D265A5F4499C","title":"松江城市规划展示馆","lon":"121.19678","lat":"31.03304","category":"183","category_name":"展览馆","address":"松江区三新北路900弄泰晤士小镇内(近松江城市规划馆)"},{"poiid":"B2094655D36DA0F5429C","title":"玉华路思贤路","lon":"121.19828","lat":"31.02678","category":"38","category_name":"公交车站","address":""},{"poiid":"B2094655D26BA2FD459D","title":"文诚路玉华路","lon":"121.19622","lat":"31.02893","category":"38","category_name":"公交车站","address":""},{"poiid":"B2094654DB69A7F94293","title":"润峰苑","lon":"121.19413","lat":"31.02411","category":"47","category_name":"住宅区","address":"松江区思贤路2399弄"},{"poiid":"B2094655D36CA2FB4193","title":"三新北路文诚路","lon":"121.19323","lat":"31.03004","category":"38","category_name":"公交车站","address":""},{"poiid":"B2094654DB69A6FC489E","title":"原野花园","lon":"121.19029","lat":"31.026768","category":"47","category_name":"住宅区","address":"上海市松江区文诚路1777弄"},{"poiid":"B2094654DB6DA4F54098","title":"温莎半岛别墅","lon":"121.201581","lat":"31.025626","category":"47","category_name":"住宅区","address":"上海市松江区三新北路900弄1500号"},{"poiid":"B2094757D16DA1FF419F","title":"兰桥公寓","lon":"121.209564087","lat":"31.0286593716","category":"47","category_name":"住宅区","address":"兰桥公寓位于松江思贤路1259弄"},{"poiid":"B2094655D36CA1FF4298","title":"思贤路文涵路","lon":"121.18974","lat":"31.02402","category":"38","category_name":"公交车站","address":""},{"poiid":"B2094757D064A0F4449F","title":"玉乐小区","lon":"121.19851","lat":"31.015975","category":"47","category_name":"住宅区","address":"上海松江区荣乐西路1635弄"},{"poiid":"B2094757D169A1FB4492","title":"Rose Bar","lon":"121.19528","lat":"31.03301","category":"260","category_name":"其他","address":"松江区新北路900弄泰晤士小镇817号"},{"poiid":"B2094757D568A6F4469D","title":"COSTA COFFEE(泰晤士小镇店)","lon":"121.1967839","lat":"31.03303889","category":"65","category_name":"咖啡厅","address":"三新北路900弄泰晤士小镇内"},{"poiid":"B2094654DB6EA1FE4493","title":"上海东冠通信建设有限公司","lon":"121.19767","lat":"31.02856","category":"263","category_name":"公司","address":"玉华路197"},{"poiid":"B2094654DB6EA1FE4492","title":"东冠集团上海区域总部","lon":"121.19768","lat":"31.02856","category":"263","category_name":"公司","address":"玉华路197"},{"poiid":"B2094752D46AA1FC4298","title":"三新加油站","lon":"121.1925","lat":"31.03021","category":"153","category_name":"加油站","address":"上海市青浦区三新北路575号"},{"poiid":"B2094757D568A0F9409C","title":"吃茶去","lon":"121.1967839","lat":"31.03303889","category":"255","category_name":"专卖店","address":"松江区新北路900弄泰晤士小镇950号(近文诚路)"},{"poiid":"B2094757D16AA3F54899","title":"真我屋拉面","lon":"121.19816116","lat":"31.031951291","category":"247","category_name":"餐饮美食","address":"上海泰晤士小镇"},{"poiid":"B2094757D66BA7FE409E","title":"巴恪思酒荘 Chateau Bacchus","lon":"121.193272","lat":"31.029761","category":"172","category_name":"酒吧","address":"松江区新北路900弄泰晤士小镇853号(近文诚路)"},{"poiid":"B2094655D26BA2FD4592","title":"文诚路玉树北路","lon":"121.20103","lat":"31.02911","category":"38","category_name":"公交车站","address":""},{"poiid":"B2094757D165A7FC4492","title":"东余航路。老街","lon":"121.197063027","lat":"31.0297301429","category":"500","category_name":"未知分类","address":"上海东余航路。老街"},{"poiid":"B2094757D16EA1F5469E","title":"万科金色华亭","lon":"121.197762","lat":"31.018623","category":"500","category_name":"未知分类","address":"上海市松江区仓华路644号"},{"poiid":"B2094757D16EA6F5439F","title":"上海市松江区血站","lon":"121.199534967","lat":"31.0291339798","category":"500","category_name":"未知分类","address":"上海松江区"},{"poiid":"B2094757D66FA7FB449E","title":"十七里湾海鲜姿造","lon":"121.201982467","lat":"31.0144141566","category":"260","category_name":"其他","address":"松江区玉树路2575号36铺(近仓丰路)"},{"poiid":"B2094751D464A1F4489C","title":"泰唔士小镇","lon":"121.1950231","lat":"31.0223668","category":"500","category_name":"未知分类","address":null},{"poiid":"B2094757D568ABF54493","title":"河滨公寓","lon":"121.1973017","lat":"31.03177409","category":"47","category_name":"住宅区","address":"中国上海市松江区海斯大街"},{"poiid":"B2094753D765AAFA419F","title":"钟书阁","lon":"121.196022","lat":"31.033712","category":"500","category_name":"未知分类","address":"上海市 松江区泰晤士小镇"},{"poiid":"B2094757D069A0F84293","title":"宝隆花园酒店中餐厅","lon":"121.20436327","lat":"31.02782433","category":"217","category_name":"旅馆招待所","address":"松江区玉树北路6号(近思贤路)"},{"poiid":"B2094655D26FAAFC409C","title":"安信生活广场","lon":"121.19230613625","lat":"31.034472614022","category":"201","category_name":"城市广场","address":"文诚路500弄"},{"poiid":"B2094757D165A2FB429A","title":"City cafe","lon":"121.19748846","lat":"31.034102588","category":"260","category_name":"其他","address":"松江区松江新城三新北路900弄泰晤士小镇626号(近松江城市规划展示馆)"},{"poiid":"B2094757D06AA4F5459D","title":"春峰苑","lon":"121.18901","lat":"31.022974","category":"500","category_name":"未知分类","address":"上海松江思贤路2399弄(双号)"},{"poiid":"B2094655D26FAAFD4092","title":"海德名园(西门)","lon":"121.19845","lat":"31.02665","category":"656","category_name":"大门","address":""},{"poiid":"B2094655D265A4FF4892","title":"泰吾士小镇","lon":"121.20122","lat":"31.02934","category":"47","category_name":"住宅区","address":""},{"poiid":"B2094757D06EAAF8439F","title":"泰晤士小镇小区","lon":"121.20448030631","lat":"31.035668438909","category":"250","category_name":"公园户外","address":"上海市松江区玉华路仓桥镇"},{"poiid":"B2094757D16BA6FE419A","title":"泰晤士小镇教堂","lon":"121.19427046","lat":"31.033529576","category":"500","category_name":"未知分类","address":"上海松江区三新北路900弄"},{"poiid":"B2094655D268A3F9419E","title":"上海宝隆花园酒店","lon":"121.20487","lat":"31.02801","category":"76","category_name":"上海菜","address":"松江区玉树北路6号"},{"poiid":"B2094757D068A1FF409F","title":"华亭湖时代大酒店","lon":"121.20665","lat":"31.0384","category":"76","category_name":"上海菜","address":"松江区滨湖路99号(滨湖路新松江路)"},{"poiid":"B2094757D068ABFD4398","title":"泰晤士小镇翠晶水上餐厅","lon":"121.19705","lat":"31.03276","category":"260","category_name":"其他","address":"松江区新北路900弄泰晤士小镇1777号(近新松江路)"},{"poiid":"B2094654DB6EA1FE449E","title":"昌鑫花园","lon":"121.19898","lat":"31.023258","category":"47","category_name":"住宅区","address":"松江区思贤路1855弄"},{"poiid":"B2094654DB6EA1FE4699","title":"上海维也纳国际酒店","lon":"121.20541","lat":"31.01791","category":"47","category_name":"住宅区","address":"松江区人明北路"},{"poiid":"B2094757D06BA3FD4798","title":"蜗宅","lon":"121.19678","lat":"31.03303","category":"260","category_name":"其他","address":"松江区新北路900弄泰晤士小镇816号"},{"poiid":"B2094655D26FA4F84598","title":"上海宝隆泰晤士假日酒店","lon":"121.19678","lat":"31.03303","category":"250","category_name":"公园户外","address":"松江区三新北路900弄泰晤士小镇250号"},{"poiid":"B2094757D06AA4F84099","title":"上海立诗顿宾馆","lon":"121.19833446","lat":"31.033180568","category":"217","category_name":"旅馆招待所","address":"上海松江新城区三新北路900弄610号(泰晤士小镇内)"},{"poiid":"B2094750D26BABF9499D","title":"松江区房地产交易中心","lon":"121.189308","lat":"31.031093","category":"252","category_name":"楼宇机构","address":"松江区文诚路1611号"},{"poiid":"B2094654DB64A0FD429C","title":"海德名园","lon":"121.20211","lat":"31.02763","category":"47","category_name":"住宅区","address":"上海市松江区玉树北路455弄"},{"poiid":"B2094655D265A4FF429F","title":"咸亨酒店松江店","lon":"121.19678","lat":"31.03304","category":"70","category_name":"综合酒楼","address":"松江区新北路900弄泰晤士小镇内(近玉华路)"},{"poiid":"B2094757D064A5FD4099","title":"小镇不完全咖啡","lon":"121.19607246","lat":"31.03325057","category":"65","category_name":"咖啡厅","address":"松江区新北路900弄泰晤士小镇851号"},{"poiid":"B2094757D66CA4F54893","title":"三新学校","lon":"121.195924267","lat":"31.0279010527","category":"253","category_name":"校园生活","address":"上海松江区三新北路300号"},{"poiid":"B2094655D26FA4F84599","title":"上海立诗顿酒店","lon":"121.19678","lat":"31.03303","category":"250","category_name":"公园户外","address":"松江区三新北路900弄泰晤士小镇610号"},{"poiid":"B2094757D06AA6F54798","title":"爱丁堡润峰苑","lon":"121.19533529","lat":"31.022024223","category":"47","category_name":"住宅区","address":"上海市松江区贤思路2399弄"},{"poiid":"B2094757D16FA6F54193","title":"泰晤士天主堂","lon":"121.193124367","lat":"31.0340915886","category":"500","category_name":"未知分类","address":"上海泰晤士小镇"},{"poiid":"B2094655D265A5F4499C","title":"松江城市规划展示馆","lon":"121.19678","lat":"31.03304","category":"183","category_name":"展览馆","address":"松江区三新北路900弄泰晤士小镇内(近松江城市规划馆)"},{"poiid":"B2094655D36DA0F5429C","title":"玉华路思贤路","lon":"121.19828","lat":"31.02678","category":"38","category_name":"公交车站","address":""},{"poiid":"B2094655D26BA2FD459D","title":"文诚路玉华路","lon":"121.19622","lat":"31.02893","category":"38","category_name":"公交车站","address":""},{"poiid":"B2094654DB69A7F94293","title":"润峰苑","lon":"121.19413","lat":"31.02411","category":"47","category_name":"住宅区","address":"松江区思贤路2399弄"},{"poiid":"B2094655D36CA2FB4193","title":"三新北路文诚路","lon":"121.19323","lat":"31.03004","category":"38","category_name":"公交车站","address":""},{"poiid":"B2094654DB69A6FC489E","title":"原野花园","lon":"121.19029","lat":"31.026768","category":"47","category_name":"住宅区","address":"上海市松江区文诚路1777弄"},{"poiid":"B2094654DB6DA4F54098","title":"温莎半岛别墅","lon":"121.201581","lat":"31.025626","category":"47","category_name":"住宅区","address":"上海市松江区三新北路900弄1500号"},{"poiid":"B2094757D16DA1FF419F","title":"兰桥公寓","lon":"121.209564087","lat":"31.0286593716","category":"47","category_name":"住宅区","address":"兰桥公寓位于松江思贤路1259弄"},{"poiid":"B2094655D36CA1FF4298","title":"思贤路文涵路","lon":"121.18974","lat":"31.02402","category":"38","category_name":"公交车站","address":""},{"poiid":"B2094757D064A0F4449F","title":"玉乐小区","lon":"121.19851","lat":"31.015975","category":"47","category_name":"住宅区","address":"上海松江区荣乐西路1635弄"},{"poiid":"B2094757D169A1FB4492","title":"Rose Bar","lon":"121.19528","lat":"31.03301","category":"260","category_name":"其他","address":"松江区新北路900弄泰晤士小镇817号"},{"poiid":"B2094757D568A6F4469D","title":"COSTA COFFEE(泰晤士小镇店)","lon":"121.1967839","lat":"31.03303889","category":"65","category_name":"咖啡厅","address":"三新北路900弄泰晤士小镇内"},{"poiid":"B2094654DB6EA1FE4493","title":"上海东冠通信建设有限公司","lon":"121.19767","lat":"31.02856","category":"263","category_name":"公司","address":"玉华路197"},{"poiid":"B2094654DB6EA1FE4492","title":"东冠集团上海区域总部","lon":"121.19768","lat":"31.02856","category":"263","category_name":"公司","address":"玉华路197"},{"poiid":"B2094752D46AA1FC4298","title":"三新加油站","lon":"121.1925","lat":"31.03021","category":"153","category_name":"加油站","address":"上海市青浦区三新北路575号"},{"poiid":"B2094757D568A0F9409C","title":"吃茶去","lon":"121.1967839","lat":"31.03303889","category":"255","category_name":"专卖店","address":"松江区新北路900弄泰晤士小镇950号(近文诚路)"},{"poiid":"B2094757D16AA3F54899","title":"真我屋拉面","lon":"121.19816116","lat":"31.031951291","category":"247","category_name":"餐饮美食","address":"上海泰晤士小镇"},{"poiid":"B2094757D66BA7FE409E","title":"巴恪思酒荘 Chateau Bacchus","lon":"121.193272","lat":"31.029761","category":"172","category_name":"酒吧","address":"松江区新北路900弄泰晤士小镇853号(近文诚路)"},{"poiid":"B2094655D26BA2FD4592","title":"文诚路玉树北路","lon":"121.20103","lat":"31.02911","category":"38","category_name":"公交车站","address":""},{"poiid":"B2094757D165A7FC4492","title":"东余航路。老街","lon":"121.197063027","lat":"31.0297301429","category":"500","category_name":"未知分类","address":"上海东余航路。老街"},{"poiid":"B2094757D16EA1F5469E","title":"万科金色华亭","lon":"121.197762","lat":"31.018623","category":"500","category_name":"未知分类","address":"上海市松江区仓华路644号"},{"poiid":"B2094757D16EA6F5439F","title":"上海市松江区血站","lon":"121.199534967","lat":"31.0291339798","category":"500","category_name":"未知分类","address":"上海松江区"},{"poiid":"B2094757D66FA7FB449E","title":"十七里湾海鲜姿造","lon":"121.201982467","lat":"31.0144141566","category":"260","category_name":"其他","address":"松江区玉树路2575号36铺(近仓丰路)"},{"poiid":"B2094751D464A1F4489C","title":"泰唔士小镇","lon":"121.1950231","lat":"31.0223668","category":"500","category_name":"未知分类","address":null},{"poiid":"B2094757D568ABF54493","title":"河滨公寓","lon":"121.1973017","lat":"31.03177409","category":"47","category_name":"住宅区","address":"中国上海市松江区海斯大街"},{"poiid":"B2094753D765AAFA419F","title":"钟书阁","lon":"121.196022","lat":"31.033712","category":"500","category_name":"未知分类","address":"上海市 松江区泰晤士小镇"},{"poiid":"B2094757D069A0F84293","title":"宝隆花园酒店中餐厅","lon":"121.20436327","lat":"31.02782433","category":"217","category_name":"旅馆招待所","address":"松江区玉树北路6号(近思贤路)"},{"poiid":"B2094655D26FAAFC409C","title":"安信生活广场","lon":"121.19230613625","lat":"31.034472614022","category":"201","category_name":"城市广场","address":"文诚路500弄"},{"poiid":"B2094757D165A2FB429A","title":"City cafe","lon":"121.19748846","lat":"31.034102588","category":"260","category_name":"其他","address":"松江区松江新城三新北路900弄泰晤士小镇626号(近松江城市规划展示馆)"},{"poiid":"B2094757D06AA4F5459D","title":"春峰苑","lon":"121.18901","lat":"31.022974","category":"500","category_name":"未知分类","address":"上海松江思贤路2399弄(双号)"},{"poiid":"B2094655D26FAAFD4092","title":"海德名园(西门)","lon":"121.19845","lat":"31.02665","category":"656","category_name":"大门","address":""},{"poiid":"B2094655D265A4FF4892","title":"泰吾士小镇","lon":"121.20122","lat":"31.02934","category":"47","category_name":"住宅区","address":""},{"poiid":"B2094757D06EAAF8439F","title":"泰晤士小镇小区","lon":"121.20448030631","lat":"31.035668438909","category":"250","category_name":"公园户外","address":"上海市松江区玉华路仓桥镇"},{"poiid":"B2094757D16BA6FE419A","title":"泰晤士小镇教堂","lon":"121.19427046","lat":"31.033529576","category":"500","category_name":"未知分类","address":"上海松江区三新北路900弄"},{"poiid":"B2094655D268A3F9419E","title":"上海宝隆花园酒店","lon":"121.20487","lat":"31.02801","category":"76","category_name":"上海菜","address":"松江区玉树北路6号"},{"poiid":"B2094757D068A1FF409F","title":"华亭湖时代大酒店","lon":"121.20665","lat":"31.0384","category":"76","category_name":"上海菜","address":"松江区滨湖路99号(滨湖路新松江路)"},{"poiid":"B2094757D068ABFD4398","title":"泰晤士小镇翠晶水上餐厅","lon":"121.19705","lat":"31.03276","category":"260","category_name":"其他","address":"松江区新北路900弄泰晤士小镇1777号(近新松江路)"},{"poiid":"B2094654DB6EA1FE449E","title":"昌鑫花园","lon":"121.19898","lat":"31.023258","category":"47","category_name":"住宅区","address":"松江区思贤路1855弄"},{"poiid":"B2094654DB6EA1FE4699","title":"上海维也纳国际酒店","lon":"121.20541","lat":"31.01791","category":"47","category_name":"住宅区","address":"松江区人明北路"},{"poiid":"B2094757D06BA3FD4798","title":"蜗宅","lon":"121.19678","lat":"31.03303","category":"260","category_name":"其他","address":"松江区新北路900弄泰晤士小镇816号"},{"poiid":"B2094655D26FA4F84598","title":"上海宝隆泰晤士假日酒店","lon":"121.19678","lat":"31.03303","category":"250","category_name":"公园户外","address":"松江区三新北路900弄泰晤士小镇250号"},{"poiid":"B2094757D06AA4F84099","title":"上海立诗顿宾馆","lon":"121.19833446","lat":"31.033180568","category":"217","category_name":"旅馆招待所","address":"上海松江新城区三新北路900弄610号(泰晤士小镇内)"},{"poiid":"B2094750D26BABF9499D","title":"松江区房地产交易中心","lon":"121.189308","lat":"31.031093","category":"252","category_name":"楼宇机构","address":"松江区文诚路1611号"},{"poiid":"B2094654DB64A0FD429C","title":"海德名园","lon":"121.20211","lat":"31.02763","category":"47","category_name":"住宅区","address":"上海市松江区玉树北路455弄"},{"poiid":"B2094655D265A4FF429F","title":"咸亨酒店松江店","lon":"121.19678","lat":"31.03304","category":"70","category_name":"综合酒楼","address":"松江区新北路900弄泰晤士小镇内(近玉华路)"},{"poiid":"B2094757D064A5FD4099","title":"小镇不完全咖啡","lon":"121.19607246","lat":"31.03325057","category":"65","category_name":"咖啡厅","address":"松江区新北路900弄泰晤士小镇851号"},{"poiid":"B2094757D66CA4F54893","title":"三新学校","lon":"121.195924267","lat":"31.0279010527","category":"253","category_name":"校园生活","address":"上海松江区三新北路300号"},{"poiid":"B2094655D26FA4F84599","title":"上海立诗顿酒店","lon":"121.19678","lat":"31.03303","category":"250","category_name":"公园户外","address":"松江区三新北路900弄泰晤士小镇610号"},{"poiid":"B2094757D06AA6F54798","title":"爱丁堡润峰苑","lon":"121.19533529","lat":"31.022024223","category":"47","category_name":"住宅区","address":"上海市松江区贤思路2399弄"},{"poiid":"B2094757D16FA6F54193","title":"泰晤士天主堂","lon":"121.193124367","lat":"31.0340915886","category":"500","category_name":"未知分类","address":"上海泰晤士小镇"},{"poiid":"B2094655D265A5F4499C","title":"松江城市规划展示馆","lon":"121.19678","lat":"31.03304","category":"183","category_name":"展览馆","address":"松江区三新北路900弄泰晤士小镇内(近松江城市规划馆)"},{"poiid":"B2094655D36DA0F5429C","title":"玉华路思贤路","lon":"121.19828","lat":"31.02678","category":"38","category_name":"公交车站","address":""},{"poiid":"B2094655D26BA2FD459D","title":"文诚路玉华路","lon":"121.19622","lat":"31.02893","category":"38","category_name":"公交车站","address":""},{"poiid":"B2094654DB69A7F94293","title":"润峰苑","lon":"121.19413","lat":"31.02411","category":"47","category_name":"住宅区","address":"松江区思贤路2399弄"},{"poiid":"B2094655D36CA2FB4193","title":"三新北路文诚路","lon":"121.19323","lat":"31.03004","category":"38","category_name":"公交车站","address":""},{"poiid":"B2094654DB69A6FC489E","title":"原野花园","lon":"121.19029","lat":"31.026768","category":"47","category_name":"住宅区","address":"上海市松江区文诚路1777弄"},{"poiid":"B2094654DB6DA4F54098","title":"温莎半岛别墅","lon":"121.201581","lat":"31.025626","category":"47","category_name":"住宅区","address":"上海市松江区三新北路900弄1500号"},{"poiid":"B2094757D16DA1FF419F","title":"兰桥公寓","lon":"121.209564087","lat":"31.0286593716","category":"47","category_name":"住宅区","address":"兰桥公寓位于松江思贤路1259弄"},{"poiid":"B2094655D36CA1FF4298","title":"思贤路文涵路","lon":"121.18974","lat":"31.02402","category":"38","category_name":"公交车站","address":""},{"poiid":"B2094757D064A0F4449F","title":"玉乐小区","lon":"121.19851","lat":"31.015975","category":"47","category_name":"住宅区","address":"上海松江区荣乐西路1635弄"},{"poiid":"B2094757D169A1FB4492","title":"Rose Bar","lon":"121.19528","lat":"31.03301","category":"260","category_name":"其他","address":"松江区新北路900弄泰晤士小镇817号"},{"poiid":"B2094757D568A6F4469D","title":"COSTA COFFEE(泰晤士小镇店)","lon":"121.1967839","lat":"31.03303889","category":"65","category_name":"咖啡厅","address":"三新北路900弄泰晤士小镇内"},{"poiid":"B2094654DB6EA1FE4493","title":"上海东冠通信建设有限公司","lon":"121.19767","lat":"31.02856","category":"263","category_name":"公司","address":"玉华路197"},{"poiid":"B2094654DB6EA1FE4492","title":"东冠集团上海区域总部","lon":"121.19768","lat":"31.02856","category":"263","category_name":"公司","address":"玉华路197"},{"poiid":"B2094752D46AA1FC4298","title":"三新加油站","lon":"121.1925","lat":"31.03021","category":"153","category_name":"加油站","address":"上海市青浦区三新北路575号"},{"poiid":"B2094757D568A0F9409C","title":"吃茶去","lon":"121.1967839","lat":"31.03303889","category":"255","category_name":"专卖店","address":"松江区新北路900弄泰晤士小镇950号(近文诚路)"},{"poiid":"B2094757D16AA3F54899","title":"真我屋拉面","lon":"121.19816116","lat":"31.031951291","category":"247","category_name":"餐饮美食","address":"上海泰晤士小镇"},{"poiid":"B2094757D66BA7FE409E","title":"巴恪思酒荘 Chateau Bacchus","lon":"121.193272","lat":"31.029761","category":"172","category_name":"酒吧","address":"松江区新北路900弄泰晤士小镇853号(近文诚路)"},{"poiid":"B2094655D26BA2FD4592","title":"文诚路玉树北路","lon":"121.20103","lat":"31.02911","category":"38","category_name":"公交车站","address":""},{"poiid":"B2094757D165A7FC4492","title":"东余航路。老街","lon":"121.197063027","lat":"31.0297301429","category":"500","category_name":"未知分类","address":"上海东余航路。老街"},{"poiid":"B2094757D16EA1F5469E","title":"万科金色华亭","lon":"121.197762","lat":"31.018623","category":"500","category_name":"未知分类","address":"上海市松江区仓华路644号"},{"poiid":"B2094757D16EA6F5439F","title":"上海市松江区血站","lon":"121.199534967","lat":"31.0291339798","category":"500","category_name":"未知分类","address":"上海松江区"},{"poiid":"B2094757D66FA7FB449E","title":"十七里湾海鲜姿造","lon":"121.201982467","lat":"31.0144141566","category":"260","category_name":"其他","address":"松江区玉树路2575号36铺(近仓丰路)"},{"poiid":"B2094751D464A1F4489C","title":"泰唔士小镇","lon":"121.1950231","lat":"31.0223668","category":"500","category_name":"未知分类","address":null},{"poiid":"B2094757D568ABF54493","title":"河滨公寓","lon":"121.1973017","lat":"31.03177409","category":"47","category_name":"住宅区","address":"中国上海市松江区海斯大街"},{"poiid":"B2094753D765AAFA419F","title":"钟书阁","lon":"121.196022","lat":"31.033712","category":"500","category_name":"未知分类","address":"上海市 松江区泰晤士小镇"},{"poiid":"B2094757D069A0F84293","title":"宝隆花园酒店中餐厅","lon":"121.20436327","lat":"31.02782433","category":"217","category_name":"旅馆招待所","address":"松江区玉树北路6号(近思贤路)"},{"poiid":"B2094655D26FAAFC409C","title":"安信生活广场","lon":"121.19230613625","lat":"31.034472614022","category":"201","category_name":"城市广场","address":"文诚路500弄"},{"poiid":"B2094757D165A2FB429A","title":"City cafe","lon":"121.19748846","lat":"31.034102588","category":"260","category_name":"其他","address":"松江区松江新城三新北路900弄泰晤士小镇626号(近松江城市规划展示馆)"},{"poiid":"B2094757D06AA4F5459D","title":"春峰苑","lon":"121.18901","lat":"31.022974","category":"500","category_name":"未知分类","address":"上海松江思贤路2399弄(双号)"},{"poiid":"B2094655D26FAAFD4092","title":"海德名园(西门)","lon":"121.19845","lat":"31.02665","category":"656","category_name":"大门","address":""}]