[{"poiid":"B2094654DA6BABFF479E","title":"世茂佘山艾美酒店 (Le Méridien She Shan Shanghai)","lon":"121.20545","lat":"31.09526","category":"268","category_name":"自助","address":"松江区林荫新路1288号世茂佘山艾美酒店内(近月湖公园)"},{"poiid":"B2094654DB64A2FC4293","title":"上海佘山国家森林公园","lon":"121.19633","lat":"31.09534","category":"240","category_name":"国家级景点","address":"松江区佘山镇外青松公路"},{"poiid":"B2094655D264A4F8419E","title":"上海欢乐谷","lon":"121.21698","lat":"31.0948","category":"195","category_name":"游乐场","address":"上海松江区林湖路888号"},{"poiid":"B2094757D06FA2FC4293","title":"月湖雕塑公园","lon":"121.21370491","lat":"31.102339066","category":"196","category_name":"公园","address":"松江区佘山镇村荫新路1158号"},{"poiid":"B2094757D069A1F54993","title":"月湖会馆","lon":"121.2005313","lat":"31.099746398","category":"217","category_name":"旅馆招待所","address":"上海佘山国家旅游度假区佘北路158号"},{"poiid":"B2094757D06FA6F8419A","title":"佘山天主教堂","lon":"121.19495357","lat":"31.092315826","category":"245","category_name":"教堂","address":"松江区松江佘山镇西佘山山顶"},{"poiid":"B2094757D06FA1FD479B","title":"欢乐谷 绝顶雄风","lon":"121.22014617","lat":"31.098506927","category":"195","category_name":"游乐场","address":"松江区佘山镇林湖路888号上海欢乐谷内"},{"poiid":"B2094753D764A0FC489C","title":"玛雅海滩水公园","lon":"121.208877","lat":"31.093067","category":"250","category_name":"公园户外","address":"佘山镇林湖路888号"},{"poiid":"B2094757D064AAFA4693","title":"欢乐谷 古木游龙","lon":"121.221438196","lat":"31.098652128","category":"500","category_name":"未知分类","address":"上海市松江区林荫新路"},{"poiid":"B2094753D46CA1FC469F","title":"上海玛雅海滩水公园","lon":"121.210037","lat":"31.096334","category":"500","category_name":"未知分类","address":"上海市 上海市松江佘山玛雅海滩水公园"},{"poiid":"B2094757D068A1FE439E","title":"欢乐谷 蓝月飞车","lon":"121.21751619","lat":"31.099986156","category":"195","category_name":"游乐场","address":"松江区佘山镇林湖路888号上海欢乐谷内"},{"poiid":"B2094655D26FA4FC4392","title":"上海佘山国家森林公园东佘山园","lon":"121.20191","lat":"31.09649","category":"250","category_name":"公园户外","address":"东佘山园位于市郊古城松江北部10.5公里，距市中心35公里处"},{"poiid":"B2094757D06FABF94293","title":"欢乐谷 大摆锤","lon":"121.22387695","lat":"31.098340988","category":"195","category_name":"游乐场","address":"松江区佘山镇林湖路888号上海欢乐谷内"},{"poiid":"B2094757D068A5F9459B","title":"必胜客(欢乐谷店)","lon":"121.21677202","lat":"31.095382224","category":"94","category_name":"西餐厅","address":"松江区林湖路888号上海欢乐谷阳光港8号"},{"poiid":"B2094757D06BA5FA4993","title":"兰笋山庄","lon":"121.198113286","lat":"31.0950694059","category":"216","category_name":"经济型连锁酒店","address":"松江区佘山外青松公路9269号(东佘山麓索道旁)"},{"poiid":"B2094757D068A6F54892","title":"激流勇进","lon":"121.21955871","lat":"31.090198516","category":"500","category_name":"未知分类","address":"上海欢乐谷内"},{"poiid":"B2094757D068ABF8449D","title":"佘山森林宾馆","lon":"121.197178287","lat":"31.0952594087","category":"215","category_name":"三星级宾馆","address":"松江区外青松公路9259号"},{"poiid":"B2094757D06FA2F44098","title":"上海天文博物馆","lon":"121.1888551","lat":"31.0926714","category":"182","category_name":"博物馆","address":"松江区外青松公路西佘山北门"},{"poiid":"B2094757D169A5F4489A","title":"秋月舫","lon":"121.20822","lat":"31.09742","category":"72","category_name":"广东菜","address":"松江区佘山国家旅游度假区林荫大道1158号月湖秋景区內"},{"poiid":"B2094757D665A0FB4992","title":"月湖珍","lon":"121.194574054","lat":"31.098654793","category":"257","category_name":"中餐厅","address":"松江区佘山国家旅游度假区林荫新路1158号(近月圆园雕塑公园)"},{"poiid":"B2094757D06BA7FA4392","title":"月湖轩 Lake View","lon":"121.20537567139","lat":"31.095104217529","category":"72","category_name":"广东菜","address":"松江区佘山林荫新路1288号世茂佘山艾美酒店5楼"},{"poiid":"B2094757D568ABF4499D","title":"上海月湖雕塑公园(东门)","lon":"121.20857341","lat":"31.0975887","category":"680","category_name":"楼宇机构","address":"中国上海市松江区"},{"poiid":"B2094757D66BA5FD4499","title":"月湖烧烤区","lon":"121.20796","lat":"31.097643","category":"269","category_name":"烧烤","address":"佘山国家旅游度假区林荫新路1158号月湖雕塑公园（月圆园）內近沈砖公路"},{"poiid":"B2094757D465A1F94999","title":"月山海水上餐厅","lon":"121.208051","lat":"31.097529","category":"72","category_name":"广东菜","address":"佘山国家旅游度假区林荫新路1158号月湖雕塑公园（月圆园）內近沈砖公路"},{"poiid":"B2094655D36DA7FB469B","title":"佘山天文台","lon":"121.19643","lat":"31.09585","category":"38","category_name":"公交车站","address":""},{"poiid":"B2094757D568A1FF4399","title":"上品轩茶楼","lon":"121.208537","lat":"31.095868","category":"66","category_name":"茶艺馆","address":"松江区佘山国家旅游度假区林荫大道1358号(近华侨城欢乐谷)"},{"poiid":"B2094757D06AA3FD4898","title":"陈坊桥","lon":"121.18872833","lat":"31.100570678","category":"500","category_name":"未知分类","address":"上海松江佘山陈坊桥"},{"poiid":"B2094654DA6BABFB489E","title":"月圆园","lon":"121.20796","lat":"31.09769","category":"250","category_name":"公园户外","address":"林荫新路1158号"},{"poiid":"B2094654DA6BABFB4292","title":"佘山森林宾馆壹号楼","lon":"121.19704","lat":"31.0975","category":"215","category_name":"三星级宾馆","address":"上海松江区佘山外青松公路9259号"},{"poiid":"B2094757D064ABFF429B","title":"旋转木马","lon":"121.21832019","lat":"31.095685064","category":"247","category_name":"餐饮美食","address":"上海欢乐谷内"},{"poiid":"B2094757D06BA0FE499F","title":"肯德基(欢乐谷店)","lon":"121.2154077","lat":"31.1010105","category":"68","category_name":"快餐厅","address":"松江区林湖路888号欢乐谷金矿镇"},{"poiid":"B2094757D065A3FA4499","title":"佘山森林宾馆阳光餐厅","lon":"121.19732","lat":"31.09713","category":"76","category_name":"上海菜","address":"松江区松江佘山塔路(近西佘山入山口)"},{"poiid":"B2094757D164A3F5429F","title":"涮涮锅达人","lon":"121.20921313","lat":"31.097856773","category":"247","category_name":"餐饮美食","address":"上海林荫新路1269号"},{"poiid":"B2094654DA6BA4FB489A","title":"世茂佘山庄园","lon":"121.199262","lat":"31.108645","category":"47","category_name":"住宅区","address":"松江区佘北公路518弄"},{"poiid":"B2094757D16AABFC469B","title":"蚂蚁王国","lon":"121.21432409","lat":"31.093664821","category":"500","category_name":"未知分类","address":"上海欢乐谷"},{"poiid":"B2094753D46FABF9489E","title":"玛雅水上公园","lon":"121.206871","lat":"31.096498","category":"500","category_name":"未知分类","address":"上海市 林湖路888号"},{"poiid":"B2094655D264A5F54098","title":"驿站咖啡","lon":"121.20796","lat":"31.0977","category":"260","category_name":"其他","address":"松江区林荫新路1158号佘山雕塑公园秋岸"},{"poiid":"B2094654DA6BABFB419C","title":"国家森林公园(外青松公路)","lon":"121.20083","lat":"31.08971","category":"196","category_name":"公园","address":""},{"poiid":"B2094655D264A5F9439D","title":"佘山温泉","lon":"121.20796","lat":"31.0977","category":"149","category_name":"洗浴推拿场所","address":"佘山国家旅游度假区林荫新路1158号月湖雕塑公园内"},{"poiid":"B2094655D26FA5FB499B","title":"佘山国家旅游渡假区","lon":"121.20378","lat":"31.08669","category":"250","category_name":"公园户外","address":"松江区佘山"},{"poiid":"B2094655D26EA6F94299","title":"兰笋山庄餐厅","lon":"121.19814","lat":"31.09438","category":"257","category_name":"中餐厅","address":"外青松公路9269号近沪青平公路"},{"poiid":"B2094757D66CA5FA429A","title":"佘山艾美室内泳池","lon":"121.205855196","lat":"31.0955000605","category":"500","category_name":"未知分类","address":"上海市松江区佘北路"},{"poiid":"B2094757D06BAAF54998","title":"凤凰山","lon":"121.2036677","lat":"31.1047056","category":"500","category_name":"未知分类","address":"上海市松江区佘山镇佘北路500号"},{"poiid":"B2094757D065AAF5499D","title":"佘山3号","lon":"121.199027","lat":"31.111064","category":"47","category_name":"住宅区","address":"松江区佘山镇泗陈公路4388号"},{"poiid":"B2094757D06AAAFC4399","title":"上海欢乐谷 完美风暴","lon":"121.21588219","lat":"31.094813812","category":"500","category_name":"未知分类","address":"上海松江区佘山镇林湖路888号"},{"poiid":"B2094753D469ABF84999","title":"玛雅水世界","lon":"121.209304","lat":"31.096134","category":"249","category_name":"购物服务","address":"上海市 佘山"},{"poiid":"B2094757D065ABF4489D","title":"上海欢乐谷 异度空间","lon":"121.217376296","lat":"31.0970593439","category":"500","category_name":"未知分类","address":"上海市松江区欢乐谷"},{"poiid":"B2094757D66CA2FD409D","title":"汇鼎楼","lon":"121.192622196","lat":"31.099258141","category":"247","category_name":"餐饮美食","address":"上海市松江区佘山镇外青松公路8928号"},{"poiid":"B2094654DA6BABFB439B","title":"佘山新苑","lon":"121.19506","lat":"31.100262","category":"47","category_name":"住宅区","address":"桃源路2弄"},{"poiid":"B2094757D66EA0FC4199","title":"佘山59号","lon":"121.20185119","lat":"31.107865325","category":"47","category_name":"住宅区","address":"上海市松江区泗陈公路"},{"poiid":"B2094654DA6BABFF479E","title":"世茂佘山艾美酒店 (Le Méridien She Shan Shanghai)","lon":"121.20545","lat":"31.09526","category":"268","category_name":"自助","address":"松江区林荫新路1288号世茂佘山艾美酒店内(近月湖公园)"},{"poiid":"B2094654DB64A2FC4293","title":"上海佘山国家森林公园","lon":"121.19633","lat":"31.09534","category":"240","category_name":"国家级景点","address":"松江区佘山镇外青松公路"},{"poiid":"B2094655D264A4F8419E","title":"上海欢乐谷","lon":"121.21698","lat":"31.0948","category":"195","category_name":"游乐场","address":"上海松江区林湖路888号"},{"poiid":"B2094757D06FA2FC4293","title":"月湖雕塑公园","lon":"121.21370491","lat":"31.102339066","category":"196","category_name":"公园","address":"松江区佘山镇村荫新路1158号"},{"poiid":"B2094757D069A1F54993","title":"月湖会馆","lon":"121.2005313","lat":"31.099746398","category":"217","category_name":"旅馆招待所","address":"上海佘山国家旅游度假区佘北路158号"},{"poiid":"B2094757D06FA6F8419A","title":"佘山天主教堂","lon":"121.19495357","lat":"31.092315826","category":"245","category_name":"教堂","address":"松江区松江佘山镇西佘山山顶"},{"poiid":"B2094757D06FA1FD479B","title":"欢乐谷 绝顶雄风","lon":"121.22014617","lat":"31.098506927","category":"195","category_name":"游乐场","address":"松江区佘山镇林湖路888号上海欢乐谷内"},{"poiid":"B2094753D764A0FC489C","title":"玛雅海滩水公园","lon":"121.208877","lat":"31.093067","category":"250","category_name":"公园户外","address":"佘山镇林湖路888号"},{"poiid":"B2094757D064AAFA4693","title":"欢乐谷 古木游龙","lon":"121.221438196","lat":"31.098652128","category":"500","category_name":"未知分类","address":"上海市松江区林荫新路"},{"poiid":"B2094753D46CA1FC469F","title":"上海玛雅海滩水公园","lon":"121.210037","lat":"31.096334","category":"500","category_name":"未知分类","address":"上海市 上海市松江佘山玛雅海滩水公园"},{"poiid":"B2094757D068A1FE439E","title":"欢乐谷 蓝月飞车","lon":"121.21751619","lat":"31.099986156","category":"195","category_name":"游乐场","address":"松江区佘山镇林湖路888号上海欢乐谷内"},{"poiid":"B2094655D26FA4FC4392","title":"上海佘山国家森林公园东佘山园","lon":"121.20191","lat":"31.09649","category":"250","category_name":"公园户外","address":"东佘山园位于市郊古城松江北部10.5公里，距市中心35公里处"},{"poiid":"B2094757D06FABF94293","title":"欢乐谷 大摆锤","lon":"121.22387695","lat":"31.098340988","category":"195","category_name":"游乐场","address":"松江区佘山镇林湖路888号上海欢乐谷内"},{"poiid":"B2094757D068A5F9459B","title":"必胜客(欢乐谷店)","lon":"121.21677202","lat":"31.095382224","category":"94","category_name":"西餐厅","address":"松江区林湖路888号上海欢乐谷阳光港8号"},{"poiid":"B2094757D06BA5FA4993","title":"兰笋山庄","lon":"121.198113286","lat":"31.0950694059","category":"216","category_name":"经济型连锁酒店","address":"松江区佘山外青松公路9269号(东佘山麓索道旁)"},{"poiid":"B2094757D068A6F54892","title":"激流勇进","lon":"121.21955871","lat":"31.090198516","category":"500","category_name":"未知分类","address":"上海欢乐谷内"},{"poiid":"B2094757D068ABF8449D","title":"佘山森林宾馆","lon":"121.197178287","lat":"31.0952594087","category":"215","category_name":"三星级宾馆","address":"松江区外青松公路9259号"},{"poiid":"B2094757D06FA2F44098","title":"上海天文博物馆","lon":"121.1888551","lat":"31.0926714","category":"182","category_name":"博物馆","address":"松江区外青松公路西佘山北门"},{"poiid":"B2094757D169A5F4489A","title":"秋月舫","lon":"121.20822","lat":"31.09742","category":"72","category_name":"广东菜","address":"松江区佘山国家旅游度假区林荫大道1158号月湖秋景区內"},{"poiid":"B2094757D665A0FB4992","title":"月湖珍","lon":"121.194574054","lat":"31.098654793","category":"257","category_name":"中餐厅","address":"松江区佘山国家旅游度假区林荫新路1158号(近月圆园雕塑公园)"},{"poiid":"B2094757D06BA7FA4392","title":"月湖轩 Lake View","lon":"121.20537567139","lat":"31.095104217529","category":"72","category_name":"广东菜","address":"松江区佘山林荫新路1288号世茂佘山艾美酒店5楼"},{"poiid":"B2094757D568ABF4499D","title":"上海月湖雕塑公园(东门)","lon":"121.20857341","lat":"31.0975887","category":"680","category_name":"楼宇机构","address":"中国上海市松江区"},{"poiid":"B2094757D66BA5FD4499","title":"月湖烧烤区","lon":"121.20796","lat":"31.097643","category":"269","category_name":"烧烤","address":"佘山国家旅游度假区林荫新路1158号月湖雕塑公园（月圆园）內近沈砖公路"},{"poiid":"B2094757D465A1F94999","title":"月山海水上餐厅","lon":"121.208051","lat":"31.097529","category":"72","category_name":"广东菜","address":"佘山国家旅游度假区林荫新路1158号月湖雕塑公园（月圆园）內近沈砖公路"},{"poiid":"B2094655D36DA7FB469B","title":"佘山天文台","lon":"121.19643","lat":"31.09585","category":"38","category_name":"公交车站","address":""},{"poiid":"B2094757D568A1FF4399","title":"上品轩茶楼","lon":"121.208537","lat":"31.095868","category":"66","category_name":"茶艺馆","address":"松江区佘山国家旅游度假区林荫大道1358号(近华侨城欢乐谷)"},{"poiid":"B2094757D06AA3FD4898","title":"陈坊桥","lon":"121.18872833","lat":"31.100570678","category":"500","category_name":"未知分类","address":"上海松江佘山陈坊桥"},{"poiid":"B2094654DA6BABFB489E","title":"月圆园","lon":"121.20796","lat":"31.09769","category":"250","category_name":"公园户外","address":"林荫新路1158号"},{"poiid":"B2094654DA6BABFB4292","title":"佘山森林宾馆壹号楼","lon":"121.19704","lat":"31.0975","category":"215","category_name":"三星级宾馆","address":"上海松江区佘山外青松公路9259号"},{"poiid":"B2094757D064ABFF429B","title":"旋转木马","lon":"121.21832019","lat":"31.095685064","category":"247","category_name":"餐饮美食","address":"上海欢乐谷内"},{"poiid":"B2094757D06BA0FE499F","title":"肯德基(欢乐谷店)","lon":"121.2154077","lat":"31.1010105","category":"68","category_name":"快餐厅","address":"松江区林湖路888号欢乐谷金矿镇"},{"poiid":"B2094757D065A3FA4499","title":"佘山森林宾馆阳光餐厅","lon":"121.19732","lat":"31.09713","category":"76","category_name":"上海菜","address":"松江区松江佘山塔路(近西佘山入山口)"},{"poiid":"B2094757D164A3F5429F","title":"涮涮锅达人","lon":"121.20921313","lat":"31.097856773","category":"247","category_name":"餐饮美食","address":"上海林荫新路1269号"},{"poiid":"B2094654DA6BA4FB489A","title":"世茂佘山庄园","lon":"121.199262","lat":"31.108645","category":"47","category_name":"住宅区","address":"松江区佘北公路518弄"},{"poiid":"B2094757D16AABFC469B","title":"蚂蚁王国","lon":"121.21432409","lat":"31.093664821","category":"500","category_name":"未知分类","address":"上海欢乐谷"},{"poiid":"B2094753D46FABF9489E","title":"玛雅水上公园","lon":"121.206871","lat":"31.096498","category":"500","category_name":"未知分类","address":"上海市 林湖路888号"},{"poiid":"B2094655D264A5F54098","title":"驿站咖啡","lon":"121.20796","lat":"31.0977","category":"260","category_name":"其他","address":"松江区林荫新路1158号佘山雕塑公园秋岸"},{"poiid":"B2094654DA6BABFB419C","title":"国家森林公园(外青松公路)","lon":"121.20083","lat":"31.08971","category":"196","category_name":"公园","address":""},{"poiid":"B2094655D264A5F9439D","title":"佘山温泉","lon":"121.20796","lat":"31.0977","category":"149","category_name":"洗浴推拿场所","address":"佘山国家旅游度假区林荫新路1158号月湖雕塑公园内"},{"poiid":"B2094655D26FA5FB499B","title":"佘山国家旅游渡假区","lon":"121.20378","lat":"31.08669","category":"250","category_name":"公园户外","address":"松江区佘山"},{"poiid":"B2094655D26EA6F94299","title":"兰笋山庄餐厅","lon":"121.19814","lat":"31.09438","category":"257","category_name":"中餐厅","address":"外青松公路9269号近沪青平公路"},{"poiid":"B2094757D66CA5FA429A","title":"佘山艾美室内泳池","lon":"121.205855196","lat":"31.0955000605","category":"500","category_name":"未知分类","address":"上海市松江区佘北路"},{"poiid":"B2094757D06BAAF54998","title":"凤凰山","lon":"121.2036677","lat":"31.1047056","category":"500","category_name":"未知分类","address":"上海市松江区佘山镇佘北路500号"},{"poiid":"B2094757D065AAF5499D","title":"佘山3号","lon":"121.199027","lat":"31.111064","category":"47","category_name":"住宅区","address":"松江区佘山镇泗陈公路4388号"},{"poiid":"B2094757D06AAAFC4399","title":"上海欢乐谷 完美风暴","lon":"121.21588219","lat":"31.094813812","category":"500","category_name":"未知分类","address":"上海松江区佘山镇林湖路888号"},{"poiid":"B2094753D469ABF84999","title":"玛雅水世界","lon":"121.209304","lat":"31.096134","category":"249","category_name":"购物服务","address":"上海市 佘山"},{"poiid":"B2094757D065ABF4489D","title":"上海欢乐谷 异度空间","lon":"121.217376296","lat":"31.0970593439","category":"500","category_name":"未知分类","address":"上海市松江区欢乐谷"},{"poiid":"B2094757D66CA2FD409D","title":"汇鼎楼","lon":"121.192622196","lat":"31.099258141","category":"247","category_name":"餐饮美食","address":"上海市松江区佘山镇外青松公路8928号"},{"poiid":"B2094654DA6BABFB439B","title":"佘山新苑","lon":"121.19506","lat":"31.100262","category":"47","category_name":"住宅区","address":"桃源路2弄"},{"poiid":"B2094757D66EA0FC4199","title":"佘山59号","lon":"121.20185119","lat":"31.107865325","category":"47","category_name":"住宅区","address":"上海市松江区泗陈公路"},{"poiid":"B2094654DA6BABFF479E","title":"世茂佘山艾美酒店 (Le Méridien She Shan Shanghai)","lon":"121.20545","lat":"31.09526","category":"268","category_name":"自助","address":"松江区林荫新路1288号世茂佘山艾美酒店内(近月湖公园)"},{"poiid":"B2094654DB64A2FC4293","title":"上海佘山国家森林公园","lon":"121.19633","lat":"31.09534","category":"240","category_name":"国家级景点","address":"松江区佘山镇外青松公路"},{"poiid":"B2094655D264A4F8419E","title":"上海欢乐谷","lon":"121.21698","lat":"31.0948","category":"195","category_name":"游乐场","address":"上海松江区林湖路888号"},{"poiid":"B2094757D06FA2FC4293","title":"月湖雕塑公园","lon":"121.21370491","lat":"31.102339066","category":"196","category_name":"公园","address":"松江区佘山镇村荫新路1158号"},{"poiid":"B2094757D069A1F54993","title":"月湖会馆","lon":"121.2005313","lat":"31.099746398","category":"217","category_name":"旅馆招待所","address":"上海佘山国家旅游度假区佘北路158号"},{"poiid":"B2094757D06FA6F8419A","title":"佘山天主教堂","lon":"121.19495357","lat":"31.092315826","category":"245","category_name":"教堂","address":"松江区松江佘山镇西佘山山顶"},{"poiid":"B2094757D06FA1FD479B","title":"欢乐谷 绝顶雄风","lon":"121.22014617","lat":"31.098506927","category":"195","category_name":"游乐场","address":"松江区佘山镇林湖路888号上海欢乐谷内"},{"poiid":"B2094753D764A0FC489C","title":"玛雅海滩水公园","lon":"121.208877","lat":"31.093067","category":"250","category_name":"公园户外","address":"佘山镇林湖路888号"},{"poiid":"B2094757D064AAFA4693","title":"欢乐谷 古木游龙","lon":"121.221438196","lat":"31.098652128","category":"500","category_name":"未知分类","address":"上海市松江区林荫新路"},{"poiid":"B2094753D46CA1FC469F","title":"上海玛雅海滩水公园","lon":"121.210037","lat":"31.096334","category":"500","category_name":"未知分类","address":"上海市 上海市松江佘山玛雅海滩水公园"},{"poiid":"B2094757D068A1FE439E","title":"欢乐谷 蓝月飞车","lon":"121.21751619","lat":"31.099986156","category":"195","category_name":"游乐场","address":"松江区佘山镇林湖路888号上海欢乐谷内"},{"poiid":"B2094655D26FA4FC4392","title":"上海佘山国家森林公园东佘山园","lon":"121.20191","lat":"31.09649","category":"250","category_name":"公园户外","address":"东佘山园位于市郊古城松江北部10.5公里，距市中心35公里处"},{"poiid":"B2094757D06FABF94293","title":"欢乐谷 大摆锤","lon":"121.22387695","lat":"31.098340988","category":"195","category_name":"游乐场","address":"松江区佘山镇林湖路888号上海欢乐谷内"},{"poiid":"B2094757D068A5F9459B","title":"必胜客(欢乐谷店)","lon":"121.21677202","lat":"31.095382224","category":"94","category_name":"西餐厅","address":"松江区林湖路888号上海欢乐谷阳光港8号"},{"poiid":"B2094757D06BA5FA4993","title":"兰笋山庄","lon":"121.198113286","lat":"31.0950694059","category":"216","category_name":"经济型连锁酒店","address":"松江区佘山外青松公路9269号(东佘山麓索道旁)"},{"poiid":"B2094757D068A6F54892","title":"激流勇进","lon":"121.21955871","lat":"31.090198516","category":"500","category_name":"未知分类","address":"上海欢乐谷内"},{"poiid":"B2094757D068ABF8449D","title":"佘山森林宾馆","lon":"121.197178287","lat":"31.0952594087","category":"215","category_name":"三星级宾馆","address":"松江区外青松公路9259号"},{"poiid":"B2094757D06FA2F44098","title":"上海天文博物馆","lon":"121.1888551","lat":"31.0926714","category":"182","category_name":"博物馆","address":"松江区外青松公路西佘山北门"},{"poiid":"B2094757D169A5F4489A","title":"秋月舫","lon":"121.20822","lat":"31.09742","category":"72","category_name":"广东菜","address":"松江区佘山国家旅游度假区林荫大道1158号月湖秋景区內"},{"poiid":"B2094757D665A0FB4992","title":"月湖珍","lon":"121.194574054","lat":"31.098654793","category":"257","category_name":"中餐厅","address":"松江区佘山国家旅游度假区林荫新路1158号(近月圆园雕塑公园)"},{"poiid":"B2094757D06BA7FA4392","title":"月湖轩 Lake View","lon":"121.20537567139","lat":"31.095104217529","category":"72","category_name":"广东菜","address":"松江区佘山林荫新路1288号世茂佘山艾美酒店5楼"},{"poiid":"B2094757D568ABF4499D","title":"上海月湖雕塑公园(东门)","lon":"121.20857341","lat":"31.0975887","category":"680","category_name":"楼宇机构","address":"中国上海市松江区"},{"poiid":"B2094757D66BA5FD4499","title":"月湖烧烤区","lon":"121.20796","lat":"31.097643","category":"269","category_name":"烧烤","address":"佘山国家旅游度假区林荫新路1158号月湖雕塑公园（月圆园）內近沈砖公路"},{"poiid":"B2094757D465A1F94999","title":"月山海水上餐厅","lon":"121.208051","lat":"31.097529","category":"72","category_name":"广东菜","address":"佘山国家旅游度假区林荫新路1158号月湖雕塑公园（月圆园）內近沈砖公路"},{"poiid":"B2094655D36DA7FB469B","title":"佘山天文台","lon":"121.19643","lat":"31.09585","category":"38","category_name":"公交车站","address":""},{"poiid":"B2094757D568A1FF4399","title":"上品轩茶楼","lon":"121.208537","lat":"31.095868","category":"66","category_name":"茶艺馆","address":"松江区佘山国家旅游度假区林荫大道1358号(近华侨城欢乐谷)"},{"poiid":"B2094757D06AA3FD4898","title":"陈坊桥","lon":"121.18872833","lat":"31.100570678","category":"500","category_name":"未知分类","address":"上海松江佘山陈坊桥"},{"poiid":"B2094654DA6BABFB489E","title":"月圆园","lon":"121.20796","lat":"31.09769","category":"250","category_name":"公园户外","address":"林荫新路1158号"},{"poiid":"B2094654DA6BABFB4292","title":"佘山森林宾馆壹号楼","lon":"121.19704","lat":"31.0975","category":"215","category_name":"三星级宾馆","address":"上海松江区佘山外青松公路9259号"},{"poiid":"B2094757D064ABFF429B","title":"旋转木马","lon":"121.21832019","lat":"31.095685064","category":"247","category_name":"餐饮美食","address":"上海欢乐谷内"},{"poiid":"B2094757D06BA0FE499F","title":"肯德基(欢乐谷店)","lon":"121.2154077","lat":"31.1010105","category":"68","category_name":"快餐厅","address":"松江区林湖路888号欢乐谷金矿镇"},{"poiid":"B2094757D065A3FA4499","title":"佘山森林宾馆阳光餐厅","lon":"121.19732","lat":"31.09713","category":"76","category_name":"上海菜","address":"松江区松江佘山塔路(近西佘山入山口)"},{"poiid":"B2094757D164A3F5429F","title":"涮涮锅达人","lon":"121.20921313","lat":"31.097856773","category":"247","category_name":"餐饮美食","address":"上海林荫新路1269号"},{"poiid":"B2094654DA6BA4FB489A","title":"世茂佘山庄园","lon":"121.199262","lat":"31.108645","category":"47","category_name":"住宅区","address":"松江区佘北公路518弄"},{"poiid":"B2094757D16AABFC469B","title":"蚂蚁王国","lon":"121.21432409","lat":"31.093664821","category":"500","category_name":"未知分类","address":"上海欢乐谷"},{"poiid":"B2094753D46FABF9489E","title":"玛雅水上公园","lon":"121.206871","lat":"31.096498","category":"500","category_name":"未知分类","address":"上海市 林湖路888号"},{"poiid":"B2094655D264A5F54098","title":"驿站咖啡","lon":"121.20796","lat":"31.0977","category":"260","category_name":"其他","address":"松江区林荫新路1158号佘山雕塑公园秋岸"},{"poiid":"B2094654DA6BABFB419C","title":"国家森林公园(外青松公路)","lon":"121.20083","lat":"31.08971","category":"196","category_name":"公园","address":""},{"poiid":"B2094655D264A5F9439D","title":"佘山温泉","lon":"121.20796","lat":"31.0977","category":"149","category_name":"洗浴推拿场所","address":"佘山国家旅游度假区林荫新路1158号月湖雕塑公园内"},{"poiid":"B2094655D26FA5FB499B","title":"佘山国家旅游渡假区","lon":"121.20378","lat":"31.08669","category":"250","category_name":"公园户外","address":"松江区佘山"},{"poiid":"B2094655D26EA6F94299","title":"兰笋山庄餐厅","lon":"121.19814","lat":"31.09438","category":"257","category_name":"中餐厅","address":"外青松公路9269号近沪青平公路"},{"poiid":"B2094757D66CA5FA429A","title":"佘山艾美室内泳池","lon":"121.205855196","lat":"31.0955000605","category":"500","category_name":"未知分类","address":"上海市松江区佘北路"},{"poiid":"B2094757D06BAAF54998","title":"凤凰山","lon":"121.2036677","lat":"31.1047056","category":"500","category_name":"未知分类","address":"上海市松江区佘山镇佘北路500号"},{"poiid":"B2094757D065AAF5499D","title":"佘山3号","lon":"121.199027","lat":"31.111064","category":"47","category_name":"住宅区","address":"松江区佘山镇泗陈公路4388号"},{"poiid":"B2094757D06AAAFC4399","title":"上海欢乐谷 完美风暴","lon":"121.21588219","lat":"31.094813812","category":"500","category_name":"未知分类","address":"上海松江区佘山镇林湖路888号"},{"poiid":"B2094753D469ABF84999","title":"玛雅水世界","lon":"121.209304","lat":"31.096134","category":"249","category_name":"购物服务","address":"上海市 佘山"},{"poiid":"B2094757D065ABF4489D","title":"上海欢乐谷 异度空间","lon":"121.217376296","lat":"31.0970593439","category":"500","category_name":"未知分类","address":"上海市松江区欢乐谷"},{"poiid":"B2094757D66CA2FD409D","title":"汇鼎楼","lon":"121.192622196","lat":"31.099258141","category":"247","category_name":"餐饮美食","address":"上海市松江区佘山镇外青松公路8928号"},{"poiid":"B2094654DA6BABFB439B","title":"佘山新苑","lon":"121.19506","lat":"31.100262","category":"47","category_name":"住宅区","address":"桃源路2弄"},{"poiid":"B2094757D66EA0FC4199","title":"佘山59号","lon":"121.20185119","lat":"31.107865325","category":"47","category_name":"住宅区","address":"上海市松江区泗陈公路"}]