[{"poiid":"B2094752D264A0FC479C","title":"巧克力开心乐园","lon":"121.475159","lat":"31.181213","category":"248","category_name":"生活娱乐","address":"博成路100号"},{"poiid":"B2094757D06FA1FF449C","title":"第一妇婴保健院(耀华路分院)","lon":"121.48462","lat":"31.17282","category":"162","category_name":"医院","address":"浦东新区耀华路391号(近长清路)"},{"poiid":"B2094757D06FA0FA499E","title":"世博会非洲联合馆","lon":"121.47401428","lat":"31.182336807","category":"260","category_name":"其他","address":"上海浦东新区博成路上钢路口(原上海世博会C片区)"},{"poiid":"B2094757D06FAAFE419F","title":"后滩公园","lon":"121.4758535","lat":"31.184998305","category":"196","category_name":"公园","address":"上海浦东新区世博会园B片区"},{"poiid":"B2094757D169A6FA489C","title":"魔都","lon":"121.48171873","lat":"31.169546008","category":"500","category_name":"未知分类","address":"上海"},{"poiid":"B2094757D06FA3F8479F","title":"世博会意大利馆","lon":"121.47576","lat":"31.1841","category":"260","category_name":"其他","address":"上海浦东新区世博大道上钢路口(原上海世博会C片区)"},{"poiid":"B2094757D06FA1F8499F","title":"富春小笼(耀华路店)","lon":"121.48261334","lat":"31.172451763","category":"68","category_name":"快餐厅","address":"浦东新区耀华路492号(近卢浦大桥)"},{"poiid":"B2094655D26CABFD4393","title":"新世纪花苑","lon":"121.48472","lat":"31.17509","category":"47","category_name":"住宅区","address":"上海浦东新区耀华路421弄"},{"poiid":"B2094757D06FAAF4459D","title":"耀華路","lon":"121.48446655","lat":"31.174270629","category":"500","category_name":"未知分类","address":"上海耀華路"},{"poiid":"B2094757D069A7FF4598","title":"上海世博园冰雕艺术展","lon":"121.469558038","lat":"31.1745844152","category":"500","category_name":"未知分类","address":"浦东新区世博大道1200号梅赛德斯奔驰文化中心"},{"poiid":"B2094757D56DAAFD4998","title":"冰星飞扬（世博）羽毛球馆","lon":"121.47396326065063","lat":"31.180634737769793","category":"248","category_name":"生活娱乐","address":"浦东新区后滩路139号(近国展路)"},{"poiid":"B2094757D06FA2FA4293","title":"后滩地铁站","lon":"121.46936755","lat":"31.174126931","category":"36","category_name":"地铁站","address":"上海轨道交通 七号线 轨交后滩站 7"},{"poiid":"B2094757D06FA6FD4293","title":"龙腾大道","lon":"121.46263851","lat":"31.171261612","category":"260","category_name":"其他","address":"上海徐汇滨江亲水区"},{"poiid":"B2094654DB65A6FA4592","title":"新世纪花苑(南门)","lon":"121.48059","lat":"31.17204","category":"656","category_name":"大门","address":"耀华路579弄1-127号"},{"poiid":"B2094757D16BA1F5419E","title":"麦盛莉","lon":"121.48261173","lat":"31.172518071","category":"249","category_name":"购物服务","address":"上海市浦东新区通耀路"},{"poiid":"B2094757D06FAAF4429D","title":"麦盛莉(耀华店)","lon":"121.4763831","lat":"31.176898854","category":"76","category_name":"上海菜","address":"浦东新区耀华路488号(西营路口)"},{"poiid":"B2094752DA69A1F5449B","title":"博大汽车公园","lon":"121.472341","lat":"31.179505","category":"500","category_name":"未知分类","address":"上海市 国展路189号"},{"poiid":"B2094757D06AA1F8459F","title":"卢浦大桥耀华路下匝道","lon":"121.481870571","lat":"31.1688133424","category":"500","category_name":"未知分类","address":"上海耀华路西营路"},{"poiid":"B2094757D068A7F5469E","title":"复旦大学附属眼耳鼻喉科医院(浦东分院)","lon":"121.484897","lat":"31.17427","category":"162","category_name":"医院","address":"浦东新区耀华路391号(近长清路)"},{"poiid":"B2094752D06DA3F9459D","title":"飞行家主题园","lon":"121.475925","lat":"31.180498","category":"250","category_name":"公园户外","address":"上海市浦东新区国展路311号"},{"poiid":"B2094757DB6CA5F8469F","title":"世博园区","lon":"121.4741098971819","lat":"31.1762945128317","category":"500","category_name":"未知分类","address":"婚博会"},{"poiid":"B2094752DB6AA0FB469A","title":"上海海之宝体育运动中心","lon":"121.4775055492","lat":"31.179249091782","category":"230","category_name":"足球场","address":"上海浦东新区国展路410号（近上钢路）"},{"poiid":"B2094757D16FABF84098","title":"新世纪花苑三期","lon":"121.48117573","lat":"31.175086125","category":"47","category_name":"住宅区","address":"上海市杨浦区杭州路66弄"},{"poiid":"B2094757D06FA6F5459C","title":"打浦路隧道","lon":"121.48451","lat":"31.17358","category":"500","category_name":"未知分类","address":"上海长青路耀华路"},{"poiid":"B2094655D26AA0F9469C","title":"地铁浦江耀华站","lon":"121.47117","lat":"31.17349","category":"36","category_name":"地铁站","address":""},{"poiid":"B2094757D168ABFC4598","title":"上海克虏伯不锈钢有限公司","lon":"121.476977","lat":"31.174015","category":"46","category_name":"楼宇","address":"上海雪野西路101号"},{"poiid":"B2094757D068A7FD4893","title":"济阳公园","lon":"121.47993589","lat":"31.169316816","category":"196","category_name":"公园","address":"浦东新区耀华路600号(济阳路口)"},{"poiid":"B2094757D66CA1FF4692","title":"南滨江","lon":"121.46897173","lat":"31.184909334","category":"500","category_name":"未知分类","address":"上海市徐汇区瑞宁路"},{"poiid":"B2094757D068A6FB459C","title":"世博会墨西哥馆","lon":"121.47791","lat":"31.17884","category":"260","category_name":"其他","address":"上海浦东新区国展路近上钢路(原上海世博会C片区)"},{"poiid":"B2094752D26EA5F8479E","title":"世博希腊馆","lon":"121.477208","lat":"31.185743","category":"500","category_name":"未知分类","address":null},{"poiid":"B2094753D26EA2F4429B","title":"南京西路","lon":"121.474813","lat":"31.173199","category":"500","category_name":"未知分类","address":"上海市 南京西路"},{"poiid":"B2094757D16CA4F5479C","title":"同里粥庄","lon":"121.477101071","lat":"31.1742154407","category":"247","category_name":"餐饮美食","address":"上海上南路894号(近昌里路)"},{"poiid":"B2094753D768A2FF469F","title":"小辉哥火锅（乐城店）","lon":"121.47583","lat":"31.182259","category":"247","category_name":"餐饮美食","address":"上海市徐汇区中山南二路699号2栋304—305"},{"poiid":"B2094654DA6DA6F4479B","title":"大顾饮食店","lon":"121.4761","lat":"31.1719","category":"257","category_name":"中餐厅","address":""},{"poiid":"B209475CD668A5F84793","title":"徐汇滨江","lon":"121.472816","lat":"31.179346","category":"47","category_name":"住宅区","address":"上海市 龙腾大道"},{"poiid":"B2094757D568AAFB489B","title":"全家(后滩路)","lon":"121.47403537","lat":"31.17884006","category":"117","category_name":"便民商店/便利店","address":"上海世博园区"},{"poiid":"B2094752DB68A3F94398","title":"博大汽车公园","lon":"121.470067","lat":"31.1769","category":"500","category_name":"未知分类","address":"上海市 国展路189号"},{"poiid":"B2094757D06AA4FD4299","title":"世博会后滩广场","lon":"121.472229","lat":"31.181316375","category":"500","category_name":"未知分类","address":"上海世博会C片区"},{"poiid":"B2094654DA6DA6F4469F","title":"上海市第二轻工业学校分部","lon":"121.47637","lat":"31.1714","category":"54","category_name":"职业技术学校","address":"耀华支路14"},{"poiid":"B2094655D265A1F94398","title":"中心广场(巴西馆西)","lon":"121.47553","lat":"31.17951","category":"201","category_name":"城市广场","address":"上海世博园区"},{"poiid":"B2094757D66DA3FB4999","title":"世博二号物流仓库","lon":"121.471099854","lat":"31.1786327362","category":"500","category_name":"未知分类","address":"上海后滩八号门"},{"poiid":"B2094750DA65A3FF4898","title":"徐汇滨江","lon":"121.467994","lat":"31.181165","category":"47","category_name":"住宅区","address":null},{"poiid":"B2094753D26AAAFD4392","title":"巴黎春天","lon":"121.478516","lat":"31.174197","category":"500","category_name":"未知分类","address":"上海市 浦东新区成山路"},{"poiid":"B2094752D469A7F9479D","title":"2062新能源主题公园","lon":"121.4704194","lat":"31.1804502","category":"250","category_name":"公园户外","address":"塘子泾路191号"},{"poiid":"B2094752D56AABF44693","title":"世博展览馆","lon":"121.476251","lat":"31.172501","category":"627","category_name":"一般地点标志","address":null},{"poiid":"B2094753D46BAAFD4398","title":"海之宝足球场","lon":"121.478721","lat":"31.179347","category":"220","category_name":"运动场所","address":"上海市 国展路401号"},{"poiid":"B2094753D668A2F8429E","title":"虹口龙之梦","lon":"121.481583","lat":"31.17323","category":"500","category_name":"未知分类","address":"上海市 虹口区"},{"poiid":"B2094757D069A3FE4292","title":"龙腾大道南滨江","lon":"121.47991373","lat":"31.180792247","category":"260","category_name":"其他","address":"上海市徐汇区龙腾大道"},{"poiid":"B2094757D169AAFE479F","title":"耀龙路","lon":"121.468658447","lat":"31.1781234741","category":"500","category_name":"未知分类","address":"上海耀龙路"},{"poiid":"B209475CD769A0FF439A","title":"墨西哥艺术中心","lon":"121.479209","lat":"31.173645","category":"500","category_name":"未知分类","address":"上海市 上海市世博园国展路410号"},{"poiid":"B2094752D264A0FC479C","title":"巧克力开心乐园","lon":"121.475159","lat":"31.181213","category":"248","category_name":"生活娱乐","address":"博成路100号"},{"poiid":"B2094757D06FA1FF449C","title":"第一妇婴保健院(耀华路分院)","lon":"121.48462","lat":"31.17282","category":"162","category_name":"医院","address":"浦东新区耀华路391号(近长清路)"},{"poiid":"B2094757D06FA0FA499E","title":"世博会非洲联合馆","lon":"121.47401428","lat":"31.182336807","category":"260","category_name":"其他","address":"上海浦东新区博成路上钢路口(原上海世博会C片区)"},{"poiid":"B2094757D06FAAFE419F","title":"后滩公园","lon":"121.4758535","lat":"31.184998305","category":"196","category_name":"公园","address":"上海浦东新区世博会园B片区"},{"poiid":"B2094757D169A6FA489C","title":"魔都","lon":"121.48171873","lat":"31.169546008","category":"500","category_name":"未知分类","address":"上海"},{"poiid":"B2094757D06FA3F8479F","title":"世博会意大利馆","lon":"121.47576","lat":"31.1841","category":"260","category_name":"其他","address":"上海浦东新区世博大道上钢路口(原上海世博会C片区)"},{"poiid":"B2094757D06FA1F8499F","title":"富春小笼(耀华路店)","lon":"121.48261334","lat":"31.172451763","category":"68","category_name":"快餐厅","address":"浦东新区耀华路492号(近卢浦大桥)"},{"poiid":"B2094655D26CABFD4393","title":"新世纪花苑","lon":"121.48472","lat":"31.17509","category":"47","category_name":"住宅区","address":"上海浦东新区耀华路421弄"},{"poiid":"B2094757D06FAAF4459D","title":"耀華路","lon":"121.48446655","lat":"31.174270629","category":"500","category_name":"未知分类","address":"上海耀華路"},{"poiid":"B2094757D069A7FF4598","title":"上海世博园冰雕艺术展","lon":"121.469558038","lat":"31.1745844152","category":"500","category_name":"未知分类","address":"浦东新区世博大道1200号梅赛德斯奔驰文化中心"},{"poiid":"B2094757D56DAAFD4998","title":"冰星飞扬（世博）羽毛球馆","lon":"121.47396326065063","lat":"31.180634737769793","category":"248","category_name":"生活娱乐","address":"浦东新区后滩路139号(近国展路)"},{"poiid":"B2094757D06FA2FA4293","title":"后滩地铁站","lon":"121.46936755","lat":"31.174126931","category":"36","category_name":"地铁站","address":"上海轨道交通 七号线 轨交后滩站 7"},{"poiid":"B2094757D06FA6FD4293","title":"龙腾大道","lon":"121.46263851","lat":"31.171261612","category":"260","category_name":"其他","address":"上海徐汇滨江亲水区"},{"poiid":"B2094654DB65A6FA4592","title":"新世纪花苑(南门)","lon":"121.48059","lat":"31.17204","category":"656","category_name":"大门","address":"耀华路579弄1-127号"},{"poiid":"B2094757D16BA1F5419E","title":"麦盛莉","lon":"121.48261173","lat":"31.172518071","category":"249","category_name":"购物服务","address":"上海市浦东新区通耀路"},{"poiid":"B2094757D06FAAF4429D","title":"麦盛莉(耀华店)","lon":"121.4763831","lat":"31.176898854","category":"76","category_name":"上海菜","address":"浦东新区耀华路488号(西营路口)"},{"poiid":"B2094752DA69A1F5449B","title":"博大汽车公园","lon":"121.472341","lat":"31.179505","category":"500","category_name":"未知分类","address":"上海市 国展路189号"},{"poiid":"B2094757D06AA1F8459F","title":"卢浦大桥耀华路下匝道","lon":"121.481870571","lat":"31.1688133424","category":"500","category_name":"未知分类","address":"上海耀华路西营路"},{"poiid":"B2094757D068A7F5469E","title":"复旦大学附属眼耳鼻喉科医院(浦东分院)","lon":"121.484897","lat":"31.17427","category":"162","category_name":"医院","address":"浦东新区耀华路391号(近长清路)"},{"poiid":"B2094752D06DA3F9459D","title":"飞行家主题园","lon":"121.475925","lat":"31.180498","category":"250","category_name":"公园户外","address":"上海市浦东新区国展路311号"},{"poiid":"B2094757DB6CA5F8469F","title":"世博园区","lon":"121.4741098971819","lat":"31.1762945128317","category":"500","category_name":"未知分类","address":"婚博会"},{"poiid":"B2094752DB6AA0FB469A","title":"上海海之宝体育运动中心","lon":"121.4775055492","lat":"31.179249091782","category":"230","category_name":"足球场","address":"上海浦东新区国展路410号（近上钢路）"},{"poiid":"B2094757D16FABF84098","title":"新世纪花苑三期","lon":"121.48117573","lat":"31.175086125","category":"47","category_name":"住宅区","address":"上海市杨浦区杭州路66弄"},{"poiid":"B2094757D06FA6F5459C","title":"打浦路隧道","lon":"121.48451","lat":"31.17358","category":"500","category_name":"未知分类","address":"上海长青路耀华路"},{"poiid":"B2094655D26AA0F9469C","title":"地铁浦江耀华站","lon":"121.47117","lat":"31.17349","category":"36","category_name":"地铁站","address":""},{"poiid":"B2094757D168ABFC4598","title":"上海克虏伯不锈钢有限公司","lon":"121.476977","lat":"31.174015","category":"46","category_name":"楼宇","address":"上海雪野西路101号"},{"poiid":"B2094757D068A7FD4893","title":"济阳公园","lon":"121.47993589","lat":"31.169316816","category":"196","category_name":"公园","address":"浦东新区耀华路600号(济阳路口)"},{"poiid":"B2094757D66CA1FF4692","title":"南滨江","lon":"121.46897173","lat":"31.184909334","category":"500","category_name":"未知分类","address":"上海市徐汇区瑞宁路"},{"poiid":"B2094757D068A6FB459C","title":"世博会墨西哥馆","lon":"121.47791","lat":"31.17884","category":"260","category_name":"其他","address":"上海浦东新区国展路近上钢路(原上海世博会C片区)"},{"poiid":"B2094752D26EA5F8479E","title":"世博希腊馆","lon":"121.477208","lat":"31.185743","category":"500","category_name":"未知分类","address":null},{"poiid":"B2094753D26EA2F4429B","title":"南京西路","lon":"121.474813","lat":"31.173199","category":"500","category_name":"未知分类","address":"上海市 南京西路"},{"poiid":"B2094757D16CA4F5479C","title":"同里粥庄","lon":"121.477101071","lat":"31.1742154407","category":"247","category_name":"餐饮美食","address":"上海上南路894号(近昌里路)"},{"poiid":"B2094753D768A2FF469F","title":"小辉哥火锅（乐城店）","lon":"121.47583","lat":"31.182259","category":"247","category_name":"餐饮美食","address":"上海市徐汇区中山南二路699号2栋304—305"},{"poiid":"B2094654DA6DA6F4479B","title":"大顾饮食店","lon":"121.4761","lat":"31.1719","category":"257","category_name":"中餐厅","address":""},{"poiid":"B209475CD668A5F84793","title":"徐汇滨江","lon":"121.472816","lat":"31.179346","category":"47","category_name":"住宅区","address":"上海市 龙腾大道"},{"poiid":"B2094757D568AAFB489B","title":"全家(后滩路)","lon":"121.47403537","lat":"31.17884006","category":"117","category_name":"便民商店/便利店","address":"上海世博园区"},{"poiid":"B2094752DB68A3F94398","title":"博大汽车公园","lon":"121.470067","lat":"31.1769","category":"500","category_name":"未知分类","address":"上海市 国展路189号"},{"poiid":"B2094757D06AA4FD4299","title":"世博会后滩广场","lon":"121.472229","lat":"31.181316375","category":"500","category_name":"未知分类","address":"上海世博会C片区"},{"poiid":"B2094654DA6DA6F4469F","title":"上海市第二轻工业学校分部","lon":"121.47637","lat":"31.1714","category":"54","category_name":"职业技术学校","address":"耀华支路14"},{"poiid":"B2094655D265A1F94398","title":"中心广场(巴西馆西)","lon":"121.47553","lat":"31.17951","category":"201","category_name":"城市广场","address":"上海世博园区"},{"poiid":"B2094757D66DA3FB4999","title":"世博二号物流仓库","lon":"121.471099854","lat":"31.1786327362","category":"500","category_name":"未知分类","address":"上海后滩八号门"},{"poiid":"B2094750DA65A3FF4898","title":"徐汇滨江","lon":"121.467994","lat":"31.181165","category":"47","category_name":"住宅区","address":null},{"poiid":"B2094753D26AAAFD4392","title":"巴黎春天","lon":"121.478516","lat":"31.174197","category":"500","category_name":"未知分类","address":"上海市 浦东新区成山路"},{"poiid":"B2094752D469A7F9479D","title":"2062新能源主题公园","lon":"121.4704194","lat":"31.1804502","category":"250","category_name":"公园户外","address":"塘子泾路191号"},{"poiid":"B2094752D56AABF44693","title":"世博展览馆","lon":"121.476251","lat":"31.172501","category":"627","category_name":"一般地点标志","address":null},{"poiid":"B2094753D46BAAFD4398","title":"海之宝足球场","lon":"121.478721","lat":"31.179347","category":"220","category_name":"运动场所","address":"上海市 国展路401号"},{"poiid":"B2094753D668A2F8429E","title":"虹口龙之梦","lon":"121.481583","lat":"31.17323","category":"500","category_name":"未知分类","address":"上海市 虹口区"},{"poiid":"B2094757D069A3FE4292","title":"龙腾大道南滨江","lon":"121.47991373","lat":"31.180792247","category":"260","category_name":"其他","address":"上海市徐汇区龙腾大道"},{"poiid":"B2094757D169AAFE479F","title":"耀龙路","lon":"121.468658447","lat":"31.1781234741","category":"500","category_name":"未知分类","address":"上海耀龙路"},{"poiid":"B209475CD769A0FF439A","title":"墨西哥艺术中心","lon":"121.479209","lat":"31.173645","category":"500","category_name":"未知分类","address":"上海市 上海市世博园国展路410号"},{"poiid":"B2094752D264A0FC479C","title":"巧克力开心乐园","lon":"121.475159","lat":"31.181213","category":"248","category_name":"生活娱乐","address":"博成路100号"},{"poiid":"B2094757D06FA1FF449C","title":"第一妇婴保健院(耀华路分院)","lon":"121.48462","lat":"31.17282","category":"162","category_name":"医院","address":"浦东新区耀华路391号(近长清路)"},{"poiid":"B2094757D06FA0FA499E","title":"世博会非洲联合馆","lon":"121.47401428","lat":"31.182336807","category":"260","category_name":"其他","address":"上海浦东新区博成路上钢路口(原上海世博会C片区)"},{"poiid":"B2094757D06FAAFE419F","title":"后滩公园","lon":"121.4758535","lat":"31.184998305","category":"196","category_name":"公园","address":"上海浦东新区世博会园B片区"},{"poiid":"B2094757D169A6FA489C","title":"魔都","lon":"121.48171873","lat":"31.169546008","category":"500","category_name":"未知分类","address":"上海"},{"poiid":"B2094757D06FA3F8479F","title":"世博会意大利馆","lon":"121.47576","lat":"31.1841","category":"260","category_name":"其他","address":"上海浦东新区世博大道上钢路口(原上海世博会C片区)"},{"poiid":"B2094757D06FA1F8499F","title":"富春小笼(耀华路店)","lon":"121.48261334","lat":"31.172451763","category":"68","category_name":"快餐厅","address":"浦东新区耀华路492号(近卢浦大桥)"},{"poiid":"B2094655D26CABFD4393","title":"新世纪花苑","lon":"121.48472","lat":"31.17509","category":"47","category_name":"住宅区","address":"上海浦东新区耀华路421弄"},{"poiid":"B2094757D06FAAF4459D","title":"耀華路","lon":"121.48446655","lat":"31.174270629","category":"500","category_name":"未知分类","address":"上海耀華路"},{"poiid":"B2094757D069A7FF4598","title":"上海世博园冰雕艺术展","lon":"121.469558038","lat":"31.1745844152","category":"500","category_name":"未知分类","address":"浦东新区世博大道1200号梅赛德斯奔驰文化中心"},{"poiid":"B2094757D56DAAFD4998","title":"冰星飞扬（世博）羽毛球馆","lon":"121.47396326065063","lat":"31.180634737769793","category":"248","category_name":"生活娱乐","address":"浦东新区后滩路139号(近国展路)"},{"poiid":"B2094757D06FA2FA4293","title":"后滩地铁站","lon":"121.46936755","lat":"31.174126931","category":"36","category_name":"地铁站","address":"上海轨道交通 七号线 轨交后滩站 7"},{"poiid":"B2094757D06FA6FD4293","title":"龙腾大道","lon":"121.46263851","lat":"31.171261612","category":"260","category_name":"其他","address":"上海徐汇滨江亲水区"},{"poiid":"B2094654DB65A6FA4592","title":"新世纪花苑(南门)","lon":"121.48059","lat":"31.17204","category":"656","category_name":"大门","address":"耀华路579弄1-127号"},{"poiid":"B2094757D16BA1F5419E","title":"麦盛莉","lon":"121.48261173","lat":"31.172518071","category":"249","category_name":"购物服务","address":"上海市浦东新区通耀路"},{"poiid":"B2094757D06FAAF4429D","title":"麦盛莉(耀华店)","lon":"121.4763831","lat":"31.176898854","category":"76","category_name":"上海菜","address":"浦东新区耀华路488号(西营路口)"},{"poiid":"B2094752DA69A1F5449B","title":"博大汽车公园","lon":"121.472341","lat":"31.179505","category":"500","category_name":"未知分类","address":"上海市 国展路189号"},{"poiid":"B2094757D06AA1F8459F","title":"卢浦大桥耀华路下匝道","lon":"121.481870571","lat":"31.1688133424","category":"500","category_name":"未知分类","address":"上海耀华路西营路"},{"poiid":"B2094757D068A7F5469E","title":"复旦大学附属眼耳鼻喉科医院(浦东分院)","lon":"121.484897","lat":"31.17427","category":"162","category_name":"医院","address":"浦东新区耀华路391号(近长清路)"},{"poiid":"B2094752D06DA3F9459D","title":"飞行家主题园","lon":"121.475925","lat":"31.180498","category":"250","category_name":"公园户外","address":"上海市浦东新区国展路311号"},{"poiid":"B2094757DB6CA5F8469F","title":"世博园区","lon":"121.4741098971819","lat":"31.1762945128317","category":"500","category_name":"未知分类","address":"婚博会"},{"poiid":"B2094752DB6AA0FB469A","title":"上海海之宝体育运动中心","lon":"121.4775055492","lat":"31.179249091782","category":"230","category_name":"足球场","address":"上海浦东新区国展路410号（近上钢路）"},{"poiid":"B2094757D16FABF84098","title":"新世纪花苑三期","lon":"121.48117573","lat":"31.175086125","category":"47","category_name":"住宅区","address":"上海市杨浦区杭州路66弄"},{"poiid":"B2094757D06FA6F5459C","title":"打浦路隧道","lon":"121.48451","lat":"31.17358","category":"500","category_name":"未知分类","address":"上海长青路耀华路"},{"poiid":"B2094655D26AA0F9469C","title":"地铁浦江耀华站","lon":"121.47117","lat":"31.17349","category":"36","category_name":"地铁站","address":""},{"poiid":"B2094757D168ABFC4598","title":"上海克虏伯不锈钢有限公司","lon":"121.476977","lat":"31.174015","category":"46","category_name":"楼宇","address":"上海雪野西路101号"},{"poiid":"B2094757D068A7FD4893","title":"济阳公园","lon":"121.47993589","lat":"31.169316816","category":"196","category_name":"公园","address":"浦东新区耀华路600号(济阳路口)"},{"poiid":"B2094757D66CA1FF4692","title":"南滨江","lon":"121.46897173","lat":"31.184909334","category":"500","category_name":"未知分类","address":"上海市徐汇区瑞宁路"},{"poiid":"B2094757D068A6FB459C","title":"世博会墨西哥馆","lon":"121.47791","lat":"31.17884","category":"260","category_name":"其他","address":"上海浦东新区国展路近上钢路(原上海世博会C片区)"},{"poiid":"B2094752D26EA5F8479E","title":"世博希腊馆","lon":"121.477208","lat":"31.185743","category":"500","category_name":"未知分类","address":null},{"poiid":"B2094753D26EA2F4429B","title":"南京西路","lon":"121.474813","lat":"31.173199","category":"500","category_name":"未知分类","address":"上海市 南京西路"},{"poiid":"B2094757D16CA4F5479C","title":"同里粥庄","lon":"121.477101071","lat":"31.1742154407","category":"247","category_name":"餐饮美食","address":"上海上南路894号(近昌里路)"},{"poiid":"B2094753D768A2FF469F","title":"小辉哥火锅（乐城店）","lon":"121.47583","lat":"31.182259","category":"247","category_name":"餐饮美食","address":"上海市徐汇区中山南二路699号2栋304—305"},{"poiid":"B2094654DA6DA6F4479B","title":"大顾饮食店","lon":"121.4761","lat":"31.1719","category":"257","category_name":"中餐厅","address":""},{"poiid":"B209475CD668A5F84793","title":"徐汇滨江","lon":"121.472816","lat":"31.179346","category":"47","category_name":"住宅区","address":"上海市 龙腾大道"},{"poiid":"B2094757D568AAFB489B","title":"全家(后滩路)","lon":"121.47403537","lat":"31.17884006","category":"117","category_name":"便民商店/便利店","address":"上海世博园区"},{"poiid":"B2094752DB68A3F94398","title":"博大汽车公园","lon":"121.470067","lat":"31.1769","category":"500","category_name":"未知分类","address":"上海市 国展路189号"},{"poiid":"B2094757D06AA4FD4299","title":"世博会后滩广场","lon":"121.472229","lat":"31.181316375","category":"500","category_name":"未知分类","address":"上海世博会C片区"},{"poiid":"B2094654DA6DA6F4469F","title":"上海市第二轻工业学校分部","lon":"121.47637","lat":"31.1714","category":"54","category_name":"职业技术学校","address":"耀华支路14"},{"poiid":"B2094655D265A1F94398","title":"中心广场(巴西馆西)","lon":"121.47553","lat":"31.17951","category":"201","category_name":"城市广场","address":"上海世博园区"},{"poiid":"B2094757D66DA3FB4999","title":"世博二号物流仓库","lon":"121.471099854","lat":"31.1786327362","category":"500","category_name":"未知分类","address":"上海后滩八号门"},{"poiid":"B2094750DA65A3FF4898","title":"徐汇滨江","lon":"121.467994","lat":"31.181165","category":"47","category_name":"住宅区","address":null},{"poiid":"B2094753D26AAAFD4392","title":"巴黎春天","lon":"121.478516","lat":"31.174197","category":"500","category_name":"未知分类","address":"上海市 浦东新区成山路"},{"poiid":"B2094752D469A7F9479D","title":"2062新能源主题公园","lon":"121.4704194","lat":"31.1804502","category":"250","category_name":"公园户外","address":"塘子泾路191号"},{"poiid":"B2094752D56AABF44693","title":"世博展览馆","lon":"121.476251","lat":"31.172501","category":"627","category_name":"一般地点标志","address":null},{"poiid":"B2094753D46BAAFD4398","title":"海之宝足球场","lon":"121.478721","lat":"31.179347","category":"220","category_name":"运动场所","address":"上海市 国展路401号"},{"poiid":"B2094753D668A2F8429E","title":"虹口龙之梦","lon":"121.481583","lat":"31.17323","category":"500","category_name":"未知分类","address":"上海市 虹口区"},{"poiid":"B2094757D069A3FE4292","title":"龙腾大道南滨江","lon":"121.47991373","lat":"31.180792247","category":"260","category_name":"其他","address":"上海市徐汇区龙腾大道"},{"poiid":"B2094757D169AAFE479F","title":"耀龙路","lon":"121.468658447","lat":"31.1781234741","category":"500","category_name":"未知分类","address":"上海耀龙路"},{"poiid":"B209475CD769A0FF439A","title":"墨西哥艺术中心","lon":"121.479209","lat":"31.173645","category":"500","category_name":"未知分类","address":"上海市 上海市世博园国展路410号"}]