[{"poiid":"B2094757D06FA1FE4492","title":"西郊宾馆","lon":"121.38651","lat":"31.19694","category":"213","category_name":"五星级宾馆","address":"长宁区虹桥路1921号(近虹许路)"},{"poiid":"B2094757D06FA6FF409A","title":"美林阁(虹桥店)","lon":"121.38921","lat":"31.19823","category":"76","category_name":"上海菜","address":"长宁区虹桥路1885号仙霞网球中心内(近虹许路)"},{"poiid":"B2094757D06FA6F94799","title":"Big Bamboo(虹梅路店)","lon":"121.38749807","lat":"31.191347387","category":"260","category_name":"其他","address":"闵行区虹梅路3338弄2号虹梅休闲街内(近延安西路)"},{"poiid":"B2094757D069A1FC4592","title":"武警总队医院","lon":"121.38895056","lat":"31.192590069","category":"162","category_name":"医院","address":"长宁区虹许路831号(近延安西路)"},{"poiid":"B2094654D564A1FD479A","title":"虹梅休闲街","lon":"121.38869","lat":"31.19128","category":"116","category_name":"特色商业街","address":""},{"poiid":"B2094757D068ABFF469E","title":"德国乡村西餐厅","lon":"121.387665505","lat":"31.1913894383","category":"94","category_name":"西餐厅","address":"闵行区虹梅路3338弄虹梅休闲街22-24号(近延安西路)"},{"poiid":"B2094757D06FA5FB489C","title":"蓝蛙(虹梅店)","lon":"121.3854","lat":"31.19026","category":"260","category_name":"其他","address":"闵行区虹梅路3338弄虹梅休闲街30号(近延安西路)"},{"poiid":"B2094757D06FABFE489D","title":"shanghai brewery","lon":"121.38794295","lat":"31.191516042","category":"260","category_name":"其他","address":"闵行区虹梅路3338弄虹梅路休闲街21C(近延安西路)"},{"poiid":"B2094757D06FA7FB4993","title":"新苑宾馆","lon":"121.38887","lat":"31.19604","category":"217","category_name":"旅馆招待所","address":"长宁区虹桥路1900号(近虹许路)"},{"poiid":"B2094757D069AAFB4299","title":"Sunset Bar","lon":"121.38596","lat":"31.18988","category":"260","category_name":"其他","address":"闵行区虹梅路3338弄老外街21A号"},{"poiid":"B2094757D06BA3F8439A","title":"晶浦会西郊会所","lon":"121.385306586","lat":"31.1970257818","category":"500","category_name":"未知分类","address":"虹桥路1970号近虹梅路"},{"poiid":"B2094757D069A0FF469F","title":"辉哥海鲜火锅(虹桥路店)","lon":"121.38930969","lat":"31.199053069","category":"86","category_name":"火锅店","address":"长宁区虹桥路1829弄10号(近水城南路)"},{"poiid":"B2094757D069A3F84792","title":"大渔铁板烧(虹许店)","lon":"121.38675","lat":"31.19337","category":"95","category_name":"日本料理","address":"长宁区虹许路951号(近延安西路)"},{"poiid":"B2094757D068A4F4459E","title":"瑠","lon":"121.38827","lat":"31.19751","category":"95","category_name":"日本料理","address":"长宁区虹桥路1848号(近虹许路)"},{"poiid":"B2094655D264A2FE429D","title":"MexicoLindo","lon":"121.38935","lat":"31.19165","category":"256","category_name":"外国餐厅","address":""},{"poiid":"B2094757D069A0F94299","title":"皇家泰厨","lon":"121.38404","lat":"31.19285","category":"99","category_name":"泰国／越南菜品餐厅","address":"长宁区虹梅路3911号SOHO3911休闲街3号别墅(近虹桥路)"},{"poiid":"B2094654DB69A7FD499F","title":"海之幸(虹桥店)","lon":"121.38731","lat":"31.19345","category":"95","category_name":"日本料理","address":"长宁区延安西路2890号(近虹许路)"},{"poiid":"B2094757D06BA2F9429D","title":"圆石蟹宴","lon":"121.38761797","lat":"31.193659312","category":"257","category_name":"中餐厅","address":"长宁区延安西路2882号(近虹许路)"},{"poiid":"B2094757D068A3F84898","title":"百瑞宠物公园","lon":"121.38815","lat":"31.19457","category":"129","category_name":"宠物用品店","address":"上海长宁区虹许路951号3楼(近延安西路)"},{"poiid":"B2094655D26EA0FC409A","title":"天泰餐厅(虹梅店)","lon":"121.386","lat":"31.19104","category":"99","category_name":"泰国／越南菜品餐厅","address":"闵行区虹梅路3338弄老外街28号(近延安西路)"},{"poiid":"B2094757D064ABFD459F","title":"凌泷阁","lon":"121.38814","lat":"31.1945","category":"257","category_name":"中餐厅","address":"长宁区虹许路951号2楼(延安西路口)"},{"poiid":"B2094757D069A2F44799","title":"锅德港式极品肥牛海鲜火锅(虹梅店)","lon":"121.38441","lat":"31.19239","category":"86","category_name":"火锅店","address":"长宁区虹梅路3901号1楼(近虹桥路)"},{"poiid":"B2094654D56BA6FD469D","title":"晶采轩","lon":"121.38524","lat":"31.19789","category":"72","category_name":"广东菜","address":"长宁区虹桥路1937号(近虹许路)"},{"poiid":"B2094757D068A7F4469D","title":"仙霞网球中心","lon":"121.38789","lat":"31.19734","category":"500","category_name":"未知分类","address":"长宁区虹桥路1885号(近虹许路)"},{"poiid":"B2094757D468A4F84593","title":"西郊公馆","lon":"121.3849008","lat":"31.1970511","category":"72","category_name":"广东菜","address":"长宁区虹桥路1950号(近西郊宾馆)"},{"poiid":"B2094655D36DA0F84199","title":"延安西路虹许路","lon":"121.38747","lat":"31.19413","category":"38","category_name":"公交车站","address":""},{"poiid":"B2094654DB64A7F9469F","title":"大渔","lon":"121.38796","lat":"31.19474","category":"95","category_name":"日本料理","address":"虹许路943号(车之家俱乐部旁)"},{"poiid":"B2094757D16CA6F84399","title":"雞錦日式炭燒料理店","lon":"121.38757858","lat":"31.193951721","category":"247","category_name":"餐饮美食","address":"上海雞錦日式炭燒料理店 延安西路2876号(近虹许路)"},{"poiid":"B2094655D26EA2FD439E","title":"和献洋彩","lon":"121.38541","lat":"31.19076","category":"95","category_name":"日本料理","address":"闵行区虹梅路3338弄2号虹梅休闲街32号(近延安西路)"},{"poiid":"B2094757D56EA0FB4093","title":"琉球和佐美(长宁店)","lon":"121.3883929","lat":"31.1947505","category":"247","category_name":"餐饮美食","address":"闵行区虹许路1151号西郊公寓1楼(近西郊宾馆)"},{"poiid":"B2094757D465A1FF4798","title":"鸡锦日式炭烧料理店","lon":"121.388203054","lat":"31.194813793","category":"269","category_name":"烧烤","address":"长宁区延安西路2876号(近虹许路)"},{"poiid":"B2094654D564A1FD4398","title":"新德里印度料理","lon":"121.38594","lat":"31.19114","category":"102","category_name":"印度风味","address":"闵行区虹梅路3338弄2号虹梅休闲街5号(近延安西路)"},{"poiid":"B2094757D465A3F94998","title":"芙蓉湘菜馆","lon":"121.38720267037","lat":"31.193667926916","category":"77","category_name":"湖南菜","address":"长宁区延安西路2872号(近虹许路)"},{"poiid":"B2094757D06BA2FD429E","title":"席家花园(虹梅路店)","lon":"121.38415","lat":"31.19258","category":"47","category_name":"住宅区","address":"长宁区虹梅路3911号SOHO3911休闲街2号别墅(近虹桥路)"},{"poiid":"B2094654D564A1FE499D","title":"华菱大厦","lon":"121.38686264585","lat":"31.195373350716","category":"46","category_name":"楼宇","address":"上海市闵行区延安西路3062弄18号"},{"poiid":"B2094757D064AAFD4098","title":"流晶逸彩","lon":"121.3882979961","lat":"31.1926391942","category":"47","category_name":"住宅区","address":"流晶逸彩位于徐汇虹中路460弄"},{"poiid":"B2094757D065AAFB449C","title":"Porta Nova","lon":"121.38541","lat":"31.19076","category":"94","category_name":"西餐厅","address":"闵行区虹梅路3338弄2号虹梅休闲街40号(近延安西路)"},{"poiid":"B2094757D16BA1F8429D","title":"京城日式烧肉","lon":"121.387496","lat":"31.193566","category":"247","category_name":"餐饮美食","address":"长宁区延安西路2886号(近虹许路)"},{"poiid":"B2094757D16CA6FC489C","title":"嘉年别墅","lon":"121.390522","lat":"31.194017","category":"47","category_name":"住宅区","address":"上海虹梅路3333号"},{"poiid":"B2094654D56BA6FD469F","title":"西郊体育中心","lon":"121.38497","lat":"31.19785","category":"224","category_name":"综合体育馆","address":"徐汇区虹桥路1949号(近虹梅路)"},{"poiid":"B2094757D465A0FB4792","title":"炉端烧 IRORIYA","lon":"121.38615381693","lat":"31.193089028443","category":"95","category_name":"日本料理","address":"长宁区延安西路2896号(近虹中路)"},{"poiid":"B2094751D36FA6FF419C","title":"城市公牛(虹梅路店)","lon":"121.38823","lat":"31.19226","category":"94","category_name":"西餐厅","address":"闵行区虹梅路3338弄2号虹梅休闲街26号(近延安西路)"},{"poiid":"B2094654D56BA6F9489A","title":"西郊明珠苑(西门)","lon":"121.38822","lat":"31.19558","category":"47","category_name":"住宅区","address":"虹许路1102-1108号"},{"poiid":"B2094757D66BA2F4499F","title":"蓝屋 AIYA","lon":"121.386147054","lat":"31.193512793","category":"95","category_name":"日本料理","address":"长宁区延安西路2892号"},{"poiid":"B2094757D66EA7F94698","title":"中国石化加油站(仙霞路林泉路)","lon":"121.38776828","lat":"31.194726036","category":"154","category_name":"加油加气站","address":"上海仙霞路林泉路路口"},{"poiid":"B2094655D26AA3F4419D","title":"金摇篮母婴会所","lon":"121.3886","lat":"31.19631","category":"247","category_name":"餐饮美食","address":"长宁区虹桥路1900号新苑宾馆6号楼(近虹许路)"},{"poiid":"B2094757D56CA1F8449F","title":"大谷烧肉","lon":"121.38895766924","lat":"31.195370180153","category":"247","category_name":"餐饮美食","address":"长宁区水城南路荣华西道19弄12号金狮花苑B111室(黄金城道水城南路)"},{"poiid":"B2094757D568A2FA479A","title":"玄人日本烧烤","lon":"121.387128","lat":"31.193096","category":"269","category_name":"烧烤","address":"长宁区延安西路2894号(虹许路虹梅路间)"},{"poiid":"B2094750D76EA4FF4699","title":"西郊宾馆牡丹厅","lon":"121.387","lat":"31.1984","category":"268","category_name":"自助","address":"长宁区虹桥路1921号7号楼"},{"poiid":"B2094654DB6BA7FA419D","title":"海の幸日本料理(延安西路店)","lon":"121.38732","lat":"31.19345","category":"95","category_name":"日本料理","address":"延安西路2890"},{"poiid":"B2094655D26FA2F9479D","title":"三夫户外运动用品(虹许路店)","lon":"121.38766","lat":"31.19449","category":"140","category_name":"体育用品店","address":"长宁区延安西路2789号(近虹许路951号)"},{"poiid":"B2094655D26EA5FA499D","title":"沙华多利 虹梅店 Pasta Fresca Da Salvatore","lon":"121.3846870497","lat":"31.192252632645","category":"98","category_name":"意式菜品餐厅","address":"闵行区虹梅路3896号中洋公寓内(近延安西路)"},{"poiid":"B2094654DB64AAFD4192","title":"Bartiaan","lon":"121.38722","lat":"31.19127","category":"94","category_name":"西餐厅","address":"虹梅路3338弄18临"},{"poiid":"B2094654D56BA6F94793","title":"西郊明珠苑","lon":"121.38894","lat":"31.195904","category":"47","category_name":"住宅区","address":"虹许路1102-1108号"},{"poiid":"B2094757D664A3F9499C","title":"百八","lon":"121.39131","lat":"31.1934","category":"95","category_name":"日本料理","address":"长宁区荣华西道59号古北俱乐部2楼(近水城南路)"},{"poiid":"B2094757D164A1FF479B","title":"比利时啤酒餐厅","lon":"121.38815058","lat":"31.191355671","category":"500","category_name":"未知分类","address":"虹梅路3338弄27号"},{"poiid":"B2094757D168A1FA439B","title":"上海市盲童学校","lon":"121.38756027","lat":"31.19719036","category":"253","category_name":"校园生活","address":"长宁区虹桥路1850号"},{"poiid":"B2094757D66FA7FB4998","title":"blue frog","lon":"121.391694586","lat":"31.1946807359","category":"500","category_name":"未知分类","address":"上海老外街"},{"poiid":"B2094757D069A6FB4399","title":"Bastiaan's","lon":"121.38888658","lat":"31.192408691","category":"67","category_name":"甜品店","address":"上海市长宁区虹梅路3338弄虹梅休闲街18号"},{"poiid":"B2094655D26BA7F9409C","title":"虹鹿小区二期","lon":"121.388189","lat":"31.193494","category":"47","category_name":"住宅区","address":"上海市闵行区华光路300弄"},{"poiid":"B2094757D66DAAF8449E","title":"辉哥火锅","lon":"121.387258586","lat":"31.1973767886","category":"247","category_name":"餐饮美食","address":"虹桥路1829弄10号近水城路"},{"poiid":"B209475CD069A3F4409D","title":"西郊壹号","lon":"121.38592","lat":"31.19728","category":"75","category_name":"浙江菜","address":"虹桥路1950号(近虹许路)"},{"poiid":"B2094655D26AA4FB409A","title":"虹桥6号","lon":"121.38949","lat":"31.19875","category":"72","category_name":"广东菜","address":"长宁区虹桥路1829弄6号(水城路虹许路间)"},{"poiid":"B2094655D36CA7F84299","title":"虹许路古羊路","lon":"121.3887","lat":"31.19349","category":"38","category_name":"公交车站","address":""},{"poiid":"B2094654D56BA6F9489F","title":"天久地缘粤港食府","lon":"121.38861","lat":"31.19632","category":"260","category_name":"其他","address":"长宁区虹桥路1900号新苑宾馆1楼(近虹许路)"},{"poiid":"B2094655D36CA7F84298","title":"虹许路","lon":"121.38822","lat":"31.19801","category":"38","category_name":"公交车站","address":""},{"poiid":"B2094757D064A6F4499E","title":"韩国1004超市","lon":"121.388281586","lat":"31.1921326861","category":"118","category_name":"超级市场","address":"上海市长宁区水城南路29号"},{"poiid":"B2094757D66AABFD499D","title":"Delight Food","lon":"121.387053054","lat":"31.192194793","category":"94","category_name":"西餐厅","address":"闵行区虹梅路3338弄老外街27号(近延安西路)"},{"poiid":"B209475CD76CA4FD4693","title":"老外街","lon":"121.387886","lat":"31.19132","category":"500","category_name":"未知分类","address":"上海市 上海虹梅路"},{"poiid":"B2094757D56CAAFE449E","title":"乐多韩国料理 长宁店","lon":"121.38687794815","lat":"31.193508200486","category":"247","category_name":"餐饮美食","address":"延安西路2896号延安高架下面虹许路虹梅路之间"},{"poiid":"B2094654D56BA6FD4592","title":"宋庆龄幼儿园国际部","lon":"121.3842","lat":"31.19447","category":"57","category_name":"幼儿园","address":"闵行区虹梅路3908号(近延安西路)"},{"poiid":"B2094757D66FA7FA479F","title":"上海警备区第四干休所","lon":"121.38675258","lat":"31.196397769","category":"500","category_name":"未知分类","address":"上海ShanghaiChangningLongxi Rd"},{"poiid":"B2094655D26FA1FC409D","title":"川村","lon":"121.38717","lat":"31.19336","category":"95","category_name":"日本料理","address":"长宁区延安西路2896号"},{"poiid":"B2094757D16DA4FE4692","title":"西郊花园别墅","lon":"121.390944586","lat":"31.1948837399","category":"47","category_name":"住宅区","address":"上海市长宁区荣华西道58弄"},{"poiid":"B2094654DB6BA7FA4198","title":"史拉子伊朗美食","lon":"121.38626","lat":"31.19119","category":"110","category_name":"其他亚洲菜","address":"闵行区虹梅路3338弄2号虹梅休闲街8号(近延安西路)"},{"poiid":"B2094757D069A5F54498","title":"延安路高架虹许路出口","lon":"121.38997713","lat":"31.192029834","category":"500","category_name":"未知分类","address":"上海延安路高架虹许路出口"},{"poiid":"B2094654D56BA6F9499A","title":"虹桥路1860号1号楼","lon":"121.38792","lat":"31.1975","category":"46","category_name":"楼宇","address":"虹桥路1860号"},{"poiid":"B2094655D26BA6FE4793","title":"流金逸彩","lon":"121.3875","lat":"31.190782","category":"47","category_name":"住宅区","address":"上海市闵行区虹中路460弄"},{"poiid":"B2094757D065A2F4419A","title":"味藏日本料理","lon":"121.39141505","lat":"31.195174507","category":"500","category_name":"未知分类","address":"上海娄山关路"},{"poiid":"B2094655D26DA2FF479B","title":"新虹桥小别墅(西门)","lon":"121.3893","lat":"31.19655","category":"47","category_name":"住宅区","address":"虹桥路1888号"},{"poiid":"B209475CD069AAF5429B","title":"小南国烧烤 虹桥店","lon":"121.38912","lat":"31.19806","category":"95","category_name":"日本料理","address":"虹桥路1848号(近虹许路)"},{"poiid":"B2094757D468A6FB439F","title":"肯德基 机场店 KFC","lon":"121.389018054","lat":"31.198613793","category":"68","category_name":"快餐厅","address":"长宁区虹桥路2550号虹桥机场内(近空港一路)"},{"poiid":"B2094757D66CA4F5439B","title":"要要家","lon":"121.38587814","lat":"31.195322583","category":"500","category_name":"未知分类","address":"上海虹桥路虹许路"},{"poiid":"B2094655D26AA3F5409F","title":"武警医院整形美容中心","lon":"121.38901","lat":"31.19275","category":"247","category_name":"餐饮美食","address":"长宁区虹许路831号(近虹桥路)"},{"poiid":"B2094757D065AAF8469D","title":"虹桥路虹许路路口","lon":"121.386984997","lat":"31.197633782","category":"500","category_name":"未知分类","address":"上海虹桥路虹许路"},{"poiid":"B2094757D064AAF94298","title":"中环路北虹路地道","lon":"121.387160592","lat":"31.1970478388","category":"260","category_name":"其他","address":"上海中环路北虹路地道"},{"poiid":"B2094654D564A1FD4399","title":"两扇门菜馆","lon":"121.38638","lat":"31.19121","category":"257","category_name":"中餐厅","address":"闵行区虹梅路3338弄2号虹梅休闲街9号(近延安西路)"},{"poiid":"B2094757DA6EABF44799","title":"春保健会所(古北店)","lon":"121.389129999999","lat":"31.1956060000001","category":"248","category_name":"生活娱乐","address":"长宁区水城南路17号(万科广场2楼)"},{"poiid":"B2094757D66EABFC489E","title":"園石蟹宴門口","lon":"121.387529","lat":"31.193583","category":"500","category_name":"未知分类","address":"上海延安西路2882號"},{"poiid":"B2094757D16BA0FF4993","title":"骏德酒业(长宁店)","lon":"121.38804058","lat":"31.193799836","category":"249","category_name":"购物服务","address":"上海延安西路2789号"},{"poiid":"B2094757D064A4FB4892","title":"西郊宾馆翠园厅","lon":"121.38706207","lat":"31.198377609","category":"217","category_name":"旅馆招待所","address":"上海市长宁区虹桥路1921号西郊宾馆(近虹许路)"},{"poiid":"B2094753D064A6FA429B","title":"希腊餐厅(老外街店)","lon":"121.3873","lat":"31.19135","category":"94","category_name":"西餐厅","address":"闵行区虹梅路3338弄16号(近延安西路)"},{"poiid":"B2094750D16BA6FE489D","title":"芋美人","lon":"121.38374","lat":"31.19322","category":"67","category_name":"甜品店","address":"长宁区虹梅路(近老外街)"},{"poiid":"B2094655D26DA3F8489F","title":"上海西郊公寓酒店(东一门)","lon":"121.38708","lat":"31.19659","category":"656","category_name":"大门","address":"上海市长宁区虹许路1151号（近虹桥路口）"},{"poiid":"B2094757D66BA6FD4392","title":"佛兰餐厅 Le Midi","lon":"121.385475054","lat":"31.191588793","category":"97","category_name":"法式菜品餐厅","address":"闵行区虹梅路3338弄2号虹梅休闲街7号(近延安西路)"},{"poiid":"B2094757D06AA3FC4899","title":"85度C(虹梅店)","lon":"121.38246","lat":"31.19509","category":"112","category_name":"糕饼店","address":"长宁区虹梅路3828号"},{"poiid":"B2094654D564A2FF499D","title":"上海古北健身俱乐部","lon":"121.39121","lat":"31.19374","category":"221","category_name":"健身中心","address":"长宁区荣华西道59号(近水城南路)"},{"poiid":"B2094655D26DA2FF4198","title":"新虹桥小别墅","lon":"121.39","lat":"31.19687","category":"47","category_name":"住宅区","address":"虹桥路1888号"},{"poiid":"B2094655D26AA2F5459E","title":"武警总队医院烧伤整形科","lon":"121.38901","lat":"31.19275","category":"247","category_name":"餐饮美食","address":"长宁区虹许路831号(近虹桥路)"},{"poiid":"B2094757D66DA3FF449D","title":"长宁区劳动技术教育中心","lon":"121.387271186","lat":"31.1971326839","category":"190","category_name":"培训机构","address":"上海长宁区虹古路377弄41号"},{"poiid":"B209475CD06BA0FF4893","title":"德国乡村餐厅  Papas Bierstube","lon":"121.38714551926","lat":"31.191658003929","category":"107","category_name":"德国菜","address":"虹梅路3338弄虹梅休闲街(老外街)22-24号近延安西路"},{"poiid":"B2094757D664AAFE489A","title":"比吧谱 Be-Bop Bar","lon":"121.38776914135","lat":"31.192274062682","category":"172","category_name":"酒吧","address":"闵行区虹梅路3338弄2号虹梅休闲街25号(近延安西路)"},{"poiid":"B2094757D66CA2FC489C","title":"南空军区干休所","lon":"121.38459958","lat":"31.195089743","category":"500","category_name":"未知分类","address":"上海市长宁区虹桥路1980号"},{"poiid":"B2094757D16AA1FB449C","title":"韦哲乐高(虹桥中心)","lon":"121.38633858","lat":"31.19694178","category":"249","category_name":"购物服务","address":"上海虹许路1151号西郊公寓酒店 C102(西郊宾馆对面)"},{"poiid":"B2094757D66DAAFC479F","title":"Belgian Brarrerie","lon":"121.388165161","lat":"31.1914366725","category":"500","category_name":"未知分类","address":"上海虹梅路3338弄虹梅休閒街27號"},{"poiid":"B2094757D16EA4FA4699","title":"宋慶齡幼兒園","lon":"121.38456258","lat":"31.19438273","category":"500","category_name":"未知分类","address":"上海市长宁区虹梅路"},{"poiid":"B2094655D26DA2F8489E","title":"上海仙霞网球中心(南门)","lon":"121.38855","lat":"31.19825","category":"226","category_name":"网球场","address":"虹桥路1881-1889"},{"poiid":"B2094757D16DA5FA459B","title":"西郊会所","lon":"121.385324","lat":"31.19692","category":"500","category_name":"未知分类","address":"上海虹桥路1970号"},{"poiid":"B2094757D06BA1FE4799","title":"Cafe &amp; Deli Natural","lon":"121.3918","lat":"31.19451","category":"95","category_name":"日本料理","address":"上海长宁区荣华西道99弄2号101(近水城南路)"},{"poiid":"B2094757D66AA5FD409C","title":"Nancy's Bar","lon":"121.386218054","lat":"31.191746793","category":"260","category_name":"其他","address":"闵行区虹梅路3338弄2号虹梅休闲街12号(近延安西路)"},{"poiid":"B2094757D66AABFC4898","title":"波普酒家","lon":"121.38902351383","lat":"31.192121876741","category":"76","category_name":"上海菜","address":"虹梅路3338弄虹梅休闲街38号近延安西路"},{"poiid":"B2094757D06FA2FE4899","title":"G50沪渝高速(沪青平高速)","lon":"121.38422285","lat":"31.192241277","category":"260","category_name":"其他","address":"上海闵行区沪青平枢纽——青浦金泽"},{"poiid":"B2094757D16DA3FA4399","title":"东北老菜馆","lon":"121.38799","lat":"31.19381","category":"82","category_name":"东北菜","address":"长宁区延安西路2868号(近虹许路)"},{"poiid":"B2094654D56BA6FD459E","title":"虹桥中洋公寓","lon":"121.38406","lat":"31.193701","category":"47","category_name":"住宅区","address":"上海市虹口区上海新嘉路1弄"},{"poiid":"B2094757D16AAAFB449D","title":"静安区康定路733弄","lon":"121.388705486","lat":"31.1940800242","category":"260","category_name":"其他","address":"上海市静安区康定路733弄"},{"poiid":"B2094757D66FA1FC4698","title":"上海啤酒公坊","lon":"121.38791858","lat":"31.1928737","category":"500","category_name":"未知分类","address":"上海市长宁区虹梅路"},{"poiid":"B2094655D26EA2F8499F","title":"上海西郊公寓酒店(东二门)","lon":"121.387","lat":"31.1969","category":"656","category_name":"大门","address":"上海市长宁区虹许路1151号（近虹桥路口）"},{"poiid":"B2094655D268A7FC449C","title":"古北健身俱乐部网球中心","lon":"121.39112","lat":"31.19423","category":"226","category_name":"网球场","address":""},{"poiid":"B2094655D26DAAFC4799","title":"西郊东苑商务楼","lon":"121.38736","lat":"31.19877","category":"46","category_name":"楼宇","address":""},{"poiid":"B209475DD46FA6F84892","title":"烧肉一筋","lon":"121.389038","lat":"31.191648","category":"247","category_name":"餐饮美食","address":"上海市 上海市虹梅路老外街"},{"poiid":"B2094655D26EA3F4419B","title":"上海康怡口腔门诊部","lon":"121.38737","lat":"31.19877","category":"162","category_name":"医院","address":"长宁区虹桥路1919号西郊花园别墅M幢(近虹许路)"},{"poiid":"B2094655D26DA6F5449B","title":"翡翠公寓(南门)","lon":"121.39114","lat":"31.19471","category":"47","category_name":"住宅区","address":"虹桥"},{"poiid":"B2094654D56BA6FD4692","title":"西郊体育中心(南门)","lon":"121.38492","lat":"31.19724","category":"224","category_name":"综合体育馆","address":"虹桥路1949"},{"poiid":"B2094750D76FABFD439F","title":"元气28","lon":"121.391","lat":"31.1938","category":"95","category_name":"日本料理","address":"长宁区荣华西道59号古北美食坊1楼A3号"},{"poiid":"B2094757D16CA0F54398","title":"蕴道侍酒餐厅","lon":"121.38860085","lat":"31.19119839","category":"500","category_name":"未知分类","address":"上海虹许路731号虹梅休闲街21D"},{"poiid":"B2094757D568A4FE449D","title":"French Cuisine Le Midi","lon":"121.38607","lat":"31.191164","category":"97","category_name":"法式菜品餐厅","address":"中国上海市闵行区虹梅休闲街"},{"poiid":"B2094654DB65A1FF4998","title":"Big Bamboo","lon":"121.38796","lat":"31.19122","category":"260","category_name":"其他","address":"长宁区荣华西道99弄金狮花苑6号103室(近水城南路)"},{"poiid":"B2094655D26DA3F8479C","title":"延北小区(南门)","lon":"121.38701","lat":"31.194","category":"656","category_name":"大门","address":"延安西路2799弄4-13号"},{"poiid":"B2094655D268A7FC4498","title":"西郊花园别墅(北门)","lon":"121.39123","lat":"31.19301","category":"47","category_name":"住宅区","address":"水城南路荣华西道58弄"},{"poiid":"B2094655D26AA3FB4093","title":"ANDYSPORTS网球培训","lon":"121.39121","lat":"31.19374","category":"247","category_name":"餐饮美食","address":"长宁区荣华西道59号(近水城南路)"},{"poiid":"B2094655D26EABF5489F","title":"辰巳日本料理店","lon":"121.39121","lat":"31.19374","category":"95","category_name":"日本料理","address":"长宁区古北新区荣华西道59号"},{"poiid":"B2094753DB65A6F4439B","title":"烧肉一筋","lon":"121.38887","lat":"31.19194","category":"500","category_name":"未知分类","address":"上海市 上海市虹梅路3338弄38号"},{"poiid":"B2094753D56DA4F9439A","title":"上海体育场","lon":"121.390007","lat":"31.192703","category":"500","category_name":"未知分类","address":"上海市 上海体育场"},{"poiid":"B2094752D56EA3F4419A","title":"龙腾大道","lon":"121.390206","lat":"31.195384","category":"627","category_name":"一般地点标志","address":"徐汇滨江"},{"poiid":"B2094757D16EA0FB4598","title":"爱吉瑞丽母婴会所","lon":"121.389015","lat":"31.192752","category":"500","category_name":"未知分类","address":"长宁区虹许路831号(近虹桥路)"},{"poiid":"B2094757D569A1FF429F","title":"Caffelab.com","lon":"121.3836511","lat":"31.19374","category":"247","category_name":"餐饮美食","address":"虹梅路3898号"},{"poiid":"B2094655D26BA5FC4599","title":"BelgianBrasserie","lon":"121.38812","lat":"31.19146","category":"256","category_name":"外国餐厅","address":""},{"poiid":"B2094655D26EA2FA409B","title":"上海唯浓唯尼贸易有限公司","lon":"121.38504","lat":"31.19653","category":"263","category_name":"公司","address":"虹桥路1970号近虹梅路"},{"poiid":"B2094655D36CA7F8479C","title":"虹梅路延安西路","lon":"121.38331","lat":"31.19391","category":"38","category_name":"公交车站","address":""},{"poiid":"B2094655D26EA5F44593","title":"Caffee Lab","lon":"121.38364","lat":"31.19373","category":"65","category_name":"咖啡厅","address":"长宁区虹梅路3898号一楼"},{"poiid":"B2094654D56BA6FD459F","title":"上海爵世咖啡馆","lon":"121.38365","lat":"31.19374","category":"65","category_name":"咖啡厅","address":"闵行区虹梅路3898号(近延安西路)"},{"poiid":"B2094757D16DA5FA499A","title":"航华二村","lon":"121.38469328","lat":"31.19645972","category":"252","category_name":"楼宇机构","address":"上海航华二村"},{"poiid":"B2094655D265A4F9479E","title":"Julies","lon":"121.388","lat":"31.19145","category":"94","category_name":"西餐厅","address":""},{"poiid":"B2094655D26FA6F94593","title":"虹延小区","lon":"121.38578","lat":"31.191542","category":"47","category_name":"住宅区","address":"虹梅路3818弄1-35号,3800弄5-10号"},{"poiid":"B2094752D36DAAFC499B","title":"金钱豹(延安西路店)","lon":"121.384522","lat":"31.19219","category":"268","category_name":"自助","address":"长宁区延安西路3162号"},{"poiid":"B2094757D06AA1F54899","title":"7-ELEVEN(虹安店)","lon":"121.3834322","lat":"31.1936704","category":"117","category_name":"便民商店/便利店","address":"闵行区虹梅路3911号11幢103室"},{"poiid":"B2094654D564A1FD4893","title":"罗森(虹梅路)","lon":"121.3851","lat":"31.19149","category":"117","category_name":"便民商店/便利店","address":"虹梅路3820"},{"poiid":"B2094654DB6BA7FD4698","title":"延北小区","lon":"121.385545","lat":"31.193415","category":"47","category_name":"住宅区","address":"虹梅路3888弄1-30号"},{"poiid":"B2094654D564A1FD439E","title":"3D BAR","lon":"121.38648","lat":"31.19122","category":"172","category_name":"酒吧","address":"闵行区虹梅路3338弄2号虹梅休闲街11号(近延安西路)"},{"poiid":"B2094654D56BA6F94993","title":"东湖小区","lon":"121.39085","lat":"31.198111","category":"47","category_name":"住宅区","address":"虹桥路1776弄1-16号"},{"poiid":"B2094655D268A7FC4499","title":"钢琴酒廊","lon":"121.39122","lat":"31.19374","category":"172","category_name":"酒吧","address":"荣华西道59号"},{"poiid":"B2094654DB6BA7FD469F","title":"上海西郊公寓酒店(北门)","lon":"121.38615","lat":"31.19741","category":"656","category_name":"大门","address":"上海市长宁区虹许路1151号（近虹桥路口）"},{"poiid":"B2094757D168A7FA499E","title":"南空干休所","lon":"121.384788","lat":"31.19706","category":"500","category_name":"未知分类","address":"上海虹桥路1980号"},{"poiid":"B2094757D66DA6F44399","title":"西郊体育中心壁球馆","lon":"121.38525","lat":"31.19758","category":"500","category_name":"未知分类","address":"长宁区虹桥路1949号(近虹梅路)"},{"poiid":"B2094654D564A2FF4599","title":"金鹿公寓","lon":"121.39169","lat":"31.193598","category":"47","category_name":"住宅区","address":"水城南路荣华西道39弄9-11"},{"poiid":"B2094757D168A1FA429D","title":"C'est cupcake","lon":"121.38501881","lat":"31.192475542","category":"500","category_name":"未知分类","address":"上海虹梅路"},{"poiid":"B2094654D564A1FD4492","title":"翰林匾额博物馆","lon":"121.3885","lat":"31.19113","category":"182","category_name":"博物馆","address":"闵行区虹许路731号(近虹梅路)"},{"poiid":"B2094654D56BA6F84998","title":"夏卢私房菜","lon":"121.38948","lat":"31.19876","category":"257","category_name":"中餐厅","address":"虹桥路1829弄6号"},{"poiid":"B2094654DB69A0FA419E","title":"辛拉园 虹梅店","lon":"121.38563691666","lat":"31.191619571785","category":"96","category_name":"韩国料理","address":"闵行区虹梅路1213号1D(虹梅南路莘朱路)"},{"poiid":"B2094654D564A1FD469F","title":"欧泰咖啡","lon":"121.38938","lat":"31.19106","category":"65","category_name":"咖啡厅","address":"虹许路731号1号楼2层"},{"poiid":"B2094752D064A3F4469E","title":"上海虹桥机场","lon":"121.383488","lat":"31.195505","category":"500","category_name":"未知分类","address":null},{"poiid":"B2094752D16BA0FB489B","title":"虹桥国际机场T1","lon":"121.386619","lat":"31.191642","category":"500","category_name":"未知分类","address":null},{"poiid":"B2094757D16BA3FC499E","title":"谷道养生","lon":"121.390036","lat":"31.197663","category":"148","category_name":"美容美发店","address":"上海长宁路1778号"},{"poiid":"B2094757D16FA4F5419C","title":"皖南农家","lon":"121.38541","lat":"31.19076","category":"260","category_name":"其他","address":"闵行区虹梅路3338弄2号虹梅休闲街35号(近延安西路)"},{"poiid":"B2094654D56BA6FA409A","title":"东湖小区(北门)","lon":"121.39025","lat":"31.19848","category":"47","category_name":"住宅区","address":"虹桥路1776弄1-16号"},{"poiid":"B209475CD768A6F44699","title":"老外街","lon":"121.386451","lat":"31.191183","category":"500","category_name":"未知分类","address":"上海市 老外街"},{"poiid":"B2094757D469A1F8449C","title":"古巴人家 El Cubano","lon":"121.38419794537","lat":"31.19266662797","category":"172","category_name":"酒吧","address":"虹梅路3896号1楼近延安西路"},{"poiid":"B2094757D169A7FF4698","title":"鳥伴長Kizuna","lon":"121.384304586","lat":"31.1922136877","category":"500","category_name":"未知分类","address":"上海市长宁区虹桥路"},{"poiid":"B2094655D26DABF4459F","title":"新苑宾馆(北门)","lon":"121.38748","lat":"31.1977","category":"656","category_name":"大门","address":"虹桥路1900号"},{"poiid":"B2094752D364A1FE459A","title":"小木","lon":"121.38337","lat":"31.19379","category":"95","category_name":"日本料理","address":"闵行区虹梅路3911弄4号楼1楼(近龙溪路地铁站)"},{"poiid":"B2094757D16FABF44293","title":"O2SPA舒博美铺","lon":"121.38996","lat":"31.19808","category":"148","category_name":"美容美发店","address":"长宁区虹桥路1776号东湖小区商务楼(近水城南路)"},{"poiid":"B2094757D464A0F4459A","title":"跋氏面包咖啡屋 虹梅路店 Bastiaan Bakery","lon":"121.386728054","lat":"31.191507793","category":"260","category_name":"其他","address":"闵行区虹梅路3338弄2号虹梅休闲街18号(近延安西路)"},{"poiid":"B2094655D26DA3F8489B","title":"上海西郊公寓酒店(北二门)","lon":"121.38584","lat":"31.1973","category":"656","category_name":"大门","address":"上海市长宁区虹许路1151号（近虹桥路口）"},{"poiid":"B2094655D26DA2F8489C","title":"西郊宾馆花园别墅(东门)","lon":"121.38748","lat":"31.19801","category":"656","category_name":"大门","address":"虹桥路1919"},{"poiid":"B2094655D26DA3F84792","title":"东湖别墅(南门)","lon":"121.38436","lat":"31.19705","category":"48","category_name":"楼宇大门","address":"虹桥路1985"},{"poiid":"B2094757D16CABFD4992","title":"上海日本人学校（虹桥）","lon":"121.385760564","lat":"31.1991941353","category":"500","category_name":"未知分类","address":"上海虹梅路3185号"},{"poiid":"B2094654D564A1FD4392","title":"The Barn","lon":"121.38729","lat":"31.19128","category":"172","category_name":"酒吧","address":"虹梅路3338弄19临"},{"poiid":"B2094757D66CA7FC459C","title":"806路(虹桥路虹许路)","lon":"121.39052758","lat":"31.19851681","category":"500","category_name":"未知分类","address":"上海市长宁区虹桥路虹许路"},{"poiid":"B2094757D16DA7FC4599","title":"创意顶顶儿童视觉艺术","lon":"121.38940558","lat":"31.191217668","category":"500","category_name":"未知分类","address":"上海虹许路"},{"poiid":"B2094655D265A2FE409A","title":"名豪酒窖","lon":"121.38512","lat":"31.19151","category":"136","category_name":"烟酒专卖店","address":"虹梅路3820-1临"},{"poiid":"B2094655D26DA2FF4799","title":"世纪虹苑(北门)","lon":"121.3898","lat":"31.19826","category":"48","category_name":"楼宇大门","address":"虹桥路1778弄"},{"poiid":"B2094757D569A3FC449C","title":"西郊宾馆三号楼","lon":"121.3870619","lat":"31.19837889","category":"251","category_name":"出行住宿","address":"虹桥路1921号"},{"poiid":"B2094654D56BA6FD459D","title":"虹桥中洋公寓(西门)","lon":"121.38365","lat":"31.19357","category":"48","category_name":"楼宇大门","address":"虹梅路3896"},{"poiid":"B2094655D36DA6FF4892","title":"上海仙霞网球馆","lon":"121.38875","lat":"31.19911","category":"248","category_name":"生活娱乐","address":"长宁区虹桥路1885号（近虹许路）"},{"poiid":"B2094654D56BA6FD4693","title":"西郊宾馆花园别墅(南门)","lon":"121.38429","lat":"31.19704","category":"656","category_name":"大门","address":"虹桥路1985"},{"poiid":"B2094750D76EA7FA479E","title":"Icoffee","lon":"121.384","lat":"31.193","category":"260","category_name":"其他","address":"长宁区虹梅路3898号"},{"poiid":"B2094655D268A4F8499D","title":"宝石公寓(南门)","lon":"121.39163","lat":"31.19502","category":"656","category_name":"大门","address":""},{"poiid":"B2094655D268A4F8499C","title":"钻石公寓(南门)","lon":"121.39163","lat":"31.19503","category":"656","category_name":"大门","address":""}]