[{"poiid":"B2094757D065A5FA4698","title":"奉贤区钱桥镇","lon":"121.541725","lat":"30.873486","category":"500","category_name":"未知分类","address":"上海奉贤区钱桥"},{"poiid":"B2094655D26DA0F44892","title":"龙泉新村(龙泉路)","lon":"121.54222","lat":"30.8708","category":"47","category_name":"住宅区","address":""},{"poiid":"B2094654DB64A7FE499A","title":"屈臣氏(长丰路店)","lon":"121.54324","lat":"30.87354","category":"118","category_name":"超级市场","address":""},{"poiid":"B2094655D36CA2FF439A","title":"钱桥","lon":"121.54153","lat":"30.8723","category":"38","category_name":"公交车站","address":""},{"poiid":"B2094654DB68ABFD409F","title":"钱桥学校","lon":"121.54266","lat":"30.87251","category":"55","category_name":"中学","address":"近郊奉贤区青村镇钱桥社区长丰路106号"},{"poiid":"B2094654DB64A7FE4898","title":"新华书店","lon":"121.54162","lat":"30.87184","category":"125","category_name":"书店","address":""},{"poiid":"B2094655D26FA3FF4892","title":"钱桥影剧院","lon":"121.541463","lat":"30.87295","category":"178","category_name":"电影院","address":"钱桥镇文化路1号"},{"poiid":"B2094757D568A1FF449D","title":"青村小镇二期(钱桥新苑)","lon":"121.5394889","lat":"30.86968611","category":"47","category_name":"住宅区","address":"奉贤区奉柘公路3288弄浦星公路东侧500米"},{"poiid":"B2094655D26DA5FC489F","title":"钱桥新苑","lon":"121.53901","lat":"30.86973","category":"47","category_name":"住宅区","address":"奉拓公路3288弄"},{"poiid":"B2094654DB6AA6FE4992","title":"中国移动钱桥营业厅","lon":"121.54178","lat":"30.87336","category":"151","category_name":"电讯营业厅","address":"奉贤区钱桥社区振水路56号"},{"poiid":"B2094654DB64A4FF419B","title":"小童星幼儿园","lon":"121.54138","lat":"30.87352","category":"57","category_name":"幼儿园","address":"近郊奉贤区青村镇钱桥社区振水路69号"},{"poiid":"B2094655D36CA2FF439B","title":"钱桥社区","lon":"121.53901","lat":"30.86838","category":"47","category_name":"住宅区","address":""},{"poiid":"B2094654DB64ABFA4598","title":"锦衣玉食","lon":"121.5511","lat":"30.87129","category":"257","category_name":"中餐厅","address":"近郊奉贤区钱桥镇(近奉柘公路)"},{"poiid":"B2094655D26FA5FE439C","title":"凯悦大酒店","lon":"121.54062","lat":"30.87299","category":"250","category_name":"公园户外","address":"奉贤县钱桥镇金钱公路"},{"poiid":"B2094757D66FA7F8409B","title":"浦星公路奉柘公路","lon":"121.53478491","lat":"30.864542781","category":"500","category_name":"未知分类","address":"上海奉贤区"},{"poiid":"B2094655D36CA4FC449E","title":"保境禅寺","lon":"121.53202","lat":"30.86602","category":"38","category_name":"公交车站","address":""},{"poiid":"B2094757D06BA1F84199","title":"星火农场","lon":"121.558595","lat":"30.857494","category":"500","category_name":"未知分类","address":"上海奉贤区海湾镇"},{"poiid":"B2094655D26BA0FE419D","title":"世茂爱马尚郡","lon":"121.55832","lat":"30.85744","category":"47","category_name":"住宅区","address":"奉贤民乐路28弄"},{"poiid":"B2094655D26DA5FC489E","title":"明城玫瑰园","lon":"121.55962","lat":"30.861191","category":"47","category_name":"住宅区","address":"上海市奉贤区明城路1166弄"},{"poiid":"B2094655D36DA3FA449A","title":"中横港桥","lon":"121.5294","lat":"30.8772","category":"250","category_name":"公园户外","address":""},{"poiid":"B2094757D165A0F54198","title":"上海中西三维药业有限公司星火基地","lon":"121.553241816","lat":"30.855004064","category":"46","category_name":"楼宇","address":"上海市奉贤区星火开发区白云路3号"},{"poiid":"B2094654DB68A4F54698","title":"进纺工业(上海)有限公司生活园区","lon":"121.56163","lat":"30.86242","category":"47","category_name":"住宅区","address":""},{"poiid":"B2094655D36CA0FD4992","title":"金玉村","lon":"121.53144","lat":"30.88523","category":"38","category_name":"公交车站","address":""},{"poiid":"B2094757D165A5FE4792","title":"侧方移位倒车练习点(星火教练场)","lon":"121.56194315","lat":"30.872340581","category":"500","category_name":"未知分类","address":null},{"poiid":"B2094655D26EABFF4598","title":"中国电信(星火营业厅)","lon":"121.55855","lat":"30.85742","category":"151","category_name":"电讯营业厅","address":"奉贤区星火开发区民乐路101号"},{"poiid":"B2094757D16EA4FB4598","title":"世茂爱马尚郡售楼处","lon":"121.546819","lat":"30.853467","category":"500","category_name":"未知分类","address":"上海奉闲区民乐路中心路口"},{"poiid":"B2094654DB68ABFD4393","title":"上海特强汽车紧固件有限公司","lon":"121.54196","lat":"30.85125","category":"263","category_name":"公司","address":""}]