[{"poiid":"B2094757D06EAAF84399","title":"广兰路地铁站","lon":"121.61999759","lat":"31.210776628","category":"36","category_name":"地铁站","address":"上海轨道交通二号线广兰路站"},{"poiid":"B2094757D06FA2F8449B","title":"东郊宾馆","lon":"121.603","lat":"31.2321","category":"213","category_name":"五星级宾馆","address":"浦东新区金科路1800号东郊宾馆内(近龙东大道)"},{"poiid":"B2094757D06EAAF94799","title":"妈妈糖休闲咖啡馆 mamatown","lon":"121.62242","lat":"31.21869","category":"94","category_name":"西餐厅","address":"浦东新区青桐路199弄中芯花园23号"},{"poiid":"B2094757D068A2FF459C","title":"张江出入境接待大厅","lon":"121.61040415","lat":"31.216254419","category":"500","category_name":"未知分类","address":"上海张江路39号"},{"poiid":"B2094757D06FA1FC499C","title":"动漫博物馆","lon":"121.611773","lat":"31.212253","category":"182","category_name":"博物馆","address":"浦东新区张江路69号(近丹桂路)"},{"poiid":"B2094655D36DA1F4479E","title":"香楠小区","lon":"121.61279","lat":"31.216309","category":"47","category_name":"住宅区","address":"上海香楠路199弄"},{"poiid":"B2094757D06FA7F4489D","title":"张江行政服务中心","lon":"121.61096954","lat":"31.213911056","category":"46","category_name":"楼宇","address":"上海张江路39号"},{"poiid":"B2094757D465A3F9409B","title":"深山老屋 张江路店","lon":"121.61209","lat":"31.21124","category":"260","category_name":"其他","address":"浦东新区张江路91号(近龙东大道)"},{"poiid":"B2094757D068A0FE439F","title":"中芯国际上海厂","lon":"121.60877","lat":"31.21776","category":"68","category_name":"快餐厅","address":"上海浦东新区张江路18号中芯国际"},{"poiid":"B2094757D064AAF8409C","title":"龙东大道张江路","lon":"121.6085755","lat":"31.2196991","category":"38","category_name":"公交车站","address":"上海龙东大道张江路交叉口"},{"poiid":"B2094757D068A2FB4592","title":"台北雅厨","lon":"121.62232","lat":"31.21868","category":"91","category_name":"台湾菜","address":"浦东新区青桐路199弄中芯花园15号(近广兰路)"},{"poiid":"B2094655D36DA6FD439B","title":"广兰路","lon":"121.61996","lat":"31.21077","category":"38","category_name":"公交车站","address":""},{"poiid":"B2094655D36DA7FB449F","title":"祖冲之路张江路","lon":"121.61147","lat":"31.20692","category":"38","category_name":"公交车站","address":""},{"poiid":"B2094757D06FA4F4479E","title":"友乐达台北精致面馆(张江店)","lon":"121.62252","lat":"31.21871","category":"68","category_name":"快餐厅","address":"浦东新区青桐路199弄中芯花园17号(近广兰路)"},{"poiid":"B2094654DA6AA5FD409F","title":"中芯花园","lon":"121.6208","lat":"31.218477","category":"47","category_name":"住宅区","address":"浦东新区丹桂路345弄"},{"poiid":"B2094654DA6AA5FE459F","title":"汤臣豪庭(香楠路)","lon":"121.61635","lat":"31.21997","category":"47","category_name":"住宅区","address":"广兰路50弄1-54号"},{"poiid":"B2094757D068A0F4499E","title":"惠普全球软件服务中心","lon":"121.60092563","lat":"31.212782197","category":"500","category_name":"未知分类","address":"上海金科路2557号"},{"poiid":"B2094654DB69A7F4449D","title":"陶园","lon":"121.61285","lat":"31.221357","category":"47","category_name":"住宅区","address":"上海市浦东新区龙东大道路2001弄"},{"poiid":"B2094757D069A5FE4493","title":"青霞酒家(青桐路店)","lon":"121.61733","lat":"31.21833","category":"76","category_name":"上海菜","address":"浦东新区青桐路2号(中芯学校对面)"},{"poiid":"B2094654DA6AA6F4439B","title":"上海市公安局浦东分局交通警察支队五大队","lon":"121.60643","lat":"31.2189","category":"250","category_name":"公园户外","address":"龙东大道1920"},{"poiid":"B2094757D06AA5F54799","title":"锦江之星(张江店)","lon":"121.61236","lat":"31.21097","category":"500","category_name":"未知分类","address":"上海市浦东新区张江路91号"},{"poiid":"B2094757D069A6F84498","title":"佳思多食品料理店(张江店)","lon":"121.6148","lat":"31.2139","category":"91","category_name":"台湾菜","address":"浦东新区香楠路399弄2号会所1楼东区(丹桂路香楠路)"},{"poiid":"B2094757D06BAAFD479C","title":"中共上海市浦东新区区委党校","lon":"121.62418597","lat":"31.219276804","category":"260","category_name":"其他","address":"上海市浦东新区龙东大道"},{"poiid":"B2094655D36CA0FE489D","title":"金桥路龙东大道","lon":"121.60806","lat":"31.22096","category":"38","category_name":"公交车站","address":""},{"poiid":"B2094654DA6AA6F4439A","title":"中芯国际集成电路制造(上海)有限公司","lon":"121.60861","lat":"31.21805","category":"263","category_name":"公司","address":"浦东新区张江路18号"},{"poiid":"B2094654DA6AA6F44098","title":"上海浦东张江工业气体供应站","lon":"121.60904","lat":"31.21885","category":"45","category_name":"产业园区","address":"张江路"},{"poiid":"B2094757D16FA1F8439A","title":"中芯学校","lon":"121.617676375","lat":"31.2201014738","category":"253","category_name":"校园生活","address":"上海青桐路169号"},{"poiid":"B2094757D16BA2F84293","title":"浦东交警五大队","lon":"121.6082667","lat":"31.221095768","category":"500","category_name":"未知分类","address":"上海龙阳路张江路路口"},{"poiid":"B2094757D568A1FA459D","title":"汤臣豪庭一期","lon":"121.616355","lat":"31.21997389","category":"47","category_name":"住宅区","address":"上海市浦东新区广兰路50弄"},{"poiid":"B2094654DB65A0F54592","title":"全家便利店(中芯店)","lon":"121.6086","lat":"31.21804","category":"117","category_name":"便民商店/便利店","address":"浦东新区张江路18号"},{"poiid":"B2094655D26BA1F54592","title":"武夷山包糍店","lon":"121.61351","lat":"31.21695","category":"68","category_name":"快餐厅","address":"浦东新区香楠路199弄旁(近香楠小学)"},{"poiid":"B2094757D66FA2FB429C","title":"垃圾回收站","lon":"121.608977","lat":"31.219345","category":"263","category_name":"公司","address":"上海张江路1616弄"},{"poiid":"B2094654DA6AA5FC4692","title":"香楠新村","lon":"121.61374","lat":"31.21756","category":"47","category_name":"住宅区","address":"香楠路65弄33"},{"poiid":"B2094757D66DA5F54892","title":"977路金桥路龙东大道站","lon":"121.60806657","lat":"31.220963834","category":"500","category_name":"未知分类","address":"上海977路桂家宅站"},{"poiid":"B2094757D66DA2F5409B","title":"加油站","lon":"121.607458975","lat":"31.2198768185","category":"500","category_name":"未知分类","address":"上海市浦东新区龙东大道"},{"poiid":"B2094654DA6AA6F44398","title":"张江派出所","lon":"121.60643","lat":"31.2189","category":"609","category_name":"警察局","address":"浦东新区龙东大道1920号"},{"poiid":"B2094655D36CA1F8459E","title":"龙东大道广兰路","lon":"121.61615","lat":"31.22108","category":"38","category_name":"公交车站","address":""},{"poiid":"B2094757D06AA1F84299","title":"资生堂(中国)培训中心","lon":"121.60113697","lat":"31.218220779","category":"500","category_name":"未知分类","address":"上海市浦东新区龙东大道1288号"},{"poiid":"B2094757D165A7FD4192","title":"浦东新区税务局第九税务所","lon":"121.609585975","lat":"31.2164417382","category":"500","category_name":"未知分类","address":"上海市浦东新区张江路39号3号楼"},{"poiid":"B2094757D568A0F9409E","title":"川鸿川菜馆","lon":"121.6175611","lat":"31.21861194","category":"71","category_name":"四川菜","address":"浦东新区广兰路香楠小区青桐路10号(中芯学校对面)"},{"poiid":"B2094655D36DA1F44798","title":"香楠路丹桂路","lon":"121.61344","lat":"31.21634","category":"38","category_name":"公交车站","address":""},{"poiid":"B2094654DA6AA7F9429F","title":"亮丽百分百","lon":"121.61235","lat":"31.224","category":"148","category_name":"美容美发店","address":""},{"poiid":"B2094757D168A4FD4899","title":"中华牛肉面","lon":"121.62205","lat":"31.21869","category":"68","category_name":"快餐厅","address":"浦东新区青桐路199弄"},{"poiid":"B2094654DA6AA1F9469E","title":"东方花园(金桥路)","lon":"121.60714","lat":"31.22477","category":"47","category_name":"住宅区","address":"金桥路"},{"poiid":"B2094757D16EA7F5479F","title":"深山老屋土菜","lon":"121.60945217","lat":"31.215785822","category":"247","category_name":"餐饮美食","address":"上海張江路91號"},{"poiid":"B2094757D66CAAF4469D","title":"东方别墅","lon":"121.60617578","lat":"31.22595314","category":"47","category_name":"住宅区","address":"上海金桥路3219"},{"poiid":"B2094655D36CA0FE489B","title":"金桥路三桥","lon":"121.6054","lat":"31.23201","category":"38","category_name":"公交车站","address":""},{"poiid":"B2094655D36DA7FD4492","title":"张江路郭守敬路","lon":"121.61051","lat":"31.2142","category":"38","category_name":"公交车站","address":""},{"poiid":"B2094757D06AA3FB479E","title":"感恩堂","lon":"121.62321","lat":"31.21502","category":"500","category_name":"未知分类","address":"浦东新区丹桂路700号(丹桂路青桐路)"},{"poiid":"B2094757D16EA6FC419A","title":"张江高科实验小学","lon":"121.613740975","lat":"31.214896702","category":"500","category_name":"未知分类","address":"浦东新区香楠路295号(丹桂路香楠路)"},{"poiid":"B2094757D06EAAF84399","title":"广兰路地铁站","lon":"121.61999759","lat":"31.210776628","category":"36","category_name":"地铁站","address":"上海轨道交通二号线广兰路站"},{"poiid":"B2094757D06FA2F8449B","title":"东郊宾馆","lon":"121.603","lat":"31.2321","category":"213","category_name":"五星级宾馆","address":"浦东新区金科路1800号东郊宾馆内(近龙东大道)"},{"poiid":"B2094757D06EAAF94799","title":"妈妈糖休闲咖啡馆 mamatown","lon":"121.62242","lat":"31.21869","category":"94","category_name":"西餐厅","address":"浦东新区青桐路199弄中芯花园23号"},{"poiid":"B2094757D068A2FF459C","title":"张江出入境接待大厅","lon":"121.61040415","lat":"31.216254419","category":"500","category_name":"未知分类","address":"上海张江路39号"},{"poiid":"B2094757D06FA1FC499C","title":"动漫博物馆","lon":"121.611773","lat":"31.212253","category":"182","category_name":"博物馆","address":"浦东新区张江路69号(近丹桂路)"},{"poiid":"B2094655D36DA1F4479E","title":"香楠小区","lon":"121.61279","lat":"31.216309","category":"47","category_name":"住宅区","address":"上海香楠路199弄"},{"poiid":"B2094757D06FA7F4489D","title":"张江行政服务中心","lon":"121.61096954","lat":"31.213911056","category":"46","category_name":"楼宇","address":"上海张江路39号"},{"poiid":"B2094757D465A3F9409B","title":"深山老屋 张江路店","lon":"121.61209","lat":"31.21124","category":"260","category_name":"其他","address":"浦东新区张江路91号(近龙东大道)"},{"poiid":"B2094757D068A0FE439F","title":"中芯国际上海厂","lon":"121.60877","lat":"31.21776","category":"68","category_name":"快餐厅","address":"上海浦东新区张江路18号中芯国际"},{"poiid":"B2094757D064AAF8409C","title":"龙东大道张江路","lon":"121.6085755","lat":"31.2196991","category":"38","category_name":"公交车站","address":"上海龙东大道张江路交叉口"},{"poiid":"B2094757D068A2FB4592","title":"台北雅厨","lon":"121.62232","lat":"31.21868","category":"91","category_name":"台湾菜","address":"浦东新区青桐路199弄中芯花园15号(近广兰路)"},{"poiid":"B2094655D36DA6FD439B","title":"广兰路","lon":"121.61996","lat":"31.21077","category":"38","category_name":"公交车站","address":""},{"poiid":"B2094655D36DA7FB449F","title":"祖冲之路张江路","lon":"121.61147","lat":"31.20692","category":"38","category_name":"公交车站","address":""},{"poiid":"B2094757D06FA4F4479E","title":"友乐达台北精致面馆(张江店)","lon":"121.62252","lat":"31.21871","category":"68","category_name":"快餐厅","address":"浦东新区青桐路199弄中芯花园17号(近广兰路)"},{"poiid":"B2094654DA6AA5FD409F","title":"中芯花园","lon":"121.6208","lat":"31.218477","category":"47","category_name":"住宅区","address":"浦东新区丹桂路345弄"},{"poiid":"B2094654DA6AA5FE459F","title":"汤臣豪庭(香楠路)","lon":"121.61635","lat":"31.21997","category":"47","category_name":"住宅区","address":"广兰路50弄1-54号"},{"poiid":"B2094757D068A0F4499E","title":"惠普全球软件服务中心","lon":"121.60092563","lat":"31.212782197","category":"500","category_name":"未知分类","address":"上海金科路2557号"},{"poiid":"B2094654DB69A7F4449D","title":"陶园","lon":"121.61285","lat":"31.221357","category":"47","category_name":"住宅区","address":"上海市浦东新区龙东大道路2001弄"},{"poiid":"B2094757D069A5FE4493","title":"青霞酒家(青桐路店)","lon":"121.61733","lat":"31.21833","category":"76","category_name":"上海菜","address":"浦东新区青桐路2号(中芯学校对面)"},{"poiid":"B2094654DA6AA6F4439B","title":"上海市公安局浦东分局交通警察支队五大队","lon":"121.60643","lat":"31.2189","category":"250","category_name":"公园户外","address":"龙东大道1920"},{"poiid":"B2094757D06AA5F54799","title":"锦江之星(张江店)","lon":"121.61236","lat":"31.21097","category":"500","category_name":"未知分类","address":"上海市浦东新区张江路91号"},{"poiid":"B2094757D069A6F84498","title":"佳思多食品料理店(张江店)","lon":"121.6148","lat":"31.2139","category":"91","category_name":"台湾菜","address":"浦东新区香楠路399弄2号会所1楼东区(丹桂路香楠路)"},{"poiid":"B2094757D06BAAFD479C","title":"中共上海市浦东新区区委党校","lon":"121.62418597","lat":"31.219276804","category":"260","category_name":"其他","address":"上海市浦东新区龙东大道"},{"poiid":"B2094655D36CA0FE489D","title":"金桥路龙东大道","lon":"121.60806","lat":"31.22096","category":"38","category_name":"公交车站","address":""},{"poiid":"B2094654DA6AA6F4439A","title":"中芯国际集成电路制造(上海)有限公司","lon":"121.60861","lat":"31.21805","category":"263","category_name":"公司","address":"浦东新区张江路18号"},{"poiid":"B2094654DA6AA6F44098","title":"上海浦东张江工业气体供应站","lon":"121.60904","lat":"31.21885","category":"45","category_name":"产业园区","address":"张江路"},{"poiid":"B2094757D16FA1F8439A","title":"中芯学校","lon":"121.617676375","lat":"31.2201014738","category":"253","category_name":"校园生活","address":"上海青桐路169号"},{"poiid":"B2094757D16BA2F84293","title":"浦东交警五大队","lon":"121.6082667","lat":"31.221095768","category":"500","category_name":"未知分类","address":"上海龙阳路张江路路口"},{"poiid":"B2094757D568A1FA459D","title":"汤臣豪庭一期","lon":"121.616355","lat":"31.21997389","category":"47","category_name":"住宅区","address":"上海市浦东新区广兰路50弄"},{"poiid":"B2094654DB65A0F54592","title":"全家便利店(中芯店)","lon":"121.6086","lat":"31.21804","category":"117","category_name":"便民商店/便利店","address":"浦东新区张江路18号"},{"poiid":"B2094655D26BA1F54592","title":"武夷山包糍店","lon":"121.61351","lat":"31.21695","category":"68","category_name":"快餐厅","address":"浦东新区香楠路199弄旁(近香楠小学)"},{"poiid":"B2094757D66FA2FB429C","title":"垃圾回收站","lon":"121.608977","lat":"31.219345","category":"263","category_name":"公司","address":"上海张江路1616弄"},{"poiid":"B2094654DA6AA5FC4692","title":"香楠新村","lon":"121.61374","lat":"31.21756","category":"47","category_name":"住宅区","address":"香楠路65弄33"},{"poiid":"B2094757D66DA5F54892","title":"977路金桥路龙东大道站","lon":"121.60806657","lat":"31.220963834","category":"500","category_name":"未知分类","address":"上海977路桂家宅站"},{"poiid":"B2094757D66DA2F5409B","title":"加油站","lon":"121.607458975","lat":"31.2198768185","category":"500","category_name":"未知分类","address":"上海市浦东新区龙东大道"},{"poiid":"B2094654DA6AA6F44398","title":"张江派出所","lon":"121.60643","lat":"31.2189","category":"609","category_name":"警察局","address":"浦东新区龙东大道1920号"},{"poiid":"B2094655D36CA1F8459E","title":"龙东大道广兰路","lon":"121.61615","lat":"31.22108","category":"38","category_name":"公交车站","address":""},{"poiid":"B2094757D06AA1F84299","title":"资生堂(中国)培训中心","lon":"121.60113697","lat":"31.218220779","category":"500","category_name":"未知分类","address":"上海市浦东新区龙东大道1288号"},{"poiid":"B2094757D165A7FD4192","title":"浦东新区税务局第九税务所","lon":"121.609585975","lat":"31.2164417382","category":"500","category_name":"未知分类","address":"上海市浦东新区张江路39号3号楼"},{"poiid":"B2094757D568A0F9409E","title":"川鸿川菜馆","lon":"121.6175611","lat":"31.21861194","category":"71","category_name":"四川菜","address":"浦东新区广兰路香楠小区青桐路10号(中芯学校对面)"},{"poiid":"B2094655D36DA1F44798","title":"香楠路丹桂路","lon":"121.61344","lat":"31.21634","category":"38","category_name":"公交车站","address":""},{"poiid":"B2094654DA6AA7F9429F","title":"亮丽百分百","lon":"121.61235","lat":"31.224","category":"148","category_name":"美容美发店","address":""},{"poiid":"B2094757D168A4FD4899","title":"中华牛肉面","lon":"121.62205","lat":"31.21869","category":"68","category_name":"快餐厅","address":"浦东新区青桐路199弄"},{"poiid":"B2094654DA6AA1F9469E","title":"东方花园(金桥路)","lon":"121.60714","lat":"31.22477","category":"47","category_name":"住宅区","address":"金桥路"},{"poiid":"B2094757D16EA7F5479F","title":"深山老屋土菜","lon":"121.60945217","lat":"31.215785822","category":"247","category_name":"餐饮美食","address":"上海張江路91號"},{"poiid":"B2094757D66CAAF4469D","title":"东方别墅","lon":"121.60617578","lat":"31.22595314","category":"47","category_name":"住宅区","address":"上海金桥路3219"},{"poiid":"B2094655D36CA0FE489B","title":"金桥路三桥","lon":"121.6054","lat":"31.23201","category":"38","category_name":"公交车站","address":""},{"poiid":"B2094655D36DA7FD4492","title":"张江路郭守敬路","lon":"121.61051","lat":"31.2142","category":"38","category_name":"公交车站","address":""},{"poiid":"B2094757D06AA3FB479E","title":"感恩堂","lon":"121.62321","lat":"31.21502","category":"500","category_name":"未知分类","address":"浦东新区丹桂路700号(丹桂路青桐路)"},{"poiid":"B2094757D16EA6FC419A","title":"张江高科实验小学","lon":"121.613740975","lat":"31.214896702","category":"500","category_name":"未知分类","address":"浦东新区香楠路295号(丹桂路香楠路)"},{"poiid":"B2094757D06EAAF84399","title":"广兰路地铁站","lon":"121.61999759","lat":"31.210776628","category":"36","category_name":"地铁站","address":"上海轨道交通二号线广兰路站"},{"poiid":"B2094757D06FA2F8449B","title":"东郊宾馆","lon":"121.603","lat":"31.2321","category":"213","category_name":"五星级宾馆","address":"浦东新区金科路1800号东郊宾馆内(近龙东大道)"},{"poiid":"B2094757D06EAAF94799","title":"妈妈糖休闲咖啡馆 mamatown","lon":"121.62242","lat":"31.21869","category":"94","category_name":"西餐厅","address":"浦东新区青桐路199弄中芯花园23号"},{"poiid":"B2094757D068A2FF459C","title":"张江出入境接待大厅","lon":"121.61040415","lat":"31.216254419","category":"500","category_name":"未知分类","address":"上海张江路39号"},{"poiid":"B2094757D06FA1FC499C","title":"动漫博物馆","lon":"121.611773","lat":"31.212253","category":"182","category_name":"博物馆","address":"浦东新区张江路69号(近丹桂路)"},{"poiid":"B2094655D36DA1F4479E","title":"香楠小区","lon":"121.61279","lat":"31.216309","category":"47","category_name":"住宅区","address":"上海香楠路199弄"},{"poiid":"B2094757D06FA7F4489D","title":"张江行政服务中心","lon":"121.61096954","lat":"31.213911056","category":"46","category_name":"楼宇","address":"上海张江路39号"},{"poiid":"B2094757D465A3F9409B","title":"深山老屋 张江路店","lon":"121.61209","lat":"31.21124","category":"260","category_name":"其他","address":"浦东新区张江路91号(近龙东大道)"},{"poiid":"B2094757D068A0FE439F","title":"中芯国际上海厂","lon":"121.60877","lat":"31.21776","category":"68","category_name":"快餐厅","address":"上海浦东新区张江路18号中芯国际"},{"poiid":"B2094757D064AAF8409C","title":"龙东大道张江路","lon":"121.6085755","lat":"31.2196991","category":"38","category_name":"公交车站","address":"上海龙东大道张江路交叉口"},{"poiid":"B2094757D068A2FB4592","title":"台北雅厨","lon":"121.62232","lat":"31.21868","category":"91","category_name":"台湾菜","address":"浦东新区青桐路199弄中芯花园15号(近广兰路)"},{"poiid":"B2094655D36DA6FD439B","title":"广兰路","lon":"121.61996","lat":"31.21077","category":"38","category_name":"公交车站","address":""},{"poiid":"B2094655D36DA7FB449F","title":"祖冲之路张江路","lon":"121.61147","lat":"31.20692","category":"38","category_name":"公交车站","address":""},{"poiid":"B2094757D06FA4F4479E","title":"友乐达台北精致面馆(张江店)","lon":"121.62252","lat":"31.21871","category":"68","category_name":"快餐厅","address":"浦东新区青桐路199弄中芯花园17号(近广兰路)"},{"poiid":"B2094654DA6AA5FD409F","title":"中芯花园","lon":"121.6208","lat":"31.218477","category":"47","category_name":"住宅区","address":"浦东新区丹桂路345弄"},{"poiid":"B2094654DA6AA5FE459F","title":"汤臣豪庭(香楠路)","lon":"121.61635","lat":"31.21997","category":"47","category_name":"住宅区","address":"广兰路50弄1-54号"},{"poiid":"B2094757D068A0F4499E","title":"惠普全球软件服务中心","lon":"121.60092563","lat":"31.212782197","category":"500","category_name":"未知分类","address":"上海金科路2557号"},{"poiid":"B2094654DB69A7F4449D","title":"陶园","lon":"121.61285","lat":"31.221357","category":"47","category_name":"住宅区","address":"上海市浦东新区龙东大道路2001弄"},{"poiid":"B2094757D069A5FE4493","title":"青霞酒家(青桐路店)","lon":"121.61733","lat":"31.21833","category":"76","category_name":"上海菜","address":"浦东新区青桐路2号(中芯学校对面)"},{"poiid":"B2094654DA6AA6F4439B","title":"上海市公安局浦东分局交通警察支队五大队","lon":"121.60643","lat":"31.2189","category":"250","category_name":"公园户外","address":"龙东大道1920"},{"poiid":"B2094757D06AA5F54799","title":"锦江之星(张江店)","lon":"121.61236","lat":"31.21097","category":"500","category_name":"未知分类","address":"上海市浦东新区张江路91号"},{"poiid":"B2094757D069A6F84498","title":"佳思多食品料理店(张江店)","lon":"121.6148","lat":"31.2139","category":"91","category_name":"台湾菜","address":"浦东新区香楠路399弄2号会所1楼东区(丹桂路香楠路)"},{"poiid":"B2094757D06BAAFD479C","title":"中共上海市浦东新区区委党校","lon":"121.62418597","lat":"31.219276804","category":"260","category_name":"其他","address":"上海市浦东新区龙东大道"},{"poiid":"B2094655D36CA0FE489D","title":"金桥路龙东大道","lon":"121.60806","lat":"31.22096","category":"38","category_name":"公交车站","address":""},{"poiid":"B2094654DA6AA6F4439A","title":"中芯国际集成电路制造(上海)有限公司","lon":"121.60861","lat":"31.21805","category":"263","category_name":"公司","address":"浦东新区张江路18号"},{"poiid":"B2094654DA6AA6F44098","title":"上海浦东张江工业气体供应站","lon":"121.60904","lat":"31.21885","category":"45","category_name":"产业园区","address":"张江路"},{"poiid":"B2094757D16FA1F8439A","title":"中芯学校","lon":"121.617676375","lat":"31.2201014738","category":"253","category_name":"校园生活","address":"上海青桐路169号"},{"poiid":"B2094757D16BA2F84293","title":"浦东交警五大队","lon":"121.6082667","lat":"31.221095768","category":"500","category_name":"未知分类","address":"上海龙阳路张江路路口"},{"poiid":"B2094757D568A1FA459D","title":"汤臣豪庭一期","lon":"121.616355","lat":"31.21997389","category":"47","category_name":"住宅区","address":"上海市浦东新区广兰路50弄"},{"poiid":"B2094654DB65A0F54592","title":"全家便利店(中芯店)","lon":"121.6086","lat":"31.21804","category":"117","category_name":"便民商店/便利店","address":"浦东新区张江路18号"},{"poiid":"B2094655D26BA1F54592","title":"武夷山包糍店","lon":"121.61351","lat":"31.21695","category":"68","category_name":"快餐厅","address":"浦东新区香楠路199弄旁(近香楠小学)"},{"poiid":"B2094757D66FA2FB429C","title":"垃圾回收站","lon":"121.608977","lat":"31.219345","category":"263","category_name":"公司","address":"上海张江路1616弄"},{"poiid":"B2094654DA6AA5FC4692","title":"香楠新村","lon":"121.61374","lat":"31.21756","category":"47","category_name":"住宅区","address":"香楠路65弄33"},{"poiid":"B2094757D66DA5F54892","title":"977路金桥路龙东大道站","lon":"121.60806657","lat":"31.220963834","category":"500","category_name":"未知分类","address":"上海977路桂家宅站"},{"poiid":"B2094757D66DA2F5409B","title":"加油站","lon":"121.607458975","lat":"31.2198768185","category":"500","category_name":"未知分类","address":"上海市浦东新区龙东大道"},{"poiid":"B2094654DA6AA6F44398","title":"张江派出所","lon":"121.60643","lat":"31.2189","category":"609","category_name":"警察局","address":"浦东新区龙东大道1920号"},{"poiid":"B2094655D36CA1F8459E","title":"龙东大道广兰路","lon":"121.61615","lat":"31.22108","category":"38","category_name":"公交车站","address":""},{"poiid":"B2094757D06AA1F84299","title":"资生堂(中国)培训中心","lon":"121.60113697","lat":"31.218220779","category":"500","category_name":"未知分类","address":"上海市浦东新区龙东大道1288号"},{"poiid":"B2094757D165A7FD4192","title":"浦东新区税务局第九税务所","lon":"121.609585975","lat":"31.2164417382","category":"500","category_name":"未知分类","address":"上海市浦东新区张江路39号3号楼"},{"poiid":"B2094757D568A0F9409E","title":"川鸿川菜馆","lon":"121.6175611","lat":"31.21861194","category":"71","category_name":"四川菜","address":"浦东新区广兰路香楠小区青桐路10号(中芯学校对面)"},{"poiid":"B2094655D36DA1F44798","title":"香楠路丹桂路","lon":"121.61344","lat":"31.21634","category":"38","category_name":"公交车站","address":""},{"poiid":"B2094654DA6AA7F9429F","title":"亮丽百分百","lon":"121.61235","lat":"31.224","category":"148","category_name":"美容美发店","address":""},{"poiid":"B2094757D168A4FD4899","title":"中华牛肉面","lon":"121.62205","lat":"31.21869","category":"68","category_name":"快餐厅","address":"浦东新区青桐路199弄"},{"poiid":"B2094654DA6AA1F9469E","title":"东方花园(金桥路)","lon":"121.60714","lat":"31.22477","category":"47","category_name":"住宅区","address":"金桥路"},{"poiid":"B2094757D16EA7F5479F","title":"深山老屋土菜","lon":"121.60945217","lat":"31.215785822","category":"247","category_name":"餐饮美食","address":"上海張江路91號"},{"poiid":"B2094757D66CAAF4469D","title":"东方别墅","lon":"121.60617578","lat":"31.22595314","category":"47","category_name":"住宅区","address":"上海金桥路3219"},{"poiid":"B2094655D36CA0FE489B","title":"金桥路三桥","lon":"121.6054","lat":"31.23201","category":"38","category_name":"公交车站","address":""},{"poiid":"B2094655D36DA7FD4492","title":"张江路郭守敬路","lon":"121.61051","lat":"31.2142","category":"38","category_name":"公交车站","address":""},{"poiid":"B2094757D06AA3FB479E","title":"感恩堂","lon":"121.62321","lat":"31.21502","category":"500","category_name":"未知分类","address":"浦东新区丹桂路700号(丹桂路青桐路)"},{"poiid":"B2094757D16EA6FC419A","title":"张江高科实验小学","lon":"121.613740975","lat":"31.214896702","category":"500","category_name":"未知分类","address":"浦东新区香楠路295号(丹桂路香楠路)"},{"poiid":"B2094757D06EAAF84399","title":"广兰路地铁站","lon":"121.61999759","lat":"31.210776628","category":"36","category_name":"地铁站","address":"上海轨道交通二号线广兰路站"},{"poiid":"B2094757D06FA2F8449B","title":"东郊宾馆","lon":"121.603","lat":"31.2321","category":"213","category_name":"五星级宾馆","address":"浦东新区金科路1800号东郊宾馆内(近龙东大道)"},{"poiid":"B2094757D06EAAF94799","title":"妈妈糖休闲咖啡馆 mamatown","lon":"121.62242","lat":"31.21869","category":"94","category_name":"西餐厅","address":"浦东新区青桐路199弄中芯花园23号"},{"poiid":"B2094757D068A2FF459C","title":"张江出入境接待大厅","lon":"121.61040415","lat":"31.216254419","category":"500","category_name":"未知分类","address":"上海张江路39号"},{"poiid":"B2094757D06FA1FC499C","title":"动漫博物馆","lon":"121.611773","lat":"31.212253","category":"182","category_name":"博物馆","address":"浦东新区张江路69号(近丹桂路)"},{"poiid":"B2094655D36DA1F4479E","title":"香楠小区","lon":"121.61279","lat":"31.216309","category":"47","category_name":"住宅区","address":"上海香楠路199弄"},{"poiid":"B2094757D06FA7F4489D","title":"张江行政服务中心","lon":"121.61096954","lat":"31.213911056","category":"46","category_name":"楼宇","address":"上海张江路39号"},{"poiid":"B2094757D465A3F9409B","title":"深山老屋 张江路店","lon":"121.61209","lat":"31.21124","category":"260","category_name":"其他","address":"浦东新区张江路91号(近龙东大道)"},{"poiid":"B2094757D068A0FE439F","title":"中芯国际上海厂","lon":"121.60877","lat":"31.21776","category":"68","category_name":"快餐厅","address":"上海浦东新区张江路18号中芯国际"},{"poiid":"B2094757D064AAF8409C","title":"龙东大道张江路","lon":"121.6085755","lat":"31.2196991","category":"38","category_name":"公交车站","address":"上海龙东大道张江路交叉口"},{"poiid":"B2094757D068A2FB4592","title":"台北雅厨","lon":"121.62232","lat":"31.21868","category":"91","category_name":"台湾菜","address":"浦东新区青桐路199弄中芯花园15号(近广兰路)"},{"poiid":"B2094655D36DA6FD439B","title":"广兰路","lon":"121.61996","lat":"31.21077","category":"38","category_name":"公交车站","address":""},{"poiid":"B2094655D36DA7FB449F","title":"祖冲之路张江路","lon":"121.61147","lat":"31.20692","category":"38","category_name":"公交车站","address":""},{"poiid":"B2094757D06FA4F4479E","title":"友乐达台北精致面馆(张江店)","lon":"121.62252","lat":"31.21871","category":"68","category_name":"快餐厅","address":"浦东新区青桐路199弄中芯花园17号(近广兰路)"},{"poiid":"B2094654DA6AA5FD409F","title":"中芯花园","lon":"121.6208","lat":"31.218477","category":"47","category_name":"住宅区","address":"浦东新区丹桂路345弄"},{"poiid":"B2094654DA6AA5FE459F","title":"汤臣豪庭(香楠路)","lon":"121.61635","lat":"31.21997","category":"47","category_name":"住宅区","address":"广兰路50弄1-54号"},{"poiid":"B2094757D068A0F4499E","title":"惠普全球软件服务中心","lon":"121.60092563","lat":"31.212782197","category":"500","category_name":"未知分类","address":"上海金科路2557号"},{"poiid":"B2094654DB69A7F4449D","title":"陶园","lon":"121.61285","lat":"31.221357","category":"47","category_name":"住宅区","address":"上海市浦东新区龙东大道路2001弄"},{"poiid":"B2094757D069A5FE4493","title":"青霞酒家(青桐路店)","lon":"121.61733","lat":"31.21833","category":"76","category_name":"上海菜","address":"浦东新区青桐路2号(中芯学校对面)"},{"poiid":"B2094654DA6AA6F4439B","title":"上海市公安局浦东分局交通警察支队五大队","lon":"121.60643","lat":"31.2189","category":"250","category_name":"公园户外","address":"龙东大道1920"},{"poiid":"B2094757D06AA5F54799","title":"锦江之星(张江店)","lon":"121.61236","lat":"31.21097","category":"500","category_name":"未知分类","address":"上海市浦东新区张江路91号"},{"poiid":"B2094757D069A6F84498","title":"佳思多食品料理店(张江店)","lon":"121.6148","lat":"31.2139","category":"91","category_name":"台湾菜","address":"浦东新区香楠路399弄2号会所1楼东区(丹桂路香楠路)"},{"poiid":"B2094757D06BAAFD479C","title":"中共上海市浦东新区区委党校","lon":"121.62418597","lat":"31.219276804","category":"260","category_name":"其他","address":"上海市浦东新区龙东大道"},{"poiid":"B2094655D36CA0FE489D","title":"金桥路龙东大道","lon":"121.60806","lat":"31.22096","category":"38","category_name":"公交车站","address":""},{"poiid":"B2094654DA6AA6F4439A","title":"中芯国际集成电路制造(上海)有限公司","lon":"121.60861","lat":"31.21805","category":"263","category_name":"公司","address":"浦东新区张江路18号"},{"poiid":"B2094654DA6AA6F44098","title":"上海浦东张江工业气体供应站","lon":"121.60904","lat":"31.21885","category":"45","category_name":"产业园区","address":"张江路"},{"poiid":"B2094757D16FA1F8439A","title":"中芯学校","lon":"121.617676375","lat":"31.2201014738","category":"253","category_name":"校园生活","address":"上海青桐路169号"},{"poiid":"B2094757D16BA2F84293","title":"浦东交警五大队","lon":"121.6082667","lat":"31.221095768","category":"500","category_name":"未知分类","address":"上海龙阳路张江路路口"},{"poiid":"B2094757D568A1FA459D","title":"汤臣豪庭一期","lon":"121.616355","lat":"31.21997389","category":"47","category_name":"住宅区","address":"上海市浦东新区广兰路50弄"},{"poiid":"B2094654DB65A0F54592","title":"全家便利店(中芯店)","lon":"121.6086","lat":"31.21804","category":"117","category_name":"便民商店/便利店","address":"浦东新区张江路18号"},{"poiid":"B2094655D26BA1F54592","title":"武夷山包糍店","lon":"121.61351","lat":"31.21695","category":"68","category_name":"快餐厅","address":"浦东新区香楠路199弄旁(近香楠小学)"},{"poiid":"B2094757D66FA2FB429C","title":"垃圾回收站","lon":"121.608977","lat":"31.219345","category":"263","category_name":"公司","address":"上海张江路1616弄"},{"poiid":"B2094654DA6AA5FC4692","title":"香楠新村","lon":"121.61374","lat":"31.21756","category":"47","category_name":"住宅区","address":"香楠路65弄33"},{"poiid":"B2094757D66DA5F54892","title":"977路金桥路龙东大道站","lon":"121.60806657","lat":"31.220963834","category":"500","category_name":"未知分类","address":"上海977路桂家宅站"},{"poiid":"B2094757D66DA2F5409B","title":"加油站","lon":"121.607458975","lat":"31.2198768185","category":"500","category_name":"未知分类","address":"上海市浦东新区龙东大道"},{"poiid":"B2094654DA6AA6F44398","title":"张江派出所","lon":"121.60643","lat":"31.2189","category":"609","category_name":"警察局","address":"浦东新区龙东大道1920号"},{"poiid":"B2094655D36CA1F8459E","title":"龙东大道广兰路","lon":"121.61615","lat":"31.22108","category":"38","category_name":"公交车站","address":""},{"poiid":"B2094757D06AA1F84299","title":"资生堂(中国)培训中心","lon":"121.60113697","lat":"31.218220779","category":"500","category_name":"未知分类","address":"上海市浦东新区龙东大道1288号"},{"poiid":"B2094757D165A7FD4192","title":"浦东新区税务局第九税务所","lon":"121.609585975","lat":"31.2164417382","category":"500","category_name":"未知分类","address":"上海市浦东新区张江路39号3号楼"},{"poiid":"B2094757D568A0F9409E","title":"川鸿川菜馆","lon":"121.6175611","lat":"31.21861194","category":"71","category_name":"四川菜","address":"浦东新区广兰路香楠小区青桐路10号(中芯学校对面)"},{"poiid":"B2094655D36DA1F44798","title":"香楠路丹桂路","lon":"121.61344","lat":"31.21634","category":"38","category_name":"公交车站","address":""},{"poiid":"B2094654DA6AA7F9429F","title":"亮丽百分百","lon":"121.61235","lat":"31.224","category":"148","category_name":"美容美发店","address":""},{"poiid":"B2094757D168A4FD4899","title":"中华牛肉面","lon":"121.62205","lat":"31.21869","category":"68","category_name":"快餐厅","address":"浦东新区青桐路199弄"},{"poiid":"B2094654DA6AA1F9469E","title":"东方花园(金桥路)","lon":"121.60714","lat":"31.22477","category":"47","category_name":"住宅区","address":"金桥路"},{"poiid":"B2094757D16EA7F5479F","title":"深山老屋土菜","lon":"121.60945217","lat":"31.215785822","category":"247","category_name":"餐饮美食","address":"上海張江路91號"},{"poiid":"B2094757D66CAAF4469D","title":"东方别墅","lon":"121.60617578","lat":"31.22595314","category":"47","category_name":"住宅区","address":"上海金桥路3219"},{"poiid":"B2094655D36CA0FE489B","title":"金桥路三桥","lon":"121.6054","lat":"31.23201","category":"38","category_name":"公交车站","address":""},{"poiid":"B2094655D36DA7FD4492","title":"张江路郭守敬路","lon":"121.61051","lat":"31.2142","category":"38","category_name":"公交车站","address":""},{"poiid":"B2094757D06AA3FB479E","title":"感恩堂","lon":"121.62321","lat":"31.21502","category":"500","category_name":"未知分类","address":"浦东新区丹桂路700号(丹桂路青桐路)"},{"poiid":"B2094757D16EA6FC419A","title":"张江高科实验小学","lon":"121.613740975","lat":"31.214896702","category":"500","category_name":"未知分类","address":"浦东新区香楠路295号(丹桂路香楠路)"}]