[{"poiid":"B2094655D26EA5F44498","title":"老上海弄堂菜馆(永新店)","lon":"121.44371","lat":"31.19263","category":"76","category_name":"上海菜","address":"徐汇区辛耕路109号永新坊3-4楼"},{"poiid":"B2094757D06FA5F84692","title":"串串香麻辣烫","lon":"121.44614","lat":"31.19354","category":"68","category_name":"快餐厅","address":"徐汇区宛平南路200号(近辛耕路)"},{"poiid":"B2094757D06FA6FD489D","title":"亚都商务楼","lon":"121.444836","lat":"31.195017","category":"46","category_name":"楼宇","address":"上海南丹东路300弄9号"},{"poiid":"B2094757D06FABFE419A","title":"红宝石(南丹东路店)","lon":"121.44537","lat":"31.19082","category":"67","category_name":"甜品店","address":"徐汇区南丹东路55号(近宛平南路)"},{"poiid":"B2094757D06FA3FA459D","title":"呷哺呷哺(永新坊店)","lon":"121.44362058","lat":"31.192620695","category":"86","category_name":"火锅店","address":"徐汇区天钥桥路131号永新坊B1楼15室(近辛耕路)"},{"poiid":"B2094757D06BA2FB409E","title":"西提牛排","lon":"121.44414658","lat":"31.191991683","category":"247","category_name":"餐饮美食","address":"上海市徐汇区肇嘉浜路"},{"poiid":"B2094654DA6DA4F84198","title":"临江豪园","lon":"121.447","lat":"31.1944","category":"47","category_name":"住宅区","address":"上海市徐汇区宛平南路921号"},{"poiid":"B2094751D568A4F84992","title":"沁泰（永新坊店）","lon":"121.444131","lat":"31.19286","category":"247","category_name":"餐饮美食","address":"徐汇区辛耕路109号永新坊1楼(近天钥桥路)"},{"poiid":"B2094757D069A3F54599","title":"斜土路宛平南路","lon":"121.44817258","lat":"31.193041703","category":"500","category_name":"未知分类","address":"上海市徐汇区肇嘉浜路"},{"poiid":"B2094655D26EA2F4449B","title":"衡山小馆斜土路店","lon":"121.44648","lat":"31.1911","category":"72","category_name":"广东菜","address":"徐汇区斜土路2428号海螺花园(近宛平南路)"},{"poiid":"B2094757D068A1F4449D","title":"花乐·神田川","lon":"121.446604928","lat":"31.1918430256","category":"95","category_name":"日本料理","address":"徐汇区斜土路2421号4号楼(近宛平南路)"},{"poiid":"B2094655D36DA1FA4799","title":"致真汇","lon":"121.4438","lat":"31.19245","category":"76","category_name":"上海菜","address":"徐汇区辛耕路109号永新坊1-2楼(近天钥桥路)"},{"poiid":"B2094757D069A3FA4299","title":"提香研磨咖啡","lon":"121.44662799152","lat":"31.193403622937","category":"260","category_name":"其他","address":"徐汇区宛平南路263号(近斜土路)"},{"poiid":"B2094757D068A2FD489A","title":"京世造型(宛平店)","lon":"121.446784","lat":"31.192901","category":"148","category_name":"美容美发店","address":"上海徐汇区宛平南路271号"},{"poiid":"B2094757D16CA7F54292","title":"珞珈瑜伽旗舰店","lon":"121.444092","lat":"31.19347","category":"500","category_name":"未知分类","address":"上海辛耕路88号"},{"poiid":"B2094757D06BA5FB4999","title":"重庆鸡公煲 宛平南路店","lon":"121.445872054","lat":"31.193667793","category":"71","category_name":"四川菜","address":"徐汇区宛平南路162号(宛平南路辛耕路)"},{"poiid":"B2094654DA6DA0FA4099","title":"汇峰大厦","lon":"121.446","lat":"31.1937","category":"46","category_name":"楼宇","address":"天钥桥路380弄20"},{"poiid":"B2094655D26BA2FE489A","title":"宛平南路","lon":"121.44806","lat":"31.19217","category":"38","category_name":"公交车站","address":""},{"poiid":"B2094753DA6EA4FC4592","title":"徐家汇花园","lon":"121.4466297","lat":"31.19322638","category":"47","category_name":"住宅区","address":"宛平南路255弄"},{"poiid":"B2094757D16EABF84493","title":"Spring Spa&amp;Massage","lon":"121.446008586","lat":"31.1930167034","category":"149","category_name":"洗浴推拿场所","address":"上海市徐汇区宛平南路260号(近辛耕路)"},{"poiid":"B2094750D46DAAFD4799","title":"姐弟俩土豆粉","lon":"121.447593","lat":"31.193534","category":"247","category_name":"餐饮美食","address":null},{"poiid":"B2094655D268A2FE4392","title":"雪莉保健会所","lon":"121.4449","lat":"31.19388","category":"149","category_name":"洗浴推拿场所","address":"辛耕路28临"},{"poiid":"B2094655D26FA5FF469D","title":"天际花园","lon":"121.44474","lat":"31.19184","category":"47","category_name":"住宅区","address":"南丹东路99弄1-22号"},{"poiid":"B2094757D06FA6F4439B","title":"85度C(南丹店)","lon":"121.445687517","lat":"31.1907925339","category":"112","category_name":"糕饼店","address":"徐汇区南丹东路8号(近斜土路)"},{"poiid":"B2094655D265A4FC439B","title":"阿耐思特岩田商务楼","lon":"121.44605","lat":"31.19372","category":"46","category_name":"楼宇","address":"宛平南路200"},{"poiid":"B2094750D56FA5FC459A","title":"国泰电影院","lon":"121.445716","lat":"31.192508","category":"178","category_name":"电影院","address":null},{"poiid":"B2094757D068A2F44498","title":"珞迦瑜伽(辛耕路店)","lon":"121.44414","lat":"31.19241","category":"148","category_name":"美容美发店","address":"徐汇区辛耕路88号(近天钥桥路)"},{"poiid":"B2094655D26FA5FC479C","title":"永新世纪","lon":"121.44489","lat":"31.19298","category":"47","category_name":"住宅区","address":"辛耕路81弄"},{"poiid":"B2094757D169A2F8499C","title":"艾维庭美容身心会馆(永新店)","lon":"121.44544849","lat":"31.194164741","category":"148","category_name":"美容美发店","address":"上海徐汇区辛耕路18号1-3楼(近宛平南路)"},{"poiid":"B2094757D66DA4F9499E","title":"釜山料理","lon":"121.44442258","lat":"31.192564694","category":"247","category_name":"餐饮美食","address":"上海市徐汇区肇嘉浜路"},{"poiid":"B2094654DA6DAAF9479C","title":"国大药房宛平南路店(宛平南路)","lon":"121.44637","lat":"31.19383","category":"162","category_name":"医院","address":"徐汇区宛平南路221号(宛平南路辛耕路)"},{"poiid":"B2094654DA6DAAF94998","title":"喜士多便利(宛平南路)","lon":"121.4467","lat":"31.1931","category":"117","category_name":"便民商店/便利店","address":"宛平南路261-263"},{"poiid":"B2094757D76EA3FC4698","title":"避风塘茶楼 宛平南路","lon":"121.44668511676","lat":"31.193103714711","category":"66","category_name":"茶艺馆","address":"宛平南路275号近斜土路"},{"poiid":"B2094757D065A0F94993","title":"米乐布提(徐汇风尚店)","lon":"121.44498","lat":"31.19321","category":"500","category_name":"未知分类","address":"上海徐汇区辛耕路77号(近天钥桥路)  "},{"poiid":"B2094654DA6DAAF94898","title":"南源","lon":"121.44646","lat":"31.19361","category":"148","category_name":"美容美发店","address":""},{"poiid":"B2094654DA6DAAF9469E","title":"思妍丽(宛平南路)","lon":"121.44636","lat":"31.19463","category":"148","category_name":"美容美发店","address":"宛平南路99弄1号2层"},{"poiid":"B2094654DA6DA0F4479B","title":"申峰大厦","lon":"121.448","lat":"31.1937","category":"46","category_name":"楼宇","address":"上海市徐汇区天钥桥路438号"},{"poiid":"B2094654DA6DAAF94993","title":"京世造型·美容(宛平南路)","lon":"121.44683","lat":"31.1928","category":"148","category_name":"美容美发店","address":"枫林路"},{"poiid":"B2094655D26FA1F84092","title":"C多多 宛平南路店","lon":"121.446844054","lat":"31.192792793","category":"113","category_name":"冷饮店","address":"宛平南路271-1号近斜土路"},{"poiid":"B2094654DA6DAAF9469C","title":"水之城咖啡 宛平南路","lon":"121.44597842636","lat":"31.194528204112","category":"260","category_name":"其他","address":"徐汇区宛平南路181号(宛平南路辛耕路)"},{"poiid":"B2094654DA6DAAF9489F","title":"生活天地(宛平南路)","lon":"121.4465","lat":"31.19355","category":"141","category_name":"服装鞋帽皮具店","address":"宛平南路221"},{"poiid":"B2094757D168AAFC4798","title":"御燕盏会所","lon":"121.44647621","lat":"31.193406281","category":"500","category_name":"未知分类","address":"上海宛平南路225"},{"poiid":"B2094757D464A6FE429D","title":"雄记桂林米粉 宛平南路店","lon":"121.44522599725","lat":"31.194680137393","category":"68","category_name":"快餐厅","address":"徐汇区宛平南路160号(近辛耕路)"},{"poiid":"B2094654DB69A5F4499F","title":"避风塘(宛平店)","lon":"121.4471","lat":"31.19285","category":"66","category_name":"茶艺馆","address":"徐汇区宛平南路275号"},{"poiid":"B2094750DB6AA5FC479B","title":"圆圆烩面","lon":"121.446792","lat":"31.192752","category":"68","category_name":"快餐厅","address":"徐汇区宛平南路160号(近辛耕路)"},{"poiid":"B2094757D469A6FE439B","title":"凯司令西点房 南丹东路店","lon":"121.44516","lat":"31.19114","category":"67","category_name":"甜品店","address":"徐汇区南丹东路65号(近天钥桥路)"},{"poiid":"B2094757D165A0FB4293","title":"芭芭拉造型、护肤、SPA连锁机构","lon":"121.444874586","lat":"31.1933847106","category":"148","category_name":"美容美发店","address":"上海市徐汇区辛耕路85号"},{"poiid":"B2094757D068A5F4419D","title":"上岛咖啡(宛平路店)","lon":"121.44672","lat":"31.19344","category":"260","category_name":"其他","address":"徐汇区宛平南路231号(近辛耕路)"},{"poiid":"B2094654DA6DA0FD4998","title":"宛平桌球游戏城","lon":"121.446","lat":"31.1937","category":"173","category_name":"游戏厅","address":"宛平南路200-2识别"},{"poiid":"B2094750D768A4FC439F","title":"辛耕路烧烤摊","lon":"121.446","lat":"31.1944","category":"68","category_name":"快餐厅","address":"徐汇区辛耕路(宛平南路口)"},{"poiid":"B2094655D26EA5F44498","title":"老上海弄堂菜馆(永新店)","lon":"121.44371","lat":"31.19263","category":"76","category_name":"上海菜","address":"徐汇区辛耕路109号永新坊3-4楼"},{"poiid":"B2094757D06FA5F84692","title":"串串香麻辣烫","lon":"121.44614","lat":"31.19354","category":"68","category_name":"快餐厅","address":"徐汇区宛平南路200号(近辛耕路)"},{"poiid":"B2094757D06FA6FD489D","title":"亚都商务楼","lon":"121.444836","lat":"31.195017","category":"46","category_name":"楼宇","address":"上海南丹东路300弄9号"},{"poiid":"B2094757D06FABFE419A","title":"红宝石(南丹东路店)","lon":"121.44537","lat":"31.19082","category":"67","category_name":"甜品店","address":"徐汇区南丹东路55号(近宛平南路)"},{"poiid":"B2094757D06FA3FA459D","title":"呷哺呷哺(永新坊店)","lon":"121.44362058","lat":"31.192620695","category":"86","category_name":"火锅店","address":"徐汇区天钥桥路131号永新坊B1楼15室(近辛耕路)"},{"poiid":"B2094757D06BA2FB409E","title":"西提牛排","lon":"121.44414658","lat":"31.191991683","category":"247","category_name":"餐饮美食","address":"上海市徐汇区肇嘉浜路"},{"poiid":"B2094654DA6DA4F84198","title":"临江豪园","lon":"121.447","lat":"31.1944","category":"47","category_name":"住宅区","address":"上海市徐汇区宛平南路921号"},{"poiid":"B2094751D568A4F84992","title":"沁泰（永新坊店）","lon":"121.444131","lat":"31.19286","category":"247","category_name":"餐饮美食","address":"徐汇区辛耕路109号永新坊1楼(近天钥桥路)"},{"poiid":"B2094757D069A3F54599","title":"斜土路宛平南路","lon":"121.44817258","lat":"31.193041703","category":"500","category_name":"未知分类","address":"上海市徐汇区肇嘉浜路"},{"poiid":"B2094655D26EA2F4449B","title":"衡山小馆斜土路店","lon":"121.44648","lat":"31.1911","category":"72","category_name":"广东菜","address":"徐汇区斜土路2428号海螺花园(近宛平南路)"},{"poiid":"B2094757D068A1F4449D","title":"花乐·神田川","lon":"121.446604928","lat":"31.1918430256","category":"95","category_name":"日本料理","address":"徐汇区斜土路2421号4号楼(近宛平南路)"},{"poiid":"B2094655D36DA1FA4799","title":"致真汇","lon":"121.4438","lat":"31.19245","category":"76","category_name":"上海菜","address":"徐汇区辛耕路109号永新坊1-2楼(近天钥桥路)"},{"poiid":"B2094757D069A3FA4299","title":"提香研磨咖啡","lon":"121.44662799152","lat":"31.193403622937","category":"260","category_name":"其他","address":"徐汇区宛平南路263号(近斜土路)"},{"poiid":"B2094757D068A2FD489A","title":"京世造型(宛平店)","lon":"121.446784","lat":"31.192901","category":"148","category_name":"美容美发店","address":"上海徐汇区宛平南路271号"},{"poiid":"B2094757D16CA7F54292","title":"珞珈瑜伽旗舰店","lon":"121.444092","lat":"31.19347","category":"500","category_name":"未知分类","address":"上海辛耕路88号"},{"poiid":"B2094757D06BA5FB4999","title":"重庆鸡公煲 宛平南路店","lon":"121.445872054","lat":"31.193667793","category":"71","category_name":"四川菜","address":"徐汇区宛平南路162号(宛平南路辛耕路)"},{"poiid":"B2094654DA6DA0FA4099","title":"汇峰大厦","lon":"121.446","lat":"31.1937","category":"46","category_name":"楼宇","address":"天钥桥路380弄20"},{"poiid":"B2094655D26BA2FE489A","title":"宛平南路","lon":"121.44806","lat":"31.19217","category":"38","category_name":"公交车站","address":""},{"poiid":"B2094753DA6EA4FC4592","title":"徐家汇花园","lon":"121.4466297","lat":"31.19322638","category":"47","category_name":"住宅区","address":"宛平南路255弄"},{"poiid":"B2094757D16EABF84493","title":"Spring Spa&amp;Massage","lon":"121.446008586","lat":"31.1930167034","category":"149","category_name":"洗浴推拿场所","address":"上海市徐汇区宛平南路260号(近辛耕路)"},{"poiid":"B2094750D46DAAFD4799","title":"姐弟俩土豆粉","lon":"121.447593","lat":"31.193534","category":"247","category_name":"餐饮美食","address":null},{"poiid":"B2094655D268A2FE4392","title":"雪莉保健会所","lon":"121.4449","lat":"31.19388","category":"149","category_name":"洗浴推拿场所","address":"辛耕路28临"},{"poiid":"B2094655D26FA5FF469D","title":"天际花园","lon":"121.44474","lat":"31.19184","category":"47","category_name":"住宅区","address":"南丹东路99弄1-22号"},{"poiid":"B2094757D06FA6F4439B","title":"85度C(南丹店)","lon":"121.445687517","lat":"31.1907925339","category":"112","category_name":"糕饼店","address":"徐汇区南丹东路8号(近斜土路)"},{"poiid":"B2094655D265A4FC439B","title":"阿耐思特岩田商务楼","lon":"121.44605","lat":"31.19372","category":"46","category_name":"楼宇","address":"宛平南路200"},{"poiid":"B2094750D56FA5FC459A","title":"国泰电影院","lon":"121.445716","lat":"31.192508","category":"178","category_name":"电影院","address":null},{"poiid":"B2094757D068A2F44498","title":"珞迦瑜伽(辛耕路店)","lon":"121.44414","lat":"31.19241","category":"148","category_name":"美容美发店","address":"徐汇区辛耕路88号(近天钥桥路)"},{"poiid":"B2094655D26FA5FC479C","title":"永新世纪","lon":"121.44489","lat":"31.19298","category":"47","category_name":"住宅区","address":"辛耕路81弄"},{"poiid":"B2094757D169A2F8499C","title":"艾维庭美容身心会馆(永新店)","lon":"121.44544849","lat":"31.194164741","category":"148","category_name":"美容美发店","address":"上海徐汇区辛耕路18号1-3楼(近宛平南路)"},{"poiid":"B2094757D66DA4F9499E","title":"釜山料理","lon":"121.44442258","lat":"31.192564694","category":"247","category_name":"餐饮美食","address":"上海市徐汇区肇嘉浜路"},{"poiid":"B2094654DA6DAAF9479C","title":"国大药房宛平南路店(宛平南路)","lon":"121.44637","lat":"31.19383","category":"162","category_name":"医院","address":"徐汇区宛平南路221号(宛平南路辛耕路)"},{"poiid":"B2094654DA6DAAF94998","title":"喜士多便利(宛平南路)","lon":"121.4467","lat":"31.1931","category":"117","category_name":"便民商店/便利店","address":"宛平南路261-263"},{"poiid":"B2094757D76EA3FC4698","title":"避风塘茶楼 宛平南路","lon":"121.44668511676","lat":"31.193103714711","category":"66","category_name":"茶艺馆","address":"宛平南路275号近斜土路"},{"poiid":"B2094757D065A0F94993","title":"米乐布提(徐汇风尚店)","lon":"121.44498","lat":"31.19321","category":"500","category_name":"未知分类","address":"上海徐汇区辛耕路77号(近天钥桥路)  "},{"poiid":"B2094654DA6DAAF94898","title":"南源","lon":"121.44646","lat":"31.19361","category":"148","category_name":"美容美发店","address":""},{"poiid":"B2094654DA6DAAF9469E","title":"思妍丽(宛平南路)","lon":"121.44636","lat":"31.19463","category":"148","category_name":"美容美发店","address":"宛平南路99弄1号2层"},{"poiid":"B2094654DA6DA0F4479B","title":"申峰大厦","lon":"121.448","lat":"31.1937","category":"46","category_name":"楼宇","address":"上海市徐汇区天钥桥路438号"},{"poiid":"B2094654DA6DAAF94993","title":"京世造型·美容(宛平南路)","lon":"121.44683","lat":"31.1928","category":"148","category_name":"美容美发店","address":"枫林路"},{"poiid":"B2094655D26FA1F84092","title":"C多多 宛平南路店","lon":"121.446844054","lat":"31.192792793","category":"113","category_name":"冷饮店","address":"宛平南路271-1号近斜土路"},{"poiid":"B2094654DA6DAAF9469C","title":"水之城咖啡 宛平南路","lon":"121.44597842636","lat":"31.194528204112","category":"260","category_name":"其他","address":"徐汇区宛平南路181号(宛平南路辛耕路)"},{"poiid":"B2094654DA6DAAF9489F","title":"生活天地(宛平南路)","lon":"121.4465","lat":"31.19355","category":"141","category_name":"服装鞋帽皮具店","address":"宛平南路221"},{"poiid":"B2094757D168AAFC4798","title":"御燕盏会所","lon":"121.44647621","lat":"31.193406281","category":"500","category_name":"未知分类","address":"上海宛平南路225"},{"poiid":"B2094757D464A6FE429D","title":"雄记桂林米粉 宛平南路店","lon":"121.44522599725","lat":"31.194680137393","category":"68","category_name":"快餐厅","address":"徐汇区宛平南路160号(近辛耕路)"},{"poiid":"B2094654DB69A5F4499F","title":"避风塘(宛平店)","lon":"121.4471","lat":"31.19285","category":"66","category_name":"茶艺馆","address":"徐汇区宛平南路275号"},{"poiid":"B2094750DB6AA5FC479B","title":"圆圆烩面","lon":"121.446792","lat":"31.192752","category":"68","category_name":"快餐厅","address":"徐汇区宛平南路160号(近辛耕路)"},{"poiid":"B2094757D469A6FE439B","title":"凯司令西点房 南丹东路店","lon":"121.44516","lat":"31.19114","category":"67","category_name":"甜品店","address":"徐汇区南丹东路65号(近天钥桥路)"},{"poiid":"B2094757D165A0FB4293","title":"芭芭拉造型、护肤、SPA连锁机构","lon":"121.444874586","lat":"31.1933847106","category":"148","category_name":"美容美发店","address":"上海市徐汇区辛耕路85号"},{"poiid":"B2094757D068A5F4419D","title":"上岛咖啡(宛平路店)","lon":"121.44672","lat":"31.19344","category":"260","category_name":"其他","address":"徐汇区宛平南路231号(近辛耕路)"},{"poiid":"B2094654DA6DA0FD4998","title":"宛平桌球游戏城","lon":"121.446","lat":"31.1937","category":"173","category_name":"游戏厅","address":"宛平南路200-2识别"},{"poiid":"B2094750D768A4FC439F","title":"辛耕路烧烤摊","lon":"121.446","lat":"31.1944","category":"68","category_name":"快餐厅","address":"徐汇区辛耕路(宛平南路口)"},{"poiid":"B2094655D26EA5F44498","title":"老上海弄堂菜馆(永新店)","lon":"121.44371","lat":"31.19263","category":"76","category_name":"上海菜","address":"徐汇区辛耕路109号永新坊3-4楼"},{"poiid":"B2094757D06FA5F84692","title":"串串香麻辣烫","lon":"121.44614","lat":"31.19354","category":"68","category_name":"快餐厅","address":"徐汇区宛平南路200号(近辛耕路)"},{"poiid":"B2094757D06FA6FD489D","title":"亚都商务楼","lon":"121.444836","lat":"31.195017","category":"46","category_name":"楼宇","address":"上海南丹东路300弄9号"},{"poiid":"B2094757D06FABFE419A","title":"红宝石(南丹东路店)","lon":"121.44537","lat":"31.19082","category":"67","category_name":"甜品店","address":"徐汇区南丹东路55号(近宛平南路)"},{"poiid":"B2094757D06FA3FA459D","title":"呷哺呷哺(永新坊店)","lon":"121.44362058","lat":"31.192620695","category":"86","category_name":"火锅店","address":"徐汇区天钥桥路131号永新坊B1楼15室(近辛耕路)"},{"poiid":"B2094757D06BA2FB409E","title":"西提牛排","lon":"121.44414658","lat":"31.191991683","category":"247","category_name":"餐饮美食","address":"上海市徐汇区肇嘉浜路"},{"poiid":"B2094654DA6DA4F84198","title":"临江豪园","lon":"121.447","lat":"31.1944","category":"47","category_name":"住宅区","address":"上海市徐汇区宛平南路921号"},{"poiid":"B2094751D568A4F84992","title":"沁泰（永新坊店）","lon":"121.444131","lat":"31.19286","category":"247","category_name":"餐饮美食","address":"徐汇区辛耕路109号永新坊1楼(近天钥桥路)"},{"poiid":"B2094757D069A3F54599","title":"斜土路宛平南路","lon":"121.44817258","lat":"31.193041703","category":"500","category_name":"未知分类","address":"上海市徐汇区肇嘉浜路"},{"poiid":"B2094655D26EA2F4449B","title":"衡山小馆斜土路店","lon":"121.44648","lat":"31.1911","category":"72","category_name":"广东菜","address":"徐汇区斜土路2428号海螺花园(近宛平南路)"},{"poiid":"B2094757D068A1F4449D","title":"花乐·神田川","lon":"121.446604928","lat":"31.1918430256","category":"95","category_name":"日本料理","address":"徐汇区斜土路2421号4号楼(近宛平南路)"},{"poiid":"B2094655D36DA1FA4799","title":"致真汇","lon":"121.4438","lat":"31.19245","category":"76","category_name":"上海菜","address":"徐汇区辛耕路109号永新坊1-2楼(近天钥桥路)"},{"poiid":"B2094757D069A3FA4299","title":"提香研磨咖啡","lon":"121.44662799152","lat":"31.193403622937","category":"260","category_name":"其他","address":"徐汇区宛平南路263号(近斜土路)"},{"poiid":"B2094757D068A2FD489A","title":"京世造型(宛平店)","lon":"121.446784","lat":"31.192901","category":"148","category_name":"美容美发店","address":"上海徐汇区宛平南路271号"},{"poiid":"B2094757D16CA7F54292","title":"珞珈瑜伽旗舰店","lon":"121.444092","lat":"31.19347","category":"500","category_name":"未知分类","address":"上海辛耕路88号"},{"poiid":"B2094757D06BA5FB4999","title":"重庆鸡公煲 宛平南路店","lon":"121.445872054","lat":"31.193667793","category":"71","category_name":"四川菜","address":"徐汇区宛平南路162号(宛平南路辛耕路)"},{"poiid":"B2094654DA6DA0FA4099","title":"汇峰大厦","lon":"121.446","lat":"31.1937","category":"46","category_name":"楼宇","address":"天钥桥路380弄20"},{"poiid":"B2094655D26BA2FE489A","title":"宛平南路","lon":"121.44806","lat":"31.19217","category":"38","category_name":"公交车站","address":""},{"poiid":"B2094753DA6EA4FC4592","title":"徐家汇花园","lon":"121.4466297","lat":"31.19322638","category":"47","category_name":"住宅区","address":"宛平南路255弄"},{"poiid":"B2094757D16EABF84493","title":"Spring Spa&amp;Massage","lon":"121.446008586","lat":"31.1930167034","category":"149","category_name":"洗浴推拿场所","address":"上海市徐汇区宛平南路260号(近辛耕路)"},{"poiid":"B2094750D46DAAFD4799","title":"姐弟俩土豆粉","lon":"121.447593","lat":"31.193534","category":"247","category_name":"餐饮美食","address":null},{"poiid":"B2094655D268A2FE4392","title":"雪莉保健会所","lon":"121.4449","lat":"31.19388","category":"149","category_name":"洗浴推拿场所","address":"辛耕路28临"},{"poiid":"B2094655D26FA5FF469D","title":"天际花园","lon":"121.44474","lat":"31.19184","category":"47","category_name":"住宅区","address":"南丹东路99弄1-22号"},{"poiid":"B2094757D06FA6F4439B","title":"85度C(南丹店)","lon":"121.445687517","lat":"31.1907925339","category":"112","category_name":"糕饼店","address":"徐汇区南丹东路8号(近斜土路)"},{"poiid":"B2094655D265A4FC439B","title":"阿耐思特岩田商务楼","lon":"121.44605","lat":"31.19372","category":"46","category_name":"楼宇","address":"宛平南路200"},{"poiid":"B2094750D56FA5FC459A","title":"国泰电影院","lon":"121.445716","lat":"31.192508","category":"178","category_name":"电影院","address":null},{"poiid":"B2094757D068A2F44498","title":"珞迦瑜伽(辛耕路店)","lon":"121.44414","lat":"31.19241","category":"148","category_name":"美容美发店","address":"徐汇区辛耕路88号(近天钥桥路)"},{"poiid":"B2094655D26FA5FC479C","title":"永新世纪","lon":"121.44489","lat":"31.19298","category":"47","category_name":"住宅区","address":"辛耕路81弄"},{"poiid":"B2094757D169A2F8499C","title":"艾维庭美容身心会馆(永新店)","lon":"121.44544849","lat":"31.194164741","category":"148","category_name":"美容美发店","address":"上海徐汇区辛耕路18号1-3楼(近宛平南路)"},{"poiid":"B2094757D66DA4F9499E","title":"釜山料理","lon":"121.44442258","lat":"31.192564694","category":"247","category_name":"餐饮美食","address":"上海市徐汇区肇嘉浜路"},{"poiid":"B2094654DA6DAAF9479C","title":"国大药房宛平南路店(宛平南路)","lon":"121.44637","lat":"31.19383","category":"162","category_name":"医院","address":"徐汇区宛平南路221号(宛平南路辛耕路)"},{"poiid":"B2094654DA6DAAF94998","title":"喜士多便利(宛平南路)","lon":"121.4467","lat":"31.1931","category":"117","category_name":"便民商店/便利店","address":"宛平南路261-263"},{"poiid":"B2094757D76EA3FC4698","title":"避风塘茶楼 宛平南路","lon":"121.44668511676","lat":"31.193103714711","category":"66","category_name":"茶艺馆","address":"宛平南路275号近斜土路"},{"poiid":"B2094757D065A0F94993","title":"米乐布提(徐汇风尚店)","lon":"121.44498","lat":"31.19321","category":"500","category_name":"未知分类","address":"上海徐汇区辛耕路77号(近天钥桥路)  "},{"poiid":"B2094654DA6DAAF94898","title":"南源","lon":"121.44646","lat":"31.19361","category":"148","category_name":"美容美发店","address":""},{"poiid":"B2094654DA6DAAF9469E","title":"思妍丽(宛平南路)","lon":"121.44636","lat":"31.19463","category":"148","category_name":"美容美发店","address":"宛平南路99弄1号2层"},{"poiid":"B2094654DA6DA0F4479B","title":"申峰大厦","lon":"121.448","lat":"31.1937","category":"46","category_name":"楼宇","address":"上海市徐汇区天钥桥路438号"},{"poiid":"B2094654DA6DAAF94993","title":"京世造型·美容(宛平南路)","lon":"121.44683","lat":"31.1928","category":"148","category_name":"美容美发店","address":"枫林路"},{"poiid":"B2094655D26FA1F84092","title":"C多多 宛平南路店","lon":"121.446844054","lat":"31.192792793","category":"113","category_name":"冷饮店","address":"宛平南路271-1号近斜土路"},{"poiid":"B2094654DA6DAAF9469C","title":"水之城咖啡 宛平南路","lon":"121.44597842636","lat":"31.194528204112","category":"260","category_name":"其他","address":"徐汇区宛平南路181号(宛平南路辛耕路)"},{"poiid":"B2094654DA6DAAF9489F","title":"生活天地(宛平南路)","lon":"121.4465","lat":"31.19355","category":"141","category_name":"服装鞋帽皮具店","address":"宛平南路221"},{"poiid":"B2094757D168AAFC4798","title":"御燕盏会所","lon":"121.44647621","lat":"31.193406281","category":"500","category_name":"未知分类","address":"上海宛平南路225"},{"poiid":"B2094757D464A6FE429D","title":"雄记桂林米粉 宛平南路店","lon":"121.44522599725","lat":"31.194680137393","category":"68","category_name":"快餐厅","address":"徐汇区宛平南路160号(近辛耕路)"},{"poiid":"B2094654DB69A5F4499F","title":"避风塘(宛平店)","lon":"121.4471","lat":"31.19285","category":"66","category_name":"茶艺馆","address":"徐汇区宛平南路275号"},{"poiid":"B2094750DB6AA5FC479B","title":"圆圆烩面","lon":"121.446792","lat":"31.192752","category":"68","category_name":"快餐厅","address":"徐汇区宛平南路160号(近辛耕路)"},{"poiid":"B2094757D469A6FE439B","title":"凯司令西点房 南丹东路店","lon":"121.44516","lat":"31.19114","category":"67","category_name":"甜品店","address":"徐汇区南丹东路65号(近天钥桥路)"},{"poiid":"B2094757D165A0FB4293","title":"芭芭拉造型、护肤、SPA连锁机构","lon":"121.444874586","lat":"31.1933847106","category":"148","category_name":"美容美发店","address":"上海市徐汇区辛耕路85号"},{"poiid":"B2094757D068A5F4419D","title":"上岛咖啡(宛平路店)","lon":"121.44672","lat":"31.19344","category":"260","category_name":"其他","address":"徐汇区宛平南路231号(近辛耕路)"},{"poiid":"B2094654DA6DA0FD4998","title":"宛平桌球游戏城","lon":"121.446","lat":"31.1937","category":"173","category_name":"游戏厅","address":"宛平南路200-2识别"},{"poiid":"B2094750D768A4FC439F","title":"辛耕路烧烤摊","lon":"121.446","lat":"31.1944","category":"68","category_name":"快餐厅","address":"徐汇区辛耕路(宛平南路口)"},{"poiid":"B2094655D26EA5F44498","title":"老上海弄堂菜馆(永新店)","lon":"121.44371","lat":"31.19263","category":"76","category_name":"上海菜","address":"徐汇区辛耕路109号永新坊3-4楼"},{"poiid":"B2094757D06FA5F84692","title":"串串香麻辣烫","lon":"121.44614","lat":"31.19354","category":"68","category_name":"快餐厅","address":"徐汇区宛平南路200号(近辛耕路)"},{"poiid":"B2094757D06FA6FD489D","title":"亚都商务楼","lon":"121.444836","lat":"31.195017","category":"46","category_name":"楼宇","address":"上海南丹东路300弄9号"},{"poiid":"B2094757D06FABFE419A","title":"红宝石(南丹东路店)","lon":"121.44537","lat":"31.19082","category":"67","category_name":"甜品店","address":"徐汇区南丹东路55号(近宛平南路)"},{"poiid":"B2094757D06FA3FA459D","title":"呷哺呷哺(永新坊店)","lon":"121.44362058","lat":"31.192620695","category":"86","category_name":"火锅店","address":"徐汇区天钥桥路131号永新坊B1楼15室(近辛耕路)"},{"poiid":"B2094757D06BA2FB409E","title":"西提牛排","lon":"121.44414658","lat":"31.191991683","category":"247","category_name":"餐饮美食","address":"上海市徐汇区肇嘉浜路"},{"poiid":"B2094654DA6DA4F84198","title":"临江豪园","lon":"121.447","lat":"31.1944","category":"47","category_name":"住宅区","address":"上海市徐汇区宛平南路921号"},{"poiid":"B2094751D568A4F84992","title":"沁泰（永新坊店）","lon":"121.444131","lat":"31.19286","category":"247","category_name":"餐饮美食","address":"徐汇区辛耕路109号永新坊1楼(近天钥桥路)"},{"poiid":"B2094757D069A3F54599","title":"斜土路宛平南路","lon":"121.44817258","lat":"31.193041703","category":"500","category_name":"未知分类","address":"上海市徐汇区肇嘉浜路"},{"poiid":"B2094655D26EA2F4449B","title":"衡山小馆斜土路店","lon":"121.44648","lat":"31.1911","category":"72","category_name":"广东菜","address":"徐汇区斜土路2428号海螺花园(近宛平南路)"},{"poiid":"B2094757D068A1F4449D","title":"花乐·神田川","lon":"121.446604928","lat":"31.1918430256","category":"95","category_name":"日本料理","address":"徐汇区斜土路2421号4号楼(近宛平南路)"},{"poiid":"B2094655D36DA1FA4799","title":"致真汇","lon":"121.4438","lat":"31.19245","category":"76","category_name":"上海菜","address":"徐汇区辛耕路109号永新坊1-2楼(近天钥桥路)"},{"poiid":"B2094757D069A3FA4299","title":"提香研磨咖啡","lon":"121.44662799152","lat":"31.193403622937","category":"260","category_name":"其他","address":"徐汇区宛平南路263号(近斜土路)"},{"poiid":"B2094757D068A2FD489A","title":"京世造型(宛平店)","lon":"121.446784","lat":"31.192901","category":"148","category_name":"美容美发店","address":"上海徐汇区宛平南路271号"},{"poiid":"B2094757D16CA7F54292","title":"珞珈瑜伽旗舰店","lon":"121.444092","lat":"31.19347","category":"500","category_name":"未知分类","address":"上海辛耕路88号"},{"poiid":"B2094757D06BA5FB4999","title":"重庆鸡公煲 宛平南路店","lon":"121.445872054","lat":"31.193667793","category":"71","category_name":"四川菜","address":"徐汇区宛平南路162号(宛平南路辛耕路)"},{"poiid":"B2094654DA6DA0FA4099","title":"汇峰大厦","lon":"121.446","lat":"31.1937","category":"46","category_name":"楼宇","address":"天钥桥路380弄20"},{"poiid":"B2094655D26BA2FE489A","title":"宛平南路","lon":"121.44806","lat":"31.19217","category":"38","category_name":"公交车站","address":""},{"poiid":"B2094753DA6EA4FC4592","title":"徐家汇花园","lon":"121.4466297","lat":"31.19322638","category":"47","category_name":"住宅区","address":"宛平南路255弄"},{"poiid":"B2094757D16EABF84493","title":"Spring Spa&amp;Massage","lon":"121.446008586","lat":"31.1930167034","category":"149","category_name":"洗浴推拿场所","address":"上海市徐汇区宛平南路260号(近辛耕路)"},{"poiid":"B2094750D46DAAFD4799","title":"姐弟俩土豆粉","lon":"121.447593","lat":"31.193534","category":"247","category_name":"餐饮美食","address":null},{"poiid":"B2094655D268A2FE4392","title":"雪莉保健会所","lon":"121.4449","lat":"31.19388","category":"149","category_name":"洗浴推拿场所","address":"辛耕路28临"},{"poiid":"B2094655D26FA5FF469D","title":"天际花园","lon":"121.44474","lat":"31.19184","category":"47","category_name":"住宅区","address":"南丹东路99弄1-22号"},{"poiid":"B2094757D06FA6F4439B","title":"85度C(南丹店)","lon":"121.445687517","lat":"31.1907925339","category":"112","category_name":"糕饼店","address":"徐汇区南丹东路8号(近斜土路)"},{"poiid":"B2094655D265A4FC439B","title":"阿耐思特岩田商务楼","lon":"121.44605","lat":"31.19372","category":"46","category_name":"楼宇","address":"宛平南路200"},{"poiid":"B2094750D56FA5FC459A","title":"国泰电影院","lon":"121.445716","lat":"31.192508","category":"178","category_name":"电影院","address":null},{"poiid":"B2094757D068A2F44498","title":"珞迦瑜伽(辛耕路店)","lon":"121.44414","lat":"31.19241","category":"148","category_name":"美容美发店","address":"徐汇区辛耕路88号(近天钥桥路)"},{"poiid":"B2094655D26FA5FC479C","title":"永新世纪","lon":"121.44489","lat":"31.19298","category":"47","category_name":"住宅区","address":"辛耕路81弄"},{"poiid":"B2094757D169A2F8499C","title":"艾维庭美容身心会馆(永新店)","lon":"121.44544849","lat":"31.194164741","category":"148","category_name":"美容美发店","address":"上海徐汇区辛耕路18号1-3楼(近宛平南路)"},{"poiid":"B2094757D66DA4F9499E","title":"釜山料理","lon":"121.44442258","lat":"31.192564694","category":"247","category_name":"餐饮美食","address":"上海市徐汇区肇嘉浜路"},{"poiid":"B2094654DA6DAAF9479C","title":"国大药房宛平南路店(宛平南路)","lon":"121.44637","lat":"31.19383","category":"162","category_name":"医院","address":"徐汇区宛平南路221号(宛平南路辛耕路)"},{"poiid":"B2094654DA6DAAF94998","title":"喜士多便利(宛平南路)","lon":"121.4467","lat":"31.1931","category":"117","category_name":"便民商店/便利店","address":"宛平南路261-263"},{"poiid":"B2094757D76EA3FC4698","title":"避风塘茶楼 宛平南路","lon":"121.44668511676","lat":"31.193103714711","category":"66","category_name":"茶艺馆","address":"宛平南路275号近斜土路"},{"poiid":"B2094757D065A0F94993","title":"米乐布提(徐汇风尚店)","lon":"121.44498","lat":"31.19321","category":"500","category_name":"未知分类","address":"上海徐汇区辛耕路77号(近天钥桥路)  "},{"poiid":"B2094654DA6DAAF94898","title":"南源","lon":"121.44646","lat":"31.19361","category":"148","category_name":"美容美发店","address":""},{"poiid":"B2094654DA6DAAF9469E","title":"思妍丽(宛平南路)","lon":"121.44636","lat":"31.19463","category":"148","category_name":"美容美发店","address":"宛平南路99弄1号2层"},{"poiid":"B2094654DA6DA0F4479B","title":"申峰大厦","lon":"121.448","lat":"31.1937","category":"46","category_name":"楼宇","address":"上海市徐汇区天钥桥路438号"},{"poiid":"B2094654DA6DAAF94993","title":"京世造型·美容(宛平南路)","lon":"121.44683","lat":"31.1928","category":"148","category_name":"美容美发店","address":"枫林路"},{"poiid":"B2094655D26FA1F84092","title":"C多多 宛平南路店","lon":"121.446844054","lat":"31.192792793","category":"113","category_name":"冷饮店","address":"宛平南路271-1号近斜土路"},{"poiid":"B2094654DA6DAAF9469C","title":"水之城咖啡 宛平南路","lon":"121.44597842636","lat":"31.194528204112","category":"260","category_name":"其他","address":"徐汇区宛平南路181号(宛平南路辛耕路)"},{"poiid":"B2094654DA6DAAF9489F","title":"生活天地(宛平南路)","lon":"121.4465","lat":"31.19355","category":"141","category_name":"服装鞋帽皮具店","address":"宛平南路221"},{"poiid":"B2094757D168AAFC4798","title":"御燕盏会所","lon":"121.44647621","lat":"31.193406281","category":"500","category_name":"未知分类","address":"上海宛平南路225"},{"poiid":"B2094757D464A6FE429D","title":"雄记桂林米粉 宛平南路店","lon":"121.44522599725","lat":"31.194680137393","category":"68","category_name":"快餐厅","address":"徐汇区宛平南路160号(近辛耕路)"},{"poiid":"B2094654DB69A5F4499F","title":"避风塘(宛平店)","lon":"121.4471","lat":"31.19285","category":"66","category_name":"茶艺馆","address":"徐汇区宛平南路275号"},{"poiid":"B2094750DB6AA5FC479B","title":"圆圆烩面","lon":"121.446792","lat":"31.192752","category":"68","category_name":"快餐厅","address":"徐汇区宛平南路160号(近辛耕路)"},{"poiid":"B2094757D469A6FE439B","title":"凯司令西点房 南丹东路店","lon":"121.44516","lat":"31.19114","category":"67","category_name":"甜品店","address":"徐汇区南丹东路65号(近天钥桥路)"},{"poiid":"B2094757D165A0FB4293","title":"芭芭拉造型、护肤、SPA连锁机构","lon":"121.444874586","lat":"31.1933847106","category":"148","category_name":"美容美发店","address":"上海市徐汇区辛耕路85号"},{"poiid":"B2094757D068A5F4419D","title":"上岛咖啡(宛平路店)","lon":"121.44672","lat":"31.19344","category":"260","category_name":"其他","address":"徐汇区宛平南路231号(近辛耕路)"},{"poiid":"B2094654DA6DA0FD4998","title":"宛平桌球游戏城","lon":"121.446","lat":"31.1937","category":"173","category_name":"游戏厅","address":"宛平南路200-2识别"},{"poiid":"B2094750D768A4FC439F","title":"辛耕路烧烤摊","lon":"121.446","lat":"31.1944","category":"68","category_name":"快餐厅","address":"徐汇区辛耕路(宛平南路口)"}]