[{"poiid":"B2094654DB65A1FE4298","title":"上海文化广场","lon":"121.46212","lat":"31.21173","category":"202","category_name":"公园广场","address":"卢湾区复兴中路576号(近陕西南路)"},{"poiid":"B2094757D06FA7FF4092","title":"老洋房花园饭店","lon":"121.46436","lat":"31.20902","category":"76","category_name":"上海菜","address":"卢湾区绍兴路27号(近瑞金二路)"},{"poiid":"B2094757D06FA2FC409E","title":"蓝蛙(茂名店)","lon":"121.46315667","lat":"31.212204032","category":"260","category_name":"其他","address":"卢湾区茂名南路207号(近复兴中路)"},{"poiid":"B2094753D76FAAFA449C","title":"上海滩国泰旗舰店","lon":"121.466011","lat":"31.216125","category":"249","category_name":"购物服务","address":"淮海中路868号"},{"poiid":"B209475CD564A7F84292","title":"上海滩新天地店","lon":"121.47463","lat":"31.22164","category":"119","category_name":"商场","address":"\"太仓路181弄新天地北里15号\r\n\""},{"poiid":"B209475CD564A7F8439E","title":"上海滩中信泰富店","lon":"121.45602","lat":"31.22851","category":"119","category_name":"商场","address":"\"南京西路1168号中信泰富广场，店铺号221.\r\n\""},{"poiid":"B2094757D06FA2FA489F","title":"Le Creme Milano(永嘉路店)","lon":"121.4610629","lat":"31.210917858","category":"113","category_name":"冷饮店","address":"上海徐汇区陕西南路434号(近永嘉路)"},{"poiid":"B2094757D06FA7F9409B","title":"Las Tapas(茂名南路店)","lon":"121.46401","lat":"31.21097","category":"94","category_name":"西餐厅","address":"卢湾区茂名南路207-4号(近复兴中路)"},{"poiid":"B2094757D06BA4F94993","title":"Fée-café","lon":"121.46402373","lat":"31.208885845","category":"260","category_name":"其他","address":"卢湾区绍兴路15-1号(近瑞金二路)"},{"poiid":"B2094750D268A5FC4399","title":"Mimosa","lon":"121.461822","lat":"31.210657","category":"94","category_name":"西餐厅","address":"卢湾区永嘉路43号(近陕西南路)"},{"poiid":"B2094757D06FAAF44092","title":"酒池星座(永嘉路店)","lon":"121.46370962","lat":"31.2108551502","category":"260","category_name":"其他","address":"卢湾区永嘉路31号2楼(近茂名南路)"},{"poiid":"B2094757D168A4F9489B","title":"瑞金医院住院部","lon":"121.46528073","lat":"31.212016312","category":"162","category_name":"医院","address":"上海瑞金二路197号"},{"poiid":"B2094757D16EA0F9449A","title":"永康路","lon":"121.460757538","lat":"31.2108748877","category":"500","category_name":"未知分类","address":"上海徐汇区永康路"},{"poiid":"B2094757D06FA4F44193","title":"绍兴路","lon":"121.46502887","lat":"31.209877647","category":"260","category_name":"其他","address":"上海市卢湾区绍兴路"},{"poiid":"B2094757D06FA7FF499D","title":"Vienna Cafe","lon":"121.46324557","lat":"31.208931419","category":"260","category_name":"其他","address":"卢湾区绍兴路25弄2号(近陕西南路)"},{"poiid":"B2094757D06FA3F4499E","title":"Mi Tierra","lon":"121.46475","lat":"31.21089","category":"94","category_name":"西餐厅","address":"卢湾区永嘉路17号(近茂名南路)"},{"poiid":"B2094757DB69A1FC4393","title":"圣摩珂咖啡 日月光店ST-MARC CAFE","lon":"121.464463","lat":"31.2096","category":"247","category_name":"餐饮美食","address":"卢湾区徐家汇路618号日月光中心广场1楼(近泰康路)"},{"poiid":"B2094757D569A7F54693","title":"茂名大厦写字楼","lon":"121.4637981","lat":"31.21081111","category":"46","category_name":"楼宇","address":"卢湾区永嘉路27-35号"},{"poiid":"B2094654DA6EA1F5499D","title":"瑞金宾馆(西门)","lon":"121.46297","lat":"31.21274","category":"250","category_name":"公园户外","address":"茂名南路207"},{"poiid":"B2094757D76EAAFE439B","title":"玛哪胜地 绍兴路店 MANNE et SANTE","lon":"121.462357054","lat":"31.208839793","category":"112","category_name":"糕饼店","address":"卢湾区绍兴路96号甲2楼(近陕西南路)"},{"poiid":"B2094654DB6AA7F54498","title":"笙馆(绍兴路店)","lon":"121.46401","lat":"31.20989","category":"247","category_name":"餐饮美食","address":"卢湾区绍兴路54号(近陕西南路)查看地图"},{"poiid":"B2094757D66BA6FA449E","title":"袋鼠酒吧 kangaroo bar","lon":"121.46255709061","lat":"31.210679062652","category":"172","category_name":"酒吧","address":"卢湾区永嘉路35号(茂名南路口)"},{"poiid":"B2094654DA6EA1FB469A","title":"Pane e Vino","lon":"121.46327","lat":"31.21199","category":"94","category_name":"西餐厅","address":"卢湾区思南路47号(近复兴中路)"},{"poiid":"B2094757D068A2FD469A","title":"星座酒吧","lon":"121.46367251","lat":"31.210932298","category":"172","category_name":"酒吧","address":"上海永嘉路"},{"poiid":"B2094757D068A6F8469E","title":"瑞金医院36号楼","lon":"121.46151091","lat":"31.2122581836","category":"162","category_name":"医院","address":"上海思南路72号"},{"poiid":"B2094654DA6EA1F4429C","title":"上海文化广场(南门)","lon":"121.46263","lat":"31.21077","category":"202","category_name":"公园广场","address":"上海卢湾区复兴中路597号(近陕西南路)"},{"poiid":"B2094757D06EABF5499F","title":"新单位","lon":"121.461281","lat":"31.210108","category":"46","category_name":"楼宇","address":"卢湾区永嘉路50号(近陕西南路)"},{"poiid":"B2094757D069A3F94499","title":"双彩虹盲人按摩院(陕西店)","lon":"121.46314","lat":"31.21046","category":"149","category_name":"洗浴推拿场所","address":"上海卢湾区永嘉路45号(陕西南路口)"},{"poiid":"B2094750D26DA7F44492","title":"蝴姬日本料理","lon":"121.46288","lat":"31.210676","category":"247","category_name":"餐饮美食","address":"卢湾区徐家汇路618号日月光中心广场4楼(近瑞金二路)"},{"poiid":"B2094757D068A3F8449C","title":"裕华大厦","lon":"121.464","lat":"31.2089","category":"46","category_name":"楼宇","address":"铁西兴华南街与十马路交汇处"},{"poiid":"B2094751D36AA0FB469C","title":"The PlumpOyster普朗姆生蚝吧","lon":"121.462948","lat":"31.21048","category":"247","category_name":"餐饮美食","address":"建国中路171／169号301"},{"poiid":"B2094753DB69AAF84892","title":"千两","lon":"121.462593","lat":"31.213531","category":"247","category_name":"餐饮美食","address":"上海市 淮海中路999号环贸广场"},{"poiid":"B2094752D465A3FB489E","title":"candy lab","lon":"121.464053","lat":"31.210595","category":"248","category_name":"生活娱乐","address":"田子坊210弄20号"},{"poiid":"B2094757D468AAFC4599","title":"摩洛哥餐厅 茂名南路店 El wajh MaoMing","lon":"121.4636360347","lat":"31.211572614574","category":"94","category_name":"西餐厅","address":"卢湾区茂名南路207号8座(近永嘉路)"},{"poiid":"B2094757D16EA2F84098","title":"玛娜圣地","lon":"121.46361541","lat":"31.209356308","category":"65","category_name":"咖啡厅","address":"上海绍兴路96号"},{"poiid":"B2094655D36CA2FB4999","title":"陕西南路永嘉路","lon":"121.46139","lat":"31.21103","category":"38","category_name":"公交车站","address":""},{"poiid":"B2094757D16CA1F54492","title":"豪大大香鸡排","lon":"121.46330473","lat":"31.211305896","category":"247","category_name":"餐饮美食","address":"上海复兴中路1195号"},{"poiid":"B2094757D068A5FA4693","title":"绍兴公园","lon":"121.46341907","lat":"31.2094594357","category":"196","category_name":"公园","address":"卢湾区绍兴路62号(近陕西南路)"},{"poiid":"B2094757D468A5F5469D","title":"安仕意大利餐厅 Pane e Vino","lon":"121.46347767151","lat":"31.211302312453","category":"98","category_name":"意式菜品餐厅","address":"茂名南路207号-7近复兴中路永嘉路间"},{"poiid":"B2094654DB64A6FB469F","title":"汉庭酒店(陕西南路店)","lon":"121.46183","lat":"31.20946","category":"216","category_name":"经济型连锁酒店","address":"卢湾区陕西南路233号(近永嘉路)"},{"poiid":"B2094751DB6FA7FA4293","title":"田字坊Alley","lon":"121.46334","lat":"31.21071","category":"76","category_name":"上海菜","address":"卢湾区田字坊33号后门"},{"poiid":"B2094655D268A6F94298","title":"茂名大厦裙房","lon":"121.46379","lat":"31.21081","category":"46","category_name":"楼宇","address":"永嘉路31"},{"poiid":"B2094751D56EA6FD459D","title":"Blend Cafe & Lounge","lon":"121.4645","lat":"31.21132","category":"247","category_name":"餐饮美食","address":"徐汇区永嘉路15弄3号(近瑞金宾馆)"},{"poiid":"B2094757D568A6FE4092","title":"三金大厦","lon":"121.464","lat":"31.2115","category":"46","category_name":"楼宇","address":"襄阳南路500号"},{"poiid":"B2094654DA6EA1F44292","title":"可的(永嘉路)","lon":"121.46293","lat":"31.21057","category":"117","category_name":"便民商店/便利店","address":"徐汇区永嘉路33号101室(茂名南路永嘉路)"},{"poiid":"B2094757DA65A5FD499A","title":"一面行","lon":"121.462445","lat":"31.209391","category":"247","category_name":"餐饮美食","address":"卢湾区徐家汇路618号日月光广场B2美食广场F-35号商铺(近瑞金二路)"},{"poiid":"B2094757D064A3F9469C","title":"紋兵衛 瑞金店","lon":"121.46328773","lat":"31.213058934","category":"257","category_name":"中餐厅","address":"上海茂名南路205瑞金大厦１ＦA室"},{"poiid":"B2094654DA6EA1FB4592","title":"大吉日本料理(茂名南路)","lon":"121.46321","lat":"31.21212","category":"95","category_name":"日本料理","address":"卢湾区茂名南路207号(近复兴中路)"},{"poiid":"B2094655D26FAAFC4498","title":"上海理工大学东门(陕西南路)","lon":"121.46114","lat":"31.21159","category":"52","category_name":"高等院校","address":""},{"poiid":"B2094655D264A5FB4592","title":"城市建设投资开发公司办公楼","lon":"121.46426","lat":"31.21138","category":"46","category_name":"楼宇","address":"永嘉路18号"},{"poiid":"B2094654DB65A1FE4298","title":"上海文化广场","lon":"121.46212","lat":"31.21173","category":"202","category_name":"公园广场","address":"卢湾区复兴中路576号(近陕西南路)"},{"poiid":"B2094757D06FA7FF4092","title":"老洋房花园饭店","lon":"121.46436","lat":"31.20902","category":"76","category_name":"上海菜","address":"卢湾区绍兴路27号(近瑞金二路)"},{"poiid":"B2094757D06FA2FC409E","title":"蓝蛙(茂名店)","lon":"121.46315667","lat":"31.212204032","category":"260","category_name":"其他","address":"卢湾区茂名南路207号(近复兴中路)"},{"poiid":"B2094753D76FAAFA449C","title":"上海滩国泰旗舰店","lon":"121.466011","lat":"31.216125","category":"249","category_name":"购物服务","address":"淮海中路868号"},{"poiid":"B209475CD564A7F84292","title":"上海滩新天地店","lon":"121.47463","lat":"31.22164","category":"119","category_name":"商场","address":"\"太仓路181弄新天地北里15号\r\n\""},{"poiid":"B209475CD564A7F8439E","title":"上海滩中信泰富店","lon":"121.45602","lat":"31.22851","category":"119","category_name":"商场","address":"\"南京西路1168号中信泰富广场，店铺号221.\r\n\""},{"poiid":"B2094757D06FA2FA489F","title":"Le Creme Milano(永嘉路店)","lon":"121.4610629","lat":"31.210917858","category":"113","category_name":"冷饮店","address":"上海徐汇区陕西南路434号(近永嘉路)"},{"poiid":"B2094757D06FA7F9409B","title":"Las Tapas(茂名南路店)","lon":"121.46401","lat":"31.21097","category":"94","category_name":"西餐厅","address":"卢湾区茂名南路207-4号(近复兴中路)"},{"poiid":"B2094757D06BA4F94993","title":"Fée-café","lon":"121.46402373","lat":"31.208885845","category":"260","category_name":"其他","address":"卢湾区绍兴路15-1号(近瑞金二路)"},{"poiid":"B2094750D268A5FC4399","title":"Mimosa","lon":"121.461822","lat":"31.210657","category":"94","category_name":"西餐厅","address":"卢湾区永嘉路43号(近陕西南路)"},{"poiid":"B2094757D06FAAF44092","title":"酒池星座(永嘉路店)","lon":"121.46370962","lat":"31.2108551502","category":"260","category_name":"其他","address":"卢湾区永嘉路31号2楼(近茂名南路)"},{"poiid":"B2094757D168A4F9489B","title":"瑞金医院住院部","lon":"121.46528073","lat":"31.212016312","category":"162","category_name":"医院","address":"上海瑞金二路197号"},{"poiid":"B2094757D16EA0F9449A","title":"永康路","lon":"121.460757538","lat":"31.2108748877","category":"500","category_name":"未知分类","address":"上海徐汇区永康路"},{"poiid":"B2094757D06FA4F44193","title":"绍兴路","lon":"121.46502887","lat":"31.209877647","category":"260","category_name":"其他","address":"上海市卢湾区绍兴路"},{"poiid":"B2094757D06FA7FF499D","title":"Vienna Cafe","lon":"121.46324557","lat":"31.208931419","category":"260","category_name":"其他","address":"卢湾区绍兴路25弄2号(近陕西南路)"},{"poiid":"B2094757D06FA3F4499E","title":"Mi Tierra","lon":"121.46475","lat":"31.21089","category":"94","category_name":"西餐厅","address":"卢湾区永嘉路17号(近茂名南路)"},{"poiid":"B2094757DB69A1FC4393","title":"圣摩珂咖啡 日月光店ST-MARC CAFE","lon":"121.464463","lat":"31.2096","category":"247","category_name":"餐饮美食","address":"卢湾区徐家汇路618号日月光中心广场1楼(近泰康路)"},{"poiid":"B2094757D569A7F54693","title":"茂名大厦写字楼","lon":"121.4637981","lat":"31.21081111","category":"46","category_name":"楼宇","address":"卢湾区永嘉路27-35号"},{"poiid":"B2094654DA6EA1F5499D","title":"瑞金宾馆(西门)","lon":"121.46297","lat":"31.21274","category":"250","category_name":"公园户外","address":"茂名南路207"},{"poiid":"B2094757D76EAAFE439B","title":"玛哪胜地 绍兴路店 MANNE et SANTE","lon":"121.462357054","lat":"31.208839793","category":"112","category_name":"糕饼店","address":"卢湾区绍兴路96号甲2楼(近陕西南路)"},{"poiid":"B2094654DB6AA7F54498","title":"笙馆(绍兴路店)","lon":"121.46401","lat":"31.20989","category":"247","category_name":"餐饮美食","address":"卢湾区绍兴路54号(近陕西南路)查看地图"},{"poiid":"B2094757D66BA6FA449E","title":"袋鼠酒吧 kangaroo bar","lon":"121.46255709061","lat":"31.210679062652","category":"172","category_name":"酒吧","address":"卢湾区永嘉路35号(茂名南路口)"},{"poiid":"B2094654DA6EA1FB469A","title":"Pane e Vino","lon":"121.46327","lat":"31.21199","category":"94","category_name":"西餐厅","address":"卢湾区思南路47号(近复兴中路)"},{"poiid":"B2094757D068A2FD469A","title":"星座酒吧","lon":"121.46367251","lat":"31.210932298","category":"172","category_name":"酒吧","address":"上海永嘉路"},{"poiid":"B2094757D068A6F8469E","title":"瑞金医院36号楼","lon":"121.46151091","lat":"31.2122581836","category":"162","category_name":"医院","address":"上海思南路72号"},{"poiid":"B2094654DA6EA1F4429C","title":"上海文化广场(南门)","lon":"121.46263","lat":"31.21077","category":"202","category_name":"公园广场","address":"上海卢湾区复兴中路597号(近陕西南路)"},{"poiid":"B2094757D06EABF5499F","title":"新单位","lon":"121.461281","lat":"31.210108","category":"46","category_name":"楼宇","address":"卢湾区永嘉路50号(近陕西南路)"},{"poiid":"B2094757D069A3F94499","title":"双彩虹盲人按摩院(陕西店)","lon":"121.46314","lat":"31.21046","category":"149","category_name":"洗浴推拿场所","address":"上海卢湾区永嘉路45号(陕西南路口)"},{"poiid":"B2094750D26DA7F44492","title":"蝴姬日本料理","lon":"121.46288","lat":"31.210676","category":"247","category_name":"餐饮美食","address":"卢湾区徐家汇路618号日月光中心广场4楼(近瑞金二路)"},{"poiid":"B2094757D068A3F8449C","title":"裕华大厦","lon":"121.464","lat":"31.2089","category":"46","category_name":"楼宇","address":"铁西兴华南街与十马路交汇处"},{"poiid":"B2094751D36AA0FB469C","title":"The PlumpOyster普朗姆生蚝吧","lon":"121.462948","lat":"31.21048","category":"247","category_name":"餐饮美食","address":"建国中路171／169号301"},{"poiid":"B2094753DB69AAF84892","title":"千两","lon":"121.462593","lat":"31.213531","category":"247","category_name":"餐饮美食","address":"上海市 淮海中路999号环贸广场"},{"poiid":"B2094752D465A3FB489E","title":"candy lab","lon":"121.464053","lat":"31.210595","category":"248","category_name":"生活娱乐","address":"田子坊210弄20号"},{"poiid":"B2094757D468AAFC4599","title":"摩洛哥餐厅 茂名南路店 El wajh MaoMing","lon":"121.4636360347","lat":"31.211572614574","category":"94","category_name":"西餐厅","address":"卢湾区茂名南路207号8座(近永嘉路)"},{"poiid":"B2094757D16EA2F84098","title":"玛娜圣地","lon":"121.46361541","lat":"31.209356308","category":"65","category_name":"咖啡厅","address":"上海绍兴路96号"},{"poiid":"B2094655D36CA2FB4999","title":"陕西南路永嘉路","lon":"121.46139","lat":"31.21103","category":"38","category_name":"公交车站","address":""},{"poiid":"B2094757D16CA1F54492","title":"豪大大香鸡排","lon":"121.46330473","lat":"31.211305896","category":"247","category_name":"餐饮美食","address":"上海复兴中路1195号"},{"poiid":"B2094757D068A5FA4693","title":"绍兴公园","lon":"121.46341907","lat":"31.2094594357","category":"196","category_name":"公园","address":"卢湾区绍兴路62号(近陕西南路)"},{"poiid":"B2094757D468A5F5469D","title":"安仕意大利餐厅 Pane e Vino","lon":"121.46347767151","lat":"31.211302312453","category":"98","category_name":"意式菜品餐厅","address":"茂名南路207号-7近复兴中路永嘉路间"},{"poiid":"B2094654DB64A6FB469F","title":"汉庭酒店(陕西南路店)","lon":"121.46183","lat":"31.20946","category":"216","category_name":"经济型连锁酒店","address":"卢湾区陕西南路233号(近永嘉路)"},{"poiid":"B2094751DB6FA7FA4293","title":"田字坊Alley","lon":"121.46334","lat":"31.21071","category":"76","category_name":"上海菜","address":"卢湾区田字坊33号后门"},{"poiid":"B2094655D268A6F94298","title":"茂名大厦裙房","lon":"121.46379","lat":"31.21081","category":"46","category_name":"楼宇","address":"永嘉路31"},{"poiid":"B2094751D56EA6FD459D","title":"Blend Cafe & Lounge","lon":"121.4645","lat":"31.21132","category":"247","category_name":"餐饮美食","address":"徐汇区永嘉路15弄3号(近瑞金宾馆)"},{"poiid":"B2094757D568A6FE4092","title":"三金大厦","lon":"121.464","lat":"31.2115","category":"46","category_name":"楼宇","address":"襄阳南路500号"},{"poiid":"B2094654DA6EA1F44292","title":"可的(永嘉路)","lon":"121.46293","lat":"31.21057","category":"117","category_name":"便民商店/便利店","address":"徐汇区永嘉路33号101室(茂名南路永嘉路)"},{"poiid":"B2094757DA65A5FD499A","title":"一面行","lon":"121.462445","lat":"31.209391","category":"247","category_name":"餐饮美食","address":"卢湾区徐家汇路618号日月光广场B2美食广场F-35号商铺(近瑞金二路)"},{"poiid":"B2094757D064A3F9469C","title":"紋兵衛 瑞金店","lon":"121.46328773","lat":"31.213058934","category":"257","category_name":"中餐厅","address":"上海茂名南路205瑞金大厦１ＦA室"},{"poiid":"B2094654DA6EA1FB4592","title":"大吉日本料理(茂名南路)","lon":"121.46321","lat":"31.21212","category":"95","category_name":"日本料理","address":"卢湾区茂名南路207号(近复兴中路)"},{"poiid":"B2094655D26FAAFC4498","title":"上海理工大学东门(陕西南路)","lon":"121.46114","lat":"31.21159","category":"52","category_name":"高等院校","address":""},{"poiid":"B2094655D264A5FB4592","title":"城市建设投资开发公司办公楼","lon":"121.46426","lat":"31.21138","category":"46","category_name":"楼宇","address":"永嘉路18号"},{"poiid":"B2094654DB65A1FE4298","title":"上海文化广场","lon":"121.46212","lat":"31.21173","category":"202","category_name":"公园广场","address":"卢湾区复兴中路576号(近陕西南路)"},{"poiid":"B2094757D06FA7FF4092","title":"老洋房花园饭店","lon":"121.46436","lat":"31.20902","category":"76","category_name":"上海菜","address":"卢湾区绍兴路27号(近瑞金二路)"},{"poiid":"B2094757D06FA2FC409E","title":"蓝蛙(茂名店)","lon":"121.46315667","lat":"31.212204032","category":"260","category_name":"其他","address":"卢湾区茂名南路207号(近复兴中路)"},{"poiid":"B2094753D76FAAFA449C","title":"上海滩国泰旗舰店","lon":"121.466011","lat":"31.216125","category":"249","category_name":"购物服务","address":"淮海中路868号"},{"poiid":"B209475CD564A7F84292","title":"上海滩新天地店","lon":"121.47463","lat":"31.22164","category":"119","category_name":"商场","address":"\"太仓路181弄新天地北里15号\r\n\""},{"poiid":"B209475CD564A7F8439E","title":"上海滩中信泰富店","lon":"121.45602","lat":"31.22851","category":"119","category_name":"商场","address":"\"南京西路1168号中信泰富广场，店铺号221.\r\n\""},{"poiid":"B2094757D06FA2FA489F","title":"Le Creme Milano(永嘉路店)","lon":"121.4610629","lat":"31.210917858","category":"113","category_name":"冷饮店","address":"上海徐汇区陕西南路434号(近永嘉路)"},{"poiid":"B2094757D06FA7F9409B","title":"Las Tapas(茂名南路店)","lon":"121.46401","lat":"31.21097","category":"94","category_name":"西餐厅","address":"卢湾区茂名南路207-4号(近复兴中路)"},{"poiid":"B2094757D06BA4F94993","title":"Fée-café","lon":"121.46402373","lat":"31.208885845","category":"260","category_name":"其他","address":"卢湾区绍兴路15-1号(近瑞金二路)"},{"poiid":"B2094750D268A5FC4399","title":"Mimosa","lon":"121.461822","lat":"31.210657","category":"94","category_name":"西餐厅","address":"卢湾区永嘉路43号(近陕西南路)"},{"poiid":"B2094757D06FAAF44092","title":"酒池星座(永嘉路店)","lon":"121.46370962","lat":"31.2108551502","category":"260","category_name":"其他","address":"卢湾区永嘉路31号2楼(近茂名南路)"},{"poiid":"B2094757D168A4F9489B","title":"瑞金医院住院部","lon":"121.46528073","lat":"31.212016312","category":"162","category_name":"医院","address":"上海瑞金二路197号"},{"poiid":"B2094757D16EA0F9449A","title":"永康路","lon":"121.460757538","lat":"31.2108748877","category":"500","category_name":"未知分类","address":"上海徐汇区永康路"},{"poiid":"B2094757D06FA4F44193","title":"绍兴路","lon":"121.46502887","lat":"31.209877647","category":"260","category_name":"其他","address":"上海市卢湾区绍兴路"},{"poiid":"B2094757D06FA7FF499D","title":"Vienna Cafe","lon":"121.46324557","lat":"31.208931419","category":"260","category_name":"其他","address":"卢湾区绍兴路25弄2号(近陕西南路)"},{"poiid":"B2094757D06FA3F4499E","title":"Mi Tierra","lon":"121.46475","lat":"31.21089","category":"94","category_name":"西餐厅","address":"卢湾区永嘉路17号(近茂名南路)"},{"poiid":"B2094757DB69A1FC4393","title":"圣摩珂咖啡 日月光店ST-MARC CAFE","lon":"121.464463","lat":"31.2096","category":"247","category_name":"餐饮美食","address":"卢湾区徐家汇路618号日月光中心广场1楼(近泰康路)"},{"poiid":"B2094757D569A7F54693","title":"茂名大厦写字楼","lon":"121.4637981","lat":"31.21081111","category":"46","category_name":"楼宇","address":"卢湾区永嘉路27-35号"},{"poiid":"B2094654DA6EA1F5499D","title":"瑞金宾馆(西门)","lon":"121.46297","lat":"31.21274","category":"250","category_name":"公园户外","address":"茂名南路207"},{"poiid":"B2094757D76EAAFE439B","title":"玛哪胜地 绍兴路店 MANNE et SANTE","lon":"121.462357054","lat":"31.208839793","category":"112","category_name":"糕饼店","address":"卢湾区绍兴路96号甲2楼(近陕西南路)"},{"poiid":"B2094654DB6AA7F54498","title":"笙馆(绍兴路店)","lon":"121.46401","lat":"31.20989","category":"247","category_name":"餐饮美食","address":"卢湾区绍兴路54号(近陕西南路)查看地图"},{"poiid":"B2094757D66BA6FA449E","title":"袋鼠酒吧 kangaroo bar","lon":"121.46255709061","lat":"31.210679062652","category":"172","category_name":"酒吧","address":"卢湾区永嘉路35号(茂名南路口)"},{"poiid":"B2094654DA6EA1FB469A","title":"Pane e Vino","lon":"121.46327","lat":"31.21199","category":"94","category_name":"西餐厅","address":"卢湾区思南路47号(近复兴中路)"},{"poiid":"B2094757D068A2FD469A","title":"星座酒吧","lon":"121.46367251","lat":"31.210932298","category":"172","category_name":"酒吧","address":"上海永嘉路"},{"poiid":"B2094757D068A6F8469E","title":"瑞金医院36号楼","lon":"121.46151091","lat":"31.2122581836","category":"162","category_name":"医院","address":"上海思南路72号"},{"poiid":"B2094654DA6EA1F4429C","title":"上海文化广场(南门)","lon":"121.46263","lat":"31.21077","category":"202","category_name":"公园广场","address":"上海卢湾区复兴中路597号(近陕西南路)"},{"poiid":"B2094757D06EABF5499F","title":"新单位","lon":"121.461281","lat":"31.210108","category":"46","category_name":"楼宇","address":"卢湾区永嘉路50号(近陕西南路)"},{"poiid":"B2094757D069A3F94499","title":"双彩虹盲人按摩院(陕西店)","lon":"121.46314","lat":"31.21046","category":"149","category_name":"洗浴推拿场所","address":"上海卢湾区永嘉路45号(陕西南路口)"},{"poiid":"B2094750D26DA7F44492","title":"蝴姬日本料理","lon":"121.46288","lat":"31.210676","category":"247","category_name":"餐饮美食","address":"卢湾区徐家汇路618号日月光中心广场4楼(近瑞金二路)"},{"poiid":"B2094757D068A3F8449C","title":"裕华大厦","lon":"121.464","lat":"31.2089","category":"46","category_name":"楼宇","address":"铁西兴华南街与十马路交汇处"},{"poiid":"B2094751D36AA0FB469C","title":"The PlumpOyster普朗姆生蚝吧","lon":"121.462948","lat":"31.21048","category":"247","category_name":"餐饮美食","address":"建国中路171／169号301"},{"poiid":"B2094753DB69AAF84892","title":"千两","lon":"121.462593","lat":"31.213531","category":"247","category_name":"餐饮美食","address":"上海市 淮海中路999号环贸广场"},{"poiid":"B2094752D465A3FB489E","title":"candy lab","lon":"121.464053","lat":"31.210595","category":"248","category_name":"生活娱乐","address":"田子坊210弄20号"},{"poiid":"B2094757D468AAFC4599","title":"摩洛哥餐厅 茂名南路店 El wajh MaoMing","lon":"121.4636360347","lat":"31.211572614574","category":"94","category_name":"西餐厅","address":"卢湾区茂名南路207号8座(近永嘉路)"},{"poiid":"B2094757D16EA2F84098","title":"玛娜圣地","lon":"121.46361541","lat":"31.209356308","category":"65","category_name":"咖啡厅","address":"上海绍兴路96号"},{"poiid":"B2094655D36CA2FB4999","title":"陕西南路永嘉路","lon":"121.46139","lat":"31.21103","category":"38","category_name":"公交车站","address":""},{"poiid":"B2094757D16CA1F54492","title":"豪大大香鸡排","lon":"121.46330473","lat":"31.211305896","category":"247","category_name":"餐饮美食","address":"上海复兴中路1195号"},{"poiid":"B2094757D068A5FA4693","title":"绍兴公园","lon":"121.46341907","lat":"31.2094594357","category":"196","category_name":"公园","address":"卢湾区绍兴路62号(近陕西南路)"},{"poiid":"B2094757D468A5F5469D","title":"安仕意大利餐厅 Pane e Vino","lon":"121.46347767151","lat":"31.211302312453","category":"98","category_name":"意式菜品餐厅","address":"茂名南路207号-7近复兴中路永嘉路间"},{"poiid":"B2094654DB64A6FB469F","title":"汉庭酒店(陕西南路店)","lon":"121.46183","lat":"31.20946","category":"216","category_name":"经济型连锁酒店","address":"卢湾区陕西南路233号(近永嘉路)"},{"poiid":"B2094751DB6FA7FA4293","title":"田字坊Alley","lon":"121.46334","lat":"31.21071","category":"76","category_name":"上海菜","address":"卢湾区田字坊33号后门"},{"poiid":"B2094655D268A6F94298","title":"茂名大厦裙房","lon":"121.46379","lat":"31.21081","category":"46","category_name":"楼宇","address":"永嘉路31"},{"poiid":"B2094751D56EA6FD459D","title":"Blend Cafe & Lounge","lon":"121.4645","lat":"31.21132","category":"247","category_name":"餐饮美食","address":"徐汇区永嘉路15弄3号(近瑞金宾馆)"},{"poiid":"B2094757D568A6FE4092","title":"三金大厦","lon":"121.464","lat":"31.2115","category":"46","category_name":"楼宇","address":"襄阳南路500号"},{"poiid":"B2094654DA6EA1F44292","title":"可的(永嘉路)","lon":"121.46293","lat":"31.21057","category":"117","category_name":"便民商店/便利店","address":"徐汇区永嘉路33号101室(茂名南路永嘉路)"},{"poiid":"B2094757DA65A5FD499A","title":"一面行","lon":"121.462445","lat":"31.209391","category":"247","category_name":"餐饮美食","address":"卢湾区徐家汇路618号日月光广场B2美食广场F-35号商铺(近瑞金二路)"},{"poiid":"B2094757D064A3F9469C","title":"紋兵衛 瑞金店","lon":"121.46328773","lat":"31.213058934","category":"257","category_name":"中餐厅","address":"上海茂名南路205瑞金大厦１ＦA室"},{"poiid":"B2094654DA6EA1FB4592","title":"大吉日本料理(茂名南路)","lon":"121.46321","lat":"31.21212","category":"95","category_name":"日本料理","address":"卢湾区茂名南路207号(近复兴中路)"},{"poiid":"B2094655D26FAAFC4498","title":"上海理工大学东门(陕西南路)","lon":"121.46114","lat":"31.21159","category":"52","category_name":"高等院校","address":""},{"poiid":"B2094655D264A5FB4592","title":"城市建设投资开发公司办公楼","lon":"121.46426","lat":"31.21138","category":"46","category_name":"楼宇","address":"永嘉路18号"},{"poiid":"B2094654DB65A1FE4298","title":"上海文化广场","lon":"121.46212","lat":"31.21173","category":"202","category_name":"公园广场","address":"卢湾区复兴中路576号(近陕西南路)"},{"poiid":"B2094757D06FA7FF4092","title":"老洋房花园饭店","lon":"121.46436","lat":"31.20902","category":"76","category_name":"上海菜","address":"卢湾区绍兴路27号(近瑞金二路)"},{"poiid":"B2094757D06FA2FC409E","title":"蓝蛙(茂名店)","lon":"121.46315667","lat":"31.212204032","category":"260","category_name":"其他","address":"卢湾区茂名南路207号(近复兴中路)"},{"poiid":"B2094753D76FAAFA449C","title":"上海滩国泰旗舰店","lon":"121.466011","lat":"31.216125","category":"249","category_name":"购物服务","address":"淮海中路868号"},{"poiid":"B209475CD564A7F84292","title":"上海滩新天地店","lon":"121.47463","lat":"31.22164","category":"119","category_name":"商场","address":"\"太仓路181弄新天地北里15号\r\n\""},{"poiid":"B209475CD564A7F8439E","title":"上海滩中信泰富店","lon":"121.45602","lat":"31.22851","category":"119","category_name":"商场","address":"\"南京西路1168号中信泰富广场，店铺号221.\r\n\""},{"poiid":"B2094757D06FA2FA489F","title":"Le Creme Milano(永嘉路店)","lon":"121.4610629","lat":"31.210917858","category":"113","category_name":"冷饮店","address":"上海徐汇区陕西南路434号(近永嘉路)"},{"poiid":"B2094757D06FA7F9409B","title":"Las Tapas(茂名南路店)","lon":"121.46401","lat":"31.21097","category":"94","category_name":"西餐厅","address":"卢湾区茂名南路207-4号(近复兴中路)"},{"poiid":"B2094757D06BA4F94993","title":"Fée-café","lon":"121.46402373","lat":"31.208885845","category":"260","category_name":"其他","address":"卢湾区绍兴路15-1号(近瑞金二路)"},{"poiid":"B2094750D268A5FC4399","title":"Mimosa","lon":"121.461822","lat":"31.210657","category":"94","category_name":"西餐厅","address":"卢湾区永嘉路43号(近陕西南路)"},{"poiid":"B2094757D06FAAF44092","title":"酒池星座(永嘉路店)","lon":"121.46370962","lat":"31.2108551502","category":"260","category_name":"其他","address":"卢湾区永嘉路31号2楼(近茂名南路)"},{"poiid":"B2094757D168A4F9489B","title":"瑞金医院住院部","lon":"121.46528073","lat":"31.212016312","category":"162","category_name":"医院","address":"上海瑞金二路197号"},{"poiid":"B2094757D16EA0F9449A","title":"永康路","lon":"121.460757538","lat":"31.2108748877","category":"500","category_name":"未知分类","address":"上海徐汇区永康路"},{"poiid":"B2094757D06FA4F44193","title":"绍兴路","lon":"121.46502887","lat":"31.209877647","category":"260","category_name":"其他","address":"上海市卢湾区绍兴路"},{"poiid":"B2094757D06FA7FF499D","title":"Vienna Cafe","lon":"121.46324557","lat":"31.208931419","category":"260","category_name":"其他","address":"卢湾区绍兴路25弄2号(近陕西南路)"},{"poiid":"B2094757D06FA3F4499E","title":"Mi Tierra","lon":"121.46475","lat":"31.21089","category":"94","category_name":"西餐厅","address":"卢湾区永嘉路17号(近茂名南路)"},{"poiid":"B2094757DB69A1FC4393","title":"圣摩珂咖啡 日月光店ST-MARC CAFE","lon":"121.464463","lat":"31.2096","category":"247","category_name":"餐饮美食","address":"卢湾区徐家汇路618号日月光中心广场1楼(近泰康路)"},{"poiid":"B2094757D569A7F54693","title":"茂名大厦写字楼","lon":"121.4637981","lat":"31.21081111","category":"46","category_name":"楼宇","address":"卢湾区永嘉路27-35号"},{"poiid":"B2094654DA6EA1F5499D","title":"瑞金宾馆(西门)","lon":"121.46297","lat":"31.21274","category":"250","category_name":"公园户外","address":"茂名南路207"},{"poiid":"B2094757D76EAAFE439B","title":"玛哪胜地 绍兴路店 MANNE et SANTE","lon":"121.462357054","lat":"31.208839793","category":"112","category_name":"糕饼店","address":"卢湾区绍兴路96号甲2楼(近陕西南路)"},{"poiid":"B2094654DB6AA7F54498","title":"笙馆(绍兴路店)","lon":"121.46401","lat":"31.20989","category":"247","category_name":"餐饮美食","address":"卢湾区绍兴路54号(近陕西南路)查看地图"},{"poiid":"B2094757D66BA6FA449E","title":"袋鼠酒吧 kangaroo bar","lon":"121.46255709061","lat":"31.210679062652","category":"172","category_name":"酒吧","address":"卢湾区永嘉路35号(茂名南路口)"},{"poiid":"B2094654DA6EA1FB469A","title":"Pane e Vino","lon":"121.46327","lat":"31.21199","category":"94","category_name":"西餐厅","address":"卢湾区思南路47号(近复兴中路)"},{"poiid":"B2094757D068A2FD469A","title":"星座酒吧","lon":"121.46367251","lat":"31.210932298","category":"172","category_name":"酒吧","address":"上海永嘉路"},{"poiid":"B2094757D068A6F8469E","title":"瑞金医院36号楼","lon":"121.46151091","lat":"31.2122581836","category":"162","category_name":"医院","address":"上海思南路72号"},{"poiid":"B2094654DA6EA1F4429C","title":"上海文化广场(南门)","lon":"121.46263","lat":"31.21077","category":"202","category_name":"公园广场","address":"上海卢湾区复兴中路597号(近陕西南路)"},{"poiid":"B2094757D06EABF5499F","title":"新单位","lon":"121.461281","lat":"31.210108","category":"46","category_name":"楼宇","address":"卢湾区永嘉路50号(近陕西南路)"},{"poiid":"B2094757D069A3F94499","title":"双彩虹盲人按摩院(陕西店)","lon":"121.46314","lat":"31.21046","category":"149","category_name":"洗浴推拿场所","address":"上海卢湾区永嘉路45号(陕西南路口)"},{"poiid":"B2094750D26DA7F44492","title":"蝴姬日本料理","lon":"121.46288","lat":"31.210676","category":"247","category_name":"餐饮美食","address":"卢湾区徐家汇路618号日月光中心广场4楼(近瑞金二路)"},{"poiid":"B2094757D068A3F8449C","title":"裕华大厦","lon":"121.464","lat":"31.2089","category":"46","category_name":"楼宇","address":"铁西兴华南街与十马路交汇处"},{"poiid":"B2094751D36AA0FB469C","title":"The PlumpOyster普朗姆生蚝吧","lon":"121.462948","lat":"31.21048","category":"247","category_name":"餐饮美食","address":"建国中路171／169号301"},{"poiid":"B2094753DB69AAF84892","title":"千两","lon":"121.462593","lat":"31.213531","category":"247","category_name":"餐饮美食","address":"上海市 淮海中路999号环贸广场"},{"poiid":"B2094752D465A3FB489E","title":"candy lab","lon":"121.464053","lat":"31.210595","category":"248","category_name":"生活娱乐","address":"田子坊210弄20号"},{"poiid":"B2094757D468AAFC4599","title":"摩洛哥餐厅 茂名南路店 El wajh MaoMing","lon":"121.4636360347","lat":"31.211572614574","category":"94","category_name":"西餐厅","address":"卢湾区茂名南路207号8座(近永嘉路)"},{"poiid":"B2094757D16EA2F84098","title":"玛娜圣地","lon":"121.46361541","lat":"31.209356308","category":"65","category_name":"咖啡厅","address":"上海绍兴路96号"},{"poiid":"B2094655D36CA2FB4999","title":"陕西南路永嘉路","lon":"121.46139","lat":"31.21103","category":"38","category_name":"公交车站","address":""},{"poiid":"B2094757D16CA1F54492","title":"豪大大香鸡排","lon":"121.46330473","lat":"31.211305896","category":"247","category_name":"餐饮美食","address":"上海复兴中路1195号"},{"poiid":"B2094757D068A5FA4693","title":"绍兴公园","lon":"121.46341907","lat":"31.2094594357","category":"196","category_name":"公园","address":"卢湾区绍兴路62号(近陕西南路)"},{"poiid":"B2094757D468A5F5469D","title":"安仕意大利餐厅 Pane e Vino","lon":"121.46347767151","lat":"31.211302312453","category":"98","category_name":"意式菜品餐厅","address":"茂名南路207号-7近复兴中路永嘉路间"},{"poiid":"B2094654DB64A6FB469F","title":"汉庭酒店(陕西南路店)","lon":"121.46183","lat":"31.20946","category":"216","category_name":"经济型连锁酒店","address":"卢湾区陕西南路233号(近永嘉路)"},{"poiid":"B2094751DB6FA7FA4293","title":"田字坊Alley","lon":"121.46334","lat":"31.21071","category":"76","category_name":"上海菜","address":"卢湾区田字坊33号后门"},{"poiid":"B2094655D268A6F94298","title":"茂名大厦裙房","lon":"121.46379","lat":"31.21081","category":"46","category_name":"楼宇","address":"永嘉路31"},{"poiid":"B2094751D56EA6FD459D","title":"Blend Cafe & Lounge","lon":"121.4645","lat":"31.21132","category":"247","category_name":"餐饮美食","address":"徐汇区永嘉路15弄3号(近瑞金宾馆)"},{"poiid":"B2094757D568A6FE4092","title":"三金大厦","lon":"121.464","lat":"31.2115","category":"46","category_name":"楼宇","address":"襄阳南路500号"},{"poiid":"B2094654DA6EA1F44292","title":"可的(永嘉路)","lon":"121.46293","lat":"31.21057","category":"117","category_name":"便民商店/便利店","address":"徐汇区永嘉路33号101室(茂名南路永嘉路)"},{"poiid":"B2094757DA65A5FD499A","title":"一面行","lon":"121.462445","lat":"31.209391","category":"247","category_name":"餐饮美食","address":"卢湾区徐家汇路618号日月光广场B2美食广场F-35号商铺(近瑞金二路)"},{"poiid":"B2094757D064A3F9469C","title":"紋兵衛 瑞金店","lon":"121.46328773","lat":"31.213058934","category":"257","category_name":"中餐厅","address":"上海茂名南路205瑞金大厦１ＦA室"},{"poiid":"B2094654DA6EA1FB4592","title":"大吉日本料理(茂名南路)","lon":"121.46321","lat":"31.21212","category":"95","category_name":"日本料理","address":"卢湾区茂名南路207号(近复兴中路)"},{"poiid":"B2094655D26FAAFC4498","title":"上海理工大学东门(陕西南路)","lon":"121.46114","lat":"31.21159","category":"52","category_name":"高等院校","address":""},{"poiid":"B2094655D264A5FB4592","title":"城市建设投资开发公司办公楼","lon":"121.46426","lat":"31.21138","category":"46","category_name":"楼宇","address":"永嘉路18号"}]