[{"poiid":"B2094757D06FAAFA409F","title":"大同中学","lon":"121.49336","lat":"31.20645","category":"55","category_name":"中学","address":"黄浦区南车站路353号(瞿溪路南车站路)"},{"poiid":"B2094654DA68A2FF479E","title":"上海外国语大学附属大境中学","lon":"121.49034","lat":"31.20395","category":"55","category_name":"中学","address":"黄浦区保屯路210号(近瞿溪路)"},{"poiid":"B2094757D06FA5FF4292","title":"瞿溪新村","lon":"121.49477","lat":"31.205893","category":"47","category_name":"住宅区","address":"黄浦区瞿溪路120弄"},{"poiid":"B2094753D76FAAFA449C","title":"上海滩国泰旗舰店","lon":"121.466011","lat":"31.216125","category":"249","category_name":"购物服务","address":"淮海中路868号"},{"poiid":"B209475CD564A7F84292","title":"上海滩新天地店","lon":"121.47463","lat":"31.22164","category":"119","category_name":"商场","address":"\"太仓路181弄新天地北里15号\r\n\""},{"poiid":"B2094654DB64A6FA449F","title":"振鼎鸡 南车站路店","lon":"121.492433054","lat":"31.206528793","category":"68","category_name":"快餐厅","address":"黄浦区南车站路388号(瞿溪路南车站路)"},{"poiid":"B2094757D16AABFA409E","title":"地铁6号线世纪大道站","lon":"121.495764738","lat":"31.2038677385","category":"500","category_name":"未知分类","address":"上海"},{"poiid":"B2094655D26FA5FB4593","title":"同济·蓬莱家园","lon":"121.49293","lat":"31.20554","category":"47","category_name":"住宅区","address":"瞿溪路301弄1-4号"},{"poiid":"B2094654DA68A7F84299","title":"丽都大厦","lon":"121.492","lat":"31.2052","category":"46","category_name":"楼宇","address":"朝阳亚运村北炎黄艺术馆旁"},{"poiid":"B2094655D36DA7F8479E","title":"中山南路南车站路","lon":"121.49381","lat":"31.20426","category":"38","category_name":"公交车站","address":""},{"poiid":"B2094654DA68A2F84892","title":"上海市大同初级中学","lon":"121.49296","lat":"31.2047","category":"55","category_name":"中学","address":"黄浦区瞿溪路202号(近南车站路)"},{"poiid":"B2094654DA68A2F8489D","title":"四海游龙 黄浦店 OVERSEAS DRAGON","lon":"121.493192054","lat":"31.205362793","category":"68","category_name":"快餐厅","address":"黄浦区南车站路438号(瞿溪路口)"},{"poiid":"B2094655D26AA5F8449D","title":"大富贵酒楼普育东路店","lon":"121.4959","lat":"31.20773","category":"76","category_name":"上海菜","address":"黄浦区普育东路227号(瞿溪路普育东路)"},{"poiid":"B2094751D36DA5F5499A","title":"农屋里香(蓬莱店)","lon":"121.49285","lat":"31.2063","category":"87","category_name":"特色／地方风味餐厅","address":"黄浦区南车站路368号(近瞿溪路)"},{"poiid":"B2094757D06BA1F44992","title":"黄浦区体检站","lon":"121.494562","lat":"31.204399","category":"162","category_name":"医院","address":"黄浦区南车站路501号(近中山南路)"},{"poiid":"B2094751D464A0FF4099","title":"当代艺术博物馆","lon":"121.4935019349709","lat":"31.2033344119268","category":"500","category_name":"未知分类","address":"花园港路200号"},{"poiid":"B2094654DA68A0FC479B","title":"金中苑商务楼","lon":"121.49163","lat":"31.20221","category":"46","category_name":"楼宇","address":"黄浦区南京东路311号"},{"poiid":"B2094654DB6BABF8439A","title":"玉府饭店","lon":"121.4932836702","lat":"31.203560235979","category":"76","category_name":"上海菜","address":"黄浦区中山南路1717号(近西藏南路)"},{"poiid":"B2094655D26EA7F5489A","title":"好德(南车站路)","lon":"121.49378","lat":"31.20472","category":"117","category_name":"便民商店/便利店","address":"中山南路1700号"},{"poiid":"B2094655D26FA4FB479C","title":"中山南路1726弄小区(南门)","lon":"121.49312","lat":"31.20409","category":"47","category_name":"住宅区","address":"中山南路1726弄1-9号"},{"poiid":"B2094757D06AAAF5439A","title":"黄浦华庭","lon":"121.49057","lat":"31.207254","category":"47","category_name":"住宅区","address":"上海市黄浦区保屯路99弄"},{"poiid":"B2094654DB65A0FE489D","title":"中山南路1726弄1-9小区","lon":"121.49301","lat":"31.2043","category":"47","category_name":"住宅区","address":"中山南路1726弄1-9"},{"poiid":"B2094757D168A5F5489C","title":"密码会变","lon":"121.493433238","lat":"31.2041151438","category":"47","category_name":"住宅区","address":"上海高邮路复兴西路转角"},{"poiid":"B209475DD76AA1FE4599","title":"星巴克 南车站路店","lon":"121.494293","lat":"31.20285","category":"247","category_name":"餐饮美食","address":"上海市 南车站路"},{"poiid":"B2094752DB68AAF54499","title":"汉堡馆","lon":"121.492856","lat":"31.20388","category":"247","category_name":"餐饮美食","address":"上海市 上海保屯路399号"},{"poiid":"B2094757D064A7FE4998","title":"世博会上海案例馆","lon":"121.494041443","lat":"31.2032909393","category":"500","category_name":"未知分类","address":"上海世博会E片区"},{"poiid":"B2094655D268A3FD4692","title":"同济·蓬莱家园(二号门)","lon":"121.49242","lat":"31.20512","category":"47","category_name":"住宅区","address":"瞿溪路301弄5-8号"},{"poiid":"B2094654DA68A0FC469F","title":"好德便利No.518","lon":"121.49354","lat":"31.20379","category":"117","category_name":"便民商店/便利店","address":"中山南路1715号"},{"poiid":"B2094757D16EA3FA479F","title":"市民新村","lon":"121.49191","lat":"31.204086","category":"47","category_name":"住宅区","address":"中山南路1758号"},{"poiid":"B2094654DA68A2F8489E","title":"明星宠物","lon":"121.49285","lat":"31.20548","category":"162","category_name":"医院","address":"闸北区南星路70号(近大统路)"},{"poiid":"B2094654DA68A2F84899","title":"罗森(瞿溪路)","lon":"121.49284","lat":"31.20545","category":"117","category_name":"便民商店/便利店","address":"卢湾区瞿溪路1135号(打浦路瞿溪路)"},{"poiid":"B2094654DA68A1FB4892","title":"南浦大桥杂货店","lon":"121.49437","lat":"31.20498","category":"117","category_name":"便民商店/便利店","address":""},{"poiid":"B2094654DB69A5FB4998","title":"重庆鸡公煲 南车站路店","lon":"121.492945054","lat":"31.206039793","category":"247","category_name":"餐饮美食","address":"黄浦区南车站路380号(瞿溪路南车站路)"},{"poiid":"B2094654DA68A0FC4398","title":"上海三山会馆管理处","lon":"121.49584","lat":"31.20556","category":"263","category_name":"公司","address":"黄浦区中山南路1551号(半淞园路苗江路)"},{"poiid":"B2094655D268A6F84098","title":"驰骋小区","lon":"121.49368","lat":"31.20355","category":"47","category_name":"住宅区","address":"中山南路1711弄1"},{"poiid":"B2094751DA6BA2FD4999","title":"上海现代艺术博物馆","lon":"121.493965","lat":"31.204805","category":"500","category_name":"未知分类","address":null},{"poiid":"B2094757D16BABFC479C","title":"育辛进修学院","lon":"121.493453538","lat":"31.2041317441","category":"500","category_name":"未知分类","address":"上海黄浦区普育东路227号"},{"poiid":"B2094655D26CA3FE469C","title":"上外黄浦外国语小学","lon":"121.49461","lat":"31.20074","category":"56","category_name":"小学","address":"黄浦区半淞园路621号(半淞园路望达路)"},{"poiid":"B2094757D064A4FF4592","title":"18路中山南一路南车站路站","lon":"121.49377626","lat":"31.204142399","category":"500","category_name":"未知分类","address":"上海中山南一路南车站路"},{"poiid":"B2094654DA68A0FC459E","title":"南泰公寓","lon":"121.49507","lat":"31.203939","category":"47","category_name":"住宅区","address":"南车站路555号"},{"poiid":"B2094654DA68A0FC459A","title":"良友金伴便利No.194","lon":"121.49509","lat":"31.20499","category":"117","category_name":"便民商店/便利店","address":"中山南路1581号"},{"poiid":"B2094655D26BA1F8439F","title":"南车站路","lon":"121.49553","lat":"31.20316","category":"38","category_name":"公交车站","address":"上海华教大厦"},{"poiid":"B2094757D16DA0F5459A","title":"11号线枫桥站","lon":"121.492111738","lat":"31.2044257504","category":"500","category_name":"未知分类","address":"上海枫桥路"},{"poiid":"B2094757D065A3F9419E","title":"南园大厦","lon":"121.494","lat":"31.2022","category":"252","category_name":"楼宇机构","address":"上海市卢湾区龙华东路888号"},{"poiid":"B2094654DA68A2FF469E","title":"黄浦区半淞园路街道图书馆","lon":"121.49169","lat":"31.20347","category":"181","category_name":"图书馆","address":"保屯路213"},{"poiid":"B2094750DA6BA4FD439E","title":"三山会馆","lon":"121.495109","lat":"31.205965","category":"248","category_name":"生活娱乐","address":"中山南路1551号"},{"poiid":"B2094751DA6CA1F4499F","title":"蔡嘉法式甜点","lon":"121.4941443","lat":"31.2029382","category":"247","category_name":"餐饮美食","address":null},{"poiid":"B2094655D26FA4FB479F","title":"市民新村(南门)","lon":"121.49227","lat":"31.20344","category":"47","category_name":"住宅区","address":""},{"poiid":"B209475CD46EABFE4699","title":"世博创意秀场","lon":"121.493675","lat":"31.203008","category":"148","category_name":"美容美发店","address":"上海市 世博城市最佳实践区半淞园路"},{"poiid":"B2094655D26FAAF54298","title":"保屯路211弄小区","lon":"121.49139","lat":"31.20414","category":"47","category_name":"住宅区","address":"保屯路211弄1-36号"},{"poiid":"B2094654DA68A1FB489A","title":"瞿溪路幼儿园","lon":"121.49477","lat":"31.20589","category":"57","category_name":"幼儿园","address":"黄浦区普育东路71弄6号(近国货路)"},{"poiid":"B2094757D168A0FD489A","title":"米兰造型","lon":"121.490309738","lat":"31.2044637512","category":"148","category_name":"美容美发店","address":"上海市瞿溪路保屯路"},{"poiid":"B2094757D06BAAF44898","title":"美兰湖皇冠假日酒店宴会厅","lon":"121.493959805","lat":"31.2037272022","category":"217","category_name":"旅馆招待所","address":"上海市宝山区沪太路6655号2楼"},{"poiid":"B2094654DA68A0FC479D","title":"金中苑","lon":"121.492","lat":"31.202023","category":"47","category_name":"住宅区","address":"上海中山南路1887弄"},{"poiid":"B2094655D26FA3FD4992","title":"上海民间收藏品陈列馆","lon":"121.49568","lat":"31.20531","category":"183","category_name":"展览馆","address":"中山南路1551"},{"poiid":"B2094757D06AA5F9419D","title":"世博会伦敦案例馆","lon":"121.494140625","lat":"31.2035884857","category":"500","category_name":"未知分类","address":"上海世博会E片区"},{"poiid":"B2094654DB69AAF8409C","title":"盐阜人家 黄浦店","lon":"121.49327478051","lat":"31.205380853732","category":"260","category_name":"其他","address":"黄浦区南车站路438号(近瞿溪路)"},{"poiid":"B2094757D065A5F9439A","title":"宝山少科站","lon":"121.49374733","lat":"31.203759336","category":"500","category_name":"未知分类","address":"上海同济支路201弄6号"},{"poiid":"B2094757DA65A5FB459A","title":"格林豪泰(上海世博园区中山南路快捷店)","lon":"121.492055","lat":"31.202588","category":"216","category_name":"经济型连锁酒店","address":"上海市黄浦区中山南路1837号(近保囤路)"},{"poiid":"B2094655D36CA4FC469F","title":"半淞园路","lon":"121.49624","lat":"31.20367","category":"38","category_name":"公交车站","address":""},{"poiid":"B2094655D264A0F54698","title":"蓬莱茶坊","lon":"121.49158","lat":"31.20608","category":"66","category_name":"茶艺馆","address":""},{"poiid":"B2094757D069A3FF499C","title":"世博会马德里案例馆","lon":"121.4945755","lat":"31.20330429","category":"500","category_name":"未知分类","address":"上海世博会E片区"},{"poiid":"B2094750D164A7FB4798","title":"7天连锁酒店上海西藏南路地铁站店","lon":"121.49039237563","lat":"31.202583648414","category":"216","category_name":"经济型连锁酒店","address":"上海市黄浦区中山南路1820号"},{"poiid":"B2094757D16BA0F84792","title":"中山大楼","lon":"121.495369","lat":"31.205017","category":"252","category_name":"楼宇机构","address":"中山大楼位于卢湾中山南路1569"},{"poiid":"B2094654DB65A0FE449F","title":"半淞园路街道图书馆少儿馆","lon":"121.49135","lat":"31.20339","category":"181","category_name":"图书馆","address":""},{"poiid":"B2094752D369A1FB489E","title":"宝莱纳餐厅世博店","lon":"121.492432","lat":"31.203068","category":"247","category_name":"餐饮美食","address":"世博大道555号"},{"poiid":"B2094757D66DA1F9409F","title":"中山南路1671号","lon":"121.495119738","lat":"31.2045167523","category":"500","category_name":"未知分类","address":"上海市黄浦区南车站路"},{"poiid":"B2094655D268A3FF439E","title":"车中小区","lon":"121.494","lat":"31.206507","category":"47","category_name":"住宅区","address":"瞿溪路115号"},{"poiid":"B2094654DA68A2FF459E","title":"好德(瞿溪路)","lon":"121.49079","lat":"31.20464","category":"117","category_name":"便民商店/便利店","address":"瞿溪路313"},{"poiid":"B2094655D26FAAF5429B","title":"保屯路211弄小区(西门)","lon":"121.49111","lat":"31.20401","category":"47","category_name":"住宅区","address":"保屯路211弄1-36号"},{"poiid":"B2094757D66CA6F44499","title":"斯坦福桥","lon":"121.494066","lat":"31.203367","category":"500","category_name":"未知分类","address":"上海伦敦！"},{"poiid":"B2094655D26EAAF54199","title":"兰博健身","lon":"121.49142","lat":"31.20465","category":"221","category_name":"健身中心","address":"黄浦区瞿溪路301弄6号101室"},{"poiid":"B2094655D26BA5FD4192","title":"活水公园","lon":"121.49439","lat":"31.20222","category":"196","category_name":"公园","address":"上海世博园区"},{"poiid":"B2094654DA68A2F94098","title":"理发店(瞿溪路)","lon":"121.49106","lat":"31.20439","category":"148","category_name":"美容美发店","address":""},{"poiid":"B2094654DA68A2F84799","title":"益高棋牌休闲会所","lon":"121.49209","lat":"31.20488","category":"175","category_name":"棋牌室","address":"瞿溪路291"},{"poiid":"B2094750D569A6F5489C","title":"豫景公寓","lon":"121.49185","lat":"31.207579","category":"47","category_name":"住宅区","address":"上海市黄浦区南车站路318弄"},{"poiid":"B209475CD368A3FC499B","title":"博古斯学院法国西餐厅","lon":"121.49359","lat":"31.20212","category":"97","category_name":"法式菜品餐厅","address":"保屯路379号世博会园区法国罗阿大区展馆内(近中山南路)"},{"poiid":"B2094654DA68A2FF449D","title":"北方花苑","lon":"121.49049","lat":"31.205912","category":"47","category_name":"住宅区","address":"保屯路129弄1-2号"},{"poiid":"B2094752D365A2F8469E","title":"打浦桥","lon":"121.4941443","lat":"31.2029382","category":"500","category_name":"未知分类","address":"田子坊"},{"poiid":"B2094654DA68A2F9489F","title":"绿叶公寓","lon":"121.49221","lat":"31.206871","category":"47","category_name":"住宅区","address":"南车站路338弄1-2号"},{"poiid":"B2094655D268A2F8439C","title":"瞿溪新村(西门)","lon":"121.49404","lat":"31.20487","category":"656","category_name":"大门","address":"中山南路1586弄1-14号"},{"poiid":"B2094654DA68A2FF489A","title":"半淞园派出所","lon":"121.49019","lat":"31.20538","category":"609","category_name":"警察局","address":"保屯路80号"},{"poiid":"B2094757D16DA5FD479C","title":"世博会欧登塞案例","lon":"121.49384307","lat":"31.20323944","category":"263","category_name":"公司","address":"上海世博会E片区"},{"poiid":"B2094753D064A4FA439B","title":"米兰护肤造型中心(瞿溪路店)","lon":"121.49047","lat":"31.20446","category":"148","category_name":"美容美发店","address":"黄浦区瞿溪路331号(近西藏南路)"},{"poiid":"B2094654DA68A1F4439E","title":"上海市民办立达中学","lon":"121.4928","lat":"31.20806","category":"55","category_name":"中学","address":""},{"poiid":"B2094751DA6EA1FD459C","title":"浦东机场T1","lon":"121.49364","lat":"31.20828","category":"627","category_name":"一般地点标志","address":null},{"poiid":"B2094757D06BA1FA4893","title":"世博会温哥华案例馆","lon":"121.49339294","lat":"31.202890396","category":"263","category_name":"公司","address":"上海世博会E片区"},{"poiid":"B2094757D16CA0F8409F","title":"世博会西安案例馆","lon":"121.49293518","lat":"31.20302391","category":"263","category_name":"公司","address":"上海世博会E片区"},{"poiid":"B2094654DB6BABFE4898","title":"迪亚天天No.9157","lon":"121.49056","lat":"31.20501","category":"117","category_name":"便民商店/便利店","address":"黄浦区保屯路133号(保屯路瞿溪路)"},{"poiid":"B2094757D16CA0FB409F","title":"招商银行","lon":"121.491612","lat":"31.202249","category":"150","category_name":"银行","address":"上海中山南路1867号"},{"poiid":"B2094757D06AAAFD4798","title":"家里蹲大学附属高中部-RP学校(歪歪直属)","lon":"121.49355368","lat":"31.206748926","category":"253","category_name":"校园生活","address":null},{"poiid":"B2094655D268A6F84099","title":"驰骋小区(北门)","lon":"121.49368","lat":"31.20394","category":"656","category_name":"大门","address":"中山南路1711弄1"},{"poiid":"B2094655D268ABFC4599","title":"绿叶公寓(东门)","lon":"121.49236","lat":"31.207","category":"47","category_name":"住宅区","address":"南车站路338弄1-2号"},{"poiid":"B2094757D06BA6FF4593","title":"世博会罗阿案例馆","lon":"121.493545532","lat":"31.2018718719","category":"263","category_name":"公司","address":"上海世博会E片区"},{"poiid":"B2094757D164AAF9439E","title":"猪舍","lon":"121.49248828","lat":"31.202671489","category":"500","category_name":"未知分类","address":"上海耀江花园"},{"poiid":"B2094655D268A3FF439C","title":"瞿溪路119弄小区","lon":"121.49488","lat":"31.207","category":"47","category_name":"住宅区","address":"瞿溪路119弄"},{"poiid":"B2094757D66CA0FC469C","title":"西藏南路保屯路","lon":"121.491865738","lat":"31.2029457189","category":"500","category_name":"未知分类","address":"上海市黄浦区西藏南路"},{"poiid":"B2094757D065A1F44499","title":"半松园路派出所","lon":"121.493293762","lat":"31.2025909424","category":"609","category_name":"警察局","address":"上海保屯路80号"},{"poiid":"B2094654DA68A2FF469F","title":"半淞园路街道社会保障服务中心","lon":"121.49169","lat":"31.20348","category":"248","category_name":"生活娱乐","address":"保屯路213"},{"poiid":"B2094654DA68A2FF449E","title":"光明乳业徽宁配送站","lon":"121.49037","lat":"31.20616","category":"117","category_name":"便民商店/便利店","address":"保屯路139号"},{"poiid":"B2094655D268A6F8409E","title":"驰骋小区(北二门)","lon":"121.4933","lat":"31.20364","category":"656","category_name":"大门","address":""},{"poiid":"B2094654DA68A0FC449A","title":"百帮服务中心","lon":"121.49547","lat":"31.20489","category":"248","category_name":"生活娱乐","address":"中山南路1569号中山大楼5层"},{"poiid":"B2094757D16DA4FD4399","title":"上海市黄浦区林荫路258号","lon":"121.49466933","lat":"31.202518909","category":"500","category_name":"未知分类","address":"上海市黄浦区林荫路258号3楼 上海中小企业国际合作协会"},{"poiid":"B2094655D265A2F84598","title":"案例联合馆4","lon":"121.49638","lat":"31.20211","category":"183","category_name":"展览馆","address":"上海世博园区"},{"poiid":"B2094654DA68A2FF4698","title":"半淞园路街道社区事务受理服务中心","lon":"121.49169","lat":"31.20348","category":"248","category_name":"生活娱乐","address":"保屯路213"},{"poiid":"B2094757D16BAAFC469F","title":"宝贝丽","lon":"121.49066006","lat":"31.204579503","category":"249","category_name":"购物服务","address":"上海瞿溪路保屯路口"},{"poiid":"B2094654DA68A0FC4693","title":"招商银行上海中山支行","lon":"121.49177","lat":"31.20232","category":"150","category_name":"银行","address":"黄浦区中山南路1867号(陆家浜路中山南路)"},{"poiid":"B2094654DA68A0FC489A","title":"越纪公寓","lon":"121.49081","lat":"31.201597","category":"47","category_name":"住宅区","address":"中山南路1891号-1893号"},{"poiid":"B2094757D065ABFE4299","title":"世博会麦加案例馆","lon":"121.493148804","lat":"31.2023677826","category":"500","category_name":"未知分类","address":"上海世博会E片区"},{"poiid":"B2094655D268A6FF4898","title":"上海大同中学教师楼","lon":"121.49378","lat":"31.20801","category":"47","category_name":"住宅区","address":""},{"poiid":"B2094757D16BA7FA4199","title":"四川外语学院成都学院大教室10","lon":"121.494122","lat":"31.202314","category":"500","category_name":"未知分类","address":"成都五楼"},{"poiid":"B2094654DA68A0FC4793","title":"精文苑","lon":"121.49203","lat":"31.201374","category":"47","category_name":"住宅区","address":"西藏南路1639弄5-9号"},{"poiid":"B2094655D268A4F8439F","title":"南泰公寓(西门)","lon":"121.4948","lat":"31.20408","category":"656","category_name":"大门","address":""},{"poiid":"B2094753D468A5F94792","title":"momo牧场","lon":"121.491188","lat":"31.206624","category":"500","category_name":"未知分类","address":"上海市 上海市黄浦区陕西南路35号二楼"},{"poiid":"B2094654DB6BABF8419E","title":"瞿溪新村(北五门)","lon":"121.49402","lat":"31.20599","category":"656","category_name":"大门","address":""},{"poiid":"B2094757D568A4F54792","title":"移动通信公司佘山培训部","lon":"121.49212891","lat":"31.20332628","category":"251","category_name":"出行住宿","address":"佘山环山路"},{"poiid":"B2094655D264A0FD499A","title":"东元坊住宅","lon":"121.49521","lat":"31.20754","category":"47","category_name":"住宅区","address":"普育东路222临"},{"poiid":"B2094750D365A3FE449B","title":"法国罗纳阿尔卑斯大区展馆","lon":"121.49319618718","lat":"31.202126789851","category":"645","category_name":"机构及其他类公司","address":"保屯路379号"},{"poiid":"B2094757D16FA4FF4898","title":"上海青少年体育学校","lon":"121.49585723","lat":"31.203004837","category":"500","category_name":"未知分类","address":"上海水电路176号"},{"poiid":"B2094753D76DA7FF499F","title":"纽斯桑拿会所","lon":"121.490036","lat":"31.204025","category":"148","category_name":"美容美发店","address":"上海市 东绣路288号"},{"poiid":"B2094655D26FA7F94992","title":"同济·蓬莱家园(南门)","lon":"121.49141","lat":"31.20471","category":"656","category_name":"大门","address":"瞿溪路301弄1-4号"},{"poiid":"B2094757D164A0FD439E","title":"麦舒瑜伽(西藏南路店)","lon":"121.49009099","lat":"31.204814264","category":"220","category_name":"运动场所","address":"黄浦区西藏南路1433弄5号楼侧楼VIP会所3楼(瞿溪路保屯路间)"},{"poiid":"B2094654DB69A6FC499C","title":"江南三村","lon":"121.49","lat":"31.20306","category":"47","category_name":"住宅区","address":"黄浦区制造局路887号"},{"poiid":"B2094757D66FA2F94393","title":"继光香香鸡","lon":"121.490531738","lat":"31.2073128119","category":"247","category_name":"餐饮美食","address":"上海长宁路770-1号"},{"poiid":"B2094757D169AAFD429A","title":"上海电信工程有限公司","lon":"121.49044202","lat":"31.206651937","category":"263","category_name":"公司","address":"上海市黄浦区车站支路150号"},{"poiid":"B2094757D169ABFC429F","title":"保屯路","lon":"121.49567893","lat":"31.202209003","category":"500","category_name":"未知分类","address":"上海保屯路"},{"poiid":"B2094655D268A6FF489B","title":"上海大同中学教师楼(北门)","lon":"121.49348","lat":"31.20823","category":"47","category_name":"住宅区","address":""},{"poiid":"B2094655D26FAAFC4293","title":"南泰公寓(西二门)","lon":"121.49528","lat":"31.2037","category":"656","category_name":"大门","address":"南车站路555"},{"poiid":"B2094655D268A3FF4399","title":"车中小区(南一门)","lon":"121.49422","lat":"31.20643","category":"656","category_name":"大门","address":""},{"poiid":"B2094655D268A7F4479E","title":"黄浦区教育信息中心","lon":"121.49046","lat":"31.20606","category":"248","category_name":"生活娱乐","address":"保屯路123号"},{"poiid":"B2094752D169A5F4479F","title":"和平影都","lon":"121.493748","lat":"31.208343","category":"178","category_name":"电影院","address":"来福士广场"},{"poiid":"B2094757D16FABFB409C","title":"上海師範大學 美術學院","lon":"121.492795","lat":"31.208055","category":"253","category_name":"校园生活","address":"上海桂林路100號東部校區"},{"poiid":"B2094655D26FABF9499D","title":"瞿溪新村(北四门)","lon":"121.49457","lat":"31.20647","category":"656","category_name":"大门","address":""},{"poiid":"B2094757D16BA3F8429F","title":"豪大大鸡排大兴街店","lon":"121.492080738","lat":"31.2077018201","category":"500","category_name":"未知分类","address":"上海市黄浦区大兴街"},{"poiid":"B2094757D66FA7FD459D","title":"精锐教育黄浦校区","lon":"121.493217468","lat":"31.201133728","category":"500","category_name":"未知分类","address":"黄浦区西藏南路1487号(近瞿溪路)"},{"poiid":"B2094757D169A2FE439C","title":"144路中山南路西藏南路站","lon":"121.490495016","lat":"31.2020189005","category":"500","category_name":"未知分类","address":"上海市黄浦区中山南路近西藏南路东侧"},{"poiid":"B2094655D268A4FD4493","title":"同济·蓬莱家园(西门)","lon":"121.49053","lat":"31.20509","category":"656","category_name":"大门","address":"瞿溪路301弄1-4号"},{"poiid":"B2094654DA68A2F9489D","title":"复地沪北区域总部","lon":"121.49198","lat":"31.20764","category":"248","category_name":"生活娱乐","address":"南车站路308"},{"poiid":"B2094757D168A2FC469B","title":"上海航运交易所","lon":"121.49250978","lat":"31.207976676","category":"263","category_name":"公司","address":"上海杨树浦路388号"},{"poiid":"B2094757D16CA0FE4198","title":"全家便利店成山路店","lon":"121.4939209","lat":"31.200771539","category":"500","category_name":"未知分类","address":"上海成山路288号"},{"poiid":"B2094757D168A7FA469F","title":"黄浦区外地劳动力管理中心","lon":"121.492675","lat":"31.208331","category":"500","category_name":"未知分类","address":"上海车站后路10号"},{"poiid":"B2094655D26FA4FA489B","title":"豫景公寓(东一门)","lon":"121.49229","lat":"31.20711","category":"656","category_name":"大门","address":""},{"poiid":"B2094655D268A3FF439F","title":"瞿溪路119弄小区(南二门)","lon":"121.49474","lat":"31.20683","category":"656","category_name":"大门","address":"瞿溪路119弄"},{"poiid":"B2094654DA68A1F44398","title":"上海职业介绍黄浦分中心南外滩职业介绍所","lon":"121.49279","lat":"31.20826","category":"252","category_name":"楼宇机构","address":"车站支路87号"},{"poiid":"B2094757D16EA1FD469D","title":"婷婷's","lon":"121.491660738","lat":"31.2080208269","category":"500","category_name":"未知分类","address":null},{"poiid":"B2094655D268A4FE4598","title":"瞿溪新村(北三门)","lon":"121.49507","lat":"31.20685","category":"656","category_name":"大门","address":""},{"poiid":"B2094655D268A2F5459A","title":"金中苑(南二门)","lon":"121.49244","lat":"31.20204","category":"656","category_name":"大门","address":"中山南路1887弄"},{"poiid":"B2094655D268A4F4419E","title":"北方花苑(西门)","lon":"121.49044","lat":"31.20561","category":"656","category_name":"大门","address":""},{"poiid":"B2094757D16EABFE4199","title":"车站支路","lon":"121.492309","lat":"31.208236","category":"260","category_name":"其他","address":"上海黄浦区劳动保障监管局"},{"poiid":"B2094655D268A0FB4592","title":"精文苑(北二门)","lon":"121.49251","lat":"31.20195","category":"656","category_name":"大门","address":"西藏南路1639弄5-9号"},{"poiid":"B2094655D268A0F8479A","title":"瞿二小区(东门)","lon":"121.48991","lat":"31.20651","category":"656","category_name":"大门","address":"保屯路50弄1-12号"},{"poiid":"B2094654DA68A2F94892","title":"南车站路供电营业厅","lon":"121.49192","lat":"31.20775","category":"219","category_name":"其他","address":"南车站路298"},{"poiid":"B2094655D268A4F4419F","title":"北方花苑(西二门)","lon":"121.49034","lat":"31.20598","category":"656","category_name":"大门","address":"保屯路129弄1-2号"},{"poiid":"B2094655D268A2F54492","title":"金中苑(南门)","lon":"121.49216","lat":"31.20185","category":"656","category_name":"大门","address":"中山南路1887弄"},{"poiid":"B2094757D568ABFE4199","title":"钱正商务酒店","lon":"121.4905032","lat":"31.20261529","category":"251","category_name":"出行住宿","address":"中山南路1820号"},{"poiid":"B2094655D268A2F54599","title":"金中苑(西门)","lon":"121.49158","lat":"31.20182","category":"656","category_name":"大门","address":"中山南路1887弄"},{"poiid":"B2094655D268A4F44192","title":"豫景公寓(北门)","lon":"121.49156","lat":"31.2078","category":"656","category_name":"大门","address":"南车站路318弄1-3号"},{"poiid":"B2094655D268A4FE4492","title":"瞿溪新村(北二门)","lon":"121.49546","lat":"31.20722","category":"656","category_name":"大门","address":""},{"poiid":"B2094655D268A4FE459B","title":"瞿溪新村(北一门)","lon":"121.49555","lat":"31.20728","category":"656","category_name":"大门","address":""},{"poiid":"B2094655D26FAAFC439F","title":"瞿溪新村(东二门)","lon":"121.4961","lat":"31.2071","category":"656","category_name":"大门","address":""},{"poiid":"B2094655D268A0F94099","title":"越纪公寓(东门)","lon":"121.49133","lat":"31.20177","category":"656","category_name":"大门","address":"中山南路1891-1893号"},{"poiid":"B2094654DA68A2F84698","title":"新中苑(南门)","lon":"121.48942","lat":"31.20427","category":"656","category_name":"大门","address":"半淞园路"},{"poiid":"B2094655D268A0FB459C","title":"精文苑(北门)","lon":"121.49174","lat":"31.20143","category":"656","category_name":"大门","address":"西藏南路1639弄5-9号"},{"poiid":"B2094655D26FAAFC4398","title":"瞿溪新村(东一门)","lon":"121.49637","lat":"31.20701","category":"656","category_name":"大门","address":""},{"poiid":"B2094655D268A0F94098","title":"越纪公寓(北二门)","lon":"121.49086","lat":"31.20181","category":"656","category_name":"大门","address":"中山南路1891-1893号"},{"poiid":"B2094655D268A4FC4698","title":"车站支路小区(南门)","lon":"121.49246","lat":"31.20817","category":"656","category_name":"大门","address":"车站支路99弄1-4号"},{"poiid":"B2094655D26FABF9489B","title":"惠国公寓(南门)","lon":"121.49296","lat":"31.20857","category":"656","category_name":"大门","address":"国货路370弄1-2号"},{"poiid":"B2094655D268A4FD459C","title":"车站支路小区(北门)","lon":"121.49246","lat":"31.20844","category":"656","category_name":"大门","address":"车站支路99弄1-4号"}]