[{"poiid":"B2094757D069A1FC479A","title":"汇之星奔驰4S店","lon":"121.70391635","lat":"31.109334907","category":"158","category_name":"汽车销售","address":"上海市南六公路"},{"poiid":"B2094757D068A5FA409C","title":"六灶","lon":"121.697659","lat":"31.115967","category":"247","category_name":"餐饮美食","address":"上海南汇区南六公路砖桥路"},{"poiid":"B2094751D26BA0FA449F","title":"人民广场地铁站","lon":"121.707458","lat":"31.119247","category":"36","category_name":"地铁站","address":null},{"poiid":"B2094757D069A4FD409C","title":"南六公路","lon":"121.69783435","lat":"31.121249175","category":"500","category_name":"未知分类","address":"上海市浦东新区南六公路"},{"poiid":"B2094654DB6DA6FC409B","title":"上海蓝堡","lon":"121.7045068405","lat":"31.128446858585","category":"47","category_name":"住宅区","address":"南六公路1465弄1-107号"},{"poiid":"B2094655D36DA7FB4092","title":"砖桥","lon":"121.70651","lat":"31.11759","category":"38","category_name":"公交车站","address":""},{"poiid":"B2094654DB6DA6F8499F","title":"三斯烤漆","lon":"121.70941","lat":"31.1181","category":"123","category_name":"家具建材市场","address":"周祝公路2619"},{"poiid":"B2094654DB6DA6F94099","title":"上海英进经贸有限公司","lon":"121.71273","lat":"31.11854","category":"263","category_name":"公司","address":""},{"poiid":"B2094757D168A1F8419B","title":"周南线六灶站","lon":"121.701942","lat":"31.116816","category":"500","category_name":"未知分类","address":"上海周祝公路南六公路"},{"poiid":"B2094757D66DA4FD4699","title":"爱家华城","lon":"121.705720357","lat":"31.1099839222","category":"47","category_name":"住宅区","address":"上海市浦东新区南六公路"},{"poiid":"B2094654DB64A1FB449A","title":"鹿园工业区","lon":"121.70113","lat":"31.10538","category":"45","category_name":"产业园区","address":"上海浦东新区鹿滨路"},{"poiid":"B2094654DB64A1FB4899","title":"六灶镇社区卫生服务中心","lon":"121.71337","lat":"31.11037","category":"162","category_name":"医院","address":"崇溪路120"},{"poiid":"B2094654DB6DA6FF479D","title":"六灶影剧院","lon":"121.69866","lat":"31.11657","category":"178","category_name":"电影院","address":"六灶路"},{"poiid":"B2094654DB6DA6FC419D","title":"六灶镇街卫生院","lon":"121.70037","lat":"31.11765","category":"162","category_name":"医院","address":"周祝公路2401号"},{"poiid":"B2094654DB65A7F94093","title":"百味林(六灶镇店)","lon":"121.7003","lat":"31.11721","category":"648","category_name":"零食","address":"浦东新区六灶镇六灶路187号"},{"poiid":"B2094655D36DA7FA4398","title":"周祝公路汤店","lon":"121.7223","lat":"31.12092","category":"38","category_name":"公交车站","address":""},{"poiid":"B2094655D26BA1F9409B","title":"民义","lon":"121.69721","lat":"31.12515","category":"38","category_name":"公交车站","address":""},{"poiid":"B2094654DB64ABFD469E","title":"中国建设银行上海六灶支行","lon":"121.70055","lat":"31.117","category":"150","category_name":"银行","address":"周祝公路2399"},{"poiid":"B2094654DB6DA6FA4198","title":"南汇六灶甜得来桃园","lon":"121.70121","lat":"31.12802","category":"250","category_name":"公园户外","address":""},{"poiid":"B2094655D36DA0FC4793","title":"新华","lon":"121.70442","lat":"31.10932","category":"38","category_name":"公交车站","address":""},{"poiid":"B2094757D169A0F9459A","title":"Edward's 小窝~~","lon":"121.699635965","lat":"31.1165935824","category":"500","category_name":"未知分类","address":null},{"poiid":"B2094654DB6DA6FC429A","title":"华泰药店连锁六灶店","lon":"121.69758","lat":"31.11641","category":"162","category_name":"医院","address":"浦东新区周祝公路2113号(鹿川路周祝公路)"},{"poiid":"B2094654DB64A1FB4593","title":"六灶中学","lon":"121.69824","lat":"31.11395","category":"55","category_name":"中学","address":""},{"poiid":"B2094757D164A2FA459F","title":"人民路加油站","lon":"121.699880057","lat":"31.1155365468","category":"154","category_name":"加油加气站","address":"上海人民路818号"},{"poiid":"B2094757D069AAFD4893","title":"汇之星汽车维修服务有限公司","lon":"121.702551","lat":"31.110086","category":"158","category_name":"汽车销售","address":"浦东新区南六公路1233号(近鹿达路)"},{"poiid":"B2094757D16BAAFE409E","title":"汤店车站","lon":"121.720464","lat":"31.120475","category":"251","category_name":"出行住宿","address":"上海南汇六灶汤店村251号"},{"poiid":"B2094654DB64A7F44793","title":"六灶邮政储蓄","lon":"121.69824","lat":"31.1165","category":"150","category_name":"银行","address":"浦东新区六灶镇周祝公路2329号(鹿溪路周祝公路)"},{"poiid":"B2094654DB6DA6F94193","title":"汤店村社区活动中心","lon":"121.72157","lat":"31.1209","category":"248","category_name":"生活娱乐","address":""},{"poiid":"B2094654DB65AAF8479E","title":"中国邮政(周祝公路邮政局)","lon":"121.69821","lat":"31.11662","category":"248","category_name":"生活娱乐","address":"南汇区周祝公路2329号"},{"poiid":"B2094654DB65A3F9459D","title":"六灶镇中心幼儿园","lon":"121.69451","lat":"31.11587","category":"57","category_name":"幼儿园","address":"周祝公路2231"},{"poiid":"B2094655D26FA3F84293","title":"六灶幼儿园","lon":"121.69834","lat":"31.11051","category":"57","category_name":"幼儿园","address":"浦东新区南汇区六灶镇六灶路256号"},{"poiid":"B2094655D26BA2F4439D","title":"七灶","lon":"121.71452","lat":"31.13431","category":"38","category_name":"公交车站","address":""},{"poiid":"B2094757DA6BA0FC4093","title":"汇领商墅","lon":"121.699548","lat":"31.107441","category":"252","category_name":"楼宇机构","address":"静安区南京西路555路"},{"poiid":"B2094654DB6DA6FC419A","title":"迎宾饭店","lon":"121.69219","lat":"31.11507","category":"76","category_name":"上海菜","address":"浦东新区六灶镇周祝公路2182号(六灶镇中心小学斜对面)"},{"poiid":"B2094655D36DA7FA4292","title":"周祝公路七灶","lon":"121.69152","lat":"31.1152","category":"38","category_name":"公交车站","address":""},{"poiid":"B2094654DB6DA6F5409D","title":"晓峰专业发型设计中心","lon":"121.69364","lat":"31.11534","category":"148","category_name":"美容美发店","address":""},{"poiid":"B2094757D568A1F8459B","title":"易捷便利店(六灶镇七灶村民委员会东)","lon":"121.69597765","lat":"31.12869331","category":"117","category_name":"便民商店/便利店","address":"六灶镇"},{"poiid":"B2094655D26BA2F44392","title":"七灶(招呼站)","lon":"121.70968","lat":"31.13922","category":"38","category_name":"公交车站","address":""},{"poiid":"B2094655D26BA1FF459F","title":"南六公路会龙路","lon":"121.7075","lat":"31.10125","category":"38","category_name":"公交车站","address":""},{"poiid":"B2094655D36CA5FD409F","title":"纯新村","lon":"121.70359","lat":"31.13716","category":"38","category_name":"公交车站","address":""},{"poiid":"B2094752D269A2F54399","title":"梅赛德斯奔驰文化中心","lon":"121.726334","lat":"31.110138","category":"500","category_name":"未知分类","address":null},{"poiid":"B2094654DB69A6FA4092","title":"诚功领秀","lon":"121.70766","lat":"31.10131","category":"47","category_name":"住宅区","address":"南汇区人民西路1559弄"},{"poiid":"B2094655D36DA2FE449B","title":"胜利桥","lon":"121.71481","lat":"31.13761","category":"250","category_name":"公园户外","address":""},{"poiid":"B2094654DB6DA6F9499D","title":"川沙镇七灶村文化活动中心","lon":"121.71437","lat":"31.13792","category":"248","category_name":"生活娱乐","address":"七新路256"}]