[{"poiid":"B2094757D06FA1FD4798","title":"乐购(锦绣店)","lon":"121.54212","lat":"31.18004","category":"118","category_name":"超级市场","address":"浦东新区锦绣路3218号(近成山路)"},{"poiid":"B2094757D06FA6F9499F","title":"海上国际花园","lon":"121.54517","lat":"31.18187","category":"47","category_name":"住宅区","address":"上海市奉贤区奉城镇城大路181弄"},{"poiid":"B2094757D069A5FA409C","title":"一兆韦德(锦绣路店)","lon":"121.54146","lat":"31.18059","category":"221","category_name":"健身中心","address":"上海浦东新区锦绣路3168号(近成山路)  "},{"poiid":"B2094654DA68A5F94098","title":"德克士 锦绣乐购店","lon":"121.541856054","lat":"31.180128793","category":"68","category_name":"快餐厅","address":"浦东新区锦绣路3218号锦绣乐购超市1楼(近成山路)"},{"poiid":"B2094757D06FA7FD4698","title":"小杨生煎(成山巴春店)","lon":"121.53586","lat":"31.17897","category":"68","category_name":"快餐厅","address":"浦东新区成山路1993号巴黎春天B1楼(近下南路)"},{"poiid":"B2094757D164A6FF4593","title":"锦绣路","lon":"121.540641238","lat":"31.1857980538","category":"500","category_name":"未知分类","address":"上海锦绣路"},{"poiid":"B2094654DA68A5F9489C","title":"文化馨苑","lon":"121.5455","lat":"31.183252","category":"47","category_name":"住宅区","address":"上海浦东新区博华路237号"},{"poiid":"B2094655D268ABFC439D","title":"大华·锦绣华城香榭丽大道","lon":"121.53918","lat":"31.17891","category":"116","category_name":"特色商业街","address":""},{"poiid":"B2094757D068A5F8479B","title":"爱乐游(巴黎春天成山路店)","lon":"121.53604326","lat":"31.18206088","category":"500","category_name":"未知分类","address":"上海巴黎春天成山路店3楼"},{"poiid":"B2094750D76EA5FE449C","title":"湘乐汇(巴黎春天店)","lon":"121.536","lat":"31.1789","category":"77","category_name":"湖南菜","address":"浦东新区成山路1993号巴黎春天(近锦尊路)"},{"poiid":"B2094757D06BA3FF459E","title":"波斯湾大浴场","lon":"121.54691","lat":"31.18015","category":"149","category_name":"洗浴推拿场所","address":"浦东新区成山路2525号(近博华路)"},{"poiid":"B2094757D06AABFA429C","title":"京世造型(锦绣店)","lon":"121.54178","lat":"31.17967","category":"148","category_name":"美容美发店","address":"上海浦东新区锦绣路3218号乐购超市楼下(近成山路)  "},{"poiid":"B2094757D16EA6F4449E","title":"味之都 锦绣华城店","lon":"121.541944054","lat":"31.179945793","category":"68","category_name":"快餐厅","address":"浦东新区锦绣路3218号乐购1楼(近成山路)"},{"poiid":"B2094757D16EA3FC4998","title":"新云台中学 羽毛球馆","lon":"121.547974738","lat":"31.1811682553","category":"500","category_name":"未知分类","address":"上海博华路320号"},{"poiid":"B2094655D36CA1FA459E","title":"莲园路锦绣路","lon":"121.54165","lat":"31.18447","category":"38","category_name":"公交车站","address":""},{"poiid":"B2094655D265A6FE4498","title":"咪呷咪呷锦绣路店","lon":"121.5414","lat":"31.18001","category":"86","category_name":"火锅店","address":"浦东新区锦绣路3218号乐购超市1楼(近成山路)"},{"poiid":"B2094757D065A4FB409B","title":"食其家(成山店)","lon":"121.53572","lat":"31.17856","category":"95","category_name":"日本料理","address":"浦东新区成山路1993号巴黎春天B1楼(近博华路)"},{"poiid":"B2094655D264A4FF479A","title":"乐购(西门)","lon":"121.54081","lat":"31.17974","category":"118","category_name":"超级市场","address":"成山路"},{"poiid":"B2094655D36CA5FF409F","title":"成山路锦绣路","lon":"121.54059","lat":"31.17933","category":"38","category_name":"公交车站","address":""},{"poiid":"B2094654DA68A5FB459B","title":"海东公寓","lon":"121.54813","lat":"31.183867","category":"47","category_name":"住宅区","address":"上海市浦东新区莲园路100弄"},{"poiid":"B2094655D26DA7F9429F","title":"金顺小区","lon":"121.540241","lat":"31.183728","category":"47","category_name":"住宅区","address":"浦东北艾路901弄"},{"poiid":"B2094751DA65A3F84292","title":"东昌路地铁站","lon":"121.541541","lat":"31.181792","category":"36","category_name":"地铁站","address":null},{"poiid":"B2094757D568A4F5469C","title":"京世造型美发美容美体","lon":"121.540672","lat":"31.179985","category":"148","category_name":"美容美发店","address":"中国上海市浦东新区"},{"poiid":"B2094757D06AA1FD459F","title":"天池二村","lon":"121.54238","lat":"31.183788","category":"47","category_name":"住宅区","address":"莲园路8弄1-32号"},{"poiid":"B209475CD26DA1FB459F","title":"k11","lon":"121.542991","lat":"31.181045","category":"500","category_name":"未知分类","address":"上海市 淮海路"},{"poiid":"B2094654DA68A5F94093","title":"乐购(边门)","lon":"121.54067","lat":"31.17982","category":"118","category_name":"超级市场","address":""},{"poiid":"B2094757D06AA7FC4599","title":"华德肉皮汤 德华茶餐厅","lon":"121.537392","lat":"31.183833","category":"500","category_name":"未知分类","address":"上海北艾路850号"},{"poiid":"B2094757D169A5F44992","title":"妯娌老鸭粉丝(巴黎春天成山店)","lon":"121.53734073","lat":"31.180258235","category":"247","category_name":"餐饮美食","address":"浦东新区成山路1993号巴黎春天B1楼(近博华路)"},{"poiid":"B2094757D16CA6FF499F","title":"京世造型","lon":"121.53793773","lat":"31.178334195","category":"148","category_name":"美容美发店","address":"上海成山路2133号"},{"poiid":"B2094654DA68A5F5419D","title":"锦华东南苑(北门)","lon":"121.54091","lat":"31.17908","category":"47","category_name":"住宅区","address":"成山路2222弄"},{"poiid":"B2094655D265A0FC4292","title":"锦绣年华","lon":"121.54092","lat":"31.17908","category":"47","category_name":"住宅区","address":"上海市浦东新区成山路2222弄"},{"poiid":"B2094753DA6EA5FC4799","title":"海上国际花园一期","lon":"121.545","lat":"31.1811","category":"47","category_name":"住宅区","address":"上海市浦东新区成山路2399弄"},{"poiid":"B2094750DB69A7FC489C","title":"网鱼网咖（成山路店）","lon":"121.544624","lat":"31.177974","category":"248","category_name":"生活娱乐","address":"浦东新区成山路乐购旁(装修中)"},{"poiid":"B2094654DB64AAF4459F","title":"好德便利No.508","lon":"121.54112","lat":"31.17914","category":"117","category_name":"便民商店/便利店","address":"成山路2228"},{"poiid":"B2094757D064A6FE4592","title":"上南中学锦绣校区羽毛球馆","lon":"121.53792","lat":"31.17971","category":"220","category_name":"运动场所","address":"浦东新区下南路877号(近北艾路)"},{"poiid":"B2094655D26EA4F4429B","title":"海上国际花园网球场","lon":"121.54517","lat":"31.18187","category":"226","category_name":"网球场","address":"浦东新区成山路2399号"},{"poiid":"B2094654DA68A5F9439C","title":"昌邑小学(大华校区)","lon":"121.53753","lat":"31.1808","category":"56","category_name":"小学","address":"下南路879"},{"poiid":"B2094654DB65A7F84793","title":"永琪美容美发","lon":"121.54","lat":"31.17963","category":"148","category_name":"美容美发店","address":"上海浦东新区成山路2181号  "},{"poiid":"B2094654DA68A5F9419A","title":"文峰美发美容成山店","lon":"121.54007","lat":"31.17968","category":"148","category_name":"美容美发店","address":"成山路2183-2185号"},{"poiid":"B2094757D16FA6FD4192","title":"海上国际网球场","lon":"121.542315134","lat":"31.1815983355","category":"220","category_name":"运动场所","address":"上海浦东新区成山路2399号"},{"poiid":"B2094655D264AAFA439B","title":"锦绣华城购物放心街","lon":"121.53925","lat":"31.18029","category":"116","category_name":"特色商业街","address":""},{"poiid":"B2094655D36DA6FE489A","title":"下南路","lon":"121.54271","lat":"31.17788","category":"38","category_name":"公交车站","address":""},{"poiid":"B2094655D26FA5FD439B","title":"大华·锦绣华城18街区(边门)","lon":"121.53745","lat":"31.17807","category":"47","category_name":"住宅区","address":"成山路2008弄1-310号"},{"poiid":"B2094655D264AAFC4592","title":"ElevenCafe","lon":"121.53654","lat":"31.18019","category":"65","category_name":"咖啡厅","address":"浦东新区下南路842号(近成山路)"},{"poiid":"B2094654DA68A5F9419E","title":"克丽缇娜国际专业美容中心","lon":"121.53981","lat":"31.17958","category":"148","category_name":"美容美发店","address":"成山路2173"},{"poiid":"B2094655D26BA6F5429A","title":"大华锦绣·嘉年华","lon":"121.53605","lat":"31.17871","category":"46","category_name":"楼宇","address":"成山路"},{"poiid":"B2094750D564ABFB4698","title":"大华珐朵公馆","lon":"121.54174541974","lat":"31.183306065456","category":"47","category_name":"住宅区","address":"浦东成山路成山路1488弄"},{"poiid":"B2094655D26AA3FB409A","title":"上航国旅","lon":"121.54059","lat":"31.17906","category":"247","category_name":"餐饮美食","address":"浦东新区成山路2206号(近锦绣路)"},{"poiid":"B2094750D76FA1FD429C","title":"咔喱咖喱(巴黎春天店)","lon":"121.536","lat":"31.1789","category":"95","category_name":"日本料理","address":"浦东新区成山路1993号巴黎春天B1楼"},{"poiid":"B2094757D16DA3F5449A","title":"新云台中学","lon":"121.547759738","lat":"31.1817442675","category":"55","category_name":"中学","address":"上海市浦东新区莲园路"},{"poiid":"B2094757D06FA1FD4798","title":"乐购(锦绣店)","lon":"121.54212","lat":"31.18004","category":"118","category_name":"超级市场","address":"浦东新区锦绣路3218号(近成山路)"},{"poiid":"B2094757D06FA6F9499F","title":"海上国际花园","lon":"121.54517","lat":"31.18187","category":"47","category_name":"住宅区","address":"上海市奉贤区奉城镇城大路181弄"},{"poiid":"B2094757D069A5FA409C","title":"一兆韦德(锦绣路店)","lon":"121.54146","lat":"31.18059","category":"221","category_name":"健身中心","address":"上海浦东新区锦绣路3168号(近成山路)  "},{"poiid":"B2094654DA68A5F94098","title":"德克士 锦绣乐购店","lon":"121.541856054","lat":"31.180128793","category":"68","category_name":"快餐厅","address":"浦东新区锦绣路3218号锦绣乐购超市1楼(近成山路)"},{"poiid":"B2094757D06FA7FD4698","title":"小杨生煎(成山巴春店)","lon":"121.53586","lat":"31.17897","category":"68","category_name":"快餐厅","address":"浦东新区成山路1993号巴黎春天B1楼(近下南路)"},{"poiid":"B2094757D164A6FF4593","title":"锦绣路","lon":"121.540641238","lat":"31.1857980538","category":"500","category_name":"未知分类","address":"上海锦绣路"},{"poiid":"B2094654DA68A5F9489C","title":"文化馨苑","lon":"121.5455","lat":"31.183252","category":"47","category_name":"住宅区","address":"上海浦东新区博华路237号"},{"poiid":"B2094655D268ABFC439D","title":"大华·锦绣华城香榭丽大道","lon":"121.53918","lat":"31.17891","category":"116","category_name":"特色商业街","address":""},{"poiid":"B2094757D068A5F8479B","title":"爱乐游(巴黎春天成山路店)","lon":"121.53604326","lat":"31.18206088","category":"500","category_name":"未知分类","address":"上海巴黎春天成山路店3楼"},{"poiid":"B2094750D76EA5FE449C","title":"湘乐汇(巴黎春天店)","lon":"121.536","lat":"31.1789","category":"77","category_name":"湖南菜","address":"浦东新区成山路1993号巴黎春天(近锦尊路)"},{"poiid":"B2094757D06BA3FF459E","title":"波斯湾大浴场","lon":"121.54691","lat":"31.18015","category":"149","category_name":"洗浴推拿场所","address":"浦东新区成山路2525号(近博华路)"},{"poiid":"B2094757D06AABFA429C","title":"京世造型(锦绣店)","lon":"121.54178","lat":"31.17967","category":"148","category_name":"美容美发店","address":"上海浦东新区锦绣路3218号乐购超市楼下(近成山路)  "},{"poiid":"B2094757D16EA6F4449E","title":"味之都 锦绣华城店","lon":"121.541944054","lat":"31.179945793","category":"68","category_name":"快餐厅","address":"浦东新区锦绣路3218号乐购1楼(近成山路)"},{"poiid":"B2094757D16EA3FC4998","title":"新云台中学 羽毛球馆","lon":"121.547974738","lat":"31.1811682553","category":"500","category_name":"未知分类","address":"上海博华路320号"},{"poiid":"B2094655D36CA1FA459E","title":"莲园路锦绣路","lon":"121.54165","lat":"31.18447","category":"38","category_name":"公交车站","address":""},{"poiid":"B2094655D265A6FE4498","title":"咪呷咪呷锦绣路店","lon":"121.5414","lat":"31.18001","category":"86","category_name":"火锅店","address":"浦东新区锦绣路3218号乐购超市1楼(近成山路)"},{"poiid":"B2094757D065A4FB409B","title":"食其家(成山店)","lon":"121.53572","lat":"31.17856","category":"95","category_name":"日本料理","address":"浦东新区成山路1993号巴黎春天B1楼(近博华路)"},{"poiid":"B2094655D264A4FF479A","title":"乐购(西门)","lon":"121.54081","lat":"31.17974","category":"118","category_name":"超级市场","address":"成山路"},{"poiid":"B2094655D36CA5FF409F","title":"成山路锦绣路","lon":"121.54059","lat":"31.17933","category":"38","category_name":"公交车站","address":""},{"poiid":"B2094654DA68A5FB459B","title":"海东公寓","lon":"121.54813","lat":"31.183867","category":"47","category_name":"住宅区","address":"上海市浦东新区莲园路100弄"},{"poiid":"B2094655D26DA7F9429F","title":"金顺小区","lon":"121.540241","lat":"31.183728","category":"47","category_name":"住宅区","address":"浦东北艾路901弄"},{"poiid":"B2094751DA65A3F84292","title":"东昌路地铁站","lon":"121.541541","lat":"31.181792","category":"36","category_name":"地铁站","address":null},{"poiid":"B2094757D568A4F5469C","title":"京世造型美发美容美体","lon":"121.540672","lat":"31.179985","category":"148","category_name":"美容美发店","address":"中国上海市浦东新区"},{"poiid":"B2094757D06AA1FD459F","title":"天池二村","lon":"121.54238","lat":"31.183788","category":"47","category_name":"住宅区","address":"莲园路8弄1-32号"},{"poiid":"B209475CD26DA1FB459F","title":"k11","lon":"121.542991","lat":"31.181045","category":"500","category_name":"未知分类","address":"上海市 淮海路"},{"poiid":"B2094654DA68A5F94093","title":"乐购(边门)","lon":"121.54067","lat":"31.17982","category":"118","category_name":"超级市场","address":""},{"poiid":"B2094757D06AA7FC4599","title":"华德肉皮汤 德华茶餐厅","lon":"121.537392","lat":"31.183833","category":"500","category_name":"未知分类","address":"上海北艾路850号"},{"poiid":"B2094757D169A5F44992","title":"妯娌老鸭粉丝(巴黎春天成山店)","lon":"121.53734073","lat":"31.180258235","category":"247","category_name":"餐饮美食","address":"浦东新区成山路1993号巴黎春天B1楼(近博华路)"},{"poiid":"B2094757D16CA6FF499F","title":"京世造型","lon":"121.53793773","lat":"31.178334195","category":"148","category_name":"美容美发店","address":"上海成山路2133号"},{"poiid":"B2094654DA68A5F5419D","title":"锦华东南苑(北门)","lon":"121.54091","lat":"31.17908","category":"47","category_name":"住宅区","address":"成山路2222弄"},{"poiid":"B2094655D265A0FC4292","title":"锦绣年华","lon":"121.54092","lat":"31.17908","category":"47","category_name":"住宅区","address":"上海市浦东新区成山路2222弄"},{"poiid":"B2094753DA6EA5FC4799","title":"海上国际花园一期","lon":"121.545","lat":"31.1811","category":"47","category_name":"住宅区","address":"上海市浦东新区成山路2399弄"},{"poiid":"B2094750DB69A7FC489C","title":"网鱼网咖（成山路店）","lon":"121.544624","lat":"31.177974","category":"248","category_name":"生活娱乐","address":"浦东新区成山路乐购旁(装修中)"},{"poiid":"B2094654DB64AAF4459F","title":"好德便利No.508","lon":"121.54112","lat":"31.17914","category":"117","category_name":"便民商店/便利店","address":"成山路2228"},{"poiid":"B2094757D064A6FE4592","title":"上南中学锦绣校区羽毛球馆","lon":"121.53792","lat":"31.17971","category":"220","category_name":"运动场所","address":"浦东新区下南路877号(近北艾路)"},{"poiid":"B2094655D26EA4F4429B","title":"海上国际花园网球场","lon":"121.54517","lat":"31.18187","category":"226","category_name":"网球场","address":"浦东新区成山路2399号"},{"poiid":"B2094654DA68A5F9439C","title":"昌邑小学(大华校区)","lon":"121.53753","lat":"31.1808","category":"56","category_name":"小学","address":"下南路879"},{"poiid":"B2094654DB65A7F84793","title":"永琪美容美发","lon":"121.54","lat":"31.17963","category":"148","category_name":"美容美发店","address":"上海浦东新区成山路2181号  "},{"poiid":"B2094654DA68A5F9419A","title":"文峰美发美容成山店","lon":"121.54007","lat":"31.17968","category":"148","category_name":"美容美发店","address":"成山路2183-2185号"},{"poiid":"B2094757D16FA6FD4192","title":"海上国际网球场","lon":"121.542315134","lat":"31.1815983355","category":"220","category_name":"运动场所","address":"上海浦东新区成山路2399号"},{"poiid":"B2094655D264AAFA439B","title":"锦绣华城购物放心街","lon":"121.53925","lat":"31.18029","category":"116","category_name":"特色商业街","address":""},{"poiid":"B2094655D36DA6FE489A","title":"下南路","lon":"121.54271","lat":"31.17788","category":"38","category_name":"公交车站","address":""},{"poiid":"B2094655D26FA5FD439B","title":"大华·锦绣华城18街区(边门)","lon":"121.53745","lat":"31.17807","category":"47","category_name":"住宅区","address":"成山路2008弄1-310号"},{"poiid":"B2094655D264AAFC4592","title":"ElevenCafe","lon":"121.53654","lat":"31.18019","category":"65","category_name":"咖啡厅","address":"浦东新区下南路842号(近成山路)"},{"poiid":"B2094654DA68A5F9419E","title":"克丽缇娜国际专业美容中心","lon":"121.53981","lat":"31.17958","category":"148","category_name":"美容美发店","address":"成山路2173"},{"poiid":"B2094655D26BA6F5429A","title":"大华锦绣·嘉年华","lon":"121.53605","lat":"31.17871","category":"46","category_name":"楼宇","address":"成山路"},{"poiid":"B2094750D564ABFB4698","title":"大华珐朵公馆","lon":"121.54174541974","lat":"31.183306065456","category":"47","category_name":"住宅区","address":"浦东成山路成山路1488弄"},{"poiid":"B2094655D26AA3FB409A","title":"上航国旅","lon":"121.54059","lat":"31.17906","category":"247","category_name":"餐饮美食","address":"浦东新区成山路2206号(近锦绣路)"},{"poiid":"B2094750D76FA1FD429C","title":"咔喱咖喱(巴黎春天店)","lon":"121.536","lat":"31.1789","category":"95","category_name":"日本料理","address":"浦东新区成山路1993号巴黎春天B1楼"},{"poiid":"B2094757D16DA3F5449A","title":"新云台中学","lon":"121.547759738","lat":"31.1817442675","category":"55","category_name":"中学","address":"上海市浦东新区莲园路"},{"poiid":"B2094757D06FA1FD4798","title":"乐购(锦绣店)","lon":"121.54212","lat":"31.18004","category":"118","category_name":"超级市场","address":"浦东新区锦绣路3218号(近成山路)"},{"poiid":"B2094757D06FA6F9499F","title":"海上国际花园","lon":"121.54517","lat":"31.18187","category":"47","category_name":"住宅区","address":"上海市奉贤区奉城镇城大路181弄"},{"poiid":"B2094757D069A5FA409C","title":"一兆韦德(锦绣路店)","lon":"121.54146","lat":"31.18059","category":"221","category_name":"健身中心","address":"上海浦东新区锦绣路3168号(近成山路)  "},{"poiid":"B2094654DA68A5F94098","title":"德克士 锦绣乐购店","lon":"121.541856054","lat":"31.180128793","category":"68","category_name":"快餐厅","address":"浦东新区锦绣路3218号锦绣乐购超市1楼(近成山路)"},{"poiid":"B2094757D06FA7FD4698","title":"小杨生煎(成山巴春店)","lon":"121.53586","lat":"31.17897","category":"68","category_name":"快餐厅","address":"浦东新区成山路1993号巴黎春天B1楼(近下南路)"},{"poiid":"B2094757D164A6FF4593","title":"锦绣路","lon":"121.540641238","lat":"31.1857980538","category":"500","category_name":"未知分类","address":"上海锦绣路"},{"poiid":"B2094654DA68A5F9489C","title":"文化馨苑","lon":"121.5455","lat":"31.183252","category":"47","category_name":"住宅区","address":"上海浦东新区博华路237号"},{"poiid":"B2094655D268ABFC439D","title":"大华·锦绣华城香榭丽大道","lon":"121.53918","lat":"31.17891","category":"116","category_name":"特色商业街","address":""},{"poiid":"B2094757D068A5F8479B","title":"爱乐游(巴黎春天成山路店)","lon":"121.53604326","lat":"31.18206088","category":"500","category_name":"未知分类","address":"上海巴黎春天成山路店3楼"},{"poiid":"B2094750D76EA5FE449C","title":"湘乐汇(巴黎春天店)","lon":"121.536","lat":"31.1789","category":"77","category_name":"湖南菜","address":"浦东新区成山路1993号巴黎春天(近锦尊路)"},{"poiid":"B2094757D06BA3FF459E","title":"波斯湾大浴场","lon":"121.54691","lat":"31.18015","category":"149","category_name":"洗浴推拿场所","address":"浦东新区成山路2525号(近博华路)"},{"poiid":"B2094757D06AABFA429C","title":"京世造型(锦绣店)","lon":"121.54178","lat":"31.17967","category":"148","category_name":"美容美发店","address":"上海浦东新区锦绣路3218号乐购超市楼下(近成山路)  "},{"poiid":"B2094757D16EA6F4449E","title":"味之都 锦绣华城店","lon":"121.541944054","lat":"31.179945793","category":"68","category_name":"快餐厅","address":"浦东新区锦绣路3218号乐购1楼(近成山路)"},{"poiid":"B2094757D16EA3FC4998","title":"新云台中学 羽毛球馆","lon":"121.547974738","lat":"31.1811682553","category":"500","category_name":"未知分类","address":"上海博华路320号"},{"poiid":"B2094655D36CA1FA459E","title":"莲园路锦绣路","lon":"121.54165","lat":"31.18447","category":"38","category_name":"公交车站","address":""},{"poiid":"B2094655D265A6FE4498","title":"咪呷咪呷锦绣路店","lon":"121.5414","lat":"31.18001","category":"86","category_name":"火锅店","address":"浦东新区锦绣路3218号乐购超市1楼(近成山路)"},{"poiid":"B2094757D065A4FB409B","title":"食其家(成山店)","lon":"121.53572","lat":"31.17856","category":"95","category_name":"日本料理","address":"浦东新区成山路1993号巴黎春天B1楼(近博华路)"},{"poiid":"B2094655D264A4FF479A","title":"乐购(西门)","lon":"121.54081","lat":"31.17974","category":"118","category_name":"超级市场","address":"成山路"},{"poiid":"B2094655D36CA5FF409F","title":"成山路锦绣路","lon":"121.54059","lat":"31.17933","category":"38","category_name":"公交车站","address":""},{"poiid":"B2094654DA68A5FB459B","title":"海东公寓","lon":"121.54813","lat":"31.183867","category":"47","category_name":"住宅区","address":"上海市浦东新区莲园路100弄"},{"poiid":"B2094655D26DA7F9429F","title":"金顺小区","lon":"121.540241","lat":"31.183728","category":"47","category_name":"住宅区","address":"浦东北艾路901弄"},{"poiid":"B2094751DA65A3F84292","title":"东昌路地铁站","lon":"121.541541","lat":"31.181792","category":"36","category_name":"地铁站","address":null},{"poiid":"B2094757D568A4F5469C","title":"京世造型美发美容美体","lon":"121.540672","lat":"31.179985","category":"148","category_name":"美容美发店","address":"中国上海市浦东新区"},{"poiid":"B2094757D06AA1FD459F","title":"天池二村","lon":"121.54238","lat":"31.183788","category":"47","category_name":"住宅区","address":"莲园路8弄1-32号"},{"poiid":"B209475CD26DA1FB459F","title":"k11","lon":"121.542991","lat":"31.181045","category":"500","category_name":"未知分类","address":"上海市 淮海路"},{"poiid":"B2094654DA68A5F94093","title":"乐购(边门)","lon":"121.54067","lat":"31.17982","category":"118","category_name":"超级市场","address":""},{"poiid":"B2094757D06AA7FC4599","title":"华德肉皮汤 德华茶餐厅","lon":"121.537392","lat":"31.183833","category":"500","category_name":"未知分类","address":"上海北艾路850号"},{"poiid":"B2094757D169A5F44992","title":"妯娌老鸭粉丝(巴黎春天成山店)","lon":"121.53734073","lat":"31.180258235","category":"247","category_name":"餐饮美食","address":"浦东新区成山路1993号巴黎春天B1楼(近博华路)"},{"poiid":"B2094757D16CA6FF499F","title":"京世造型","lon":"121.53793773","lat":"31.178334195","category":"148","category_name":"美容美发店","address":"上海成山路2133号"},{"poiid":"B2094654DA68A5F5419D","title":"锦华东南苑(北门)","lon":"121.54091","lat":"31.17908","category":"47","category_name":"住宅区","address":"成山路2222弄"},{"poiid":"B2094655D265A0FC4292","title":"锦绣年华","lon":"121.54092","lat":"31.17908","category":"47","category_name":"住宅区","address":"上海市浦东新区成山路2222弄"},{"poiid":"B2094753DA6EA5FC4799","title":"海上国际花园一期","lon":"121.545","lat":"31.1811","category":"47","category_name":"住宅区","address":"上海市浦东新区成山路2399弄"},{"poiid":"B2094750DB69A7FC489C","title":"网鱼网咖（成山路店）","lon":"121.544624","lat":"31.177974","category":"248","category_name":"生活娱乐","address":"浦东新区成山路乐购旁(装修中)"},{"poiid":"B2094654DB64AAF4459F","title":"好德便利No.508","lon":"121.54112","lat":"31.17914","category":"117","category_name":"便民商店/便利店","address":"成山路2228"},{"poiid":"B2094757D064A6FE4592","title":"上南中学锦绣校区羽毛球馆","lon":"121.53792","lat":"31.17971","category":"220","category_name":"运动场所","address":"浦东新区下南路877号(近北艾路)"},{"poiid":"B2094655D26EA4F4429B","title":"海上国际花园网球场","lon":"121.54517","lat":"31.18187","category":"226","category_name":"网球场","address":"浦东新区成山路2399号"},{"poiid":"B2094654DA68A5F9439C","title":"昌邑小学(大华校区)","lon":"121.53753","lat":"31.1808","category":"56","category_name":"小学","address":"下南路879"},{"poiid":"B2094654DB65A7F84793","title":"永琪美容美发","lon":"121.54","lat":"31.17963","category":"148","category_name":"美容美发店","address":"上海浦东新区成山路2181号  "},{"poiid":"B2094654DA68A5F9419A","title":"文峰美发美容成山店","lon":"121.54007","lat":"31.17968","category":"148","category_name":"美容美发店","address":"成山路2183-2185号"},{"poiid":"B2094757D16FA6FD4192","title":"海上国际网球场","lon":"121.542315134","lat":"31.1815983355","category":"220","category_name":"运动场所","address":"上海浦东新区成山路2399号"},{"poiid":"B2094655D264AAFA439B","title":"锦绣华城购物放心街","lon":"121.53925","lat":"31.18029","category":"116","category_name":"特色商业街","address":""},{"poiid":"B2094655D36DA6FE489A","title":"下南路","lon":"121.54271","lat":"31.17788","category":"38","category_name":"公交车站","address":""},{"poiid":"B2094655D26FA5FD439B","title":"大华·锦绣华城18街区(边门)","lon":"121.53745","lat":"31.17807","category":"47","category_name":"住宅区","address":"成山路2008弄1-310号"},{"poiid":"B2094655D264AAFC4592","title":"ElevenCafe","lon":"121.53654","lat":"31.18019","category":"65","category_name":"咖啡厅","address":"浦东新区下南路842号(近成山路)"},{"poiid":"B2094654DA68A5F9419E","title":"克丽缇娜国际专业美容中心","lon":"121.53981","lat":"31.17958","category":"148","category_name":"美容美发店","address":"成山路2173"},{"poiid":"B2094655D26BA6F5429A","title":"大华锦绣·嘉年华","lon":"121.53605","lat":"31.17871","category":"46","category_name":"楼宇","address":"成山路"},{"poiid":"B2094750D564ABFB4698","title":"大华珐朵公馆","lon":"121.54174541974","lat":"31.183306065456","category":"47","category_name":"住宅区","address":"浦东成山路成山路1488弄"},{"poiid":"B2094655D26AA3FB409A","title":"上航国旅","lon":"121.54059","lat":"31.17906","category":"247","category_name":"餐饮美食","address":"浦东新区成山路2206号(近锦绣路)"},{"poiid":"B2094750D76FA1FD429C","title":"咔喱咖喱(巴黎春天店)","lon":"121.536","lat":"31.1789","category":"95","category_name":"日本料理","address":"浦东新区成山路1993号巴黎春天B1楼"},{"poiid":"B2094757D16DA3F5449A","title":"新云台中学","lon":"121.547759738","lat":"31.1817442675","category":"55","category_name":"中学","address":"上海市浦东新区莲园路"},{"poiid":"B2094757D06FA1FD4798","title":"乐购(锦绣店)","lon":"121.54212","lat":"31.18004","category":"118","category_name":"超级市场","address":"浦东新区锦绣路3218号(近成山路)"},{"poiid":"B2094757D06FA6F9499F","title":"海上国际花园","lon":"121.54517","lat":"31.18187","category":"47","category_name":"住宅区","address":"上海市奉贤区奉城镇城大路181弄"},{"poiid":"B2094757D069A5FA409C","title":"一兆韦德(锦绣路店)","lon":"121.54146","lat":"31.18059","category":"221","category_name":"健身中心","address":"上海浦东新区锦绣路3168号(近成山路)  "},{"poiid":"B2094654DA68A5F94098","title":"德克士 锦绣乐购店","lon":"121.541856054","lat":"31.180128793","category":"68","category_name":"快餐厅","address":"浦东新区锦绣路3218号锦绣乐购超市1楼(近成山路)"},{"poiid":"B2094757D06FA7FD4698","title":"小杨生煎(成山巴春店)","lon":"121.53586","lat":"31.17897","category":"68","category_name":"快餐厅","address":"浦东新区成山路1993号巴黎春天B1楼(近下南路)"},{"poiid":"B2094757D164A6FF4593","title":"锦绣路","lon":"121.540641238","lat":"31.1857980538","category":"500","category_name":"未知分类","address":"上海锦绣路"},{"poiid":"B2094654DA68A5F9489C","title":"文化馨苑","lon":"121.5455","lat":"31.183252","category":"47","category_name":"住宅区","address":"上海浦东新区博华路237号"},{"poiid":"B2094655D268ABFC439D","title":"大华·锦绣华城香榭丽大道","lon":"121.53918","lat":"31.17891","category":"116","category_name":"特色商业街","address":""},{"poiid":"B2094757D068A5F8479B","title":"爱乐游(巴黎春天成山路店)","lon":"121.53604326","lat":"31.18206088","category":"500","category_name":"未知分类","address":"上海巴黎春天成山路店3楼"},{"poiid":"B2094750D76EA5FE449C","title":"湘乐汇(巴黎春天店)","lon":"121.536","lat":"31.1789","category":"77","category_name":"湖南菜","address":"浦东新区成山路1993号巴黎春天(近锦尊路)"},{"poiid":"B2094757D06BA3FF459E","title":"波斯湾大浴场","lon":"121.54691","lat":"31.18015","category":"149","category_name":"洗浴推拿场所","address":"浦东新区成山路2525号(近博华路)"},{"poiid":"B2094757D06AABFA429C","title":"京世造型(锦绣店)","lon":"121.54178","lat":"31.17967","category":"148","category_name":"美容美发店","address":"上海浦东新区锦绣路3218号乐购超市楼下(近成山路)  "},{"poiid":"B2094757D16EA6F4449E","title":"味之都 锦绣华城店","lon":"121.541944054","lat":"31.179945793","category":"68","category_name":"快餐厅","address":"浦东新区锦绣路3218号乐购1楼(近成山路)"},{"poiid":"B2094757D16EA3FC4998","title":"新云台中学 羽毛球馆","lon":"121.547974738","lat":"31.1811682553","category":"500","category_name":"未知分类","address":"上海博华路320号"},{"poiid":"B2094655D36CA1FA459E","title":"莲园路锦绣路","lon":"121.54165","lat":"31.18447","category":"38","category_name":"公交车站","address":""},{"poiid":"B2094655D265A6FE4498","title":"咪呷咪呷锦绣路店","lon":"121.5414","lat":"31.18001","category":"86","category_name":"火锅店","address":"浦东新区锦绣路3218号乐购超市1楼(近成山路)"},{"poiid":"B2094757D065A4FB409B","title":"食其家(成山店)","lon":"121.53572","lat":"31.17856","category":"95","category_name":"日本料理","address":"浦东新区成山路1993号巴黎春天B1楼(近博华路)"},{"poiid":"B2094655D264A4FF479A","title":"乐购(西门)","lon":"121.54081","lat":"31.17974","category":"118","category_name":"超级市场","address":"成山路"},{"poiid":"B2094655D36CA5FF409F","title":"成山路锦绣路","lon":"121.54059","lat":"31.17933","category":"38","category_name":"公交车站","address":""},{"poiid":"B2094654DA68A5FB459B","title":"海东公寓","lon":"121.54813","lat":"31.183867","category":"47","category_name":"住宅区","address":"上海市浦东新区莲园路100弄"},{"poiid":"B2094655D26DA7F9429F","title":"金顺小区","lon":"121.540241","lat":"31.183728","category":"47","category_name":"住宅区","address":"浦东北艾路901弄"},{"poiid":"B2094751DA65A3F84292","title":"东昌路地铁站","lon":"121.541541","lat":"31.181792","category":"36","category_name":"地铁站","address":null},{"poiid":"B2094757D568A4F5469C","title":"京世造型美发美容美体","lon":"121.540672","lat":"31.179985","category":"148","category_name":"美容美发店","address":"中国上海市浦东新区"},{"poiid":"B2094757D06AA1FD459F","title":"天池二村","lon":"121.54238","lat":"31.183788","category":"47","category_name":"住宅区","address":"莲园路8弄1-32号"},{"poiid":"B209475CD26DA1FB459F","title":"k11","lon":"121.542991","lat":"31.181045","category":"500","category_name":"未知分类","address":"上海市 淮海路"},{"poiid":"B2094654DA68A5F94093","title":"乐购(边门)","lon":"121.54067","lat":"31.17982","category":"118","category_name":"超级市场","address":""},{"poiid":"B2094757D06AA7FC4599","title":"华德肉皮汤 德华茶餐厅","lon":"121.537392","lat":"31.183833","category":"500","category_name":"未知分类","address":"上海北艾路850号"},{"poiid":"B2094757D169A5F44992","title":"妯娌老鸭粉丝(巴黎春天成山店)","lon":"121.53734073","lat":"31.180258235","category":"247","category_name":"餐饮美食","address":"浦东新区成山路1993号巴黎春天B1楼(近博华路)"},{"poiid":"B2094757D16CA6FF499F","title":"京世造型","lon":"121.53793773","lat":"31.178334195","category":"148","category_name":"美容美发店","address":"上海成山路2133号"},{"poiid":"B2094654DA68A5F5419D","title":"锦华东南苑(北门)","lon":"121.54091","lat":"31.17908","category":"47","category_name":"住宅区","address":"成山路2222弄"},{"poiid":"B2094655D265A0FC4292","title":"锦绣年华","lon":"121.54092","lat":"31.17908","category":"47","category_name":"住宅区","address":"上海市浦东新区成山路2222弄"},{"poiid":"B2094753DA6EA5FC4799","title":"海上国际花园一期","lon":"121.545","lat":"31.1811","category":"47","category_name":"住宅区","address":"上海市浦东新区成山路2399弄"},{"poiid":"B2094750DB69A7FC489C","title":"网鱼网咖（成山路店）","lon":"121.544624","lat":"31.177974","category":"248","category_name":"生活娱乐","address":"浦东新区成山路乐购旁(装修中)"},{"poiid":"B2094654DB64AAF4459F","title":"好德便利No.508","lon":"121.54112","lat":"31.17914","category":"117","category_name":"便民商店/便利店","address":"成山路2228"},{"poiid":"B2094757D064A6FE4592","title":"上南中学锦绣校区羽毛球馆","lon":"121.53792","lat":"31.17971","category":"220","category_name":"运动场所","address":"浦东新区下南路877号(近北艾路)"},{"poiid":"B2094655D26EA4F4429B","title":"海上国际花园网球场","lon":"121.54517","lat":"31.18187","category":"226","category_name":"网球场","address":"浦东新区成山路2399号"},{"poiid":"B2094654DA68A5F9439C","title":"昌邑小学(大华校区)","lon":"121.53753","lat":"31.1808","category":"56","category_name":"小学","address":"下南路879"},{"poiid":"B2094654DB65A7F84793","title":"永琪美容美发","lon":"121.54","lat":"31.17963","category":"148","category_name":"美容美发店","address":"上海浦东新区成山路2181号  "},{"poiid":"B2094654DA68A5F9419A","title":"文峰美发美容成山店","lon":"121.54007","lat":"31.17968","category":"148","category_name":"美容美发店","address":"成山路2183-2185号"},{"poiid":"B2094757D16FA6FD4192","title":"海上国际网球场","lon":"121.542315134","lat":"31.1815983355","category":"220","category_name":"运动场所","address":"上海浦东新区成山路2399号"},{"poiid":"B2094655D264AAFA439B","title":"锦绣华城购物放心街","lon":"121.53925","lat":"31.18029","category":"116","category_name":"特色商业街","address":""},{"poiid":"B2094655D36DA6FE489A","title":"下南路","lon":"121.54271","lat":"31.17788","category":"38","category_name":"公交车站","address":""},{"poiid":"B2094655D26FA5FD439B","title":"大华·锦绣华城18街区(边门)","lon":"121.53745","lat":"31.17807","category":"47","category_name":"住宅区","address":"成山路2008弄1-310号"},{"poiid":"B2094655D264AAFC4592","title":"ElevenCafe","lon":"121.53654","lat":"31.18019","category":"65","category_name":"咖啡厅","address":"浦东新区下南路842号(近成山路)"},{"poiid":"B2094654DA68A5F9419E","title":"克丽缇娜国际专业美容中心","lon":"121.53981","lat":"31.17958","category":"148","category_name":"美容美发店","address":"成山路2173"},{"poiid":"B2094655D26BA6F5429A","title":"大华锦绣·嘉年华","lon":"121.53605","lat":"31.17871","category":"46","category_name":"楼宇","address":"成山路"},{"poiid":"B2094750D564ABFB4698","title":"大华珐朵公馆","lon":"121.54174541974","lat":"31.183306065456","category":"47","category_name":"住宅区","address":"浦东成山路成山路1488弄"},{"poiid":"B2094655D26AA3FB409A","title":"上航国旅","lon":"121.54059","lat":"31.17906","category":"247","category_name":"餐饮美食","address":"浦东新区成山路2206号(近锦绣路)"},{"poiid":"B2094750D76FA1FD429C","title":"咔喱咖喱(巴黎春天店)","lon":"121.536","lat":"31.1789","category":"95","category_name":"日本料理","address":"浦东新区成山路1993号巴黎春天B1楼"},{"poiid":"B2094757D16DA3F5449A","title":"新云台中学","lon":"121.547759738","lat":"31.1817442675","category":"55","category_name":"中学","address":"上海市浦东新区莲园路"}]