[{"poiid":"B2094757D06FAAF9429E","title":"江苏饭店","lon":"121.41120158","lat":"31.246796755","category":"247","category_name":"餐饮美食","address":"普陀区普陀区武宁路888号(近中宁路)"},{"poiid":"B2094757D06FAAF54799","title":"武宁公园","lon":"121.41519767","lat":"31.24542618","category":"196","category_name":"公园","address":"普陀区石泉路450号(近中宁路)"},{"poiid":"B2094654DB6AA6F8409E","title":"上海港鸿大酒店","lon":"121.41536","lat":"31.24405","category":"215","category_name":"三星级宾馆","address":"上海市普陀区武宁路501号(近中山北路)"},{"poiid":"B2094757D06FA7FF449B","title":"内环武宁路高驾上匝道","lon":"121.419364","lat":"31.241994","category":"500","category_name":"未知分类","address":"上海武宁路中山北路"},{"poiid":"B2094757D06FA1F8429B","title":"普陀区业余大学","lon":"121.41262","lat":"31.24079","category":"53","category_name":"成人教育","address":"普陀区曹杨路805号(近三汽公司)"},{"poiid":"B2094757D068A2FF439F","title":"上海电器科学研究所","lon":"121.415145","lat":"31.244191","category":"500","category_name":"未知分类","address":"上海市武宁路505号"},{"poiid":"B2094655D36CA5FA459C","title":"曹杨路大众三汽公司","lon":"121.41327","lat":"31.24071","category":"38","category_name":"公交车站","address":""},{"poiid":"B2094757D16AABFC4298","title":"上海悦馨大酒店","lon":"121.413955586","lat":"31.2480587799","category":"76","category_name":"上海菜","address":"普陀区中宁路176号广西宾馆后侧"},{"poiid":"B2094757D068A4FC4092","title":"花溪园","lon":"121.416","lat":"31.2448","category":"47","category_name":"住宅区","address":"上海兰溪路90弄花溪园小区"},{"poiid":"B2094654D56AAAFD469F","title":"武宁长途汽车站","lon":"121.41323","lat":"31.24603","category":"35","category_name":"长途汽车站","address":"中宁路230"},{"poiid":"B2094654D56BA2F4469C","title":"鸿运大厦","lon":"121.41538","lat":"31.24405","category":"46","category_name":"楼宇","address":"武宁路501号"},{"poiid":"B2094750D76DAAFA409F","title":"吉野家  杨柳青店","lon":"121.415","lat":"31.2451","category":"95","category_name":"日本料理","address":"普陀区武宁路768号乐天玛特购物中心1楼(近杨柳青路)"},{"poiid":"B2094757D069A4F44892","title":"上海市测绘院","lon":"121.417523","lat":"31.242752","category":"500","category_name":"未知分类","address":"上海武宁路419号"},{"poiid":"B2094655D26BA2FC439B","title":"武宁路中宁路","lon":"121.41516","lat":"31.24451","category":"38","category_name":"公交车站","address":""},{"poiid":"B2094654D56AAAFE469F","title":"上海市国家税务局车辆购置税曹杨征收所","lon":"121.41257","lat":"31.24795","category":"250","category_name":"公园户外","address":"武宁路"},{"poiid":"B2094757D16CA0FA4593","title":"武宁路中宁路公交站","lon":"121.415541","lat":"31.244142","category":"38","category_name":"公交车站","address":"上海武宁路中宁路"},{"poiid":"B2094655D264A0FE4693","title":"喜士多武宁门市","lon":"121.4155","lat":"31.24399","category":"117","category_name":"便民商店/便利店","address":"武宁路503"},{"poiid":"B2094753D26DA1FC429A","title":"普陀区中心医院","lon":"121.415744","lat":"31.244083","category":"162","category_name":"医院","address":"上海市 枣阳路130号"},{"poiid":"B209475CD56CA6F9489D","title":"森井-special sushi","lon":"121.414657","lat":"31.244592","category":"500","category_name":"未知分类","address":"上海市 普陀区中山北路3300号月星环球港L2026号"},{"poiid":"B2094757D064ABFD409C","title":"中国建筑上海设计院有限公司","lon":"121.415282","lat":"31.244136","category":"263","category_name":"公司","address":"上海武宁路503号"},{"poiid":"B2094757D06FA4FE489B","title":"中宁家园","lon":"121.41636","lat":"31.249048","category":"47","category_name":"住宅区","address":"上海市普陀区中宁路88弄"},{"poiid":"B2094654D56BA2F4469E","title":"上海星港","lon":"121.41226","lat":"31.24498","category":"47","category_name":"住宅区","address":"上海浦东新区东昌路、银城路交界处"},{"poiid":"B2094757D16EA3FA4692","title":"厦门沃头蚝干粥武宁店","lon":"121.415297886","lat":"31.2442795059","category":"500","category_name":"未知分类","address":"上海武宁路"},{"poiid":"B2094757D069A7F94793","title":"Hayes星港","lon":"121.41215","lat":"31.243679","category":"47","category_name":"住宅区","address":"上海武宁路955弄"},{"poiid":"B2094654DB69A4FD499F","title":"锦江之星(武宁店)","lon":"121.41953","lat":"31.24219","category":"216","category_name":"经济型连锁酒店","address":"上海普陀区中山北路2701号(近武宁路)  "},{"poiid":"B2094654DB69A5FC4298","title":"7天连锁酒店(武宁路店)","lon":"121.41849","lat":"31.24352","category":"216","category_name":"经济型连锁酒店","address":"普陀区武宁路492号(近中山北路)"},{"poiid":"B2094654DB64A6FB409D","title":"上海广西宾馆","lon":"121.41406","lat":"31.24752","category":"215","category_name":"三星级宾馆","address":"普陀区中宁路176号(近石泉路)"},{"poiid":"B2094757D068A2FA429E","title":"曹杨华庭","lon":"121.411","lat":"31.2441","category":"47","category_name":"住宅区","address":"上海市普陀区杏山路500弄"},{"poiid":"B2094757D068A1FA499C","title":"曹杨路花卉市场","lon":"121.41194","lat":"31.24177","category":"249","category_name":"购物服务","address":"上海普陀区曹杨路900号(近三汽公司)"},{"poiid":"B2094757D06BABFE499F","title":"上海电器科学研究所食堂","lon":"121.415715186","lat":"31.2442198048","category":"500","category_name":"未知分类","address":"上海曹杨路800号"},{"poiid":"B2094655D36CA5FA449B","title":"曹阳路兰溪路","lon":"121.41387","lat":"31.24033","category":"38","category_name":"公交车站","address":""},{"poiid":"B2094751D46AA0F5449C","title":"上海市普陀区房地产交易中心","lon":"121.416504","lat":"31.239807","category":"500","category_name":"未知分类","address":"中山北路2930号"},{"poiid":"B2094654D56BA2FB409A","title":"枫桥苑","lon":"121.41119","lat":"31.242687","category":"47","category_name":"住宅区","address":"上海市普陀区曹杨路922弄"},{"poiid":"B2094655D26EAAF9419C","title":"月季园别墅式宾馆餐厅","lon":"121.41448","lat":"31.24755","category":"257","category_name":"中餐厅","address":"普陀区中宁路138弄月季园"},{"poiid":"B2094757D66CAAFD499D","title":"老凤祥银楼(武宁店)","lon":"121.41627","lat":"31.24378","category":"500","category_name":"未知分类","address":"普陀区武宁路查看地图"},{"poiid":"B2094654DB69A6FE459B","title":"武宁苑","lon":"121.41888","lat":"31.244137","category":"47","category_name":"住宅区","address":"上海市普陀区武宁路492号"},{"poiid":"B2094757D66CA2F9489B","title":"上海市轻工业品进出口有限公司","lon":"121.41613929","lat":"31.244042071","category":"263","category_name":"公司","address":"上海市武宁路501号鸿运大厦16-18楼"},{"poiid":"B2094757D16DA1FE4099","title":"曹杨四村","lon":"121.414","lat":"31.2433","category":"500","category_name":"未知分类","address":"花溪路122弄"},{"poiid":"B2094757D568A1F84592","title":"Alibi","lon":"121.4116281","lat":"31.24495611","category":"94","category_name":"西餐厅","address":"普陀区武宁路955弄1号1204室(近曹杨地铁站)"},{"poiid":"B2094655D26DA5F9469F","title":"普陀区房屋土地管理局三号楼","lon":"121.41586","lat":"31.23972","category":"46","category_name":"楼宇","address":"中山北路2981甲"},{"poiid":"B2094757D16EABFF429F","title":"Sindy's home","lon":"121.417175586","lat":"31.2438101968","category":"500","category_name":"未知分类","address":"上海市武宁路内环外中环内 某个小区"},{"poiid":"B2094757D56CABFA439D","title":"家德东北饭庄","lon":"121.4176082","lat":"31.2404343","category":"82","category_name":"东北菜","address":"普陀区中山北路2911号中关村大厦1楼(近曹杨路)"},{"poiid":"B2094654D56AABF5409C","title":"天赐苑","lon":"121.41936","lat":"31.246691","category":"47","category_name":"住宅区","address":"上海石泉路415弄"},{"poiid":"B2094757D16FA6FF479B","title":"民望餐厅","lon":"121.416954041","lat":"31.2434806824","category":"500","category_name":"未知分类","address":"上海武宁路507号电科大厦二楼"},{"poiid":"B2094757D06BA0FD449A","title":"石泉路中宁路公交站","lon":"121.417218","lat":"31.247137","category":"38","category_name":"公交车站","address":"上海石泉路中宁路"},{"poiid":"B2094655D265A0F8499C","title":"重庆鸡公煲川夫烤鱼","lon":"121.41232","lat":"31.24656","category":"71","category_name":"四川菜","address":"普陀区中山北路2400弄7号(近东新路)"},{"poiid":"B2094757D069A0FE419A","title":"武宁路中山北路红绿灯","lon":"121.41623842","lat":"31.241898718","category":"500","category_name":"未知分类","address":"上海普陀区武宁路中山北路口"},{"poiid":"B2094757D068A4FE439C","title":"曹杨六村","lon":"121.420243","lat":"31.244908","category":"47","category_name":"住宅区","address":"上海兰溪路21弄"},{"poiid":"B2094752DB6BA5FD449B","title":"沪西大剧院","lon":"121.417521","lat":"31.24294","category":"500","category_name":"未知分类","address":"上海市 武宁路205号"},{"poiid":"B2094757D168A5FE419D","title":"上海星港二期","lon":"121.41232954","lat":"31.242888878","category":"47","category_name":"住宅区","address":"上海市宝山区殷高西路331弄"},{"poiid":"B2094757D06FAAF9429E","title":"江苏饭店","lon":"121.41120158","lat":"31.246796755","category":"247","category_name":"餐饮美食","address":"普陀区普陀区武宁路888号(近中宁路)"},{"poiid":"B2094757D06FAAF54799","title":"武宁公园","lon":"121.41519767","lat":"31.24542618","category":"196","category_name":"公园","address":"普陀区石泉路450号(近中宁路)"},{"poiid":"B2094654DB6AA6F8409E","title":"上海港鸿大酒店","lon":"121.41536","lat":"31.24405","category":"215","category_name":"三星级宾馆","address":"上海市普陀区武宁路501号(近中山北路)"},{"poiid":"B2094757D06FA7FF449B","title":"内环武宁路高驾上匝道","lon":"121.419364","lat":"31.241994","category":"500","category_name":"未知分类","address":"上海武宁路中山北路"},{"poiid":"B2094757D06FA1F8429B","title":"普陀区业余大学","lon":"121.41262","lat":"31.24079","category":"53","category_name":"成人教育","address":"普陀区曹杨路805号(近三汽公司)"},{"poiid":"B2094757D068A2FF439F","title":"上海电器科学研究所","lon":"121.415145","lat":"31.244191","category":"500","category_name":"未知分类","address":"上海市武宁路505号"},{"poiid":"B2094655D36CA5FA459C","title":"曹杨路大众三汽公司","lon":"121.41327","lat":"31.24071","category":"38","category_name":"公交车站","address":""},{"poiid":"B2094757D16AABFC4298","title":"上海悦馨大酒店","lon":"121.413955586","lat":"31.2480587799","category":"76","category_name":"上海菜","address":"普陀区中宁路176号广西宾馆后侧"},{"poiid":"B2094757D068A4FC4092","title":"花溪园","lon":"121.416","lat":"31.2448","category":"47","category_name":"住宅区","address":"上海兰溪路90弄花溪园小区"},{"poiid":"B2094654D56AAAFD469F","title":"武宁长途汽车站","lon":"121.41323","lat":"31.24603","category":"35","category_name":"长途汽车站","address":"中宁路230"},{"poiid":"B2094654D56BA2F4469C","title":"鸿运大厦","lon":"121.41538","lat":"31.24405","category":"46","category_name":"楼宇","address":"武宁路501号"},{"poiid":"B2094750D76DAAFA409F","title":"吉野家  杨柳青店","lon":"121.415","lat":"31.2451","category":"95","category_name":"日本料理","address":"普陀区武宁路768号乐天玛特购物中心1楼(近杨柳青路)"},{"poiid":"B2094757D069A4F44892","title":"上海市测绘院","lon":"121.417523","lat":"31.242752","category":"500","category_name":"未知分类","address":"上海武宁路419号"},{"poiid":"B2094655D26BA2FC439B","title":"武宁路中宁路","lon":"121.41516","lat":"31.24451","category":"38","category_name":"公交车站","address":""},{"poiid":"B2094654D56AAAFE469F","title":"上海市国家税务局车辆购置税曹杨征收所","lon":"121.41257","lat":"31.24795","category":"250","category_name":"公园户外","address":"武宁路"},{"poiid":"B2094757D16CA0FA4593","title":"武宁路中宁路公交站","lon":"121.415541","lat":"31.244142","category":"38","category_name":"公交车站","address":"上海武宁路中宁路"},{"poiid":"B2094655D264A0FE4693","title":"喜士多武宁门市","lon":"121.4155","lat":"31.24399","category":"117","category_name":"便民商店/便利店","address":"武宁路503"},{"poiid":"B2094753D26DA1FC429A","title":"普陀区中心医院","lon":"121.415744","lat":"31.244083","category":"162","category_name":"医院","address":"上海市 枣阳路130号"},{"poiid":"B209475CD56CA6F9489D","title":"森井-special sushi","lon":"121.414657","lat":"31.244592","category":"500","category_name":"未知分类","address":"上海市 普陀区中山北路3300号月星环球港L2026号"},{"poiid":"B2094757D064ABFD409C","title":"中国建筑上海设计院有限公司","lon":"121.415282","lat":"31.244136","category":"263","category_name":"公司","address":"上海武宁路503号"},{"poiid":"B2094757D06FA4FE489B","title":"中宁家园","lon":"121.41636","lat":"31.249048","category":"47","category_name":"住宅区","address":"上海市普陀区中宁路88弄"},{"poiid":"B2094654D56BA2F4469E","title":"上海星港","lon":"121.41226","lat":"31.24498","category":"47","category_name":"住宅区","address":"上海浦东新区东昌路、银城路交界处"},{"poiid":"B2094757D16EA3FA4692","title":"厦门沃头蚝干粥武宁店","lon":"121.415297886","lat":"31.2442795059","category":"500","category_name":"未知分类","address":"上海武宁路"},{"poiid":"B2094757D069A7F94793","title":"Hayes星港","lon":"121.41215","lat":"31.243679","category":"47","category_name":"住宅区","address":"上海武宁路955弄"},{"poiid":"B2094654DB69A4FD499F","title":"锦江之星(武宁店)","lon":"121.41953","lat":"31.24219","category":"216","category_name":"经济型连锁酒店","address":"上海普陀区中山北路2701号(近武宁路)  "},{"poiid":"B2094654DB69A5FC4298","title":"7天连锁酒店(武宁路店)","lon":"121.41849","lat":"31.24352","category":"216","category_name":"经济型连锁酒店","address":"普陀区武宁路492号(近中山北路)"},{"poiid":"B2094654DB64A6FB409D","title":"上海广西宾馆","lon":"121.41406","lat":"31.24752","category":"215","category_name":"三星级宾馆","address":"普陀区中宁路176号(近石泉路)"},{"poiid":"B2094757D068A2FA429E","title":"曹杨华庭","lon":"121.411","lat":"31.2441","category":"47","category_name":"住宅区","address":"上海市普陀区杏山路500弄"},{"poiid":"B2094757D068A1FA499C","title":"曹杨路花卉市场","lon":"121.41194","lat":"31.24177","category":"249","category_name":"购物服务","address":"上海普陀区曹杨路900号(近三汽公司)"},{"poiid":"B2094757D06BABFE499F","title":"上海电器科学研究所食堂","lon":"121.415715186","lat":"31.2442198048","category":"500","category_name":"未知分类","address":"上海曹杨路800号"},{"poiid":"B2094655D36CA5FA449B","title":"曹阳路兰溪路","lon":"121.41387","lat":"31.24033","category":"38","category_name":"公交车站","address":""},{"poiid":"B2094751D46AA0F5449C","title":"上海市普陀区房地产交易中心","lon":"121.416504","lat":"31.239807","category":"500","category_name":"未知分类","address":"中山北路2930号"},{"poiid":"B2094654D56BA2FB409A","title":"枫桥苑","lon":"121.41119","lat":"31.242687","category":"47","category_name":"住宅区","address":"上海市普陀区曹杨路922弄"},{"poiid":"B2094655D26EAAF9419C","title":"月季园别墅式宾馆餐厅","lon":"121.41448","lat":"31.24755","category":"257","category_name":"中餐厅","address":"普陀区中宁路138弄月季园"},{"poiid":"B2094757D66CAAFD499D","title":"老凤祥银楼(武宁店)","lon":"121.41627","lat":"31.24378","category":"500","category_name":"未知分类","address":"普陀区武宁路查看地图"},{"poiid":"B2094654DB69A6FE459B","title":"武宁苑","lon":"121.41888","lat":"31.244137","category":"47","category_name":"住宅区","address":"上海市普陀区武宁路492号"},{"poiid":"B2094757D66CA2F9489B","title":"上海市轻工业品进出口有限公司","lon":"121.41613929","lat":"31.244042071","category":"263","category_name":"公司","address":"上海市武宁路501号鸿运大厦16-18楼"},{"poiid":"B2094757D16DA1FE4099","title":"曹杨四村","lon":"121.414","lat":"31.2433","category":"500","category_name":"未知分类","address":"花溪路122弄"},{"poiid":"B2094757D568A1F84592","title":"Alibi","lon":"121.4116281","lat":"31.24495611","category":"94","category_name":"西餐厅","address":"普陀区武宁路955弄1号1204室(近曹杨地铁站)"},{"poiid":"B2094655D26DA5F9469F","title":"普陀区房屋土地管理局三号楼","lon":"121.41586","lat":"31.23972","category":"46","category_name":"楼宇","address":"中山北路2981甲"},{"poiid":"B2094757D16EABFF429F","title":"Sindy's home","lon":"121.417175586","lat":"31.2438101968","category":"500","category_name":"未知分类","address":"上海市武宁路内环外中环内 某个小区"},{"poiid":"B2094757D56CABFA439D","title":"家德东北饭庄","lon":"121.4176082","lat":"31.2404343","category":"82","category_name":"东北菜","address":"普陀区中山北路2911号中关村大厦1楼(近曹杨路)"},{"poiid":"B2094654D56AABF5409C","title":"天赐苑","lon":"121.41936","lat":"31.246691","category":"47","category_name":"住宅区","address":"上海石泉路415弄"},{"poiid":"B2094757D16FA6FF479B","title":"民望餐厅","lon":"121.416954041","lat":"31.2434806824","category":"500","category_name":"未知分类","address":"上海武宁路507号电科大厦二楼"},{"poiid":"B2094757D06BA0FD449A","title":"石泉路中宁路公交站","lon":"121.417218","lat":"31.247137","category":"38","category_name":"公交车站","address":"上海石泉路中宁路"},{"poiid":"B2094655D265A0F8499C","title":"重庆鸡公煲川夫烤鱼","lon":"121.41232","lat":"31.24656","category":"71","category_name":"四川菜","address":"普陀区中山北路2400弄7号(近东新路)"},{"poiid":"B2094757D069A0FE419A","title":"武宁路中山北路红绿灯","lon":"121.41623842","lat":"31.241898718","category":"500","category_name":"未知分类","address":"上海普陀区武宁路中山北路口"},{"poiid":"B2094757D068A4FE439C","title":"曹杨六村","lon":"121.420243","lat":"31.244908","category":"47","category_name":"住宅区","address":"上海兰溪路21弄"},{"poiid":"B2094752DB6BA5FD449B","title":"沪西大剧院","lon":"121.417521","lat":"31.24294","category":"500","category_name":"未知分类","address":"上海市 武宁路205号"},{"poiid":"B2094757D168A5FE419D","title":"上海星港二期","lon":"121.41232954","lat":"31.242888878","category":"47","category_name":"住宅区","address":"上海市宝山区殷高西路331弄"},{"poiid":"B2094757D06FAAF9429E","title":"江苏饭店","lon":"121.41120158","lat":"31.246796755","category":"247","category_name":"餐饮美食","address":"普陀区普陀区武宁路888号(近中宁路)"},{"poiid":"B2094757D06FAAF54799","title":"武宁公园","lon":"121.41519767","lat":"31.24542618","category":"196","category_name":"公园","address":"普陀区石泉路450号(近中宁路)"},{"poiid":"B2094654DB6AA6F8409E","title":"上海港鸿大酒店","lon":"121.41536","lat":"31.24405","category":"215","category_name":"三星级宾馆","address":"上海市普陀区武宁路501号(近中山北路)"},{"poiid":"B2094757D06FA7FF449B","title":"内环武宁路高驾上匝道","lon":"121.419364","lat":"31.241994","category":"500","category_name":"未知分类","address":"上海武宁路中山北路"},{"poiid":"B2094757D06FA1F8429B","title":"普陀区业余大学","lon":"121.41262","lat":"31.24079","category":"53","category_name":"成人教育","address":"普陀区曹杨路805号(近三汽公司)"},{"poiid":"B2094757D068A2FF439F","title":"上海电器科学研究所","lon":"121.415145","lat":"31.244191","category":"500","category_name":"未知分类","address":"上海市武宁路505号"},{"poiid":"B2094655D36CA5FA459C","title":"曹杨路大众三汽公司","lon":"121.41327","lat":"31.24071","category":"38","category_name":"公交车站","address":""},{"poiid":"B2094757D16AABFC4298","title":"上海悦馨大酒店","lon":"121.413955586","lat":"31.2480587799","category":"76","category_name":"上海菜","address":"普陀区中宁路176号广西宾馆后侧"},{"poiid":"B2094757D068A4FC4092","title":"花溪园","lon":"121.416","lat":"31.2448","category":"47","category_name":"住宅区","address":"上海兰溪路90弄花溪园小区"},{"poiid":"B2094654D56AAAFD469F","title":"武宁长途汽车站","lon":"121.41323","lat":"31.24603","category":"35","category_name":"长途汽车站","address":"中宁路230"},{"poiid":"B2094654D56BA2F4469C","title":"鸿运大厦","lon":"121.41538","lat":"31.24405","category":"46","category_name":"楼宇","address":"武宁路501号"},{"poiid":"B2094750D76DAAFA409F","title":"吉野家  杨柳青店","lon":"121.415","lat":"31.2451","category":"95","category_name":"日本料理","address":"普陀区武宁路768号乐天玛特购物中心1楼(近杨柳青路)"},{"poiid":"B2094757D069A4F44892","title":"上海市测绘院","lon":"121.417523","lat":"31.242752","category":"500","category_name":"未知分类","address":"上海武宁路419号"},{"poiid":"B2094655D26BA2FC439B","title":"武宁路中宁路","lon":"121.41516","lat":"31.24451","category":"38","category_name":"公交车站","address":""},{"poiid":"B2094654D56AAAFE469F","title":"上海市国家税务局车辆购置税曹杨征收所","lon":"121.41257","lat":"31.24795","category":"250","category_name":"公园户外","address":"武宁路"},{"poiid":"B2094757D16CA0FA4593","title":"武宁路中宁路公交站","lon":"121.415541","lat":"31.244142","category":"38","category_name":"公交车站","address":"上海武宁路中宁路"},{"poiid":"B2094655D264A0FE4693","title":"喜士多武宁门市","lon":"121.4155","lat":"31.24399","category":"117","category_name":"便民商店/便利店","address":"武宁路503"},{"poiid":"B2094753D26DA1FC429A","title":"普陀区中心医院","lon":"121.415744","lat":"31.244083","category":"162","category_name":"医院","address":"上海市 枣阳路130号"},{"poiid":"B209475CD56CA6F9489D","title":"森井-special sushi","lon":"121.414657","lat":"31.244592","category":"500","category_name":"未知分类","address":"上海市 普陀区中山北路3300号月星环球港L2026号"},{"poiid":"B2094757D064ABFD409C","title":"中国建筑上海设计院有限公司","lon":"121.415282","lat":"31.244136","category":"263","category_name":"公司","address":"上海武宁路503号"},{"poiid":"B2094757D06FA4FE489B","title":"中宁家园","lon":"121.41636","lat":"31.249048","category":"47","category_name":"住宅区","address":"上海市普陀区中宁路88弄"},{"poiid":"B2094654D56BA2F4469E","title":"上海星港","lon":"121.41226","lat":"31.24498","category":"47","category_name":"住宅区","address":"上海浦东新区东昌路、银城路交界处"},{"poiid":"B2094757D16EA3FA4692","title":"厦门沃头蚝干粥武宁店","lon":"121.415297886","lat":"31.2442795059","category":"500","category_name":"未知分类","address":"上海武宁路"},{"poiid":"B2094757D069A7F94793","title":"Hayes星港","lon":"121.41215","lat":"31.243679","category":"47","category_name":"住宅区","address":"上海武宁路955弄"},{"poiid":"B2094654DB69A4FD499F","title":"锦江之星(武宁店)","lon":"121.41953","lat":"31.24219","category":"216","category_name":"经济型连锁酒店","address":"上海普陀区中山北路2701号(近武宁路)  "},{"poiid":"B2094654DB69A5FC4298","title":"7天连锁酒店(武宁路店)","lon":"121.41849","lat":"31.24352","category":"216","category_name":"经济型连锁酒店","address":"普陀区武宁路492号(近中山北路)"},{"poiid":"B2094654DB64A6FB409D","title":"上海广西宾馆","lon":"121.41406","lat":"31.24752","category":"215","category_name":"三星级宾馆","address":"普陀区中宁路176号(近石泉路)"},{"poiid":"B2094757D068A2FA429E","title":"曹杨华庭","lon":"121.411","lat":"31.2441","category":"47","category_name":"住宅区","address":"上海市普陀区杏山路500弄"},{"poiid":"B2094757D068A1FA499C","title":"曹杨路花卉市场","lon":"121.41194","lat":"31.24177","category":"249","category_name":"购物服务","address":"上海普陀区曹杨路900号(近三汽公司)"},{"poiid":"B2094757D06BABFE499F","title":"上海电器科学研究所食堂","lon":"121.415715186","lat":"31.2442198048","category":"500","category_name":"未知分类","address":"上海曹杨路800号"},{"poiid":"B2094655D36CA5FA449B","title":"曹阳路兰溪路","lon":"121.41387","lat":"31.24033","category":"38","category_name":"公交车站","address":""},{"poiid":"B2094751D46AA0F5449C","title":"上海市普陀区房地产交易中心","lon":"121.416504","lat":"31.239807","category":"500","category_name":"未知分类","address":"中山北路2930号"},{"poiid":"B2094654D56BA2FB409A","title":"枫桥苑","lon":"121.41119","lat":"31.242687","category":"47","category_name":"住宅区","address":"上海市普陀区曹杨路922弄"},{"poiid":"B2094655D26EAAF9419C","title":"月季园别墅式宾馆餐厅","lon":"121.41448","lat":"31.24755","category":"257","category_name":"中餐厅","address":"普陀区中宁路138弄月季园"},{"poiid":"B2094757D66CAAFD499D","title":"老凤祥银楼(武宁店)","lon":"121.41627","lat":"31.24378","category":"500","category_name":"未知分类","address":"普陀区武宁路查看地图"},{"poiid":"B2094654DB69A6FE459B","title":"武宁苑","lon":"121.41888","lat":"31.244137","category":"47","category_name":"住宅区","address":"上海市普陀区武宁路492号"},{"poiid":"B2094757D66CA2F9489B","title":"上海市轻工业品进出口有限公司","lon":"121.41613929","lat":"31.244042071","category":"263","category_name":"公司","address":"上海市武宁路501号鸿运大厦16-18楼"},{"poiid":"B2094757D16DA1FE4099","title":"曹杨四村","lon":"121.414","lat":"31.2433","category":"500","category_name":"未知分类","address":"花溪路122弄"},{"poiid":"B2094757D568A1F84592","title":"Alibi","lon":"121.4116281","lat":"31.24495611","category":"94","category_name":"西餐厅","address":"普陀区武宁路955弄1号1204室(近曹杨地铁站)"},{"poiid":"B2094655D26DA5F9469F","title":"普陀区房屋土地管理局三号楼","lon":"121.41586","lat":"31.23972","category":"46","category_name":"楼宇","address":"中山北路2981甲"},{"poiid":"B2094757D16EABFF429F","title":"Sindy's home","lon":"121.417175586","lat":"31.2438101968","category":"500","category_name":"未知分类","address":"上海市武宁路内环外中环内 某个小区"},{"poiid":"B2094757D56CABFA439D","title":"家德东北饭庄","lon":"121.4176082","lat":"31.2404343","category":"82","category_name":"东北菜","address":"普陀区中山北路2911号中关村大厦1楼(近曹杨路)"},{"poiid":"B2094654D56AABF5409C","title":"天赐苑","lon":"121.41936","lat":"31.246691","category":"47","category_name":"住宅区","address":"上海石泉路415弄"},{"poiid":"B2094757D16FA6FF479B","title":"民望餐厅","lon":"121.416954041","lat":"31.2434806824","category":"500","category_name":"未知分类","address":"上海武宁路507号电科大厦二楼"},{"poiid":"B2094757D06BA0FD449A","title":"石泉路中宁路公交站","lon":"121.417218","lat":"31.247137","category":"38","category_name":"公交车站","address":"上海石泉路中宁路"},{"poiid":"B2094655D265A0F8499C","title":"重庆鸡公煲川夫烤鱼","lon":"121.41232","lat":"31.24656","category":"71","category_name":"四川菜","address":"普陀区中山北路2400弄7号(近东新路)"},{"poiid":"B2094757D069A0FE419A","title":"武宁路中山北路红绿灯","lon":"121.41623842","lat":"31.241898718","category":"500","category_name":"未知分类","address":"上海普陀区武宁路中山北路口"},{"poiid":"B2094757D068A4FE439C","title":"曹杨六村","lon":"121.420243","lat":"31.244908","category":"47","category_name":"住宅区","address":"上海兰溪路21弄"},{"poiid":"B2094752DB6BA5FD449B","title":"沪西大剧院","lon":"121.417521","lat":"31.24294","category":"500","category_name":"未知分类","address":"上海市 武宁路205号"},{"poiid":"B2094757D168A5FE419D","title":"上海星港二期","lon":"121.41232954","lat":"31.242888878","category":"47","category_name":"住宅区","address":"上海市宝山区殷高西路331弄"}]