[{"poiid":"B2094655D36CA6FF4498","title":"复旦大学","lon":"121.50346","lat":"31.29645","category":"671","category_name":"高校中心点","address":"上海市邯郸路220号"},{"poiid":"B2094757D169A6F4489C","title":"复旦大学第六教学楼","lon":"121.5039741","lat":"31.295171939","category":"52","category_name":"高等院校","address":"上海国年路275弄"},{"poiid":"B2094757D06FA1F4499B","title":"上海复旦皇冠假日酒店","lon":"121.50094","lat":"31.29569","category":"217","category_name":"旅馆招待所","address":"上海杨浦区邯郸路199号(复旦大学正门斜对面)"},{"poiid":"B2094757D06EAAFF489E","title":"复旦大学第三教学楼","lon":"121.50422758","lat":"31.298090461","category":"253","category_name":"校园生活","address":"上海邯郸路220号(近正门,主席像东侧)"},{"poiid":"B2094757D06FA3FD4999","title":"复旦大学文科图书馆","lon":"121.50421142","lat":"31.295690536","category":"253","category_name":"校园生活","address":"杨浦区国年路300号(邯郸路口)"},{"poiid":"B2094757D06FA3FE459C","title":"复旦大学第四教学楼","lon":"121.50119351","lat":"31.298431956","category":"253","category_name":"校园生活","address":"上海杨浦区邯郸路220号复旦大学内(近逸夫科技楼)"},{"poiid":"B2094757D06EAAFC4098","title":"复旦大学第五教学楼","lon":"121.50448362","lat":"31.295495389","category":"253","category_name":"校园生活","address":"上海杨浦区国年路275弄"},{"poiid":"B2094757D06FA3FD459C","title":"复旦大学光华楼西辅楼","lon":"121.501481","lat":"31.298503","category":"253","category_name":"校园生活","address":"上海市邯郸路220号"},{"poiid":"B2094757D068A1FD489C","title":"复旦大学美国研究中心","lon":"121.50336624","lat":"31.295570813","category":"500","category_name":"未知分类","address":"杨浦区国权路680号(近邯郸路)"},{"poiid":"B2094757D06FA1FB4292","title":"复旦大学理科图书馆","lon":"121.50269335","lat":"31.297219542","category":"253","category_name":"校园生活","address":"上海杨浦区邯郸路220号复旦大学邯郸校区"},{"poiid":"B2094757DB6BABF9449A","title":"汤姆熊（万达广场 五角场店）","lon":"121.503","lat":"31.2971","category":"128","category_name":"儿童用品店","address":"上海杨浦区邯郸路600号 万达广场(五角场店)地下一层"},{"poiid":"B2094757D06EAAFD4099","title":"复旦大学相辉堂","lon":"121.499278906","lat":"31.2974464404","category":"253","category_name":"校园生活","address":"上海杨浦区邯郸路220号复旦大学内"},{"poiid":"B2094757D068A0FD459F","title":"复旦大学经济学院","lon":"121.50376379","lat":"31.294903323","category":"52","category_name":"高等院校","address":"杨浦区国权路600号"},{"poiid":"B2094757D16FAAFC459B","title":"复旦大学逸夫科技楼报告厅","lon":"121.501053103","lat":"31.298151002","category":"500","category_name":"未知分类","address":"上海邯郸路220号"},{"poiid":"B2094757D06FA2F44792","title":"复旦大学第二教学楼","lon":"121.50433516","lat":"31.297652091","category":"253","category_name":"校园生活","address":"上海杨浦区邯郸路220号(近大门,主席像东侧)"},{"poiid":"B2094757D06FA6FE479E","title":"上海新东方学校(复旦旗舰教育广场)","lon":"121.50305","lat":"31.29409","category":"260","category_name":"其他","address":"杨浦区国权路561号(近邯郸路)"},{"poiid":"B2094655D26CA1FF4193","title":"上海复旦皇冠假日酒店(东门)","lon":"121.50261","lat":"31.29538","category":"656","category_name":"大门","address":"上海市杨浦区邯郸路199号"},{"poiid":"B2094654D56DA3F94793","title":"复旦大学(南门)","lon":"121.50382","lat":"31.29675","category":"52","category_name":"高等院校","address":"邯郸路220"},{"poiid":"B2094655D26AA1F5429F","title":"复旦皇冠假日酒店宴会厅","lon":"121.50186","lat":"31.29514","category":"247","category_name":"餐饮美食","address":"杨浦区邯郸路199号复旦皇冠假日酒店2楼(近国权路)查看地图"},{"poiid":"B2094654D56EAAFA4793","title":"复旦大学图书馆","lon":"121.50512","lat":"31.29618","category":"181","category_name":"图书馆","address":"国年路300"},{"poiid":"B2094655D26CA0FE4999","title":"复旦大学(南二门)","lon":"121.50232","lat":"31.2963","category":"52","category_name":"高等院校","address":""},{"poiid":"B2094757D068A0FC4999","title":"复旦大学文科楼","lon":"121.5045001","lat":"31.296353964","category":"253","category_name":"校园生活","address":"上海复旦大学"},{"poiid":"B2094757DB6BABFE499F","title":"巴黎春天百货（万达广场 五角场店）","lon":"121.503","lat":"31.2971","category":"148","category_name":"美容美发店","address":"上海杨浦区邯郸路600号,万达广场(五角场店)二层"},{"poiid":"B2094757D664A1F8499D","title":"复旦皇冠假日酒店中餐厅","lon":"121.5020467222","lat":"31.295672845874","category":"268","category_name":"自助","address":"邯郸路199号复旦皇冠假日酒店内近国权路"},{"poiid":"B2094757D068A1F8479B","title":"复旦大学(邯郸校区)毛主席像","lon":"121.5035895","lat":"31.297574167","category":"253","category_name":"校园生活","address":"上海杨浦区邯郸路220号复旦大学邯郸校区"},{"poiid":"B2094757D068AAFE4192","title":"复旦大学邯郸校区3108教室","lon":"121.50434559","lat":"31.298085878","category":"253","category_name":"校园生活","address":"上海邯郸路220号复旦大学第三教学楼一楼"},{"poiid":"B2094654D56DA0F84192","title":"运光小区","lon":"121.502085","lat":"31.29595","category":"47","category_name":"住宅区","address":"运光路70弄1-26号"},{"poiid":"B2094757DB6BABFE459E","title":"上海第一食品（万达广场 五角场店）","lon":"121.503","lat":"31.2971","category":"249","category_name":"购物服务","address":"上海杨浦区邯郸路600号 万达广场(五角场店)二层"},{"poiid":"B2094757D06FA4F9459B","title":"兰州一拉","lon":"121.50379436003","lat":"31.2942283374","category":"68","category_name":"快餐厅","address":"杨浦区国权路近复旦步行街(近政肃路)"},{"poiid":"B2094655D26CA0FE499E","title":"复旦大学(南三门)","lon":"121.50102","lat":"31.29582","category":"52","category_name":"高等院校","address":""},{"poiid":"B2094757D469A0FA479E","title":"贝儿多爸爸泡芙工房 万达店","lon":"121.5026515","lat":"31.2961938","category":"67","category_name":"甜品店","address":"杨浦区邯郸路600号万达商业广场食品一店1楼(近淞沪路)"},{"poiid":"B2094757DB6BABFE459C","title":"上海书城（万达广场 五角场店）","lon":"121.503","lat":"31.2971","category":"139","category_name":"文化用品店","address":"上海杨浦区邯郸路600号 万达广场(五角场店)二层"},{"poiid":"B2094757D068A0F54598","title":"复旦大学第一教学楼","lon":"121.50177067","lat":"31.297402894","category":"253","category_name":"校园生活","address":"上海杨浦区邯郸路220号复旦大学邯郸校区"},{"poiid":"B2094752D76DA7F44298","title":"燕园(复旦大学,邯郸校区)","lon":"121.502","lat":"31.2963","category":"607","category_name":"一般景点","address":"上海杨浦区邯郸路220号复旦大学邯郸校区"},{"poiid":"B2094757D56EA5FB409C","title":"釜山料理(五角场店)","lon":"121.5027317","lat":"31.2962151","category":"247","category_name":"餐饮美食","address":"邯郸路660号万达商业广场B1"},{"poiid":"B2094757D66AA6FA459B","title":"川湘汇 万达店","lon":"121.50273","lat":"31.29621","category":"71","category_name":"四川菜","address":"杨浦区邯郸路600号万达商业广场第一食品4楼(近淞沪路)"},{"poiid":"B2094655D36CA7FA4898","title":"邯郸路","lon":"121.50315","lat":"31.29479","category":"38","category_name":"公交车站","address":""},{"poiid":"B2094757DB6BABFA4492","title":"釜山料理（万达广场 五角场店）","lon":"121.503","lat":"31.2971","category":"257","category_name":"中餐厅","address":"上海杨浦区邯郸路600号 万达广场(五角场店)地下一层"},{"poiid":"B2094757DB6BABFF409C","title":"沃尔玛（万达广场 五角场店）","lon":"121.503","lat":"31.2971","category":"118","category_name":"超级市场","address":"上海杨浦区邯郸路600号 万达广场(五角场店)二层"},{"poiid":"B2094757D66BABFC429E","title":"汤姆和约翰的休闲餐厅 TOM JOHN CAFE","lon":"121.50273","lat":"31.29621","category":"94","category_name":"西餐厅","address":"杨浦区邯郸路159号布丁酒店内(近松花江路)"},{"poiid":"B209475CD66AA3FB499D","title":"复旦大学光华楼","lon":"121.502075","lat":"31.296403","category":"500","category_name":"未知分类","address":"上海市 复旦大学光华楼"},{"poiid":"B2094757D16CA2F54893","title":"稻草人旅行工作室","lon":"121.502732","lat":"31.296219","category":"148","category_name":"美容美发店","address":"杨浦区邯郸路135号5号楼403室(近松花江路)"},{"poiid":"B2094752D66EA6FF4793","title":"生物二楼(复旦大学,邯郸校区)","lon":"121.502","lat":"31.2963","category":"253","category_name":"校园生活","address":"上海杨浦区邯郸路220号复旦大学邯郸校区"},{"poiid":"B2094757D069ABFC419F","title":"恒隆物理楼","lon":"121.50280605","lat":"31.298883166","category":"253","category_name":"校园生活","address":"上海杨浦区邯郸路220号复旦大学邯郸校区"},{"poiid":"B2094757DB6BABFF429D","title":"宝大祥（万达广场 五角场店）","lon":"121.503","lat":"31.2971","category":"128","category_name":"儿童用品店","address":"上海杨浦区邯郸路600号,万达广场(五角场店)地下一层"},{"poiid":"B2094757DB6BABF9469B","title":"玩具反斗城（上海万达广场店）","lon":"121.503","lat":"31.2971","category":"128","category_name":"儿童用品店","address":"上海杨浦区邯郸路600号 五角场万达广场地下一层"},{"poiid":"B2094655D26EA0FC4499","title":"上岛咖啡 国权路 UBC Coffee","lon":"121.50372717163","lat":"31.293469105007","category":"260","category_name":"其他","address":"杨浦区国权路525号(近政肃路)"},{"poiid":"B2094757D169AAF5449F","title":"融咖啡","lon":"121.5020467222","lat":"31.295672845874","category":"268","category_name":"自助","address":"杨浦区邯郸路199号复旦皇冠假日酒店1楼(近复旦大学)"},{"poiid":"B2094757D66EABFF4598","title":"长白山烤肉","lon":"121.500678103","lat":"31.298297005","category":"500","category_name":"未知分类","address":"上海市杨浦区武川路"},{"poiid":"B2094752D76DA7F44193","title":"东区学生公寓(复旦大学,邯郸校区)","lon":"121.502","lat":"31.2963","category":"253","category_name":"校园生活","address":"上海杨浦区邯郸路220号复旦大学邯郸校区"},{"poiid":"B2094655D36CA6FF4498","title":"复旦大学","lon":"121.50346","lat":"31.29645","category":"671","category_name":"高校中心点","address":"上海市邯郸路220号"},{"poiid":"B2094757D169A6F4489C","title":"复旦大学第六教学楼","lon":"121.5039741","lat":"31.295171939","category":"52","category_name":"高等院校","address":"上海国年路275弄"},{"poiid":"B2094757D06FA1F4499B","title":"上海复旦皇冠假日酒店","lon":"121.50094","lat":"31.29569","category":"217","category_name":"旅馆招待所","address":"上海杨浦区邯郸路199号(复旦大学正门斜对面)"},{"poiid":"B2094757D06EAAFF489E","title":"复旦大学第三教学楼","lon":"121.50422758","lat":"31.298090461","category":"253","category_name":"校园生活","address":"上海邯郸路220号(近正门,主席像东侧)"},{"poiid":"B2094757D06FA3FD4999","title":"复旦大学文科图书馆","lon":"121.50421142","lat":"31.295690536","category":"253","category_name":"校园生活","address":"杨浦区国年路300号(邯郸路口)"},{"poiid":"B2094757D06FA3FE459C","title":"复旦大学第四教学楼","lon":"121.50119351","lat":"31.298431956","category":"253","category_name":"校园生活","address":"上海杨浦区邯郸路220号复旦大学内(近逸夫科技楼)"},{"poiid":"B2094757D06EAAFC4098","title":"复旦大学第五教学楼","lon":"121.50448362","lat":"31.295495389","category":"253","category_name":"校园生活","address":"上海杨浦区国年路275弄"},{"poiid":"B2094757D06FA3FD459C","title":"复旦大学光华楼西辅楼","lon":"121.501481","lat":"31.298503","category":"253","category_name":"校园生活","address":"上海市邯郸路220号"},{"poiid":"B2094757D068A1FD489C","title":"复旦大学美国研究中心","lon":"121.50336624","lat":"31.295570813","category":"500","category_name":"未知分类","address":"杨浦区国权路680号(近邯郸路)"},{"poiid":"B2094757D06FA1FB4292","title":"复旦大学理科图书馆","lon":"121.50269335","lat":"31.297219542","category":"253","category_name":"校园生活","address":"上海杨浦区邯郸路220号复旦大学邯郸校区"},{"poiid":"B2094757DB6BABF9449A","title":"汤姆熊（万达广场 五角场店）","lon":"121.503","lat":"31.2971","category":"128","category_name":"儿童用品店","address":"上海杨浦区邯郸路600号 万达广场(五角场店)地下一层"},{"poiid":"B2094757D06EAAFD4099","title":"复旦大学相辉堂","lon":"121.499278906","lat":"31.2974464404","category":"253","category_name":"校园生活","address":"上海杨浦区邯郸路220号复旦大学内"},{"poiid":"B2094757D068A0FD459F","title":"复旦大学经济学院","lon":"121.50376379","lat":"31.294903323","category":"52","category_name":"高等院校","address":"杨浦区国权路600号"},{"poiid":"B2094757D16FAAFC459B","title":"复旦大学逸夫科技楼报告厅","lon":"121.501053103","lat":"31.298151002","category":"500","category_name":"未知分类","address":"上海邯郸路220号"},{"poiid":"B2094757D06FA2F44792","title":"复旦大学第二教学楼","lon":"121.50433516","lat":"31.297652091","category":"253","category_name":"校园生活","address":"上海杨浦区邯郸路220号(近大门,主席像东侧)"},{"poiid":"B2094757D06FA6FE479E","title":"上海新东方学校(复旦旗舰教育广场)","lon":"121.50305","lat":"31.29409","category":"260","category_name":"其他","address":"杨浦区国权路561号(近邯郸路)"},{"poiid":"B2094655D26CA1FF4193","title":"上海复旦皇冠假日酒店(东门)","lon":"121.50261","lat":"31.29538","category":"656","category_name":"大门","address":"上海市杨浦区邯郸路199号"},{"poiid":"B2094654D56DA3F94793","title":"复旦大学(南门)","lon":"121.50382","lat":"31.29675","category":"52","category_name":"高等院校","address":"邯郸路220"},{"poiid":"B2094655D26AA1F5429F","title":"复旦皇冠假日酒店宴会厅","lon":"121.50186","lat":"31.29514","category":"247","category_name":"餐饮美食","address":"杨浦区邯郸路199号复旦皇冠假日酒店2楼(近国权路)查看地图"},{"poiid":"B2094654D56EAAFA4793","title":"复旦大学图书馆","lon":"121.50512","lat":"31.29618","category":"181","category_name":"图书馆","address":"国年路300"},{"poiid":"B2094655D26CA0FE4999","title":"复旦大学(南二门)","lon":"121.50232","lat":"31.2963","category":"52","category_name":"高等院校","address":""},{"poiid":"B2094757D068A0FC4999","title":"复旦大学文科楼","lon":"121.5045001","lat":"31.296353964","category":"253","category_name":"校园生活","address":"上海复旦大学"},{"poiid":"B2094757DB6BABFE499F","title":"巴黎春天百货（万达广场 五角场店）","lon":"121.503","lat":"31.2971","category":"148","category_name":"美容美发店","address":"上海杨浦区邯郸路600号,万达广场(五角场店)二层"},{"poiid":"B2094757D664A1F8499D","title":"复旦皇冠假日酒店中餐厅","lon":"121.5020467222","lat":"31.295672845874","category":"268","category_name":"自助","address":"邯郸路199号复旦皇冠假日酒店内近国权路"},{"poiid":"B2094757D068A1F8479B","title":"复旦大学(邯郸校区)毛主席像","lon":"121.5035895","lat":"31.297574167","category":"253","category_name":"校园生活","address":"上海杨浦区邯郸路220号复旦大学邯郸校区"},{"poiid":"B2094757D068AAFE4192","title":"复旦大学邯郸校区3108教室","lon":"121.50434559","lat":"31.298085878","category":"253","category_name":"校园生活","address":"上海邯郸路220号复旦大学第三教学楼一楼"},{"poiid":"B2094654D56DA0F84192","title":"运光小区","lon":"121.502085","lat":"31.29595","category":"47","category_name":"住宅区","address":"运光路70弄1-26号"},{"poiid":"B2094757DB6BABFE459E","title":"上海第一食品（万达广场 五角场店）","lon":"121.503","lat":"31.2971","category":"249","category_name":"购物服务","address":"上海杨浦区邯郸路600号 万达广场(五角场店)二层"},{"poiid":"B2094757D06FA4F9459B","title":"兰州一拉","lon":"121.50379436003","lat":"31.2942283374","category":"68","category_name":"快餐厅","address":"杨浦区国权路近复旦步行街(近政肃路)"},{"poiid":"B2094655D26CA0FE499E","title":"复旦大学(南三门)","lon":"121.50102","lat":"31.29582","category":"52","category_name":"高等院校","address":""},{"poiid":"B2094757D469A0FA479E","title":"贝儿多爸爸泡芙工房 万达店","lon":"121.5026515","lat":"31.2961938","category":"67","category_name":"甜品店","address":"杨浦区邯郸路600号万达商业广场食品一店1楼(近淞沪路)"},{"poiid":"B2094757DB6BABFE459C","title":"上海书城（万达广场 五角场店）","lon":"121.503","lat":"31.2971","category":"139","category_name":"文化用品店","address":"上海杨浦区邯郸路600号 万达广场(五角场店)二层"},{"poiid":"B2094757D068A0F54598","title":"复旦大学第一教学楼","lon":"121.50177067","lat":"31.297402894","category":"253","category_name":"校园生活","address":"上海杨浦区邯郸路220号复旦大学邯郸校区"},{"poiid":"B2094752D76DA7F44298","title":"燕园(复旦大学,邯郸校区)","lon":"121.502","lat":"31.2963","category":"607","category_name":"一般景点","address":"上海杨浦区邯郸路220号复旦大学邯郸校区"},{"poiid":"B2094757D56EA5FB409C","title":"釜山料理(五角场店)","lon":"121.5027317","lat":"31.2962151","category":"247","category_name":"餐饮美食","address":"邯郸路660号万达商业广场B1"},{"poiid":"B2094757D66AA6FA459B","title":"川湘汇 万达店","lon":"121.50273","lat":"31.29621","category":"71","category_name":"四川菜","address":"杨浦区邯郸路600号万达商业广场第一食品4楼(近淞沪路)"},{"poiid":"B2094655D36CA7FA4898","title":"邯郸路","lon":"121.50315","lat":"31.29479","category":"38","category_name":"公交车站","address":""},{"poiid":"B2094757DB6BABFA4492","title":"釜山料理（万达广场 五角场店）","lon":"121.503","lat":"31.2971","category":"257","category_name":"中餐厅","address":"上海杨浦区邯郸路600号 万达广场(五角场店)地下一层"},{"poiid":"B2094757DB6BABFF409C","title":"沃尔玛（万达广场 五角场店）","lon":"121.503","lat":"31.2971","category":"118","category_name":"超级市场","address":"上海杨浦区邯郸路600号 万达广场(五角场店)二层"},{"poiid":"B2094757D66BABFC429E","title":"汤姆和约翰的休闲餐厅 TOM JOHN CAFE","lon":"121.50273","lat":"31.29621","category":"94","category_name":"西餐厅","address":"杨浦区邯郸路159号布丁酒店内(近松花江路)"},{"poiid":"B209475CD66AA3FB499D","title":"复旦大学光华楼","lon":"121.502075","lat":"31.296403","category":"500","category_name":"未知分类","address":"上海市 复旦大学光华楼"},{"poiid":"B2094757D16CA2F54893","title":"稻草人旅行工作室","lon":"121.502732","lat":"31.296219","category":"148","category_name":"美容美发店","address":"杨浦区邯郸路135号5号楼403室(近松花江路)"},{"poiid":"B2094752D66EA6FF4793","title":"生物二楼(复旦大学,邯郸校区)","lon":"121.502","lat":"31.2963","category":"253","category_name":"校园生活","address":"上海杨浦区邯郸路220号复旦大学邯郸校区"},{"poiid":"B2094757D069ABFC419F","title":"恒隆物理楼","lon":"121.50280605","lat":"31.298883166","category":"253","category_name":"校园生活","address":"上海杨浦区邯郸路220号复旦大学邯郸校区"},{"poiid":"B2094757DB6BABFF429D","title":"宝大祥（万达广场 五角场店）","lon":"121.503","lat":"31.2971","category":"128","category_name":"儿童用品店","address":"上海杨浦区邯郸路600号,万达广场(五角场店)地下一层"},{"poiid":"B2094757DB6BABF9469B","title":"玩具反斗城（上海万达广场店）","lon":"121.503","lat":"31.2971","category":"128","category_name":"儿童用品店","address":"上海杨浦区邯郸路600号 五角场万达广场地下一层"},{"poiid":"B2094655D26EA0FC4499","title":"上岛咖啡 国权路 UBC Coffee","lon":"121.50372717163","lat":"31.293469105007","category":"260","category_name":"其他","address":"杨浦区国权路525号(近政肃路)"},{"poiid":"B2094757D169AAF5449F","title":"融咖啡","lon":"121.5020467222","lat":"31.295672845874","category":"268","category_name":"自助","address":"杨浦区邯郸路199号复旦皇冠假日酒店1楼(近复旦大学)"},{"poiid":"B2094757D66EABFF4598","title":"长白山烤肉","lon":"121.500678103","lat":"31.298297005","category":"500","category_name":"未知分类","address":"上海市杨浦区武川路"},{"poiid":"B2094752D76DA7F44193","title":"东区学生公寓(复旦大学,邯郸校区)","lon":"121.502","lat":"31.2963","category":"253","category_name":"校园生活","address":"上海杨浦区邯郸路220号复旦大学邯郸校区"},{"poiid":"B2094655D36CA6FF4498","title":"复旦大学","lon":"121.50346","lat":"31.29645","category":"671","category_name":"高校中心点","address":"上海市邯郸路220号"},{"poiid":"B2094757D169A6F4489C","title":"复旦大学第六教学楼","lon":"121.5039741","lat":"31.295171939","category":"52","category_name":"高等院校","address":"上海国年路275弄"},{"poiid":"B2094757D06FA1F4499B","title":"上海复旦皇冠假日酒店","lon":"121.50094","lat":"31.29569","category":"217","category_name":"旅馆招待所","address":"上海杨浦区邯郸路199号(复旦大学正门斜对面)"},{"poiid":"B2094757D06EAAFF489E","title":"复旦大学第三教学楼","lon":"121.50422758","lat":"31.298090461","category":"253","category_name":"校园生活","address":"上海邯郸路220号(近正门,主席像东侧)"},{"poiid":"B2094757D06FA3FD4999","title":"复旦大学文科图书馆","lon":"121.50421142","lat":"31.295690536","category":"253","category_name":"校园生活","address":"杨浦区国年路300号(邯郸路口)"},{"poiid":"B2094757D06FA3FE459C","title":"复旦大学第四教学楼","lon":"121.50119351","lat":"31.298431956","category":"253","category_name":"校园生活","address":"上海杨浦区邯郸路220号复旦大学内(近逸夫科技楼)"},{"poiid":"B2094757D06EAAFC4098","title":"复旦大学第五教学楼","lon":"121.50448362","lat":"31.295495389","category":"253","category_name":"校园生活","address":"上海杨浦区国年路275弄"},{"poiid":"B2094757D06FA3FD459C","title":"复旦大学光华楼西辅楼","lon":"121.501481","lat":"31.298503","category":"253","category_name":"校园生活","address":"上海市邯郸路220号"},{"poiid":"B2094757D068A1FD489C","title":"复旦大学美国研究中心","lon":"121.50336624","lat":"31.295570813","category":"500","category_name":"未知分类","address":"杨浦区国权路680号(近邯郸路)"},{"poiid":"B2094757D06FA1FB4292","title":"复旦大学理科图书馆","lon":"121.50269335","lat":"31.297219542","category":"253","category_name":"校园生活","address":"上海杨浦区邯郸路220号复旦大学邯郸校区"},{"poiid":"B2094757DB6BABF9449A","title":"汤姆熊（万达广场 五角场店）","lon":"121.503","lat":"31.2971","category":"128","category_name":"儿童用品店","address":"上海杨浦区邯郸路600号 万达广场(五角场店)地下一层"},{"poiid":"B2094757D06EAAFD4099","title":"复旦大学相辉堂","lon":"121.499278906","lat":"31.2974464404","category":"253","category_name":"校园生活","address":"上海杨浦区邯郸路220号复旦大学内"},{"poiid":"B2094757D068A0FD459F","title":"复旦大学经济学院","lon":"121.50376379","lat":"31.294903323","category":"52","category_name":"高等院校","address":"杨浦区国权路600号"},{"poiid":"B2094757D16FAAFC459B","title":"复旦大学逸夫科技楼报告厅","lon":"121.501053103","lat":"31.298151002","category":"500","category_name":"未知分类","address":"上海邯郸路220号"},{"poiid":"B2094757D06FA2F44792","title":"复旦大学第二教学楼","lon":"121.50433516","lat":"31.297652091","category":"253","category_name":"校园生活","address":"上海杨浦区邯郸路220号(近大门,主席像东侧)"},{"poiid":"B2094757D06FA6FE479E","title":"上海新东方学校(复旦旗舰教育广场)","lon":"121.50305","lat":"31.29409","category":"260","category_name":"其他","address":"杨浦区国权路561号(近邯郸路)"},{"poiid":"B2094655D26CA1FF4193","title":"上海复旦皇冠假日酒店(东门)","lon":"121.50261","lat":"31.29538","category":"656","category_name":"大门","address":"上海市杨浦区邯郸路199号"},{"poiid":"B2094654D56DA3F94793","title":"复旦大学(南门)","lon":"121.50382","lat":"31.29675","category":"52","category_name":"高等院校","address":"邯郸路220"},{"poiid":"B2094655D26AA1F5429F","title":"复旦皇冠假日酒店宴会厅","lon":"121.50186","lat":"31.29514","category":"247","category_name":"餐饮美食","address":"杨浦区邯郸路199号复旦皇冠假日酒店2楼(近国权路)查看地图"},{"poiid":"B2094654D56EAAFA4793","title":"复旦大学图书馆","lon":"121.50512","lat":"31.29618","category":"181","category_name":"图书馆","address":"国年路300"},{"poiid":"B2094655D26CA0FE4999","title":"复旦大学(南二门)","lon":"121.50232","lat":"31.2963","category":"52","category_name":"高等院校","address":""},{"poiid":"B2094757D068A0FC4999","title":"复旦大学文科楼","lon":"121.5045001","lat":"31.296353964","category":"253","category_name":"校园生活","address":"上海复旦大学"},{"poiid":"B2094757DB6BABFE499F","title":"巴黎春天百货（万达广场 五角场店）","lon":"121.503","lat":"31.2971","category":"148","category_name":"美容美发店","address":"上海杨浦区邯郸路600号,万达广场(五角场店)二层"},{"poiid":"B2094757D664A1F8499D","title":"复旦皇冠假日酒店中餐厅","lon":"121.5020467222","lat":"31.295672845874","category":"268","category_name":"自助","address":"邯郸路199号复旦皇冠假日酒店内近国权路"},{"poiid":"B2094757D068A1F8479B","title":"复旦大学(邯郸校区)毛主席像","lon":"121.5035895","lat":"31.297574167","category":"253","category_name":"校园生活","address":"上海杨浦区邯郸路220号复旦大学邯郸校区"},{"poiid":"B2094757D068AAFE4192","title":"复旦大学邯郸校区3108教室","lon":"121.50434559","lat":"31.298085878","category":"253","category_name":"校园生活","address":"上海邯郸路220号复旦大学第三教学楼一楼"},{"poiid":"B2094654D56DA0F84192","title":"运光小区","lon":"121.502085","lat":"31.29595","category":"47","category_name":"住宅区","address":"运光路70弄1-26号"},{"poiid":"B2094757DB6BABFE459E","title":"上海第一食品（万达广场 五角场店）","lon":"121.503","lat":"31.2971","category":"249","category_name":"购物服务","address":"上海杨浦区邯郸路600号 万达广场(五角场店)二层"},{"poiid":"B2094757D06FA4F9459B","title":"兰州一拉","lon":"121.50379436003","lat":"31.2942283374","category":"68","category_name":"快餐厅","address":"杨浦区国权路近复旦步行街(近政肃路)"},{"poiid":"B2094655D26CA0FE499E","title":"复旦大学(南三门)","lon":"121.50102","lat":"31.29582","category":"52","category_name":"高等院校","address":""},{"poiid":"B2094757D469A0FA479E","title":"贝儿多爸爸泡芙工房 万达店","lon":"121.5026515","lat":"31.2961938","category":"67","category_name":"甜品店","address":"杨浦区邯郸路600号万达商业广场食品一店1楼(近淞沪路)"},{"poiid":"B2094757DB6BABFE459C","title":"上海书城（万达广场 五角场店）","lon":"121.503","lat":"31.2971","category":"139","category_name":"文化用品店","address":"上海杨浦区邯郸路600号 万达广场(五角场店)二层"},{"poiid":"B2094757D068A0F54598","title":"复旦大学第一教学楼","lon":"121.50177067","lat":"31.297402894","category":"253","category_name":"校园生活","address":"上海杨浦区邯郸路220号复旦大学邯郸校区"},{"poiid":"B2094752D76DA7F44298","title":"燕园(复旦大学,邯郸校区)","lon":"121.502","lat":"31.2963","category":"607","category_name":"一般景点","address":"上海杨浦区邯郸路220号复旦大学邯郸校区"},{"poiid":"B2094757D56EA5FB409C","title":"釜山料理(五角场店)","lon":"121.5027317","lat":"31.2962151","category":"247","category_name":"餐饮美食","address":"邯郸路660号万达商业广场B1"},{"poiid":"B2094757D66AA6FA459B","title":"川湘汇 万达店","lon":"121.50273","lat":"31.29621","category":"71","category_name":"四川菜","address":"杨浦区邯郸路600号万达商业广场第一食品4楼(近淞沪路)"},{"poiid":"B2094655D36CA7FA4898","title":"邯郸路","lon":"121.50315","lat":"31.29479","category":"38","category_name":"公交车站","address":""},{"poiid":"B2094757DB6BABFA4492","title":"釜山料理（万达广场 五角场店）","lon":"121.503","lat":"31.2971","category":"257","category_name":"中餐厅","address":"上海杨浦区邯郸路600号 万达广场(五角场店)地下一层"},{"poiid":"B2094757DB6BABFF409C","title":"沃尔玛（万达广场 五角场店）","lon":"121.503","lat":"31.2971","category":"118","category_name":"超级市场","address":"上海杨浦区邯郸路600号 万达广场(五角场店)二层"},{"poiid":"B2094757D66BABFC429E","title":"汤姆和约翰的休闲餐厅 TOM JOHN CAFE","lon":"121.50273","lat":"31.29621","category":"94","category_name":"西餐厅","address":"杨浦区邯郸路159号布丁酒店内(近松花江路)"},{"poiid":"B209475CD66AA3FB499D","title":"复旦大学光华楼","lon":"121.502075","lat":"31.296403","category":"500","category_name":"未知分类","address":"上海市 复旦大学光华楼"},{"poiid":"B2094757D16CA2F54893","title":"稻草人旅行工作室","lon":"121.502732","lat":"31.296219","category":"148","category_name":"美容美发店","address":"杨浦区邯郸路135号5号楼403室(近松花江路)"},{"poiid":"B2094752D66EA6FF4793","title":"生物二楼(复旦大学,邯郸校区)","lon":"121.502","lat":"31.2963","category":"253","category_name":"校园生活","address":"上海杨浦区邯郸路220号复旦大学邯郸校区"},{"poiid":"B2094757D069ABFC419F","title":"恒隆物理楼","lon":"121.50280605","lat":"31.298883166","category":"253","category_name":"校园生活","address":"上海杨浦区邯郸路220号复旦大学邯郸校区"},{"poiid":"B2094757DB6BABFF429D","title":"宝大祥（万达广场 五角场店）","lon":"121.503","lat":"31.2971","category":"128","category_name":"儿童用品店","address":"上海杨浦区邯郸路600号,万达广场(五角场店)地下一层"},{"poiid":"B2094757DB6BABF9469B","title":"玩具反斗城（上海万达广场店）","lon":"121.503","lat":"31.2971","category":"128","category_name":"儿童用品店","address":"上海杨浦区邯郸路600号 五角场万达广场地下一层"},{"poiid":"B2094655D26EA0FC4499","title":"上岛咖啡 国权路 UBC Coffee","lon":"121.50372717163","lat":"31.293469105007","category":"260","category_name":"其他","address":"杨浦区国权路525号(近政肃路)"},{"poiid":"B2094757D169AAF5449F","title":"融咖啡","lon":"121.5020467222","lat":"31.295672845874","category":"268","category_name":"自助","address":"杨浦区邯郸路199号复旦皇冠假日酒店1楼(近复旦大学)"},{"poiid":"B2094757D66EABFF4598","title":"长白山烤肉","lon":"121.500678103","lat":"31.298297005","category":"500","category_name":"未知分类","address":"上海市杨浦区武川路"},{"poiid":"B2094752D76DA7F44193","title":"东区学生公寓(复旦大学,邯郸校区)","lon":"121.502","lat":"31.2963","category":"253","category_name":"校园生活","address":"上海杨浦区邯郸路220号复旦大学邯郸校区"}]