[{"poiid":"B2094757D06EAAFC4899","title":"欧尚(长阳店)","lon":"121.53784281","lat":"31.270000386","category":"118","category_name":"超级市场","address":"杨浦区长阳路1750号(近临青路)"},{"poiid":"B2094757D06FA1F84199","title":"普陀山海鲜酒店(杨浦店)","lon":"121.53589","lat":"31.27026","category":"76","category_name":"上海菜","address":"杨浦区长阳路1689号(近临青路)"},{"poiid":"B2094757D06FABFC419E","title":"沪东工人文化宫","lon":"121.539871","lat":"31.26578","category":"260","category_name":"其他","address":"杨浦区平凉路1500号"},{"poiid":"B2094757D06FA3F54199","title":"玛格萝妮披萨屋(长阳店)","lon":"121.53761545","lat":"31.2703714628","category":"94","category_name":"西餐厅","address":"杨浦区长阳路1750号欧尚超市1楼(长阳路临青路)"},{"poiid":"B2094757D06FA5F44592","title":"海上大富豪","lon":"121.5346","lat":"31.26956","category":"76","category_name":"上海菜","address":"杨浦区长阳路1673号(近黄兴路)"},{"poiid":"B2094757D068ABFD429E","title":"大家乐","lon":"121.537260103","lat":"31.270840431","category":"68","category_name":"快餐厅","address":"杨浦区长阳路1750号欧尚超市1楼"},{"poiid":"B2094654D56FABFE419B","title":"东宫影剧院","lon":"121.539942","lat":"31.265521","category":"178","category_name":"电影院","address":"上海市杨浦区平凉路1500号一号楼"},{"poiid":"B2094757D06FA0FE4193","title":"侬好蛙干锅传奇 长阳路店","lon":"121.533125","lat":"31.268983","category":"71","category_name":"四川菜","address":"杨浦区长阳路1675-1号(近黄兴路)"},{"poiid":"B2094757D06FA0F9499B","title":"肯德基 KFC (沪东店)","lon":"121.539479","lat":"31.26497","category":"68","category_name":"快餐厅","address":"杨浦区平凉路1500号(近宁国路)"},{"poiid":"B2094655D269ABF84292","title":"沪东工人文化宫影剧院","lon":"121.53975","lat":"31.26507","category":"178","category_name":"电影院","address":"杨浦区平凉路1500号(近平凉公园)"},{"poiid":"B2094757D06FA5F5439E","title":"味千拉面(长阳路店)","lon":"121.53798","lat":"31.27054","category":"95","category_name":"日本料理","address":"上海杨浦区长阳路1750号欧尚超市1楼(近临青路)"},{"poiid":"B2094757D06FA6FF4992","title":"新宋记香辣蟹(长阳路店)","lon":"121.53487","lat":"31.26971","category":"71","category_name":"四川菜","address":"杨浦区长阳路1675号(近临青路)"},{"poiid":"B2094757D068A7FF4699","title":"妮妮饭店 长阳店","lon":"121.53931302899","lat":"31.271594125666","category":"76","category_name":"上海菜","address":"杨浦区长阳路1830号(近双阳路)"},{"poiid":"B2094757D068A5FC4593","title":"平凉路临青路","lon":"121.541382","lat":"31.267353","category":"500","category_name":"未知分类","address":"上海平凉路临青路"},{"poiid":"B2094757D068A3FF4992","title":"阿拉宁波菜(长阳路店)","lon":"121.53525","lat":"31.26989","category":"75","category_name":"浙江菜","address":"杨浦区长阳路1681号(近黄兴路)"},{"poiid":"B2094655D36CA3F4489A","title":"品味食尚","lon":"121.53634","lat":"31.27081","category":"76","category_name":"上海菜","address":"杨浦区长阳路1777号(近临青路)"},{"poiid":"B2094655D26CA6FC409E","title":"天科国际大厦","lon":"121.53907305258","lat":"31.266333142632","category":"46","category_name":"楼宇","address":"平凉路1000号—1090号"},{"poiid":"B2094757D06FABF4459B","title":"红宝石(长阳路店)","lon":"121.536239","lat":"31.270758","category":"67","category_name":"甜品店","address":"杨浦区长阳路1687号(临青路口)"},{"poiid":"B2094654D56FABFD419C","title":"一心斋","lon":"121.53971051833","lat":"31.265739816603","category":"90","category_name":"清真餐馆","address":"杨浦区平凉路1503号(近宁国路)"},{"poiid":"B2094757D06FA7FB489D","title":"85度C(长阳店)","lon":"121.53736","lat":"31.27063","category":"112","category_name":"糕饼店","address":"杨浦区长阳路1750号欧尚超市1楼(近临青路)"},{"poiid":"B2094757D069A1F8409F","title":"海尚佳园","lon":"121.536","lat":"31.268885","category":"500","category_name":"未知分类","address":"上海市杨浦区长阳路1658弄"},{"poiid":"B2094757D068A2FC409A","title":"萨贝莉","lon":"121.53963","lat":"31.26501","category":"94","category_name":"西餐厅","address":"杨浦区平凉路1500号沪东工人文化宫附近"},{"poiid":"B2094654DB64A6FE499E","title":"格林豪泰(上海北外滩店)","lon":"121.53823","lat":"31.27098","category":"216","category_name":"经济型连锁酒店","address":"上海市杨浦区长阳路1800号"},{"poiid":"B2094757D06AA2FF4899","title":"有骨气川香骨头皇火锅","lon":"121.539153","lat":"31.265558","category":"86","category_name":"火锅店","address":"杨浦区平凉路1495号3楼(近宁国路)"},{"poiid":"B2094757D465A3FD469D","title":"小猪头自助火锅烧烤","lon":"121.536239","lat":"31.270758","category":"247","category_name":"餐饮美食","address":"杨浦区长阳路1687号长阳休闲商务广场内(欧尚超市斜对面)"},{"poiid":"B2094654D56FABFF4193","title":"银河经典苑","lon":"121.53738","lat":"31.267967","category":"47","category_name":"住宅区","address":"上海杨浦区临青路555弄"},{"poiid":"B209475DD26FAAF8429B","title":"红树林影院","lon":"121.537322","lat":"31.27041","category":"178","category_name":"电影院","address":"上海市 杨浦区长阳路1750号三楼"},{"poiid":"B2094654D56FABFF419A","title":"锦江之星旅馆杨浦大桥店","lon":"121.539785","lat":"31.266555","category":"216","category_name":"经济型连锁酒店","address":"上海杨浦区临青路333号"},{"poiid":"B2094654DB6BA3F44298","title":"银鹿大厦","lon":"121.53958494736","lat":"31.266938709921","category":"46","category_name":"楼宇","address":"平凉路1128弄"},{"poiid":"B2094654D568A2FD489E","title":"名汇粤菜馆","lon":"121.53621","lat":"31.2713","category":"72","category_name":"广东菜","address":"杨浦区长阳路1717号(近临青路)"},{"poiid":"B209475CD26DA1FA4398","title":"杨浦大桥","lon":"121.538009","lat":"31.269004","category":"500","category_name":"未知分类","address":"上海市 杨浦大桥"},{"poiid":"B2094654D56FABFD4598","title":"邵稼楼 平凉路店","lon":"121.53878688812","lat":"31.264355506043","category":"76","category_name":"上海菜","address":"杨浦区平凉路1488号(近宁国路)"},{"poiid":"B2094757D66BABF9499A","title":"良子香辣龙虾馆","lon":"121.539073054","lat":"31.267652793","category":"68","category_name":"快餐厅","address":"杨浦区临青路285号(近平凉路)"},{"poiid":"B2094655D26AA5FA4298","title":"湘沪一家人 临青路店","lon":"121.540326054","lat":"31.266648793","category":"77","category_name":"湖南菜","address":"杨浦区临青路282号(近长阳路)"},{"poiid":"B2094757DA69A2FC4099","title":"网鱼网咖官方微博","lon":"121.53906792578","lat":"31.265681189191","category":"248","category_name":"生活娱乐","address":"杨浦区平凉路1495号4楼(沪东工人文化宫对面)"},{"poiid":"B2094757D064A7FD449B","title":"德雅朱老庄","lon":"121.54094696","lat":"31.269115448","category":"247","category_name":"餐饮美食","address":"杨浦区长阳路1687号(近黄兴路)"},{"poiid":"B2094654D568A2FD4892","title":"华晶宾馆","lon":"121.53611","lat":"31.27071","category":"214","category_name":"四星级宾馆","address":"杨浦区长阳路1687号(近临青路)"},{"poiid":"B2094654D56FABFF419B","title":"上海海滨门诊部","lon":"121.53822","lat":"31.26799","category":"162","category_name":"医院","address":"杨浦区临青路515-531号"},{"poiid":"B2094757D16BAAFC4599","title":"欧尚中国区总部","lon":"121.537012103","lat":"31.2685873839","category":"500","category_name":"未知分类","address":"上海市杨浦区龙口路165号6楼"},{"poiid":"B2094753D76AA5F84299","title":"鼎中鼎澳门豆捞(长阳路店)","lon":"121.53709","lat":"31.27035","category":"86","category_name":"火锅店","address":"上海市杨浦区长阳路1750号3楼(近临青路)"},{"poiid":"B2094757D66CA7FF499D","title":"心联美容美发","lon":"121.539098103","lat":"31.2695937049","category":"148","category_name":"美容美发店","address":"浦东新区栖山路1050号(近德平路)"},{"poiid":"B2094757D665ABFD4599","title":"良子特色烧烤馆","lon":"121.54031","lat":"31.26611","category":"68","category_name":"快餐厅","address":"杨浦区临青路283号(近平凉路)"},{"poiid":"B2094757D069A3FC4993","title":"长阳路临青路","lon":"121.538099","lat":"31.271256","category":"500","category_name":"未知分类","address":"上海长阳路临青路"},{"poiid":"B2094654D568A2FF469F","title":"引翔港小区","lon":"121.53943","lat":"31.27259","category":"47","category_name":"住宅区","address":"上海市杨浦区长阳路1969弄"},{"poiid":"B2094757D16DA3F84293","title":"满堂福净素馆","lon":"121.53692","lat":"31.27056","category":"89","category_name":"中式素餐馆","address":"杨浦区长阳路1843号(近双阳路)"},{"poiid":"B2094753D76CA4FB419F","title":"新石器烤肉","lon":"121.537055","lat":"31.269763","category":"500","category_name":"未知分类","address":"上海市 长阳路欧尚3楼"},{"poiid":"B2094654DB69A5F4469C","title":"必胜宅急送 长阳路店 Pizza Hut","lon":"121.535771054","lat":"31.270995793","category":"94","category_name":"西餐厅","address":"杨浦区长阳路1750号欧尚超市1楼(近临青路)"},{"poiid":"B209475CD16CA4F94693","title":"麦当劳 长阳路店","lon":"121.53708","lat":"31.27019","category":"68","category_name":"快餐厅","address":"长阳路1750号欧尚超市内(近龙口路)"},{"poiid":"B2094654DB6BA2F4479A","title":"浦罡小区","lon":"121.5365","lat":"31.271664","category":"47","category_name":"住宅区","address":"上海长阳路1841弄"},{"poiid":"B2094654D56FA4FB409C","title":"正宗重庆麻辣烫(临青路)","lon":"121.53652","lat":"31.27025","category":"68","category_name":"快餐厅","address":"杨浦区临青路669号(近长阳路)"},{"poiid":"B2094757D06EAAFC4899","title":"欧尚(长阳店)","lon":"121.53784281","lat":"31.270000386","category":"118","category_name":"超级市场","address":"杨浦区长阳路1750号(近临青路)"},{"poiid":"B2094757D06FA1F84199","title":"普陀山海鲜酒店(杨浦店)","lon":"121.53589","lat":"31.27026","category":"76","category_name":"上海菜","address":"杨浦区长阳路1689号(近临青路)"},{"poiid":"B2094757D06FABFC419E","title":"沪东工人文化宫","lon":"121.539871","lat":"31.26578","category":"260","category_name":"其他","address":"杨浦区平凉路1500号"},{"poiid":"B2094757D06FA3F54199","title":"玛格萝妮披萨屋(长阳店)","lon":"121.53761545","lat":"31.2703714628","category":"94","category_name":"西餐厅","address":"杨浦区长阳路1750号欧尚超市1楼(长阳路临青路)"},{"poiid":"B2094757D06FA5F44592","title":"海上大富豪","lon":"121.5346","lat":"31.26956","category":"76","category_name":"上海菜","address":"杨浦区长阳路1673号(近黄兴路)"},{"poiid":"B2094757D068ABFD429E","title":"大家乐","lon":"121.537260103","lat":"31.270840431","category":"68","category_name":"快餐厅","address":"杨浦区长阳路1750号欧尚超市1楼"},{"poiid":"B2094654D56FABFE419B","title":"东宫影剧院","lon":"121.539942","lat":"31.265521","category":"178","category_name":"电影院","address":"上海市杨浦区平凉路1500号一号楼"},{"poiid":"B2094757D06FA0FE4193","title":"侬好蛙干锅传奇 长阳路店","lon":"121.533125","lat":"31.268983","category":"71","category_name":"四川菜","address":"杨浦区长阳路1675-1号(近黄兴路)"},{"poiid":"B2094757D06FA0F9499B","title":"肯德基 KFC (沪东店)","lon":"121.539479","lat":"31.26497","category":"68","category_name":"快餐厅","address":"杨浦区平凉路1500号(近宁国路)"},{"poiid":"B2094655D269ABF84292","title":"沪东工人文化宫影剧院","lon":"121.53975","lat":"31.26507","category":"178","category_name":"电影院","address":"杨浦区平凉路1500号(近平凉公园)"},{"poiid":"B2094757D06FA5F5439E","title":"味千拉面(长阳路店)","lon":"121.53798","lat":"31.27054","category":"95","category_name":"日本料理","address":"上海杨浦区长阳路1750号欧尚超市1楼(近临青路)"},{"poiid":"B2094757D06FA6FF4992","title":"新宋记香辣蟹(长阳路店)","lon":"121.53487","lat":"31.26971","category":"71","category_name":"四川菜","address":"杨浦区长阳路1675号(近临青路)"},{"poiid":"B2094757D068A7FF4699","title":"妮妮饭店 长阳店","lon":"121.53931302899","lat":"31.271594125666","category":"76","category_name":"上海菜","address":"杨浦区长阳路1830号(近双阳路)"},{"poiid":"B2094757D068A5FC4593","title":"平凉路临青路","lon":"121.541382","lat":"31.267353","category":"500","category_name":"未知分类","address":"上海平凉路临青路"},{"poiid":"B2094757D068A3FF4992","title":"阿拉宁波菜(长阳路店)","lon":"121.53525","lat":"31.26989","category":"75","category_name":"浙江菜","address":"杨浦区长阳路1681号(近黄兴路)"},{"poiid":"B2094655D36CA3F4489A","title":"品味食尚","lon":"121.53634","lat":"31.27081","category":"76","category_name":"上海菜","address":"杨浦区长阳路1777号(近临青路)"},{"poiid":"B2094655D26CA6FC409E","title":"天科国际大厦","lon":"121.53907305258","lat":"31.266333142632","category":"46","category_name":"楼宇","address":"平凉路1000号—1090号"},{"poiid":"B2094757D06FABF4459B","title":"红宝石(长阳路店)","lon":"121.536239","lat":"31.270758","category":"67","category_name":"甜品店","address":"杨浦区长阳路1687号(临青路口)"},{"poiid":"B2094654D56FABFD419C","title":"一心斋","lon":"121.53971051833","lat":"31.265739816603","category":"90","category_name":"清真餐馆","address":"杨浦区平凉路1503号(近宁国路)"},{"poiid":"B2094757D06FA7FB489D","title":"85度C(长阳店)","lon":"121.53736","lat":"31.27063","category":"112","category_name":"糕饼店","address":"杨浦区长阳路1750号欧尚超市1楼(近临青路)"},{"poiid":"B2094757D069A1F8409F","title":"海尚佳园","lon":"121.536","lat":"31.268885","category":"500","category_name":"未知分类","address":"上海市杨浦区长阳路1658弄"},{"poiid":"B2094757D068A2FC409A","title":"萨贝莉","lon":"121.53963","lat":"31.26501","category":"94","category_name":"西餐厅","address":"杨浦区平凉路1500号沪东工人文化宫附近"},{"poiid":"B2094654DB64A6FE499E","title":"格林豪泰(上海北外滩店)","lon":"121.53823","lat":"31.27098","category":"216","category_name":"经济型连锁酒店","address":"上海市杨浦区长阳路1800号"},{"poiid":"B2094757D06AA2FF4899","title":"有骨气川香骨头皇火锅","lon":"121.539153","lat":"31.265558","category":"86","category_name":"火锅店","address":"杨浦区平凉路1495号3楼(近宁国路)"},{"poiid":"B2094757D465A3FD469D","title":"小猪头自助火锅烧烤","lon":"121.536239","lat":"31.270758","category":"247","category_name":"餐饮美食","address":"杨浦区长阳路1687号长阳休闲商务广场内(欧尚超市斜对面)"},{"poiid":"B2094654D56FABFF4193","title":"银河经典苑","lon":"121.53738","lat":"31.267967","category":"47","category_name":"住宅区","address":"上海杨浦区临青路555弄"},{"poiid":"B209475DD26FAAF8429B","title":"红树林影院","lon":"121.537322","lat":"31.27041","category":"178","category_name":"电影院","address":"上海市 杨浦区长阳路1750号三楼"},{"poiid":"B2094654D56FABFF419A","title":"锦江之星旅馆杨浦大桥店","lon":"121.539785","lat":"31.266555","category":"216","category_name":"经济型连锁酒店","address":"上海杨浦区临青路333号"},{"poiid":"B2094654DB6BA3F44298","title":"银鹿大厦","lon":"121.53958494736","lat":"31.266938709921","category":"46","category_name":"楼宇","address":"平凉路1128弄"},{"poiid":"B2094654D568A2FD489E","title":"名汇粤菜馆","lon":"121.53621","lat":"31.2713","category":"72","category_name":"广东菜","address":"杨浦区长阳路1717号(近临青路)"},{"poiid":"B209475CD26DA1FA4398","title":"杨浦大桥","lon":"121.538009","lat":"31.269004","category":"500","category_name":"未知分类","address":"上海市 杨浦大桥"},{"poiid":"B2094654D56FABFD4598","title":"邵稼楼 平凉路店","lon":"121.53878688812","lat":"31.264355506043","category":"76","category_name":"上海菜","address":"杨浦区平凉路1488号(近宁国路)"},{"poiid":"B2094757D66BABF9499A","title":"良子香辣龙虾馆","lon":"121.539073054","lat":"31.267652793","category":"68","category_name":"快餐厅","address":"杨浦区临青路285号(近平凉路)"},{"poiid":"B2094655D26AA5FA4298","title":"湘沪一家人 临青路店","lon":"121.540326054","lat":"31.266648793","category":"77","category_name":"湖南菜","address":"杨浦区临青路282号(近长阳路)"},{"poiid":"B2094757DA69A2FC4099","title":"网鱼网咖官方微博","lon":"121.53906792578","lat":"31.265681189191","category":"248","category_name":"生活娱乐","address":"杨浦区平凉路1495号4楼(沪东工人文化宫对面)"},{"poiid":"B2094757D064A7FD449B","title":"德雅朱老庄","lon":"121.54094696","lat":"31.269115448","category":"247","category_name":"餐饮美食","address":"杨浦区长阳路1687号(近黄兴路)"},{"poiid":"B2094654D568A2FD4892","title":"华晶宾馆","lon":"121.53611","lat":"31.27071","category":"214","category_name":"四星级宾馆","address":"杨浦区长阳路1687号(近临青路)"},{"poiid":"B2094654D56FABFF419B","title":"上海海滨门诊部","lon":"121.53822","lat":"31.26799","category":"162","category_name":"医院","address":"杨浦区临青路515-531号"},{"poiid":"B2094757D16BAAFC4599","title":"欧尚中国区总部","lon":"121.537012103","lat":"31.2685873839","category":"500","category_name":"未知分类","address":"上海市杨浦区龙口路165号6楼"},{"poiid":"B2094753D76AA5F84299","title":"鼎中鼎澳门豆捞(长阳路店)","lon":"121.53709","lat":"31.27035","category":"86","category_name":"火锅店","address":"上海市杨浦区长阳路1750号3楼(近临青路)"},{"poiid":"B2094757D66CA7FF499D","title":"心联美容美发","lon":"121.539098103","lat":"31.2695937049","category":"148","category_name":"美容美发店","address":"浦东新区栖山路1050号(近德平路)"},{"poiid":"B2094757D665ABFD4599","title":"良子特色烧烤馆","lon":"121.54031","lat":"31.26611","category":"68","category_name":"快餐厅","address":"杨浦区临青路283号(近平凉路)"},{"poiid":"B2094757D069A3FC4993","title":"长阳路临青路","lon":"121.538099","lat":"31.271256","category":"500","category_name":"未知分类","address":"上海长阳路临青路"},{"poiid":"B2094654D568A2FF469F","title":"引翔港小区","lon":"121.53943","lat":"31.27259","category":"47","category_name":"住宅区","address":"上海市杨浦区长阳路1969弄"},{"poiid":"B2094757D16DA3F84293","title":"满堂福净素馆","lon":"121.53692","lat":"31.27056","category":"89","category_name":"中式素餐馆","address":"杨浦区长阳路1843号(近双阳路)"},{"poiid":"B2094753D76CA4FB419F","title":"新石器烤肉","lon":"121.537055","lat":"31.269763","category":"500","category_name":"未知分类","address":"上海市 长阳路欧尚3楼"},{"poiid":"B2094654DB69A5F4469C","title":"必胜宅急送 长阳路店 Pizza Hut","lon":"121.535771054","lat":"31.270995793","category":"94","category_name":"西餐厅","address":"杨浦区长阳路1750号欧尚超市1楼(近临青路)"},{"poiid":"B209475CD16CA4F94693","title":"麦当劳 长阳路店","lon":"121.53708","lat":"31.27019","category":"68","category_name":"快餐厅","address":"长阳路1750号欧尚超市内(近龙口路)"},{"poiid":"B2094654DB6BA2F4479A","title":"浦罡小区","lon":"121.5365","lat":"31.271664","category":"47","category_name":"住宅区","address":"上海长阳路1841弄"},{"poiid":"B2094654D56FA4FB409C","title":"正宗重庆麻辣烫(临青路)","lon":"121.53652","lat":"31.27025","category":"68","category_name":"快餐厅","address":"杨浦区临青路669号(近长阳路)"},{"poiid":"B2094757D06EAAFC4899","title":"欧尚(长阳店)","lon":"121.53784281","lat":"31.270000386","category":"118","category_name":"超级市场","address":"杨浦区长阳路1750号(近临青路)"},{"poiid":"B2094757D06FA1F84199","title":"普陀山海鲜酒店(杨浦店)","lon":"121.53589","lat":"31.27026","category":"76","category_name":"上海菜","address":"杨浦区长阳路1689号(近临青路)"},{"poiid":"B2094757D06FABFC419E","title":"沪东工人文化宫","lon":"121.539871","lat":"31.26578","category":"260","category_name":"其他","address":"杨浦区平凉路1500号"},{"poiid":"B2094757D06FA3F54199","title":"玛格萝妮披萨屋(长阳店)","lon":"121.53761545","lat":"31.2703714628","category":"94","category_name":"西餐厅","address":"杨浦区长阳路1750号欧尚超市1楼(长阳路临青路)"},{"poiid":"B2094757D06FA5F44592","title":"海上大富豪","lon":"121.5346","lat":"31.26956","category":"76","category_name":"上海菜","address":"杨浦区长阳路1673号(近黄兴路)"},{"poiid":"B2094757D068ABFD429E","title":"大家乐","lon":"121.537260103","lat":"31.270840431","category":"68","category_name":"快餐厅","address":"杨浦区长阳路1750号欧尚超市1楼"},{"poiid":"B2094654D56FABFE419B","title":"东宫影剧院","lon":"121.539942","lat":"31.265521","category":"178","category_name":"电影院","address":"上海市杨浦区平凉路1500号一号楼"},{"poiid":"B2094757D06FA0FE4193","title":"侬好蛙干锅传奇 长阳路店","lon":"121.533125","lat":"31.268983","category":"71","category_name":"四川菜","address":"杨浦区长阳路1675-1号(近黄兴路)"},{"poiid":"B2094757D06FA0F9499B","title":"肯德基 KFC (沪东店)","lon":"121.539479","lat":"31.26497","category":"68","category_name":"快餐厅","address":"杨浦区平凉路1500号(近宁国路)"},{"poiid":"B2094655D269ABF84292","title":"沪东工人文化宫影剧院","lon":"121.53975","lat":"31.26507","category":"178","category_name":"电影院","address":"杨浦区平凉路1500号(近平凉公园)"},{"poiid":"B2094757D06FA5F5439E","title":"味千拉面(长阳路店)","lon":"121.53798","lat":"31.27054","category":"95","category_name":"日本料理","address":"上海杨浦区长阳路1750号欧尚超市1楼(近临青路)"},{"poiid":"B2094757D06FA6FF4992","title":"新宋记香辣蟹(长阳路店)","lon":"121.53487","lat":"31.26971","category":"71","category_name":"四川菜","address":"杨浦区长阳路1675号(近临青路)"},{"poiid":"B2094757D068A7FF4699","title":"妮妮饭店 长阳店","lon":"121.53931302899","lat":"31.271594125666","category":"76","category_name":"上海菜","address":"杨浦区长阳路1830号(近双阳路)"},{"poiid":"B2094757D068A5FC4593","title":"平凉路临青路","lon":"121.541382","lat":"31.267353","category":"500","category_name":"未知分类","address":"上海平凉路临青路"},{"poiid":"B2094757D068A3FF4992","title":"阿拉宁波菜(长阳路店)","lon":"121.53525","lat":"31.26989","category":"75","category_name":"浙江菜","address":"杨浦区长阳路1681号(近黄兴路)"},{"poiid":"B2094655D36CA3F4489A","title":"品味食尚","lon":"121.53634","lat":"31.27081","category":"76","category_name":"上海菜","address":"杨浦区长阳路1777号(近临青路)"},{"poiid":"B2094655D26CA6FC409E","title":"天科国际大厦","lon":"121.53907305258","lat":"31.266333142632","category":"46","category_name":"楼宇","address":"平凉路1000号—1090号"},{"poiid":"B2094757D06FABF4459B","title":"红宝石(长阳路店)","lon":"121.536239","lat":"31.270758","category":"67","category_name":"甜品店","address":"杨浦区长阳路1687号(临青路口)"},{"poiid":"B2094654D56FABFD419C","title":"一心斋","lon":"121.53971051833","lat":"31.265739816603","category":"90","category_name":"清真餐馆","address":"杨浦区平凉路1503号(近宁国路)"},{"poiid":"B2094757D06FA7FB489D","title":"85度C(长阳店)","lon":"121.53736","lat":"31.27063","category":"112","category_name":"糕饼店","address":"杨浦区长阳路1750号欧尚超市1楼(近临青路)"},{"poiid":"B2094757D069A1F8409F","title":"海尚佳园","lon":"121.536","lat":"31.268885","category":"500","category_name":"未知分类","address":"上海市杨浦区长阳路1658弄"},{"poiid":"B2094757D068A2FC409A","title":"萨贝莉","lon":"121.53963","lat":"31.26501","category":"94","category_name":"西餐厅","address":"杨浦区平凉路1500号沪东工人文化宫附近"},{"poiid":"B2094654DB64A6FE499E","title":"格林豪泰(上海北外滩店)","lon":"121.53823","lat":"31.27098","category":"216","category_name":"经济型连锁酒店","address":"上海市杨浦区长阳路1800号"},{"poiid":"B2094757D06AA2FF4899","title":"有骨气川香骨头皇火锅","lon":"121.539153","lat":"31.265558","category":"86","category_name":"火锅店","address":"杨浦区平凉路1495号3楼(近宁国路)"},{"poiid":"B2094757D465A3FD469D","title":"小猪头自助火锅烧烤","lon":"121.536239","lat":"31.270758","category":"247","category_name":"餐饮美食","address":"杨浦区长阳路1687号长阳休闲商务广场内(欧尚超市斜对面)"},{"poiid":"B2094654D56FABFF4193","title":"银河经典苑","lon":"121.53738","lat":"31.267967","category":"47","category_name":"住宅区","address":"上海杨浦区临青路555弄"},{"poiid":"B209475DD26FAAF8429B","title":"红树林影院","lon":"121.537322","lat":"31.27041","category":"178","category_name":"电影院","address":"上海市 杨浦区长阳路1750号三楼"},{"poiid":"B2094654D56FABFF419A","title":"锦江之星旅馆杨浦大桥店","lon":"121.539785","lat":"31.266555","category":"216","category_name":"经济型连锁酒店","address":"上海杨浦区临青路333号"},{"poiid":"B2094654DB6BA3F44298","title":"银鹿大厦","lon":"121.53958494736","lat":"31.266938709921","category":"46","category_name":"楼宇","address":"平凉路1128弄"},{"poiid":"B2094654D568A2FD489E","title":"名汇粤菜馆","lon":"121.53621","lat":"31.2713","category":"72","category_name":"广东菜","address":"杨浦区长阳路1717号(近临青路)"},{"poiid":"B209475CD26DA1FA4398","title":"杨浦大桥","lon":"121.538009","lat":"31.269004","category":"500","category_name":"未知分类","address":"上海市 杨浦大桥"},{"poiid":"B2094654D56FABFD4598","title":"邵稼楼 平凉路店","lon":"121.53878688812","lat":"31.264355506043","category":"76","category_name":"上海菜","address":"杨浦区平凉路1488号(近宁国路)"},{"poiid":"B2094757D66BABF9499A","title":"良子香辣龙虾馆","lon":"121.539073054","lat":"31.267652793","category":"68","category_name":"快餐厅","address":"杨浦区临青路285号(近平凉路)"},{"poiid":"B2094655D26AA5FA4298","title":"湘沪一家人 临青路店","lon":"121.540326054","lat":"31.266648793","category":"77","category_name":"湖南菜","address":"杨浦区临青路282号(近长阳路)"},{"poiid":"B2094757DA69A2FC4099","title":"网鱼网咖官方微博","lon":"121.53906792578","lat":"31.265681189191","category":"248","category_name":"生活娱乐","address":"杨浦区平凉路1495号4楼(沪东工人文化宫对面)"},{"poiid":"B2094757D064A7FD449B","title":"德雅朱老庄","lon":"121.54094696","lat":"31.269115448","category":"247","category_name":"餐饮美食","address":"杨浦区长阳路1687号(近黄兴路)"},{"poiid":"B2094654D568A2FD4892","title":"华晶宾馆","lon":"121.53611","lat":"31.27071","category":"214","category_name":"四星级宾馆","address":"杨浦区长阳路1687号(近临青路)"},{"poiid":"B2094654D56FABFF419B","title":"上海海滨门诊部","lon":"121.53822","lat":"31.26799","category":"162","category_name":"医院","address":"杨浦区临青路515-531号"},{"poiid":"B2094757D16BAAFC4599","title":"欧尚中国区总部","lon":"121.537012103","lat":"31.2685873839","category":"500","category_name":"未知分类","address":"上海市杨浦区龙口路165号6楼"},{"poiid":"B2094753D76AA5F84299","title":"鼎中鼎澳门豆捞(长阳路店)","lon":"121.53709","lat":"31.27035","category":"86","category_name":"火锅店","address":"上海市杨浦区长阳路1750号3楼(近临青路)"},{"poiid":"B2094757D66CA7FF499D","title":"心联美容美发","lon":"121.539098103","lat":"31.2695937049","category":"148","category_name":"美容美发店","address":"浦东新区栖山路1050号(近德平路)"},{"poiid":"B2094757D665ABFD4599","title":"良子特色烧烤馆","lon":"121.54031","lat":"31.26611","category":"68","category_name":"快餐厅","address":"杨浦区临青路283号(近平凉路)"},{"poiid":"B2094757D069A3FC4993","title":"长阳路临青路","lon":"121.538099","lat":"31.271256","category":"500","category_name":"未知分类","address":"上海长阳路临青路"},{"poiid":"B2094654D568A2FF469F","title":"引翔港小区","lon":"121.53943","lat":"31.27259","category":"47","category_name":"住宅区","address":"上海市杨浦区长阳路1969弄"},{"poiid":"B2094757D16DA3F84293","title":"满堂福净素馆","lon":"121.53692","lat":"31.27056","category":"89","category_name":"中式素餐馆","address":"杨浦区长阳路1843号(近双阳路)"},{"poiid":"B2094753D76CA4FB419F","title":"新石器烤肉","lon":"121.537055","lat":"31.269763","category":"500","category_name":"未知分类","address":"上海市 长阳路欧尚3楼"},{"poiid":"B2094654DB69A5F4469C","title":"必胜宅急送 长阳路店 Pizza Hut","lon":"121.535771054","lat":"31.270995793","category":"94","category_name":"西餐厅","address":"杨浦区长阳路1750号欧尚超市1楼(近临青路)"},{"poiid":"B209475CD16CA4F94693","title":"麦当劳 长阳路店","lon":"121.53708","lat":"31.27019","category":"68","category_name":"快餐厅","address":"长阳路1750号欧尚超市内(近龙口路)"},{"poiid":"B2094654DB6BA2F4479A","title":"浦罡小区","lon":"121.5365","lat":"31.271664","category":"47","category_name":"住宅区","address":"上海长阳路1841弄"},{"poiid":"B2094654D56FA4FB409C","title":"正宗重庆麻辣烫(临青路)","lon":"121.53652","lat":"31.27025","category":"68","category_name":"快餐厅","address":"杨浦区临青路669号(近长阳路)"},{"poiid":"B2094757D06EAAFC4899","title":"欧尚(长阳店)","lon":"121.53784281","lat":"31.270000386","category":"118","category_name":"超级市场","address":"杨浦区长阳路1750号(近临青路)"},{"poiid":"B2094757D06FA1F84199","title":"普陀山海鲜酒店(杨浦店)","lon":"121.53589","lat":"31.27026","category":"76","category_name":"上海菜","address":"杨浦区长阳路1689号(近临青路)"},{"poiid":"B2094757D06FABFC419E","title":"沪东工人文化宫","lon":"121.539871","lat":"31.26578","category":"260","category_name":"其他","address":"杨浦区平凉路1500号"},{"poiid":"B2094757D06FA3F54199","title":"玛格萝妮披萨屋(长阳店)","lon":"121.53761545","lat":"31.2703714628","category":"94","category_name":"西餐厅","address":"杨浦区长阳路1750号欧尚超市1楼(长阳路临青路)"},{"poiid":"B2094757D06FA5F44592","title":"海上大富豪","lon":"121.5346","lat":"31.26956","category":"76","category_name":"上海菜","address":"杨浦区长阳路1673号(近黄兴路)"},{"poiid":"B2094757D068ABFD429E","title":"大家乐","lon":"121.537260103","lat":"31.270840431","category":"68","category_name":"快餐厅","address":"杨浦区长阳路1750号欧尚超市1楼"},{"poiid":"B2094654D56FABFE419B","title":"东宫影剧院","lon":"121.539942","lat":"31.265521","category":"178","category_name":"电影院","address":"上海市杨浦区平凉路1500号一号楼"},{"poiid":"B2094757D06FA0FE4193","title":"侬好蛙干锅传奇 长阳路店","lon":"121.533125","lat":"31.268983","category":"71","category_name":"四川菜","address":"杨浦区长阳路1675-1号(近黄兴路)"},{"poiid":"B2094757D06FA0F9499B","title":"肯德基 KFC (沪东店)","lon":"121.539479","lat":"31.26497","category":"68","category_name":"快餐厅","address":"杨浦区平凉路1500号(近宁国路)"},{"poiid":"B2094655D269ABF84292","title":"沪东工人文化宫影剧院","lon":"121.53975","lat":"31.26507","category":"178","category_name":"电影院","address":"杨浦区平凉路1500号(近平凉公园)"},{"poiid":"B2094757D06FA5F5439E","title":"味千拉面(长阳路店)","lon":"121.53798","lat":"31.27054","category":"95","category_name":"日本料理","address":"上海杨浦区长阳路1750号欧尚超市1楼(近临青路)"},{"poiid":"B2094757D06FA6FF4992","title":"新宋记香辣蟹(长阳路店)","lon":"121.53487","lat":"31.26971","category":"71","category_name":"四川菜","address":"杨浦区长阳路1675号(近临青路)"},{"poiid":"B2094757D068A7FF4699","title":"妮妮饭店 长阳店","lon":"121.53931302899","lat":"31.271594125666","category":"76","category_name":"上海菜","address":"杨浦区长阳路1830号(近双阳路)"},{"poiid":"B2094757D068A5FC4593","title":"平凉路临青路","lon":"121.541382","lat":"31.267353","category":"500","category_name":"未知分类","address":"上海平凉路临青路"},{"poiid":"B2094757D068A3FF4992","title":"阿拉宁波菜(长阳路店)","lon":"121.53525","lat":"31.26989","category":"75","category_name":"浙江菜","address":"杨浦区长阳路1681号(近黄兴路)"},{"poiid":"B2094655D36CA3F4489A","title":"品味食尚","lon":"121.53634","lat":"31.27081","category":"76","category_name":"上海菜","address":"杨浦区长阳路1777号(近临青路)"},{"poiid":"B2094655D26CA6FC409E","title":"天科国际大厦","lon":"121.53907305258","lat":"31.266333142632","category":"46","category_name":"楼宇","address":"平凉路1000号—1090号"},{"poiid":"B2094757D06FABF4459B","title":"红宝石(长阳路店)","lon":"121.536239","lat":"31.270758","category":"67","category_name":"甜品店","address":"杨浦区长阳路1687号(临青路口)"},{"poiid":"B2094654D56FABFD419C","title":"一心斋","lon":"121.53971051833","lat":"31.265739816603","category":"90","category_name":"清真餐馆","address":"杨浦区平凉路1503号(近宁国路)"},{"poiid":"B2094757D06FA7FB489D","title":"85度C(长阳店)","lon":"121.53736","lat":"31.27063","category":"112","category_name":"糕饼店","address":"杨浦区长阳路1750号欧尚超市1楼(近临青路)"},{"poiid":"B2094757D069A1F8409F","title":"海尚佳园","lon":"121.536","lat":"31.268885","category":"500","category_name":"未知分类","address":"上海市杨浦区长阳路1658弄"},{"poiid":"B2094757D068A2FC409A","title":"萨贝莉","lon":"121.53963","lat":"31.26501","category":"94","category_name":"西餐厅","address":"杨浦区平凉路1500号沪东工人文化宫附近"},{"poiid":"B2094654DB64A6FE499E","title":"格林豪泰(上海北外滩店)","lon":"121.53823","lat":"31.27098","category":"216","category_name":"经济型连锁酒店","address":"上海市杨浦区长阳路1800号"},{"poiid":"B2094757D06AA2FF4899","title":"有骨气川香骨头皇火锅","lon":"121.539153","lat":"31.265558","category":"86","category_name":"火锅店","address":"杨浦区平凉路1495号3楼(近宁国路)"},{"poiid":"B2094757D465A3FD469D","title":"小猪头自助火锅烧烤","lon":"121.536239","lat":"31.270758","category":"247","category_name":"餐饮美食","address":"杨浦区长阳路1687号长阳休闲商务广场内(欧尚超市斜对面)"},{"poiid":"B2094654D56FABFF4193","title":"银河经典苑","lon":"121.53738","lat":"31.267967","category":"47","category_name":"住宅区","address":"上海杨浦区临青路555弄"},{"poiid":"B209475DD26FAAF8429B","title":"红树林影院","lon":"121.537322","lat":"31.27041","category":"178","category_name":"电影院","address":"上海市 杨浦区长阳路1750号三楼"},{"poiid":"B2094654D56FABFF419A","title":"锦江之星旅馆杨浦大桥店","lon":"121.539785","lat":"31.266555","category":"216","category_name":"经济型连锁酒店","address":"上海杨浦区临青路333号"},{"poiid":"B2094654DB6BA3F44298","title":"银鹿大厦","lon":"121.53958494736","lat":"31.266938709921","category":"46","category_name":"楼宇","address":"平凉路1128弄"},{"poiid":"B2094654D568A2FD489E","title":"名汇粤菜馆","lon":"121.53621","lat":"31.2713","category":"72","category_name":"广东菜","address":"杨浦区长阳路1717号(近临青路)"},{"poiid":"B209475CD26DA1FA4398","title":"杨浦大桥","lon":"121.538009","lat":"31.269004","category":"500","category_name":"未知分类","address":"上海市 杨浦大桥"},{"poiid":"B2094654D56FABFD4598","title":"邵稼楼 平凉路店","lon":"121.53878688812","lat":"31.264355506043","category":"76","category_name":"上海菜","address":"杨浦区平凉路1488号(近宁国路)"},{"poiid":"B2094757D66BABF9499A","title":"良子香辣龙虾馆","lon":"121.539073054","lat":"31.267652793","category":"68","category_name":"快餐厅","address":"杨浦区临青路285号(近平凉路)"},{"poiid":"B2094655D26AA5FA4298","title":"湘沪一家人 临青路店","lon":"121.540326054","lat":"31.266648793","category":"77","category_name":"湖南菜","address":"杨浦区临青路282号(近长阳路)"},{"poiid":"B2094757DA69A2FC4099","title":"网鱼网咖官方微博","lon":"121.53906792578","lat":"31.265681189191","category":"248","category_name":"生活娱乐","address":"杨浦区平凉路1495号4楼(沪东工人文化宫对面)"},{"poiid":"B2094757D064A7FD449B","title":"德雅朱老庄","lon":"121.54094696","lat":"31.269115448","category":"247","category_name":"餐饮美食","address":"杨浦区长阳路1687号(近黄兴路)"},{"poiid":"B2094654D568A2FD4892","title":"华晶宾馆","lon":"121.53611","lat":"31.27071","category":"214","category_name":"四星级宾馆","address":"杨浦区长阳路1687号(近临青路)"},{"poiid":"B2094654D56FABFF419B","title":"上海海滨门诊部","lon":"121.53822","lat":"31.26799","category":"162","category_name":"医院","address":"杨浦区临青路515-531号"},{"poiid":"B2094757D16BAAFC4599","title":"欧尚中国区总部","lon":"121.537012103","lat":"31.2685873839","category":"500","category_name":"未知分类","address":"上海市杨浦区龙口路165号6楼"},{"poiid":"B2094753D76AA5F84299","title":"鼎中鼎澳门豆捞(长阳路店)","lon":"121.53709","lat":"31.27035","category":"86","category_name":"火锅店","address":"上海市杨浦区长阳路1750号3楼(近临青路)"},{"poiid":"B2094757D66CA7FF499D","title":"心联美容美发","lon":"121.539098103","lat":"31.2695937049","category":"148","category_name":"美容美发店","address":"浦东新区栖山路1050号(近德平路)"},{"poiid":"B2094757D665ABFD4599","title":"良子特色烧烤馆","lon":"121.54031","lat":"31.26611","category":"68","category_name":"快餐厅","address":"杨浦区临青路283号(近平凉路)"},{"poiid":"B2094757D069A3FC4993","title":"长阳路临青路","lon":"121.538099","lat":"31.271256","category":"500","category_name":"未知分类","address":"上海长阳路临青路"},{"poiid":"B2094654D568A2FF469F","title":"引翔港小区","lon":"121.53943","lat":"31.27259","category":"47","category_name":"住宅区","address":"上海市杨浦区长阳路1969弄"},{"poiid":"B2094757D16DA3F84293","title":"满堂福净素馆","lon":"121.53692","lat":"31.27056","category":"89","category_name":"中式素餐馆","address":"杨浦区长阳路1843号(近双阳路)"},{"poiid":"B2094753D76CA4FB419F","title":"新石器烤肉","lon":"121.537055","lat":"31.269763","category":"500","category_name":"未知分类","address":"上海市 长阳路欧尚3楼"},{"poiid":"B2094654DB69A5F4469C","title":"必胜宅急送 长阳路店 Pizza Hut","lon":"121.535771054","lat":"31.270995793","category":"94","category_name":"西餐厅","address":"杨浦区长阳路1750号欧尚超市1楼(近临青路)"},{"poiid":"B209475CD16CA4F94693","title":"麦当劳 长阳路店","lon":"121.53708","lat":"31.27019","category":"68","category_name":"快餐厅","address":"长阳路1750号欧尚超市内(近龙口路)"},{"poiid":"B2094654DB6BA2F4479A","title":"浦罡小区","lon":"121.5365","lat":"31.271664","category":"47","category_name":"住宅区","address":"上海长阳路1841弄"},{"poiid":"B2094654D56FA4FB409C","title":"正宗重庆麻辣烫(临青路)","lon":"121.53652","lat":"31.27025","category":"68","category_name":"快餐厅","address":"杨浦区临青路669号(近长阳路)"}]